{"last_updated":1731687155,"ttl":60,"version":"2.2","data":{"bikes":[{"bike_id":"b0461ab5-5542-4ac3-8819-d91d56d9516e","system_id":"levelo_inurba_marseille","lat":43.29947,"lon":5.36523,"is_reserved":false,"is_disabled":false,"rental_uris":{"android":"levelo://app?vid=b0461ab5-5542-4ac3-8819-d91d56d9516e","ios":"levelo://app?vid=b0461ab5-5542-4ac3-8819-d91d56d9516e"},"vehicle_type_id":"4","last_reported":1731687155,"current_range_meters":34000,"station_id":"ce4bgm92rcd13ifvqbr0","pricing_plan_id":"cebpf4jnsgd1na2vs0mg"},{"bike_id":"0a7c1e08-cf46-43e1-bed0-fe14dad632ba","system_id":"levelo_inurba_marseille","lat":43.30117,"lon":5.39858,"is_reserved":false,"is_disabled":false,"rental_uris":{"android":"levelo://app?vid=0a7c1e08-cf46-43e1-bed0-fe14dad632ba","ios":"levelo://app?vid=0a7c1e08-cf46-43e1-bed0-fe14dad632ba"},"vehicle_type_id":"4","last_reported":1731687155,"current_range_meters":19600,"station_id":"ce4bh0h2rcd13ifvqd40","pricing_plan_id":"cebpf4jnsgd1na2vs0mg"},{"bike_id":"e352a8c4-3e87-44a8-ae60-d0ce25009ef3","system_id":"levelo_inurba_marseille","lat":43.31087,"lon":5.42432,"is_reserved":false,"is_disabled":false,"rental_uris":{"android":"levelo://app?vid=e352a8c4-3e87-44a8-ae60-d0ce25009ef3","ios":"levelo://app?vid=e352a8c4-3e87-44a8-ae60-d0ce25009ef3"},"vehicle_type_id":"4","last_reported":1731687155,"current_range_meters":23200,"station_id":"ce4bhp92rcd13ifvqhag","pricing_plan_id":"cebpf4jnsgd1na2vs0mg"},{"bike_id":"5856ad94-bc0e-4f57-993d-864d7234767f","system_id":"levelo_inurba_marseille","lat":43.33763,"lon":5.37483,"is_reserved":false,"is_disabled":false,"rental_uris":{"android":"levelo://app?vid=5856ad94-bc0e-4f57-993d-864d7234767f","ios":"levelo://app?vid=5856ad94-bc0e-4f57-993d-864d7234767f"},"vehicle_type_id":"4","last_reported":1731687155,"current_range_meters":36800,"station_id":"","pricing_plan_id":"cebpf4jnsgd1na2vs0mg"},{"bike_id":"e2182448-5403-4d13-9ed0-95420eadbbaf","system_id":"levelo_inurba_marseille","lat":43.31327,"lon":5.39706,"is_reserved":false,"is_disabled":false,"rental_uris":{"android":"levelo://app?vid=e2182448-5403-4d13-9ed0-95420eadbbaf","ios":"levelo://app?vid=e2182448-5403-4d13-9ed0-95420eadbbaf"},"vehicle_type_id":"4","last_reported":1731687155,"current_range_meters":25200,"station_id":"ce4bgvp2rcd13ifvqcu0","pricing_plan_id":"cebpf4jnsgd1na2vs0mg"},{"bike_id":"aa1a5ada-34e5-4ee8-8d26-1c510285f33e","system_id":"levelo_inurba_marseille","lat":43.26211,"lon":5.37441,"is_reserved":false,"is_disabled":false,"rental_uris":{"android":"levelo://app?vid=aa1a5ada-34e5-4ee8-8d26-1c510285f33e","ios":"levelo://app?vid=aa1a5ada-34e5-4ee8-8d26-1c510285f33e"},"vehicle_type_id":"4","last_reported":1731687155,"current_range_meters":33600,"station_id":"ce4bhgp2rcd13ifvqfc0","pricing_plan_id":"cebpf4jnsgd1na2vs0mg"},{"bike_id":"cfb9ee8b-28a4-4b59-bd2f-c02d7a2098b7","system_id":"levelo_inurba_marseille","lat":43.28103,"lon":5.37836,"is_reserved":false,"is_disabled":false,"rental_uris":{"android":"levelo://app?vid=cfb9ee8b-28a4-4b59-bd2f-c02d7a2098b7","ios":"levelo://app?vid=cfb9ee8b-28a4-4b59-bd2f-c02d7a2098b7"},"vehicle_type_id":"4","last_reported":1731687155,"current_range_meters":28000,"station_id":"ce4bha12rcd13ifvqee0","pricing_plan_id":"cebpf4jnsgd1na2vs0mg"},{"bike_id":"1e6a578a-1abc-4f08-b48d-592353c70f7b","system_id":"levelo_inurba_marseille","lat":43.290283,"lon":5.386561,"is_reserved":false,"is_disabled":false,"rental_uris":{"android":"levelo://app?vid=1e6a578a-1abc-4f08-b48d-592353c70f7b","ios":"levelo://app?vid=1e6a578a-1abc-4f08-b48d-592353c70f7b"},"vehicle_type_id":"4","last_reported":1731687155,"current_range_meters":18800,"station_id":"ce4bgvp2rcd13ifvqcu0","pricing_plan_id":"cebpf4jnsgd1na2vs0mg"},{"bike_id":"6897c793-ba6d-4b62-9bc1-d29da293f968","system_id":"levelo_inurba_marseille","lat":43.31226,"lon":5.36849,"is_reserved":false,"is_disabled":false,"rental_uris":{"android":"levelo://app?vid=6897c793-ba6d-4b62-9bc1-d29da293f968","ios":"levelo://app?vid=6897c793-ba6d-4b62-9bc1-d29da293f968"},"vehicle_type_id":"4","last_reported":1731687155,"current_range_meters":38800,"station_id":"ce4bgl92rcd13ifvqbq0","pricing_plan_id":"cebpf4jnsgd1na2vs0mg"},{"bike_id":"67374101-d99b-4b8f-b590-c1ffc28c319b","system_id":"levelo_inurba_marseille","lat":43.28704,"lon":5.37396,"is_reserved":false,"is_disabled":false,"rental_uris":{"android":"levelo://app?vid=67374101-d99b-4b8f-b590-c1ffc28c319b","ios":"levelo://app?vid=67374101-d99b-4b8f-b590-c1ffc28c319b"},"vehicle_type_id":"4","last_reported":1731687155,"current_range_meters":35200,"station_id":"ce4bh3p2rcd13ifvqdq0","pricing_plan_id":"cebpf4jnsgd1na2vs0mg"},{"bike_id":"35c0712c-792f-4801-b5f2-98458316d61c","system_id":"levelo_inurba_marseille","lat":43.31073,"lon":5.3835,"is_reserved":false,"is_disabled":false,"rental_uris":{"android":"levelo://app?vid=35c0712c-792f-4801-b5f2-98458316d61c","ios":"levelo://app?vid=35c0712c-792f-4801-b5f2-98458316d61c"},"vehicle_type_id":"4","last_reported":1731687155,"current_range_meters":14800,"station_id":"ce4bgv92rcd13ifvqcr0","pricing_plan_id":"cebpf4jnsgd1na2vs0mg"},{"bike_id":"2b5b4574-5d43-4c03-98f1-a97ed0d2f818","system_id":"levelo_inurba_marseille","lat":43.27372,"lon":5.36258,"is_reserved":false,"is_disabled":false,"rental_uris":{"android":"levelo://app?vid=2b5b4574-5d43-4c03-98f1-a97ed0d2f818","ios":"levelo://app?vid=2b5b4574-5d43-4c03-98f1-a97ed0d2f818"},"vehicle_type_id":"4","last_reported":1731687155,"current_range_meters":38800,"station_id":"ce4bhbh2rcd13ifvqeo0","pricing_plan_id":"cebpf4jnsgd1na2vs0mg"},{"bike_id":"a0721954-1a3f-425b-87d5-e4463e7bd4d1","system_id":"levelo_inurba_marseille","lat":43.31329,"lon":5.39698,"is_reserved":false,"is_disabled":false,"rental_uris":{"android":"levelo://app?vid=a0721954-1a3f-425b-87d5-e4463e7bd4d1","ios":"levelo://app?vid=a0721954-1a3f-425b-87d5-e4463e7bd4d1"},"vehicle_type_id":"4","last_reported":1731687155,"current_range_meters":39200,"station_id":"ce4bgvp2rcd13ifvqcu0","pricing_plan_id":"cebpf4jnsgd1na2vs0mg"},{"bike_id":"6b0ea79e-cb12-4a50-9845-e4686b3cacc8","system_id":"levelo_inurba_marseille","lat":43.295751,"lon":5.399791,"is_reserved":false,"is_disabled":false,"rental_uris":{"android":"levelo://app?vid=6b0ea79e-cb12-4a50-9845-e4686b3cacc8","ios":"levelo://app?vid=6b0ea79e-cb12-4a50-9845-e4686b3cacc8"},"vehicle_type_id":"4","last_reported":1731687155,"current_range_meters":18000,"station_id":"","pricing_plan_id":"cebpf4jnsgd1na2vs0mg"},{"bike_id":"70b518e6-4a45-4b7d-9a36-2198db2beb8d","system_id":"levelo_inurba_marseille","lat":43.29201,"lon":5.39321,"is_reserved":false,"is_disabled":false,"rental_uris":{"android":"levelo://app?vid=70b518e6-4a45-4b7d-9a36-2198db2beb8d","ios":"levelo://app?vid=70b518e6-4a45-4b7d-9a36-2198db2beb8d"},"vehicle_type_id":"4","last_reported":1731687155,"current_range_meters":38000,"station_id":"ce4bh192rcd13ifvqdd0","pricing_plan_id":"cebpf4jnsgd1na2vs0mg"},{"bike_id":"4a74f469-1d99-48ee-a8ca-9199898c00a4","system_id":"levelo_inurba_marseille","lat":43.23197,"lon":5.35547,"is_reserved":false,"is_disabled":false,"rental_uris":{"android":"levelo://app?vid=4a74f469-1d99-48ee-a8ca-9199898c00a4","ios":"levelo://app?vid=4a74f469-1d99-48ee-a8ca-9199898c00a4"},"vehicle_type_id":"4","last_reported":1731687155,"current_range_meters":14400,"station_id":"ce4bhu92rcd13ifvqi70","pricing_plan_id":"cebpf4jnsgd1na2vs0mg"},{"bike_id":"9bb68740-246a-4495-bcbf-b6f68fa55c22","system_id":"levelo_inurba_marseille","lat":43.29789,"lon":5.39343,"is_reserved":false,"is_disabled":false,"rental_uris":{"android":"levelo://app?vid=9bb68740-246a-4495-bcbf-b6f68fa55c22","ios":"levelo://app?vid=9bb68740-246a-4495-bcbf-b6f68fa55c22"},"vehicle_type_id":"4","last_reported":1731687155,"current_range_meters":8000,"station_id":"chh1huq6cuj3fo74tm60","pricing_plan_id":"cebpf4jnsgd1na2vs0mg"},{"bike_id":"b0be97e7-2204-43ad-b2fd-bef567bdff2a","system_id":"levelo_inurba_marseille","lat":43.29513,"lon":5.39408,"is_reserved":false,"is_disabled":false,"rental_uris":{"android":"levelo://app?vid=b0be97e7-2204-43ad-b2fd-bef567bdff2a","ios":"levelo://app?vid=b0be97e7-2204-43ad-b2fd-bef567bdff2a"},"vehicle_type_id":"4","last_reported":1731687155,"current_range_meters":26000,"station_id":"ce4bh292rcd13ifvqdf0","pricing_plan_id":"cebpf4jnsgd1na2vs0mg"},{"bike_id":"78262b1f-f22d-41f8-b456-a571991b0ccf","system_id":"levelo_inurba_marseille","lat":43.25585,"lon":5.38231,"is_reserved":false,"is_disabled":false,"rental_uris":{"android":"levelo://app?vid=78262b1f-f22d-41f8-b456-a571991b0ccf","ios":"levelo://app?vid=78262b1f-f22d-41f8-b456-a571991b0ccf"},"vehicle_type_id":"4","last_reported":1731687155,"current_range_meters":7200,"station_id":"ce4bhih2rcd13ifvqfs0","pricing_plan_id":"cebpf4jnsgd1na2vs0mg"},{"bike_id":"723aa686-ca5d-4bc0-851a-786e9756d47c","system_id":"levelo_inurba_marseille","lat":43.30794,"lon":5.3817,"is_reserved":false,"is_disabled":false,"rental_uris":{"android":"levelo://app?vid=723aa686-ca5d-4bc0-851a-786e9756d47c","ios":"levelo://app?vid=723aa686-ca5d-4bc0-851a-786e9756d47c"},"vehicle_type_id":"4","last_reported":1731687155,"current_range_meters":25200,"station_id":"ce4bgt12rcd13ifvqce0","pricing_plan_id":"cebpf4jnsgd1na2vs0mg"},{"bike_id":"dca415e1-3cc2-444c-bcc1-7ce6aedb9739","system_id":"levelo_inurba_marseille","lat":43.24164,"lon":5.36396,"is_reserved":false,"is_disabled":false,"rental_uris":{"android":"levelo://app?vid=dca415e1-3cc2-444c-bcc1-7ce6aedb9739","ios":"levelo://app?vid=dca415e1-3cc2-444c-bcc1-7ce6aedb9739"},"vehicle_type_id":"4","last_reported":1731687155,"current_range_meters":16800,"station_id":"cpo36qri1sfpv3e86is0","pricing_plan_id":"cebpf4jnsgd1na2vs0mg"},{"bike_id":"c8cba179-3cf0-42e2-993a-845728c427ad","system_id":"levelo_inurba_marseille","lat":43.25721,"lon":5.41116,"is_reserved":false,"is_disabled":false,"rental_uris":{"android":"levelo://app?vid=c8cba179-3cf0-42e2-993a-845728c427ad","ios":"levelo://app?vid=c8cba179-3cf0-42e2-993a-845728c427ad"},"vehicle_type_id":"4","last_reported":1731687155,"current_range_meters":5600,"station_id":"ce4bhkp2rcd13ifvqgd0","pricing_plan_id":"cebpf4jnsgd1na2vs0mg"},{"bike_id":"ec0d03c6-40e1-4005-a8c8-29fe92726187","system_id":"levelo_inurba_marseille","lat":43.29615,"lon":5.38109,"is_reserved":false,"is_disabled":false,"rental_uris":{"android":"levelo://app?vid=ec0d03c6-40e1-4005-a8c8-29fe92726187","ios":"levelo://app?vid=ec0d03c6-40e1-4005-a8c8-29fe92726187"},"vehicle_type_id":"4","last_reported":1731687155,"current_range_meters":16000,"station_id":"ce4bgl12rcd13ifvqbo0","pricing_plan_id":"cebpf4jnsgd1na2vs0mg"},{"bike_id":"00f7d1f4-ab3c-4240-ba90-c1c8d0b56d78","system_id":"levelo_inurba_marseille","lat":43.2737,"lon":5.36262,"is_reserved":false,"is_disabled":false,"rental_uris":{"android":"levelo://app?vid=00f7d1f4-ab3c-4240-ba90-c1c8d0b56d78","ios":"levelo://app?vid=00f7d1f4-ab3c-4240-ba90-c1c8d0b56d78"},"vehicle_type_id":"4","last_reported":1731687155,"current_range_meters":26800,"station_id":"ce4bhbh2rcd13ifvqeo0","pricing_plan_id":"cebpf4jnsgd1na2vs0mg"},{"bike_id":"631284bc-ca79-4566-a19e-c81968ea3fef","system_id":"levelo_inurba_marseille","lat":43.2669,"lon":5.38279,"is_reserved":false,"is_disabled":false,"rental_uris":{"android":"levelo://app?vid=631284bc-ca79-4566-a19e-c81968ea3fef","ios":"levelo://app?vid=631284bc-ca79-4566-a19e-c81968ea3fef"},"vehicle_type_id":"4","last_reported":1731687155,"current_range_meters":28800,"station_id":"ce4bhg92rcd13ifvqf90","pricing_plan_id":"cebpf4jnsgd1na2vs0mg"},{"bike_id":"8ce9d1a6-97af-4f60-ad0e-4f6ab367ba8c","system_id":"levelo_inurba_marseille","lat":43.3133,"lon":5.39707,"is_reserved":false,"is_disabled":false,"rental_uris":{"android":"levelo://app?vid=8ce9d1a6-97af-4f60-ad0e-4f6ab367ba8c","ios":"levelo://app?vid=8ce9d1a6-97af-4f60-ad0e-4f6ab367ba8c"},"vehicle_type_id":"4","last_reported":1731687155,"current_range_meters":28800,"station_id":"ce4bgvp2rcd13ifvqcu0","pricing_plan_id":"cebpf4jnsgd1na2vs0mg"},{"bike_id":"384320fd-3a39-425b-bd0a-6377ed9fa574","system_id":"levelo_inurba_marseille","lat":43.29579,"lon":5.367527,"is_reserved":false,"is_disabled":false,"rental_uris":{"android":"levelo://app?vid=384320fd-3a39-425b-bd0a-6377ed9fa574","ios":"levelo://app?vid=384320fd-3a39-425b-bd0a-6377ed9fa574"},"vehicle_type_id":"4","last_reported":1731687155,"current_range_meters":28400,"station_id":"ce4bgph2rcd13ifvqc2g","pricing_plan_id":"cebpf4jnsgd1na2vs0mg"},{"bike_id":"97c105ed-3beb-4d02-a12a-133a780a33c3","system_id":"levelo_inurba_marseille","lat":43.2811,"lon":5.37836,"is_reserved":false,"is_disabled":false,"rental_uris":{"android":"levelo://app?vid=97c105ed-3beb-4d02-a12a-133a780a33c3","ios":"levelo://app?vid=97c105ed-3beb-4d02-a12a-133a780a33c3"},"vehicle_type_id":"4","last_reported":1731687155,"current_range_meters":10000,"station_id":"ce4bha12rcd13ifvqee0","pricing_plan_id":"cebpf4jnsgd1na2vs0mg"},{"bike_id":"93ebab0a-b53f-428d-b33b-fe1b830f1938","system_id":"levelo_inurba_marseille","lat":43.2318,"lon":5.39986,"is_reserved":false,"is_disabled":false,"rental_uris":{"android":"levelo://app?vid=93ebab0a-b53f-428d-b33b-fe1b830f1938","ios":"levelo://app?vid=93ebab0a-b53f-428d-b33b-fe1b830f1938"},"vehicle_type_id":"4","last_reported":1731687155,"current_range_meters":26800,"station_id":"ce4bhn12rcd13ifvqgqg","pricing_plan_id":"cebpf4jnsgd1na2vs0mg"},{"bike_id":"e229226f-5c35-4352-8909-818c0580333b","system_id":"levelo_inurba_marseille","lat":43.26061,"lon":5.39399,"is_reserved":false,"is_disabled":false,"rental_uris":{"android":"levelo://app?vid=e229226f-5c35-4352-8909-818c0580333b","ios":"levelo://app?vid=e229226f-5c35-4352-8909-818c0580333b"},"vehicle_type_id":"4","last_reported":1731687155,"current_range_meters":37600,"station_id":"ce4bhh92rcd13ifvqfj0","pricing_plan_id":"cebpf4jnsgd1na2vs0mg"},{"bike_id":"baa9931e-76ff-42d4-8f76-8910cf7998e7","system_id":"levelo_inurba_marseille","lat":43.29528,"lon":5.38542,"is_reserved":false,"is_disabled":false,"rental_uris":{"android":"levelo://app?vid=baa9931e-76ff-42d4-8f76-8910cf7998e7","ios":"levelo://app?vid=baa9931e-76ff-42d4-8f76-8910cf7998e7"},"vehicle_type_id":"4","last_reported":1731687155,"current_range_meters":26800,"station_id":"ce4bgih2rcd13ifvqba0","pricing_plan_id":"cebpf4jnsgd1na2vs0mg"},{"bike_id":"c6004910-0375-4b4e-afa3-1d5f1f5b4002","system_id":"levelo_inurba_marseille","lat":43.28402,"lon":5.34991,"is_reserved":false,"is_disabled":false,"rental_uris":{"android":"levelo://app?vid=c6004910-0375-4b4e-afa3-1d5f1f5b4002","ios":"levelo://app?vid=c6004910-0375-4b4e-afa3-1d5f1f5b4002"},"vehicle_type_id":"4","last_reported":1731687155,"current_range_meters":26000,"station_id":"ce4bhbh2rcd13ifvqepg","pricing_plan_id":"cebpf4jnsgd1na2vs0mg"},{"bike_id":"e7199012-0e98-477a-9b13-bc9e31fe3c00","system_id":"levelo_inurba_marseille","lat":43.29257,"lon":5.40905,"is_reserved":false,"is_disabled":false,"rental_uris":{"android":"levelo://app?vid=e7199012-0e98-477a-9b13-bc9e31fe3c00","ios":"levelo://app?vid=e7199012-0e98-477a-9b13-bc9e31fe3c00"},"vehicle_type_id":"4","last_reported":1731687155,"current_range_meters":27600,"station_id":"ce4bh192rcd13ifvqdc0","pricing_plan_id":"cebpf4jnsgd1na2vs0mg"},{"bike_id":"6b8eba9e-251e-401f-9b82-4a96d08ef40f","system_id":"levelo_inurba_marseille","lat":43.33015,"lon":5.39043,"is_reserved":false,"is_disabled":false,"rental_uris":{"android":"levelo://app?vid=6b8eba9e-251e-401f-9b82-4a96d08ef40f","ios":"levelo://app?vid=6b8eba9e-251e-401f-9b82-4a96d08ef40f"},"vehicle_type_id":"4","last_reported":1731687155,"current_range_meters":23200,"station_id":"ce4bhr92rcd13ifvqhrg","pricing_plan_id":"cebpf4jnsgd1na2vs0mg"},{"bike_id":"e6017de4-0822-4cca-984b-d1bf7187f5ca","system_id":"levelo_inurba_marseille","lat":43.28617,"lon":5.35105,"is_reserved":false,"is_disabled":false,"rental_uris":{"android":"levelo://app?vid=e6017de4-0822-4cca-984b-d1bf7187f5ca","ios":"levelo://app?vid=e6017de4-0822-4cca-984b-d1bf7187f5ca"},"vehicle_type_id":"4","last_reported":1731687155,"current_range_meters":6800,"station_id":"ce4bhch2rcd13ifvqeug","pricing_plan_id":"cebpf4jnsgd1na2vs0mg"},{"bike_id":"c974cc8b-299b-4d52-81c8-4e50a91b9225","system_id":"levelo_inurba_marseille","lat":43.33745,"lon":5.37487,"is_reserved":false,"is_disabled":false,"rental_uris":{"android":"levelo://app?vid=c974cc8b-299b-4d52-81c8-4e50a91b9225","ios":"levelo://app?vid=c974cc8b-299b-4d52-81c8-4e50a91b9225"},"vehicle_type_id":"4","last_reported":1731687155,"current_range_meters":38400,"station_id":"","pricing_plan_id":"cebpf4jnsgd1na2vs0mg"},{"bike_id":"f86a601e-26e3-440e-a7e5-894f75bad9f4","system_id":"levelo_inurba_marseille","lat":43.337444,"lon":5.374475,"is_reserved":false,"is_disabled":false,"rental_uris":{"android":"levelo://app?vid=f86a601e-26e3-440e-a7e5-894f75bad9f4","ios":"levelo://app?vid=f86a601e-26e3-440e-a7e5-894f75bad9f4"},"vehicle_type_id":"4","last_reported":1731687155,"current_range_meters":22800,"station_id":"","pricing_plan_id":"cebpf4jnsgd1na2vs0mg"},{"bike_id":"1beaaa52-b6c7-40a1-898b-8150f3fee8cc","system_id":"levelo_inurba_marseille","lat":43.2767,"lon":5.38885,"is_reserved":false,"is_disabled":false,"rental_uris":{"android":"levelo://app?vid=1beaaa52-b6c7-40a1-898b-8150f3fee8cc","ios":"levelo://app?vid=1beaaa52-b6c7-40a1-898b-8150f3fee8cc"},"vehicle_type_id":"4","last_reported":1731687155,"current_range_meters":17600,"station_id":"ce4bhi12rcd13ifvqfo0","pricing_plan_id":"cebpf4jnsgd1na2vs0mg"},{"bike_id":"3557c6b2-0663-4361-940f-e8447174a8ac","system_id":"levelo_inurba_marseille","lat":43.28621,"lon":5.35103,"is_reserved":false,"is_disabled":false,"rental_uris":{"android":"levelo://app?vid=3557c6b2-0663-4361-940f-e8447174a8ac","ios":"levelo://app?vid=3557c6b2-0663-4361-940f-e8447174a8ac"},"vehicle_type_id":"4","last_reported":1731687155,"current_range_meters":26000,"station_id":"ce4bhch2rcd13ifvqeug","pricing_plan_id":"cebpf4jnsgd1na2vs0mg"},{"bike_id":"2d454bd5-cedf-459e-b6d9-be38f0c41216","system_id":"levelo_inurba_marseille","lat":43.28271,"lon":5.35068,"is_reserved":false,"is_disabled":false,"rental_uris":{"android":"levelo://app?vid=2d454bd5-cedf-459e-b6d9-be38f0c41216","ios":"levelo://app?vid=2d454bd5-cedf-459e-b6d9-be38f0c41216"},"vehicle_type_id":"4","last_reported":1731687155,"current_range_meters":32400,"station_id":"ce4bhbp2rcd13ifvqerg","pricing_plan_id":"cebpf4jnsgd1na2vs0mg"},{"bike_id":"398dfcd2-eebb-43ff-9c9a-fa99e814e6a4","system_id":"levelo_inurba_marseille","lat":43.29922,"lon":5.37185,"is_reserved":false,"is_disabled":false,"rental_uris":{"android":"levelo://app?vid=398dfcd2-eebb-43ff-9c9a-fa99e814e6a4","ios":"levelo://app?vid=398dfcd2-eebb-43ff-9c9a-fa99e814e6a4"},"vehicle_type_id":"4","last_reported":1731687155,"current_range_meters":17600,"station_id":"ce4bgr92rcd13ifvqc7g","pricing_plan_id":"cebpf4jnsgd1na2vs0mg"},{"bike_id":"79c79137-89c6-423b-9949-780f0b9edcc5","system_id":"levelo_inurba_marseille","lat":43.311768,"lon":5.377321,"is_reserved":false,"is_disabled":false,"rental_uris":{"android":"levelo://app?vid=79c79137-89c6-423b-9949-780f0b9edcc5","ios":"levelo://app?vid=79c79137-89c6-423b-9949-780f0b9edcc5"},"vehicle_type_id":"4","last_reported":1731687155,"current_range_meters":22000,"station_id":"ce4bgt92rcd13ifvqcg0","pricing_plan_id":"cebpf4jnsgd1na2vs0mg"},{"bike_id":"84857df8-5f9c-4cf8-bc87-8e3d8dd04e35","system_id":"levelo_inurba_marseille","lat":43.29592,"lon":5.38112,"is_reserved":false,"is_disabled":false,"rental_uris":{"android":"levelo://app?vid=84857df8-5f9c-4cf8-bc87-8e3d8dd04e35","ios":"levelo://app?vid=84857df8-5f9c-4cf8-bc87-8e3d8dd04e35"},"vehicle_type_id":"4","last_reported":1731687155,"current_range_meters":32400,"station_id":"ce4bgl12rcd13ifvqbo0","pricing_plan_id":"cebpf4jnsgd1na2vs0mg"},{"bike_id":"f3883783-bdfb-4956-8577-eafc6ac493a6","system_id":"levelo_inurba_marseille","lat":43.258684,"lon":5.398941,"is_reserved":false,"is_disabled":false,"rental_uris":{"android":"levelo://app?vid=f3883783-bdfb-4956-8577-eafc6ac493a6","ios":"levelo://app?vid=f3883783-bdfb-4956-8577-eafc6ac493a6"},"vehicle_type_id":"4","last_reported":1731687155,"current_range_meters":38800,"station_id":"ce4bhl92rcd13ifvqghg","pricing_plan_id":"cebpf4jnsgd1na2vs0mg"},{"bike_id":"9c4d5de9-e2d6-472a-85db-8c5600d55a45","system_id":"levelo_inurba_marseille","lat":43.31685,"lon":5.40475,"is_reserved":false,"is_disabled":false,"rental_uris":{"android":"levelo://app?vid=9c4d5de9-e2d6-472a-85db-8c5600d55a45","ios":"levelo://app?vid=9c4d5de9-e2d6-472a-85db-8c5600d55a45"},"vehicle_type_id":"4","last_reported":1731687155,"current_range_meters":16000,"station_id":"ce4bh012rcd13ifvqd00","pricing_plan_id":"cebpf4jnsgd1na2vs0mg"},{"bike_id":"723e3bdb-f3f1-4a86-9914-44efb8474204","system_id":"levelo_inurba_marseille","lat":43.29905,"lon":5.38146,"is_reserved":false,"is_disabled":false,"rental_uris":{"android":"levelo://app?vid=723e3bdb-f3f1-4a86-9914-44efb8474204","ios":"levelo://app?vid=723e3bdb-f3f1-4a86-9914-44efb8474204"},"vehicle_type_id":"4","last_reported":1731687155,"current_range_meters":28000,"station_id":"ce4bgj12rcd13ifvqbc0","pricing_plan_id":"cebpf4jnsgd1na2vs0mg"},{"bike_id":"1382ba96-20ef-454c-8d6c-afc4619da974","system_id":"levelo_inurba_marseille","lat":43.29534,"lon":5.38554,"is_reserved":false,"is_disabled":false,"rental_uris":{"android":"levelo://app?vid=1382ba96-20ef-454c-8d6c-afc4619da974","ios":"levelo://app?vid=1382ba96-20ef-454c-8d6c-afc4619da974"},"vehicle_type_id":"4","last_reported":1731687155,"current_range_meters":33200,"station_id":"ce4bgih2rcd13ifvqba0","pricing_plan_id":"cebpf4jnsgd1na2vs0mg"},{"bike_id":"832f9d20-4db6-418f-abb4-8e7197c8822d","system_id":"levelo_inurba_marseille","lat":43.3064,"lon":5.37543,"is_reserved":false,"is_disabled":false,"rental_uris":{"android":"levelo://app?vid=832f9d20-4db6-418f-abb4-8e7197c8822d","ios":"levelo://app?vid=832f9d20-4db6-418f-abb4-8e7197c8822d"},"vehicle_type_id":"4","last_reported":1731687155,"current_range_meters":9200,"station_id":"ce4bgv92rcd13ifvqcq0","pricing_plan_id":"cebpf4jnsgd1na2vs0mg"},{"bike_id":"c1e4335e-d3bc-4234-a1ed-3a94ae3ce127","system_id":"levelo_inurba_marseille","lat":43.30262,"lon":5.40076,"is_reserved":false,"is_disabled":false,"rental_uris":{"android":"levelo://app?vid=c1e4335e-d3bc-4234-a1ed-3a94ae3ce127","ios":"levelo://app?vid=c1e4335e-d3bc-4234-a1ed-3a94ae3ce127"},"vehicle_type_id":"4","last_reported":1731687155,"current_range_meters":36000,"station_id":"ce4bgvh2rcd13ifvqcs0","pricing_plan_id":"cebpf4jnsgd1na2vs0mg"},{"bike_id":"0f2a2d4a-773f-4d46-93a1-1e556918fae4","system_id":"levelo_inurba_marseille","lat":43.3373,"lon":5.39188,"is_reserved":false,"is_disabled":false,"rental_uris":{"android":"levelo://app?vid=0f2a2d4a-773f-4d46-93a1-1e556918fae4","ios":"levelo://app?vid=0f2a2d4a-773f-4d46-93a1-1e556918fae4"},"vehicle_type_id":"4","last_reported":1731687155,"current_range_meters":10800,"station_id":"ce4bhr92rcd13ifvqhsg","pricing_plan_id":"cebpf4jnsgd1na2vs0mg"},{"bike_id":"b6be80db-98ea-41d0-b0ba-32f7f2486ada","system_id":"levelo_inurba_marseille","lat":43.25502,"lon":5.37653,"is_reserved":false,"is_disabled":false,"rental_uris":{"android":"levelo://app?vid=b6be80db-98ea-41d0-b0ba-32f7f2486ada","ios":"levelo://app?vid=b6be80db-98ea-41d0-b0ba-32f7f2486ada"},"vehicle_type_id":"4","last_reported":1731687155,"current_range_meters":18000,"station_id":"ce4bhh12rcd13ifvqff0","pricing_plan_id":"cebpf4jnsgd1na2vs0mg"},{"bike_id":"60346686-846e-43e0-b1f0-095f872d71c2","system_id":"levelo_inurba_marseille","lat":43.337444,"lon":5.374475,"is_reserved":false,"is_disabled":false,"rental_uris":{"android":"levelo://app?vid=60346686-846e-43e0-b1f0-095f872d71c2","ios":"levelo://app?vid=60346686-846e-43e0-b1f0-095f872d71c2"},"vehicle_type_id":"4","last_reported":1731687155,"current_range_meters":38400,"station_id":"","pricing_plan_id":"cebpf4jnsgd1na2vs0mg"},{"bike_id":"add2da5f-d734-42b5-8a56-43919f5c8fcd","system_id":"levelo_inurba_marseille","lat":43.31699,"lon":5.37752,"is_reserved":false,"is_disabled":false,"rental_uris":{"android":"levelo://app?vid=add2da5f-d734-42b5-8a56-43919f5c8fcd","ios":"levelo://app?vid=add2da5f-d734-42b5-8a56-43919f5c8fcd"},"vehicle_type_id":"4","last_reported":1731687155,"current_range_meters":4800,"station_id":"ce4bgth2rcd13ifvqch0","pricing_plan_id":"cebpf4jnsgd1na2vs0mg"},{"bike_id":"0d57e18e-c92f-4a13-9231-bbdc58d5ed52","system_id":"levelo_inurba_marseille","lat":43.29424,"lon":5.3863,"is_reserved":false,"is_disabled":false,"rental_uris":{"android":"levelo://app?vid=0d57e18e-c92f-4a13-9231-bbdc58d5ed52","ios":"levelo://app?vid=0d57e18e-c92f-4a13-9231-bbdc58d5ed52"},"vehicle_type_id":"4","last_reported":1731687155,"current_range_meters":19600,"station_id":"ce4bh2h2rcd13ifvqdh0","pricing_plan_id":"cebpf4jnsgd1na2vs0mg"},{"bike_id":"d206d41a-8ea1-48b7-8dea-76f005b54e28","system_id":"levelo_inurba_marseille","lat":43.337444,"lon":5.374475,"is_reserved":false,"is_disabled":false,"rental_uris":{"android":"levelo://app?vid=d206d41a-8ea1-48b7-8dea-76f005b54e28","ios":"levelo://app?vid=d206d41a-8ea1-48b7-8dea-76f005b54e28"},"vehicle_type_id":"4","last_reported":1731687155,"current_range_meters":27200,"station_id":"","pricing_plan_id":"cebpf4jnsgd1na2vs0mg"},{"bike_id":"3d258e2d-e6bd-48be-bed5-926eaa9bf498","system_id":"levelo_inurba_marseille","lat":43.29534,"lon":5.38546,"is_reserved":false,"is_disabled":false,"rental_uris":{"android":"levelo://app?vid=3d258e2d-e6bd-48be-bed5-926eaa9bf498","ios":"levelo://app?vid=3d258e2d-e6bd-48be-bed5-926eaa9bf498"},"vehicle_type_id":"4","last_reported":1731687155,"current_range_meters":30800,"station_id":"ce4bgih2rcd13ifvqba0","pricing_plan_id":"cebpf4jnsgd1na2vs0mg"},{"bike_id":"965b3a46-4f76-4aa9-b5ba-b1a6e45b1bb3","system_id":"levelo_inurba_marseille","lat":43.32571,"lon":5.37937,"is_reserved":false,"is_disabled":false,"rental_uris":{"android":"levelo://app?vid=965b3a46-4f76-4aa9-b5ba-b1a6e45b1bb3","ios":"levelo://app?vid=965b3a46-4f76-4aa9-b5ba-b1a6e45b1bb3"},"vehicle_type_id":"4","last_reported":1731687155,"current_range_meters":6800,"station_id":"","pricing_plan_id":"cebpf4jnsgd1na2vs0mg"},{"bike_id":"6a021a5a-882c-4be9-8646-e2c5b9367549","system_id":"levelo_inurba_marseille","lat":43.30151,"lon":5.37421,"is_reserved":false,"is_disabled":false,"rental_uris":{"android":"levelo://app?vid=6a021a5a-882c-4be9-8646-e2c5b9367549","ios":"levelo://app?vid=6a021a5a-882c-4be9-8646-e2c5b9367549"},"vehicle_type_id":"4","last_reported":1731687155,"current_range_meters":2000,"station_id":"ce4bgs92rcd13ifvqcc0","pricing_plan_id":"cebpf4jnsgd1na2vs0mg"},{"bike_id":"5326c5f8-bba7-40e6-bfc7-8e986a3bddf3","system_id":"levelo_inurba_marseille","lat":43.31177,"lon":5.37585,"is_reserved":false,"is_disabled":false,"rental_uris":{"android":"levelo://app?vid=5326c5f8-bba7-40e6-bfc7-8e986a3bddf3","ios":"levelo://app?vid=5326c5f8-bba7-40e6-bfc7-8e986a3bddf3"},"vehicle_type_id":"4","last_reported":1731687155,"current_range_meters":22400,"station_id":"ce4bgt12rcd13ifvqcd0","pricing_plan_id":"cebpf4jnsgd1na2vs0mg"},{"bike_id":"027432fa-fb04-4dff-9a59-faacbb4d52ca","system_id":"levelo_inurba_marseille","lat":43.25491,"lon":5.37647,"is_reserved":false,"is_disabled":false,"rental_uris":{"android":"levelo://app?vid=027432fa-fb04-4dff-9a59-faacbb4d52ca","ios":"levelo://app?vid=027432fa-fb04-4dff-9a59-faacbb4d52ca"},"vehicle_type_id":"4","last_reported":1731687155,"current_range_meters":38800,"station_id":"ce4bhh12rcd13ifvqff0","pricing_plan_id":"cebpf4jnsgd1na2vs0mg"},{"bike_id":"fed7f9fe-4ab5-41b5-8acc-64b1198bf209","system_id":"levelo_inurba_marseille","lat":43.28156,"lon":5.42644,"is_reserved":false,"is_disabled":false,"rental_uris":{"android":"levelo://app?vid=fed7f9fe-4ab5-41b5-8acc-64b1198bf209","ios":"levelo://app?vid=fed7f9fe-4ab5-41b5-8acc-64b1198bf209"},"vehicle_type_id":"4","last_reported":1731687155,"current_range_meters":7200,"station_id":"ce4bhnh2rcd13ifvqgug","pricing_plan_id":"cebpf4jnsgd1na2vs0mg"},{"bike_id":"73e0cdd4-dbed-44e9-8f18-f00dd137c24e","system_id":"levelo_inurba_marseille","lat":43.24165,"lon":5.36396,"is_reserved":false,"is_disabled":false,"rental_uris":{"android":"levelo://app?vid=73e0cdd4-dbed-44e9-8f18-f00dd137c24e","ios":"levelo://app?vid=73e0cdd4-dbed-44e9-8f18-f00dd137c24e"},"vehicle_type_id":"4","last_reported":1731687155,"current_range_meters":7200,"station_id":"cpo36qri1sfpv3e86is0","pricing_plan_id":"cebpf4jnsgd1na2vs0mg"},{"bike_id":"45420cd1-ae45-445e-91f9-d69617136189","system_id":"levelo_inurba_marseille","lat":43.30206,"lon":5.37488,"is_reserved":false,"is_disabled":false,"rental_uris":{"android":"levelo://app?vid=45420cd1-ae45-445e-91f9-d69617136189","ios":"levelo://app?vid=45420cd1-ae45-445e-91f9-d69617136189"},"vehicle_type_id":"4","last_reported":1731687155,"current_range_meters":17600,"station_id":"ce4bgv92rcd13ifvqcq0","pricing_plan_id":"cebpf4jnsgd1na2vs0mg"},{"bike_id":"ed97135a-c2d8-4749-9c42-2f286e6ad93c","system_id":"levelo_inurba_marseille","lat":43.28282,"lon":5.35069,"is_reserved":false,"is_disabled":false,"rental_uris":{"android":"levelo://app?vid=ed97135a-c2d8-4749-9c42-2f286e6ad93c","ios":"levelo://app?vid=ed97135a-c2d8-4749-9c42-2f286e6ad93c"},"vehicle_type_id":"4","last_reported":1731687155,"current_range_meters":16400,"station_id":"ce4bhbp2rcd13ifvqerg","pricing_plan_id":"cebpf4jnsgd1na2vs0mg"},{"bike_id":"9d50dc4c-ddd5-4cb4-8e4b-e5c5d2d5f290","system_id":"levelo_inurba_marseille","lat":43.306,"lon":5.37216,"is_reserved":false,"is_disabled":false,"rental_uris":{"android":"levelo://app?vid=9d50dc4c-ddd5-4cb4-8e4b-e5c5d2d5f290","ios":"levelo://app?vid=9d50dc4c-ddd5-4cb4-8e4b-e5c5d2d5f290"},"vehicle_type_id":"4","last_reported":1731687155,"current_range_meters":38400,"station_id":"ce4bgqh2rcd13ifvqc4g","pricing_plan_id":"cebpf4jnsgd1na2vs0mg"},{"bike_id":"9a97000e-f39e-45b5-bed7-760d4ecf52ae","system_id":"levelo_inurba_marseille","lat":43.31063,"lon":5.38348,"is_reserved":false,"is_disabled":false,"rental_uris":{"android":"levelo://app?vid=9a97000e-f39e-45b5-bed7-760d4ecf52ae","ios":"levelo://app?vid=9a97000e-f39e-45b5-bed7-760d4ecf52ae"},"vehicle_type_id":"4","last_reported":1731687155,"current_range_meters":14000,"station_id":"ce4bgv92rcd13ifvqcr0","pricing_plan_id":"cebpf4jnsgd1na2vs0mg"},{"bike_id":"a2bc66c9-9cee-4e7b-8a00-25965437d27c","system_id":"levelo_inurba_marseille","lat":43.29839,"lon":5.36267,"is_reserved":false,"is_disabled":false,"rental_uris":{"android":"levelo://app?vid=a2bc66c9-9cee-4e7b-8a00-25965437d27c","ios":"levelo://app?vid=a2bc66c9-9cee-4e7b-8a00-25965437d27c"},"vehicle_type_id":"4","last_reported":1731687155,"current_range_meters":38800,"station_id":"ce4bgpp2rcd13ifvqc3g","pricing_plan_id":"cebpf4jnsgd1na2vs0mg"},{"bike_id":"f12991a9-83dd-4e35-9511-4cb32ddb9c52","system_id":"levelo_inurba_marseille","lat":43.29875,"lon":5.38909,"is_reserved":false,"is_disabled":false,"rental_uris":{"android":"levelo://app?vid=f12991a9-83dd-4e35-9511-4cb32ddb9c52","ios":"levelo://app?vid=f12991a9-83dd-4e35-9511-4cb32ddb9c52"},"vehicle_type_id":"4","last_reported":1731687155,"current_range_meters":29600,"station_id":"ce4bh392rcd13ifvqdl0","pricing_plan_id":"cebpf4jnsgd1na2vs0mg"},{"bike_id":"70c8699e-3d9d-47e7-94f3-b511732c792f","system_id":"levelo_inurba_marseille","lat":43.31992,"lon":5.38148,"is_reserved":false,"is_disabled":false,"rental_uris":{"android":"levelo://app?vid=70c8699e-3d9d-47e7-94f3-b511732c792f","ios":"levelo://app?vid=70c8699e-3d9d-47e7-94f3-b511732c792f"},"vehicle_type_id":"4","last_reported":1731687155,"current_range_meters":38800,"station_id":"ce4bhr12rcd13ifvqhpg","pricing_plan_id":"cebpf4jnsgd1na2vs0mg"},{"bike_id":"88f4edcf-d8dd-44f7-9d32-cae8e5b035eb","system_id":"levelo_inurba_marseille","lat":43.29196,"lon":5.39318,"is_reserved":false,"is_disabled":false,"rental_uris":{"android":"levelo://app?vid=88f4edcf-d8dd-44f7-9d32-cae8e5b035eb","ios":"levelo://app?vid=88f4edcf-d8dd-44f7-9d32-cae8e5b035eb"},"vehicle_type_id":"4","last_reported":1731687155,"current_range_meters":7200,"station_id":"ce4bh192rcd13ifvqdd0","pricing_plan_id":"cebpf4jnsgd1na2vs0mg"},{"bike_id":"86e93666-729b-4a45-8aaf-6bbb3a3f0415","system_id":"levelo_inurba_marseille","lat":43.30554,"lon":5.36555,"is_reserved":false,"is_disabled":false,"rental_uris":{"android":"levelo://app?vid=86e93666-729b-4a45-8aaf-6bbb3a3f0415","ios":"levelo://app?vid=86e93666-729b-4a45-8aaf-6bbb3a3f0415"},"vehicle_type_id":"4","last_reported":1731687155,"current_range_meters":31200,"station_id":"ce4bgs12rcd13ifvqcag","pricing_plan_id":"cebpf4jnsgd1na2vs0mg"},{"bike_id":"e40acb1f-7c3b-464f-a385-d83d7c01e615","system_id":"levelo_inurba_marseille","lat":43.32553,"lon":5.38009,"is_reserved":false,"is_disabled":false,"rental_uris":{"android":"levelo://app?vid=e40acb1f-7c3b-464f-a385-d83d7c01e615","ios":"levelo://app?vid=e40acb1f-7c3b-464f-a385-d83d7c01e615"},"vehicle_type_id":"4","last_reported":1731687155,"current_range_meters":22400,"station_id":"ce4bhr12rcd13ifvqhqg","pricing_plan_id":"cebpf4jnsgd1na2vs0mg"},{"bike_id":"383dbfdd-dadc-4957-9c5a-2d452e2c74c2","system_id":"levelo_inurba_marseille","lat":43.29524,"lon":5.38546,"is_reserved":false,"is_disabled":false,"rental_uris":{"android":"levelo://app?vid=383dbfdd-dadc-4957-9c5a-2d452e2c74c2","ios":"levelo://app?vid=383dbfdd-dadc-4957-9c5a-2d452e2c74c2"},"vehicle_type_id":"4","last_reported":1731687155,"current_range_meters":37600,"station_id":"ce4bgih2rcd13ifvqba0","pricing_plan_id":"cebpf4jnsgd1na2vs0mg"},{"bike_id":"e77426f9-cd91-49ba-92b2-167b1ca5910e","system_id":"levelo_inurba_marseille","lat":43.28459,"lon":5.35891,"is_reserved":false,"is_disabled":false,"rental_uris":{"android":"levelo://app?vid=e77426f9-cd91-49ba-92b2-167b1ca5910e","ios":"levelo://app?vid=e77426f9-cd91-49ba-92b2-167b1ca5910e"},"vehicle_type_id":"4","last_reported":1731687155,"current_range_meters":36400,"station_id":"ce4bhah2rcd13ifvqei0","pricing_plan_id":"cebpf4jnsgd1na2vs0mg"},{"bike_id":"5875b289-37e0-4792-8ef8-beba02c87bdd","system_id":"levelo_inurba_marseille","lat":43.28726,"lon":5.36091,"is_reserved":false,"is_disabled":false,"rental_uris":{"android":"levelo://app?vid=5875b289-37e0-4792-8ef8-beba02c87bdd","ios":"levelo://app?vid=5875b289-37e0-4792-8ef8-beba02c87bdd"},"vehicle_type_id":"4","last_reported":1731687155,"current_range_meters":3200,"station_id":"cki0cbj6b192h4jlfktg","pricing_plan_id":"cebpf4jnsgd1na2vs0mg"},{"bike_id":"88f00ed7-06c4-476e-bac1-3e32dc31e1ae","system_id":"levelo_inurba_marseille","lat":43.317548,"lon":5.37641,"is_reserved":false,"is_disabled":false,"rental_uris":{"android":"levelo://app?vid=88f00ed7-06c4-476e-bac1-3e32dc31e1ae","ios":"levelo://app?vid=88f00ed7-06c4-476e-bac1-3e32dc31e1ae"},"vehicle_type_id":"4","last_reported":1731687155,"current_range_meters":6800,"station_id":"ce4bgt12rcd13ifvqcd0","pricing_plan_id":"cebpf4jnsgd1na2vs0mg"},{"bike_id":"68b70848-18bd-4c59-a90a-a8628ab02d96","system_id":"levelo_inurba_marseille","lat":43.298279,"lon":5.374318,"is_reserved":false,"is_disabled":false,"rental_uris":{"android":"levelo://app?vid=68b70848-18bd-4c59-a90a-a8628ab02d96","ios":"levelo://app?vid=68b70848-18bd-4c59-a90a-a8628ab02d96"},"vehicle_type_id":"4","last_reported":1731687155,"current_range_meters":14400,"station_id":"ce4bgjh2rcd13ifvqbg0","pricing_plan_id":"cebpf4jnsgd1na2vs0mg"},{"bike_id":"2a54e76e-cd76-4a10-940f-30917d8bcf09","system_id":"levelo_inurba_marseille","lat":43.22938,"lon":5.35374,"is_reserved":false,"is_disabled":false,"rental_uris":{"android":"levelo://app?vid=2a54e76e-cd76-4a10-940f-30917d8bcf09","ios":"levelo://app?vid=2a54e76e-cd76-4a10-940f-30917d8bcf09"},"vehicle_type_id":"4","last_reported":1731687155,"current_range_meters":8800,"station_id":"cpo3532slgdg3j2ikp40","pricing_plan_id":"cebpf4jnsgd1na2vs0mg"},{"bike_id":"5aa6719e-4eb9-44b6-b973-6187854f44eb","system_id":"levelo_inurba_marseille","lat":43.31267,"lon":5.40171,"is_reserved":false,"is_disabled":false,"rental_uris":{"android":"levelo://app?vid=5aa6719e-4eb9-44b6-b973-6187854f44eb","ios":"levelo://app?vid=5aa6719e-4eb9-44b6-b973-6187854f44eb"},"vehicle_type_id":"4","last_reported":1731687155,"current_range_meters":11200,"station_id":"ce4bh092rcd13ifvqd30","pricing_plan_id":"cebpf4jnsgd1na2vs0mg"},{"bike_id":"76fda271-4bcd-4529-8397-8074a1eff7fe","system_id":"levelo_inurba_marseille","lat":43.337444,"lon":5.374475,"is_reserved":false,"is_disabled":false,"rental_uris":{"android":"levelo://app?vid=76fda271-4bcd-4529-8397-8074a1eff7fe","ios":"levelo://app?vid=76fda271-4bcd-4529-8397-8074a1eff7fe"},"vehicle_type_id":"4","last_reported":1731687155,"current_range_meters":37600,"station_id":"","pricing_plan_id":"cebpf4jnsgd1na2vs0mg"},{"bike_id":"d435b370-8993-4d15-bfae-b6f90d095761","system_id":"levelo_inurba_marseille","lat":43.27903,"lon":5.38021,"is_reserved":false,"is_disabled":false,"rental_uris":{"android":"levelo://app?vid=d435b370-8993-4d15-bfae-b6f90d095761","ios":"levelo://app?vid=d435b370-8993-4d15-bfae-b6f90d095761"},"vehicle_type_id":"4","last_reported":1731687155,"current_range_meters":36800,"station_id":"ce4bhf92rcd13ifvqf50","pricing_plan_id":"cebpf4jnsgd1na2vs0mg"},{"bike_id":"7125cda5-6cac-4f0d-b24c-2d801b2955b5","system_id":"levelo_inurba_marseille","lat":43.23178,"lon":5.39986,"is_reserved":false,"is_disabled":false,"rental_uris":{"android":"levelo://app?vid=7125cda5-6cac-4f0d-b24c-2d801b2955b5","ios":"levelo://app?vid=7125cda5-6cac-4f0d-b24c-2d801b2955b5"},"vehicle_type_id":"4","last_reported":1731687155,"current_range_meters":39200,"station_id":"ce4bhn12rcd13ifvqgqg","pricing_plan_id":"cebpf4jnsgd1na2vs0mg"},{"bike_id":"f2272cf7-a1bf-444b-b37a-2615e5e43513","system_id":"levelo_inurba_marseille","lat":43.29964,"lon":5.36519,"is_reserved":false,"is_disabled":false,"rental_uris":{"android":"levelo://app?vid=f2272cf7-a1bf-444b-b37a-2615e5e43513","ios":"levelo://app?vid=f2272cf7-a1bf-444b-b37a-2615e5e43513"},"vehicle_type_id":"4","last_reported":1731687155,"current_range_meters":36800,"station_id":"","pricing_plan_id":"cebpf4jnsgd1na2vs0mg"},{"bike_id":"3c3071d1-e516-4037-8b2f-c70bced58095","system_id":"levelo_inurba_marseille","lat":43.28411,"lon":5.3499,"is_reserved":false,"is_disabled":false,"rental_uris":{"android":"levelo://app?vid=3c3071d1-e516-4037-8b2f-c70bced58095","ios":"levelo://app?vid=3c3071d1-e516-4037-8b2f-c70bced58095"},"vehicle_type_id":"4","last_reported":1731687155,"current_range_meters":38800,"station_id":"ce4bhbh2rcd13ifvqepg","pricing_plan_id":"cebpf4jnsgd1na2vs0mg"},{"bike_id":"54bd9f57-3542-4172-a6ca-05fb34819739","system_id":"levelo_inurba_marseille","lat":43.30905,"lon":5.36855,"is_reserved":false,"is_disabled":false,"rental_uris":{"android":"levelo://app?vid=54bd9f57-3542-4172-a6ca-05fb34819739","ios":"levelo://app?vid=54bd9f57-3542-4172-a6ca-05fb34819739"},"vehicle_type_id":"4","last_reported":1731687155,"current_range_meters":22800,"station_id":"ce4bgn92rcd13ifvqbvg","pricing_plan_id":"cebpf4jnsgd1na2vs0mg"},{"bike_id":"56c329f2-10a2-45ef-ae66-381a935d8182","system_id":"levelo_inurba_marseille","lat":43.300903,"lon":5.390691,"is_reserved":false,"is_disabled":false,"rental_uris":{"android":"levelo://app?vid=56c329f2-10a2-45ef-ae66-381a935d8182","ios":"levelo://app?vid=56c329f2-10a2-45ef-ae66-381a935d8182"},"vehicle_type_id":"4","last_reported":1731687155,"current_range_meters":9200,"station_id":"ce4bh092rcd13ifvqd30","pricing_plan_id":"cebpf4jnsgd1na2vs0mg"},{"bike_id":"7dc7a9d4-b4bf-43c0-99ff-e7005d1e5a28","system_id":"levelo_inurba_marseille","lat":43.29418,"lon":5.38622,"is_reserved":false,"is_disabled":false,"rental_uris":{"android":"levelo://app?vid=7dc7a9d4-b4bf-43c0-99ff-e7005d1e5a28","ios":"levelo://app?vid=7dc7a9d4-b4bf-43c0-99ff-e7005d1e5a28"},"vehicle_type_id":"4","last_reported":1731687155,"current_range_meters":4800,"station_id":"ce4bh2h2rcd13ifvqdh0","pricing_plan_id":"cebpf4jnsgd1na2vs0mg"},{"bike_id":"6d757fef-4f26-43f9-ac2c-ffab39bf7dae","system_id":"levelo_inurba_marseille","lat":43.32249,"lon":5.36901,"is_reserved":false,"is_disabled":false,"rental_uris":{"android":"levelo://app?vid=6d757fef-4f26-43f9-ac2c-ffab39bf7dae","ios":"levelo://app?vid=6d757fef-4f26-43f9-ac2c-ffab39bf7dae"},"vehicle_type_id":"4","last_reported":1731687155,"current_range_meters":24000,"station_id":"","pricing_plan_id":"cebpf4jnsgd1na2vs0mg"},{"bike_id":"888b582a-9b35-4016-b0e1-20184406cb33","system_id":"levelo_inurba_marseille","lat":43.26939,"lon":5.40254,"is_reserved":false,"is_disabled":false,"rental_uris":{"android":"levelo://app?vid=888b582a-9b35-4016-b0e1-20184406cb33","ios":"levelo://app?vid=888b582a-9b35-4016-b0e1-20184406cb33"},"vehicle_type_id":"4","last_reported":1731687155,"current_range_meters":36800,"station_id":"cjm6bp8fraef2m0cb0m0","pricing_plan_id":"cebpf4jnsgd1na2vs0mg"},{"bike_id":"aa6dc477-f689-4f54-a32c-590a92ca76b2","system_id":"levelo_inurba_marseille","lat":43.23183,"lon":5.39991,"is_reserved":false,"is_disabled":false,"rental_uris":{"android":"levelo://app?vid=aa6dc477-f689-4f54-a32c-590a92ca76b2","ios":"levelo://app?vid=aa6dc477-f689-4f54-a32c-590a92ca76b2"},"vehicle_type_id":"4","last_reported":1731687155,"current_range_meters":5600,"station_id":"ce4bhn12rcd13ifvqgqg","pricing_plan_id":"cebpf4jnsgd1na2vs0mg"},{"bike_id":"bad94056-7525-47ae-929c-6f5d770d1699","system_id":"levelo_inurba_marseille","lat":43.26057,"lon":5.39401,"is_reserved":false,"is_disabled":false,"rental_uris":{"android":"levelo://app?vid=bad94056-7525-47ae-929c-6f5d770d1699","ios":"levelo://app?vid=bad94056-7525-47ae-929c-6f5d770d1699"},"vehicle_type_id":"4","last_reported":1731687155,"current_range_meters":15200,"station_id":"ce4bhh92rcd13ifvqfj0","pricing_plan_id":"cebpf4jnsgd1na2vs0mg"},{"bike_id":"0c7cecff-ded0-464a-a30f-83ee20233492","system_id":"levelo_inurba_marseille","lat":43.30424,"lon":5.4129,"is_reserved":false,"is_disabled":false,"rental_uris":{"android":"levelo://app?vid=0c7cecff-ded0-464a-a30f-83ee20233492","ios":"levelo://app?vid=0c7cecff-ded0-464a-a30f-83ee20233492"},"vehicle_type_id":"4","last_reported":1731687155,"current_range_meters":4400,"station_id":"ce4bhop2rcd13ifvqh8g","pricing_plan_id":"cebpf4jnsgd1na2vs0mg"},{"bike_id":"0f1561bc-7ac4-49ac-b4cc-fda30c19f9c7","system_id":"levelo_inurba_marseille","lat":43.279449,"lon":5.410517,"is_reserved":false,"is_disabled":false,"rental_uris":{"android":"levelo://app?vid=0f1561bc-7ac4-49ac-b4cc-fda30c19f9c7","ios":"levelo://app?vid=0f1561bc-7ac4-49ac-b4cc-fda30c19f9c7"},"vehicle_type_id":"4","last_reported":1731687155,"current_range_meters":30800,"station_id":"ce4bhnh2rcd13ifvqgtg","pricing_plan_id":"cebpf4jnsgd1na2vs0mg"},{"bike_id":"65d8ab08-31b2-4249-81a9-510fbc979947","system_id":"levelo_inurba_marseille","lat":43.27207,"lon":5.39183,"is_reserved":false,"is_disabled":false,"rental_uris":{"android":"levelo://app?vid=65d8ab08-31b2-4249-81a9-510fbc979947","ios":"levelo://app?vid=65d8ab08-31b2-4249-81a9-510fbc979947"},"vehicle_type_id":"4","last_reported":1731687155,"current_range_meters":9200,"station_id":"ce4bhhp2rcd13ifvqfm0","pricing_plan_id":"cebpf4jnsgd1na2vs0mg"},{"bike_id":"47e0f134-3aea-4be4-8cfe-03ca4160e2f5","system_id":"levelo_inurba_marseille","lat":43.27424,"lon":5.39419,"is_reserved":false,"is_disabled":false,"rental_uris":{"android":"levelo://app?vid=47e0f134-3aea-4be4-8cfe-03ca4160e2f5","ios":"levelo://app?vid=47e0f134-3aea-4be4-8cfe-03ca4160e2f5"},"vehicle_type_id":"4","last_reported":1731687155,"current_range_meters":5600,"station_id":"ce4bhdp2rcd13ifvqf20","pricing_plan_id":"cebpf4jnsgd1na2vs0mg"},{"bike_id":"279a1aeb-91cc-412a-b34c-2e9db781d997","system_id":"levelo_inurba_marseille","lat":43.29792,"lon":5.39351,"is_reserved":false,"is_disabled":false,"rental_uris":{"android":"levelo://app?vid=279a1aeb-91cc-412a-b34c-2e9db781d997","ios":"levelo://app?vid=279a1aeb-91cc-412a-b34c-2e9db781d997"},"vehicle_type_id":"4","last_reported":1731687155,"current_range_meters":38400,"station_id":"chh1huq6cuj3fo74tm60","pricing_plan_id":"cebpf4jnsgd1na2vs0mg"},{"bike_id":"9fa5619c-57ad-49ad-9667-1d36bbf884cb","system_id":"levelo_inurba_marseille","lat":43.25827,"lon":5.39435,"is_reserved":false,"is_disabled":false,"rental_uris":{"android":"levelo://app?vid=9fa5619c-57ad-49ad-9667-1d36bbf884cb","ios":"levelo://app?vid=9fa5619c-57ad-49ad-9667-1d36bbf884cb"},"vehicle_type_id":"4","last_reported":1731687155,"current_range_meters":30400,"station_id":"ce4bhip2rcd13ifvqft0","pricing_plan_id":"cebpf4jnsgd1na2vs0mg"},{"bike_id":"a5ce8633-489f-43d5-902e-127d66923462","system_id":"levelo_inurba_marseille","lat":43.30606,"lon":5.37227,"is_reserved":false,"is_disabled":false,"rental_uris":{"android":"levelo://app?vid=a5ce8633-489f-43d5-902e-127d66923462","ios":"levelo://app?vid=a5ce8633-489f-43d5-902e-127d66923462"},"vehicle_type_id":"4","last_reported":1731687155,"current_range_meters":24000,"station_id":"ce4bgqh2rcd13ifvqc4g","pricing_plan_id":"cebpf4jnsgd1na2vs0mg"},{"bike_id":"3a41ed7b-ef36-4c12-9d21-f746cc6faefc","system_id":"levelo_inurba_marseille","lat":43.30165,"lon":5.38087,"is_reserved":false,"is_disabled":false,"rental_uris":{"android":"levelo://app?vid=3a41ed7b-ef36-4c12-9d21-f746cc6faefc","ios":"levelo://app?vid=3a41ed7b-ef36-4c12-9d21-f746cc6faefc"},"vehicle_type_id":"4","last_reported":1731687155,"current_range_meters":6800,"station_id":"ce4bgjp2rcd13ifvqbh0","pricing_plan_id":"cebpf4jnsgd1na2vs0mg"},{"bike_id":"0e3ab908-9a2b-41d4-9bfc-3fabfcae8601","system_id":"levelo_inurba_marseille","lat":43.31081,"lon":5.42433,"is_reserved":false,"is_disabled":false,"rental_uris":{"android":"levelo://app?vid=0e3ab908-9a2b-41d4-9bfc-3fabfcae8601","ios":"levelo://app?vid=0e3ab908-9a2b-41d4-9bfc-3fabfcae8601"},"vehicle_type_id":"4","last_reported":1731687155,"current_range_meters":22800,"station_id":"ce4bhp92rcd13ifvqhag","pricing_plan_id":"cebpf4jnsgd1na2vs0mg"},{"bike_id":"85dad442-5742-4ee1-93f3-6cdcb2afd771","system_id":"levelo_inurba_marseille","lat":43.29586,"lon":5.39964,"is_reserved":false,"is_disabled":false,"rental_uris":{"android":"levelo://app?vid=85dad442-5742-4ee1-93f3-6cdcb2afd771","ios":"levelo://app?vid=85dad442-5742-4ee1-93f3-6cdcb2afd771"},"vehicle_type_id":"4","last_reported":1731687155,"current_range_meters":34800,"station_id":"","pricing_plan_id":"cebpf4jnsgd1na2vs0mg"},{"bike_id":"29f5c3ee-648a-45ab-a995-4789b3de08d3","system_id":"levelo_inurba_marseille","lat":43.27381,"lon":5.36263,"is_reserved":false,"is_disabled":false,"rental_uris":{"android":"levelo://app?vid=29f5c3ee-648a-45ab-a995-4789b3de08d3","ios":"levelo://app?vid=29f5c3ee-648a-45ab-a995-4789b3de08d3"},"vehicle_type_id":"4","last_reported":1731687155,"current_range_meters":36800,"station_id":"ce4bhbh2rcd13ifvqeo0","pricing_plan_id":"cebpf4jnsgd1na2vs0mg"},{"bike_id":"3128168c-74a1-4040-a59c-d012f277626b","system_id":"levelo_inurba_marseille","lat":43.27949,"lon":5.41054,"is_reserved":false,"is_disabled":false,"rental_uris":{"android":"levelo://app?vid=3128168c-74a1-4040-a59c-d012f277626b","ios":"levelo://app?vid=3128168c-74a1-4040-a59c-d012f277626b"},"vehicle_type_id":"4","last_reported":1731687155,"current_range_meters":10000,"station_id":"ce4bhnp2rcd13ifvqh0g","pricing_plan_id":"cebpf4jnsgd1na2vs0mg"},{"bike_id":"ac0b346f-fe6d-4fbf-b389-98710312e550","system_id":"levelo_inurba_marseille","lat":43.29963,"lon":5.37175,"is_reserved":false,"is_disabled":false,"rental_uris":{"android":"levelo://app?vid=ac0b346f-fe6d-4fbf-b389-98710312e550","ios":"levelo://app?vid=ac0b346f-fe6d-4fbf-b389-98710312e550"},"vehicle_type_id":"4","last_reported":1731687155,"current_range_meters":19200,"station_id":"ce4bgr92rcd13ifvqc7g","pricing_plan_id":"cebpf4jnsgd1na2vs0mg"},{"bike_id":"02925978-1225-4d8d-b2fa-465bb0e7d4b9","system_id":"levelo_inurba_marseille","lat":43.287235,"lon":5.36097,"is_reserved":false,"is_disabled":false,"rental_uris":{"android":"levelo://app?vid=02925978-1225-4d8d-b2fa-465bb0e7d4b9","ios":"levelo://app?vid=02925978-1225-4d8d-b2fa-465bb0e7d4b9"},"vehicle_type_id":"4","last_reported":1731687155,"current_range_meters":38000,"station_id":"cki0cbj6b192h4jlfktg","pricing_plan_id":"cebpf4jnsgd1na2vs0mg"},{"bike_id":"b54f4471-f146-477a-ade3-58e1dea1b85e","system_id":"levelo_inurba_marseille","lat":43.337444,"lon":5.374475,"is_reserved":false,"is_disabled":false,"rental_uris":{"android":"levelo://app?vid=b54f4471-f146-477a-ade3-58e1dea1b85e","ios":"levelo://app?vid=b54f4471-f146-477a-ade3-58e1dea1b85e"},"vehicle_type_id":"4","last_reported":1731687155,"current_range_meters":36800,"station_id":"","pricing_plan_id":"cebpf4jnsgd1na2vs0mg"},{"bike_id":"9d57872f-7cb7-4569-9577-5b93503698c0","system_id":"levelo_inurba_marseille","lat":43.24169,"lon":5.36397,"is_reserved":false,"is_disabled":false,"rental_uris":{"android":"levelo://app?vid=9d57872f-7cb7-4569-9577-5b93503698c0","ios":"levelo://app?vid=9d57872f-7cb7-4569-9577-5b93503698c0"},"vehicle_type_id":"4","last_reported":1731687155,"current_range_meters":8000,"station_id":"cpo36qri1sfpv3e86is0","pricing_plan_id":"cebpf4jnsgd1na2vs0mg"},{"bike_id":"792531a3-4da6-4082-bd0a-16451cbb2558","system_id":"levelo_inurba_marseille","lat":43.26026,"lon":5.3755,"is_reserved":false,"is_disabled":false,"rental_uris":{"android":"levelo://app?vid=792531a3-4da6-4082-bd0a-16451cbb2558","ios":"levelo://app?vid=792531a3-4da6-4082-bd0a-16451cbb2558"},"vehicle_type_id":"4","last_reported":1731687155,"current_range_meters":20400,"station_id":"ce4bhgh2rcd13ifvqfa0","pricing_plan_id":"cebpf4jnsgd1na2vs0mg"},{"bike_id":"805cfe6b-be44-4949-bab5-57b1ce8478a4","system_id":"levelo_inurba_marseille","lat":43.33752,"lon":5.37459,"is_reserved":false,"is_disabled":false,"rental_uris":{"android":"levelo://app?vid=805cfe6b-be44-4949-bab5-57b1ce8478a4","ios":"levelo://app?vid=805cfe6b-be44-4949-bab5-57b1ce8478a4"},"vehicle_type_id":"4","last_reported":1731687155,"current_range_meters":33200,"station_id":"","pricing_plan_id":"cebpf4jnsgd1na2vs0mg"},{"bike_id":"4b0cd02b-710e-4206-bb23-694dd52e493b","system_id":"levelo_inurba_marseille","lat":43.26032,"lon":5.37549,"is_reserved":false,"is_disabled":false,"rental_uris":{"android":"levelo://app?vid=4b0cd02b-710e-4206-bb23-694dd52e493b","ios":"levelo://app?vid=4b0cd02b-710e-4206-bb23-694dd52e493b"},"vehicle_type_id":"4","last_reported":1731687155,"current_range_meters":38800,"station_id":"ce4bhgh2rcd13ifvqfa0","pricing_plan_id":"cebpf4jnsgd1na2vs0mg"},{"bike_id":"b38c59a0-ce08-4eb9-b870-02b578ca24a3","system_id":"levelo_inurba_marseille","lat":43.3193,"lon":5.38598,"is_reserved":false,"is_disabled":false,"rental_uris":{"android":"levelo://app?vid=b38c59a0-ce08-4eb9-b870-02b578ca24a3","ios":"levelo://app?vid=b38c59a0-ce08-4eb9-b870-02b578ca24a3"},"vehicle_type_id":"4","last_reported":1731687155,"current_range_meters":30800,"station_id":"","pricing_plan_id":"cebpf4jnsgd1na2vs0mg"},{"bike_id":"ca655f3b-8380-4045-b3f8-8acaa0e83ede","system_id":"levelo_inurba_marseille","lat":43.33746,"lon":5.37471,"is_reserved":false,"is_disabled":false,"rental_uris":{"android":"levelo://app?vid=ca655f3b-8380-4045-b3f8-8acaa0e83ede","ios":"levelo://app?vid=ca655f3b-8380-4045-b3f8-8acaa0e83ede"},"vehicle_type_id":"4","last_reported":1731687155,"current_range_meters":36000,"station_id":"","pricing_plan_id":"cebpf4jnsgd1na2vs0mg"},{"bike_id":"25d50a49-0bdc-4942-9a38-78b1ce5aec36","system_id":"levelo_inurba_marseille","lat":43.30548,"lon":5.36547,"is_reserved":false,"is_disabled":false,"rental_uris":{"android":"levelo://app?vid=25d50a49-0bdc-4942-9a38-78b1ce5aec36","ios":"levelo://app?vid=25d50a49-0bdc-4942-9a38-78b1ce5aec36"},"vehicle_type_id":"4","last_reported":1731687155,"current_range_meters":38800,"station_id":"ce4bgs12rcd13ifvqcag","pricing_plan_id":"cebpf4jnsgd1na2vs0mg"},{"bike_id":"4d6a8721-1600-46ef-afda-3ef7d402c140","system_id":"levelo_inurba_marseille","lat":43.306036,"lon":5.393601,"is_reserved":false,"is_disabled":false,"rental_uris":{"android":"levelo://app?vid=4d6a8721-1600-46ef-afda-3ef7d402c140","ios":"levelo://app?vid=4d6a8721-1600-46ef-afda-3ef7d402c140"},"vehicle_type_id":"4","last_reported":1731687155,"current_range_meters":16800,"station_id":"ce4bh0p2rcd13ifvqd80","pricing_plan_id":"cebpf4jnsgd1na2vs0mg"},{"bike_id":"a6b8c285-acc9-4039-9531-1aae39136a33","system_id":"levelo_inurba_marseille","lat":43.312042,"lon":5.367348,"is_reserved":false,"is_disabled":false,"rental_uris":{"android":"levelo://app?vid=a6b8c285-acc9-4039-9531-1aae39136a33","ios":"levelo://app?vid=a6b8c285-acc9-4039-9531-1aae39136a33"},"vehicle_type_id":"4","last_reported":1731687155,"current_range_meters":18800,"station_id":"","pricing_plan_id":"cebpf4jnsgd1na2vs0mg"},{"bike_id":"7b2bdb91-aab1-4e31-aac7-414f7254d580","system_id":"levelo_inurba_marseille","lat":43.26795,"lon":5.40265,"is_reserved":false,"is_disabled":false,"rental_uris":{"android":"levelo://app?vid=7b2bdb91-aab1-4e31-aac7-414f7254d580","ios":"levelo://app?vid=7b2bdb91-aab1-4e31-aac7-414f7254d580"},"vehicle_type_id":"4","last_reported":1731687155,"current_range_meters":19200,"station_id":"ce501612rcd8frsf0b60","pricing_plan_id":"cebpf4jnsgd1na2vs0mg"},{"bike_id":"fb37d974-f7ec-4011-bf1a-383341c7112e","system_id":"levelo_inurba_marseille","lat":43.30788,"lon":5.3766,"is_reserved":false,"is_disabled":false,"rental_uris":{"android":"levelo://app?vid=fb37d974-f7ec-4011-bf1a-383341c7112e","ios":"levelo://app?vid=fb37d974-f7ec-4011-bf1a-383341c7112e"},"vehicle_type_id":"4","last_reported":1731687155,"current_range_meters":24800,"station_id":"ce4bgv92rcd13ifvqcq0","pricing_plan_id":"cebpf4jnsgd1na2vs0mg"},{"bike_id":"5c254126-8805-4ed8-9520-9f63561143b3","system_id":"levelo_inurba_marseille","lat":43.24168,"lon":5.36399,"is_reserved":false,"is_disabled":false,"rental_uris":{"android":"levelo://app?vid=5c254126-8805-4ed8-9520-9f63561143b3","ios":"levelo://app?vid=5c254126-8805-4ed8-9520-9f63561143b3"},"vehicle_type_id":"4","last_reported":1731687155,"current_range_meters":26000,"station_id":"cpo36qri1sfpv3e86is0","pricing_plan_id":"cebpf4jnsgd1na2vs0mg"},{"bike_id":"5cf764e7-1c83-4cf3-a57b-58fbf623ab46","system_id":"levelo_inurba_marseille","lat":43.2743,"lon":5.39418,"is_reserved":false,"is_disabled":false,"rental_uris":{"android":"levelo://app?vid=5cf764e7-1c83-4cf3-a57b-58fbf623ab46","ios":"levelo://app?vid=5cf764e7-1c83-4cf3-a57b-58fbf623ab46"},"vehicle_type_id":"4","last_reported":1731687155,"current_range_meters":30000,"station_id":"ce4bhdp2rcd13ifvqf20","pricing_plan_id":"cebpf4jnsgd1na2vs0mg"},{"bike_id":"db130d72-8aea-421a-b54c-c08494fc6fa3","system_id":"levelo_inurba_marseille","lat":43.29974,"lon":5.37176,"is_reserved":false,"is_disabled":false,"rental_uris":{"android":"levelo://app?vid=db130d72-8aea-421a-b54c-c08494fc6fa3","ios":"levelo://app?vid=db130d72-8aea-421a-b54c-c08494fc6fa3"},"vehicle_type_id":"4","last_reported":1731687155,"current_range_meters":38800,"station_id":"ce4bgr92rcd13ifvqc7g","pricing_plan_id":"cebpf4jnsgd1na2vs0mg"},{"bike_id":"1ae8fe75-00ad-479b-a755-74d45d76bfbe","system_id":"levelo_inurba_marseille","lat":43.24169,"lon":5.36404,"is_reserved":false,"is_disabled":false,"rental_uris":{"android":"levelo://app?vid=1ae8fe75-00ad-479b-a755-74d45d76bfbe","ios":"levelo://app?vid=1ae8fe75-00ad-479b-a755-74d45d76bfbe"},"vehicle_type_id":"4","last_reported":1731687155,"current_range_meters":10000,"station_id":"cpo36qri1sfpv3e86is0","pricing_plan_id":"cebpf4jnsgd1na2vs0mg"},{"bike_id":"5df34f29-1a7a-4221-97e5-c009d97a2929","system_id":"levelo_inurba_marseille","lat":43.23845,"lon":5.36542,"is_reserved":false,"is_disabled":false,"rental_uris":{"android":"levelo://app?vid=5df34f29-1a7a-4221-97e5-c009d97a2929","ios":"levelo://app?vid=5df34f29-1a7a-4221-97e5-c009d97a2929"},"vehicle_type_id":"4","last_reported":1731687155,"current_range_meters":14400,"station_id":"","pricing_plan_id":"cebpf4jnsgd1na2vs0mg"},{"bike_id":"92ac4858-87d6-4ceb-8f6e-004635a816a8","system_id":"levelo_inurba_marseille","lat":43.27785,"lon":5.40741,"is_reserved":false,"is_disabled":false,"rental_uris":{"android":"levelo://app?vid=92ac4858-87d6-4ceb-8f6e-004635a816a8","ios":"levelo://app?vid=92ac4858-87d6-4ceb-8f6e-004635a816a8"},"vehicle_type_id":"4","last_reported":1731687155,"current_range_meters":36400,"station_id":"ce4bhnh2rcd13ifvqgtg","pricing_plan_id":"cebpf4jnsgd1na2vs0mg"},{"bike_id":"0085e774-5a79-4637-bba8-7cd48c1364c6","system_id":"levelo_inurba_marseille","lat":43.29291,"lon":5.38557,"is_reserved":false,"is_disabled":false,"rental_uris":{"android":"levelo://app?vid=0085e774-5a79-4637-bba8-7cd48c1364c6","ios":"levelo://app?vid=0085e774-5a79-4637-bba8-7cd48c1364c6"},"vehicle_type_id":"4","last_reported":1731687155,"current_range_meters":17600,"station_id":"ce4bh0h2rcd13ifvqd50","pricing_plan_id":"cebpf4jnsgd1na2vs0mg"},{"bike_id":"d37a5777-a5f5-4b7f-b7f5-a1dae307da91","system_id":"levelo_inurba_marseille","lat":43.23191,"lon":5.3556,"is_reserved":false,"is_disabled":false,"rental_uris":{"android":"levelo://app?vid=d37a5777-a5f5-4b7f-b7f5-a1dae307da91","ios":"levelo://app?vid=d37a5777-a5f5-4b7f-b7f5-a1dae307da91"},"vehicle_type_id":"4","last_reported":1731687155,"current_range_meters":36400,"station_id":"ce4bhu92rcd13ifvqi70","pricing_plan_id":"cebpf4jnsgd1na2vs0mg"},{"bike_id":"a0e7dc1c-7bee-408a-adac-410b89d1063f","system_id":"levelo_inurba_marseille","lat":43.2307,"lon":5.35493,"is_reserved":false,"is_disabled":false,"rental_uris":{"android":"levelo://app?vid=a0e7dc1c-7bee-408a-adac-410b89d1063f","ios":"levelo://app?vid=a0e7dc1c-7bee-408a-adac-410b89d1063f"},"vehicle_type_id":"4","last_reported":1731687155,"current_range_meters":32800,"station_id":"cpo3342slgdg3j2ifvpg","pricing_plan_id":"cebpf4jnsgd1na2vs0mg"},{"bike_id":"115bd285-57aa-47ef-87fc-dd78c9b0393e","system_id":"levelo_inurba_marseille","lat":43.30136,"lon":5.39865,"is_reserved":false,"is_disabled":false,"rental_uris":{"android":"levelo://app?vid=115bd285-57aa-47ef-87fc-dd78c9b0393e","ios":"levelo://app?vid=115bd285-57aa-47ef-87fc-dd78c9b0393e"},"vehicle_type_id":"4","last_reported":1731687155,"current_range_meters":38000,"station_id":"ce4bh0h2rcd13ifvqd40","pricing_plan_id":"cebpf4jnsgd1na2vs0mg"},{"bike_id":"139d00fc-e67b-449a-9fd4-0db893561dc2","system_id":"levelo_inurba_marseille","lat":43.33756,"lon":5.37418,"is_reserved":false,"is_disabled":false,"rental_uris":{"android":"levelo://app?vid=139d00fc-e67b-449a-9fd4-0db893561dc2","ios":"levelo://app?vid=139d00fc-e67b-449a-9fd4-0db893561dc2"},"vehicle_type_id":"4","last_reported":1731687155,"current_range_meters":9200,"station_id":"","pricing_plan_id":"cebpf4jnsgd1na2vs0mg"},{"bike_id":"bdda4347-118f-4304-b506-09b4b5e15b39","system_id":"levelo_inurba_marseille","lat":43.3373,"lon":5.39179,"is_reserved":false,"is_disabled":false,"rental_uris":{"android":"levelo://app?vid=bdda4347-118f-4304-b506-09b4b5e15b39","ios":"levelo://app?vid=bdda4347-118f-4304-b506-09b4b5e15b39"},"vehicle_type_id":"4","last_reported":1731687155,"current_range_meters":19200,"station_id":"ce4bhr92rcd13ifvqhsg","pricing_plan_id":"cebpf4jnsgd1na2vs0mg"},{"bike_id":"8b391377-a26f-4287-b401-a28da96aa60c","system_id":"levelo_inurba_marseille","lat":43.27909,"lon":5.3801,"is_reserved":false,"is_disabled":false,"rental_uris":{"android":"levelo://app?vid=8b391377-a26f-4287-b401-a28da96aa60c","ios":"levelo://app?vid=8b391377-a26f-4287-b401-a28da96aa60c"},"vehicle_type_id":"4","last_reported":1731687155,"current_range_meters":16000,"station_id":"ce4bhf92rcd13ifvqf50","pricing_plan_id":"cebpf4jnsgd1na2vs0mg"},{"bike_id":"04cfcbd5-8eb8-4431-a678-4a0b81991b3d","system_id":"levelo_inurba_marseille","lat":43.31127,"lon":5.37779,"is_reserved":false,"is_disabled":false,"rental_uris":{"android":"levelo://app?vid=04cfcbd5-8eb8-4431-a678-4a0b81991b3d","ios":"levelo://app?vid=04cfcbd5-8eb8-4431-a678-4a0b81991b3d"},"vehicle_type_id":"4","last_reported":1731687155,"current_range_meters":4800,"station_id":"ce4bgt92rcd13ifvqcg0","pricing_plan_id":"cebpf4jnsgd1na2vs0mg"},{"bike_id":"9b8ac598-069f-4f98-87bb-8fda8b578f40","system_id":"levelo_inurba_marseille","lat":43.31322,"lon":5.37643,"is_reserved":false,"is_disabled":false,"rental_uris":{"android":"levelo://app?vid=9b8ac598-069f-4f98-87bb-8fda8b578f40","ios":"levelo://app?vid=9b8ac598-069f-4f98-87bb-8fda8b578f40"},"vehicle_type_id":"4","last_reported":1731687155,"current_range_meters":38800,"station_id":"ce4bgt92rcd13ifvqcg0","pricing_plan_id":"cebpf4jnsgd1na2vs0mg"},{"bike_id":"1251cdec-4e0b-4865-8190-36fd90191faa","system_id":"levelo_inurba_marseille","lat":43.30769,"lon":5.3709,"is_reserved":false,"is_disabled":false,"rental_uris":{"android":"levelo://app?vid=1251cdec-4e0b-4865-8190-36fd90191faa","ios":"levelo://app?vid=1251cdec-4e0b-4865-8190-36fd90191faa"},"vehicle_type_id":"4","last_reported":1731687155,"current_range_meters":30000,"station_id":"","pricing_plan_id":"cebpf4jnsgd1na2vs0mg"},{"bike_id":"4a1fe4b6-4fb5-4e32-accc-8ae521e4b74c","system_id":"levelo_inurba_marseille","lat":43.29897,"lon":5.43664,"is_reserved":false,"is_disabled":false,"rental_uris":{"android":"levelo://app?vid=4a1fe4b6-4fb5-4e32-accc-8ae521e4b74c","ios":"levelo://app?vid=4a1fe4b6-4fb5-4e32-accc-8ae521e4b74c"},"vehicle_type_id":"4","last_reported":1731687155,"current_range_meters":20800,"station_id":"ce4bhpp2rcd13ifvqhfg","pricing_plan_id":"cebpf4jnsgd1na2vs0mg"},{"bike_id":"5a64e164-d94f-41f1-8880-21e8ebafbb9a","system_id":"levelo_inurba_marseille","lat":43.28418,"lon":5.34993,"is_reserved":false,"is_disabled":false,"rental_uris":{"android":"levelo://app?vid=5a64e164-d94f-41f1-8880-21e8ebafbb9a","ios":"levelo://app?vid=5a64e164-d94f-41f1-8880-21e8ebafbb9a"},"vehicle_type_id":"4","last_reported":1731687155,"current_range_meters":11200,"station_id":"ce4bhbh2rcd13ifvqepg","pricing_plan_id":"cebpf4jnsgd1na2vs0mg"},{"bike_id":"73892b80-da0c-4249-b86a-8ce9597da1d2","system_id":"levelo_inurba_marseille","lat":43.270639,"lon":5.392142,"is_reserved":false,"is_disabled":false,"rental_uris":{"android":"levelo://app?vid=73892b80-da0c-4249-b86a-8ce9597da1d2","ios":"levelo://app?vid=73892b80-da0c-4249-b86a-8ce9597da1d2"},"vehicle_type_id":"4","last_reported":1731687155,"current_range_meters":32800,"station_id":"ce4bhhh2rcd13ifvqfl0","pricing_plan_id":"cebpf4jnsgd1na2vs0mg"},{"bike_id":"f7c1c9e4-1084-4fc5-96e3-dc867372e009","system_id":"levelo_inurba_marseille","lat":43.258647,"lon":5.398951,"is_reserved":false,"is_disabled":false,"rental_uris":{"android":"levelo://app?vid=f7c1c9e4-1084-4fc5-96e3-dc867372e009","ios":"levelo://app?vid=f7c1c9e4-1084-4fc5-96e3-dc867372e009"},"vehicle_type_id":"4","last_reported":1731687155,"current_range_meters":38800,"station_id":"ce4bhl92rcd13ifvqghg","pricing_plan_id":"cebpf4jnsgd1na2vs0mg"},{"bike_id":"9bafab45-cb8e-4c27-803a-82d257c6d546","system_id":"levelo_inurba_marseille","lat":43.29845,"lon":5.36262,"is_reserved":false,"is_disabled":false,"rental_uris":{"android":"levelo://app?vid=9bafab45-cb8e-4c27-803a-82d257c6d546","ios":"levelo://app?vid=9bafab45-cb8e-4c27-803a-82d257c6d546"},"vehicle_type_id":"4","last_reported":1731687155,"current_range_meters":38800,"station_id":"ce4bgpp2rcd13ifvqc3g","pricing_plan_id":"cebpf4jnsgd1na2vs0mg"},{"bike_id":"6d6992bf-ade3-4a22-a168-306dafdc4544","system_id":"levelo_inurba_marseille","lat":43.24167,"lon":5.36403,"is_reserved":false,"is_disabled":false,"rental_uris":{"android":"levelo://app?vid=6d6992bf-ade3-4a22-a168-306dafdc4544","ios":"levelo://app?vid=6d6992bf-ade3-4a22-a168-306dafdc4544"},"vehicle_type_id":"4","last_reported":1731687155,"current_range_meters":37600,"station_id":"cpo36qri1sfpv3e86is0","pricing_plan_id":"cebpf4jnsgd1na2vs0mg"},{"bike_id":"e01f957f-7853-4dc9-9279-ab147b16f1d1","system_id":"levelo_inurba_marseille","lat":43.253539,"lon":5.394551,"is_reserved":false,"is_disabled":false,"rental_uris":{"android":"levelo://app?vid=e01f957f-7853-4dc9-9279-ab147b16f1d1","ios":"levelo://app?vid=e01f957f-7853-4dc9-9279-ab147b16f1d1"},"vehicle_type_id":"4","last_reported":1731687155,"current_range_meters":36800,"station_id":"","pricing_plan_id":"cebpf4jnsgd1na2vs0mg"},{"bike_id":"cf60e077-4249-4def-861d-e96ddd0bd30e","system_id":"levelo_inurba_marseille","lat":43.290161,"lon":5.356212,"is_reserved":false,"is_disabled":false,"rental_uris":{"android":"levelo://app?vid=cf60e077-4249-4def-861d-e96ddd0bd30e","ios":"levelo://app?vid=cf60e077-4249-4def-861d-e96ddd0bd30e"},"vehicle_type_id":"4","last_reported":1731687155,"current_range_meters":35600,"station_id":"ce4bh412rcd13ifvqds0","pricing_plan_id":"cebpf4jnsgd1na2vs0mg"},{"bike_id":"eef5d37c-5bfd-4c76-81bd-46afa511c5a9","system_id":"levelo_inurba_marseille","lat":43.33019,"lon":5.3905,"is_reserved":false,"is_disabled":false,"rental_uris":{"android":"levelo://app?vid=eef5d37c-5bfd-4c76-81bd-46afa511c5a9","ios":"levelo://app?vid=eef5d37c-5bfd-4c76-81bd-46afa511c5a9"},"vehicle_type_id":"4","last_reported":1731687155,"current_range_meters":38800,"station_id":"ce4bhr92rcd13ifvqhrg","pricing_plan_id":"cebpf4jnsgd1na2vs0mg"},{"bike_id":"fb838147-a7da-4382-9bee-b1e614402b93","system_id":"levelo_inurba_marseille","lat":43.30938,"lon":5.40147,"is_reserved":false,"is_disabled":false,"rental_uris":{"android":"levelo://app?vid=fb838147-a7da-4382-9bee-b1e614402b93","ios":"levelo://app?vid=fb838147-a7da-4382-9bee-b1e614402b93"},"vehicle_type_id":"4","last_reported":1731687155,"current_range_meters":39200,"station_id":"ce4bgvp2rcd13ifvqct0","pricing_plan_id":"cebpf4jnsgd1na2vs0mg"},{"bike_id":"cb109d3c-9db0-4891-b0f6-0bcdd40ec60d","system_id":"levelo_inurba_marseille","lat":43.290568,"lon":5.359074,"is_reserved":false,"is_disabled":false,"rental_uris":{"android":"levelo://app?vid=cb109d3c-9db0-4891-b0f6-0bcdd40ec60d","ios":"levelo://app?vid=cb109d3c-9db0-4891-b0f6-0bcdd40ec60d"},"vehicle_type_id":"4","last_reported":1731687155,"current_range_meters":16000,"station_id":"ce4bha92rcd13ifvqeg0","pricing_plan_id":"cebpf4jnsgd1na2vs0mg"},{"bike_id":"1707cb1e-404f-449a-8ec1-810d24d3f970","system_id":"levelo_inurba_marseille","lat":43.23194,"lon":5.39978,"is_reserved":false,"is_disabled":false,"rental_uris":{"android":"levelo://app?vid=1707cb1e-404f-449a-8ec1-810d24d3f970","ios":"levelo://app?vid=1707cb1e-404f-449a-8ec1-810d24d3f970"},"vehicle_type_id":"4","last_reported":1731687155,"current_range_meters":29600,"station_id":"ce4bhn12rcd13ifvqgqg","pricing_plan_id":"cebpf4jnsgd1na2vs0mg"},{"bike_id":"aa53dea9-0cec-40bf-b103-f733f7d1a955","system_id":"levelo_inurba_marseille","lat":43.2606,"lon":5.39397,"is_reserved":false,"is_disabled":false,"rental_uris":{"android":"levelo://app?vid=aa53dea9-0cec-40bf-b103-f733f7d1a955","ios":"levelo://app?vid=aa53dea9-0cec-40bf-b103-f733f7d1a955"},"vehicle_type_id":"4","last_reported":1731687155,"current_range_meters":27600,"station_id":"ce4bhh92rcd13ifvqfj0","pricing_plan_id":"cebpf4jnsgd1na2vs0mg"},{"bike_id":"12b6414d-a779-466f-9444-5f6a5dbfb429","system_id":"levelo_inurba_marseille","lat":43.32336,"lon":5.40621,"is_reserved":false,"is_disabled":false,"rental_uris":{"android":"levelo://app?vid=12b6414d-a779-466f-9444-5f6a5dbfb429","ios":"levelo://app?vid=12b6414d-a779-466f-9444-5f6a5dbfb429"},"vehicle_type_id":"4","last_reported":1731687155,"current_range_meters":16800,"station_id":"ce4bhq92rcd13ifvqhjg","pricing_plan_id":"cebpf4jnsgd1na2vs0mg"},{"bike_id":"177e7f7d-7653-4027-8431-1472ed76368b","system_id":"levelo_inurba_marseille","lat":43.28619,"lon":5.35103,"is_reserved":false,"is_disabled":false,"rental_uris":{"android":"levelo://app?vid=177e7f7d-7653-4027-8431-1472ed76368b","ios":"levelo://app?vid=177e7f7d-7653-4027-8431-1472ed76368b"},"vehicle_type_id":"4","last_reported":1731687155,"current_range_meters":16400,"station_id":"ce4bhch2rcd13ifvqeug","pricing_plan_id":"cebpf4jnsgd1na2vs0mg"},{"bike_id":"ff273380-c91d-4de0-97f4-4e62bfd1e6c1","system_id":"levelo_inurba_marseille","lat":43.29649,"lon":5.37648,"is_reserved":false,"is_disabled":false,"rental_uris":{"android":"levelo://app?vid=ff273380-c91d-4de0-97f4-4e62bfd1e6c1","ios":"levelo://app?vid=ff273380-c91d-4de0-97f4-4e62bfd1e6c1"},"vehicle_type_id":"4","last_reported":1731687155,"current_range_meters":16400,"station_id":"","pricing_plan_id":"cebpf4jnsgd1na2vs0mg"},{"bike_id":"42495698-155f-4a23-b6d4-f267d4aec3b6","system_id":"levelo_inurba_marseille","lat":43.24811,"lon":5.37462,"is_reserved":false,"is_disabled":false,"rental_uris":{"android":"levelo://app?vid=42495698-155f-4a23-b6d4-f267d4aec3b6","ios":"levelo://app?vid=42495698-155f-4a23-b6d4-f267d4aec3b6"},"vehicle_type_id":"4","last_reported":1731687155,"current_range_meters":30400,"station_id":"ce4bhgh2rcd13ifvqfb0","pricing_plan_id":"cebpf4jnsgd1na2vs0mg"},{"bike_id":"d6cf6aac-e529-4a8f-8d63-2059a6b33a61","system_id":"levelo_inurba_marseille","lat":43.30422,"lon":5.41295,"is_reserved":false,"is_disabled":false,"rental_uris":{"android":"levelo://app?vid=d6cf6aac-e529-4a8f-8d63-2059a6b33a61","ios":"levelo://app?vid=d6cf6aac-e529-4a8f-8d63-2059a6b33a61"},"vehicle_type_id":"4","last_reported":1731687155,"current_range_meters":26800,"station_id":"ce4bhop2rcd13ifvqh8g","pricing_plan_id":"cebpf4jnsgd1na2vs0mg"},{"bike_id":"01e0f49d-c3d8-45f1-97f8-e3eb55e0f5f1","system_id":"levelo_inurba_marseille","lat":43.30305,"lon":5.37697,"is_reserved":false,"is_disabled":false,"rental_uris":{"android":"levelo://app?vid=01e0f49d-c3d8-45f1-97f8-e3eb55e0f5f1","ios":"levelo://app?vid=01e0f49d-c3d8-45f1-97f8-e3eb55e0f5f1"},"vehicle_type_id":"4","last_reported":1731687155,"current_range_meters":38800,"station_id":"ce4bguh2rcd13ifvqcj0","pricing_plan_id":"cebpf4jnsgd1na2vs0mg"},{"bike_id":"621ba78e-002c-48dc-8ed8-da891fa809ba","system_id":"levelo_inurba_marseille","lat":43.3014,"lon":5.39873,"is_reserved":false,"is_disabled":false,"rental_uris":{"android":"levelo://app?vid=621ba78e-002c-48dc-8ed8-da891fa809ba","ios":"levelo://app?vid=621ba78e-002c-48dc-8ed8-da891fa809ba"},"vehicle_type_id":"4","last_reported":1731687155,"current_range_meters":11600,"station_id":"ce4bh0h2rcd13ifvqd40","pricing_plan_id":"cebpf4jnsgd1na2vs0mg"},{"bike_id":"4da66b49-315d-4c47-a87d-91a2249c01a2","system_id":"levelo_inurba_marseille","lat":43.27378,"lon":5.36258,"is_reserved":false,"is_disabled":false,"rental_uris":{"android":"levelo://app?vid=4da66b49-315d-4c47-a87d-91a2249c01a2","ios":"levelo://app?vid=4da66b49-315d-4c47-a87d-91a2249c01a2"},"vehicle_type_id":"4","last_reported":1731687155,"current_range_meters":24400,"station_id":"ce4bhbh2rcd13ifvqeo0","pricing_plan_id":"cebpf4jnsgd1na2vs0mg"},{"bike_id":"e901ef70-3dfb-45c6-8d6b-62c61e13ac6e","system_id":"levelo_inurba_marseille","lat":43.32373,"lon":5.38889,"is_reserved":false,"is_disabled":false,"rental_uris":{"android":"levelo://app?vid=e901ef70-3dfb-45c6-8d6b-62c61e13ac6e","ios":"levelo://app?vid=e901ef70-3dfb-45c6-8d6b-62c61e13ac6e"},"vehicle_type_id":"4","last_reported":1731687155,"current_range_meters":30800,"station_id":"ce4bhqp2rcd13ifvqhog","pricing_plan_id":"cebpf4jnsgd1na2vs0mg"},{"bike_id":"5409c421-aac2-465c-a4e0-f1e58bc90273","system_id":"levelo_inurba_marseille","lat":43.278229,"lon":5.391138,"is_reserved":false,"is_disabled":false,"rental_uris":{"android":"levelo://app?vid=5409c421-aac2-465c-a4e0-f1e58bc90273","ios":"levelo://app?vid=5409c421-aac2-465c-a4e0-f1e58bc90273"},"vehicle_type_id":"4","last_reported":1731687155,"current_range_meters":30400,"station_id":"ce4bhjp2rcd13ifvqga0","pricing_plan_id":"cebpf4jnsgd1na2vs0mg"},{"bike_id":"a7f25486-1bdf-4aa5-a695-67f44ef0fa2d","system_id":"levelo_inurba_marseille","lat":43.29162,"lon":5.37167,"is_reserved":false,"is_disabled":false,"rental_uris":{"android":"levelo://app?vid=a7f25486-1bdf-4aa5-a695-67f44ef0fa2d","ios":"levelo://app?vid=a7f25486-1bdf-4aa5-a695-67f44ef0fa2d"},"vehicle_type_id":"4","last_reported":1731687155,"current_range_meters":8000,"station_id":"ce4bha92rcd13ifvqeh0","pricing_plan_id":"cebpf4jnsgd1na2vs0mg"},{"bike_id":"53f7ce58-d1b6-4ab2-abef-6c3d37b336dd","system_id":"levelo_inurba_marseille","lat":43.33718,"lon":5.39198,"is_reserved":false,"is_disabled":false,"rental_uris":{"android":"levelo://app?vid=53f7ce58-d1b6-4ab2-abef-6c3d37b336dd","ios":"levelo://app?vid=53f7ce58-d1b6-4ab2-abef-6c3d37b336dd"},"vehicle_type_id":"4","last_reported":1731687155,"current_range_meters":38000,"station_id":"ce4bhr92rcd13ifvqhsg","pricing_plan_id":"cebpf4jnsgd1na2vs0mg"},{"bike_id":"ac4ef8d1-89a5-45c8-a5e1-abf2a9a08776","system_id":"levelo_inurba_marseille","lat":43.23195,"lon":5.35563,"is_reserved":false,"is_disabled":false,"rental_uris":{"android":"levelo://app?vid=ac4ef8d1-89a5-45c8-a5e1-abf2a9a08776","ios":"levelo://app?vid=ac4ef8d1-89a5-45c8-a5e1-abf2a9a08776"},"vehicle_type_id":"4","last_reported":1731687155,"current_range_meters":16400,"station_id":"ce4bhu92rcd13ifvqi70","pricing_plan_id":"cebpf4jnsgd1na2vs0mg"},{"bike_id":"1cfa7c9a-e9ca-4731-80f6-394910c4c759","system_id":"levelo_inurba_marseille","lat":43.30788,"lon":5.37634,"is_reserved":false,"is_disabled":false,"rental_uris":{"android":"levelo://app?vid=1cfa7c9a-e9ca-4731-80f6-394910c4c759","ios":"levelo://app?vid=1cfa7c9a-e9ca-4731-80f6-394910c4c759"},"vehicle_type_id":"4","last_reported":1731687155,"current_range_meters":27200,"station_id":"ce4bgv92rcd13ifvqcq0","pricing_plan_id":"cebpf4jnsgd1na2vs0mg"},{"bike_id":"7037a7a9-89be-4835-99e0-d202607efc23","system_id":"levelo_inurba_marseille","lat":43.28417,"lon":5.34984,"is_reserved":false,"is_disabled":false,"rental_uris":{"android":"levelo://app?vid=7037a7a9-89be-4835-99e0-d202607efc23","ios":"levelo://app?vid=7037a7a9-89be-4835-99e0-d202607efc23"},"vehicle_type_id":"4","last_reported":1731687155,"current_range_meters":38800,"station_id":"ce4bhbh2rcd13ifvqepg","pricing_plan_id":"cebpf4jnsgd1na2vs0mg"},{"bike_id":"0866a768-9e70-49b0-865b-fbd33fcee40e","system_id":"levelo_inurba_marseille","lat":43.26027,"lon":5.3755,"is_reserved":false,"is_disabled":false,"rental_uris":{"android":"levelo://app?vid=0866a768-9e70-49b0-865b-fbd33fcee40e","ios":"levelo://app?vid=0866a768-9e70-49b0-865b-fbd33fcee40e"},"vehicle_type_id":"4","last_reported":1731687155,"current_range_meters":25200,"station_id":"ce4bhgh2rcd13ifvqfa0","pricing_plan_id":"cebpf4jnsgd1na2vs0mg"},{"bike_id":"134fb98e-52ce-4d54-a778-0f65e74d3b7a","system_id":"levelo_inurba_marseille","lat":43.25584,"lon":5.38233,"is_reserved":false,"is_disabled":false,"rental_uris":{"android":"levelo://app?vid=134fb98e-52ce-4d54-a778-0f65e74d3b7a","ios":"levelo://app?vid=134fb98e-52ce-4d54-a778-0f65e74d3b7a"},"vehicle_type_id":"4","last_reported":1731687155,"current_range_meters":10000,"station_id":"ce4bhih2rcd13ifvqfs0","pricing_plan_id":"cebpf4jnsgd1na2vs0mg"},{"bike_id":"812dfd54-99b8-4f76-8fb7-2b81d9bd608d","system_id":"levelo_inurba_marseille","lat":43.26197,"lon":5.37937,"is_reserved":false,"is_disabled":false,"rental_uris":{"android":"levelo://app?vid=812dfd54-99b8-4f76-8fb7-2b81d9bd608d","ios":"levelo://app?vid=812dfd54-99b8-4f76-8fb7-2b81d9bd608d"},"vehicle_type_id":"4","last_reported":1731687155,"current_range_meters":5600,"station_id":"ce4bhjp2rcd13ifvqg90","pricing_plan_id":"cebpf4jnsgd1na2vs0mg"},{"bike_id":"1b15a180-920c-4b83-a9e6-e2077beb9566","system_id":"levelo_inurba_marseille","lat":43.28849,"lon":5.39311,"is_reserved":false,"is_disabled":false,"rental_uris":{"android":"levelo://app?vid=1b15a180-920c-4b83-a9e6-e2077beb9566","ios":"levelo://app?vid=1b15a180-920c-4b83-a9e6-e2077beb9566"},"vehicle_type_id":"4","last_reported":1731687155,"current_range_meters":3600,"station_id":"ce4bh2p2rcd13ifvqdi0","pricing_plan_id":"cebpf4jnsgd1na2vs0mg"},{"bike_id":"f2af9365-fdc2-4b99-9391-e30a9e3e43b3","system_id":"levelo_inurba_marseille","lat":43.32368,"lon":5.36755,"is_reserved":false,"is_disabled":false,"rental_uris":{"android":"levelo://app?vid=f2af9365-fdc2-4b99-9391-e30a9e3e43b3","ios":"levelo://app?vid=f2af9365-fdc2-4b99-9391-e30a9e3e43b3"},"vehicle_type_id":"4","last_reported":1731687155,"current_range_meters":26000,"station_id":"ce4bhsh2rcd13ifvqi2g","pricing_plan_id":"cebpf4jnsgd1na2vs0mg"},{"bike_id":"bb522734-48ce-4de6-8330-a5f77169e2f2","system_id":"levelo_inurba_marseille","lat":43.29911,"lon":5.43679,"is_reserved":false,"is_disabled":false,"rental_uris":{"android":"levelo://app?vid=bb522734-48ce-4de6-8330-a5f77169e2f2","ios":"levelo://app?vid=bb522734-48ce-4de6-8330-a5f77169e2f2"},"vehicle_type_id":"4","last_reported":1731687155,"current_range_meters":10000,"station_id":"ce4bhpp2rcd13ifvqhfg","pricing_plan_id":"cebpf4jnsgd1na2vs0mg"},{"bike_id":"6cceeb09-431c-4b48-a5cf-db847b8faddb","system_id":"levelo_inurba_marseille","lat":43.337444,"lon":5.374475,"is_reserved":false,"is_disabled":false,"rental_uris":{"android":"levelo://app?vid=6cceeb09-431c-4b48-a5cf-db847b8faddb","ios":"levelo://app?vid=6cceeb09-431c-4b48-a5cf-db847b8faddb"},"vehicle_type_id":"4","last_reported":1731687155,"current_range_meters":33600,"station_id":"","pricing_plan_id":"cebpf4jnsgd1na2vs0mg"},{"bike_id":"4d164941-a4fe-429f-977f-982f0af93299","system_id":"levelo_inurba_marseille","lat":43.32734,"lon":5.37625,"is_reserved":false,"is_disabled":false,"rental_uris":{"android":"levelo://app?vid=4d164941-a4fe-429f-977f-982f0af93299","ios":"levelo://app?vid=4d164941-a4fe-429f-977f-982f0af93299"},"vehicle_type_id":"4","last_reported":1731687155,"current_range_meters":38800,"station_id":"","pricing_plan_id":"cebpf4jnsgd1na2vs0mg"},{"bike_id":"fe34e79d-89a4-4c9d-9e26-e258e0391b41","system_id":"levelo_inurba_marseille","lat":43.23162,"lon":5.39995,"is_reserved":false,"is_disabled":false,"rental_uris":{"android":"levelo://app?vid=fe34e79d-89a4-4c9d-9e26-e258e0391b41","ios":"levelo://app?vid=fe34e79d-89a4-4c9d-9e26-e258e0391b41"},"vehicle_type_id":"4","last_reported":1731687155,"current_range_meters":38000,"station_id":"ce4bhn12rcd13ifvqgqg","pricing_plan_id":"cebpf4jnsgd1na2vs0mg"},{"bike_id":"12923925-7f1c-4e15-aea1-fb0952b4ac8c","system_id":"levelo_inurba_marseille","lat":43.27202,"lon":5.392,"is_reserved":false,"is_disabled":false,"rental_uris":{"android":"levelo://app?vid=12923925-7f1c-4e15-aea1-fb0952b4ac8c","ios":"levelo://app?vid=12923925-7f1c-4e15-aea1-fb0952b4ac8c"},"vehicle_type_id":"4","last_reported":1731687155,"current_range_meters":38800,"station_id":"ce4bhhp2rcd13ifvqfm0","pricing_plan_id":"cebpf4jnsgd1na2vs0mg"},{"bike_id":"57307a9c-8827-48e7-abb5-22ec2a7ca1cf","system_id":"levelo_inurba_marseille","lat":43.32367,"lon":5.38883,"is_reserved":false,"is_disabled":false,"rental_uris":{"android":"levelo://app?vid=57307a9c-8827-48e7-abb5-22ec2a7ca1cf","ios":"levelo://app?vid=57307a9c-8827-48e7-abb5-22ec2a7ca1cf"},"vehicle_type_id":"4","last_reported":1731687155,"current_range_meters":30800,"station_id":"ce4bhqp2rcd13ifvqhog","pricing_plan_id":"cebpf4jnsgd1na2vs0mg"},{"bike_id":"80a8e716-1486-4baa-bdbf-3f9e2b7c69fe","system_id":"levelo_inurba_marseille","lat":43.337444,"lon":5.374475,"is_reserved":false,"is_disabled":false,"rental_uris":{"android":"levelo://app?vid=80a8e716-1486-4baa-bdbf-3f9e2b7c69fe","ios":"levelo://app?vid=80a8e716-1486-4baa-bdbf-3f9e2b7c69fe"},"vehicle_type_id":"4","last_reported":1731687155,"current_range_meters":38000,"station_id":"","pricing_plan_id":"cebpf4jnsgd1na2vs0mg"},{"bike_id":"95a68933-1a2b-47f5-a10b-ec8f36e2e7f4","system_id":"levelo_inurba_marseille","lat":43.32003,"lon":5.38159,"is_reserved":false,"is_disabled":false,"rental_uris":{"android":"levelo://app?vid=95a68933-1a2b-47f5-a10b-ec8f36e2e7f4","ios":"levelo://app?vid=95a68933-1a2b-47f5-a10b-ec8f36e2e7f4"},"vehicle_type_id":"4","last_reported":1731687155,"current_range_meters":28400,"station_id":"ce4bhr12rcd13ifvqhpg","pricing_plan_id":"cebpf4jnsgd1na2vs0mg"},{"bike_id":"ebf64dbb-4959-4065-bbeb-351d5c1f82a8","system_id":"levelo_inurba_marseille","lat":43.30931,"lon":5.4015,"is_reserved":false,"is_disabled":false,"rental_uris":{"android":"levelo://app?vid=ebf64dbb-4959-4065-bbeb-351d5c1f82a8","ios":"levelo://app?vid=ebf64dbb-4959-4065-bbeb-351d5c1f82a8"},"vehicle_type_id":"4","last_reported":1731687155,"current_range_meters":38000,"station_id":"ce4bgvp2rcd13ifvqct0","pricing_plan_id":"cebpf4jnsgd1na2vs0mg"},{"bike_id":"069f5264-a43e-489d-ab3c-3f36b83dfe30","system_id":"levelo_inurba_marseille","lat":43.27073,"lon":5.42287,"is_reserved":false,"is_disabled":false,"rental_uris":{"android":"levelo://app?vid=069f5264-a43e-489d-ab3c-3f36b83dfe30","ios":"levelo://app?vid=069f5264-a43e-489d-ab3c-3f36b83dfe30"},"vehicle_type_id":"4","last_reported":1731687155,"current_range_meters":36400,"station_id":"ce4bhk92rcd13ifvqgb0","pricing_plan_id":"cebpf4jnsgd1na2vs0mg"},{"bike_id":"b62286e9-308a-4640-af35-79c550e9f684","system_id":"levelo_inurba_marseille","lat":43.30832,"lon":5.36989,"is_reserved":false,"is_disabled":false,"rental_uris":{"android":"levelo://app?vid=b62286e9-308a-4640-af35-79c550e9f684","ios":"levelo://app?vid=b62286e9-308a-4640-af35-79c550e9f684"},"vehicle_type_id":"4","last_reported":1731687155,"current_range_meters":8400,"station_id":"","pricing_plan_id":"cebpf4jnsgd1na2vs0mg"},{"bike_id":"c644aa06-af67-4a7c-885b-288f25b7785f","system_id":"levelo_inurba_marseille","lat":43.29896,"lon":5.3814,"is_reserved":false,"is_disabled":false,"rental_uris":{"android":"levelo://app?vid=c644aa06-af67-4a7c-885b-288f25b7785f","ios":"levelo://app?vid=c644aa06-af67-4a7c-885b-288f25b7785f"},"vehicle_type_id":"4","last_reported":1731687155,"current_range_meters":23200,"station_id":"ce4bgih2rcd13ifvqba0","pricing_plan_id":"cebpf4jnsgd1na2vs0mg"},{"bike_id":"e31c264d-f9fe-477d-bf6f-89cced98df39","system_id":"levelo_inurba_marseille","lat":43.2418,"lon":5.39739,"is_reserved":false,"is_disabled":false,"rental_uris":{"android":"levelo://app?vid=e31c264d-f9fe-477d-bf6f-89cced98df39","ios":"levelo://app?vid=e31c264d-f9fe-477d-bf6f-89cced98df39"},"vehicle_type_id":"4","last_reported":1731687155,"current_range_meters":8400,"station_id":"ce4bhn12rcd13ifvqgpg","pricing_plan_id":"cebpf4jnsgd1na2vs0mg"},{"bike_id":"922c9ba8-ae0e-4b88-b03f-63f49dbbd446","system_id":"levelo_inurba_marseille","lat":43.28276,"lon":5.35076,"is_reserved":false,"is_disabled":false,"rental_uris":{"android":"levelo://app?vid=922c9ba8-ae0e-4b88-b03f-63f49dbbd446","ios":"levelo://app?vid=922c9ba8-ae0e-4b88-b03f-63f49dbbd446"},"vehicle_type_id":"4","last_reported":1731687155,"current_range_meters":38800,"station_id":"ce4bhbp2rcd13ifvqerg","pricing_plan_id":"cebpf4jnsgd1na2vs0mg"},{"bike_id":"e62fe5a0-95b6-4c6b-9ba1-cd0db17d0852","system_id":"levelo_inurba_marseille","lat":43.32366,"lon":5.36768,"is_reserved":false,"is_disabled":false,"rental_uris":{"android":"levelo://app?vid=e62fe5a0-95b6-4c6b-9ba1-cd0db17d0852","ios":"levelo://app?vid=e62fe5a0-95b6-4c6b-9ba1-cd0db17d0852"},"vehicle_type_id":"4","last_reported":1731687155,"current_range_meters":11200,"station_id":"ce4bhsh2rcd13ifvqi2g","pricing_plan_id":"cebpf4jnsgd1na2vs0mg"},{"bike_id":"edcb2ac4-9384-40b8-9e14-d8a281d6bc40","system_id":"levelo_inurba_marseille","lat":43.28265,"lon":5.35072,"is_reserved":false,"is_disabled":false,"rental_uris":{"android":"levelo://app?vid=edcb2ac4-9384-40b8-9e14-d8a281d6bc40","ios":"levelo://app?vid=edcb2ac4-9384-40b8-9e14-d8a281d6bc40"},"vehicle_type_id":"4","last_reported":1731687155,"current_range_meters":36800,"station_id":"ce4bhbp2rcd13ifvqerg","pricing_plan_id":"cebpf4jnsgd1na2vs0mg"},{"bike_id":"68ef0691-fd36-4fc3-9c86-1195c57223fe","system_id":"levelo_inurba_marseille","lat":43.32106,"lon":5.36771,"is_reserved":false,"is_disabled":false,"rental_uris":{"android":"levelo://app?vid=68ef0691-fd36-4fc3-9c86-1195c57223fe","ios":"levelo://app?vid=68ef0691-fd36-4fc3-9c86-1195c57223fe"},"vehicle_type_id":"4","last_reported":1731687155,"current_range_meters":16000,"station_id":"ce4bhrh2rcd13ifvqhug","pricing_plan_id":"cebpf4jnsgd1na2vs0mg"},{"bike_id":"afa27753-6668-4b00-96a8-43f30a063882","system_id":"levelo_inurba_marseille","lat":43.29939,"lon":5.36563,"is_reserved":false,"is_disabled":false,"rental_uris":{"android":"levelo://app?vid=afa27753-6668-4b00-96a8-43f30a063882","ios":"levelo://app?vid=afa27753-6668-4b00-96a8-43f30a063882"},"vehicle_type_id":"4","last_reported":1731687155,"current_range_meters":6400,"station_id":"ce4bgm92rcd13ifvqbr0","pricing_plan_id":"cebpf4jnsgd1na2vs0mg"},{"bike_id":"2ee424ce-655a-44b8-aa81-59574fed389b","system_id":"levelo_inurba_marseille","lat":43.337444,"lon":5.374475,"is_reserved":false,"is_disabled":false,"rental_uris":{"android":"levelo://app?vid=2ee424ce-655a-44b8-aa81-59574fed389b","ios":"levelo://app?vid=2ee424ce-655a-44b8-aa81-59574fed389b"},"vehicle_type_id":"4","last_reported":1731687155,"current_range_meters":22400,"station_id":"","pricing_plan_id":"cebpf4jnsgd1na2vs0mg"},{"bike_id":"ba60fa76-1daf-48b8-97bf-19ae37a6b666","system_id":"levelo_inurba_marseille","lat":43.29424,"lon":5.38633,"is_reserved":false,"is_disabled":false,"rental_uris":{"android":"levelo://app?vid=ba60fa76-1daf-48b8-97bf-19ae37a6b666","ios":"levelo://app?vid=ba60fa76-1daf-48b8-97bf-19ae37a6b666"},"vehicle_type_id":"4","last_reported":1731687155,"current_range_meters":38800,"station_id":"ce4bh2h2rcd13ifvqdh0","pricing_plan_id":"cebpf4jnsgd1na2vs0mg"},{"bike_id":"fccdcae8-6cb7-468b-a0e1-d48a07857b87","system_id":"levelo_inurba_marseille","lat":43.299042,"lon":5.38539,"is_reserved":false,"is_disabled":false,"rental_uris":{"android":"levelo://app?vid=fccdcae8-6cb7-468b-a0e1-d48a07857b87","ios":"levelo://app?vid=fccdcae8-6cb7-468b-a0e1-d48a07857b87"},"vehicle_type_id":"4","last_reported":1731687155,"current_range_meters":33600,"station_id":"","pricing_plan_id":"cebpf4jnsgd1na2vs0mg"},{"bike_id":"bf3d4903-553d-4529-98bf-7d96503dd8cf","system_id":"levelo_inurba_marseille","lat":43.2738,"lon":5.36256,"is_reserved":false,"is_disabled":false,"rental_uris":{"android":"levelo://app?vid=bf3d4903-553d-4529-98bf-7d96503dd8cf","ios":"levelo://app?vid=bf3d4903-553d-4529-98bf-7d96503dd8cf"},"vehicle_type_id":"4","last_reported":1731687155,"current_range_meters":22800,"station_id":"ce4bhbh2rcd13ifvqeo0","pricing_plan_id":"cebpf4jnsgd1na2vs0mg"},{"bike_id":"b1fe23c4-20a0-4b97-8571-72ca884bc744","system_id":"levelo_inurba_marseille","lat":43.29937,"lon":5.36549,"is_reserved":false,"is_disabled":false,"rental_uris":{"android":"levelo://app?vid=b1fe23c4-20a0-4b97-8571-72ca884bc744","ios":"levelo://app?vid=b1fe23c4-20a0-4b97-8571-72ca884bc744"},"vehicle_type_id":"4","last_reported":1731687155,"current_range_meters":36800,"station_id":"ce4bgm92rcd13ifvqbr0","pricing_plan_id":"cebpf4jnsgd1na2vs0mg"},{"bike_id":"5cefa0ea-696a-47b2-8025-f4d550feffb1","system_id":"levelo_inurba_marseille","lat":43.22932,"lon":5.35378,"is_reserved":false,"is_disabled":false,"rental_uris":{"android":"levelo://app?vid=5cefa0ea-696a-47b2-8025-f4d550feffb1","ios":"levelo://app?vid=5cefa0ea-696a-47b2-8025-f4d550feffb1"},"vehicle_type_id":"4","last_reported":1731687155,"current_range_meters":24800,"station_id":"cpo3532slgdg3j2ikp40","pricing_plan_id":"cebpf4jnsgd1na2vs0mg"},{"bike_id":"33aab107-ab50-4cbf-9fe0-19239eee7f61","system_id":"levelo_inurba_marseille","lat":43.313418,"lon":5.367088,"is_reserved":false,"is_disabled":false,"rental_uris":{"android":"levelo://app?vid=33aab107-ab50-4cbf-9fe0-19239eee7f61","ios":"levelo://app?vid=33aab107-ab50-4cbf-9fe0-19239eee7f61"},"vehicle_type_id":"4","last_reported":1731687155,"current_range_meters":28800,"station_id":"ce4bgr92rcd13ifvqc6g","pricing_plan_id":"cebpf4jnsgd1na2vs0mg"},{"bike_id":"2b258f30-e57c-4dca-8229-79e922410f2b","system_id":"levelo_inurba_marseille","lat":43.25489,"lon":5.37652,"is_reserved":false,"is_disabled":false,"rental_uris":{"android":"levelo://app?vid=2b258f30-e57c-4dca-8229-79e922410f2b","ios":"levelo://app?vid=2b258f30-e57c-4dca-8229-79e922410f2b"},"vehicle_type_id":"4","last_reported":1731687155,"current_range_meters":30400,"station_id":"ce4bhh12rcd13ifvqff0","pricing_plan_id":"cebpf4jnsgd1na2vs0mg"},{"bike_id":"d0164d87-37c5-4bff-b132-829545a9ddec","system_id":"levelo_inurba_marseille","lat":43.27615,"lon":5.360969,"is_reserved":false,"is_disabled":false,"rental_uris":{"android":"levelo://app?vid=d0164d87-37c5-4bff-b132-829545a9ddec","ios":"levelo://app?vid=d0164d87-37c5-4bff-b132-829545a9ddec"},"vehicle_type_id":"4","last_reported":1731687155,"current_range_meters":36000,"station_id":"ce4bgj92rcd13ifvqbe0","pricing_plan_id":"cebpf4jnsgd1na2vs0mg"},{"bike_id":"fe5f64d9-9ec9-41a7-81fa-ee8bdeb888ed","system_id":"levelo_inurba_marseille","lat":43.30246,"lon":5.40069,"is_reserved":false,"is_disabled":false,"rental_uris":{"android":"levelo://app?vid=fe5f64d9-9ec9-41a7-81fa-ee8bdeb888ed","ios":"levelo://app?vid=fe5f64d9-9ec9-41a7-81fa-ee8bdeb888ed"},"vehicle_type_id":"4","last_reported":1731687155,"current_range_meters":18800,"station_id":"ce4bgvh2rcd13ifvqcs0","pricing_plan_id":"cebpf4jnsgd1na2vs0mg"},{"bike_id":"93ceee4d-3c23-4382-81b5-a9568b79d11d","system_id":"levelo_inurba_marseille","lat":43.26025,"lon":5.3755,"is_reserved":false,"is_disabled":false,"rental_uris":{"android":"levelo://app?vid=93ceee4d-3c23-4382-81b5-a9568b79d11d","ios":"levelo://app?vid=93ceee4d-3c23-4382-81b5-a9568b79d11d"},"vehicle_type_id":"4","last_reported":1731687155,"current_range_meters":39200,"station_id":"ce4bhgh2rcd13ifvqfa0","pricing_plan_id":"cebpf4jnsgd1na2vs0mg"},{"bike_id":"94582a67-670f-4c9a-9d21-58244d348b24","system_id":"levelo_inurba_marseille","lat":43.26562,"lon":5.37284,"is_reserved":false,"is_disabled":false,"rental_uris":{"android":"levelo://app?vid=94582a67-670f-4c9a-9d21-58244d348b24","ios":"levelo://app?vid=94582a67-670f-4c9a-9d21-58244d348b24"},"vehicle_type_id":"4","last_reported":1731687155,"current_range_meters":30000,"station_id":"ce4bhg12rcd13ifvqf70","pricing_plan_id":"cebpf4jnsgd1na2vs0mg"},{"bike_id":"d2e68a1b-6656-4f5b-bf8b-7f0858a8c409","system_id":"levelo_inurba_marseille","lat":43.270749,"lon":5.422902,"is_reserved":false,"is_disabled":false,"rental_uris":{"android":"levelo://app?vid=d2e68a1b-6656-4f5b-bf8b-7f0858a8c409","ios":"levelo://app?vid=d2e68a1b-6656-4f5b-bf8b-7f0858a8c409"},"vehicle_type_id":"4","last_reported":1731687155,"current_range_meters":28000,"station_id":"ce4bhk92rcd13ifvqgb0","pricing_plan_id":"cebpf4jnsgd1na2vs0mg"},{"bike_id":"18dadcaa-9d28-4ab9-bdf6-d4f1ae2fa966","system_id":"levelo_inurba_marseille","lat":43.32364,"lon":5.38885,"is_reserved":false,"is_disabled":false,"rental_uris":{"android":"levelo://app?vid=18dadcaa-9d28-4ab9-bdf6-d4f1ae2fa966","ios":"levelo://app?vid=18dadcaa-9d28-4ab9-bdf6-d4f1ae2fa966"},"vehicle_type_id":"4","last_reported":1731687155,"current_range_meters":8400,"station_id":"ce4bhqp2rcd13ifvqhog","pricing_plan_id":"cebpf4jnsgd1na2vs0mg"},{"bike_id":"8279a55d-d5bf-45f6-b3d1-6e1ae9dc2556","system_id":"levelo_inurba_marseille","lat":43.28865,"lon":5.35867,"is_reserved":false,"is_disabled":false,"rental_uris":{"android":"levelo://app?vid=8279a55d-d5bf-45f6-b3d1-6e1ae9dc2556","ios":"levelo://app?vid=8279a55d-d5bf-45f6-b3d1-6e1ae9dc2556"},"vehicle_type_id":"4","last_reported":1731687155,"current_range_meters":16000,"station_id":"ce4bhb12rcd13ifvqem0","pricing_plan_id":"cebpf4jnsgd1na2vs0mg"},{"bike_id":"f4706e0b-0dc0-458e-9bae-85e47855fc23","system_id":"levelo_inurba_marseille","lat":43.308,"lon":5.43527,"is_reserved":false,"is_disabled":false,"rental_uris":{"android":"levelo://app?vid=f4706e0b-0dc0-458e-9bae-85e47855fc23","ios":"levelo://app?vid=f4706e0b-0dc0-458e-9bae-85e47855fc23"},"vehicle_type_id":"4","last_reported":1731687155,"current_range_meters":38800,"station_id":"ce4bhph2rcd13ifvqheg","pricing_plan_id":"cebpf4jnsgd1na2vs0mg"},{"bike_id":"211e51e8-dbf7-4d22-b6f1-8020f0c8fa6e","system_id":"levelo_inurba_marseille","lat":43.24173,"lon":5.36406,"is_reserved":false,"is_disabled":false,"rental_uris":{"android":"levelo://app?vid=211e51e8-dbf7-4d22-b6f1-8020f0c8fa6e","ios":"levelo://app?vid=211e51e8-dbf7-4d22-b6f1-8020f0c8fa6e"},"vehicle_type_id":"4","last_reported":1731687155,"current_range_meters":30000,"station_id":"cpo36qri1sfpv3e86is0","pricing_plan_id":"cebpf4jnsgd1na2vs0mg"},{"bike_id":"7ee971e9-5d27-4374-a184-4b86915ff24d","system_id":"levelo_inurba_marseille","lat":43.30539,"lon":5.38427,"is_reserved":false,"is_disabled":false,"rental_uris":{"android":"levelo://app?vid=7ee971e9-5d27-4374-a184-4b86915ff24d","ios":"levelo://app?vid=7ee971e9-5d27-4374-a184-4b86915ff24d"},"vehicle_type_id":"4","last_reported":1731687155,"current_range_meters":24000,"station_id":"ce4bgg92rcd13ifvqb30","pricing_plan_id":"cebpf4jnsgd1na2vs0mg"},{"bike_id":"179bd699-5dc4-4e18-b597-4bb53a92d2e1","system_id":"levelo_inurba_marseille","lat":43.29843,"lon":5.36275,"is_reserved":false,"is_disabled":false,"rental_uris":{"android":"levelo://app?vid=179bd699-5dc4-4e18-b597-4bb53a92d2e1","ios":"levelo://app?vid=179bd699-5dc4-4e18-b597-4bb53a92d2e1"},"vehicle_type_id":"4","last_reported":1731687155,"current_range_meters":36800,"station_id":"ce4bgpp2rcd13ifvqc3g","pricing_plan_id":"cebpf4jnsgd1na2vs0mg"},{"bike_id":"9092046c-b5f9-431d-9f28-de313477be4b","system_id":"levelo_inurba_marseille","lat":43.232,"lon":5.35551,"is_reserved":false,"is_disabled":false,"rental_uris":{"android":"levelo://app?vid=9092046c-b5f9-431d-9f28-de313477be4b","ios":"levelo://app?vid=9092046c-b5f9-431d-9f28-de313477be4b"},"vehicle_type_id":"4","last_reported":1731687155,"current_range_meters":32000,"station_id":"ce4bhu92rcd13ifvqi70","pricing_plan_id":"cebpf4jnsgd1na2vs0mg"},{"bike_id":"f5945650-f6b6-40ab-a806-203402561a1e","system_id":"levelo_inurba_marseille","lat":43.32635,"lon":5.41012,"is_reserved":false,"is_disabled":false,"rental_uris":{"android":"levelo://app?vid=f5945650-f6b6-40ab-a806-203402561a1e","ios":"levelo://app?vid=f5945650-f6b6-40ab-a806-203402561a1e"},"vehicle_type_id":"4","last_reported":1731687155,"current_range_meters":36400,"station_id":"ce4bhpp2rcd13ifvqhgg","pricing_plan_id":"cebpf4jnsgd1na2vs0mg"},{"bike_id":"aa0ae16c-58f9-46b8-be1a-bba2d31caecc","system_id":"levelo_inurba_marseille","lat":43.321091,"lon":5.36777,"is_reserved":false,"is_disabled":false,"rental_uris":{"android":"levelo://app?vid=aa0ae16c-58f9-46b8-be1a-bba2d31caecc","ios":"levelo://app?vid=aa0ae16c-58f9-46b8-be1a-bba2d31caecc"},"vehicle_type_id":"4","last_reported":1731687155,"current_range_meters":25600,"station_id":"ce4bhrh2rcd13ifvqhug","pricing_plan_id":"cebpf4jnsgd1na2vs0mg"},{"bike_id":"4d4444e5-7bff-4e14-a41e-19398bdb99cd","system_id":"levelo_inurba_marseille","lat":43.28414,"lon":5.34988,"is_reserved":false,"is_disabled":false,"rental_uris":{"android":"levelo://app?vid=4d4444e5-7bff-4e14-a41e-19398bdb99cd","ios":"levelo://app?vid=4d4444e5-7bff-4e14-a41e-19398bdb99cd"},"vehicle_type_id":"4","last_reported":1731687155,"current_range_meters":38000,"station_id":"ce4bhbh2rcd13ifvqepg","pricing_plan_id":"cebpf4jnsgd1na2vs0mg"},{"bike_id":"bc5982c5-027d-4af4-8fae-c04d58bdd000","system_id":"levelo_inurba_marseille","lat":43.29064,"lon":5.37166,"is_reserved":false,"is_disabled":false,"rental_uris":{"android":"levelo://app?vid=bc5982c5-027d-4af4-8fae-c04d58bdd000","ios":"levelo://app?vid=bc5982c5-027d-4af4-8fae-c04d58bdd000"},"vehicle_type_id":"4","last_reported":1731687155,"current_range_meters":16400,"station_id":"ce4bh5p2rcd13ifvqe4g","pricing_plan_id":"cebpf4jnsgd1na2vs0mg"},{"bike_id":"51815f5c-8f45-4f57-8bd2-00de7489220a","system_id":"levelo_inurba_marseille","lat":43.26782,"lon":5.3942,"is_reserved":false,"is_disabled":false,"rental_uris":{"android":"levelo://app?vid=51815f5c-8f45-4f57-8bd2-00de7489220a","ios":"levelo://app?vid=51815f5c-8f45-4f57-8bd2-00de7489220a"},"vehicle_type_id":"4","last_reported":1731687155,"current_range_meters":6800,"station_id":"ce4bhh12rcd13ifvqfg0","pricing_plan_id":"cebpf4jnsgd1na2vs0mg"},{"bike_id":"98efb307-ba4d-455f-a20b-eb26638aa5be","system_id":"levelo_inurba_marseille","lat":43.2886,"lon":5.3585,"is_reserved":false,"is_disabled":false,"rental_uris":{"android":"levelo://app?vid=98efb307-ba4d-455f-a20b-eb26638aa5be","ios":"levelo://app?vid=98efb307-ba4d-455f-a20b-eb26638aa5be"},"vehicle_type_id":"4","last_reported":1731687155,"current_range_meters":8800,"station_id":"ce4bhb12rcd13ifvqem0","pricing_plan_id":"cebpf4jnsgd1na2vs0mg"},{"bike_id":"edf00cc5-23cd-4506-8990-6e19cb767096","system_id":"levelo_inurba_marseille","lat":43.29629,"lon":5.406,"is_reserved":false,"is_disabled":false,"rental_uris":{"android":"levelo://app?vid=edf00cc5-23cd-4506-8990-6e19cb767096","ios":"levelo://app?vid=edf00cc5-23cd-4506-8990-6e19cb767096"},"vehicle_type_id":"4","last_reported":1731687155,"current_range_meters":23200,"station_id":"ce4bh0h2rcd13ifvqd60","pricing_plan_id":"cebpf4jnsgd1na2vs0mg"},{"bike_id":"006a97df-f68e-44a7-9366-c3e9011cf1b1","system_id":"levelo_inurba_marseille","lat":43.2417,"lon":5.36397,"is_reserved":false,"is_disabled":false,"rental_uris":{"android":"levelo://app?vid=006a97df-f68e-44a7-9366-c3e9011cf1b1","ios":"levelo://app?vid=006a97df-f68e-44a7-9366-c3e9011cf1b1"},"vehicle_type_id":"4","last_reported":1731687155,"current_range_meters":12000,"station_id":"cpo36qri1sfpv3e86is0","pricing_plan_id":"cebpf4jnsgd1na2vs0mg"},{"bike_id":"9bbb135e-705b-4374-99e7-95338ccc161e","system_id":"levelo_inurba_marseille","lat":43.28456,"lon":5.35897,"is_reserved":false,"is_disabled":false,"rental_uris":{"android":"levelo://app?vid=9bbb135e-705b-4374-99e7-95338ccc161e","ios":"levelo://app?vid=9bbb135e-705b-4374-99e7-95338ccc161e"},"vehicle_type_id":"4","last_reported":1731687155,"current_range_meters":24000,"station_id":"ce4bhah2rcd13ifvqei0","pricing_plan_id":"cebpf4jnsgd1na2vs0mg"},{"bike_id":"1ffc3938-d30d-42f8-a356-4d038a763850","system_id":"levelo_inurba_marseille","lat":43.291595,"lon":5.372087,"is_reserved":false,"is_disabled":false,"rental_uris":{"android":"levelo://app?vid=1ffc3938-d30d-42f8-a356-4d038a763850","ios":"levelo://app?vid=1ffc3938-d30d-42f8-a356-4d038a763850"},"vehicle_type_id":"4","last_reported":1731687155,"current_range_meters":19200,"station_id":"ce4bha92rcd13ifvqeh0","pricing_plan_id":"cebpf4jnsgd1na2vs0mg"},{"bike_id":"37ab9f73-9230-4174-9c43-53ce4e5cbd48","system_id":"levelo_inurba_marseille","lat":43.29519,"lon":5.39405,"is_reserved":false,"is_disabled":false,"rental_uris":{"android":"levelo://app?vid=37ab9f73-9230-4174-9c43-53ce4e5cbd48","ios":"levelo://app?vid=37ab9f73-9230-4174-9c43-53ce4e5cbd48"},"vehicle_type_id":"4","last_reported":1731687155,"current_range_meters":22800,"station_id":"ce4bh292rcd13ifvqdf0","pricing_plan_id":"cebpf4jnsgd1na2vs0mg"},{"bike_id":"8605dedc-fcc2-4f38-a73e-2a3e64d7c862","system_id":"levelo_inurba_marseille","lat":43.26028,"lon":5.37565,"is_reserved":false,"is_disabled":false,"rental_uris":{"android":"levelo://app?vid=8605dedc-fcc2-4f38-a73e-2a3e64d7c862","ios":"levelo://app?vid=8605dedc-fcc2-4f38-a73e-2a3e64d7c862"},"vehicle_type_id":"4","last_reported":1731687155,"current_range_meters":38800,"station_id":"ce4bhgh2rcd13ifvqfa0","pricing_plan_id":"cebpf4jnsgd1na2vs0mg"},{"bike_id":"e8dd977d-6c5d-4e9f-9ca1-b952b8c1eb09","system_id":"levelo_inurba_marseille","lat":43.32369,"lon":5.36769,"is_reserved":false,"is_disabled":false,"rental_uris":{"android":"levelo://app?vid=e8dd977d-6c5d-4e9f-9ca1-b952b8c1eb09","ios":"levelo://app?vid=e8dd977d-6c5d-4e9f-9ca1-b952b8c1eb09"},"vehicle_type_id":"4","last_reported":1731687155,"current_range_meters":24800,"station_id":"ce4bhsh2rcd13ifvqi2g","pricing_plan_id":"cebpf4jnsgd1na2vs0mg"},{"bike_id":"788f85d0-f01e-4b61-ad37-7021da848619","system_id":"levelo_inurba_marseille","lat":43.30537,"lon":5.36555,"is_reserved":false,"is_disabled":false,"rental_uris":{"android":"levelo://app?vid=788f85d0-f01e-4b61-ad37-7021da848619","ios":"levelo://app?vid=788f85d0-f01e-4b61-ad37-7021da848619"},"vehicle_type_id":"4","last_reported":1731687155,"current_range_meters":14400,"station_id":"ce4bgs12rcd13ifvqcag","pricing_plan_id":"cebpf4jnsgd1na2vs0mg"},{"bike_id":"519110da-6084-421b-b273-1095b1ab708c","system_id":"levelo_inurba_marseille","lat":43.29975,"lon":5.37191,"is_reserved":false,"is_disabled":false,"rental_uris":{"android":"levelo://app?vid=519110da-6084-421b-b273-1095b1ab708c","ios":"levelo://app?vid=519110da-6084-421b-b273-1095b1ab708c"},"vehicle_type_id":"4","last_reported":1731687155,"current_range_meters":27600,"station_id":"ce4bgr92rcd13ifvqc7g","pricing_plan_id":"cebpf4jnsgd1na2vs0mg"},{"bike_id":"eb9aea92-3b99-4aa5-b344-33af08505c3b","system_id":"levelo_inurba_marseille","lat":43.23069,"lon":5.35492,"is_reserved":false,"is_disabled":false,"rental_uris":{"android":"levelo://app?vid=eb9aea92-3b99-4aa5-b344-33af08505c3b","ios":"levelo://app?vid=eb9aea92-3b99-4aa5-b344-33af08505c3b"},