{"last_updated":1732547404,"ttl":60,"version":"2.2","data":{"bikes":[{"bike_id":"28d88fa4-3af7-4b3d-8041-0e91653920e6","system_id":"levelo_inurba_marseille","lat":43.32472,"lon":5.41961,"is_reserved":false,"is_disabled":false,"rental_uris":{"android":"levelo://app?vid=28d88fa4-3af7-4b3d-8041-0e91653920e6","ios":"levelo://app?vid=28d88fa4-3af7-4b3d-8041-0e91653920e6"},"vehicle_type_id":"4","last_reported":1732547404,"current_range_meters":24000,"station_id":"","pricing_plan_id":"cebpf4jnsgd1na2vs0mg"},{"bike_id":"ce7ec125-e5e1-4f1c-9ffa-2776a8995d05","system_id":"levelo_inurba_marseille","lat":43.27061,"lon":5.42281,"is_reserved":false,"is_disabled":true,"rental_uris":{"android":"levelo://app?vid=ce7ec125-e5e1-4f1c-9ffa-2776a8995d05","ios":"levelo://app?vid=ce7ec125-e5e1-4f1c-9ffa-2776a8995d05"},"vehicle_type_id":"4","last_reported":1732547404,"current_range_meters":0,"station_id":"ce4bhk92rcd13ifvqgb0","pricing_plan_id":"cebpf4jnsgd1na2vs0mg"},{"bike_id":"aacfa2ca-f735-450f-bcb1-a1a58f622123","system_id":"levelo_inurba_marseille","lat":43.29272,"lon":5.38453,"is_reserved":false,"is_disabled":false,"rental_uris":{"android":"levelo://app?vid=aacfa2ca-f735-450f-bcb1-a1a58f622123","ios":"levelo://app?vid=aacfa2ca-f735-450f-bcb1-a1a58f622123"},"vehicle_type_id":"4","last_reported":1732547404,"current_range_meters":36800,"station_id":"ce4bh692rcd13ifvqea0","pricing_plan_id":"cebpf4jnsgd1na2vs0mg"},{"bike_id":"d2b2314b-ba8d-4ce1-b454-6fa6c040bc04","system_id":"levelo_inurba_marseille","lat":43.29518,"lon":5.39039,"is_reserved":false,"is_disabled":false,"rental_uris":{"android":"levelo://app?vid=d2b2314b-ba8d-4ce1-b454-6fa6c040bc04","ios":"levelo://app?vid=d2b2314b-ba8d-4ce1-b454-6fa6c040bc04"},"vehicle_type_id":"4","last_reported":1732547404,"current_range_meters":13600,"station_id":"ce4bh3p2rcd13ifvqdp0","pricing_plan_id":"cebpf4jnsgd1na2vs0mg"},{"bike_id":"94527a76-0bb1-4146-9d66-5a02656d021d","system_id":"levelo_inurba_marseille","lat":43.28156,"lon":5.42644,"is_reserved":false,"is_disabled":false,"rental_uris":{"android":"levelo://app?vid=94527a76-0bb1-4146-9d66-5a02656d021d","ios":"levelo://app?vid=94527a76-0bb1-4146-9d66-5a02656d021d"},"vehicle_type_id":"4","last_reported":1732547404,"current_range_meters":10000,"station_id":"ce4bhnh2rcd13ifvqgug","pricing_plan_id":"cebpf4jnsgd1na2vs0mg"},{"bike_id":"94b05f50-3248-4c2e-bc8c-06f23f2b16eb","system_id":"levelo_inurba_marseille","lat":43.31287,"lon":5.36737,"is_reserved":false,"is_disabled":false,"rental_uris":{"android":"levelo://app?vid=94b05f50-3248-4c2e-bc8c-06f23f2b16eb","ios":"levelo://app?vid=94b05f50-3248-4c2e-bc8c-06f23f2b16eb"},"vehicle_type_id":"4","last_reported":1732547404,"current_range_meters":40000,"station_id":"ce4bgr92rcd13ifvqc6g","pricing_plan_id":"cebpf4jnsgd1na2vs0mg"},{"bike_id":"61ae9948-e0e5-4ce3-b06a-504522b4bbcc","system_id":"levelo_inurba_marseille","lat":43.32365,"lon":5.38881,"is_reserved":false,"is_disabled":false,"rental_uris":{"android":"levelo://app?vid=61ae9948-e0e5-4ce3-b06a-504522b4bbcc","ios":"levelo://app?vid=61ae9948-e0e5-4ce3-b06a-504522b4bbcc"},"vehicle_type_id":"4","last_reported":1732547404,"current_range_meters":25200,"station_id":"ce4bhqp2rcd13ifvqhog","pricing_plan_id":"cebpf4jnsgd1na2vs0mg"},{"bike_id":"b89d35ab-5cdc-41cc-a264-c22819d20250","system_id":"levelo_inurba_marseille","lat":43.3254,"lon":5.41441,"is_reserved":false,"is_disabled":false,"rental_uris":{"android":"levelo://app?vid=b89d35ab-5cdc-41cc-a264-c22819d20250","ios":"levelo://app?vid=b89d35ab-5cdc-41cc-a264-c22819d20250"},"vehicle_type_id":"4","last_reported":1732547404,"current_range_meters":38400,"station_id":"ce4bhq12rcd13ifvqhhg","pricing_plan_id":"cebpf4jnsgd1na2vs0mg"},{"bike_id":"065086e2-5232-4321-8447-30045ee3862e","system_id":"levelo_inurba_marseille","lat":43.26784,"lon":5.39412,"is_reserved":false,"is_disabled":false,"rental_uris":{"android":"levelo://app?vid=065086e2-5232-4321-8447-30045ee3862e","ios":"levelo://app?vid=065086e2-5232-4321-8447-30045ee3862e"},"vehicle_type_id":"4","last_reported":1732547404,"current_range_meters":32400,"station_id":"ce4bhh12rcd13ifvqfg0","pricing_plan_id":"cebpf4jnsgd1na2vs0mg"},{"bike_id":"bd48413f-9239-44cb-9483-f1d95b1cacd0","system_id":"levelo_inurba_marseille","lat":43.29311,"lon":5.37454,"is_reserved":false,"is_disabled":false,"rental_uris":{"android":"levelo://app?vid=bd48413f-9239-44cb-9483-f1d95b1cacd0","ios":"levelo://app?vid=bd48413f-9239-44cb-9483-f1d95b1cacd0"},"vehicle_type_id":"4","last_reported":1732547404,"current_range_meters":16000,"station_id":"ce4bgi12rcd13ifvqb70","pricing_plan_id":"cebpf4jnsgd1na2vs0mg"},{"bike_id":"1d480d76-bb73-4781-930a-16c68fdce680","system_id":"levelo_inurba_marseille","lat":43.2558,"lon":5.38229,"is_reserved":false,"is_disabled":false,"rental_uris":{"android":"levelo://app?vid=1d480d76-bb73-4781-930a-16c68fdce680","ios":"levelo://app?vid=1d480d76-bb73-4781-930a-16c68fdce680"},"vehicle_type_id":"4","last_reported":1732547404,"current_range_meters":27600,"station_id":"ce4bhih2rcd13ifvqfs0","pricing_plan_id":"cebpf4jnsgd1na2vs0mg"},{"bike_id":"add2a4ad-b7e7-4440-837d-57cc3f0f1274","system_id":"levelo_inurba_marseille","lat":43.26779,"lon":5.39414,"is_reserved":false,"is_disabled":false,"rental_uris":{"android":"levelo://app?vid=add2a4ad-b7e7-4440-837d-57cc3f0f1274","ios":"levelo://app?vid=add2a4ad-b7e7-4440-837d-57cc3f0f1274"},"vehicle_type_id":"4","last_reported":1732547404,"current_range_meters":19200,"station_id":"ce4bhh12rcd13ifvqfg0","pricing_plan_id":"cebpf4jnsgd1na2vs0mg"},{"bike_id":"44d85a3c-87d0-4176-a55b-1ad052f573ff","system_id":"levelo_inurba_marseille","lat":43.29516,"lon":5.39041,"is_reserved":false,"is_disabled":false,"rental_uris":{"android":"levelo://app?vid=44d85a3c-87d0-4176-a55b-1ad052f573ff","ios":"levelo://app?vid=44d85a3c-87d0-4176-a55b-1ad052f573ff"},"vehicle_type_id":"4","last_reported":1732547404,"current_range_meters":19600,"station_id":"ce4bh3p2rcd13ifvqdp0","pricing_plan_id":"cebpf4jnsgd1na2vs0mg"},{"bike_id":"38e5dd59-c780-4856-8550-b20273f4e496","system_id":"levelo_inurba_marseille","lat":43.30435,"lon":5.38899,"is_reserved":false,"is_disabled":true,"rental_uris":{"android":"levelo://app?vid=38e5dd59-c780-4856-8550-b20273f4e496","ios":"levelo://app?vid=38e5dd59-c780-4856-8550-b20273f4e496"},"vehicle_type_id":"4","last_reported":1732547404,"current_range_meters":29600,"station_id":"ce4bgk12rcd13ifvqbi0","pricing_plan_id":"cebpf4jnsgd1na2vs0mg"},{"bike_id":"39b11e64-2962-470f-8250-90fe18d4a5f4","system_id":"levelo_inurba_marseille","lat":43.24718,"lon":5.393067,"is_reserved":false,"is_disabled":true,"rental_uris":{"android":"levelo://app?vid=39b11e64-2962-470f-8250-90fe18d4a5f4","ios":"levelo://app?vid=39b11e64-2962-470f-8250-90fe18d4a5f4"},"vehicle_type_id":"4","last_reported":1732547404,"current_range_meters":0,"station_id":"","pricing_plan_id":"cebpf4jnsgd1na2vs0mg"},{"bike_id":"96bdc386-972d-4abf-bdbc-fce33197b4f3","system_id":"levelo_inurba_marseille","lat":43.26676,"lon":5.38272,"is_reserved":false,"is_disabled":false,"rental_uris":{"android":"levelo://app?vid=96bdc386-972d-4abf-bdbc-fce33197b4f3","ios":"levelo://app?vid=96bdc386-972d-4abf-bdbc-fce33197b4f3"},"vehicle_type_id":"4","last_reported":1732547404,"current_range_meters":34800,"station_id":"ce4bhg92rcd13ifvqf90","pricing_plan_id":"cebpf4jnsgd1na2vs0mg"},{"bike_id":"3ade58a9-2491-481a-86c5-e1c95f66dde0","system_id":"levelo_inurba_marseille","lat":43.2407,"lon":5.37764,"is_reserved":false,"is_disabled":true,"rental_uris":{"android":"levelo://app?vid=3ade58a9-2491-481a-86c5-e1c95f66dde0","ios":"levelo://app?vid=3ade58a9-2491-481a-86c5-e1c95f66dde0"},"vehicle_type_id":"4","last_reported":1732547404,"current_range_meters":26000,"station_id":"ce4bhnp2rcd13ifvqgvg","pricing_plan_id":"cebpf4jnsgd1na2vs0mg"},{"bike_id":"1dc48c55-1fe9-4286-ae92-825c2ed7ad05","system_id":"levelo_inurba_marseille","lat":43.29593,"lon":5.38106,"is_reserved":false,"is_disabled":false,"rental_uris":{"android":"levelo://app?vid=1dc48c55-1fe9-4286-ae92-825c2ed7ad05","ios":"levelo://app?vid=1dc48c55-1fe9-4286-ae92-825c2ed7ad05"},"vehicle_type_id":"4","last_reported":1732547404,"current_range_meters":26000,"station_id":"ce4bgl12rcd13ifvqbo0","pricing_plan_id":"cebpf4jnsgd1na2vs0mg"},{"bike_id":"a1af92a4-8e4a-4688-ba79-f6e01992b2d2","system_id":"levelo_inurba_marseille","lat":43.337444,"lon":5.374475,"is_reserved":false,"is_disabled":false,"rental_uris":{"android":"levelo://app?vid=a1af92a4-8e4a-4688-ba79-f6e01992b2d2","ios":"levelo://app?vid=a1af92a4-8e4a-4688-ba79-f6e01992b2d2"},"vehicle_type_id":"4","last_reported":1732547404,"current_range_meters":38800,"station_id":"ce4bho92rcd13ifvqh4g","pricing_plan_id":"cebpf4jnsgd1na2vs0mg"},{"bike_id":"7cd82af4-5966-4511-8ce1-037cf7c87bf6","system_id":"levelo_inurba_marseille","lat":43.27663,"lon":5.38924,"is_reserved":false,"is_disabled":false,"rental_uris":{"android":"levelo://app?vid=7cd82af4-5966-4511-8ce1-037cf7c87bf6","ios":"levelo://app?vid=7cd82af4-5966-4511-8ce1-037cf7c87bf6"},"vehicle_type_id":"4","last_reported":1732547404,"current_range_meters":33200,"station_id":"ce4bhi12rcd13ifvqfo0","pricing_plan_id":"cebpf4jnsgd1na2vs0mg"},{"bike_id":"f42dcf9b-16ab-40c7-9a17-1509929eb3ba","system_id":"levelo_inurba_marseille","lat":43.30419,"lon":5.38889,"is_reserved":false,"is_disabled":false,"rental_uris":{"android":"levelo://app?vid=f42dcf9b-16ab-40c7-9a17-1509929eb3ba","ios":"levelo://app?vid=f42dcf9b-16ab-40c7-9a17-1509929eb3ba"},"vehicle_type_id":"4","last_reported":1732547404,"current_range_meters":10800,"station_id":"","pricing_plan_id":"cebpf4jnsgd1na2vs0mg"},{"bike_id":"26ec1a22-5020-45e4-ab45-512c7f67d5dd","system_id":"levelo_inurba_marseille","lat":43.32055,"lon":5.41549,"is_reserved":false,"is_disabled":true,"rental_uris":{"android":"levelo://app?vid=26ec1a22-5020-45e4-ab45-512c7f67d5dd","ios":"levelo://app?vid=26ec1a22-5020-45e4-ab45-512c7f67d5dd"},"vehicle_type_id":"4","last_reported":1732547404,"current_range_meters":37600,"station_id":"ce4bhq92rcd13ifvqhkg","pricing_plan_id":"cebpf4jnsgd1na2vs0mg"},{"bike_id":"b9969948-67c3-4cce-9d83-08743229c288","system_id":"levelo_inurba_marseille","lat":43.30413,"lon":5.41295,"is_reserved":false,"is_disabled":false,"rental_uris":{"android":"levelo://app?vid=b9969948-67c3-4cce-9d83-08743229c288","ios":"levelo://app?vid=b9969948-67c3-4cce-9d83-08743229c288"},"vehicle_type_id":"4","last_reported":1732547404,"current_range_meters":32000,"station_id":"ce4bhop2rcd13ifvqh8g","pricing_plan_id":"cebpf4jnsgd1na2vs0mg"},{"bike_id":"8a771f9d-b5ac-49b5-8bc9-3f97d1465d50","system_id":"levelo_inurba_marseille","lat":43.2894,"lon":5.36635,"is_reserved":false,"is_disabled":true,"rental_uris":{"android":"levelo://app?vid=8a771f9d-b5ac-49b5-8bc9-3f97d1465d50","ios":"levelo://app?vid=8a771f9d-b5ac-49b5-8bc9-3f97d1465d50"},"vehicle_type_id":"4","last_reported":1732547404,"current_range_meters":1600,"station_id":"ce4bhap2rcd13ifvqek0","pricing_plan_id":"cebpf4jnsgd1na2vs0mg"},{"bike_id":"a5b7fd16-6863-4bdd-81cc-b64d06915f3e","system_id":"levelo_inurba_marseille","lat":43.27211,"lon":5.39172,"is_reserved":false,"is_disabled":false,"rental_uris":{"android":"levelo://app?vid=a5b7fd16-6863-4bdd-81cc-b64d06915f3e","ios":"levelo://app?vid=a5b7fd16-6863-4bdd-81cc-b64d06915f3e"},"vehicle_type_id":"4","last_reported":1732547404,"current_range_meters":25600,"station_id":"ce4bhhp2rcd13ifvqfm0","pricing_plan_id":"cebpf4jnsgd1na2vs0mg"},{"bike_id":"6cb001ed-d67a-4de2-8f39-c0f1789c7ac6","system_id":"levelo_inurba_marseille","lat":43.30212,"lon":5.39484,"is_reserved":false,"is_disabled":false,"rental_uris":{"android":"levelo://app?vid=6cb001ed-d67a-4de2-8f39-c0f1789c7ac6","ios":"levelo://app?vid=6cb001ed-d67a-4de2-8f39-c0f1789c7ac6"},"vehicle_type_id":"4","last_reported":1732547404,"current_range_meters":39200,"station_id":"ce4bh0p2rcd13ifvqd70","pricing_plan_id":"cebpf4jnsgd1na2vs0mg"},{"bike_id":"1e126baa-22b4-4cf7-a05e-1c0611873009","system_id":"levelo_inurba_marseille","lat":43.311192,"lon":5.377708,"is_reserved":false,"is_disabled":true,"rental_uris":{"android":"levelo://app?vid=1e126baa-22b4-4cf7-a05e-1c0611873009","ios":"levelo://app?vid=1e126baa-22b4-4cf7-a05e-1c0611873009"},"vehicle_type_id":"4","last_reported":1732547404,"current_range_meters":0,"station_id":"","pricing_plan_id":"cebpf4jnsgd1na2vs0mg"},{"bike_id":"030fb72b-6ff7-4649-8c5f-9f2bebbb17dc","system_id":"levelo_inurba_marseille","lat":43.2668,"lon":5.38277,"is_reserved":false,"is_disabled":false,"rental_uris":{"android":"levelo://app?vid=030fb72b-6ff7-4649-8c5f-9f2bebbb17dc","ios":"levelo://app?vid=030fb72b-6ff7-4649-8c5f-9f2bebbb17dc"},"vehicle_type_id":"4","last_reported":1732547404,"current_range_meters":28000,"station_id":"ce4bhg92rcd13ifvqf90","pricing_plan_id":"cebpf4jnsgd1na2vs0mg"},{"bike_id":"2516526c-dced-4bda-b648-a037d8984aaa","system_id":"levelo_inurba_marseille","lat":43.3254,"lon":5.41447,"is_reserved":false,"is_disabled":false,"rental_uris":{"android":"levelo://app?vid=2516526c-dced-4bda-b648-a037d8984aaa","ios":"levelo://app?vid=2516526c-dced-4bda-b648-a037d8984aaa"},"vehicle_type_id":"4","last_reported":1732547404,"current_range_meters":12400,"station_id":"ce4bhq12rcd13ifvqhhg","pricing_plan_id":"cebpf4jnsgd1na2vs0mg"},{"bike_id":"e80b4ac8-2b11-4ef6-b38c-e22406610880","system_id":"levelo_inurba_marseille","lat":43.29256,"lon":5.38447,"is_reserved":false,"is_disabled":false,"rental_uris":{"android":"levelo://app?vid=e80b4ac8-2b11-4ef6-b38c-e22406610880","ios":"levelo://app?vid=e80b4ac8-2b11-4ef6-b38c-e22406610880"},"vehicle_type_id":"4","last_reported":1732547404,"current_range_meters":16800,"station_id":"ce4bh692rcd13ifvqea0","pricing_plan_id":"cebpf4jnsgd1na2vs0mg"},{"bike_id":"c1c8df13-b0b1-42d1-a218-ca991fdd4fb1","system_id":"levelo_inurba_marseille","lat":43.292869,"lon":5.374563,"is_reserved":false,"is_disabled":false,"rental_uris":{"android":"levelo://app?vid=c1c8df13-b0b1-42d1-a218-ca991fdd4fb1","ios":"levelo://app?vid=c1c8df13-b0b1-42d1-a218-ca991fdd4fb1"},"vehicle_type_id":"4","last_reported":1732547404,"current_range_meters":38400,"station_id":"ce4bgi12rcd13ifvqb70","pricing_plan_id":"cebpf4jnsgd1na2vs0mg"},{"bike_id":"83e73f35-7c3c-4272-b3d1-467a54eac5b9","system_id":"levelo_inurba_marseille","lat":43.295288,"lon":5.385445,"is_reserved":false,"is_disabled":false,"rental_uris":{"android":"levelo://app?vid=83e73f35-7c3c-4272-b3d1-467a54eac5b9","ios":"levelo://app?vid=83e73f35-7c3c-4272-b3d1-467a54eac5b9"},"vehicle_type_id":"4","last_reported":1732547404,"current_range_meters":32000,"station_id":"ce4bgih2rcd13ifvqba0","pricing_plan_id":"cebpf4jnsgd1na2vs0mg"},{"bike_id":"431e0a3a-2484-4d4a-8235-03f12f9c4592","system_id":"levelo_inurba_marseille","lat":43.30442,"lon":5.39755,"is_reserved":false,"is_disabled":false,"rental_uris":{"android":"levelo://app?vid=431e0a3a-2484-4d4a-8235-03f12f9c4592","ios":"levelo://app?vid=431e0a3a-2484-4d4a-8235-03f12f9c4592"},"vehicle_type_id":"4","last_reported":1732547404,"current_range_meters":38000,"station_id":"ce4bh092rcd13ifvqd20","pricing_plan_id":"cebpf4jnsgd1na2vs0mg"},{"bike_id":"04ad3837-6b16-430f-a38d-e70dc4e726b1","system_id":"levelo_inurba_marseille","lat":43.248,"lon":5.37456,"is_reserved":false,"is_disabled":false,"rental_uris":{"android":"levelo://app?vid=04ad3837-6b16-430f-a38d-e70dc4e726b1","ios":"levelo://app?vid=04ad3837-6b16-430f-a38d-e70dc4e726b1"},"vehicle_type_id":"4","last_reported":1732547404,"current_range_meters":6800,"station_id":"ce4bhgh2rcd13ifvqfb0","pricing_plan_id":"cebpf4jnsgd1na2vs0mg"},{"bike_id":"56041f5b-c588-4084-a6e5-2c1d4424e8d2","system_id":"levelo_inurba_marseille","lat":43.25933,"lon":5.40904,"is_reserved":false,"is_disabled":true,"rental_uris":{"android":"levelo://app?vid=56041f5b-c588-4084-a6e5-2c1d4424e8d2","ios":"levelo://app?vid=56041f5b-c588-4084-a6e5-2c1d4424e8d2"},"vehicle_type_id":"4","last_reported":1732547404,"current_range_meters":400,"station_id":"ce4bhm92rcd13ifvqglg","pricing_plan_id":"cebpf4jnsgd1na2vs0mg"},{"bike_id":"5797283e-ee9c-4029-996e-df1eb678396e","system_id":"levelo_inurba_marseille","lat":43.29792,"lon":5.39339,"is_reserved":false,"is_disabled":false,"rental_uris":{"android":"levelo://app?vid=5797283e-ee9c-4029-996e-df1eb678396e","ios":"levelo://app?vid=5797283e-ee9c-4029-996e-df1eb678396e"},"vehicle_type_id":"4","last_reported":1732547404,"current_range_meters":17200,"station_id":"chh1huq6cuj3fo74tm60","pricing_plan_id":"cebpf4jnsgd1na2vs0mg"},{"bike_id":"a73de2a2-c889-4d6a-8a7c-845bdbb682a8","system_id":"levelo_inurba_marseille","lat":43.29512,"lon":5.39047,"is_reserved":false,"is_disabled":false,"rental_uris":{"android":"levelo://app?vid=a73de2a2-c889-4d6a-8a7c-845bdbb682a8","ios":"levelo://app?vid=a73de2a2-c889-4d6a-8a7c-845bdbb682a8"},"vehicle_type_id":"4","last_reported":1732547404,"current_range_meters":33200,"station_id":"ce4bh3p2rcd13ifvqdp0","pricing_plan_id":"cebpf4jnsgd1na2vs0mg"},{"bike_id":"820f12a0-cf28-488c-8a74-3f1b9d2e4db5","system_id":"levelo_inurba_marseille","lat":43.23058,"lon":5.35491,"is_reserved":false,"is_disabled":false,"rental_uris":{"android":"levelo://app?vid=820f12a0-cf28-488c-8a74-3f1b9d2e4db5","ios":"levelo://app?vid=820f12a0-cf28-488c-8a74-3f1b9d2e4db5"},"vehicle_type_id":"4","last_reported":1732547404,"current_range_meters":28400,"station_id":"cpo3342slgdg3j2ifvpg","pricing_plan_id":"cebpf4jnsgd1na2vs0mg"},{"bike_id":"7641f99e-1f4d-4ec4-b628-fb94bb466e6e","system_id":"levelo_inurba_marseille","lat":43.30355,"lon":5.4188,"is_reserved":false,"is_disabled":false,"rental_uris":{"android":"levelo://app?vid=7641f99e-1f4d-4ec4-b628-fb94bb466e6e","ios":"levelo://app?vid=7641f99e-1f4d-4ec4-b628-fb94bb466e6e"},"vehicle_type_id":"4","last_reported":1732547404,"current_range_meters":17600,"station_id":"ce4bhop2rcd13ifvqh7g","pricing_plan_id":"cebpf4jnsgd1na2vs0mg"},{"bike_id":"878fe17e-0427-4e79-a1b4-42b24a342180","system_id":"levelo_inurba_marseille","lat":43.29679,"lon":5.3729,"is_reserved":false,"is_disabled":false,"rental_uris":{"android":"levelo://app?vid=878fe17e-0427-4e79-a1b4-42b24a342180","ios":"levelo://app?vid=878fe17e-0427-4e79-a1b4-42b24a342180"},"vehicle_type_id":"4","last_reported":1732547404,"current_range_meters":26000,"station_id":"ce4bgk12rcd13ifvqbj0","pricing_plan_id":"cebpf4jnsgd1na2vs0mg"},{"bike_id":"9465545f-af87-4599-bf7e-091832e32b7b","system_id":"levelo_inurba_marseille","lat":43.29528,"lon":5.38549,"is_reserved":false,"is_disabled":true,"rental_uris":{"android":"levelo://app?vid=9465545f-af87-4599-bf7e-091832e32b7b","ios":"levelo://app?vid=9465545f-af87-4599-bf7e-091832e32b7b"},"vehicle_type_id":"4","last_reported":1732547404,"current_range_meters":24800,"station_id":"ce4bgih2rcd13ifvqba0","pricing_plan_id":"cebpf4jnsgd1na2vs0mg"},{"bike_id":"250d97f1-5ebb-4c6a-879d-09be31765fdd","system_id":"levelo_inurba_marseille","lat":43.26551,"lon":5.39012,"is_reserved":false,"is_disabled":false,"rental_uris":{"android":"levelo://app?vid=250d97f1-5ebb-4c6a-879d-09be31765fdd","ios":"levelo://app?vid=250d97f1-5ebb-4c6a-879d-09be31765fdd"},"vehicle_type_id":"4","last_reported":1732547404,"current_range_meters":26800,"station_id":"ce4bhe12rcd13ifvqf30","pricing_plan_id":"cebpf4jnsgd1na2vs0mg"},{"bike_id":"40cfd9d7-e32d-46e7-9583-673a5ca6d2ed","system_id":"levelo_inurba_marseille","lat":43.26699,"lon":5.38264,"is_reserved":false,"is_disabled":false,"rental_uris":{"android":"levelo://app?vid=40cfd9d7-e32d-46e7-9583-673a5ca6d2ed","ios":"levelo://app?vid=40cfd9d7-e32d-46e7-9583-673a5ca6d2ed"},"vehicle_type_id":"4","last_reported":1732547404,"current_range_meters":38000,"station_id":"ce4bhg92rcd13ifvqf90","pricing_plan_id":"cebpf4jnsgd1na2vs0mg"},{"bike_id":"37d6af6b-2a4f-453a-8663-2e598fd92ec6","system_id":"levelo_inurba_marseille","lat":43.27818,"lon":5.39209,"is_reserved":false,"is_disabled":false,"rental_uris":{"android":"levelo://app?vid=37d6af6b-2a4f-453a-8663-2e598fd92ec6","ios":"levelo://app?vid=37d6af6b-2a4f-453a-8663-2e598fd92ec6"},"vehicle_type_id":"4","last_reported":1732547404,"current_range_meters":18000,"station_id":"ce4bhjp2rcd13ifvqga0","pricing_plan_id":"cebpf4jnsgd1na2vs0mg"},{"bike_id":"835b00c2-64c0-4cbe-82bb-c78dd70919e3","system_id":"levelo_inurba_marseille","lat":43.27955,"lon":5.40801,"is_reserved":false,"is_disabled":false,"rental_uris":{"android":"levelo://app?vid=835b00c2-64c0-4cbe-82bb-c78dd70919e3","ios":"levelo://app?vid=835b00c2-64c0-4cbe-82bb-c78dd70919e3"},"vehicle_type_id":"4","last_reported":1732547404,"current_range_meters":7200,"station_id":"","pricing_plan_id":"cebpf4jnsgd1na2vs0mg"},{"bike_id":"1f219c55-5e03-463f-94b5-4525868bcf35","system_id":"levelo_inurba_marseille","lat":43.29977,"lon":5.38488,"is_reserved":false,"is_disabled":false,"rental_uris":{"android":"levelo://app?vid=1f219c55-5e03-463f-94b5-4525868bcf35","ios":"levelo://app?vid=1f219c55-5e03-463f-94b5-4525868bcf35"},"vehicle_type_id":"4","last_reported":1732547404,"current_range_meters":37600,"station_id":"ce4bgj92rcd13ifvqbd0","pricing_plan_id":"cebpf4jnsgd1na2vs0mg"},{"bike_id":"9382e0e6-aeec-49e9-b4ac-050f3043c334","system_id":"levelo_inurba_marseille","lat":43.24184,"lon":5.39725,"is_reserved":false,"is_disabled":false,"rental_uris":{"android":"levelo://app?vid=9382e0e6-aeec-49e9-b4ac-050f3043c334","ios":"levelo://app?vid=9382e0e6-aeec-49e9-b4ac-050f3043c334"},"vehicle_type_id":"4","last_reported":1732547404,"current_range_meters":33600,"station_id":"ce4bhn12rcd13ifvqgpg","pricing_plan_id":"cebpf4jnsgd1na2vs0mg"},{"bike_id":"cdea59b3-474c-435a-97c9-7a97db92633d","system_id":"levelo_inurba_marseille","lat":43.30796,"lon":5.43523,"is_reserved":false,"is_disabled":false,"rental_uris":{"android":"levelo://app?vid=cdea59b3-474c-435a-97c9-7a97db92633d","ios":"levelo://app?vid=cdea59b3-474c-435a-97c9-7a97db92633d"},"vehicle_type_id":"4","last_reported":1732547404,"current_range_meters":37600,"station_id":"ce4bhph2rcd13ifvqheg","pricing_plan_id":"cebpf4jnsgd1na2vs0mg"},{"bike_id":"8f2aa4c1-472e-48b8-b9a7-e83545c95d08","system_id":"levelo_inurba_marseille","lat":43.30526,"lon":5.36546,"is_reserved":false,"is_disabled":false,"rental_uris":{"android":"levelo://app?vid=8f2aa4c1-472e-48b8-b9a7-e83545c95d08","ios":"levelo://app?vid=8f2aa4c1-472e-48b8-b9a7-e83545c95d08"},"vehicle_type_id":"4","last_reported":1732547404,"current_range_meters":32800,"station_id":"ce4bgs12rcd13ifvqcag","pricing_plan_id":"cebpf4jnsgd1na2vs0mg"},{"bike_id":"37d586da-a7a4-40c1-b6cf-fff1e4da8813","system_id":"levelo_inurba_marseille","lat":43.29434,"lon":5.39748,"is_reserved":false,"is_disabled":false,"rental_uris":{"android":"levelo://app?vid=37d586da-a7a4-40c1-b6cf-fff1e4da8813","ios":"levelo://app?vid=37d586da-a7a4-40c1-b6cf-fff1e4da8813"},"vehicle_type_id":"4","last_reported":1732547404,"current_range_meters":25600,"station_id":"ce4bh3h2rcd13ifvqdo0","pricing_plan_id":"cebpf4jnsgd1na2vs0mg"},{"bike_id":"beb4665f-78db-4703-ac07-701d0599a05a","system_id":"levelo_inurba_marseille","lat":43.29406,"lon":5.38589,"is_reserved":false,"is_disabled":false,"rental_uris":{"android":"levelo://app?vid=beb4665f-78db-4703-ac07-701d0599a05a","ios":"levelo://app?vid=beb4665f-78db-4703-ac07-701d0599a05a"},"vehicle_type_id":"4","last_reported":1732547404,"current_range_meters":36000,"station_id":"ce4bh2h2rcd13ifvqdh0","pricing_plan_id":"cebpf4jnsgd1na2vs0mg"},{"bike_id":"5b8cd3b4-e243-4fba-aaf5-11d686fcd3e4","system_id":"levelo_inurba_marseille","lat":43.29001,"lon":5.3562,"is_reserved":false,"is_disabled":true,"rental_uris":{"android":"levelo://app?vid=5b8cd3b4-e243-4fba-aaf5-11d686fcd3e4","ios":"levelo://app?vid=5b8cd3b4-e243-4fba-aaf5-11d686fcd3e4"},"vehicle_type_id":"4","last_reported":1732547404,"current_range_meters":28400,"station_id":"ce4bhb92rcd13ifvqen0","pricing_plan_id":"cebpf4jnsgd1na2vs0mg"},{"bike_id":"64ecd7bd-f500-4f63-8834-60b7e491f33d","system_id":"levelo_inurba_marseille","lat":43.29422,"lon":5.38631,"is_reserved":false,"is_disabled":false,"rental_uris":{"android":"levelo://app?vid=64ecd7bd-f500-4f63-8834-60b7e491f33d","ios":"levelo://app?vid=64ecd7bd-f500-4f63-8834-60b7e491f33d"},"vehicle_type_id":"4","last_reported":1732547404,"current_range_meters":19200,"station_id":"ce4bh2h2rcd13ifvqdh0","pricing_plan_id":"cebpf4jnsgd1na2vs0mg"},{"bike_id":"31d77af9-b2e3-42f4-b9be-40536570a291","system_id":"levelo_inurba_marseille","lat":43.32481,"lon":5.36564,"is_reserved":false,"is_disabled":false,"rental_uris":{"android":"levelo://app?vid=31d77af9-b2e3-42f4-b9be-40536570a291","ios":"levelo://app?vid=31d77af9-b2e3-42f4-b9be-40536570a291"},"vehicle_type_id":"4","last_reported":1732547404,"current_range_meters":38800,"station_id":"ce4bhs12rcd13ifvqhvg","pricing_plan_id":"cebpf4jnsgd1na2vs0mg"},{"bike_id":"96550179-6702-4c4d-ac6d-37e10a9eca6b","system_id":"levelo_inurba_marseille","lat":43.29005,"lon":5.35613,"is_reserved":false,"is_disabled":false,"rental_uris":{"android":"levelo://app?vid=96550179-6702-4c4d-ac6d-37e10a9eca6b","ios":"levelo://app?vid=96550179-6702-4c4d-ac6d-37e10a9eca6b"},"vehicle_type_id":"4","last_reported":1732547404,"current_range_meters":25200,"station_id":"ce4bhb92rcd13ifvqen0","pricing_plan_id":"cebpf4jnsgd1na2vs0mg"},{"bike_id":"77e0f016-5531-4b35-b2b0-9b7b16563444","system_id":"levelo_inurba_marseille","lat":43.28365,"lon":5.38628,"is_reserved":false,"is_disabled":false,"rental_uris":{"android":"levelo://app?vid=77e0f016-5531-4b35-b2b0-9b7b16563444","ios":"levelo://app?vid=77e0f016-5531-4b35-b2b0-9b7b16563444"},"vehicle_type_id":"4","last_reported":1732547404,"current_range_meters":27200,"station_id":"ce4bh492rcd13ifvqdvg","pricing_plan_id":"cebpf4jnsgd1na2vs0mg"},{"bike_id":"94598624-aca1-431b-95f6-fd2dc3ebe910","system_id":"levelo_inurba_marseille","lat":43.29418,"lon":5.38624,"is_reserved":false,"is_disabled":false,"rental_uris":{"android":"levelo://app?vid=94598624-aca1-431b-95f6-fd2dc3ebe910","ios":"levelo://app?vid=94598624-aca1-431b-95f6-fd2dc3ebe910"},"vehicle_type_id":"4","last_reported":1732547404,"current_range_meters":25600,"station_id":"ce4bh2h2rcd13ifvqdh0","pricing_plan_id":"cebpf4jnsgd1na2vs0mg"},{"bike_id":"e180cc00-3d09-464a-8e45-b87e01aa8b98","system_id":"levelo_inurba_marseille","lat":43.29522,"lon":5.37509,"is_reserved":false,"is_disabled":false,"rental_uris":{"android":"levelo://app?vid=e180cc00-3d09-464a-8e45-b87e01aa8b98","ios":"levelo://app?vid=e180cc00-3d09-464a-8e45-b87e01aa8b98"},"vehicle_type_id":"4","last_reported":1732547404,"current_range_meters":37600,"station_id":"ce4bgkp2rcd13ifvqbmg","pricing_plan_id":"cebpf4jnsgd1na2vs0mg"},{"bike_id":"fc763049-adc4-43d6-8e61-568fcf8ea3f9","system_id":"levelo_inurba_marseille","lat":43.29711,"lon":5.37696,"is_reserved":false,"is_disabled":false,"rental_uris":{"android":"levelo://app?vid=fc763049-adc4-43d6-8e61-568fcf8ea3f9","ios":"levelo://app?vid=fc763049-adc4-43d6-8e61-568fcf8ea3f9"},"vehicle_type_id":"4","last_reported":1732547404,"current_range_meters":25600,"station_id":"ce4bgkh2rcd13ifvqbl0","pricing_plan_id":"cebpf4jnsgd1na2vs0mg"},{"bike_id":"fab1b5c2-43a5-4024-ab32-1d78c9203630","system_id":"levelo_inurba_marseille","lat":43.27053,"lon":5.40264,"is_reserved":false,"is_disabled":false,"rental_uris":{"android":"levelo://app?vid=fab1b5c2-43a5-4024-ab32-1d78c9203630","ios":"levelo://app?vid=fab1b5c2-43a5-4024-ab32-1d78c9203630"},"vehicle_type_id":"4","last_reported":1732547404,"current_range_meters":3200,"station_id":"ce4bhk92rcd13ifvqgc0","pricing_plan_id":"cebpf4jnsgd1na2vs0mg"},{"bike_id":"a77971ac-65c1-486a-9c6b-16ac2e9cbd2d","system_id":"levelo_inurba_marseille","lat":43.24663,"lon":5.38169,"is_reserved":false,"is_disabled":false,"rental_uris":{"android":"levelo://app?vid=a77971ac-65c1-486a-9c6b-16ac2e9cbd2d","ios":"levelo://app?vid=a77971ac-65c1-486a-9c6b-16ac2e9cbd2d"},"vehicle_type_id":"4","last_reported":1732547404,"current_range_meters":31200,"station_id":"ce4bhih2rcd13ifvqfr0","pricing_plan_id":"cebpf4jnsgd1na2vs0mg"},{"bike_id":"2c384b1f-5039-4f0e-8f92-cb5cf4facffb","system_id":"levelo_inurba_marseille","lat":43.29808,"lon":5.38091,"is_reserved":false,"is_disabled":false,"rental_uris":{"android":"levelo://app?vid=2c384b1f-5039-4f0e-8f92-cb5cf4facffb","ios":"levelo://app?vid=2c384b1f-5039-4f0e-8f92-cb5cf4facffb"},"vehicle_type_id":"4","last_reported":1732547404,"current_range_meters":38800,"station_id":"ce4bgip2rcd13ifvqbb0","pricing_plan_id":"cebpf4jnsgd1na2vs0mg"},{"bike_id":"54f158e7-1fe0-4c86-b21f-09513cf7a0b8","system_id":"levelo_inurba_marseille","lat":43.25494,"lon":5.37654,"is_reserved":false,"is_disabled":false,"rental_uris":{"android":"levelo://app?vid=54f158e7-1fe0-4c86-b21f-09513cf7a0b8","ios":"levelo://app?vid=54f158e7-1fe0-4c86-b21f-09513cf7a0b8"},"vehicle_type_id":"4","last_reported":1732547404,"current_range_meters":25600,"station_id":"ce4bhh12rcd13ifvqff0","pricing_plan_id":"cebpf4jnsgd1na2vs0mg"},{"bike_id":"51928fb5-6b95-4503-ba5d-3fb0003d1c94","system_id":"levelo_inurba_marseille","lat":43.29592,"lon":5.38098,"is_reserved":false,"is_disabled":true,"rental_uris":{"android":"levelo://app?vid=51928fb5-6b95-4503-ba5d-3fb0003d1c94","ios":"levelo://app?vid=51928fb5-6b95-4503-ba5d-3fb0003d1c94"},"vehicle_type_id":"4","last_reported":1732547404,"current_range_meters":30800,"station_id":"ce4bgl12rcd13ifvqbo0","pricing_plan_id":"cebpf4jnsgd1na2vs0mg"},{"bike_id":"d51bd6cf-dfc2-400a-b15c-4833d9982ffa","system_id":"levelo_inurba_marseille","lat":43.31079,"lon":5.42428,"is_reserved":false,"is_disabled":false,"rental_uris":{"android":"levelo://app?vid=d51bd6cf-dfc2-400a-b15c-4833d9982ffa","ios":"levelo://app?vid=d51bd6cf-dfc2-400a-b15c-4833d9982ffa"},"vehicle_type_id":"4","last_reported":1732547404,"current_range_meters":20400,"station_id":"ce4bhp92rcd13ifvqhag","pricing_plan_id":"cebpf4jnsgd1na2vs0mg"},{"bike_id":"9df37d51-48aa-40f6-b566-b3b79bdc3f81","system_id":"levelo_inurba_marseille","lat":43.3043,"lon":5.38892,"is_reserved":false,"is_disabled":false,"rental_uris":{"android":"levelo://app?vid=9df37d51-48aa-40f6-b566-b3b79bdc3f81","ios":"levelo://app?vid=9df37d51-48aa-40f6-b566-b3b79bdc3f81"},"vehicle_type_id":"4","last_reported":1732547404,"current_range_meters":35600,"station_id":"ce4bgk12rcd13ifvqbi0","pricing_plan_id":"cebpf4jnsgd1na2vs0mg"},{"bike_id":"e20687bf-5208-4ea9-a778-91af5c211d2b","system_id":"levelo_inurba_marseille","lat":43.27945,"lon":5.41046,"is_reserved":false,"is_disabled":false,"rental_uris":{"android":"levelo://app?vid=e20687bf-5208-4ea9-a778-91af5c211d2b","ios":"levelo://app?vid=e20687bf-5208-4ea9-a778-91af5c211d2b"},"vehicle_type_id":"4","last_reported":1732547404,"current_range_meters":20000,"station_id":"ce4bhnp2rcd13ifvqh0g","pricing_plan_id":"cebpf4jnsgd1na2vs0mg"},{"bike_id":"d2545bea-cbae-49a2-a5ff-513b0f5a1eef","system_id":"levelo_inurba_marseille","lat":43.32288,"lon":5.3825,"is_reserved":false,"is_disabled":false,"rental_uris":{"android":"levelo://app?vid=d2545bea-cbae-49a2-a5ff-513b0f5a1eef","ios":"levelo://app?vid=d2545bea-cbae-49a2-a5ff-513b0f5a1eef"},"vehicle_type_id":"4","last_reported":1732547404,"current_range_meters":38000,"station_id":"ce4bhr12rcd13ifvqhqg","pricing_plan_id":"cebpf4jnsgd1na2vs0mg"},{"bike_id":"aa717be1-dcce-416b-90e1-180e376a1e41","system_id":"levelo_inurba_marseille","lat":43.337444,"lon":5.374475,"is_reserved":false,"is_disabled":false,"rental_uris":{"android":"levelo://app?vid=aa717be1-dcce-416b-90e1-180e376a1e41","ios":"levelo://app?vid=aa717be1-dcce-416b-90e1-180e376a1e41"},"vehicle_type_id":"4","last_reported":1732547404,"current_range_meters":38000,"station_id":"","pricing_plan_id":"cebpf4jnsgd1na2vs0mg"},{"bike_id":"2a09209b-9e53-4e93-a4c9-9ab475d29893","system_id":"levelo_inurba_marseille","lat":43.30248,"lon":5.37432,"is_reserved":false,"is_disabled":true,"rental_uris":{"android":"levelo://app?vid=2a09209b-9e53-4e93-a4c9-9ab475d29893","ios":"levelo://app?vid=2a09209b-9e53-4e93-a4c9-9ab475d29893"},"vehicle_type_id":"4","last_reported":1732547404,"current_range_meters":20400,"station_id":"","pricing_plan_id":"cebpf4jnsgd1na2vs0mg"},{"bike_id":"294eeb79-af1b-495a-909f-216801ae6b41","system_id":"levelo_inurba_marseille","lat":43.3375,"lon":5.37445,"is_reserved":false,"is_disabled":false,"rental_uris":{"android":"levelo://app?vid=294eeb79-af1b-495a-909f-216801ae6b41","ios":"levelo://app?vid=294eeb79-af1b-495a-909f-216801ae6b41"},"vehicle_type_id":"4","last_reported":1732547404,"current_range_meters":13600,"station_id":"","pricing_plan_id":"cebpf4jnsgd1na2vs0mg"},{"bike_id":"ceb3dd85-d477-4e11-bca7-a25d6c80c35f","system_id":"levelo_inurba_marseille","lat":43.30213,"lon":5.39467,"is_reserved":false,"is_disabled":false,"rental_uris":{"android":"levelo://app?vid=ceb3dd85-d477-4e11-bca7-a25d6c80c35f","ios":"levelo://app?vid=ceb3dd85-d477-4e11-bca7-a25d6c80c35f"},"vehicle_type_id":"4","last_reported":1732547404,"current_range_meters":32800,"station_id":"ce4bh0p2rcd13ifvqd70","pricing_plan_id":"cebpf4jnsgd1na2vs0mg"},{"bike_id":"681ff753-275b-4897-9f3b-a3246a45efc8","system_id":"levelo_inurba_marseille","lat":43.26866,"lon":5.38508,"is_reserved":false,"is_disabled":false,"rental_uris":{"android":"levelo://app?vid=681ff753-275b-4897-9f3b-a3246a45efc8","ios":"levelo://app?vid=681ff753-275b-4897-9f3b-a3246a45efc8"},"vehicle_type_id":"4","last_reported":1732547404,"current_range_meters":10800,"station_id":"ce4bhh92rcd13ifvqfi0","pricing_plan_id":"cebpf4jnsgd1na2vs0mg"},{"bike_id":"97333243-b346-4fd4-8ad6-8fc6a0b7613f","system_id":"levelo_inurba_marseille","lat":43.28718,"lon":5.36091,"is_reserved":false,"is_disabled":false,"rental_uris":{"android":"levelo://app?vid=97333243-b346-4fd4-8ad6-8fc6a0b7613f","ios":"levelo://app?vid=97333243-b346-4fd4-8ad6-8fc6a0b7613f"},"vehicle_type_id":"4","last_reported":1732547404,"current_range_meters":38000,"station_id":"cki0cbj6b192h4jlfktg","pricing_plan_id":"cebpf4jnsgd1na2vs0mg"},{"bike_id":"d97d4fbd-9634-467d-982a-9b3118008db6","system_id":"levelo_inurba_marseille","lat":43.24389,"lon":5.37059,"is_reserved":false,"is_disabled":false,"rental_uris":{"android":"levelo://app?vid=d97d4fbd-9634-467d-982a-9b3118008db6","ios":"levelo://app?vid=d97d4fbd-9634-467d-982a-9b3118008db6"},"vehicle_type_id":"4","last_reported":1732547404,"current_range_meters":11600,"station_id":"","pricing_plan_id":"cebpf4jnsgd1na2vs0mg"},{"bike_id":"62cc5dcf-fcb0-4dc4-86ea-bd26c9f5b08e","system_id":"levelo_inurba_marseille","lat":43.26566,"lon":5.39011,"is_reserved":false,"is_disabled":false,"rental_uris":{"android":"levelo://app?vid=62cc5dcf-fcb0-4dc4-86ea-bd26c9f5b08e","ios":"levelo://app?vid=62cc5dcf-fcb0-4dc4-86ea-bd26c9f5b08e"},"vehicle_type_id":"4","last_reported":1732547404,"current_range_meters":14800,"station_id":"ce4bhe12rcd13ifvqf30","pricing_plan_id":"cebpf4jnsgd1na2vs0mg"},{"bike_id":"c2d79a08-3d81-480f-80c4-d9075dcd8711","system_id":"levelo_inurba_marseille","lat":43.2655,"lon":5.37294,"is_reserved":false,"is_disabled":false,"rental_uris":{"android":"levelo://app?vid=c2d79a08-3d81-480f-80c4-d9075dcd8711","ios":"levelo://app?vid=c2d79a08-3d81-480f-80c4-d9075dcd8711"},"vehicle_type_id":"4","last_reported":1732547404,"current_range_meters":32000,"station_id":"ce4bhg12rcd13ifvqf70","pricing_plan_id":"cebpf4jnsgd1na2vs0mg"},{"bike_id":"ed9d6ed8-7507-475a-a70c-c49f76805f94","system_id":"levelo_inurba_marseille","lat":43.30146,"lon":5.3741,"is_reserved":false,"is_disabled":false,"rental_uris":{"android":"levelo://app?vid=ed9d6ed8-7507-475a-a70c-c49f76805f94","ios":"levelo://app?vid=ed9d6ed8-7507-475a-a70c-c49f76805f94"},"vehicle_type_id":"4","last_reported":1732547404,"current_range_meters":18000,"station_id":"ce4bgs92rcd13ifvqcc0","pricing_plan_id":"cebpf4jnsgd1na2vs0mg"},{"bike_id":"777b7fed-d395-4c97-b504-dee7c3479d4f","system_id":"levelo_inurba_marseille","lat":43.29836,"lon":5.3785,"is_reserved":false,"is_disabled":true,"rental_uris":{"android":"levelo://app?vid=777b7fed-d395-4c97-b504-dee7c3479d4f","ios":"levelo://app?vid=777b7fed-d395-4c97-b504-dee7c3479d4f"},"vehicle_type_id":"4","last_reported":1732547404,"current_range_meters":0,"station_id":"","pricing_plan_id":"cebpf4jnsgd1na2vs0mg"},{"bike_id":"1a29f326-6485-43b2-9585-dbe1ff4a97c5","system_id":"levelo_inurba_marseille","lat":43.31084,"lon":5.42434,"is_reserved":false,"is_disabled":false,"rental_uris":{"android":"levelo://app?vid=1a29f326-6485-43b2-9585-dbe1ff4a97c5","ios":"levelo://app?vid=1a29f326-6485-43b2-9585-dbe1ff4a97c5"},"vehicle_type_id":"4","last_reported":1732547404,"current_range_meters":25200,"station_id":"ce4bhp92rcd13ifvqhag","pricing_plan_id":"cebpf4jnsgd1na2vs0mg"},{"bike_id":"cd78312a-142a-42d0-92e1-dbc654bf8bb4","system_id":"levelo_inurba_marseille","lat":43.24176,"lon":5.39726,"is_reserved":false,"is_disabled":true,"rental_uris":{"android":"levelo://app?vid=cd78312a-142a-42d0-92e1-dbc654bf8bb4","ios":"levelo://app?vid=cd78312a-142a-42d0-92e1-dbc654bf8bb4"},"vehicle_type_id":"4","last_reported":1732547404,"current_range_meters":4000,"station_id":"ce4bhn12rcd13ifvqgpg","pricing_plan_id":"cebpf4jnsgd1na2vs0mg"},{"bike_id":"01ba9a8f-8204-4d08-822e-cbcda7876993","system_id":"levelo_inurba_marseille","lat":43.26201,"lon":5.3793,"is_reserved":false,"is_disabled":false,"rental_uris":{"android":"levelo://app?vid=01ba9a8f-8204-4d08-822e-cbcda7876993","ios":"levelo://app?vid=01ba9a8f-8204-4d08-822e-cbcda7876993"},"vehicle_type_id":"4","last_reported":1732547404,"current_range_meters":29600,"station_id":"ce4bhjp2rcd13ifvqg90","pricing_plan_id":"cebpf4jnsgd1na2vs0mg"},{"bike_id":"d922b735-d82b-4e62-aaae-247cfa2ce37a","system_id":"levelo_inurba_marseille","lat":43.25106,"lon":5.40326,"is_reserved":false,"is_disabled":false,"rental_uris":{"android":"levelo://app?vid=d922b735-d82b-4e62-aaae-247cfa2ce37a","ios":"levelo://app?vid=d922b735-d82b-4e62-aaae-247cfa2ce37a"},"vehicle_type_id":"4","last_reported":1732547404,"current_range_meters":16000,"station_id":"ce4bhlh2rcd13ifvqgig","pricing_plan_id":"cebpf4jnsgd1na2vs0mg"},{"bike_id":"665dbd51-1b3b-4a40-8dc1-06f9ecf1dfaf","system_id":"levelo_inurba_marseille","lat":43.24661,"lon":5.38161,"is_reserved":false,"is_disabled":false,"rental_uris":{"android":"levelo://app?vid=665dbd51-1b3b-4a40-8dc1-06f9ecf1dfaf","ios":"levelo://app?vid=665dbd51-1b3b-4a40-8dc1-06f9ecf1dfaf"},"vehicle_type_id":"4","last_reported":1732547404,"current_range_meters":18000,"station_id":"ce4bhih2rcd13ifvqfr0","pricing_plan_id":"cebpf4jnsgd1na2vs0mg"},{"bike_id":"935038d0-e307-49e5-ab69-c010784c0474","system_id":"levelo_inurba_marseille","lat":43.2593,"lon":5.40905,"is_reserved":false,"is_disabled":false,"rental_uris":{"android":"levelo://app?vid=935038d0-e307-49e5-ab69-c010784c0474","ios":"levelo://app?vid=935038d0-e307-49e5-ab69-c010784c0474"},"vehicle_type_id":"4","last_reported":1732547404,"current_range_meters":16000,"station_id":"ce4bhm92rcd13ifvqglg","pricing_plan_id":"cebpf4jnsgd1na2vs0mg"},{"bike_id":"dd5ab154-647e-4dfa-88f1-0f781c7552f5","system_id":"levelo_inurba_marseille","lat":43.25585,"lon":5.38243,"is_reserved":false,"is_disabled":false,"rental_uris":{"android":"levelo://app?vid=dd5ab154-647e-4dfa-88f1-0f781c7552f5","ios":"levelo://app?vid=dd5ab154-647e-4dfa-88f1-0f781c7552f5"},"vehicle_type_id":"4","last_reported":1732547404,"current_range_meters":21600,"station_id":"ce4bhih2rcd13ifvqfs0","pricing_plan_id":"cebpf4jnsgd1na2vs0mg"},{"bike_id":"f90b5ae0-d91c-4007-bac3-1bc86ce63375","system_id":"levelo_inurba_marseille","lat":43.25825,"lon":5.39431,"is_reserved":false,"is_disabled":false,"rental_uris":{"android":"levelo://app?vid=f90b5ae0-d91c-4007-bac3-1bc86ce63375","ios":"levelo://app?vid=f90b5ae0-d91c-4007-bac3-1bc86ce63375"},"vehicle_type_id":"4","last_reported":1732547404,"current_range_meters":7200,"station_id":"ce4bhip2rcd13ifvqft0","pricing_plan_id":"cebpf4jnsgd1na2vs0mg"},{"bike_id":"994195f6-b5da-4158-a5b5-8b38baad32b0","system_id":"levelo_inurba_marseille","lat":43.33719,"lon":5.39203,"is_reserved":false,"is_disabled":false,"rental_uris":{"android":"levelo://app?vid=994195f6-b5da-4158-a5b5-8b38baad32b0","ios":"levelo://app?vid=994195f6-b5da-4158-a5b5-8b38baad32b0"},"vehicle_type_id":"4","last_reported":1732547404,"current_range_meters":22800,"station_id":"ce4bhr92rcd13ifvqhsg","pricing_plan_id":"cebpf4jnsgd1na2vs0mg"},{"bike_id":"deb8c36a-a2da-4392-933a-5b4b85cf44cf","system_id":"levelo_inurba_marseille","lat":43.302668,"lon":5.377548,"is_reserved":false,"is_disabled":false,"rental_uris":{"android":"levelo://app?vid=deb8c36a-a2da-4392-933a-5b4b85cf44cf","ios":"levelo://app?vid=deb8c36a-a2da-4392-933a-5b4b85cf44cf"},"vehicle_type_id":"4","last_reported":1732547404,"current_range_meters":33200,"station_id":"ce4bguh2rcd13ifvqcj0","pricing_plan_id":"cebpf4jnsgd1na2vs0mg"},{"bike_id":"e144d77d-69d1-43b5-abe6-717f5185280b","system_id":"levelo_inurba_marseille","lat":43.32038,"lon":5.41549,"is_reserved":false,"is_disabled":false,"rental_uris":{"android":"levelo://app?vid=e144d77d-69d1-43b5-abe6-717f5185280b","ios":"levelo://app?vid=e144d77d-69d1-43b5-abe6-717f5185280b"},"vehicle_type_id":"4","last_reported":1732547404,"current_range_meters":38000,"station_id":"ce4bhq92rcd13ifvqhkg","pricing_plan_id":"cebpf4jnsgd1na2vs0mg"},{"bike_id":"24fc129a-3a98-4f25-9554-234fc3a2dc8d","system_id":"levelo_inurba_marseille","lat":43.30416,"lon":5.41282,"is_reserved":false,"is_disabled":true,"rental_uris":{"android":"levelo://app?vid=24fc129a-3a98-4f25-9554-234fc3a2dc8d","ios":"levelo://app?vid=24fc129a-3a98-4f25-9554-234fc3a2dc8d"},"vehicle_type_id":"4","last_reported":1732547404,"current_range_meters":24800,"station_id":"ce4bhop2rcd13ifvqh8g","pricing_plan_id":"cebpf4jnsgd1na2vs0mg"},{"bike_id":"2ca0ec58-af92-4cf3-8ba9-ed227a42efc4","system_id":"levelo_inurba_marseille","lat":43.24389,"lon":5.3706,"is_reserved":false,"is_disabled":false,"rental_uris":{"android":"levelo://app?vid=2ca0ec58-af92-4cf3-8ba9-ed227a42efc4","ios":"levelo://app?vid=2ca0ec58-af92-4cf3-8ba9-ed227a42efc4"},"vehicle_type_id":"4","last_reported":1732547404,"current_range_meters":8000,"station_id":"ce4bhhh2rcd13ifvqfk0","pricing_plan_id":"cebpf4jnsgd1na2vs0mg"},{"bike_id":"07f55eb1-e7a7-41f5-921e-ee62144bbb7b","system_id":"levelo_inurba_marseille","lat":43.27811,"lon":5.40716,"is_reserved":false,"is_disabled":false,"rental_uris":{"android":"levelo://app?vid=07f55eb1-e7a7-41f5-921e-ee62144bbb7b","ios":"levelo://app?vid=07f55eb1-e7a7-41f5-921e-ee62144bbb7b"},"vehicle_type_id":"4","last_reported":1732547404,"current_range_meters":19200,"station_id":"ce4bhnh2rcd13ifvqgtg","pricing_plan_id":"cebpf4jnsgd1na2vs0mg"},{"bike_id":"5d9127b2-409a-4e00-b212-9b69c1248067","system_id":"levelo_inurba_marseille","lat":43.26199,"lon":5.37924,"is_reserved":false,"is_disabled":false,"rental_uris":{"android":"levelo://app?vid=5d9127b2-409a-4e00-b212-9b69c1248067","ios":"levelo://app?vid=5d9127b2-409a-4e00-b212-9b69c1248067"},"vehicle_type_id":"4","last_reported":1732547404,"current_range_meters":38000,"station_id":"ce4bhjp2rcd13ifvqg90","pricing_plan_id":"cebpf4jnsgd1na2vs0mg"},{"bike_id":"ab62cdd5-3314-41c0-8cc9-b8644da6c7ff","system_id":"levelo_inurba_marseille","lat":43.25575,"lon":5.38229,"is_reserved":false,"is_disabled":false,"rental_uris":{"android":"levelo://app?vid=ab62cdd5-3314-41c0-8cc9-b8644da6c7ff","ios":"levelo://app?vid=ab62cdd5-3314-41c0-8cc9-b8644da6c7ff"},"vehicle_type_id":"4","last_reported":1732547404,"current_range_meters":23200,"station_id":"ce4bhih2rcd13ifvqfs0","pricing_plan_id":"cebpf4jnsgd1na2vs0mg"},{"bike_id":"53e8d4eb-8930-44c0-9a68-8d5466e0faa4","system_id":"levelo_inurba_marseille","lat":43.28707,"lon":5.37396,"is_reserved":false,"is_disabled":false,"rental_uris":{"android":"levelo://app?vid=53e8d4eb-8930-44c0-9a68-8d5466e0faa4","ios":"levelo://app?vid=53e8d4eb-8930-44c0-9a68-8d5466e0faa4"},"vehicle_type_id":"4","last_reported":1732547404,"current_range_meters":24000,"station_id":"ce4bh3p2rcd13ifvqdq0","pricing_plan_id":"cebpf4jnsgd1na2vs0mg"},{"bike_id":"99a2afdc-f816-4e36-bd15-33e921cb1899","system_id":"levelo_inurba_marseille","lat":43.25819,"lon":5.39435,"is_reserved":false,"is_disabled":false,"rental_uris":{"android":"levelo://app?vid=99a2afdc-f816-4e36-bd15-33e921cb1899","ios":"levelo://app?vid=99a2afdc-f816-4e36-bd15-33e921cb1899"},"vehicle_type_id":"4","last_reported":1732547404,"current_range_meters":18000,"station_id":"ce4bhip2rcd13ifvqft0","pricing_plan_id":"cebpf4jnsgd1na2vs0mg"},{"bike_id":"d8031f18-f805-4d9c-8a3a-31e0b8336e25","system_id":"levelo_inurba_marseille","lat":43.25119,"lon":5.40319,"is_reserved":false,"is_disabled":true,"rental_uris":{"android":"levelo://app?vid=d8031f18-f805-4d9c-8a3a-31e0b8336e25","ios":"levelo://app?vid=d8031f18-f805-4d9c-8a3a-31e0b8336e25"},"vehicle_type_id":"4","last_reported":1732547404,"current_range_meters":0,"station_id":"ce4bhlh2rcd13ifvqgig","pricing_plan_id":"cebpf4jnsgd1na2vs0mg"},{"bike_id":"62bcad95-d3e2-434c-81f4-127757d19c4c","system_id":"levelo_inurba_marseille","lat":43.29211,"lon":5.39605,"is_reserved":false,"is_disabled":true,"rental_uris":{"android":"levelo://app?vid=62bcad95-d3e2-434c-81f4-127757d19c4c","ios":"levelo://app?vid=62bcad95-d3e2-434c-81f4-127757d19c4c"},"vehicle_type_id":"4","last_reported":1732547404,"current_range_meters":0,"station_id":"","pricing_plan_id":"cebpf4jnsgd1na2vs0mg"},{"bike_id":"f586fe43-4d5d-4534-9e50-209fda2ca425","system_id":"levelo_inurba_marseille","lat":43.26491,"lon":5.39546,"is_reserved":false,"is_disabled":false,"rental_uris":{"android":"levelo://app?vid=f586fe43-4d5d-4534-9e50-209fda2ca425","ios":"levelo://app?vid=f586fe43-4d5d-4534-9e50-209fda2ca425"},"vehicle_type_id":"4","last_reported":1732547404,"current_range_meters":8400,"station_id":"ce4bhi12rcd13ifvqfq0","pricing_plan_id":"cebpf4jnsgd1na2vs0mg"},{"bike_id":"bc61f718-75a6-490e-8e2a-6463ed0c40c4","system_id":"levelo_inurba_marseille","lat":43.29794,"lon":5.38096,"is_reserved":false,"is_disabled":false,"rental_uris":{"android":"levelo://app?vid=bc61f718-75a6-490e-8e2a-6463ed0c40c4","ios":"levelo://app?vid=bc61f718-75a6-490e-8e2a-6463ed0c40c4"},"vehicle_type_id":"4","last_reported":1732547404,"current_range_meters":17600,"station_id":"ce4bgip2rcd13ifvqbb0","pricing_plan_id":"cebpf4jnsgd1na2vs0mg"},{"bike_id":"faddc5bf-9308-4490-a929-f5be12fd1597","system_id":"levelo_inurba_marseille","lat":43.25598,"lon":5.38272,"is_reserved":false,"is_disabled":false,"rental_uris":{"android":"levelo://app?vid=faddc5bf-9308-4490-a929-f5be12fd1597","ios":"levelo://app?vid=faddc5bf-9308-4490-a929-f5be12fd1597"},"vehicle_type_id":"4","last_reported":1732547404,"current_range_meters":37600,"station_id":"ce4bhih2rcd13ifvqfs0","pricing_plan_id":"cebpf4jnsgd1na2vs0mg"},{"bike_id":"bb61ca7a-a883-44cb-932e-f13fb14714da","system_id":"levelo_inurba_marseille","lat":43.29782,"lon":5.3811,"is_reserved":false,"is_disabled":false,"rental_uris":{"android":"levelo://app?vid=bb61ca7a-a883-44cb-932e-f13fb14714da","ios":"levelo://app?vid=bb61ca7a-a883-44cb-932e-f13fb14714da"},"vehicle_type_id":"4","last_reported":1732547404,"current_range_meters":38800,"station_id":"ce4bgip2rcd13ifvqbb0","pricing_plan_id":"cebpf4jnsgd1na2vs0mg"},{"bike_id":"36296f5c-0176-4be0-97c8-7930cda9c369","system_id":"levelo_inurba_marseille","lat":43.32109,"lon":5.36771,"is_reserved":false,"is_disabled":false,"rental_uris":{"android":"levelo://app?vid=36296f5c-0176-4be0-97c8-7930cda9c369","ios":"levelo://app?vid=36296f5c-0176-4be0-97c8-7930cda9c369"},"vehicle_type_id":"4","last_reported":1732547404,"current_range_meters":26800,"station_id":"ce4bhrh2rcd13ifvqhug","pricing_plan_id":"cebpf4jnsgd1na2vs0mg"},{"bike_id":"b9f550e6-10c3-40ac-9b1d-624567266dd8","system_id":"levelo_inurba_marseille","lat":43.32471,"lon":5.36567,"is_reserved":false,"is_disabled":false,"rental_uris":{"android":"levelo://app?vid=b9f550e6-10c3-40ac-9b1d-624567266dd8","ios":"levelo://app?vid=b9f550e6-10c3-40ac-9b1d-624567266dd8"},"vehicle_type_id":"4","last_reported":1732547404,"current_range_meters":25200,"station_id":"ce4bhs12rcd13ifvqhvg","pricing_plan_id":"cebpf4jnsgd1na2vs0mg"},{"bike_id":"3749f547-26de-49f3-8704-9a5a504b68f5","system_id":"levelo_inurba_marseille","lat":43.25583,"lon":5.38238,"is_reserved":false,"is_disabled":false,"rental_uris":{"android":"levelo://app?vid=3749f547-26de-49f3-8704-9a5a504b68f5","ios":"levelo://app?vid=3749f547-26de-49f3-8704-9a5a504b68f5"},"vehicle_type_id":"4","last_reported":1732547404,"current_range_meters":28800,"station_id":"ce4bhih2rcd13ifvqfs0","pricing_plan_id":"cebpf4jnsgd1na2vs0mg"},{"bike_id":"d966aea8-2bc4-45e7-8828-f3f12a7d2492","system_id":"levelo_inurba_marseille","lat":43.268407,"lon":5.39372,"is_reserved":false,"is_disabled":false,"rental_uris":{"android":"levelo://app?vid=d966aea8-2bc4-45e7-8828-f3f12a7d2492","ios":"levelo://app?vid=d966aea8-2bc4-45e7-8828-f3f12a7d2492"},"vehicle_type_id":"4","last_reported":1732547404,"current_range_meters":7200,"station_id":"ce4bhh12rcd13ifvqfg0","pricing_plan_id":"cebpf4jnsgd1na2vs0mg"},{"bike_id":"1ebc2642-599e-41e5-89df-308a45bbfcfb","system_id":"levelo_inurba_marseille","lat":43.32101,"lon":5.36778,"is_reserved":false,"is_disabled":false,"rental_uris":{"android":"levelo://app?vid=1ebc2642-599e-41e5-89df-308a45bbfcfb","ios":"levelo://app?vid=1ebc2642-599e-41e5-89df-308a45bbfcfb"},"vehicle_type_id":"4","last_reported":1732547404,"current_range_meters":19600,"station_id":"ce4bhrh2rcd13ifvqhug","pricing_plan_id":"cebpf4jnsgd1na2vs0mg"},{"bike_id":"b86f2eef-7673-4a5d-878a-c0ee9eda3feb","system_id":"levelo_inurba_marseille","lat":43.3055,"lon":5.36537,"is_reserved":false,"is_disabled":false,"rental_uris":{"android":"levelo://app?vid=b86f2eef-7673-4a5d-878a-c0ee9eda3feb","ios":"levelo://app?vid=b86f2eef-7673-4a5d-878a-c0ee9eda3feb"},"vehicle_type_id":"4","last_reported":1732547404,"current_range_meters":22000,"station_id":"","pricing_plan_id":"cebpf4jnsgd1na2vs0mg"},{"bike_id":"b9ddb239-30e2-4342-972b-d28131568688","system_id":"levelo_inurba_marseille","lat":43.2997,"lon":5.38495,"is_reserved":false,"is_disabled":false,"rental_uris":{"android":"levelo://app?vid=b9ddb239-30e2-4342-972b-d28131568688","ios":"levelo://app?vid=b9ddb239-30e2-4342-972b-d28131568688"},"vehicle_type_id":"4","last_reported":1732547404,"current_range_meters":26800,"station_id":"ce4bgj92rcd13ifvqbd0","pricing_plan_id":"cebpf4jnsgd1na2vs0mg"},{"bike_id":"4ff76caa-19d1-4811-891a-df5b13f98f8b","system_id":"levelo_inurba_marseille","lat":43.31329,"lon":5.39695,"is_reserved":false,"is_disabled":true,"rental_uris":{"android":"levelo://app?vid=4ff76caa-19d1-4811-891a-df5b13f98f8b","ios":"levelo://app?vid=4ff76caa-19d1-4811-891a-df5b13f98f8b"},"vehicle_type_id":"4","last_reported":1732547404,"current_range_meters":0,"station_id":"ce4bgvp2rcd13ifvqcu0","pricing_plan_id":"cebpf4jnsgd1na2vs0mg"},{"bike_id":"8ac8ae6d-42b3-4068-a992-537653320638","system_id":"levelo_inurba_marseille","lat":43.25925,"lon":5.40912,"is_reserved":false,"is_disabled":false,"rental_uris":{"android":"levelo://app?vid=8ac8ae6d-42b3-4068-a992-537653320638","ios":"levelo://app?vid=8ac8ae6d-42b3-4068-a992-537653320638"},"vehicle_type_id":"4","last_reported":1732547404,"current_range_meters":32400,"station_id":"ce4bhm92rcd13ifvqglg","pricing_plan_id":"cebpf4jnsgd1na2vs0mg"},{"bike_id":"4bda66df-ca57-4b1d-9f82-654d7b0e75b5","system_id":"levelo_inurba_marseille","lat":43.25088,"lon":5.39517,"is_reserved":false,"is_disabled":false,"rental_uris":{"android":"levelo://app?vid=4bda66df-ca57-4b1d-9f82-654d7b0e75b5","ios":"levelo://app?vid=4bda66df-ca57-4b1d-9f82-654d7b0e75b5"},"vehicle_type_id":"4","last_reported":1732547404,"current_range_meters":30000,"station_id":"ce4bhm12rcd13ifvqgkg","pricing_plan_id":"cebpf4jnsgd1na2vs0mg"},{"bike_id":"a918e547-6f82-4e25-bfd2-d24f191d92a1","system_id":"levelo_inurba_marseille","lat":43.24073,"lon":5.37729,"is_reserved":false,"is_disabled":false,"rental_uris":{"android":"levelo://app?vid=a918e547-6f82-4e25-bfd2-d24f191d92a1","ios":"levelo://app?vid=a918e547-6f82-4e25-bfd2-d24f191d92a1"},"vehicle_type_id":"4","last_reported":1732547404,"current_range_meters":28000,"station_id":"ce4bhnp2rcd13ifvqgvg","pricing_plan_id":"cebpf4jnsgd1na2vs0mg"},{"bike_id":"6454e564-4e89-4d66-9bef-1fddf4911052","system_id":"levelo_inurba_marseille","lat":43.30542,"lon":5.36532,"is_reserved":false,"is_disabled":true,"rental_uris":{"android":"levelo://app?vid=6454e564-4e89-4d66-9bef-1fddf4911052","ios":"levelo://app?vid=6454e564-4e89-4d66-9bef-1fddf4911052"},"vehicle_type_id":"4","last_reported":1732547404,"current_range_meters":8000,"station_id":"ce4bgs12rcd13ifvqcag","pricing_plan_id":"cebpf4jnsgd1na2vs0mg"},{"bike_id":"d9147cfe-5157-4031-9ab4-c82981e65f3c","system_id":"levelo_inurba_marseille","lat":43.29973,"lon":5.37187,"is_reserved":false,"is_disabled":false,"rental_uris":{"android":"levelo://app?vid=d9147cfe-5157-4031-9ab4-c82981e65f3c","ios":"levelo://app?vid=d9147cfe-5157-4031-9ab4-c82981e65f3c"},"vehicle_type_id":"4","last_reported":1732547404,"current_range_meters":26800,"station_id":"ce4bgr92rcd13ifvqc7g","pricing_plan_id":"cebpf4jnsgd1na2vs0mg"},{"bike_id":"ada8dc80-eedd-4cb2-8421-923b90201e5c","system_id":"levelo_inurba_marseille","lat":43.26198,"lon":5.37933,"is_reserved":false,"is_disabled":false,"rental_uris":{"android":"levelo://app?vid=ada8dc80-eedd-4cb2-8421-923b90201e5c","ios":"levelo://app?vid=ada8dc80-eedd-4cb2-8421-923b90201e5c"},"vehicle_type_id":"4","last_reported":1732547404,"current_range_meters":40000,"station_id":"ce4bhjp2rcd13ifvqg90","pricing_plan_id":"cebpf4jnsgd1na2vs0mg"},{"bike_id":"54a177f7-410f-42c0-b989-326c242617a9","system_id":"levelo_inurba_marseille","lat":43.25506,"lon":5.37658,"is_reserved":false,"is_disabled":false,"rental_uris":{"android":"levelo://app?vid=54a177f7-410f-42c0-b989-326c242617a9","ios":"levelo://app?vid=54a177f7-410f-42c0-b989-326c242617a9"},"vehicle_type_id":"4","last_reported":1732547404,"current_range_meters":27200,"station_id":"ce4bhh12rcd13ifvqff0","pricing_plan_id":"cebpf4jnsgd1na2vs0mg"},{"bike_id":"434c2c41-fb97-44dc-9fac-a5610c788936","system_id":"levelo_inurba_marseille","lat":43.28458,"lon":5.35893,"is_reserved":false,"is_disabled":false,"rental_uris":{"android":"levelo://app?vid=434c2c41-fb97-44dc-9fac-a5610c788936","ios":"levelo://app?vid=434c2c41-fb97-44dc-9fac-a5610c788936"},"vehicle_type_id":"4","last_reported":1732547404,"current_range_meters":18800,"station_id":"ce4bhah2rcd13ifvqei0","pricing_plan_id":"cebpf4jnsgd1na2vs0mg"},{"bike_id":"845568d3-2af4-4843-9213-c9b4fcd21d47","system_id":"levelo_inurba_marseille","lat":43.29624,"lon":5.37163,"is_reserved":false,"is_disabled":false,"rental_uris":{"android":"levelo://app?vid=845568d3-2af4-4843-9213-c9b4fcd21d47","ios":"levelo://app?vid=845568d3-2af4-4843-9213-c9b4fcd21d47"},"vehicle_type_id":"4","last_reported":1732547404,"current_range_meters":38400,"station_id":"ce4bgnh2rcd13ifvqc0g","pricing_plan_id":"cebpf4jnsgd1na2vs0mg"},{"bike_id":"17ba6615-9f08-440e-93e9-f8f4f3600fcd","system_id":"levelo_inurba_marseille","lat":43.30536,"lon":5.36536,"is_reserved":false,"is_disabled":false,"rental_uris":{"android":"levelo://app?vid=17ba6615-9f08-440e-93e9-f8f4f3600fcd","ios":"levelo://app?vid=17ba6615-9f08-440e-93e9-f8f4f3600fcd"},"vehicle_type_id":"4","last_reported":1732547404,"current_range_meters":38800,"station_id":"ce4bgs12rcd13ifvqcag","pricing_plan_id":"cebpf4jnsgd1na2vs0mg"},{"bike_id":"cbc2167d-639d-4b33-b914-3ad6f36f2868","system_id":"levelo_inurba_marseille","lat":43.22923,"lon":5.35375,"is_reserved":false,"is_disabled":false,"rental_uris":{"android":"levelo://app?vid=cbc2167d-639d-4b33-b914-3ad6f36f2868","ios":"levelo://app?vid=cbc2167d-639d-4b33-b914-3ad6f36f2868"},"vehicle_type_id":"4","last_reported":1732547404,"current_range_meters":30000,"station_id":"cpo3532slgdg3j2ikp40","pricing_plan_id":"cebpf4jnsgd1na2vs0mg"},{"bike_id":"c4591fec-8c8d-495c-9589-bbcb7df7d040","system_id":"levelo_inurba_marseille","lat":43.27377,"lon":5.36263,"is_reserved":false,"is_disabled":false,"rental_uris":{"android":"levelo://app?vid=c4591fec-8c8d-495c-9589-bbcb7df7d040","ios":"levelo://app?vid=c4591fec-8c8d-495c-9589-bbcb7df7d040"},"vehicle_type_id":"4","last_reported":1732547404,"current_range_meters":38000,"station_id":"ce4bhbh2rcd13ifvqeo0","pricing_plan_id":"cebpf4jnsgd1na2vs0mg"},{"bike_id":"0483ec2a-b95d-4cd9-84b6-206e98973005","system_id":"levelo_inurba_marseille","lat":43.26563,"lon":5.39003,"is_reserved":false,"is_disabled":false,"rental_uris":{"android":"levelo://app?vid=0483ec2a-b95d-4cd9-84b6-206e98973005","ios":"levelo://app?vid=0483ec2a-b95d-4cd9-84b6-206e98973005"},"vehicle_type_id":"4","last_reported":1732547404,"current_range_meters":20400,"station_id":"ce4bhe12rcd13ifvqf30","pricing_plan_id":"cebpf4jnsgd1na2vs0mg"},{"bike_id":"8ff6927a-74d0-4610-b648-3cc754f0f233","system_id":"levelo_inurba_marseille","lat":43.28036,"lon":5.42439,"is_reserved":false,"is_disabled":false,"rental_uris":{"android":"levelo://app?vid=8ff6927a-74d0-4610-b648-3cc754f0f233","ios":"levelo://app?vid=8ff6927a-74d0-4610-b648-3cc754f0f233"},"vehicle_type_id":"4","last_reported":1732547404,"current_range_meters":22400,"station_id":"","pricing_plan_id":"cebpf4jnsgd1na2vs0mg"},{"bike_id":"48818212-eed2-4eef-a4a3-85a077685952","system_id":"levelo_inurba_marseille","lat":43.28851,"lon":5.35838,"is_reserved":false,"is_disabled":false,"rental_uris":{"android":"levelo://app?vid=48818212-eed2-4eef-a4a3-85a077685952","ios":"levelo://app?vid=48818212-eed2-4eef-a4a3-85a077685952"},"vehicle_type_id":"4","last_reported":1732547404,"current_range_meters":36800,"station_id":"ce4bhb12rcd13ifvqem0","pricing_plan_id":"cebpf4jnsgd1na2vs0mg"},{"bike_id":"635f2088-37d7-4c7e-b140-3292398be605","system_id":"levelo_inurba_marseille","lat":43.24806,"lon":5.37453,"is_reserved":false,"is_disabled":false,"rental_uris":{"android":"levelo://app?vid=635f2088-37d7-4c7e-b140-3292398be605","ios":"levelo://app?vid=635f2088-37d7-4c7e-b140-3292398be605"},"vehicle_type_id":"4","last_reported":1732547404,"current_range_meters":28800,"station_id":"ce4bhgh2rcd13ifvqfb0","pricing_plan_id":"cebpf4jnsgd1na2vs0mg"},{"bike_id":"abcc7733-24ca-40e7-bed8-88a154357983","system_id":"levelo_inurba_marseille","lat":43.337444,"lon":5.374475,"is_reserved":false,"is_disabled":false,"rental_uris":{"android":"levelo://app?vid=abcc7733-24ca-40e7-bed8-88a154357983","ios":"levelo://app?vid=abcc7733-24ca-40e7-bed8-88a154357983"},"vehicle_type_id":"4","last_reported":1732547404,"current_range_meters":12400,"station_id":"","pricing_plan_id":"cebpf4jnsgd1na2vs0mg"},{"bike_id":"1364b3be-a94a-4b7c-aeae-35b767d5e537","system_id":"levelo_inurba_marseille","lat":43.32538,"lon":5.41446,"is_reserved":false,"is_disabled":false,"rental_uris":{"android":"levelo://app?vid=1364b3be-a94a-4b7c-aeae-35b767d5e537","ios":"levelo://app?vid=1364b3be-a94a-4b7c-aeae-35b767d5e537"},"vehicle_type_id":"4","last_reported":1732547404,"current_range_meters":27600,"station_id":"ce4bhq12rcd13ifvqhhg","pricing_plan_id":"cebpf4jnsgd1na2vs0mg"},{"bike_id":"026bf7f0-65b8-4cda-88f3-4f7fc61804c9","system_id":"levelo_inurba_marseille","lat":43.24069,"lon":5.37765,"is_reserved":false,"is_disabled":false,"rental_uris":{"android":"levelo://app?vid=026bf7f0-65b8-4cda-88f3-4f7fc61804c9","ios":"levelo://app?vid=026bf7f0-65b8-4cda-88f3-4f7fc61804c9"},"vehicle_type_id":"4","last_reported":1732547404,"current_range_meters":30000,"station_id":"ce4bhnp2rcd13ifvqgvg","pricing_plan_id":"cebpf4jnsgd1na2vs0mg"},{"bike_id":"838ff603-06bb-4ee9-b241-0bb99b28a3ca","system_id":"levelo_inurba_marseille","lat":43.28403,"lon":5.37525,"is_reserved":false,"is_disabled":false,"rental_uris":{"android":"levelo://app?vid=838ff603-06bb-4ee9-b241-0bb99b28a3ca","ios":"levelo://app?vid=838ff603-06bb-4ee9-b241-0bb99b28a3ca"},"vehicle_type_id":"4","last_reported":1732547404,"current_range_meters":17600,"station_id":"ce4bh412rcd13ifvqds0","pricing_plan_id":"cebpf4jnsgd1na2vs0mg"},{"bike_id":"ed00ff1c-a428-4ce5-a455-260378e65da7","system_id":"levelo_inurba_marseille","lat":43.28806,"lon":5.40022,"is_reserved":false,"is_disabled":true,"rental_uris":{"android":"levelo://app?vid=ed00ff1c-a428-4ce5-a455-260378e65da7","ios":"levelo://app?vid=ed00ff1c-a428-4ce5-a455-260378e65da7"},"vehicle_type_id":"4","last_reported":1732547404,"current_range_meters":0,"station_id":"","pricing_plan_id":"cebpf4jnsgd1na2vs0mg"},{"bike_id":"96d03688-cd49-4696-b544-581d22c68e94","system_id":"levelo_inurba_marseille","lat":43.27565,"lon":5.38427,"is_reserved":false,"is_disabled":false,"rental_uris":{"android":"levelo://app?vid=96d03688-cd49-4696-b544-581d22c68e94","ios":"levelo://app?vid=96d03688-cd49-4696-b544-581d22c68e94"},"vehicle_type_id":"4","last_reported":1732547404,"current_range_meters":25200,"station_id":"ce4bhh92rcd13ifvqfi0","pricing_plan_id":"cebpf4jnsgd1na2vs0mg"},{"bike_id":"45467531-cd4a-4f99-9421-9f0e1b64c137","system_id":"levelo_inurba_marseille","lat":43.29297,"lon":5.37457,"is_reserved":false,"is_disabled":false,"rental_uris":{"android":"levelo://app?vid=45467531-cd4a-4f99-9421-9f0e1b64c137","ios":"levelo://app?vid=45467531-cd4a-4f99-9421-9f0e1b64c137"},"vehicle_type_id":"4","last_reported":1732547404,"current_range_meters":20400,"station_id":"ce4bgi12rcd13ifvqb70","pricing_plan_id":"cebpf4jnsgd1na2vs0mg"},{"bike_id":"858b65e1-94fc-4151-a71e-8b168cb19dcb","system_id":"levelo_inurba_marseille","lat":43.32249,"lon":5.39241,"is_reserved":false,"is_disabled":true,"rental_uris":{"android":"levelo://app?vid=858b65e1-94fc-4151-a71e-8b168cb19dcb","ios":"levelo://app?vid=858b65e1-94fc-4151-a71e-8b168cb19dcb"},"vehicle_type_id":"4","last_reported":1732547404,"current_range_meters":1600,"station_id":"","pricing_plan_id":"cebpf4jnsgd1na2vs0mg"},{"bike_id":"7a637119-0b91-4acc-86d9-42a23e8d5081","system_id":"levelo_inurba_marseille","lat":43.32365,"lon":5.38884,"is_reserved":false,"is_disabled":false,"rental_uris":{"android":"levelo://app?vid=7a637119-0b91-4acc-86d9-42a23e8d5081","ios":"levelo://app?vid=7a637119-0b91-4acc-86d9-42a23e8d5081"},"vehicle_type_id":"4","last_reported":1732547404,"current_range_meters":8400,"station_id":"ce4bhqp2rcd13ifvqhog","pricing_plan_id":"cebpf4jnsgd1na2vs0mg"},{"bike_id":"ce0839e0-537e-4665-81df-ecac770131d7","system_id":"levelo_inurba_marseille","lat":43.30258,"lon":5.40076,"is_reserved":false,"is_disabled":false,"rental_uris":{"android":"levelo://app?vid=ce0839e0-537e-4665-81df-ecac770131d7","ios":"levelo://app?vid=ce0839e0-537e-4665-81df-ecac770131d7"},"vehicle_type_id":"4","last_reported":1732547404,"current_range_meters":39200,"station_id":"ce4bgvh2rcd13ifvqcs0","pricing_plan_id":"cebpf4jnsgd1na2vs0mg"},{"bike_id":"c19daa05-850d-4320-a7a9-0c3452315bd1","system_id":"levelo_inurba_marseille","lat":43.305238,"lon":5.365369,"is_reserved":false,"is_disabled":false,"rental_uris":{"android":"levelo://app?vid=c19daa05-850d-4320-a7a9-0c3452315bd1","ios":"levelo://app?vid=c19daa05-850d-4320-a7a9-0c3452315bd1"},"vehicle_type_id":"4","last_reported":1732547404,"current_range_meters":33200,"station_id":"ce4bgs12rcd13ifvqcag","pricing_plan_id":"cebpf4jnsgd1na2vs0mg"},{"bike_id":"40fd1298-d57c-4042-a793-291f7ea14686","system_id":"levelo_inurba_marseille","lat":43.29852,"lon":5.36293,"is_reserved":false,"is_disabled":false,"rental_uris":{"android":"levelo://app?vid=40fd1298-d57c-4042-a793-291f7ea14686","ios":"levelo://app?vid=40fd1298-d57c-4042-a793-291f7ea14686"},"vehicle_type_id":"4","last_reported":1732547404,"current_range_meters":36800,"station_id":"ce4bgpp2rcd13ifvqc3g","pricing_plan_id":"cebpf4jnsgd1na2vs0mg"},{"bike_id":"b9eb34d3-222d-48f3-8772-0fbde8d473da","system_id":"levelo_inurba_marseille","lat":43.31505,"lon":5.37299,"is_reserved":false,"is_disabled":false,"rental_uris":{"android":"levelo://app?vid=b9eb34d3-222d-48f3-8772-0fbde8d473da","ios":"levelo://app?vid=b9eb34d3-222d-48f3-8772-0fbde8d473da"},"vehicle_type_id":"4","last_reported":1732547404,"current_range_meters":18000,"station_id":"ce4bgt12rcd13ifvqcd0","pricing_plan_id":"cebpf4jnsgd1na2vs0mg"},{"bike_id":"7da255fd-ffb5-403e-aefc-a3587d01ab43","system_id":"levelo_inurba_marseille","lat":43.32657,"lon":5.40997,"is_reserved":false,"is_disabled":false,"rental_uris":{"android":"levelo://app?vid=7da255fd-ffb5-403e-aefc-a3587d01ab43","ios":"levelo://app?vid=7da255fd-ffb5-403e-aefc-a3587d01ab43"},"vehicle_type_id":"4","last_reported":1732547404,"current_range_meters":30800,"station_id":"ce4bhpp2rcd13ifvqhgg","pricing_plan_id":"cebpf4jnsgd1na2vs0mg"},{"bike_id":"9888fe50-5284-4880-a4f3-d719e5c57162","system_id":"levelo_inurba_marseille","lat":43.29811,"lon":5.38091,"is_reserved":false,"is_disabled":false,"rental_uris":{"android":"levelo://app?vid=9888fe50-5284-4880-a4f3-d719e5c57162","ios":"levelo://app?vid=9888fe50-5284-4880-a4f3-d719e5c57162"},"vehicle_type_id":"4","last_reported":1732547404,"current_range_meters":39200,"station_id":"ce4bgip2rcd13ifvqbb0","pricing_plan_id":"cebpf4jnsgd1na2vs0mg"},{"bike_id":"1c70e5e6-7fac-4d18-ba75-18652dc12e80","system_id":"levelo_inurba_marseille","lat":43.25508,"lon":5.37657,"is_reserved":false,"is_disabled":false,"rental_uris":{"android":"levelo://app?vid=1c70e5e6-7fac-4d18-ba75-18652dc12e80","ios":"levelo://app?vid=1c70e5e6-7fac-4d18-ba75-18652dc12e80"},"vehicle_type_id":"4","last_reported":1732547404,"current_range_meters":38800,"station_id":"ce4bhh12rcd13ifvqff0","pricing_plan_id":"cebpf4jnsgd1na2vs0mg"},{"bike_id":"f4916991-c85f-4b7f-b703-7d2e6b8efcdf","system_id":"levelo_inurba_marseille","lat":43.33761,"lon":5.37443,"is_reserved":false,"is_disabled":false,"rental_uris":{"android":"levelo://app?vid=f4916991-c85f-4b7f-b703-7d2e6b8efcdf","ios":"levelo://app?vid=f4916991-c85f-4b7f-b703-7d2e6b8efcdf"},"vehicle_type_id":"4","last_reported":1732547404,"current_range_meters":34800,"station_id":"","pricing_plan_id":"cebpf4jnsgd1na2vs0mg"},{"bike_id":"c6b2567f-27ca-4f42-805d-2347843a7b4f","system_id":"levelo_inurba_marseille","lat":43.31122,"lon":5.37765,"is_reserved":false,"is_disabled":false,"rental_uris":{"android":"levelo://app?vid=c6b2567f-27ca-4f42-805d-2347843a7b4f","ios":"levelo://app?vid=c6b2567f-27ca-4f42-805d-2347843a7b4f"},"vehicle_type_id":"4","last_reported":1732547404,"current_range_meters":38800,"station_id":"ce4bgt92rcd13ifvqcg0","pricing_plan_id":"cebpf4jnsgd1na2vs0mg"},{"bike_id":"552ae1f9-34eb-4d70-a19b-3616d3661778","system_id":"levelo_inurba_marseille","lat":43.33724,"lon":5.39186,"is_reserved":false,"is_disabled":false,"rental_uris":{"android":"levelo://app?vid=552ae1f9-34eb-4d70-a19b-3616d3661778","ios":"levelo://app?vid=552ae1f9-34eb-4d70-a19b-3616d3661778"},"vehicle_type_id":"4","last_reported":1732547404,"current_range_meters":9200,"station_id":"ce4bhr92rcd13ifvqhsg","pricing_plan_id":"cebpf4jnsgd1na2vs0mg"},{"bike_id":"f7f3756c-1ec7-4782-9c87-6273f87b6774","system_id":"levelo_inurba_marseille","lat":43.337444,"lon":5.374475,"is_reserved":false,"is_disabled":true,"rental_uris":{"android":"levelo://app?vid=f7f3756c-1ec7-4782-9c87-6273f87b6774","ios":"levelo://app?vid=f7f3756c-1ec7-4782-9c87-6273f87b6774"},"vehicle_type_id":"4","last_reported":1732547404,"current_range_meters":23200,"station_id":"","pricing_plan_id":"cebpf4jnsgd1na2vs0mg"},{"bike_id":"cd8c2128-3f57-449e-9910-94d2cd8aa711","system_id":"levelo_inurba_marseille","lat":43.26497,"lon":5.3954,"is_reserved":false,"is_disabled":false,"rental_uris":{"android":"levelo://app?vid=cd8c2128-3f57-449e-9910-94d2cd8aa711","ios":"levelo://app?vid=cd8c2128-3f57-449e-9910-94d2cd8aa711"},"vehicle_type_id":"4","last_reported":1732547404,"current_range_meters":38800,"station_id":"ce4bhi12rcd13ifvqfq0","pricing_plan_id":"cebpf4jnsgd1na2vs0mg"},{"bike_id":"57b110bc-d427-4076-9a55-28213cac1a4e","system_id":"levelo_inurba_marseille","lat":43.26686,"lon":5.38274,"is_reserved":false,"is_disabled":false,"rental_uris":{"android":"levelo://app?vid=57b110bc-d427-4076-9a55-28213cac1a4e","ios":"levelo://app?vid=57b110bc-d427-4076-9a55-28213cac1a4e"},"vehicle_type_id":"4","last_reported":1732547404,"current_range_meters":20800,"station_id":"ce4bhg92rcd13ifvqf90","pricing_plan_id":"cebpf4jnsgd1na2vs0mg"},{"bike_id":"bc2ab4b8-0a8a-4dd3-b615-272ca02b7a2d","system_id":"levelo_inurba_marseille","lat":43.26195,"lon":5.37937,"is_reserved":false,"is_disabled":false,"rental_uris":{"android":"levelo://app?vid=bc2ab4b8-0a8a-4dd3-b615-272ca02b7a2d","ios":"levelo://app?vid=bc2ab4b8-0a8a-4dd3-b615-272ca02b7a2d"},"vehicle_type_id":"4","last_reported":1732547404,"current_range_meters":40000,"station_id":"ce4bhjp2rcd13ifvqg90","pricing_plan_id":"cebpf4jnsgd1na2vs0mg"},{"bike_id":"a97e4d1b-4f4a-48fc-882e-058099634779","system_id":"levelo_inurba_marseille","lat":43.25491,"lon":5.37651,"is_reserved":false,"is_disabled":true,"rental_uris":{"android":"levelo://app?vid=a97e4d1b-4f4a-48fc-882e-058099634779","ios":"levelo://app?vid=a97e4d1b-4f4a-48fc-882e-058099634779"},"vehicle_type_id":"4","last_reported":1732547404,"current_range_meters":0,"station_id":"ce4bhh12rcd13ifvqff0","pricing_plan_id":"cebpf4jnsgd1na2vs0mg"},{"bike_id":"e7206631-e4aa-40c3-b204-54169b1aef82","system_id":"levelo_inurba_marseille","lat":43.30135,"lon":5.37426,"is_reserved":false,"is_disabled":false,"rental_uris":{"android":"levelo://app?vid=e7206631-e4aa-40c3-b204-54169b1aef82","ios":"levelo://app?vid=e7206631-e4aa-40c3-b204-54169b1aef82"},"vehicle_type_id":"4","last_reported":1732547404,"current_range_meters":22800,"station_id":"ce4bgs92rcd13ifvqcc0","pricing_plan_id":"cebpf4jnsgd1na2vs0mg"},{"bike_id":"dac40ada-7264-4011-aa32-53fecf9ef606","system_id":"levelo_inurba_marseille","lat":43.254916,"lon":5.376456,"is_reserved":false,"is_disabled":false,"rental_uris":{"android":"levelo://app?vid=dac40ada-7264-4011-aa32-53fecf9ef606","ios":"levelo://app?vid=dac40ada-7264-4011-aa32-53fecf9ef606"},"vehicle_type_id":"4","last_reported":1732547404,"current_range_meters":12400,"station_id":"ce4bhh12rcd13ifvqff0","pricing_plan_id":"cebpf4jnsgd1na2vs0mg"},{"bike_id":"74facff1-99ef-4ed8-adf5-6131a9275b92","system_id":"levelo_inurba_marseille","lat":43.29573,"lon":5.37519,"is_reserved":false,"is_disabled":false,"rental_uris":{"android":"levelo://app?vid=74facff1-99ef-4ed8-adf5-6131a9275b92","ios":"levelo://app?vid=74facff1-99ef-4ed8-adf5-6131a9275b92"},"vehicle_type_id":"4","last_reported":1732547404,"current_range_meters":24000,"station_id":"","pricing_plan_id":"cebpf4jnsgd1na2vs0mg"},{"bike_id":"08a198d7-556c-4248-9fbd-1c21aaf2dd82","system_id":"levelo_inurba_marseille","lat":43.29267,"lon":5.36844,"is_reserved":false,"is_disabled":true,"rental_uris":{"android":"levelo://app?vid=08a198d7-556c-4248-9fbd-1c21aaf2dd82","ios":"levelo://app?vid=08a198d7-556c-4248-9fbd-1c21aaf2dd82"},"vehicle_type_id":"4","last_reported":1732547404,"current_range_meters":34800,"station_id":"ce4bhbp2rcd13ifvqesg","pricing_plan_id":"cebpf4jnsgd1na2vs0mg"},{"bike_id":"7f89b812-16cb-4135-bc5f-efa2b244ec26","system_id":"levelo_inurba_marseille","lat":43.26548,"lon":5.37289,"is_reserved":false,"is_disabled":true,"rental_uris":{"android":"levelo://app?vid=7f89b812-16cb-4135-bc5f-efa2b244ec26","ios":"levelo://app?vid=7f89b812-16cb-4135-bc5f-efa2b244ec26"},"vehicle_type_id":"4","last_reported":1732547404,"current_range_meters":36400,"station_id":"ce4bhg12rcd13ifvqf70","pricing_plan_id":"cebpf4jnsgd1na2vs0mg"},{"bike_id":"e2f0ef73-8018-4db5-80ea-af7dd90396dd","system_id":"levelo_inurba_marseille","lat":43.28151,"lon":5.42641,"is_reserved":false,"is_disabled":false,"rental_uris":{"android":"levelo://app?vid=e2f0ef73-8018-4db5-80ea-af7dd90396dd","ios":"levelo://app?vid=e2f0ef73-8018-4db5-80ea-af7dd90396dd"},"vehicle_type_id":"4","last_reported":1732547404,"current_range_meters":18000,"station_id":"ce4bhnh2rcd13ifvqgug","pricing_plan_id":"cebpf4jnsgd1na2vs0mg"},{"bike_id":"86ec5835-1e76-4455-9969-54b44bba3755","system_id":"levelo_inurba_marseille","lat":43.32465,"lon":5.36546,"is_reserved":false,"is_disabled":false,"rental_uris":{"android":"levelo://app?vid=86ec5835-1e76-4455-9969-54b44bba3755","ios":"levelo://app?vid=86ec5835-1e76-4455-9969-54b44bba3755"},"vehicle_type_id":"4","last_reported":1732547404,"current_range_meters":38800,"station_id":"ce4bhs12rcd13ifvqhvg","pricing_plan_id":"cebpf4jnsgd1na2vs0mg"},{"bike_id":"a5909545-3e09-4859-9fda-9ffe4e6e4883","system_id":"levelo_inurba_marseille","lat":43.23068,"lon":5.3549,"is_reserved":false,"is_disabled":false,"rental_uris":{"android":"levelo://app?vid=a5909545-3e09-4859-9fda-9ffe4e6e4883","ios":"levelo://app?vid=a5909545-3e09-4859-9fda-9ffe4e6e4883"},"vehicle_type_id":"4","last_reported":1732547404,"current_range_meters":36400,"station_id":"cpo3342slgdg3j2ifvpg","pricing_plan_id":"cebpf4jnsgd1na2vs0mg"},{"bike_id":"cf251549-26dd-4cfe-aae0-68a73509a128","system_id":"levelo_inurba_marseille","lat":43.30285,"lon":5.40061,"is_reserved":false,"is_disabled":false,"rental_uris":{"android":"levelo://app?vid=cf251549-26dd-4cfe-aae0-68a73509a128","ios":"levelo://app?vid=cf251549-26dd-4cfe-aae0-68a73509a128"},"vehicle_type_id":"4","last_reported":1732547404,"current_range_meters":38800,"station_id":"ce4bgvh2rcd13ifvqcs0","pricing_plan_id":"cebpf4jnsgd1na2vs0mg"},{"bike_id":"7e2d7b23-7197-40a2-8541-0f63838081ed","system_id":"levelo_inurba_marseille","lat":43.32658,"lon":5.40997,"is_reserved":false,"is_disabled":false,"rental_uris":{"android":"levelo://app?vid=7e2d7b23-7197-40a2-8541-0f63838081ed","ios":"levelo://app?vid=7e2d7b23-7197-40a2-8541-0f63838081ed"},"vehicle_type_id":"4","last_reported":1732547404,"current_range_meters":37600,"station_id":"ce4bhpp2rcd13ifvqhgg","pricing_plan_id":"cebpf4jnsgd1na2vs0mg"},{"bike_id":"d32e419a-46a3-4050-be6a-d2a299ac411f","system_id":"levelo_inurba_marseille","lat":43.293,"lon":5.37183,"is_reserved":false,"is_disabled":true,"rental_uris":{"android":"levelo://app?vid=d32e419a-46a3-4050-be6a-d2a299ac411f","ios":"levelo://app?vid=d32e419a-46a3-4050-be6a-d2a299ac411f"},"vehicle_type_id":"4","last_reported":1732547404,"current_range_meters":27200,"station_id":"ce4bgh92rcd13ifvqb40","pricing_plan_id":"cebpf4jnsgd1na2vs0mg"},{"bike_id":"e55cb847-ae27-4fbd-b24c-f65df0e27256","system_id":"levelo_inurba_marseille","lat":43.28026,"lon":5.36938,"is_reserved":false,"is_disabled":true,"rental_uris":{"android":"levelo://app?vid=e55cb847-ae27-4fbd-b24c-f65df0e27256","ios":"levelo://app?vid=e55cb847-ae27-4fbd-b24c-f65df0e27256"},"vehicle_type_id":"4","last_reported":1732547404,"current_range_meters":29600,"station_id":"ce4bha12rcd13ifvqef0","pricing_plan_id":"cebpf4jnsgd1na2vs0mg"},{"bike_id":"bbc2b3e9-6702-423d-bdb3-bce2a77361c6","system_id":"levelo_inurba_marseille","lat":43.32364,"lon":5.38873,"is_reserved":false,"is_disabled":false,"rental_uris":{"android":"levelo://app?vid=bbc2b3e9-6702-423d-bdb3-bce2a77361c6","ios":"levelo://app?vid=bbc2b3e9-6702-423d-bdb3-bce2a77361c6"},"vehicle_type_id":"4","last_reported":1732547404,"current_range_meters":16800,"station_id":"ce4bhqp2rcd13ifvqhog","pricing_plan_id":"cebpf4jnsgd1na2vs0mg"},{"bike_id":"e5951ee3-4a5a-4ebb-b469-096c5188dfa3","system_id":"levelo_inurba_marseille","lat":43.23193,"lon":5.35568,"is_reserved":false,"is_disabled":false,"rental_uris":{"android":"levelo://app?vid=e5951ee3-4a5a-4ebb-b469-096c5188dfa3","ios":"levelo://app?vid=e5951ee3-4a5a-4ebb-b469-096c5188dfa3"},"vehicle_type_id":"4","last_reported":1732547404,"current_range_meters":38800,"station_id":"ce4bhu92rcd13ifvqi70","pricing_plan_id":"cebpf4jnsgd1na2vs0mg"},{"bike_id":"3cc26207-7312-4eaa-95b6-cfa66aac5ad8","system_id":"levelo_inurba_marseille","lat":43.2315,"lon":5.43711,"is_reserved":false,"is_disabled":false,"rental_uris":{"android":"levelo://app?vid=3cc26207-7312-4eaa-95b6-cfa66aac5ad8","ios":"levelo://app?vid=3cc26207-7312-4eaa-95b6-cfa66aac5ad8"},"vehicle_type_id":"4","last_reported":1732547404,"current_range_meters":14000,"station_id":"ce4bhmp2rcd13ifvqgog","pricing_plan_id":"cebpf4jnsgd1na2vs0mg"},{"bike_id":"33ae12dc-d757-46bf-b195-cf4bbca44eb2","system_id":"levelo_inurba_marseille","lat":43.30554,"lon":5.36512,"is_reserved":false,"is_disabled":false,"rental_uris":{"android":"levelo://app?vid=33ae12dc-d757-46bf-b195-cf4bbca44eb2","ios":"levelo://app?vid=33ae12dc-d757-46bf-b195-cf4bbca44eb2"},"vehicle_type_id":"4","last_reported":1732547404,"current_range_meters":38800,"station_id":"ce4bgs12rcd13ifvqcag","pricing_plan_id":"cebpf4jnsgd1na2vs0mg"},{"bike_id":"66aad5d7-efa9-4543-8e11-bbf0af584fcf","system_id":"levelo_inurba_marseille","lat":43.27818,"lon":5.40713,"is_reserved":false,"is_disabled":true,"rental_uris":{"android":"levelo://app?vid=66aad5d7-efa9-4543-8e11-bbf0af584fcf","ios":"levelo://app?vid=66aad5d7-efa9-4543-8e11-bbf0af584fcf"},"vehicle_type_id":"4","last_reported":1732547404,"current_range_meters":38800,"station_id":"ce4bhnh2rcd13ifvqgtg","pricing_plan_id":"cebpf4jnsgd1na2vs0mg"},{"bike_id":"8844ed65-274b-4b50-9a69-ffe1b9b15311","system_id":"levelo_inurba_marseille","lat":43.29972,"lon":5.38499,"is_reserved":false,"is_disabled":false,"rental_uris":{"android":"levelo://app?vid=8844ed65-274b-4b50-9a69-ffe1b9b15311","ios":"levelo://app?vid=8844ed65-274b-4b50-9a69-ffe1b9b15311"},"vehicle_type_id":"4","last_reported":1732547404,"current_range_meters":10000,"station_id":"ce4bgj92rcd13ifvqbd0","pricing_plan_id":"cebpf4jnsgd1na2vs0mg"},{"bike_id":"6c948e9c-d5b3-4fe5-a918-1bd2f7c83b02","system_id":"levelo_inurba_marseille","lat":43.3211,"lon":5.3677,"is_reserved":false,"is_disabled":false,"rental_uris":{"android":"levelo://app?vid=6c948e9c-d5b3-4fe5-a918-1bd2f7c83b02","ios":"levelo://app?vid=6c948e9c-d5b3-4fe5-a918-1bd2f7c83b02"},"vehicle_type_id":"4","last_reported":1732547404,"current_range_meters":24000,"station_id":"ce4bhrh2rcd13ifvqhug","pricing_plan_id":"cebpf4jnsgd1na2vs0mg"},{"bike_id":"9e620abf-d324-4f99-84fc-d67e71109f2a","system_id":"levelo_inurba_marseille","lat":43.31077,"lon":5.42435,"is_reserved":false,"is_disabled":true,"rental_uris":{"android":"levelo://app?vid=9e620abf-d324-4f99-84fc-d67e71109f2a","ios":"levelo://app?vid=9e620abf-d324-4f99-84fc-d67e71109f2a"},"vehicle_type_id":"4","last_reported":1732547404,"current_range_meters":0,"station_id":"ce4bhp92rcd13ifvqhag","pricing_plan_id":"cebpf4jnsgd1na2vs0mg"},{"bike_id":"455b28c7-102f-45a6-9142-7830394a6f57","system_id":"levelo_inurba_marseille","lat":43.29787,"lon":5.37105,"is_reserved":false,"is_disabled":false,"rental_uris":{"android":"levelo://app?vid=455b28c7-102f-45a6-9142-7830394a6f57","ios":"levelo://app?vid=455b28c7-102f-45a6-9142-7830394a6f57"},"vehicle_type_id":"4","last_reported":1732547404,"current_range_meters":25600,"station_id":"ce4bgop2rcd13ifvqc1g","pricing_plan_id":"cebpf4jnsgd1na2vs0mg"},{"bike_id":"7c91f2ac-1dd3-428c-aafd-49def36e722e","system_id":"levelo_inurba_marseille","lat":43.337444,"lon":5.374475,"is_reserved":false,"is_disabled":false,"rental_uris":{"android":"levelo://app?vid=7c91f2ac-1dd3-428c-aafd-49def36e722e","ios":"levelo://app?vid=7c91f2ac-1dd3-428c-aafd-49def36e722e"},"vehicle_type_id":"4","last_reported":1732547404,"current_range_meters":33600,"station_id":"","pricing_plan_id":"cebpf4jnsgd1na2vs0mg"},{"bike_id":"f0754b1b-2581-469b-867d-b6b48e1c5261","system_id":"levelo_inurba_marseille","lat":43.28097,"lon":5.39655,"is_reserved":false,"is_disabled":false,"rental_uris":{"android":"levelo://app?vid=f0754b1b-2581-469b-867d-b6b48e1c5261","ios":"levelo://app?vid=f0754b1b-2581-469b-867d-b6b48e1c5261"},"vehicle_type_id":"4","last_reported":1732547404,"current_range_meters":37600,"station_id":"ce4bho12rcd13ifvqh2g","pricing_plan_id":"cebpf4jnsgd1na2vs0mg"},{"bike_id":"c730dd74-27a3-4049-ad11-93e3e3c4c90d","system_id":"levelo_inurba_marseille","lat":43.31172,"lon":5.38711,"is_reserved":false,"is_disabled":false,"rental_uris":{"android":"levelo://app?vid=c730dd74-27a3-4049-ad11-93e3e3c4c90d","ios":"levelo://app?vid=c730dd74-27a3-4049-ad11-93e3e3c4c90d"},"vehicle_type_id":"4","last_reported":1732547404,"current_range_meters":33200,"station_id":"ce4bgv12rcd13ifvqcp0","pricing_plan_id":"cebpf4jnsgd1na2vs0mg"},{"bike_id":"f14e9fba-b9bd-4443-896c-9fd7a4fd971d","system_id":"levelo_inurba_marseille","lat":43.29902,"lon":5.43662,"is_reserved":false,"is_disabled":false,"rental_uris":{"android":"levelo://app?vid=f14e9fba-b9bd-4443-896c-9fd7a4fd971d","ios":"levelo://app?vid=f14e9fba-b9bd-4443-896c-9fd7a4fd971d"},"vehicle_type_id":"4","last_reported":1732547404,"current_range_meters":40000,"station_id":"ce4bhpp2rcd13ifvqhfg","pricing_plan_id":"cebpf4jnsgd1na2vs0mg"},{"bike_id":"5c53cfbd-2547-413a-b79a-f8cc3b1ca992","system_id":"levelo_inurba_marseille","lat":43.32112,"lon":5.36775,"is_reserved":false,"is_disabled":false,"rental_uris":{"android":"levelo://app?vid=5c53cfbd-2547-413a-b79a-f8cc3b1ca992","ios":"levelo://app?vid=5c53cfbd-2547-413a-b79a-f8cc3b1ca992"},"vehicle_type_id":"4","last_reported":1732547404,"current_range_meters":36400,"station_id":"ce4bhrh2rcd13ifvqhug","pricing_plan_id":"cebpf4jnsgd1na2vs0mg"},{"bike_id":"d7d9caf6-13cf-4e0c-9b4b-59739a7c4dba","system_id":"levelo_inurba_marseille","lat":43.27175,"lon":5.40998,"is_reserved":false,"is_disabled":false,"rental_uris":{"android":"levelo://app?vid=d7d9caf6-13cf-4e0c-9b4b-59739a7c4dba","ios":"levelo://app?vid=d7d9caf6-13cf-4e0c-9b4b-59739a7c4dba"},"vehicle_type_id":"4","last_reported":1732547404,"current_range_meters":2000,"station_id":"ce4bhl12rcd13ifvqgf0","pricing_plan_id":"cebpf4jnsgd1na2vs0mg"},{"bike_id":"315472f7-761b-4e7e-a0db-400c3093d0ae","system_id":"levelo_inurba_marseille","lat":43.31331,"lon":5.39692,"is_reserved":false,"is_disabled":false,"rental_uris":{"android":"levelo://app?vid=315472f7-761b-4e7e-a0db-400c3093d0ae","ios":"levelo://app?vid=315472f7-761b-4e7e-a0db-400c3093d0ae"},"vehicle_type_id":"4","last_reported":1732547404,"current_range_meters":32800,"station_id":"ce4bgvp2rcd13ifvqcu0","pricing_plan_id":"cebpf4jnsgd1na2vs0mg"},{"bike_id":"fd611dea-a4ab-4101-a3de-7640e40ace3a","system_id":"levelo_inurba_marseille","lat":43.32541,"lon":5.41425,"is_reserved":false,"is_disabled":false,"rental_uris":{"android":"levelo://app?vid=fd611dea-a4ab-4101-a3de-7640e40ace3a","ios":"levelo://app?vid=fd611dea-a4ab-4101-a3de-7640e40ace3a"},"vehicle_type_id":"4","last_reported":1732547404,"current_range_meters":31200,"station_id":"ce4bhq12rcd13ifvqhhg","pricing_plan_id":"cebpf4jnsgd1na2vs0mg"},{"bike_id":"3b1c97d8-be81-484f-81f9-990f5b17db10","system_id":"levelo_inurba_marseille","lat":43.34139,"lon":5.40919,"is_reserved":false,"is_disabled":false,"rental_uris":{"android":"levelo://app?vid=3b1c97d8-be81-484f-81f9-990f5b17db10","ios":"levelo://app?vid=3b1c97d8-be81-484f-81f9-990f5b17db10"},"vehicle_type_id":"4","last_reported":1732547404,"current_range_meters":37600,"station_id":"ce4bhqh2rcd13ifvqhlg","pricing_plan_id":"cebpf4jnsgd1na2vs0mg"},{"bike_id":"7cec6bc4-a763-493b-850e-29f6f32490e0","system_id":"levelo_inurba_marseille","lat":43.3043,"lon":5.38893,"is_reserved":false,"is_disabled":false,"rental_uris":{"android":"levelo://app?vid=7cec6bc4-a763-493b-850e-29f6f32490e0","ios":"levelo://app?vid=7cec6bc4-a763-493b-850e-29f6f32490e0"},"vehicle_type_id":"4","last_reported":1732547404,"current_range_meters":32000,"station_id":"ce4bgk12rcd13ifvqbi0","pricing_plan_id":"cebpf4jnsgd1na2vs0mg"},{"bike_id":"88aa470a-28cb-4249-940d-574827546a59","system_id":"levelo_inurba_marseille","lat":43.29852,"lon":5.36291,"is_reserved":false,"is_disabled":false,"rental_uris":{"android":"levelo://app?vid=88aa470a-28cb-4249-940d-574827546a59","ios":"levelo://app?vid=88aa470a-28cb-4249-940d-574827546a59"},"vehicle_type_id":"4","last_reported":1732547404,"current_range_meters":22400,"station_id":"ce4bgpp2rcd13ifvqc3g","pricing_plan_id":"cebpf4jnsgd1na2vs0mg"},{"bike_id":"40c7ddb8-0e1a-4eb1-9e2f-d3bf1a0f9d1e","system_id":"levelo_inurba_marseille","lat":43.28267,"lon":5.35065,"is_reserved":false,"is_disabled":true,"rental_uris":{"android":"levelo://app?vid=40c7ddb8-0e1a-4eb1-9e2f-d3bf1a0f9d1e","ios":"levelo://app?vid=40c7ddb8-0e1a-4eb1-9e2f-d3bf1a0f9d1e"},"vehicle_type_id":"4","last_reported":1732547404,"current_range_meters":25200,"station_id":"ce4bhbp2rcd13ifvqerg","pricing_plan_id":"cebpf4jnsgd1na2vs0mg"},{"bike_id":"46ac22a8-6f10-4221-98a6-34eba5c97bfb","system_id":"levelo_inurba_marseille","lat":43.29206,"lon":5.37314,"is_reserved":false,"is_disabled":true,"rental_uris":{"android":"levelo://app?vid=46ac22a8-6f10-4221-98a6-34eba5c97bfb","ios":"levelo://app?vid=46ac22a8-6f10-4221-98a6-34eba5c97bfb"},"vehicle_type_id":"4","last_reported":1732547404,"current_range_meters":0,"station_id":"","pricing_plan_id":"cebpf4jnsgd1na2vs0mg"},{"bike_id":"5846e7ee-045c-466d-b02c-9cd3eadc9db6","system_id":"levelo_inurba_marseille","lat":43.2919,"lon":5.35781,"is_reserved":false,"is_disabled":false,"rental_uris":{"android":"levelo://app?vid=5846e7ee-045c-466d-b02c-9cd3eadc9db6","ios":"levelo://app?vid=5846e7ee-045c-466d-b02c-9cd3eadc9db6"},"vehicle_type_id":"4","last_reported":1732547404,"current_range_meters":38800,"station_id":"ce4bhb12rcd13ifvqel0","pricing_plan_id":"cebpf4jnsgd1na2vs0mg"},{"bike_id":"25dcc473-3f4a-4da9-910c-6686c627596d","system_id":"levelo_inurba_marseille","lat":43.29517,"lon":5.39041,"is_reserved":false,"is_disabled":false,"rental_uris":{"android":"levelo://app?vid=25dcc473-3f4a-4da9-910c-6686c627596d","ios":"levelo://app?vid=25dcc473-3f4a-4da9-910c-6686c627596d"},"vehicle_type_id":"4","last_reported":1732547404,"current_range_meters":38000,"station_id":"ce4bh3p2rcd13ifvqdp0","pricing_plan_id":"cebpf4jnsgd1na2vs0mg"},{"bike_id":"43746d86-8a13-4845-9faf-ae69b548d714","system_id":"levelo_inurba_marseille","lat":43.29451,"lon":5.37915,"is_reserved":false,"is_disabled":true,"rental_uris":{"android":"levelo://app?vid=43746d86-8a13-4845-9faf-ae69b548d714","ios":"levelo://app?vid=43746d86-8a13-4845-9faf-ae69b548d714"},"vehicle_type_id":"4","last_reported":1732547404,"current_range_meters":0,"station_id":"","pricing_plan_id":"cebpf4jnsgd1na2vs0mg"},{"bike_id":"2af2f209-74ab-41f6-b808-cd21a37751e1","system_id":"levelo_inurba_marseille","lat":43.26027,"lon":5.37551,"is_reserved":false,"is_disabled":false,"rental_uris":{"android":"levelo://app?vid=2af2f209-74ab-41f6-b808-cd21a37751e1","ios":"levelo://app?vid=2af2f209-74ab-41f6-b808-cd21a37751e1"},"vehicle_type_id":"4","last_reported":1732547404,"current_range_meters":37600,"station_id":"ce4bhgh2rcd13ifvqfa0","pricing_plan_id":"cebpf4jnsgd1na2vs0mg"},{"bike_id":"7317920e-5975-4c67-a891-63736e89f140","system_id":"levelo_inurba_marseille","lat":43.29274,"lon":5.36786,"is_reserved":false,"is_disabled":true,"rental_uris":{"android":"levelo://app?vid=7317920e-5975-4c67-a891-63736e89f140","ios":"levelo://app?vid=7317920e-5975-4c67-a891-63736e89f140"},"vehicle_type_id":"4","last_reported":1732547404,"current_range_meters":23200,"station_id":"","pricing_plan_id":"cebpf4jnsgd1na2vs0mg"},{"bike_id":"7a0807cf-8f8c-49a6-8ecf-d156aaf15bfe","system_id":"levelo_inurba_marseille","lat":43.3046,"lon":5.37908,"is_reserved":false,"is_disabled":false,"rental_uris":{"android":"levelo://app?vid=7a0807cf-8f8c-49a6-8ecf-d156aaf15bfe","ios":"levelo://app?vid=7a0807cf-8f8c-49a6-8ecf-d156aaf15bfe"},"vehicle_type_id":"4","last_reported":1732547404,"current_range_meters":20800,"station_id":"ce4bgup2rcd13ifvqcn0","pricing_plan_id":"cebpf4jnsgd1na2vs0mg"},{"bike_id":"a2b09865-004d-45eb-b301-cf3640220a72","system_id":"levelo_inurba_marseille","lat":43.29605,"lon":5.38105,"is_reserved":false,"is_disabled":true,"rental_uris":{"android":"levelo://app?vid=a2b09865-004d-45eb-b301-cf3640220a72","ios":"levelo://app?vid=a2b09865-004d-45eb-b301-cf3640220a72"},"vehicle_type_id":"4","last_reported":1732547404,"current_range_meters":0,"station_id":"ce4bgl12rcd13ifvqbo0","pricing_plan_id":"cebpf4jnsgd1na2vs0mg"},{"bike_id":"956159ef-cd2c-48a1-9638-7d5ccd7a02f9","system_id":"levelo_inurba_marseille","lat":43.2668,"lon":5.38273,"is_reserved":false,"is_disabled":false,"rental_uris":{"android":"levelo://app?vid=956159ef-cd2c-48a1-9638-7d5ccd7a02f9","ios":"levelo://app?vid=956159ef-cd2c-48a1-9638-7d5ccd7a02f9"},"vehicle_type_id":"4","last_reported":1732547404,"current_range_meters":26800,"station_id":"ce4bhg92rcd13ifvqf90","pricing_plan_id":"cebpf4jnsgd1na2vs0mg"},{"bike_id":"b777e881-954f-41ae-bb6d-48a5fe325c58","system_id":"levelo_inurba_marseille","lat":43.26202,"lon":5.37931,"is_reserved":false,"is_disabled":false,"rental_uris":{"android":"levelo://app?vid=b777e881-954f-41ae-bb6d-48a5fe325c58","ios":"levelo://app?vid=b777e881-954f-41ae-bb6d-48a5fe325c58"},"vehicle_type_id":"4","last_reported":1732547404,"current_range_meters":40000,"station_id":"ce4bhjp2rcd13ifvqg90","pricing_plan_id":"cebpf4jnsgd1na2vs0mg"},{"bike_id":"3711e29e-f968-4f0c-9a20-7421929be8ee","system_id":"levelo_inurba_marseille","lat":43.29421,"lon":5.38621,"is_reserved":false,"is_disabled":false,"rental_uris":{"android":"levelo://app?vid=3711e29e-f968-4f0c-9a20-7421929be8ee","ios":"levelo://app?vid=3711e29e-f968-4f0c-9a20-7421929be8ee"},"vehicle_type_id":"4","last_reported":1732547404,"current_range_meters":28000,"station_id":"ce4bh2h2rcd13ifvqdh0","pricing_plan_id":"cebpf4jnsgd1na2vs0mg"},{"bike_id":"fa719603-3f5a-410e-b287-e996ead0be5d","system_id":"levelo_inurba_marseille","lat":43.29531,"lon":5.37922,"is_reserved":false,"is_disabled":false,"rental_uris":{"android":"levelo://app?vid=fa719603-3f5a-410e-b287-e996ead0be5d","ios":"levelo://app?vid=fa719603-3f5a-410e-b287-e996ead0be5d"},"vehicle_type_id":"4","last_reported":1732547404,"current_range_meters":34800,"station_id":"","pricing_plan_id":"cebpf4jnsgd1na2vs0mg"},{"bike_id":"fa0217d8-89ad-4cca-a826-b525f5b071e0","system_id":"levelo_inurba_marseille","lat":43.29603,"lon":5.38105,"is_reserved":false,"is_disabled":false,"rental_uris":{"android":"levelo://app?vid=fa0217d8-89ad-4cca-a826-b525f5b071e0","ios":"levelo://app?vid=fa0217d8-89ad-4cca-a826-b525f5b071e0"},"vehicle_type_id":"4","last_reported":1732547404,"current_range_meters":38800,"station_id":"ce4bgl12rcd13ifvqbo0","pricing_plan_id":"cebpf4jnsgd1na2vs0mg"},{"bike_id":"ee2b6f35-7d1b-4ce9-8a89-ced5ff6ba75e","system_id":"levelo_inurba_marseille","lat":43.24381,"lon":5.37056,"is_reserved":false,"is_disabled":false,"rental_uris":{"android":"levelo://app?vid=ee2b6f35-7d1b-4ce9-8a89-ced5ff6ba75e","ios":"levelo://app?vid=ee2b6f35-7d1b-4ce9-8a89-ced5ff6ba75e"},"vehicle_type_id":"4","last_reported":1732547404,"current_range_meters":38800,"station_id":"ce4bhhh2rcd13ifvqfk0","pricing_plan_id":"cebpf4jnsgd1na2vs0mg"},{"bike_id":"516f4428-ee93-4480-82a1-a118eff2c547","system_id":"levelo_inurba_marseille","lat":43.29964,"lon":5.41327,"is_reserved":false,"is_disabled":false,"rental_uris":{"android":"levelo://app?vid=516f4428-ee93-4480-82a1-a118eff2c547","ios":"levelo://app?vid=516f4428-ee93-4480-82a1-a118eff2c547"},"vehicle_type_id":"4","last_reported":1732547404,"current_range_meters":38800,"station_id":"ce4bhp12rcd13ifvqh9g","pricing_plan_id":"cebpf4jnsgd1na2vs0mg"},{"bike_id":"edd1dd32-d9d0-4a01-ab05-eccf573e5d6c","system_id":"levelo_inurba_marseille","lat":43.28412,"lon":5.37526,"is_reserved":false,"is_disabled":false,"rental_uris":{"android":"levelo://app?vid=edd1dd32-d9d0-4a01-ab05-eccf573e5d6c","ios":"levelo://app?vid=edd1dd32-d9d0-4a01-ab05-eccf573e5d6c"},"vehicle_type_id":"4","last_reported":1732547404,"current_range_meters":18800,"station_id":"ce4bh412rcd13ifvqds0","pricing_plan_id":"cebpf4jnsgd1na2vs0mg"},{"bike_id":"40838fbd-175e-4307-947d-b85409f45c17","system_id":"levelo_inurba_marseille","lat":43.23194,"lon":5.35551,"is_reserved":false,"is_disabled":false,"rental_uris":{"android":"levelo://app?vid=40838fbd-175e-4307-947d-b85409f45c17","ios":"levelo://app?vid=40838fbd-175e-4307-947d-b85409f45c17"},"vehicle_type_id":"4","last_reported":1732547404,"current_range_meters":29600,"station_id":"ce4bhu92rcd13ifvqi70","pricing_plan_id":"cebpf4jnsgd1na2vs0mg"},{"bike_id":"7f723b0b-cbe8-4f68-b8fe-2ce3d5e983bd","system_id":"levelo_inurba_marseille","lat":43.32103,"lon":5.36777,"is_reserved":false,"is_disabled":true,"rental_uris":{"android":"levelo://app?vid=7f723b0b-cbe8-4f68-b8fe-2ce3d5e983bd","ios":"levelo://app?vid=7f723b0b-cbe8-4f68-b8fe-2ce3d5e983bd"},"vehicle_type_id":"4","last_reported":1732547404,"current_range_meters":24400,"station_id":"","pricing_plan_id":"cebpf4jnsgd1na2vs0mg"},{"bike_id":"57e9efae-c0ad-4e75-9d1c-f42613120505","system_id":"levelo_inurba_marseille","lat":43.2959,"lon":5.38094,"is_reserved":false,"is_disabled":false,"rental_uris":{"android":"levelo://app?vid=57e9efae-c0ad-4e75-9d1c-f42613120505","ios":"levelo://app?vid=57e9efae-c0ad-4e75-9d1c-f42613120505"},"vehicle_type_id":"4","last_reported":1732547404,"current_range_meters":30800,"station_id":"ce4bgl12rcd13ifvqbo0","pricing_plan_id":"cebpf4jnsgd1na2vs0mg"},{"bike_id":"861c88fd-3078-4629-b2a0-a46fc2639287","system_id":"levelo_inurba_marseille","lat":43.25929,"lon":5.40907,"is_reserved":false,"is_disabled":true,"rental_uris":{"android":"levelo://app?vid=861c88fd-3078-4629-b2a0-a46fc2639287","ios":"levelo://app?vid=861c88fd-3078-4629-b2a0-a46fc2639287"},"vehicle_type_id":"4","last_reported":1732547404,"current_range_meters":0,"station_id":"ce4bhm92rcd13ifvqglg","pricing_plan_id":"cebpf4jnsgd1na2vs0mg"},{"bike_id":"821bf144-3e04-433b-8fdc-df913ad0749b","system_id":"levelo_inurba_marseille","lat":43.31714,"lon":5.37733,"is_reserved":false,"is_disabled":false,"rental_uris":{"android":"levelo://app?vid=821bf144-3e04-433b-8fdc-df913ad0749b","ios":"levelo://app?vid=821bf144-3e04-433b-8fdc-df913ad0749b"},"vehicle_type_id":"4","last_reported":1732547404,"current_range_meters":34800,"station_id":"ce4bgth2rcd13ifvqch0","pricing_plan_id":"cebpf4jnsgd1na2vs0mg"},{"bike_id":"1fbe301a-cf68-4951-a7e3-0ac11187e18a","system_id":"levelo_inurba_marseille","lat":43.29509,"lon":5.39044,"is_reserved":false,"is_disabled":false,"rental_uris":{"android":"levelo://app?vid=1fbe301a-cf68-4951-a7e3-0ac11187e18a","ios":"levelo://app?vid=1fbe301a-cf68-4951-a7e3-0ac11187e18a"},"vehicle_type_id":"4","last_reported":1732547404,"current_range_meters":18000,"station_id":"ce4bh3p2rcd13ifvqdp0","pricing_plan_id":"cebpf4jnsgd1na2vs0mg"},{"bike_id":"7e9061cd-5627-407a-8c6f-fcf878e75a40","system_id":"levelo_inurba_marseille","lat":43.27956,"lon":5.41051,"is_reserved":false,"is_disabled":true,"rental_uris":{"android":"levelo://app?vid=7e9061cd-5627-407a-8c6f-fcf878e75a40","ios":"levelo://app?vid=7e9061cd-5627-407a-8c6f-fcf878e75a40"},"vehicle_type_id":"4","last_reported":1732547404,"current_range_meters":5600,"station_id":"ce4bhnp2rcd13ifvqh0g","pricing_plan_id":"cebpf4jnsgd1na2vs0mg"},{"bike_id":"dca456c2-83ae-4149-936c-19570024bc13","system_id":"levelo_inurba_marseille","lat":43.29032,"lon":5.38643,"is_reserved":false,"is_disabled":false,"rental_uris":{"android":"levelo://app?vid=dca456c2-83ae-4149-936c-19570024bc13","ios":"levelo://app?vid=dca456c2-83ae-4149-936c-19570024bc13"},"vehicle_type_id":"4","last_reported":1732547404,"current_range_meters":23200,"station_id":"ce4bh4p2rcd13ifvqe0g","pricing_plan_id":"cebpf4jnsgd1na2vs0mg"},{"bike_id":"72f3abdc-02fb-4b43-850e-b1ec134c3ff0","system_id":"levelo_inurba_marseille","lat":43.25836,"lon":5.39421,"is_reserved":false,"is_disabled":false,"rental_uris":{"android":"levelo://app?vid=72f3abdc-02fb-4b43-850e-b1ec134c3ff0","ios":"levelo://app?vid=72f3abdc-02fb-4b43-850e-b1ec134c3ff0"},"vehicle_type_id":"4","last_reported":1732547404,"current_range_meters":38000,"station_id":"ce4bhip2rcd13ifvqft0","pricing_plan_id":"cebpf4jnsgd1na2vs0mg"},{"bike_id":"004bb61a-ff94-42b0-979d-87345f07ca62","system_id":"levelo_inurba_marseille","lat":43.30136,"lon":5.37419,"is_reserved":false,"is_disabled":false,"rental_uris":{"android":"levelo://app?vid=004bb61a-ff94-42b0-979d-87345f07ca62","ios":"levelo://app?vid=004bb61a-ff94-42b0-979d-87345f07ca62"},"vehicle_type_id":"4","last_reported":1732547404,"current_range_meters":38400,"station_id":"ce4bgs92rcd13ifvqcc0","pricing_plan_id":"cebpf4jnsgd1na2vs0mg"},{"bike_id":"14e7aca2-1bf2-429b-94f2-f8400417bff8","system_id":"levelo_inurba_marseille","lat":43.3015,"lon":5.38762,"is_reserved":false,"is_disabled":false,"rental_uris":{"android":"levelo://app?vid=14e7aca2-1bf2-429b-94f2-f8400417bff8","ios":"levelo://app?vid=14e7aca2-1bf2-429b-94f2-f8400417bff8"},"vehicle_type_id":"4","last_reported":1732547404,"current_range_meters":22000,"station_id":"ce4bghh2rcd13ifvqb60","pricing_plan_id":"cebpf4jnsgd1na2vs0mg"},{"bike_id":"646d628a-c3fa-4c62-a6d8-a62909f2c1ad","system_id":"levelo_inurba_marseille","lat":43.25581,"lon":5.38225,"is_reserved":false,"is_disabled":false,"rental_uris":{"android":"levelo://app?vid=646d628a-c3fa-4c62-a6d8-a62909f2c1ad","ios":"levelo://app?vid=646d628a-c3fa-4c62-a6d8-a62909f2c1ad"},"vehicle_type_id":"4","last_reported":1732547404,"current_range_meters":11600,"station_id":"ce4bhih2rcd13ifvqfs0","pricing_plan_id":"cebpf4jnsgd1na2vs0mg"},{"bike_id":"4dfdc4fe-b6d1-4cc1-b0b4-de389992a6df","system_id":"levelo_inurba_marseille","lat":43.30117,"lon":5.38778,"is_reserved":false,"is_disabled":false,"rental_uris":{"android":"levelo://app?vid=4dfdc4fe-b6d1-4cc1-b0b4-de389992a6df","ios":"levelo://app?vid=4dfdc4fe-b6d1-4cc1-b0b4-de389992a6df"},"vehicle_type_id":"4","last_reported":1732547404,"current_range_meters":36800,"station_id":"ce4bghh2rcd13ifvqb60","pricing_plan_id":"cebpf4jnsgd1na2vs0mg"},{"bike_id":"8b1a6e54-d72f-4e51-8f5e-fb54ac76bf8f","system_id":"levelo_inurba_marseille","lat":43.30135,"lon":5.38089,"is_reserved":false,"is_disabled":false,"rental_uris":{"android":"levelo://app?vid=8b1a6e54-d72f-4e51-8f5e-fb54ac76bf8f","ios":"levelo://app?vid=8b1a6e54-d72f-4e51-8f5e-fb54ac76bf8f"},"vehicle_type_id":"4","last_reported":1732547404,"current_range_meters":8400,"station_id":"ce4bgjp2rcd13ifvqbh0","pricing_plan_id":"cebpf4jnsgd1na2vs0mg"},{"bike_id":"0d42ad01-9637-420e-b5be-12377fb03d6e","system_id":"levelo_inurba_marseille","lat":43.29987,"lon":5.38492,"is_reserved":false,"is_disabled":false,"rental_uris":{"android":"levelo://app?vid=0d42ad01-9637-420e-b5be-12377fb03d6e","ios":"levelo://app?vid=0d42ad01-9637-420e-b5be-12377fb03d6e"},"vehicle_type_id":"4","last_reported":1732547404,"current_range_meters":38800,"station_id":"ce4bgj92rcd13ifvqbd0","pricing_plan_id":"cebpf4jnsgd1na2vs0mg"},{"bike_id":"0b5f7b4e-e065-44c9-9b8b-2118dda16eca","system_id":"levelo_inurba_marseille","lat":43.24826,"lon":5.37434,"is_reserved":false,"is_disabled":false,"rental_uris":{"android":"levelo://app?vid=0b5f7b4e-e065-44c9-9b8b-2118dda16eca","ios":"levelo://app?vid=0b5f7b4e-e065-44c9-9b8b-2118dda16eca"},"vehicle_type_id":"4","last_reported":1732547404,"current_range_meters":38400,"station_id":"ce4bhgh2rcd13ifvqfb0","pricing_plan_id":"cebpf4jnsgd1na2vs0mg"},{"bike_id":"1820cac3-c6a0-4e70-878d-2e84861c8f85","system_id":"levelo_inurba_marseille","lat":43.27174,"lon":5.40992,"is_reserved":false,"is_disabled":false,"rental_uris":{"android":"levelo://app?vid=1820cac3-c6a0-4e70-878d-2e84861c8f85","ios":"levelo://app?vid=1820cac3-c6a0-4e70-878d-2e84861c8f85"},"vehicle_type_id":"4","last_reported":1732547404,"current_range_meters":10000,"station_id":"ce4bhl12rcd13ifvqgf0","pricing_plan_id":"cebpf4jnsgd1na2vs0mg"},{"bike_id":"69e1d97a-6923-4707-b4ed-75ce771e35fa","system_id":"levelo_inurba_marseille","lat":43.29804,"lon":5.38095,"is_reserved":false,"is_disabled":false,"rental_uris":{"android":"levelo://app?vid=69e1d97a-6923-4707-b4ed-75ce771e35fa","ios":"levelo://app?vid=69e1d97a-6923-4707-b4ed-75ce771e35fa"},"vehicle_type_id":"4","last_reported":1732547404,"current_range_meters":26000,"station_id":"ce4bgip2rcd13ifvqbb0","pricing_plan_id":"cebpf4jnsgd1na2vs0mg"},{"bike_id":"1df6db24-78b6-40af-9d44-b5496b21d82a","system_id":"levelo_inurba_marseille","lat":43.3236,"lon":5.38894,"is_reserved":false,"is_disabled":false,"rental_uris":{"android":"levelo://app?vid=1df6db24-78b6-40af-9d44-b5496b21d82a","ios":"levelo://app?vid=1df6db24-78b6-40af-9d44-b5496b21d82a"},"vehicle_type_id":"4","last_reported":1732547404,"current_range_meters":38800,"station_id":"ce4bhqp2rcd13ifvqhog","pricing_plan_id":"cebpf4jnsgd1na2vs0mg"},{"bike_id":"54555cff-5e44-488c-9c52-d8bb73a4b930","system_id":"levelo_inurba_marseille","lat":43.3042,"lon":5.4129,"is_reserved":false,"is_disabled":false,"rental_uris":{"android":"levelo://app?vid=54555cff-5e44-488c-9c52-d8bb73a4b930","ios":"levelo://app?vid=54555cff-5e44-488c-9c52-d8bb73a4b930"},"vehicle_type_id":"4","last_reported":1732547404,"current_range_meters":8000,"station_id":"ce4bhop2rcd13ifvqh8g","pricing_plan_id":"cebpf4jnsgd1na2vs0mg"},