{"last_updated":1713809301,"ttl":30,"version":"2.2","data":{"bikes":[{"bike_id":"66994d8f-ddc6-4392-9879-24bda0528daf","system_id":"levelo_inurba_marseille","lat":43.312239,"lon":5.368562,"is_reserved":false,"is_disabled":false,"rental_uris":{"android":"levelo://app?vid=66994d8f-ddc6-4392-9879-24bda0528daf","ios":"levelo://app?vid=66994d8f-ddc6-4392-9879-24bda0528daf"},"vehicle_type_id":"4","last_reported":1713809301,"current_range_meters":8400,"station_id":"ce4bgl92rcd13ifvqbq0","pricing_plan_id":"cebpf4jnsgd1na2vs0mg"},{"bike_id":"0896e8d0-ad2f-4e70-ae09-a4dae47223c6","system_id":"levelo_inurba_marseille","lat":43.309076,"lon":5.368465,"is_reserved":false,"is_disabled":false,"rental_uris":{"android":"levelo://app?vid=0896e8d0-ad2f-4e70-ae09-a4dae47223c6","ios":"levelo://app?vid=0896e8d0-ad2f-4e70-ae09-a4dae47223c6"},"vehicle_type_id":"4","last_reported":1713809301,"current_range_meters":1600,"station_id":"ce4bgn92rcd13ifvqbvg","pricing_plan_id":"cebpf4jnsgd1na2vs0mg"},{"bike_id":"703d1c4d-4eed-4a40-b749-f435abe24920","system_id":"levelo_inurba_marseille","lat":43.309076,"lon":5.368465,"is_reserved":false,"is_disabled":false,"rental_uris":{"android":"levelo://app?vid=703d1c4d-4eed-4a40-b749-f435abe24920","ios":"levelo://app?vid=703d1c4d-4eed-4a40-b749-f435abe24920"},"vehicle_type_id":"4","last_reported":1713809301,"current_range_meters":10400,"station_id":"ce4bgn92rcd13ifvqbvg","pricing_plan_id":"cebpf4jnsgd1na2vs0mg"},{"bike_id":"279cffe4-ca14-4292-9940-c9b8212da255","system_id":"levelo_inurba_marseille","lat":43.314811,"lon":5.373104,"is_reserved":false,"is_disabled":false,"rental_uris":{"android":"levelo://app?vid=279cffe4-ca14-4292-9940-c9b8212da255","ios":"levelo://app?vid=279cffe4-ca14-4292-9940-c9b8212da255"},"vehicle_type_id":"4","last_reported":1713809301,"current_range_meters":28400,"station_id":"ce4bgt12rcd13ifvqcd0","pricing_plan_id":"cebpf4jnsgd1na2vs0mg"},{"bike_id":"16b54794-f334-4bc1-8c80-cbf51bd1020b","system_id":"levelo_inurba_marseille","lat":43.314811,"lon":5.373103,"is_reserved":false,"is_disabled":false,"rental_uris":{"android":"levelo://app?vid=16b54794-f334-4bc1-8c80-cbf51bd1020b","ios":"levelo://app?vid=16b54794-f334-4bc1-8c80-cbf51bd1020b"},"vehicle_type_id":"4","last_reported":1713809301,"current_range_meters":0,"station_id":"ce4bgt12rcd13ifvqcd0","pricing_plan_id":"cebpf4jnsgd1na2vs0mg"},{"bike_id":"f922a085-64bc-4953-8d97-20ee8d2d1a59","system_id":"levelo_inurba_marseille","lat":43.314811,"lon":5.373103,"is_reserved":false,"is_disabled":false,"rental_uris":{"android":"levelo://app?vid=f922a085-64bc-4953-8d97-20ee8d2d1a59","ios":"levelo://app?vid=f922a085-64bc-4953-8d97-20ee8d2d1a59"},"vehicle_type_id":"4","last_reported":1713809301,"current_range_meters":7200,"station_id":"ce4bgt12rcd13ifvqcd0","pricing_plan_id":"cebpf4jnsgd1na2vs0mg"},{"bike_id":"be1d324d-a6c6-45a4-99c0-3980b15f0e9e","system_id":"levelo_inurba_marseille","lat":43.311131,"lon":5.377651,"is_reserved":false,"is_disabled":false,"rental_uris":{"android":"levelo://app?vid=be1d324d-a6c6-45a4-99c0-3980b15f0e9e","ios":"levelo://app?vid=be1d324d-a6c6-45a4-99c0-3980b15f0e9e"},"vehicle_type_id":"4","last_reported":1713809301,"current_range_meters":8000,"station_id":"ce4bgt92rcd13ifvqcg0","pricing_plan_id":"cebpf4jnsgd1na2vs0mg"},{"bike_id":"a0b6f137-2013-472b-a5a0-60c9b0ef68b6","system_id":"levelo_inurba_marseille","lat":43.309015,"lon":5.372014,"is_reserved":false,"is_disabled":false,"rental_uris":{"android":"levelo://app?vid=a0b6f137-2013-472b-a5a0-60c9b0ef68b6","ios":"levelo://app?vid=a0b6f137-2013-472b-a5a0-60c9b0ef68b6"},"vehicle_type_id":"4","last_reported":1713809301,"current_range_meters":26400,"station_id":"ce4bguh2rcd13ifvqckg","pricing_plan_id":"cebpf4jnsgd1na2vs0mg"},{"bike_id":"86fd9595-880c-4693-a25e-e2165167ddc2","system_id":"levelo_inurba_marseille","lat":43.309034,"lon":5.371783,"is_reserved":false,"is_disabled":false,"rental_uris":{"android":"levelo://app?vid=86fd9595-880c-4693-a25e-e2165167ddc2","ios":"levelo://app?vid=86fd9595-880c-4693-a25e-e2165167ddc2"},"vehicle_type_id":"4","last_reported":1713809301,"current_range_meters":16800,"station_id":"ce4bguh2rcd13ifvqckg","pricing_plan_id":"cebpf4jnsgd1na2vs0mg"},{"bike_id":"7ae33aad-de88-40da-9ffc-87a653e14e32","system_id":"levelo_inurba_marseille","lat":43.30889,"lon":5.37192,"is_reserved":false,"is_disabled":false,"rental_uris":{"android":"levelo://app?vid=7ae33aad-de88-40da-9ffc-87a653e14e32","ios":"levelo://app?vid=7ae33aad-de88-40da-9ffc-87a653e14e32"},"vehicle_type_id":"4","last_reported":1713809301,"current_range_meters":8000,"station_id":"ce4bguh2rcd13ifvqckg","pricing_plan_id":"cebpf4jnsgd1na2vs0mg"},{"bike_id":"f3c8e660-adb7-448d-9d5d-55a0433da1f6","system_id":"levelo_inurba_marseille","lat":43.309039,"lon":5.371797,"is_reserved":false,"is_disabled":false,"rental_uris":{"android":"levelo://app?vid=f3c8e660-adb7-448d-9d5d-55a0433da1f6","ios":"levelo://app?vid=f3c8e660-adb7-448d-9d5d-55a0433da1f6"},"vehicle_type_id":"4","last_reported":1713809301,"current_range_meters":23600,"station_id":"ce4bguh2rcd13ifvqckg","pricing_plan_id":"cebpf4jnsgd1na2vs0mg"},{"bike_id":"9bc032a8-cb64-40f6-9fea-383214de2a4c","system_id":"levelo_inurba_marseille","lat":43.309034,"lon":5.371783,"is_reserved":false,"is_disabled":false,"rental_uris":{"android":"levelo://app?vid=9bc032a8-cb64-40f6-9fea-383214de2a4c","ios":"levelo://app?vid=9bc032a8-cb64-40f6-9fea-383214de2a4c"},"vehicle_type_id":"4","last_reported":1713809301,"current_range_meters":400,"station_id":"ce4bguh2rcd13ifvqckg","pricing_plan_id":"cebpf4jnsgd1na2vs0mg"},{"bike_id":"71339a0a-08ec-4af2-bb75-3a1a55362bf3","system_id":"levelo_inurba_marseille","lat":43.30605,"lon":5.372236,"is_reserved":false,"is_disabled":false,"rental_uris":{"android":"levelo://app?vid=71339a0a-08ec-4af2-bb75-3a1a55362bf3","ios":"levelo://app?vid=71339a0a-08ec-4af2-bb75-3a1a55362bf3"},"vehicle_type_id":"4","last_reported":1713809301,"current_range_meters":5600,"station_id":"ce4bgqh2rcd13ifvqc4g","pricing_plan_id":"cebpf4jnsgd1na2vs0mg"},{"bike_id":"fdb9fb2b-6a51-4f65-a923-6fa06967a45f","system_id":"levelo_inurba_marseille","lat":43.305989,"lon":5.37225,"is_reserved":false,"is_disabled":false,"rental_uris":{"android":"levelo://app?vid=fdb9fb2b-6a51-4f65-a923-6fa06967a45f","ios":"levelo://app?vid=fdb9fb2b-6a51-4f65-a923-6fa06967a45f"},"vehicle_type_id":"4","last_reported":1713809301,"current_range_meters":19600,"station_id":"ce4bgqh2rcd13ifvqc4g","pricing_plan_id":"cebpf4jnsgd1na2vs0mg"},{"bike_id":"0fb83330-f1aa-4b50-8a53-ed6e11df466b","system_id":"levelo_inurba_marseille","lat":43.305989,"lon":5.37225,"is_reserved":false,"is_disabled":false,"rental_uris":{"android":"levelo://app?vid=0fb83330-f1aa-4b50-8a53-ed6e11df466b","ios":"levelo://app?vid=0fb83330-f1aa-4b50-8a53-ed6e11df466b"},"vehicle_type_id":"4","last_reported":1713809301,"current_range_meters":16000,"station_id":"ce4bgqh2rcd13ifvqc4g","pricing_plan_id":"cebpf4jnsgd1na2vs0mg"},{"bike_id":"7e96b56b-3613-4f12-a256-540e4ce354e9","system_id":"levelo_inurba_marseille","lat":43.305989,"lon":5.37225,"is_reserved":false,"is_disabled":false,"rental_uris":{"android":"levelo://app?vid=7e96b56b-3613-4f12-a256-540e4ce354e9","ios":"levelo://app?vid=7e96b56b-3613-4f12-a256-540e4ce354e9"},"vehicle_type_id":"4","last_reported":1713809301,"current_range_meters":31600,"station_id":"ce4bgqh2rcd13ifvqc4g","pricing_plan_id":"cebpf4jnsgd1na2vs0mg"},{"bike_id":"9ad04985-19b3-411b-9d37-d39d66559013","system_id":"levelo_inurba_marseille","lat":43.305989,"lon":5.37225,"is_reserved":false,"is_disabled":false,"rental_uris":{"android":"levelo://app?vid=9ad04985-19b3-411b-9d37-d39d66559013","ios":"levelo://app?vid=9ad04985-19b3-411b-9d37-d39d66559013"},"vehicle_type_id":"4","last_reported":1713809301,"current_range_meters":31600,"station_id":"ce4bgqh2rcd13ifvqc4g","pricing_plan_id":"cebpf4jnsgd1na2vs0mg"},{"bike_id":"89d8f7de-a676-4bfd-bdb8-75de7de48b12","system_id":"levelo_inurba_marseille","lat":43.305989,"lon":5.37225,"is_reserved":false,"is_disabled":false,"rental_uris":{"android":"levelo://app?vid=89d8f7de-a676-4bfd-bdb8-75de7de48b12","ios":"levelo://app?vid=89d8f7de-a676-4bfd-bdb8-75de7de48b12"},"vehicle_type_id":"4","last_reported":1713809301,"current_range_meters":8000,"station_id":"ce4bgqh2rcd13ifvqc4g","pricing_plan_id":"cebpf4jnsgd1na2vs0mg"},{"bike_id":"ed5eab22-9b68-4b64-8470-a9a37758d950","system_id":"levelo_inurba_marseille","lat":43.305989,"lon":5.37225,"is_reserved":false,"is_disabled":false,"rental_uris":{"android":"levelo://app?vid=ed5eab22-9b68-4b64-8470-a9a37758d950","ios":"levelo://app?vid=ed5eab22-9b68-4b64-8470-a9a37758d950"},"vehicle_type_id":"4","last_reported":1713809301,"current_range_meters":31600,"station_id":"ce4bgqh2rcd13ifvqc4g","pricing_plan_id":"cebpf4jnsgd1na2vs0mg"},{"bike_id":"272200ae-83b9-4c91-b764-2d1112b325f9","system_id":"levelo_inurba_marseille","lat":43.305989,"lon":5.37225,"is_reserved":false,"is_disabled":false,"rental_uris":{"android":"levelo://app?vid=272200ae-83b9-4c91-b764-2d1112b325f9","ios":"levelo://app?vid=272200ae-83b9-4c91-b764-2d1112b325f9"},"vehicle_type_id":"4","last_reported":1713809301,"current_range_meters":7600,"station_id":"ce4bgqh2rcd13ifvqc4g","pricing_plan_id":"cebpf4jnsgd1na2vs0mg"},{"bike_id":"d4eb8c8b-5f5f-4917-b4b4-3e5b23cd30e6","system_id":"levelo_inurba_marseille","lat":43.31113,"lon":5.377645,"is_reserved":false,"is_disabled":false,"rental_uris":{"android":"levelo://app?vid=d4eb8c8b-5f5f-4917-b4b4-3e5b23cd30e6","ios":"levelo://app?vid=d4eb8c8b-5f5f-4917-b4b4-3e5b23cd30e6"},"vehicle_type_id":"4","last_reported":1713809301,"current_range_meters":8800,"station_id":"ce4bgt92rcd13ifvqcg0","pricing_plan_id":"cebpf4jnsgd1na2vs0mg"},{"bike_id":"704f465e-073b-4f67-ae7e-676bb1da07e1","system_id":"levelo_inurba_marseille","lat":43.311125,"lon":5.377624,"is_reserved":false,"is_disabled":false,"rental_uris":{"android":"levelo://app?vid=704f465e-073b-4f67-ae7e-676bb1da07e1","ios":"levelo://app?vid=704f465e-073b-4f67-ae7e-676bb1da07e1"},"vehicle_type_id":"4","last_reported":1713809301,"current_range_meters":14400,"station_id":"ce4bgt92rcd13ifvqcg0","pricing_plan_id":"cebpf4jnsgd1na2vs0mg"},{"bike_id":"b0f2440a-54b9-4e51-8b01-b282ebb0a402","system_id":"levelo_inurba_marseille","lat":43.311131,"lon":5.377651,"is_reserved":false,"is_disabled":false,"rental_uris":{"android":"levelo://app?vid=b0f2440a-54b9-4e51-8b01-b282ebb0a402","ios":"levelo://app?vid=b0f2440a-54b9-4e51-8b01-b282ebb0a402"},"vehicle_type_id":"4","last_reported":1713809301,"current_range_meters":3200,"station_id":"ce4bgt92rcd13ifvqcg0","pricing_plan_id":"cebpf4jnsgd1na2vs0mg"},{"bike_id":"716de6d5-67fd-432a-9add-7ed1fd46e774","system_id":"levelo_inurba_marseille","lat":43.311234,"lon":5.377817,"is_reserved":false,"is_disabled":false,"rental_uris":{"android":"levelo://app?vid=716de6d5-67fd-432a-9add-7ed1fd46e774","ios":"levelo://app?vid=716de6d5-67fd-432a-9add-7ed1fd46e774"},"vehicle_type_id":"4","last_reported":1713809301,"current_range_meters":14800,"station_id":"ce4bgt92rcd13ifvqcg0","pricing_plan_id":"cebpf4jnsgd1na2vs0mg"},{"bike_id":"8c4a9ef0-f0cc-43cf-a599-9ac6660df75d","system_id":"levelo_inurba_marseille","lat":43.30784,"lon":5.37655,"is_reserved":false,"is_disabled":false,"rental_uris":{"android":"levelo://app?vid=8c4a9ef0-f0cc-43cf-a599-9ac6660df75d","ios":"levelo://app?vid=8c4a9ef0-f0cc-43cf-a599-9ac6660df75d"},"vehicle_type_id":"4","last_reported":1713809301,"current_range_meters":0,"station_id":"ce4bgv92rcd13ifvqcq0","pricing_plan_id":"cebpf4jnsgd1na2vs0mg"},{"bike_id":"2577fb2a-9dc6-4b39-abe2-3b818e9d97a9","system_id":"levelo_inurba_marseille","lat":43.30784,"lon":5.37657,"is_reserved":false,"is_disabled":false,"rental_uris":{"android":"levelo://app?vid=2577fb2a-9dc6-4b39-abe2-3b818e9d97a9","ios":"levelo://app?vid=2577fb2a-9dc6-4b39-abe2-3b818e9d97a9"},"vehicle_type_id":"4","last_reported":1713809301,"current_range_meters":800,"station_id":"ce4bgv92rcd13ifvqcq0","pricing_plan_id":"cebpf4jnsgd1na2vs0mg"},{"bike_id":"3385ee2a-c550-4633-ade2-dfbb928c531a","system_id":"levelo_inurba_marseille","lat":43.317075,"lon":5.377367,"is_reserved":false,"is_disabled":false,"rental_uris":{"android":"levelo://app?vid=3385ee2a-c550-4633-ade2-dfbb928c531a","ios":"levelo://app?vid=3385ee2a-c550-4633-ade2-dfbb928c531a"},"vehicle_type_id":"4","last_reported":1713809301,"current_range_meters":30000,"station_id":"ce4bgth2rcd13ifvqch0","pricing_plan_id":"cebpf4jnsgd1na2vs0mg"},{"bike_id":"1bd93fe7-cbcc-4fc6-bbf5-18322dcb475a","system_id":"levelo_inurba_marseille","lat":43.317075,"lon":5.377367,"is_reserved":false,"is_disabled":false,"rental_uris":{"android":"levelo://app?vid=1bd93fe7-cbcc-4fc6-bbf5-18322dcb475a","ios":"levelo://app?vid=1bd93fe7-cbcc-4fc6-bbf5-18322dcb475a"},"vehicle_type_id":"4","last_reported":1713809301,"current_range_meters":18800,"station_id":"ce4bgth2rcd13ifvqch0","pricing_plan_id":"cebpf4jnsgd1na2vs0mg"},{"bike_id":"924ffc8a-1da0-4137-8ddd-75062e3ec9e2","system_id":"levelo_inurba_marseille","lat":43.31714,"lon":5.37762,"is_reserved":false,"is_disabled":false,"rental_uris":{"android":"levelo://app?vid=924ffc8a-1da0-4137-8ddd-75062e3ec9e2","ios":"levelo://app?vid=924ffc8a-1da0-4137-8ddd-75062e3ec9e2"},"vehicle_type_id":"4","last_reported":1713809301,"current_range_meters":8400,"station_id":"ce4bgth2rcd13ifvqch0","pricing_plan_id":"cebpf4jnsgd1na2vs0mg"},{"bike_id":"0602cf8d-2e5f-4d65-9758-d7bb26141fe5","system_id":"levelo_inurba_marseille","lat":43.292311,"lon":5.360731,"is_reserved":false,"is_disabled":false,"rental_uris":{"android":"levelo://app?vid=0602cf8d-2e5f-4d65-9758-d7bb26141fe5","ios":"levelo://app?vid=0602cf8d-2e5f-4d65-9758-d7bb26141fe5"},"vehicle_type_id":"4","last_reported":1713809301,"current_range_meters":1600,"station_id":"ce4bhbh2rcd13ifvqeqg","pricing_plan_id":"cebpf4jnsgd1na2vs0mg"},{"bike_id":"b15ef6e5-3a5b-45cf-bee8-70335f3d5f34","system_id":"levelo_inurba_marseille","lat":43.30304,"lon":5.368987,"is_reserved":false,"is_disabled":false,"rental_uris":{"android":"levelo://app?vid=b15ef6e5-3a5b-45cf-bee8-70335f3d5f34","ios":"levelo://app?vid=b15ef6e5-3a5b-45cf-bee8-70335f3d5f34"},"vehicle_type_id":"4","last_reported":1713809301,"current_range_meters":31200,"station_id":"ce4bgqh2rcd13ifvqc5g","pricing_plan_id":"cebpf4jnsgd1na2vs0mg"},{"bike_id":"d15fe16b-0e74-4bcd-88d4-7692f6a3089e","system_id":"levelo_inurba_marseille","lat":43.315293,"lon":5.380349,"is_reserved":false,"is_disabled":false,"rental_uris":{"android":"levelo://app?vid=d15fe16b-0e74-4bcd-88d4-7692f6a3089e","ios":"levelo://app?vid=d15fe16b-0e74-4bcd-88d4-7692f6a3089e"},"vehicle_type_id":"4","last_reported":1713809301,"current_range_meters":16000,"station_id":"ce4bhsp2rcd13ifvqi50","pricing_plan_id":"cebpf4jnsgd1na2vs0mg"},{"bike_id":"46379e38-105f-4037-b8d0-12ca52bb6457","system_id":"levelo_inurba_marseille","lat":43.315293,"lon":5.380349,"is_reserved":false,"is_disabled":false,"rental_uris":{"android":"levelo://app?vid=46379e38-105f-4037-b8d0-12ca52bb6457","ios":"levelo://app?vid=46379e38-105f-4037-b8d0-12ca52bb6457"},"vehicle_type_id":"4","last_reported":1713809301,"current_range_meters":24800,"station_id":"ce4bhsp2rcd13ifvqi50","pricing_plan_id":"cebpf4jnsgd1na2vs0mg"},{"bike_id":"3fe57c5f-ad80-4997-b059-460e086c908f","system_id":"levelo_inurba_marseille","lat":43.315288,"lon":5.380338,"is_reserved":false,"is_disabled":false,"rental_uris":{"android":"levelo://app?vid=3fe57c5f-ad80-4997-b059-460e086c908f","ios":"levelo://app?vid=3fe57c5f-ad80-4997-b059-460e086c908f"},"vehicle_type_id":"4","last_reported":1713809301,"current_range_meters":24000,"station_id":"ce4bhsp2rcd13ifvqi50","pricing_plan_id":"cebpf4jnsgd1na2vs0mg"},{"bike_id":"04a52809-4714-4f3c-866f-faa7c2ffb546","system_id":"levelo_inurba_marseille","lat":43.31532,"lon":5.38038,"is_reserved":false,"is_disabled":false,"rental_uris":{"android":"levelo://app?vid=04a52809-4714-4f3c-866f-faa7c2ffb546","ios":"levelo://app?vid=04a52809-4714-4f3c-866f-faa7c2ffb546"},"vehicle_type_id":"4","last_reported":1713809301,"current_range_meters":400,"station_id":"ce4bhsp2rcd13ifvqi50","pricing_plan_id":"cebpf4jnsgd1na2vs0mg"},{"bike_id":"1008f6f6-6791-4c3f-a0ea-2f79512eb84f","system_id":"levelo_inurba_marseille","lat":43.315293,"lon":5.380349,"is_reserved":false,"is_disabled":false,"rental_uris":{"android":"levelo://app?vid=1008f6f6-6791-4c3f-a0ea-2f79512eb84f","ios":"levelo://app?vid=1008f6f6-6791-4c3f-a0ea-2f79512eb84f"},"vehicle_type_id":"4","last_reported":1713809301,"current_range_meters":19200,"station_id":"ce4bhsp2rcd13ifvqi50","pricing_plan_id":"cebpf4jnsgd1na2vs0mg"},{"bike_id":"8212d23c-d46e-4724-90f0-f41f60079a58","system_id":"levelo_inurba_marseille","lat":43.315293,"lon":5.380349,"is_reserved":false,"is_disabled":false,"rental_uris":{"android":"levelo://app?vid=8212d23c-d46e-4724-90f0-f41f60079a58","ios":"levelo://app?vid=8212d23c-d46e-4724-90f0-f41f60079a58"},"vehicle_type_id":"4","last_reported":1713809301,"current_range_meters":16000,"station_id":"ce4bhsp2rcd13ifvqi50","pricing_plan_id":"cebpf4jnsgd1na2vs0mg"},{"bike_id":"a987cfd1-1cf2-485c-803a-db82547bed93","system_id":"levelo_inurba_marseille","lat":43.301939,"lon":5.366286,"is_reserved":false,"is_disabled":false,"rental_uris":{"android":"levelo://app?vid=a987cfd1-1cf2-485c-803a-db82547bed93","ios":"levelo://app?vid=a987cfd1-1cf2-485c-803a-db82547bed93"},"vehicle_type_id":"4","last_reported":1713809301,"current_range_meters":17200,"station_id":"ce4bgrh2rcd13ifvqc8g","pricing_plan_id":"cebpf4jnsgd1na2vs0mg"},{"bike_id":"cd550386-513c-45e1-aa91-16003d6b3786","system_id":"levelo_inurba_marseille","lat":43.301939,"lon":5.366286,"is_reserved":false,"is_disabled":false,"rental_uris":{"android":"levelo://app?vid=cd550386-513c-45e1-aa91-16003d6b3786","ios":"levelo://app?vid=cd550386-513c-45e1-aa91-16003d6b3786"},"vehicle_type_id":"4","last_reported":1713809301,"current_range_meters":27200,"station_id":"ce4bgrh2rcd13ifvqc8g","pricing_plan_id":"cebpf4jnsgd1na2vs0mg"},{"bike_id":"c3fd9a80-74bf-4cbf-8a8c-6984373eec7a","system_id":"levelo_inurba_marseille","lat":43.30122,"lon":5.36749,"is_reserved":false,"is_disabled":false,"rental_uris":{"android":"levelo://app?vid=c3fd9a80-74bf-4cbf-8a8c-6984373eec7a","ios":"levelo://app?vid=c3fd9a80-74bf-4cbf-8a8c-6984373eec7a"},"vehicle_type_id":"4","last_reported":1713809301,"current_range_meters":0,"station_id":"","pricing_plan_id":"cebpf4jnsgd1na2vs0mg"},{"bike_id":"c728e072-790a-447b-b0e6-79e0a4490a03","system_id":"levelo_inurba_marseille","lat":43.308012,"lon":5.381511,"is_reserved":false,"is_disabled":false,"rental_uris":{"android":"levelo://app?vid=c728e072-790a-447b-b0e6-79e0a4490a03","ios":"levelo://app?vid=c728e072-790a-447b-b0e6-79e0a4490a03"},"vehicle_type_id":"4","last_reported":1713809301,"current_range_meters":5200,"station_id":"ce4bgt12rcd13ifvqce0","pricing_plan_id":"cebpf4jnsgd1na2vs0mg"},{"bike_id":"3cba9bfa-fb98-45a3-a8b7-b1833df9bd71","system_id":"levelo_inurba_marseille","lat":43.308012,"lon":5.381511,"is_reserved":false,"is_disabled":false,"rental_uris":{"android":"levelo://app?vid=3cba9bfa-fb98-45a3-a8b7-b1833df9bd71","ios":"levelo://app?vid=3cba9bfa-fb98-45a3-a8b7-b1833df9bd71"},"vehicle_type_id":"4","last_reported":1713809301,"current_range_meters":6000,"station_id":"ce4bgt12rcd13ifvqce0","pricing_plan_id":"cebpf4jnsgd1na2vs0mg"},{"bike_id":"aac08730-8795-403d-b86b-cae09cdb3ccb","system_id":"levelo_inurba_marseille","lat":43.308012,"lon":5.381511,"is_reserved":false,"is_disabled":false,"rental_uris":{"android":"levelo://app?vid=aac08730-8795-403d-b86b-cae09cdb3ccb","ios":"levelo://app?vid=aac08730-8795-403d-b86b-cae09cdb3ccb"},"vehicle_type_id":"4","last_reported":1713809301,"current_range_meters":2800,"station_id":"ce4bgt12rcd13ifvqce0","pricing_plan_id":"cebpf4jnsgd1na2vs0mg"},{"bike_id":"0a5b1d51-77ef-453d-bbd4-a56aa23a170a","system_id":"levelo_inurba_marseille","lat":43.308012,"lon":5.381511,"is_reserved":false,"is_disabled":false,"rental_uris":{"android":"levelo://app?vid=0a5b1d51-77ef-453d-bbd4-a56aa23a170a","ios":"levelo://app?vid=0a5b1d51-77ef-453d-bbd4-a56aa23a170a"},"vehicle_type_id":"4","last_reported":1713809301,"current_range_meters":400,"station_id":"ce4bgt12rcd13ifvqce0","pricing_plan_id":"cebpf4jnsgd1na2vs0mg"},{"bike_id":"fb17fe07-4671-4181-98cc-68f79c78c9d9","system_id":"levelo_inurba_marseille","lat":43.304606,"lon":5.379026,"is_reserved":false,"is_disabled":false,"rental_uris":{"android":"levelo://app?vid=fb17fe07-4671-4181-98cc-68f79c78c9d9","ios":"levelo://app?vid=fb17fe07-4671-4181-98cc-68f79c78c9d9"},"vehicle_type_id":"4","last_reported":1713809301,"current_range_meters":15600,"station_id":"ce4bgup2rcd13ifvqcn0","pricing_plan_id":"cebpf4jnsgd1na2vs0mg"},{"bike_id":"618fd26b-eb29-44ed-973f-0cada5770978","system_id":"levelo_inurba_marseille","lat":43.304606,"lon":5.379026,"is_reserved":false,"is_disabled":false,"rental_uris":{"android":"levelo://app?vid=618fd26b-eb29-44ed-973f-0cada5770978","ios":"levelo://app?vid=618fd26b-eb29-44ed-973f-0cada5770978"},"vehicle_type_id":"4","last_reported":1713809301,"current_range_meters":16000,"station_id":"ce4bgup2rcd13ifvqcn0","pricing_plan_id":"cebpf4jnsgd1na2vs0mg"},{"bike_id":"0618f22a-6b5f-4173-b150-9f1b4983123f","system_id":"levelo_inurba_marseille","lat":43.304606,"lon":5.379026,"is_reserved":false,"is_disabled":false,"rental_uris":{"android":"levelo://app?vid=0618f22a-6b5f-4173-b150-9f1b4983123f","ios":"levelo://app?vid=0618f22a-6b5f-4173-b150-9f1b4983123f"},"vehicle_type_id":"4","last_reported":1713809301,"current_range_meters":4000,"station_id":"ce4bgup2rcd13ifvqcn0","pricing_plan_id":"cebpf4jnsgd1na2vs0mg"},{"bike_id":"4c65be9d-ca87-4d99-afee-a2d1dd391cad","system_id":"levelo_inurba_marseille","lat":43.304606,"lon":5.379026,"is_reserved":false,"is_disabled":false,"rental_uris":{"android":"levelo://app?vid=4c65be9d-ca87-4d99-afee-a2d1dd391cad","ios":"levelo://app?vid=4c65be9d-ca87-4d99-afee-a2d1dd391cad"},"vehicle_type_id":"4","last_reported":1713809301,"current_range_meters":9600,"station_id":"ce4bgup2rcd13ifvqcn0","pricing_plan_id":"cebpf4jnsgd1na2vs0mg"},{"bike_id":"4de203a6-e210-4aa0-bcb0-972d5a213134","system_id":"levelo_inurba_marseille","lat":43.324771,"lon":5.36557,"is_reserved":false,"is_disabled":false,"rental_uris":{"android":"levelo://app?vid=4de203a6-e210-4aa0-bcb0-972d5a213134","ios":"levelo://app?vid=4de203a6-e210-4aa0-bcb0-972d5a213134"},"vehicle_type_id":"4","last_reported":1713809301,"current_range_meters":4000,"station_id":"ce4bhs12rcd13ifvqhvg","pricing_plan_id":"cebpf4jnsgd1na2vs0mg"},{"bike_id":"0b33afc3-8406-4840-8582-4dbe3b27faea","system_id":"levelo_inurba_marseille","lat":43.310804,"lon":5.38359,"is_reserved":false,"is_disabled":false,"rental_uris":{"android":"levelo://app?vid=0b33afc3-8406-4840-8582-4dbe3b27faea","ios":"levelo://app?vid=0b33afc3-8406-4840-8582-4dbe3b27faea"},"vehicle_type_id":"4","last_reported":1713809301,"current_range_meters":11600,"station_id":"ce4bgv92rcd13ifvqcr0","pricing_plan_id":"cebpf4jnsgd1na2vs0mg"},{"bike_id":"4a9b6fd5-48b8-431d-ac8a-011f517afc0c","system_id":"levelo_inurba_marseille","lat":43.31064,"lon":5.3835,"is_reserved":false,"is_disabled":false,"rental_uris":{"android":"levelo://app?vid=4a9b6fd5-48b8-431d-ac8a-011f517afc0c","ios":"levelo://app?vid=4a9b6fd5-48b8-431d-ac8a-011f517afc0c"},"vehicle_type_id":"4","last_reported":1713809301,"current_range_meters":14800,"station_id":"ce4bgv92rcd13ifvqcr0","pricing_plan_id":"cebpf4jnsgd1na2vs0mg"},{"bike_id":"381cf7dd-0d9f-4327-93e1-b594e5c999fe","system_id":"levelo_inurba_marseille","lat":43.310804,"lon":5.38359,"is_reserved":false,"is_disabled":false,"rental_uris":{"android":"levelo://app?vid=381cf7dd-0d9f-4327-93e1-b594e5c999fe","ios":"levelo://app?vid=381cf7dd-0d9f-4327-93e1-b594e5c999fe"},"vehicle_type_id":"4","last_reported":1713809301,"current_range_meters":17200,"station_id":"ce4bgv92rcd13ifvqcr0","pricing_plan_id":"cebpf4jnsgd1na2vs0mg"},{"bike_id":"3bceb3c9-600d-45b5-b0c1-096b1133abb8","system_id":"levelo_inurba_marseille","lat":43.31074,"lon":5.38366,"is_reserved":false,"is_disabled":false,"rental_uris":{"android":"levelo://app?vid=3bceb3c9-600d-45b5-b0c1-096b1133abb8","ios":"levelo://app?vid=3bceb3c9-600d-45b5-b0c1-096b1133abb8"},"vehicle_type_id":"4","last_reported":1713809301,"current_range_meters":17200,"station_id":"ce4bgv92rcd13ifvqcr0","pricing_plan_id":"cebpf4jnsgd1na2vs0mg"},{"bike_id":"e708ef37-37e6-4cd4-9c58-58c213efed3a","system_id":"levelo_inurba_marseille","lat":43.305395,"lon":5.380968,"is_reserved":false,"is_disabled":false,"rental_uris":{"android":"levelo://app?vid=e708ef37-37e6-4cd4-9c58-58c213efed3a","ios":"levelo://app?vid=e708ef37-37e6-4cd4-9c58-58c213efed3a"},"vehicle_type_id":"4","last_reported":1713809301,"current_range_meters":8800,"station_id":"","pricing_plan_id":"cebpf4jnsgd1na2vs0mg"},{"bike_id":"336adc0c-ae6a-4504-91ae-38cdceca4341","system_id":"levelo_inurba_marseille","lat":43.302784,"lon":5.377158,"is_reserved":false,"is_disabled":false,"rental_uris":{"android":"levelo://app?vid=336adc0c-ae6a-4504-91ae-38cdceca4341","ios":"levelo://app?vid=336adc0c-ae6a-4504-91ae-38cdceca4341"},"vehicle_type_id":"4","last_reported":1713809301,"current_range_meters":22000,"station_id":"ce4bguh2rcd13ifvqcj0","pricing_plan_id":"cebpf4jnsgd1na2vs0mg"},{"bike_id":"71adbe34-2f9a-470e-9db9-22e3f5446b00","system_id":"levelo_inurba_marseille","lat":43.319935,"lon":5.381699,"is_reserved":false,"is_disabled":false,"rental_uris":{"android":"levelo://app?vid=71adbe34-2f9a-470e-9db9-22e3f5446b00","ios":"levelo://app?vid=71adbe34-2f9a-470e-9db9-22e3f5446b00"},"vehicle_type_id":"4","last_reported":1713809301,"current_range_meters":18800,"station_id":"ce4bhr12rcd13ifvqhpg","pricing_plan_id":"cebpf4jnsgd1na2vs0mg"},{"bike_id":"b6448e4e-bc8c-4096-befe-00e7d7b27d86","system_id":"levelo_inurba_marseille","lat":43.319935,"lon":5.381699,"is_reserved":false,"is_disabled":false,"rental_uris":{"android":"levelo://app?vid=b6448e4e-bc8c-4096-befe-00e7d7b27d86","ios":"levelo://app?vid=b6448e4e-bc8c-4096-befe-00e7d7b27d86"},"vehicle_type_id":"4","last_reported":1713809301,"current_range_meters":12000,"station_id":"ce4bhr12rcd13ifvqhpg","pricing_plan_id":"cebpf4jnsgd1na2vs0mg"},{"bike_id":"7e34a868-f7f5-4cc8-ad38-12f475d2e78e","system_id":"levelo_inurba_marseille","lat":43.319935,"lon":5.381699,"is_reserved":false,"is_disabled":false,"rental_uris":{"android":"levelo://app?vid=7e34a868-f7f5-4cc8-ad38-12f475d2e78e","ios":"levelo://app?vid=7e34a868-f7f5-4cc8-ad38-12f475d2e78e"},"vehicle_type_id":"4","last_reported":1713809301,"current_range_meters":25600,"station_id":"ce4bhr12rcd13ifvqhpg","pricing_plan_id":"cebpf4jnsgd1na2vs0mg"},{"bike_id":"f93eef6b-628d-49e2-addc-56cb17903cdc","system_id":"levelo_inurba_marseille","lat":43.319935,"lon":5.381699,"is_reserved":false,"is_disabled":false,"rental_uris":{"android":"levelo://app?vid=f93eef6b-628d-49e2-addc-56cb17903cdc","ios":"levelo://app?vid=f93eef6b-628d-49e2-addc-56cb17903cdc"},"vehicle_type_id":"4","last_reported":1713809301,"current_range_meters":9600,"station_id":"ce4bhr12rcd13ifvqhpg","pricing_plan_id":"cebpf4jnsgd1na2vs0mg"},{"bike_id":"433458f1-4592-4f2a-9af5-551c5a82a6c5","system_id":"levelo_inurba_marseille","lat":43.31999,"lon":5.38151,"is_reserved":false,"is_disabled":false,"rental_uris":{"android":"levelo://app?vid=433458f1-4592-4f2a-9af5-551c5a82a6c5","ios":"levelo://app?vid=433458f1-4592-4f2a-9af5-551c5a82a6c5"},"vehicle_type_id":"4","last_reported":1713809301,"current_range_meters":25600,"station_id":"ce4bhr12rcd13ifvqhpg","pricing_plan_id":"cebpf4jnsgd1na2vs0mg"},{"bike_id":"36e6c597-4c9b-44fd-b549-5a94fcfa18a9","system_id":"levelo_inurba_marseille","lat":43.319935,"lon":5.381699,"is_reserved":false,"is_disabled":false,"rental_uris":{"android":"levelo://app?vid=36e6c597-4c9b-44fd-b549-5a94fcfa18a9","ios":"levelo://app?vid=36e6c597-4c9b-44fd-b549-5a94fcfa18a9"},"vehicle_type_id":"4","last_reported":1713809301,"current_range_meters":18800,"station_id":"ce4bhr12rcd13ifvqhpg","pricing_plan_id":"cebpf4jnsgd1na2vs0mg"},{"bike_id":"fec8dffa-10ef-4635-82bc-fa57de892e01","system_id":"levelo_inurba_marseille","lat":43.319935,"lon":5.381699,"is_reserved":false,"is_disabled":false,"rental_uris":{"android":"levelo://app?vid=fec8dffa-10ef-4635-82bc-fa57de892e01","ios":"levelo://app?vid=fec8dffa-10ef-4635-82bc-fa57de892e01"},"vehicle_type_id":"4","last_reported":1713809301,"current_range_meters":2000,"station_id":"ce4bhr12rcd13ifvqhpg","pricing_plan_id":"cebpf4jnsgd1na2vs0mg"},{"bike_id":"826e204e-6646-41de-b48b-19cff192b771","system_id":"levelo_inurba_marseille","lat":43.319935,"lon":5.381699,"is_reserved":false,"is_disabled":false,"rental_uris":{"android":"levelo://app?vid=826e204e-6646-41de-b48b-19cff192b771","ios":"levelo://app?vid=826e204e-6646-41de-b48b-19cff192b771"},"vehicle_type_id":"4","last_reported":1713809301,"current_range_meters":13600,"station_id":"ce4bhr12rcd13ifvqhpg","pricing_plan_id":"cebpf4jnsgd1na2vs0mg"},{"bike_id":"60497e5c-882c-4ac3-8384-449f8e5db08e","system_id":"levelo_inurba_marseille","lat":43.319935,"lon":5.381699,"is_reserved":false,"is_disabled":false,"rental_uris":{"android":"levelo://app?vid=60497e5c-882c-4ac3-8384-449f8e5db08e","ios":"levelo://app?vid=60497e5c-882c-4ac3-8384-449f8e5db08e"},"vehicle_type_id":"4","last_reported":1713809301,"current_range_meters":5200,"station_id":"ce4bhr12rcd13ifvqhpg","pricing_plan_id":"cebpf4jnsgd1na2vs0mg"},{"bike_id":"f10338aa-0c76-4229-b839-a63da65d4dc1","system_id":"levelo_inurba_marseille","lat":43.313571,"lon":5.384829,"is_reserved":false,"is_disabled":false,"rental_uris":{"android":"levelo://app?vid=f10338aa-0c76-4229-b839-a63da65d4dc1","ios":"levelo://app?vid=f10338aa-0c76-4229-b839-a63da65d4dc1"},"vehicle_type_id":"4","last_reported":1713809301,"current_range_meters":26400,"station_id":"ce4bgt92rcd13ifvqcf0","pricing_plan_id":"cebpf4jnsgd1na2vs0mg"},{"bike_id":"12277e82-5e9f-4c30-accc-27f0eff242a1","system_id":"levelo_inurba_marseille","lat":43.313571,"lon":5.384829,"is_reserved":false,"is_disabled":false,"rental_uris":{"android":"levelo://app?vid=12277e82-5e9f-4c30-accc-27f0eff242a1","ios":"levelo://app?vid=12277e82-5e9f-4c30-accc-27f0eff242a1"},"vehicle_type_id":"4","last_reported":1713809301,"current_range_meters":19200,"station_id":"ce4bgt92rcd13ifvqcf0","pricing_plan_id":"cebpf4jnsgd1na2vs0mg"},{"bike_id":"a7f38b8c-a44a-43c7-9d4b-541b45bc975b","system_id":"levelo_inurba_marseille","lat":43.299724,"lon":5.371829,"is_reserved":false,"is_disabled":false,"rental_uris":{"android":"levelo://app?vid=a7f38b8c-a44a-43c7-9d4b-541b45bc975b","ios":"levelo://app?vid=a7f38b8c-a44a-43c7-9d4b-541b45bc975b"},"vehicle_type_id":"4","last_reported":1713809301,"current_range_meters":12400,"station_id":"ce4bgr92rcd13ifvqc7g","pricing_plan_id":"cebpf4jnsgd1na2vs0mg"},{"bike_id":"bcec0577-48fb-44e8-82f7-cce39e48e4f8","system_id":"levelo_inurba_marseille","lat":43.298433,"lon":5.362774,"is_reserved":false,"is_disabled":false,"rental_uris":{"android":"levelo://app?vid=bcec0577-48fb-44e8-82f7-cce39e48e4f8","ios":"levelo://app?vid=bcec0577-48fb-44e8-82f7-cce39e48e4f8"},"vehicle_type_id":"4","last_reported":1713809301,"current_range_meters":1200,"station_id":"ce4bgpp2rcd13ifvqc3g","pricing_plan_id":"cebpf4jnsgd1na2vs0mg"},{"bike_id":"282a0637-f50e-40cb-9b67-bb3b8a56d2a3","system_id":"levelo_inurba_marseille","lat":43.298433,"lon":5.362774,"is_reserved":false,"is_disabled":false,"rental_uris":{"android":"levelo://app?vid=282a0637-f50e-40cb-9b67-bb3b8a56d2a3","ios":"levelo://app?vid=282a0637-f50e-40cb-9b67-bb3b8a56d2a3"},"vehicle_type_id":"4","last_reported":1713809301,"current_range_meters":4000,"station_id":"ce4bgpp2rcd13ifvqc3g","pricing_plan_id":"cebpf4jnsgd1na2vs0mg"},{"bike_id":"9b31c5cc-0e04-41b6-acaf-075e374232fa","system_id":"levelo_inurba_marseille","lat":43.29853,"lon":5.36289,"is_reserved":false,"is_disabled":false,"rental_uris":{"android":"levelo://app?vid=9b31c5cc-0e04-41b6-acaf-075e374232fa","ios":"levelo://app?vid=9b31c5cc-0e04-41b6-acaf-075e374232fa"},"vehicle_type_id":"4","last_reported":1713809301,"current_range_meters":0,"station_id":"ce4bgpp2rcd13ifvqc3g","pricing_plan_id":"cebpf4jnsgd1na2vs0mg"},{"bike_id":"f3bff510-286f-4777-83d0-3760510132eb","system_id":"levelo_inurba_marseille","lat":43.305364,"lon":5.384119,"is_reserved":false,"is_disabled":false,"rental_uris":{"android":"levelo://app?vid=f3bff510-286f-4777-83d0-3760510132eb","ios":"levelo://app?vid=f3bff510-286f-4777-83d0-3760510132eb"},"vehicle_type_id":"4","last_reported":1713809301,"current_range_meters":17200,"station_id":"ce4bgg92rcd13ifvqb30","pricing_plan_id":"cebpf4jnsgd1na2vs0mg"},{"bike_id":"bea8eece-a67d-4e27-8c47-5b0be0a8092a","system_id":"levelo_inurba_marseille","lat":43.29848,"lon":5.36279,"is_reserved":false,"is_disabled":false,"rental_uris":{"android":"levelo://app?vid=bea8eece-a67d-4e27-8c47-5b0be0a8092a","ios":"levelo://app?vid=bea8eece-a67d-4e27-8c47-5b0be0a8092a"},"vehicle_type_id":"4","last_reported":1713809301,"current_range_meters":11200,"station_id":"ce4bgpp2rcd13ifvqc3g","pricing_plan_id":"cebpf4jnsgd1na2vs0mg"},{"bike_id":"8f207081-bb03-4e9a-94a0-d3f87cbbf047","system_id":"levelo_inurba_marseille","lat":43.298433,"lon":5.362774,"is_reserved":false,"is_disabled":false,"rental_uris":{"android":"levelo://app?vid=8f207081-bb03-4e9a-94a0-d3f87cbbf047","ios":"levelo://app?vid=8f207081-bb03-4e9a-94a0-d3f87cbbf047"},"vehicle_type_id":"4","last_reported":1713809301,"current_range_meters":2800,"station_id":"ce4bgpp2rcd13ifvqc3g","pricing_plan_id":"cebpf4jnsgd1na2vs0mg"},{"bike_id":"e977346d-7c65-4ed7-86e3-415991602f0e","system_id":"levelo_inurba_marseille","lat":43.299243,"lon":5.37481,"is_reserved":false,"is_disabled":false,"rental_uris":{"android":"levelo://app?vid=e977346d-7c65-4ed7-86e3-415991602f0e","ios":"levelo://app?vid=e977346d-7c65-4ed7-86e3-415991602f0e"},"vehicle_type_id":"4","last_reported":1713809301,"current_range_meters":29600,"station_id":"ce4bgjh2rcd13ifvqbg0","pricing_plan_id":"cebpf4jnsgd1na2vs0mg"},{"bike_id":"12acb53d-75de-4f87-b9bd-0eb36938ec15","system_id":"levelo_inurba_marseille","lat":43.305364,"lon":5.384119,"is_reserved":false,"is_disabled":false,"rental_uris":{"android":"levelo://app?vid=12acb53d-75de-4f87-b9bd-0eb36938ec15","ios":"levelo://app?vid=12acb53d-75de-4f87-b9bd-0eb36938ec15"},"vehicle_type_id":"4","last_reported":1713809301,"current_range_meters":4800,"station_id":"ce4bgg92rcd13ifvqb30","pricing_plan_id":"cebpf4jnsgd1na2vs0mg"},{"bike_id":"d909c883-9c04-4c3e-84b9-70bb12e28056","system_id":"levelo_inurba_marseille","lat":43.29845,"lon":5.362773,"is_reserved":false,"is_disabled":false,"rental_uris":{"android":"levelo://app?vid=d909c883-9c04-4c3e-84b9-70bb12e28056","ios":"levelo://app?vid=d909c883-9c04-4c3e-84b9-70bb12e28056"},"vehicle_type_id":"4","last_reported":1713809301,"current_range_meters":2000,"station_id":"ce4bgpp2rcd13ifvqc3g","pricing_plan_id":"cebpf4jnsgd1na2vs0mg"},{"bike_id":"72937c14-6770-4dc5-9d4b-566b2bd2c392","system_id":"levelo_inurba_marseille","lat":43.305364,"lon":5.384119,"is_reserved":false,"is_disabled":false,"rental_uris":{"android":"levelo://app?vid=72937c14-6770-4dc5-9d4b-566b2bd2c392","ios":"levelo://app?vid=72937c14-6770-4dc5-9d4b-566b2bd2c392"},"vehicle_type_id":"4","last_reported":1713809301,"current_range_meters":23600,"station_id":"ce4bgg92rcd13ifvqb30","pricing_plan_id":"cebpf4jnsgd1na2vs0mg"},{"bike_id":"d7370b40-1d7c-4d4e-beb2-bcec5966a76f","system_id":"levelo_inurba_marseille","lat":43.295713,"lon":5.399639,"is_reserved":false,"is_disabled":false,"rental_uris":{"android":"levelo://app?vid=d7370b40-1d7c-4d4e-beb2-bcec5966a76f","ios":"levelo://app?vid=d7370b40-1d7c-4d4e-beb2-bcec5966a76f"},"vehicle_type_id":"4","last_reported":1713809301,"current_range_meters":0,"station_id":"ce4bh312rcd13ifvqdj0","pricing_plan_id":"cebpf4jnsgd1na2vs0mg"},{"bike_id":"12d9c763-1e60-4ba5-99e3-cbaf5943b91b","system_id":"levelo_inurba_marseille","lat":43.297794,"lon":5.370888,"is_reserved":false,"is_disabled":false,"rental_uris":{"android":"levelo://app?vid=12d9c763-1e60-4ba5-99e3-cbaf5943b91b","ios":"levelo://app?vid=12d9c763-1e60-4ba5-99e3-cbaf5943b91b"},"vehicle_type_id":"4","last_reported":1713809301,"current_range_meters":26400,"station_id":"ce4bgop2rcd13ifvqc1g","pricing_plan_id":"cebpf4jnsgd1na2vs0mg"},{"bike_id":"0596a7bd-2488-4686-9e1b-913831b0e489","system_id":"levelo_inurba_marseille","lat":43.322872,"lon":5.382756,"is_reserved":false,"is_disabled":false,"rental_uris":{"android":"levelo://app?vid=0596a7bd-2488-4686-9e1b-913831b0e489","ios":"levelo://app?vid=0596a7bd-2488-4686-9e1b-913831b0e489"},"vehicle_type_id":"4","last_reported":1713809301,"current_range_meters":4000,"station_id":"ce4bhr12rcd13ifvqhqg","pricing_plan_id":"cebpf4jnsgd1na2vs0mg"},{"bike_id":"a4cc2678-1ae4-4d41-a3d2-cbb8a9fd73ac","system_id":"levelo_inurba_marseille","lat":43.322872,"lon":5.382756,"is_reserved":false,"is_disabled":false,"rental_uris":{"android":"levelo://app?vid=a4cc2678-1ae4-4d41-a3d2-cbb8a9fd73ac","ios":"levelo://app?vid=a4cc2678-1ae4-4d41-a3d2-cbb8a9fd73ac"},"vehicle_type_id":"4","last_reported":1713809301,"current_range_meters":31600,"station_id":"ce4bhr12rcd13ifvqhqg","pricing_plan_id":"cebpf4jnsgd1na2vs0mg"},{"bike_id":"b87c4180-08df-49c8-872f-4a266b5c0162","system_id":"levelo_inurba_marseille","lat":43.322872,"lon":5.382756,"is_reserved":false,"is_disabled":false,"rental_uris":{"android":"levelo://app?vid=b87c4180-08df-49c8-872f-4a266b5c0162","ios":"levelo://app?vid=b87c4180-08df-49c8-872f-4a266b5c0162"},"vehicle_type_id":"4","last_reported":1713809301,"current_range_meters":18800,"station_id":"ce4bhr12rcd13ifvqhqg","pricing_plan_id":"cebpf4jnsgd1na2vs0mg"},{"bike_id":"92c24665-badb-4ed7-9129-70f50714ed40","system_id":"levelo_inurba_marseille","lat":43.322872,"lon":5.382756,"is_reserved":false,"is_disabled":false,"rental_uris":{"android":"levelo://app?vid=92c24665-badb-4ed7-9129-70f50714ed40","ios":"levelo://app?vid=92c24665-badb-4ed7-9129-70f50714ed40"},"vehicle_type_id":"4","last_reported":1713809301,"current_range_meters":13600,"station_id":"ce4bhr12rcd13ifvqhqg","pricing_plan_id":"cebpf4jnsgd1na2vs0mg"},{"bike_id":"df9d1796-d26a-49fb-ae6b-eec6b58b83aa","system_id":"levelo_inurba_marseille","lat":43.297794,"lon":5.370888,"is_reserved":false,"is_disabled":false,"rental_uris":{"android":"levelo://app?vid=df9d1796-d26a-49fb-ae6b-eec6b58b83aa","ios":"levelo://app?vid=df9d1796-d26a-49fb-ae6b-eec6b58b83aa"},"vehicle_type_id":"4","last_reported":1713809301,"current_range_meters":29200,"station_id":"ce4bgop2rcd13ifvqc1g","pricing_plan_id":"cebpf4jnsgd1na2vs0mg"},{"bike_id":"c46d9a8d-ee81-498e-bbb5-006f1b556bbe","system_id":"levelo_inurba_marseille","lat":43.322872,"lon":5.382756,"is_reserved":false,"is_disabled":false,"rental_uris":{"android":"levelo://app?vid=c46d9a8d-ee81-498e-bbb5-006f1b556bbe","ios":"levelo://app?vid=c46d9a8d-ee81-498e-bbb5-006f1b556bbe"},"vehicle_type_id":"4","last_reported":1713809301,"current_range_meters":13200,"station_id":"ce4bhr12rcd13ifvqhqg","pricing_plan_id":"cebpf4jnsgd1na2vs0mg"},{"bike_id":"0b32fa2b-6e99-4115-bc6d-55694d0bf299","system_id":"levelo_inurba_marseille","lat":43.322872,"lon":5.382756,"is_reserved":false,"is_disabled":false,"rental_uris":{"android":"levelo://app?vid=0b32fa2b-6e99-4115-bc6d-55694d0bf299","ios":"levelo://app?vid=0b32fa2b-6e99-4115-bc6d-55694d0bf299"},"vehicle_type_id":"4","last_reported":1713809301,"current_range_meters":31600,"station_id":"ce4bhr12rcd13ifvqhqg","pricing_plan_id":"cebpf4jnsgd1na2vs0mg"},{"bike_id":"454f2963-a870-401a-a816-3704b04ea77e","system_id":"levelo_inurba_marseille","lat":43.322872,"lon":5.382756,"is_reserved":false,"is_disabled":false,"rental_uris":{"android":"levelo://app?vid=454f2963-a870-401a-a816-3704b04ea77e","ios":"levelo://app?vid=454f2963-a870-401a-a816-3704b04ea77e"},"vehicle_type_id":"4","last_reported":1713809301,"current_range_meters":6000,"station_id":"ce4bhr12rcd13ifvqhqg","pricing_plan_id":"cebpf4jnsgd1na2vs0mg"},{"bike_id":"4aa6bbb6-acfe-4a72-b7aa-c41f660e7dba","system_id":"levelo_inurba_marseille","lat":43.322872,"lon":5.382756,"is_reserved":false,"is_disabled":false,"rental_uris":{"android":"levelo://app?vid=4aa6bbb6-acfe-4a72-b7aa-c41f660e7dba","ios":"levelo://app?vid=4aa6bbb6-acfe-4a72-b7aa-c41f660e7dba"},"vehicle_type_id":"4","last_reported":1713809301,"current_range_meters":27600,"station_id":"ce4bhr12rcd13ifvqhqg","pricing_plan_id":"cebpf4jnsgd1na2vs0mg"},{"bike_id":"ef61a51c-36c6-4c2f-9a98-9ec3cb0d9ad4","system_id":"levelo_inurba_marseille","lat":43.322872,"lon":5.382756,"is_reserved":false,"is_disabled":false,"rental_uris":{"android":"levelo://app?vid=ef61a51c-36c6-4c2f-9a98-9ec3cb0d9ad4","ios":"levelo://app?vid=ef61a51c-36c6-4c2f-9a98-9ec3cb0d9ad4"},"vehicle_type_id":"4","last_reported":1713809301,"current_range_meters":20800,"station_id":"ce4bhr12rcd13ifvqhqg","pricing_plan_id":"cebpf4jnsgd1na2vs0mg"},{"bike_id":"77423322-5b97-4d45-a055-63655884e5c2","system_id":"levelo_inurba_marseille","lat":43.297163,"lon":5.365866,"is_reserved":false,"is_disabled":false,"rental_uris":{"android":"levelo://app?vid=77423322-5b97-4d45-a055-63655884e5c2","ios":"levelo://app?vid=77423322-5b97-4d45-a055-63655884e5c2"},"vehicle_type_id":"4","last_reported":1713809301,"current_range_meters":24800,"station_id":"ce4bgn12rcd13ifvqbt0","pricing_plan_id":"cebpf4jnsgd1na2vs0mg"},{"bike_id":"6a42c106-fd22-4527-b3fb-387f2a4e3b9e","system_id":"levelo_inurba_marseille","lat":43.29529,"lon":5.385581,"is_reserved":false,"is_disabled":false,"rental_uris":{"android":"levelo://app?vid=6a42c106-fd22-4527-b3fb-387f2a4e3b9e","ios":"levelo://app?vid=6a42c106-fd22-4527-b3fb-387f2a4e3b9e"},"vehicle_type_id":"4","last_reported":1713809301,"current_range_meters":10800,"station_id":"ce4bgih2rcd13ifvqba0","pricing_plan_id":"cebpf4jnsgd1na2vs0mg"},{"bike_id":"9906b685-ad7b-4943-a072-1d1d7218458f","system_id":"levelo_inurba_marseille","lat":43.297163,"lon":5.365866,"is_reserved":false,"is_disabled":false,"rental_uris":{"android":"levelo://app?vid=9906b685-ad7b-4943-a072-1d1d7218458f","ios":"levelo://app?vid=9906b685-ad7b-4943-a072-1d1d7218458f"},"vehicle_type_id":"4","last_reported":1713809301,"current_range_meters":1200,"station_id":"ce4bgn12rcd13ifvqbt0","pricing_plan_id":"cebpf4jnsgd1na2vs0mg"},{"bike_id":"7bdb248d-764c-415d-a6c7-c411571b1cad","system_id":"levelo_inurba_marseille","lat":43.29706,"lon":5.36607,"is_reserved":false,"is_disabled":false,"rental_uris":{"android":"levelo://app?vid=7bdb248d-764c-415d-a6c7-c411571b1cad","ios":"levelo://app?vid=7bdb248d-764c-415d-a6c7-c411571b1cad"},"vehicle_type_id":"4","last_reported":1713809301,"current_range_meters":0,"station_id":"ce4bgn12rcd13ifvqbt0","pricing_plan_id":"cebpf4jnsgd1na2vs0mg"},{"bike_id":"56d91149-6e86-4d7c-a134-c4517c20ecff","system_id":"levelo_inurba_marseille","lat":43.297163,"lon":5.365866,"is_reserved":false,"is_disabled":false,"rental_uris":{"android":"levelo://app?vid=56d91149-6e86-4d7c-a134-c4517c20ecff","ios":"levelo://app?vid=56d91149-6e86-4d7c-a134-c4517c20ecff"},"vehicle_type_id":"4","last_reported":1713809301,"current_range_meters":9600,"station_id":"ce4bgn12rcd13ifvqbt0","pricing_plan_id":"cebpf4jnsgd1na2vs0mg"},{"bike_id":"fbfaecb0-cd2c-46d5-97dc-eb041d8f2d0f","system_id":"levelo_inurba_marseille","lat":43.296131,"lon":5.370791,"is_reserved":false,"is_disabled":false,"rental_uris":{"android":"levelo://app?vid=fbfaecb0-cd2c-46d5-97dc-eb041d8f2d0f","ios":"levelo://app?vid=fbfaecb0-cd2c-46d5-97dc-eb041d8f2d0f"},"vehicle_type_id":"4","last_reported":1713809301,"current_range_meters":22800,"station_id":"ce4bgnh2rcd13ifvqc0g","pricing_plan_id":"cebpf4jnsgd1na2vs0mg"},{"bike_id":"8142c0dc-44ba-4f01-99a8-66f5cd3737d4","system_id":"levelo_inurba_marseille","lat":43.296131,"lon":5.370791,"is_reserved":false,"is_disabled":false,"rental_uris":{"android":"levelo://app?vid=8142c0dc-44ba-4f01-99a8-66f5cd3737d4","ios":"levelo://app?vid=8142c0dc-44ba-4f01-99a8-66f5cd3737d4"},"vehicle_type_id":"4","last_reported":1713809301,"current_range_meters":6800,"station_id":"ce4bgnh2rcd13ifvqc0g","pricing_plan_id":"cebpf4jnsgd1na2vs0mg"},{"bike_id":"c1be5787-293b-4756-81dd-1ab8613f2897","system_id":"levelo_inurba_marseille","lat":43.296131,"lon":5.370791,"is_reserved":false,"is_disabled":false,"rental_uris":{"android":"levelo://app?vid=c1be5787-293b-4756-81dd-1ab8613f2897","ios":"levelo://app?vid=c1be5787-293b-4756-81dd-1ab8613f2897"},"vehicle_type_id":"4","last_reported":1713809301,"current_range_meters":30800,"station_id":"ce4bgnh2rcd13ifvqc0g","pricing_plan_id":"cebpf4jnsgd1na2vs0mg"},{"bike_id":"639c0335-2af2-4915-a398-01070bcb203a","system_id":"levelo_inurba_marseille","lat":43.296131,"lon":5.370773,"is_reserved":false,"is_disabled":false,"rental_uris":{"android":"levelo://app?vid=639c0335-2af2-4915-a398-01070bcb203a","ios":"levelo://app?vid=639c0335-2af2-4915-a398-01070bcb203a"},"vehicle_type_id":"4","last_reported":1713809301,"current_range_meters":10800,"station_id":"ce4bgnh2rcd13ifvqc0g","pricing_plan_id":"cebpf4jnsgd1na2vs0mg"},{"bike_id":"9445cf03-28a5-426f-8670-8a7b11f59909","system_id":"levelo_inurba_marseille","lat":43.29573,"lon":5.367355,"is_reserved":false,"is_disabled":false,"rental_uris":{"android":"levelo://app?vid=9445cf03-28a5-426f-8670-8a7b11f59909","ios":"levelo://app?vid=9445cf03-28a5-426f-8670-8a7b11f59909"},"vehicle_type_id":"4","last_reported":1713809301,"current_range_meters":31200,"station_id":"ce4bgph2rcd13ifvqc2g","pricing_plan_id":"cebpf4jnsgd1na2vs0mg"},{"bike_id":"22ee16ca-a245-4dc1-ad8a-db06da73955c","system_id":"levelo_inurba_marseille","lat":43.295889,"lon":5.3688,"is_reserved":false,"is_disabled":false,"rental_uris":{"android":"levelo://app?vid=22ee16ca-a245-4dc1-ad8a-db06da73955c","ios":"levelo://app?vid=22ee16ca-a245-4dc1-ad8a-db06da73955c"},"vehicle_type_id":"4","last_reported":1713809301,"current_range_meters":17200,"station_id":"","pricing_plan_id":"cebpf4jnsgd1na2vs0mg"},{"bike_id":"c4444999-21e2-4628-b5bb-1601b8d5132b","system_id":"levelo_inurba_marseille","lat":43.2958,"lon":5.3674,"is_reserved":false,"is_disabled":false,"rental_uris":{"android":"levelo://app?vid=c4444999-21e2-4628-b5bb-1601b8d5132b","ios":"levelo://app?vid=c4444999-21e2-4628-b5bb-1601b8d5132b"},"vehicle_type_id":"4","last_reported":1713809301,"current_range_meters":21600,"station_id":"ce4bgph2rcd13ifvqc2g","pricing_plan_id":"cebpf4jnsgd1na2vs0mg"},{"bike_id":"1b658dbf-f393-48b1-9ab5-752c06f37e69","system_id":"levelo_inurba_marseille","lat":43.296921,"lon":5.376579,"is_reserved":false,"is_disabled":false,"rental_uris":{"android":"levelo://app?vid=1b658dbf-f393-48b1-9ab5-752c06f37e69","ios":"levelo://app?vid=1b658dbf-f393-48b1-9ab5-752c06f37e69"},"vehicle_type_id":"4","last_reported":1713809301,"current_range_meters":21600,"station_id":"ce4bgkh2rcd13ifvqbl0","pricing_plan_id":"cebpf4jnsgd1na2vs0mg"},{"bike_id":"6ea43500-1541-4425-8b7c-c7a208ace589","system_id":"levelo_inurba_marseille","lat":43.299028,"lon":5.381509,"is_reserved":false,"is_disabled":false,"rental_uris":{"android":"levelo://app?vid=6ea43500-1541-4425-8b7c-c7a208ace589","ios":"levelo://app?vid=6ea43500-1541-4425-8b7c-c7a208ace589"},"vehicle_type_id":"4","last_reported":1713809301,"current_range_meters":18800,"station_id":"ce4bgj12rcd13ifvqbc0","pricing_plan_id":"cebpf4jnsgd1na2vs0mg"},{"bike_id":"11246085-2ea5-4b58-b2e0-7e774ac54885","system_id":"levelo_inurba_marseille","lat":43.317557,"lon":5.390173,"is_reserved":false,"is_disabled":false,"rental_uris":{"android":"levelo://app?vid=11246085-2ea5-4b58-b2e0-7e774ac54885","ios":"levelo://app?vid=11246085-2ea5-4b58-b2e0-7e774ac54885"},"vehicle_type_id":"4","last_reported":1713809301,"current_range_meters":27200,"station_id":"ce4bhqp2rcd13ifvqhng","pricing_plan_id":"cebpf4jnsgd1na2vs0mg"},{"bike_id":"500be5b9-370c-4a43-9012-a490e0e0e229","system_id":"levelo_inurba_marseille","lat":43.317557,"lon":5.390173,"is_reserved":false,"is_disabled":false,"rental_uris":{"android":"levelo://app?vid=500be5b9-370c-4a43-9012-a490e0e0e229","ios":"levelo://app?vid=500be5b9-370c-4a43-9012-a490e0e0e229"},"vehicle_type_id":"4","last_reported":1713809301,"current_range_meters":18400,"station_id":"ce4bhqp2rcd13ifvqhng","pricing_plan_id":"cebpf4jnsgd1na2vs0mg"},{"bike_id":"e5e96777-b58d-4c12-a702-ce4e38968387","system_id":"levelo_inurba_marseille","lat":43.317557,"lon":5.390173,"is_reserved":false,"is_disabled":false,"rental_uris":{"android":"levelo://app?vid=e5e96777-b58d-4c12-a702-ce4e38968387","ios":"levelo://app?vid=e5e96777-b58d-4c12-a702-ce4e38968387"},"vehicle_type_id":"4","last_reported":1713809301,"current_range_meters":19200,"station_id":"ce4bhqp2rcd13ifvqhng","pricing_plan_id":"cebpf4jnsgd1na2vs0mg"},{"bike_id":"6af630f2-0740-4517-8c50-5a591d219236","system_id":"levelo_inurba_marseille","lat":43.317557,"lon":5.390173,"is_reserved":false,"is_disabled":false,"rental_uris":{"android":"levelo://app?vid=6af630f2-0740-4517-8c50-5a591d219236","ios":"levelo://app?vid=6af630f2-0740-4517-8c50-5a591d219236"},"vehicle_type_id":"4","last_reported":1713809301,"current_range_meters":16400,"station_id":"ce4bhqp2rcd13ifvqhng","pricing_plan_id":"cebpf4jnsgd1na2vs0mg"},{"bike_id":"805bb5b1-0885-402f-ab47-66f1dd26d006","system_id":"levelo_inurba_marseille","lat":43.317557,"lon":5.390173,"is_reserved":false,"is_disabled":false,"rental_uris":{"android":"levelo://app?vid=805bb5b1-0885-402f-ab47-66f1dd26d006","ios":"levelo://app?vid=805bb5b1-0885-402f-ab47-66f1dd26d006"},"vehicle_type_id":"4","last_reported":1713809301,"current_range_meters":16800,"station_id":"ce4bhqp2rcd13ifvqhng","pricing_plan_id":"cebpf4jnsgd1na2vs0mg"},{"bike_id":"6d156540-28be-441b-be24-d4f7844984f2","system_id":"levelo_inurba_marseille","lat":43.317557,"lon":5.390173,"is_reserved":false,"is_disabled":false,"rental_uris":{"android":"levelo://app?vid=6d156540-28be-441b-be24-d4f7844984f2","ios":"levelo://app?vid=6d156540-28be-441b-be24-d4f7844984f2"},"vehicle_type_id":"4","last_reported":1713809301,"current_range_meters":8000,"station_id":"ce4bhqp2rcd13ifvqhng","pricing_plan_id":"cebpf4jnsgd1na2vs0mg"},{"bike_id":"2d2f3f09-d4c6-48bc-8ae6-9fbc2600cfad","system_id":"levelo_inurba_marseille","lat":43.298037,"lon":5.381066,"is_reserved":false,"is_disabled":false,"rental_uris":{"android":"levelo://app?vid=2d2f3f09-d4c6-48bc-8ae6-9fbc2600cfad","ios":"levelo://app?vid=2d2f3f09-d4c6-48bc-8ae6-9fbc2600cfad"},"vehicle_type_id":"4","last_reported":1713809301,"current_range_meters":29200,"station_id":"ce4bgip2rcd13ifvqbb0","pricing_plan_id":"cebpf4jnsgd1na2vs0mg"},{"bike_id":"3192ceb1-7bf5-4b51-8c8c-c5d9d29692e3","system_id":"levelo_inurba_marseille","lat":43.295748,"lon":5.37522,"is_reserved":false,"is_disabled":false,"rental_uris":{"android":"levelo://app?vid=3192ceb1-7bf5-4b51-8c8c-c5d9d29692e3","ios":"levelo://app?vid=3192ceb1-7bf5-4b51-8c8c-c5d9d29692e3"},"vehicle_type_id":"4","last_reported":1713809301,"current_range_meters":2400,"station_id":"ce4bgh92rcd13ifvqb50","pricing_plan_id":"cebpf4jnsgd1na2vs0mg"},{"bike_id":"990d0492-6c79-464b-964f-e5399dd97885","system_id":"levelo_inurba_marseille","lat":43.298037,"lon":5.381066,"is_reserved":false,"is_disabled":false,"rental_uris":{"android":"levelo://app?vid=990d0492-6c79-464b-964f-e5399dd97885","ios":"levelo://app?vid=990d0492-6c79-464b-964f-e5399dd97885"},"vehicle_type_id":"4","last_reported":1713809301,"current_range_meters":27600,"station_id":"ce4bgip2rcd13ifvqbb0","pricing_plan_id":"cebpf4jnsgd1na2vs0mg"},{"bike_id":"dc7b3b80-bc52-49b6-970d-6ae424dea2b2","system_id":"levelo_inurba_marseille","lat":43.295748,"lon":5.37522,"is_reserved":false,"is_disabled":false,"rental_uris":{"android":"levelo://app?vid=dc7b3b80-bc52-49b6-970d-6ae424dea2b2","ios":"levelo://app?vid=dc7b3b80-bc52-49b6-970d-6ae424dea2b2"},"vehicle_type_id":"4","last_reported":1713809301,"current_range_meters":4800,"station_id":"ce4bgh92rcd13ifvqb50","pricing_plan_id":"cebpf4jnsgd1na2vs0mg"},{"bike_id":"0f41d86c-d31a-477a-8d02-aead80bf842c","system_id":"levelo_inurba_marseille","lat":43.295818,"lon":5.375186,"is_reserved":false,"is_disabled":false,"rental_uris":{"android":"levelo://app?vid=0f41d86c-d31a-477a-8d02-aead80bf842c","ios":"levelo://app?vid=0f41d86c-d31a-477a-8d02-aead80bf842c"},"vehicle_type_id":"4","last_reported":1713809301,"current_range_meters":11600,"station_id":"ce4bgh92rcd13ifvqb50","pricing_plan_id":"cebpf4jnsgd1na2vs0mg"},{"bike_id":"3cf28b31-dc0f-407a-98d6-9e27dddd7ba3","system_id":"levelo_inurba_marseille","lat":43.304294,"lon":5.388707,"is_reserved":false,"is_disabled":false,"rental_uris":{"android":"levelo://app?vid=3cf28b31-dc0f-407a-98d6-9e27dddd7ba3","ios":"levelo://app?vid=3cf28b31-dc0f-407a-98d6-9e27dddd7ba3"},"vehicle_type_id":"4","last_reported":1713809301,"current_range_meters":14400,"station_id":"ce4bgk12rcd13ifvqbi0","pricing_plan_id":"cebpf4jnsgd1na2vs0mg"},{"bike_id":"c5d75ffa-182f-410a-8be2-ec11d397e4ca","system_id":"levelo_inurba_marseille","lat":43.298037,"lon":5.381066,"is_reserved":false,"is_disabled":false,"rental_uris":{"android":"levelo://app?vid=c5d75ffa-182f-410a-8be2-ec11d397e4ca","ios":"levelo://app?vid=c5d75ffa-182f-410a-8be2-ec11d397e4ca"},"vehicle_type_id":"4","last_reported":1713809301,"current_range_meters":4000,"station_id":"ce4bgip2rcd13ifvqbb0","pricing_plan_id":"cebpf4jnsgd1na2vs0mg"},{"bike_id":"58da8432-f9f9-443d-b78b-bf724f5db8bf","system_id":"levelo_inurba_marseille","lat":43.29577,"lon":5.37516,"is_reserved":false,"is_disabled":false,"rental_uris":{"android":"levelo://app?vid=58da8432-f9f9-443d-b78b-bf724f5db8bf","ios":"levelo://app?vid=58da8432-f9f9-443d-b78b-bf724f5db8bf"},"vehicle_type_id":"4","last_reported":1713809301,"current_range_meters":0,"station_id":"ce4bgh92rcd13ifvqb50","pricing_plan_id":"cebpf4jnsgd1na2vs0mg"},{"bike_id":"dbab2565-1b53-472f-aa77-0a31d75349d0","system_id":"levelo_inurba_marseille","lat":43.298037,"lon":5.381066,"is_reserved":false,"is_disabled":false,"rental_uris":{"android":"levelo://app?vid=dbab2565-1b53-472f-aa77-0a31d75349d0","ios":"levelo://app?vid=dbab2565-1b53-472f-aa77-0a31d75349d0"},"vehicle_type_id":"4","last_reported":1713809301,"current_range_meters":8800,"station_id":"ce4bgip2rcd13ifvqbb0","pricing_plan_id":"cebpf4jnsgd1na2vs0mg"},{"bike_id":"2928e233-a18a-44de-a424-53339d3c5b79","system_id":"levelo_inurba_marseille","lat":43.298037,"lon":5.381066,"is_reserved":false,"is_disabled":false,"rental_uris":{"android":"levelo://app?vid=2928e233-a18a-44de-a424-53339d3c5b79","ios":"levelo://app?vid=2928e233-a18a-44de-a424-53339d3c5b79"},"vehicle_type_id":"4","last_reported":1713809301,"current_range_meters":2000,"station_id":"ce4bgip2rcd13ifvqbb0","pricing_plan_id":"cebpf4jnsgd1na2vs0mg"},{"bike_id":"38897cd2-e13d-485a-a250-0a4cd20243e0","system_id":"levelo_inurba_marseille","lat":43.298037,"lon":5.381066,"is_reserved":false,"is_disabled":false,"rental_uris":{"android":"levelo://app?vid=38897cd2-e13d-485a-a250-0a4cd20243e0","ios":"levelo://app?vid=38897cd2-e13d-485a-a250-0a4cd20243e0"},"vehicle_type_id":"4","last_reported":1713809301,"current_range_meters":9600,"station_id":"ce4bgip2rcd13ifvqbb0","pricing_plan_id":"cebpf4jnsgd1na2vs0mg"},{"bike_id":"30cf3ef7-1aca-4c71-928e-cd5020d58c56","system_id":"levelo_inurba_marseille","lat":43.305364,"lon":5.384119,"is_reserved":false,"is_disabled":false,"rental_uris":{"android":"levelo://app?vid=30cf3ef7-1aca-4c71-928e-cd5020d58c56","ios":"levelo://app?vid=30cf3ef7-1aca-4c71-928e-cd5020d58c56"},"vehicle_type_id":"4","last_reported":1713809301,"current_range_meters":9600,"station_id":"ce4bgg92rcd13ifvqb30","pricing_plan_id":"cebpf4jnsgd1na2vs0mg"},{"bike_id":"b37f8514-41c9-45d0-8560-04f4c255ade4","system_id":"levelo_inurba_marseille","lat":43.304274,"lon":5.388873,"is_reserved":false,"is_disabled":false,"rental_uris":{"android":"levelo://app?vid=b37f8514-41c9-45d0-8560-04f4c255ade4","ios":"levelo://app?vid=b37f8514-41c9-45d0-8560-04f4c255ade4"},"vehicle_type_id":"4","last_reported":1713809301,"current_range_meters":18400,"station_id":"ce4bgk12rcd13ifvqbi0","pricing_plan_id":"cebpf4jnsgd1na2vs0mg"},{"bike_id":"7d9032ab-b5a2-4739-b917-5043ed7b7696","system_id":"levelo_inurba_marseille","lat":43.29563,"lon":5.37515,"is_reserved":false,"is_disabled":false,"rental_uris":{"android":"levelo://app?vid=7d9032ab-b5a2-4739-b917-5043ed7b7696","ios":"levelo://app?vid=7d9032ab-b5a2-4739-b917-5043ed7b7696"},"vehicle_type_id":"4","last_reported":1713809301,"current_range_meters":0,"station_id":"ce4bgh92rcd13ifvqb50","pricing_plan_id":"cebpf4jnsgd1na2vs0mg"},{"bike_id":"8b475d0a-df02-4fed-ac9c-81cfafd43cb0","system_id":"levelo_inurba_marseille","lat":43.304278,"lon":5.388868,"is_reserved":false,"is_disabled":false,"rental_uris":{"android":"levelo://app?vid=8b475d0a-df02-4fed-ac9c-81cfafd43cb0","ios":"levelo://app?vid=8b475d0a-df02-4fed-ac9c-81cfafd43cb0"},"vehicle_type_id":"4","last_reported":1713809301,"current_range_meters":25200,"station_id":"ce4bgk12rcd13ifvqbi0","pricing_plan_id":"cebpf4jnsgd1na2vs0mg"},{"bike_id":"d2cece40-e937-4ff0-a1d6-fc1ad620195a","system_id":"levelo_inurba_marseille","lat":43.29618,"lon":5.37719,"is_reserved":false,"is_disabled":false,"rental_uris":{"android":"levelo://app?vid=d2cece40-e937-4ff0-a1d6-fc1ad620195a","ios":"levelo://app?vid=d2cece40-e937-4ff0-a1d6-fc1ad620195a"},"vehicle_type_id":"4","last_reported":1713809301,"current_range_meters":0,"station_id":"ce4bgi92rcd13ifvqb90","pricing_plan_id":"cebpf4jnsgd1na2vs0mg"},{"bike_id":"5df79570-7845-48e0-9938-43216eb7371c","system_id":"levelo_inurba_marseille","lat":43.296186,"lon":5.377236,"is_reserved":false,"is_disabled":false,"rental_uris":{"android":"levelo://app?vid=5df79570-7845-48e0-9938-43216eb7371c","ios":"levelo://app?vid=5df79570-7845-48e0-9938-43216eb7371c"},"vehicle_type_id":"4","last_reported":1713809301,"current_range_meters":13200,"station_id":"ce4bgi92rcd13ifvqb90","pricing_plan_id":"cebpf4jnsgd1na2vs0mg"},{"bike_id":"0a64c4ff-e8c9-4cb1-96e3-9d6fc1c4b36d","system_id":"levelo_inurba_marseille","lat":43.296263,"lon":5.377094,"is_reserved":false,"is_disabled":false,"rental_uris":{"android":"levelo://app?vid=0a64c4ff-e8c9-4cb1-96e3-9d6fc1c4b36d","ios":"levelo://app?vid=0a64c4ff-e8c9-4cb1-96e3-9d6fc1c4b36d"},"vehicle_type_id":"4","last_reported":1713809301,"current_range_meters":9600,"station_id":"ce4bgi92rcd13ifvqb90","pricing_plan_id":"cebpf4jnsgd1na2vs0mg"},{"bike_id":"5e5ec5d4-2f35-4d85-a98b-f3fa72410f05","system_id":"levelo_inurba_marseille","lat":43.304274,"lon":5.388873,"is_reserved":false,"is_disabled":false,"rental_uris":{"android":"levelo://app?vid=5e5ec5d4-2f35-4d85-a98b-f3fa72410f05","ios":"levelo://app?vid=5e5ec5d4-2f35-4d85-a98b-f3fa72410f05"},"vehicle_type_id":"4","last_reported":1713809301,"current_range_meters":10400,"station_id":"ce4bgk12rcd13ifvqbi0","pricing_plan_id":"cebpf4jnsgd1na2vs0mg"},{"bike_id":"b762c7f0-41e8-4e37-b015-2d8b986b89fa","system_id":"levelo_inurba_marseille","lat":43.296277,"lon":5.377108,"is_reserved":false,"is_disabled":false,"rental_uris":{"android":"levelo://app?vid=b762c7f0-41e8-4e37-b015-2d8b986b89fa","ios":"levelo://app?vid=b762c7f0-41e8-4e37-b015-2d8b986b89fa"},"vehicle_type_id":"4","last_reported":1713809301,"current_range_meters":14400,"station_id":"ce4bgi92rcd13ifvqb90","pricing_plan_id":"cebpf4jnsgd1na2vs0mg"},{"bike_id":"846045c8-a931-44d3-bde6-48fca2240a9a","system_id":"levelo_inurba_marseille","lat":43.296277,"lon":5.377108,"is_reserved":false,"is_disabled":false,"rental_uris":{"android":"levelo://app?vid=846045c8-a931-44d3-bde6-48fca2240a9a","ios":"levelo://app?vid=846045c8-a931-44d3-bde6-48fca2240a9a"},"vehicle_type_id":"4","last_reported":1713809301,"current_range_meters":31200,"station_id":"ce4bgi92rcd13ifvqb90","pricing_plan_id":"cebpf4jnsgd1na2vs0mg"},{"bike_id":"c063d2ed-16a1-4023-b867-c57b8652a9df","system_id":"levelo_inurba_marseille","lat":43.299707,"lon":5.384859,"is_reserved":false,"is_disabled":false,"rental_uris":{"android":"levelo://app?vid=c063d2ed-16a1-4023-b867-c57b8652a9df","ios":"levelo://app?vid=c063d2ed-16a1-4023-b867-c57b8652a9df"},"vehicle_type_id":"4","last_reported":1713809301,"current_range_meters":11200,"station_id":"ce4bgj92rcd13ifvqbd0","pricing_plan_id":"cebpf4jnsgd1na2vs0mg"},{"bike_id":"e87c174f-4828-4a6a-91c1-194007fb1029","system_id":"levelo_inurba_marseille","lat":43.299707,"lon":5.384859,"is_reserved":false,"is_disabled":false,"rental_uris":{"android":"levelo://app?vid=e87c174f-4828-4a6a-91c1-194007fb1029","ios":"levelo://app?vid=e87c174f-4828-4a6a-91c1-194007fb1029"},"vehicle_type_id":"4","last_reported":1713809301,"current_range_meters":25600,"station_id":"ce4bgj92rcd13ifvqbd0","pricing_plan_id":"cebpf4jnsgd1na2vs0mg"},{"bike_id":"6965feda-4072-440b-90ac-71fbc425b5c2","system_id":"levelo_inurba_marseille","lat":43.304278,"lon":5.388868,"is_reserved":false,"is_disabled":false,"rental_uris":{"android":"levelo://app?vid=6965feda-4072-440b-90ac-71fbc425b5c2","ios":"levelo://app?vid=6965feda-4072-440b-90ac-71fbc425b5c2"},"vehicle_type_id":"4","last_reported":1713809301,"current_range_meters":15200,"station_id":"ce4bgk12rcd13ifvqbi0","pricing_plan_id":"cebpf4jnsgd1na2vs0mg"},{"bike_id":"cff44342-7908-4aa0-9c2a-dc484e0dfc2e","system_id":"levelo_inurba_marseille","lat":43.299717,"lon":5.384845,"is_reserved":false,"is_disabled":false,"rental_uris":{"android":"levelo://app?vid=cff44342-7908-4aa0-9c2a-dc484e0dfc2e","ios":"levelo://app?vid=cff44342-7908-4aa0-9c2a-dc484e0dfc2e"},"vehicle_type_id":"4","last_reported":1713809301,"current_range_meters":6400,"station_id":"ce4bgj92rcd13ifvqbd0","pricing_plan_id":"cebpf4jnsgd1na2vs0mg"},{"bike_id":"d865c2af-5286-4608-b12b-efbd6b1f2a20","system_id":"levelo_inurba_marseille","lat":43.295279,"lon":5.375048,"is_reserved":false,"is_disabled":false,"rental_uris":{"android":"levelo://app?vid=d865c2af-5286-4608-b12b-efbd6b1f2a20","ios":"levelo://app?vid=d865c2af-5286-4608-b12b-efbd6b1f2a20"},"vehicle_type_id":"4","last_reported":1713809301,"current_range_meters":3200,"station_id":"ce4bgkp2rcd13ifvqbmg","pricing_plan_id":"cebpf4jnsgd1na2vs0mg"},{"bike_id":"584dab7f-7bae-411a-ac32-d0f5381e19e7","system_id":"levelo_inurba_marseille","lat":43.29975,"lon":5.38504,"is_reserved":false,"is_disabled":false,"rental_uris":{"android":"levelo://app?vid=584dab7f-7bae-411a-ac32-d0f5381e19e7","ios":"levelo://app?vid=584dab7f-7bae-411a-ac32-d0f5381e19e7"},"vehicle_type_id":"4","last_reported":1713809301,"current_range_meters":22800,"station_id":"ce4bgj92rcd13ifvqbd0","pricing_plan_id":"cebpf4jnsgd1na2vs0mg"},{"bike_id":"931da580-cfb5-4341-ad77-7ac4660aad3d","system_id":"levelo_inurba_marseille","lat":43.299724,"lon":5.384848,"is_reserved":false,"is_disabled":false,"rental_uris":{"android":"levelo://app?vid=931da580-cfb5-4341-ad77-7ac4660aad3d","ios":"levelo://app?vid=931da580-cfb5-4341-ad77-7ac4660aad3d"},"vehicle_type_id":"4","last_reported":1713809301,"current_range_meters":10000,"station_id":"ce4bgj92rcd13ifvqbd0","pricing_plan_id":"cebpf4jnsgd1na2vs0mg"},{"bike_id":"734dfc47-c844-433a-a127-0039088ea777","system_id":"levelo_inurba_marseille","lat":43.299724,"lon":5.384848,"is_reserved":false,"is_disabled":false,"rental_uris":{"android":"levelo://app?vid=734dfc47-c844-433a-a127-0039088ea777","ios":"levelo://app?vid=734dfc47-c844-433a-a127-0039088ea777"},"vehicle_type_id":"4","last_reported":1713809301,"current_range_meters":13600,"station_id":"ce4bgj92rcd13ifvqbd0","pricing_plan_id":"cebpf4jnsgd1na2vs0mg"},{"bike_id":"cf108709-e430-49d6-b453-3bed78158379","system_id":"levelo_inurba_marseille","lat":43.309589,"lon":5.390258,"is_reserved":false,"is_disabled":false,"rental_uris":{"android":"levelo://app?vid=cf108709-e430-49d6-b453-3bed78158379","ios":"levelo://app?vid=cf108709-e430-49d6-b453-3bed78158379"},"vehicle_type_id":"4","last_reported":1713809301,"current_range_meters":3200,"station_id":"ce4bgup2rcd13ifvqco0","pricing_plan_id":"cebpf4jnsgd1na2vs0mg"},{"bike_id":"32a0b668-f76a-4734-92f0-26ca1f654672","system_id":"levelo_inurba_marseille","lat":43.309589,"lon":5.390258,"is_reserved":false,"is_disabled":false,"rental_uris":{"android":"levelo://app?vid=32a0b668-f76a-4734-92f0-26ca1f654672","ios":"levelo://app?vid=32a0b668-f76a-4734-92f0-26ca1f654672"},"vehicle_type_id":"4","last_reported":1713809301,"current_range_meters":2800,"station_id":"ce4bgup2rcd13ifvqco0","pricing_plan_id":"cebpf4jnsgd1na2vs0mg"},{"bike_id":"24cc1f14-1228-447b-a81a-8ed481c71b02","system_id":"levelo_inurba_marseille","lat":43.304278,"lon":5.388868,"is_reserved":false,"is_disabled":false,"rental_uris":{"android":"levelo://app?vid=24cc1f14-1228-447b-a81a-8ed481c71b02","ios":"levelo://app?vid=24cc1f14-1228-447b-a81a-8ed481c71b02"},"vehicle_type_id":"4","last_reported":1713809301,"current_range_meters":8800,"station_id":"ce4bgk12rcd13ifvqbi0","pricing_plan_id":"cebpf4jnsgd1na2vs0mg"},{"bike_id":"39215b93-01f5-4414-aa9a-8263e814237a","system_id":"levelo_inurba_marseille","lat":43.29602,"lon":5.381084,"is_reserved":false,"is_disabled":false,"rental_uris":{"android":"levelo://app?vid=39215b93-01f5-4414-aa9a-8263e814237a","ios":"levelo://app?vid=39215b93-01f5-4414-aa9a-8263e814237a"},"vehicle_type_id":"4","last_reported":1713809301,"current_range_meters":6400,"station_id":"ce4bgl12rcd13ifvqbo0","pricing_plan_id":"cebpf4jnsgd1na2vs0mg"},{"bike_id":"2723913b-d5bd-4176-a56c-5b78c28c9d74","system_id":"levelo_inurba_marseille","lat":43.309038,"lon":5.396546,"is_reserved":false,"is_disabled":false,"rental_uris":{"android":"levelo://app?vid=2723913b-d5bd-4176-a56c-5b78c28c9d74","ios":"levelo://app?vid=2723913b-d5bd-4176-a56c-5b78c28c9d74"},"vehicle_type_id":"4","last_reported":1713809301,"current_range_meters":20000,"station_id":"ce4bh012rcd13ifvqcv0","pricing_plan_id":"cebpf4jnsgd1na2vs0mg"},{"bike_id":"904d1a38-5ae4-44e3-9d9e-2e4d4057618f","system_id":"levelo_inurba_marseille","lat":43.29602,"lon":5.381084,"is_reserved":false,"is_disabled":false,"rental_uris":{"android":"levelo://app?vid=904d1a38-5ae4-44e3-9d9e-2e4d4057618f","ios":"levelo://app?vid=904d1a38-5ae4-44e3-9d9e-2e4d4057618f"},"vehicle_type_id":"4","last_reported":1713809301,"current_range_meters":5600,"station_id":"ce4bgl12rcd13ifvqbo0","pricing_plan_id":"cebpf4jnsgd1na2vs0mg"},{"bike_id":"4fb23bfa-003a-4a6f-bb18-dc6e3c6c5f0c","system_id":"levelo_inurba_marseille","lat":43.29602,"lon":5.381084,"is_reserved":false,"is_disabled":false,"rental_uris":{"android":"levelo://app?vid=4fb23bfa-003a-4a6f-bb18-dc6e3c6c5f0c","ios":"levelo://app?vid=4fb23bfa-003a-4a6f-bb18-dc6e3c6c5f0c"},"vehicle_type_id":"4","last_reported":1713809301,"current_range_meters":12000,"station_id":"ce4bgl12rcd13ifvqbo0","pricing_plan_id":"cebpf4jnsgd1na2vs0mg"},{"bike_id":"53ca3e23-fe8b-46c7-bd98-bd08f69d7319","system_id":"levelo_inurba_marseille","lat":43.29602,"lon":5.381084,"is_reserved":false,"is_disabled":false,"rental_uris":{"android":"levelo://app?vid=53ca3e23-fe8b-46c7-bd98-bd08f69d7319","ios":"levelo://app?vid=53ca3e23-fe8b-46c7-bd98-bd08f69d7319"},"vehicle_type_id":"4","last_reported":1713809301,"current_range_meters":11200,"station_id":"ce4bgl12rcd13ifvqbo0","pricing_plan_id":"cebpf4jnsgd1na2vs0mg"},{"bike_id":"ece56754-f2b6-486f-a340-4e2a8875c83c","system_id":"levelo_inurba_marseille","lat":43.29602,"lon":5.381084,"is_reserved":false,"is_disabled":false,"rental_uris":{"android":"levelo://app?vid=ece56754-f2b6-486f-a340-4e2a8875c83c","ios":"levelo://app?vid=ece56754-f2b6-486f-a340-4e2a8875c83c"},"vehicle_type_id":"4","last_reported":1713809301,"current_range_meters":0,"station_id":"ce4bgl12rcd13ifvqbo0","pricing_plan_id":"cebpf4jnsgd1na2vs0mg"},{"bike_id":"fed3979c-7621-431c-859d-87fe831a33e5","system_id":"levelo_inurba_marseille","lat":43.29602,"lon":5.381084,"is_reserved":false,"is_disabled":false,"rental_uris":{"android":"levelo://app?vid=fed3979c-7621-431c-859d-87fe831a33e5","ios":"levelo://app?vid=fed3979c-7621-431c-859d-87fe831a33e5"},"vehicle_type_id":"4","last_reported":1713809301,"current_range_meters":23200,"station_id":"ce4bgl12rcd13ifvqbo0","pricing_plan_id":"cebpf4jnsgd1na2vs0mg"},{"bike_id":"1578cf13-01c2-4b3b-9bb5-8981641df2b3","system_id":"levelo_inurba_marseille","lat":43.29602,"lon":5.381084,"is_reserved":false,"is_disabled":false,"rental_uris":{"android":"levelo://app?vid=1578cf13-01c2-4b3b-9bb5-8981641df2b3","ios":"levelo://app?vid=1578cf13-01c2-4b3b-9bb5-8981641df2b3"},"vehicle_type_id":"4","last_reported":1713809301,"current_range_meters":12800,"station_id":"ce4bgl12rcd13ifvqbo0","pricing_plan_id":"cebpf4jnsgd1na2vs0mg"},{"bike_id":"bc5b0b14-a1be-4c85-9101-98d6f6244812","system_id":"levelo_inurba_marseille","lat":43.29602,"lon":5.381084,"is_reserved":false,"is_disabled":false,"rental_uris":{"android":"levelo://app?vid=bc5b0b14-a1be-4c85-9101-98d6f6244812","ios":"levelo://app?vid=bc5b0b14-a1be-4c85-9101-98d6f6244812"},"vehicle_type_id":"4","last_reported":1713809301,"current_range_meters":12000,"station_id":"ce4bgl12rcd13ifvqbo0","pricing_plan_id":"cebpf4jnsgd1na2vs0mg"},{"bike_id":"81c1857c-115f-41df-a6e1-c4e077e0ff46","system_id":"levelo_inurba_marseille","lat":43.29602,"lon":5.381084,"is_reserved":false,"is_disabled":false,"rental_uris":{"android":"levelo://app?vid=81c1857c-115f-41df-a6e1-c4e077e0ff46","ios":"levelo://app?vid=81c1857c-115f-41df-a6e1-c4e077e0ff46"},"vehicle_type_id":"4","last_reported":1713809301,"current_range_meters":16800,"station_id":"ce4bgl12rcd13ifvqbo0","pricing_plan_id":"cebpf4jnsgd1na2vs0mg"},{"bike_id":"a0dffdef-d7d8-4c5a-a2ce-fae42e422131","system_id":"levelo_inurba_marseille","lat":43.29602,"lon":5.381084,"is_reserved":false,"is_disabled":false,"rental_uris":{"android":"levelo://app?vid=a0dffdef-d7d8-4c5a-a2ce-fae42e422131","ios":"levelo://app?vid=a0dffdef-d7d8-4c5a-a2ce-fae42e422131"},"vehicle_type_id":"4","last_reported":1713809301,"current_range_meters":17200,"station_id":"ce4bgl12rcd13ifvqbo0","pricing_plan_id":"cebpf4jnsgd1na2vs0mg"},{"bike_id":"b2c78e74-59fd-430b-807c-1f31990b602c","system_id":"levelo_inurba_marseille","lat":43.29306,"lon":5.3746,"is_reserved":false,"is_disabled":false,"rental_uris":{"android":"levelo://app?vid=b2c78e74-59fd-430b-807c-1f31990b602c","ios":"levelo://app?vid=b2c78e74-59fd-430b-807c-1f31990b602c"},"vehicle_type_id":"4","last_reported":1713809301,"current_range_meters":0,"station_id":"ce4bgi12rcd13ifvqb70","pricing_plan_id":"cebpf4jnsgd1na2vs0mg"},{"bike_id":"9e45fc7c-e2e3-4c58-bb54-3ecef63a0f63","system_id":"levelo_inurba_marseille","lat":43.290336,"lon":5.386425,"is_reserved":false,"is_disabled":false,"rental_uris":{"android":"levelo://app?vid=9e45fc7c-e2e3-4c58-bb54-3ecef63a0f63","ios":"levelo://app?vid=9e45fc7c-e2e3-4c58-bb54-3ecef63a0f63"},"vehicle_type_id":"4","last_reported":1713809301,"current_range_meters":18000,"station_id":"ce4bh4p2rcd13ifvqe0g","pricing_plan_id":"cebpf4jnsgd1na2vs0mg"},{"bike_id":"bfeb43ec-5a04-4c6d-92ef-3d0e88590039","system_id":"levelo_inurba_marseille","lat":43.293009,"lon":5.374584,"is_reserved":false,"is_disabled":false,"rental_uris":{"android":"levelo://app?vid=bfeb43ec-5a04-4c6d-92ef-3d0e88590039","ios":"levelo://app?vid=bfeb43ec-5a04-4c6d-92ef-3d0e88590039"},"vehicle_type_id":"4","last_reported":1713809301,"current_range_meters":26400,"station_id":"ce4bgi12rcd13ifvqb70","pricing_plan_id":"cebpf4jnsgd1na2vs0mg"},{"bike_id":"e80a0d65-9fa6-4f8d-a4e6-1d57df9fad01","system_id":"levelo_inurba_marseille","lat":43.305994,"lon":5.393687,"is_reserved":false,"is_disabled":false,"rental_uris":{"android":"levelo://app?vid=e80a0d65-9fa6-4f8d-a4e6-1d57df9fad01","ios":"levelo://app?vid=e80a0d65-9fa6-4f8d-a4e6-1d57df9fad01"},"vehicle_type_id":"4","last_reported":1713809301,"current_range_meters":6800,"station_id":"ce4bh0p2rcd13ifvqd80","pricing_plan_id":"cebpf4jnsgd1na2vs0mg"},{"bike_id":"3ee96a89-cfae-4c47-a11c-8a6e4d017658","system_id":"levelo_inurba_marseille","lat":43.305994,"lon":5.393687,"is_reserved":false,"is_disabled":false,"rental_uris":{"android":"levelo://app?vid=3ee96a89-cfae-4c47-a11c-8a6e4d017658","ios":"levelo://app?vid=3ee96a89-cfae-4c47-a11c-8a6e4d017658"},"vehicle_type_id":"4","last_reported":1713809301,"current_range_meters":15600,"station_id":"ce4bh0p2rcd13ifvqd80","pricing_plan_id":"cebpf4jnsgd1na2vs0mg"},{"bike_id":"6eba89c6-a5d6-4c2b-ad42-4812c5d69423","system_id":"levelo_inurba_marseille","lat":43.313571,"lon":5.384829,"is_reserved":false,"is_disabled":false,"rental_uris":{"android":"levelo://app?vid=6eba89c6-a5d6-4c2b-ad42-4812c5d69423","ios":"levelo://app?vid=6eba89c6-a5d6-4c2b-ad42-4812c5d69423"},"vehicle_type_id":"4","last_reported":1713809301,"current_range_meters":10800,"station_id":"ce4bgt92rcd13ifvqcf0","pricing_plan_id":"cebpf4jnsgd1na2vs0mg"},{"bike_id":"b315ad9b-9a6d-476f-8755-563caa9bc51f","system_id":"levelo_inurba_marseille","lat":43.303002,"lon":5.392142,"is_reserved":false,"is_disabled":false,"rental_uris":{"android":"levelo://app?vid=b315ad9b-9a6d-476f-8755-563caa9bc51f","ios":"levelo://app?vid=b315ad9b-9a6d-476f-8755-563caa9bc51f"},"vehicle_type_id":"4","last_reported":1713809301,"current_range_meters":0,"station_id":"ce4bgkh2rcd13ifvqbk0","pricing_plan_id":"cebpf4jnsgd1na2vs0mg"},{"bike_id":"8db8589a-fe99-4b56-ba77-79f98cc3342b","system_id":"levelo_inurba_marseille","lat":43.303002,"lon":5.392142,"is_reserved":false,"is_disabled":false,"rental_uris":{"android":"levelo://app?vid=8db8589a-fe99-4b56-ba77-79f98cc3342b","ios":"levelo://app?vid=8db8589a-fe99-4b56-ba77-79f98cc3342b"},"vehicle_type_id":"4","last_reported":1713809301,"current_range_meters":6400,"station_id":"ce4bgkh2rcd13ifvqbk0","pricing_plan_id":"cebpf4jnsgd1na2vs0mg"},{"bike_id":"c6c6025f-8ea6-4038-848d-999840c20435","system_id":"levelo_inurba_marseille","lat":43.2936,"lon":5.37835,"is_reserved":false,"is_disabled":false,"rental_uris":{"android":"levelo://app?vid=c6c6025f-8ea6-4038-848d-999840c20435","ios":"levelo://app?vid=c6c6025f-8ea6-4038-848d-999840c20435"},"vehicle_type_id":"4","last_reported":1713809301,"current_range_meters":16000,"station_id":"ce4bgjh2rcd13ifvqbf0","pricing_plan_id":"cebpf4jnsgd1na2vs0mg"},{"bike_id":"c191c30b-5fb1-433a-9adf-f6d7e7129935","system_id":"levelo_inurba_marseille","lat":43.299028,"lon":5.381509,"is_reserved":false,"is_disabled":false,"rental_uris":{"android":"levelo://app?vid=c191c30b-5fb1-433a-9adf-f6d7e7129935","ios":"levelo://app?vid=c191c30b-5fb1-433a-9adf-f6d7e7129935"},"vehicle_type_id":"4","last_reported":1713809301,"current_range_meters":21600,"station_id":"ce4bgj12rcd13ifvqbc0","pricing_plan_id":"cebpf4jnsgd1na2vs0mg"},{"bike_id":"46f80415-8b26-4cc9-94ca-3376583f72cc","system_id":"levelo_inurba_marseille","lat":43.292311,"lon":5.360731,"is_reserved":false,"is_disabled":false,"rental_uris":{"android":"levelo://app?vid=46f80415-8b26-4cc9-94ca-3376583f72cc","ios":"levelo://app?vid=46f80415-8b26-4cc9-94ca-3376583f72cc"},"vehicle_type_id":"4","last_reported":1713809301,"current_range_meters":31200,"station_id":"ce4bhbh2rcd13ifvqeqg","pricing_plan_id":"cebpf4jnsgd1na2vs0mg"},{"bike_id":"ade1c4fe-f587-43fe-8d98-c2d7c9c559dc","system_id":"levelo_inurba_marseille","lat":43.292311,"lon":5.360731,"is_reserved":false,"is_disabled":false,"rental_uris":{"android":"levelo://app?vid=ade1c4fe-f587-43fe-8d98-c2d7c9c559dc","ios":"levelo://app?vid=ade1c4fe-f587-43fe-8d98-c2d7c9c559dc"},"vehicle_type_id":"4","last_reported":1713809301,"current_range_meters":31200,"station_id":"ce4bhbh2rcd13ifvqeqg","pricing_plan_id":"cebpf4jnsgd1na2vs0mg"},{"bike_id":"4947c734-d858-488a-a451-494f736cc490","system_id":"levelo_inurba_marseille","lat":43.292311,"lon":5.360731,"is_reserved":false,"is_disabled":false,"rental_uris":{"android":"levelo://app?vid=4947c734-d858-488a-a451-494f736cc490","ios":"levelo://app?vid=4947c734-d858-488a-a451-494f736cc490"},"vehicle_type_id":"4","last_reported":1713809301,"current_range_meters":8800,"station_id":"ce4bhbh2rcd13ifvqeqg","pricing_plan_id":"cebpf4jnsgd1na2vs0mg"},{"bike_id":"8eb5a9d6-9e6b-4e4f-9d88-04cfbca5fd37","system_id":"levelo_inurba_marseille","lat":43.292311,"lon":5.360731,"is_reserved":false,"is_disabled":false,"rental_uris":{"android":"levelo://app?vid=8eb5a9d6-9e6b-4e4f-9d88-04cfbca5fd37","ios":"levelo://app?vid=8eb5a9d6-9e6b-4e4f-9d88-04cfbca5fd37"},"vehicle_type_id":"4","last_reported":1713809301,"current_range_meters":14800,"station_id":"ce4bhbh2rcd13ifvqeqg","pricing_plan_id":"cebpf4jnsgd1na2vs0mg"},{"bike_id":"0545cb67-7bdc-487e-963c-2ea1226b5379","system_id":"levelo_inurba_marseille","lat":43.292311,"lon":5.360731,"is_reserved":false,"is_disabled":false,"rental_uris":{"android":"levelo://app?vid=0545cb67-7bdc-487e-963c-2ea1226b5379","ios":"levelo://app?vid=0545cb67-7bdc-487e-963c-2ea1226b5379"},"vehicle_type_id":"4","last_reported":1713809301,"current_range_meters":10800,"station_id":"ce4bhbh2rcd13ifvqeqg","pricing_plan_id":"cebpf4jnsgd1na2vs0mg"},{"bike_id":"d1437bb2-4748-488f-84a1-087801b9c4b1","system_id":"levelo_inurba_marseille","lat":43.292311,"lon":5.360731,"is_reserved":false,"is_disabled":false,"rental_uris":{"android":"levelo://app?vid=d1437bb2-4748-488f-84a1-087801b9c4b1","ios":"levelo://app?vid=d1437bb2-4748-488f-84a1-087801b9c4b1"},"vehicle_type_id":"4","last_reported":1713809301,"current_range_meters":10800,"station_id":"ce4bhbh2rcd13ifvqeqg","pricing_plan_id":"cebpf4jnsgd1na2vs0mg"},{"bike_id":"6350c165-805b-4524-894b-4e5a9562c3ef","system_id":"levelo_inurba_marseille","lat":43.300852,"lon":5.390859,"is_reserved":false,"is_disabled":false,"rental_uris":{"android":"levelo://app?vid=6350c165-805b-4524-894b-4e5a9562c3ef","ios":"levelo://app?vid=6350c165-805b-4524-894b-4e5a9562c3ef"},"vehicle_type_id":"4","last_reported":1713809301,"current_range_meters":17200,"station_id":"ce4bh192rcd13ifvqdb0","pricing_plan_id":"cebpf4jnsgd1na2vs0mg"},{"bike_id":"aedd9d1b-5b45-40ed-8a37-f74d73ffe4dc","system_id":"levelo_inurba_marseille","lat":43.300852,"lon":5.390859,"is_reserved":false,"is_disabled":false,"rental_uris":{"android":"levelo://app?vid=aedd9d1b-5b45-40ed-8a37-f74d73ffe4dc","ios":"levelo://app?vid=aedd9d1b-5b45-40ed-8a37-f74d73ffe4dc"},"vehicle_type_id":"4","last_reported":1713809301,"current_range_meters":18400,"station_id":"ce4bh192rcd13ifvqdb0","pricing_plan_id":"cebpf4jnsgd1na2vs0mg"},{"bike_id":"5becfba2-544a-4552-8201-2d3f88bef667","system_id":"levelo_inurba_marseille","lat":43.298764,"lon":5.388973,"is_reserved":false,"is_disabled":false,"rental_uris":{"android":"levelo://app?vid=5becfba2-544a-4552-8201-2d3f88bef667","ios":"levelo://app?vid=5becfba2-544a-4552-8201-2d3f88bef667"},"vehicle_type_id":"4","last_reported":1713809301,"current_range_meters":21600,"station_id":"ce4bh392rcd13ifvqdl0","pricing_plan_id":"cebpf4jnsgd1na2vs0mg"},{"bike_id":"9b1ccdad-f419-4bf8-974e-22677719bbb4","system_id":"levelo_inurba_marseille","lat":43.29214,"lon":5.36049,"is_reserved":false,"is_disabled":false,"rental_uris":{"android":"levelo://app?vid=9b1ccdad-f419-4bf8-974e-22677719bbb4","ios":"levelo://app?vid=9b1ccdad-f419-4bf8-974e-22677719bbb4"},"vehicle_type_id":"4","last_reported":1713809301,"current_range_meters":31200,"station_id":"ce4bhbh2rcd13ifvqeqg","pricing_plan_id":"cebpf4jnsgd1na2vs0mg"},{"bike_id":"758fb1ab-8812-4fd2-ac4e-25faab4a96cc","system_id":"levelo_inurba_marseille","lat":43.298037,"lon":5.381066,"is_reserved":false,"is_disabled":false,"rental_uris":{"android":"levelo://app?vid=758fb1ab-8812-4fd2-ac4e-25faab4a96cc","ios":"levelo://app?vid=758fb1ab-8812-4fd2-ac4e-25faab4a96cc"},"vehicle_type_id":"4","last_reported":1713809301,"current_range_meters":10000,"station_id":"ce4bgip2rcd13ifvqbb0","pricing_plan_id":"cebpf4jnsgd1na2vs0mg"},{"bike_id":"d0247b13-1610-4a35-b007-2485edf340e5","system_id":"levelo_inurba_marseille","lat":43.298764,"lon":5.388973,"is_reserved":false,"is_disabled":false,"rental_uris":{"android":"levelo://app?vid=d0247b13-1610-4a35-b007-2485edf340e5","ios":"levelo://app?vid=d0247b13-1610-4a35-b007-2485edf340e5"},"vehicle_type_id":"4","last_reported":1713809301,"current_range_meters":19200,"station_id":"ce4bh392rcd13ifvqdl0","pricing_plan_id":"cebpf4jnsgd1na2vs0mg"},{"bike_id":"ec1daf2d-6015-4201-808b-0cf002992282","system_id":"levelo_inurba_marseille","lat":43.298764,"lon":5.388973,"is_reserved":false,"is_disabled":false,"rental_uris":{"android":"levelo://app?vid=ec1daf2d-6015-4201-808b-0cf002992282","ios":"levelo://app?vid=ec1daf2d-6015-4201-808b-0cf002992282"},"vehicle_type_id":"4","last_reported":1713809301,"current_range_meters":0,"station_id":"ce4bh392rcd13ifvqdl0","pricing_plan_id":"cebpf4jnsgd1na2vs0mg"},{"bike_id":"8f735605-e8cb-4490-b7b2-9d5e0967228c","system_id":"levelo_inurba_marseille","lat":43.298764,"lon":5.388973,"is_reserved":false,"is_disabled":false,"rental_uris":{"android":"levelo://app?vid=8f735605-e8cb-4490-b7b2-9d5e0967228c","ios":"levelo://app?vid=8f735605-e8cb-4490-b7b2-9d5e0967228c"},"vehicle_type_id":"4","last_reported":1713809301,"current_range_meters":5600,"station_id":"ce4bh392rcd13ifvqdl0","pricing_plan_id":"cebpf4jnsgd1na2vs0mg"},{"bike_id":"f563b70c-4252-4ce5-b0f2-340d01af7e4c","system_id":"levelo_inurba_marseille","lat":43.298764,"lon":5.388973,"is_reserved":false,"is_disabled":false,"rental_uris":{"android":"levelo://app?vid=f563b70c-4252-4ce5-b0f2-340d01af7e4c","ios":"levelo://app?vid=f563b70c-4252-4ce5-b0f2-340d01af7e4c"},"vehicle_type_id":"4","last_reported":1713809301,"current_range_meters":10800,"station_id":"ce4bh392rcd13ifvqdl0","pricing_plan_id":"cebpf4jnsgd1na2vs0mg"},{"bike_id":"902d49c8-cabd-4c46-9308-b821a1daf90c","system_id":"levelo_inurba_marseille","lat":43.290624,"lon":5.359245,"is_reserved":false,"is_disabled":false,"rental_uris":{"android":"levelo://app?vid=902d49c8-cabd-4c46-9308-b821a1daf90c","ios":"levelo://app?vid=902d49c8-cabd-4c46-9308-b821a1daf90c"},"vehicle_type_id":"4","last_reported":1713809301,"current_range_meters":6800,"station_id":"ce4bha92rcd13ifvqeg0","pricing_plan_id":"cebpf4jnsgd1na2vs0mg"},{"bike_id":"7c318066-1b86-4ccd-b0d2-46fe1e6278ef","system_id":"levelo_inurba_marseille","lat":43.291671,"lon":5.371575,"is_reserved":false,"is_disabled":false,"rental_uris":{"android":"levelo://app?vid=7c318066-1b86-4ccd-b0d2-46fe1e6278ef","ios":"levelo://app?vid=7c318066-1b86-4ccd-b0d2-46fe1e6278ef"},"vehicle_type_id":"4","last_reported":1713809301,"current_range_meters":2400,"station_id":"ce4bha92rcd13ifvqeh0","pricing_plan_id":"cebpf4jnsgd1na2vs0mg"},{"bike_id":"cfc104ec-7e83-44fa-9395-e670234220fc","system_id":"levelo_inurba_marseille","lat":43.298764,"lon":5.388973,"is_reserved":false,"is_disabled":false,"rental_uris":{"android":"levelo://app?vid=cfc104ec-7e83-44fa-9395-e670234220fc","ios":"levelo://app?vid=cfc104ec-7e83-44fa-9395-e670234220fc"},"vehicle_type_id":"4","last_reported":1713809301,"current_range_meters":25600,"station_id":"ce4bh392rcd13ifvqdl0","pricing_plan_id":"cebpf4jnsgd1na2vs0mg"},{"bike_id":"eda12945-f4f0-4453-9f72-fc5f48b025bb","system_id":"levelo_inurba_marseille","lat":43.298764,"lon":5.388973,"is_reserved":false,"is_disabled":false,"rental_uris":{"android":"levelo://app?vid=eda12945-f4f0-4453-9f72-fc5f48b025bb","ios":"levelo://app?vid=eda12945-f4f0-4453-9f72-fc5f48b025bb"},"vehicle_type_id":"4","last_reported":1713809301,"current_range_meters":28400,"station_id":"ce4bh392rcd13ifvqdl0","pricing_plan_id":"cebpf4jnsgd1na2vs0mg"},{"bike_id":"c094f232-1acc-426a-bb3b-2bca148e5c94","system_id":"levelo_inurba_marseille","lat":43.298764,"lon":5.388973,"is_reserved":false,"is_disabled":false,"rental_uris":{"android":"levelo://app?vid=c094f232-1acc-426a-bb3b-2bca148e5c94","ios":"levelo://app?vid=c094f232-1acc-426a-bb3b-2bca148e5c94"},"vehicle_type_id":"4","last_reported":1713809301,"current_range_meters":14400,"station_id":"ce4bh392rcd13ifvqdl0","pricing_plan_id":"cebpf4jnsgd1na2vs0mg"},{"bike_id":"4145aadd-1f23-41bc-b042-b88ff9f4da34","system_id":"levelo_inurba_marseille","lat":43.298764,"lon":5.388973,"is_reserved":false,"is_disabled":false,"rental_uris":{"android":"levelo://app?vid=4145aadd-1f23-41bc-b042-b88ff9f4da34","ios":"levelo://app?vid=4145aadd-1f23-41bc-b042-b88ff9f4da34"},"vehicle_type_id":"4","last_reported":1713809301,"current_range_meters":12400,"station_id":"ce4bh392rcd13ifvqdl0","pricing_plan_id":"cebpf4jnsgd1na2vs0mg"},{"bike_id":"9d2e3e02-189b-4e75-a2e8-46c08345821e","system_id":"levelo_inurba_marseille","lat":43.298764,"lon":5.388973,"is_reserved":false,"is_disabled":false,"rental_uris":{"android":"levelo://app?vid=9d2e3e02-189b-4e75-a2e8-46c08345821e","ios":"levelo://app?vid=9d2e3e02-189b-4e75-a2e8-46c08345821e"},"vehicle_type_id":"4","last_reported":1713809301,"current_range_meters":7200,"station_id":"ce4bh392rcd13ifvqdl0","pricing_plan_id":"cebpf4jnsgd1na2vs0mg"},{"bike_id":"ac5a3b7d-dc0e-4b0c-a57e-0a53ae73b746","system_id":"levelo_inurba_marseille","lat":43.298764,"lon":5.388973,"is_reserved":false,"is_disabled":false,"rental_uris":{"android":"levelo://app?vid=ac5a3b7d-dc0e-4b0c-a57e-0a53ae73b746","ios":"levelo://app?vid=ac5a3b7d-dc0e-4b0c-a57e-0a53ae73b746"},"vehicle_type_id":"4","last_reported":1713809301,"current_range_meters":15200,"station_id":"ce4bh392rcd13ifvqdl0","pricing_plan_id":"cebpf4jnsgd1na2vs0mg"},{"bike_id":"19e4604c-3c15-4bb7-bdf0-45109e85a0db","system_id":"levelo_inurba_marseille","lat":43.298764,"lon":5.388973,"is_reserved":false,"is_disabled":false,"rental_uris":{"android":"levelo://app?vid=19e4604c-3c15-4bb7-bdf0-45109e85a0db","ios":"levelo://app?vid=19e4604c-3c15-4bb7-bdf0-45109e85a0db"},"vehicle_type_id":"4","last_reported":1713809301,"current_range_meters":2400,"station_id":"ce4bh392rcd13ifvqdl0","pricing_plan_id":"cebpf4jnsgd1na2vs0mg"},{"bike_id":"7463590f-7787-4766-b1e9-1324a6f2d23c","system_id":"levelo_inurba_marseille","lat":43.291671,"lon":5.371575,"is_reserved":false,"is_disabled":false,"rental_uris":{"android":"levelo://app?vid=7463590f-7787-4766-b1e9-1324a6f2d23c","ios":"levelo://app?vid=7463590f-7787-4766-b1e9-1324a6f2d23c"},"vehicle_type_id":"4","last_reported":1713809301,"current_range_meters":16800,"station_id":"ce4bha92rcd13ifvqeh0","pricing_plan_id":"cebpf4jnsgd1na2vs0mg"},{"bike_id":"53b0e129-cf05-4059-b3b7-47df5a5e1cba","system_id":"levelo_inurba_marseille","lat":43.298764,"lon":5.388973,"is_reserved":false,"is_disabled":false,"rental_uris":{"android":"levelo://app?vid=53b0e129-cf05-4059-b3b7-47df5a5e1cba","ios":"levelo://app?vid=53b0e129-cf05-4059-b3b7-47df5a5e1cba"},"vehicle_type_id":"4","last_reported":1713809301,"current_range_meters":30400,"station_id":"ce4bh392rcd13ifvqdl0","pricing_plan_id":"cebpf4jnsgd1na2vs0mg"},{"bike_id":"b873b1ac-6da7-4615-98f6-af1714efe1a7","system_id":"levelo_inurba_marseille","lat":43.292005,"lon":5.357875,"is_reserved":false,"is_disabled":false,"rental_uris":{"android":"levelo://app?vid=b873b1ac-6da7-4615-98f6-af1714efe1a7","ios":"levelo://app?vid=b873b1ac-6da7-4615-98f6-af1714efe1a7"},"vehicle_type_id":"4","last_reported":1713809301,"current_range_meters":14400,"station_id":"ce4bhb12rcd13ifvqel0","pricing_plan_id":"cebpf4jnsgd1na2vs0mg"},{"bike_id":"8ca1668b-87c0-4300-8b62-8346ae23e915","system_id":"levelo_inurba_marseille","lat":43.292005,"lon":5.357875,"is_reserved":false,"is_disabled":false,"rental_uris":{"android":"levelo://app?vid=8ca1668b-87c0-4300-8b62-8346ae23e915","ios":"levelo://app?vid=8ca1668b-87c0-4300-8b62-8346ae23e915"},"vehicle_type_id":"4","last_reported":1713809301,"current_range_meters":14400,"station_id":"ce4bhb12rcd13ifvqel0","pricing_plan_id":"cebpf4jnsgd1na2vs0mg"},{"bike_id":"fdf103d3-19e6-4467-8acc-7565ab271e21","system_id":"levelo_inurba_marseille","lat":43.30889,"lon":5.39638,"is_reserved":false,"is_disabled":false,"rental_uris":{"android":"levelo://app?vid=fdf103d3-19e6-4467-8acc-7565ab271e21","ios":"levelo://app?vid=fdf103d3-19e6-4467-8acc-7565ab271e21"},"vehicle_type_id":"4","last_reported":1713809301,"current_range_meters":0,"station_id":"ce4bh012rcd13ifvqcv0","pricing_plan_id":"cebpf4jnsgd1na2vs0mg"},{"bike_id":"5a539623-4b7f-41d5-a9a2-a21121fad408","system_id":"levelo_inurba_marseille","lat":43.31328,"lon":5.39686,"is_reserved":false,"is_disabled":false,"rental_uris":{"android":"levelo://app?vid=5a539623-4b7f-41d5-a9a2-a21121fad408","ios":"levelo://app?vid=5a539623-4b7f-41d5-a9a2-a21121fad408"},"vehicle_type_id":"4","last_reported":1713809301,"current_range_meters":18000,"station_id":"ce4bgvp2rcd13ifvqcu0","pricing_plan_id":"cebpf4jnsgd1na2vs0mg"},{"bike_id":"f5dd38a1-2246-4325-94ae-a49d31dab850","system_id":"levelo_inurba_marseille","lat":43.309038,"lon":5.396546,"is_reserved":false,"is_disabled":false,"rental_uris":{"android":"levelo://app?vid=f5dd38a1-2246-4325-94ae-a49d31dab850","ios":"levelo://app?vid=f5dd38a1-2246-4325-94ae-a49d31dab850"},"vehicle_type_id":"4","last_reported":1713809301,"current_range_meters":15200,"station_id":"ce4bh012rcd13ifvqcv0","pricing_plan_id":"cebpf4jnsgd1na2vs0mg"},{"bike_id":"543a512c-c67f-45eb-ab93-2358117ca2fd","system_id":"levelo_inurba_marseille","lat":43.313291,"lon":5.396838,"is_reserved":false,"is_disabled":false,"rental_uris":{"android":"levelo://app?vid=543a512c-c67f-45eb-ab93-2358117ca2fd","ios":"levelo://app?vid=543a512c-c67f-45eb-ab93-2358117ca2fd"},"vehicle_type_id":"4","last_reported":1713809301,"current_range_meters":17600,"station_id":"ce4bgvp2rcd13ifvqcu0","pricing_plan_id":"cebpf4jnsgd1na2vs0mg"},{"bike_id":"3164f708-d683-478a-a841-4be13c9b015e","system_id":"levelo_inurba_marseille","lat":43.313291,"lon":5.396838,"is_reserved":false,"is_disabled":false,"rental_uris":{"android":"levelo://app?vid=3164f708-d683-478a-a841-4be13c9b015e","ios":"levelo://app?vid=3164f708-d683-478a-a841-4be13c9b015e"},"vehicle_type_id":"4","last_reported":1713809301,"current_range_meters":23200,"station_id":"ce4bgvp2rcd13ifvqcu0","pricing_plan_id":"cebpf4jnsgd1na2vs0mg"},{"bike_id":"c6c44270-f44e-4011-9e36-5b56fd688381","system_id":"levelo_inurba_marseille","lat":43.313291,"lon":5.396838,"is_reserved":false,"is_disabled":false,"rental_uris":{"android":"levelo://app?vid=c6c44270-f44e-4011-9e36-5b56fd688381","ios":"levelo://app?vid=c6c44270-f44e-4011-9e36-5b56fd688381"},"vehicle_type_id":"4","last_reported":1713809301,"current_range_meters":10400,"station_id":"ce4bgvp2rcd13ifvqcu0","pricing_plan_id":"cebpf4jnsgd1na2vs0mg"},{"bike_id":"430bdb4d-6b65-4f2e-92e4-512ef52ef177","system_id":"levelo_inurba_marseille","lat":43.313291,"lon":5.396838,"is_reserved":false,"is_disabled":false,"rental_uris":{"android":"levelo://app?vid=430bdb4d-6b65-4f2e-92e4-512ef52ef177","ios":"levelo://app?vid=430bdb4d-6b65-4f2e-92e4-512ef52ef177"},"vehicle_type_id":"4","last_reported":1713809301,"current_range_meters":22400,"station_id":"ce4bgvp2rcd13ifvqcu0","pricing_plan_id":"cebpf4jnsgd1na2vs0mg"},{"bike_id":"acf70660-b535-4129-bd9c-f476b7a642f2","system_id":"levelo_inurba_marseille","lat":43.31334,"lon":5.39692,"is_reserved":false,"is_disabled":false,"rental_uris":{"android":"levelo://app?vid=acf70660-b535-4129-bd9c-f476b7a642f2","ios":"levelo://app?vid=acf70660-b535-4129-bd9c-f476b7a642f2"},"vehicle_type_id":"4","last_reported":1713809301,"current_range_meters":11600,"station_id":"ce4bgvp2rcd13ifvqcu0","pricing_plan_id":"cebpf4jnsgd1na2vs0mg"},{"bike_id":"86899d99-6e71-461e-957c-c7835c66ab2b","system_id":"levelo_inurba_marseille","lat":43.308803,"lon":5.39647,"is_reserved":false,"is_disabled":false,"rental_uris":{"android":"levelo://app?vid=86899d99-6e71-461e-957c-c7835c66ab2b","ios":"levelo://app?vid=86899d99-6e71-461e-957c-c7835c66ab2b"},"vehicle_type_id":"4","last_reported":1713809301,"current_range_meters":0,"station_id":"ce4bh012rcd13ifvqcv0","pricing_plan_id":"cebpf4jnsgd1na2vs0mg"},{"bike_id":"a6212ecb-9aa3-46cb-81cc-898f2f91331a","system_id":"levelo_inurba_marseille","lat":43.309038,"lon":5.396546,"is_reserved":false,"is_disabled":false,"rental_uris":{"android":"levelo://app?vid=a6212ecb-9aa3-46cb-81cc-898f2f91331a","ios":"levelo://app?vid=a6212ecb-9aa3-46cb-81cc-898f2f91331a"},"vehicle_type_id":"4","last_reported":1713809301,"current_range_meters":6400,"station_id":"ce4bh012rcd13ifvqcv0","pricing_plan_id":"cebpf4jnsgd1na2vs0mg"},{"bike_id":"1a43f498-88dd-4eed-b33d-508a8f02c184","system_id":"levelo_inurba_marseille","lat":43.313291,"lon":5.396838,"is_reserved":false,"is_disabled":false,"rental_uris":{"android":"levelo://app?vid=1a43f498-88dd-4eed-b33d-508a8f02c184","ios":"levelo://app?vid=1a43f498-88dd-4eed-b33d-508a8f02c184"},"vehicle_type_id":"4","last_reported":1713809301,"current_range_meters":26000,"station_id":"ce4bgvp2rcd13ifvqcu0","pricing_plan_id":"cebpf4jnsgd1na2vs0mg"},{"bike_id":"ad585648-506e-42bb-a50a-0442f782050d","system_id":"levelo_inurba_marseille","lat":43.313291,"lon":5.396838,"is_reserved":false,"is_disabled":false,"rental_uris":{"android":"levelo://app?vid=ad585648-506e-42bb-a50a-0442f782050d","ios":"levelo://app?vid=ad585648-506e-42bb-a50a-0442f782050d"},"vehicle_type_id":"4","last_reported":1713809301,"current_range_meters":6400,"station_id":"ce4bgvp2rcd13ifvqcu0","pricing_plan_id":"cebpf4jnsgd1na2vs0mg"},{"bike_id":"57939d8d-f152-4244-84f4-766b3896623e","system_id":"levelo_inurba_marseille","lat":43.3134,"lon":5.397,"is_reserved":false,"is_disabled":false,"rental_uris":{"android":"levelo://app?vid=57939d8d-f152-4244-84f4-766b3896623e","ios":"levelo://app?vid=57939d8d-f152-4244-84f4-766b3896623e"},"vehicle_type_id":"4","last_reported":1713809301,"current_range_meters":0,"station_id":"ce4bgvp2rcd13ifvqcu0","pricing_plan_id":"cebpf4jnsgd1na2vs0mg"},{"bike_id":"7cc17d6e-1627-4fa2-a565-622b7e16a0dc","system_id":"levelo_inurba_marseille","lat":43.309038,"lon":5.396546,"is_reserved":false,"is_disabled":false,"rental_uris":{"android":"levelo://app?vid=7cc17d6e-1627-4fa2-a565-622b7e16a0dc","ios":"levelo://app?vid=7cc17d6e-1627-4fa2-a565-622b7e16a0dc"},"vehicle_type_id":"4","last_reported":1713809301,"current_range_meters":24400,"station_id":"ce4bh012rcd13ifvqcv0","pricing_plan_id":"cebpf4jnsgd1na2vs0mg"},{"bike_id":"a559f03c-809b-4fa8-8cea-4454a95f0827","system_id":"levelo_inurba_marseille","lat":43.309038,"lon":5.396546,"is_reserved":false,"is_disabled":false,"rental_uris":{"android":"levelo://app?vid=a559f03c-809b-4fa8-8cea-4454a95f0827","ios":"levelo://app?vid=a559f03c-809b-4fa8-8cea-4454a95f0827"},"vehicle_type_id":"4","last_reported":1713809301,"current_range_meters":9600,"station_id":"ce4bh012rcd13ifvqcv0","pricing_plan_id":"cebpf4jnsgd1na2vs0mg"},{"bike_id":"3f8930cd-5dd6-4a86-aee8-c3a33cbe2f4d","system_id":"levelo_inurba_marseille","lat":43.309038,"lon":5.396546,"is_reserved":false,"is_disabled":false,"rental_uris":{"android":"levelo://app?vid=3f8930cd-5dd6-4a86-aee8-c3a33cbe2f4d","ios":"levelo://app?vid=3f8930cd-5dd6-4a86-aee8-c3a33cbe2f4d"},"vehicle_type_id":"4","last_reported":1713809301,"current_range_meters":26400,"station_id":"ce4bh012rcd13ifvqcv0","pricing_plan_id":"cebpf4jnsgd1na2vs0mg"},{"bike_id":"1fa70e5b-a652-4e45-b016-4a362a506b2f","system_id":"levelo_inurba_marseille","lat":43.29529,"lon":5.385581,"is_reserved":false,"is_disabled":false,"rental_uris":{"android":"levelo://app?vid=1fa70e5b-a652-4e45-b016-4a362a506b2f","ios":"levelo://app?vid=1fa70e5b-a652-4e45-b016-4a362a506b2f"},"vehicle_type_id":"4","last_reported":1713809301,"current_range_meters":17200,"station_id":"ce4bgih2rcd13ifvqba0","pricing_plan_id":"cebpf4jnsgd1na2vs0mg"},{"bike_id":"61130906-30b3-431e-8ab6-0086cad1849c","system_id":"levelo_inurba_marseille","lat":43.29529,"lon":5.385581,"is_reserved":false,"is_disabled":false,"rental_uris":{"android":"levelo://app?vid=61130906-30b3-431e-8ab6-0086cad1849c","ios":"levelo://app?vid=61130906-30b3-431e-8ab6-0086cad1849c"},"vehicle_type_id":"4","last_reported":1713809301,"current_range_meters":6800,"station_id":"ce4bgih2rcd13ifvqba0","pricing_plan_id":"cebpf4jnsgd1na2vs0mg"},{"bike_id":"cba84523-138e-4d2e-8585-b186507a7290","system_id":"levelo_inurba_marseille","lat":43.29529,"lon":5.385581,"is_reserved":false,"is_disabled":false,"rental_uris":{"android":"levelo://app?vid=cba84523-138e-4d2e-8585-b186507a7290","ios":"levelo://app?vid=cba84523-138e-4d2e-8585-b186507a7290"},"vehicle_type_id":"4","last_reported":1713809301,"current_range_meters":24800,"station_id":"ce4bgih2rcd13ifvqba0","pricing_plan_id":"cebpf4jnsgd1na2vs0mg"},{"bike_id":"899a06b8-4745-4c2d-8940-442680f3ed55","system_id":"levelo_inurba_marseille","lat":43.29529,"lon":5.385581,"is_reserved":false,"is_disabled":false,"rental_uris":{"android":"levelo://app?vid=899a06b8-4745-4c2d-8940-442680f3ed55","ios":"levelo://app?vid=899a06b8-4745-4c2d-8940-442680f3ed55"},"vehicle_type_id":"4","last_reported":1713809301,"current_range_meters":16000,"station_id":"ce4bgih2rcd13ifvqba0","pricing_plan_id":"cebpf4jnsgd1na2vs0mg"},{"bike_id":"563e8145-56d5-42c5-83bf-9c9ec907f816","system_id":"levelo_inurba_marseille","lat":43.29529,"lon":5.385581,"is_reserved":false,"is_disabled":false,"rental_uris":{"android":"levelo://app?vid=563e8145-56d5-42c5-83bf-9c9ec907f816","ios":"levelo://app?vid=563e8145-56d5-42c5-83bf-9c9ec907f816"},"vehicle_type_id":"4","last_reported":1713809301,"current_range_meters":5200,"station_id":"ce4bgih2rcd13ifvqba0","pricing_plan_id":"cebpf4jnsgd1na2vs0mg"},{"bike_id":"2a0b9bb5-be31-4af3-8b59-4e0bbe14632a","system_id":"levelo_inurba_marseille","lat":43.29529,"lon":5.385581,"is_reserved":false,"is_disabled":false,"rental_uris":{"android":"levelo://app?vid=2a0b9bb5-be31-4af3-8b59-4e0bbe14632a","ios":"levelo://app?vid=2a0b9bb5-be31-4af3-8b59-4e0bbe14632a"},"vehicle_type_id":"4","last_reported":1713809301,"current_range_meters":14800,"station_id":"ce4bgih2rcd13ifvqba0","pricing_plan_id":"cebpf4jnsgd1na2vs0mg"},{"bike_id":"bf566e40-bde8-4c6e-9e32-90a261db2bd8","system_id":"levelo_inurba_marseille","lat":43.29529,"lon":5.385581,"is_reserved":false,"is_disabled":false,"rental_uris":{"android":"levelo://app?vid=bf566e40-bde8-4c6e-9e32-90a261db2bd8","ios":"levelo://app?vid=bf566e40-bde8-4c6e-9e32-90a261db2bd8"},"vehicle_type_id":"4","last_reported":1713809301,"current_range_meters":6000,"station_id":"ce4bgih2rcd13ifvqba0","pricing_plan_id":"cebpf4jnsgd1na2vs0mg"},{"bike_id":"d997fdc8-bdc7-453a-8a71-a3dcc5ead7c7","system_id":"levelo_inurba_marseille","lat":43.29529,"lon":5.385581,"is_reserved":false,"is_disabled":false,"rental_uris":{"android":"levelo://app?vid=d997fdc8-bdc7-453a-8a71-a3dcc5ead7c7","ios":"levelo://app?vid=d997fdc8-bdc7-453a-8a71-a3dcc5ead7c7"},"vehicle_type_id":"4","last_reported":1713809301,"current_range_meters":23200,"station_id":"ce4bgih2rcd13ifvqba0","pricing_plan_id":"cebpf4jnsgd1na2vs0mg"},{"bike_id":"12d06eee-d7d1-43ca-9860-c8c649d24523","system_id":"levelo_inurba_marseille","lat":43.29529,"lon":5.385581,"is_reserved":false,"is_disabled":false,"rental_uris":{"android":"levelo://app?vid=12d06eee-d7d1-43ca-9860-c8c649d24523","ios":"levelo://app?vid=12d06eee-d7d1-43ca-9860-c8c649d24523"},"vehicle_type_id":"4","last_reported":1713809301,"current_range_meters":16000,"station_id":"ce4bgih2rcd13ifvqba0","pricing_plan_id":"cebpf4jnsgd1na2vs0mg"},{"bike_id":"f6fa3745-2fb3-482b-8939-5e42485f245a","system_id":"levelo_inurba_marseille","lat":43.29529,"lon":5.385581,"is_reserved":false,"is_disabled":false,"rental_uris":{"android":"levelo://app?vid=f6fa3745-2fb3-482b-8939-5e42485f245a","ios":"levelo://app?vid=f6fa3745-2fb3-482b-8939-5e42485f245a"},"vehicle_type_id":"4","last_reported":1713809301,"current_range_meters":6000,"station_id":"ce4bgih2rcd13ifvqba0","pricing_plan_id":"cebpf4jnsgd1na2vs0mg"},{"bike_id":"56ec0bbd-0563-4187-b938-379dee382495","system_id":"levelo_inurba_marseille","lat":43.29529,"lon":5.385581,"is_reserved":false,"is_disabled":false,"rental_uris":{"android":"levelo://app?vid=56ec0bbd-0563-4187-b938-379dee382495","ios":"levelo://app?vid=56ec0bbd-0563-4187-b938-379dee382495"},"vehicle_type_id":"4","last_reported":1713809301,"current_range_meters":20400,"station_id":"ce4bgih2rcd13ifvqba0","pricing_plan_id":"cebpf4jnsgd1na2vs0mg"},{"bike_id":"443bfe50-6492-4254-a1c1-36cd7697bb61","system_id":"levelo_inurba_marseille","lat":43.29529,"lon":5.385581,"is_reserved":false,"is_disabled":false,"rental_uris":{"android":"levelo://app?vid=443bfe50-6492-4254-a1c1-36cd7697bb61","ios":"levelo://app?vid=443bfe50-6492-4254-a1c1-36cd7697bb61"},"vehicle_type_id":"4","last_reported":1713809301,"current_range_meters":12000,"station_id":"ce4bgih2rcd13ifvqba0","pricing_plan_id":"cebpf4jnsgd1na2vs0mg"},