{"last_updated":1737209232,"ttl":60,"version":"2.2","data":{"bikes":[{"bike_id":"6079b780-f3b4-463d-a4c5-83165224f3d9","system_id":"levelo_inurba_marseille","lat":43.32018,"lon":5.38146,"is_reserved":false,"is_disabled":false,"rental_uris":{"android":"levelo://app?vid=6079b780-f3b4-463d-a4c5-83165224f3d9","ios":"levelo://app?vid=6079b780-f3b4-463d-a4c5-83165224f3d9"},"vehicle_type_id":"4","last_reported":1737209232,"current_range_meters":27600,"station_id":"ce4bhr12rcd13ifvqhpg","pricing_plan_id":"cebpf4jnsgd1na2vs0mg"},{"bike_id":"417d6d7b-b7a0-4f19-ad35-90ede6e9d613","system_id":"levelo_inurba_marseille","lat":43.3018,"lon":5.36606,"is_reserved":false,"is_disabled":false,"rental_uris":{"android":"levelo://app?vid=417d6d7b-b7a0-4f19-ad35-90ede6e9d613","ios":"levelo://app?vid=417d6d7b-b7a0-4f19-ad35-90ede6e9d613"},"vehicle_type_id":"4","last_reported":1737209232,"current_range_meters":16800,"station_id":"ce4bgrh2rcd13ifvqc8g","pricing_plan_id":"cebpf4jnsgd1na2vs0mg"},{"bike_id":"530be816-56a5-4372-bab8-ad37ced15789","system_id":"levelo_inurba_marseille","lat":43.27992,"lon":5.40019,"is_reserved":false,"is_disabled":false,"rental_uris":{"android":"levelo://app?vid=530be816-56a5-4372-bab8-ad37ced15789","ios":"levelo://app?vid=530be816-56a5-4372-bab8-ad37ced15789"},"vehicle_type_id":"4","last_reported":1737209232,"current_range_meters":8400,"station_id":"ce4bho92rcd13ifvqh4g","pricing_plan_id":"cebpf4jnsgd1na2vs0mg"},{"bike_id":"73f02e1f-d68f-48ef-b151-4e28cd9f19e5","system_id":"levelo_inurba_marseille","lat":43.28616,"lon":5.35102,"is_reserved":false,"is_disabled":false,"rental_uris":{"android":"levelo://app?vid=73f02e1f-d68f-48ef-b151-4e28cd9f19e5","ios":"levelo://app?vid=73f02e1f-d68f-48ef-b151-4e28cd9f19e5"},"vehicle_type_id":"4","last_reported":1737209232,"current_range_meters":38400,"station_id":"ce4bhch2rcd13ifvqeug","pricing_plan_id":"cebpf4jnsgd1na2vs0mg"},{"bike_id":"9d3c5f18-58e6-4b02-812e-84729154c6ba","system_id":"levelo_inurba_marseille","lat":43.29967,"lon":5.38486,"is_reserved":false,"is_disabled":false,"rental_uris":{"android":"levelo://app?vid=9d3c5f18-58e6-4b02-812e-84729154c6ba","ios":"levelo://app?vid=9d3c5f18-58e6-4b02-812e-84729154c6ba"},"vehicle_type_id":"4","last_reported":1737209232,"current_range_meters":31200,"station_id":"ce4bgj92rcd13ifvqbd0","pricing_plan_id":"cebpf4jnsgd1na2vs0mg"},{"bike_id":"d600e4ae-e160-4951-bbfd-cd9b2238344d","system_id":"levelo_inurba_marseille","lat":43.26196,"lon":5.37452,"is_reserved":false,"is_disabled":false,"rental_uris":{"android":"levelo://app?vid=d600e4ae-e160-4951-bbfd-cd9b2238344d","ios":"levelo://app?vid=d600e4ae-e160-4951-bbfd-cd9b2238344d"},"vehicle_type_id":"4","last_reported":1737209232,"current_range_meters":27200,"station_id":"ce4bhgp2rcd13ifvqfc0","pricing_plan_id":"cebpf4jnsgd1na2vs0mg"},{"bike_id":"b14cfada-1be9-4158-a298-87a0aec7fd4f","system_id":"levelo_inurba_marseille","lat":43.29068,"lon":5.38162,"is_reserved":false,"is_disabled":false,"rental_uris":{"android":"levelo://app?vid=b14cfada-1be9-4158-a298-87a0aec7fd4f","ios":"levelo://app?vid=b14cfada-1be9-4158-a298-87a0aec7fd4f"},"vehicle_type_id":"4","last_reported":1737209232,"current_range_meters":38800,"station_id":"ce4bh512rcd13ifvqe2g","pricing_plan_id":"cebpf4jnsgd1na2vs0mg"},{"bike_id":"df03565c-c6e5-4408-9b56-7533c8c17253","system_id":"levelo_inurba_marseille","lat":43.28457,"lon":5.3919,"is_reserved":false,"is_disabled":false,"rental_uris":{"android":"levelo://app?vid=df03565c-c6e5-4408-9b56-7533c8c17253","ios":"levelo://app?vid=df03565c-c6e5-4408-9b56-7533c8c17253"},"vehicle_type_id":"4","last_reported":1737209232,"current_range_meters":27600,"station_id":"ce4bhoh2rcd13ifvqh5g","pricing_plan_id":"cebpf4jnsgd1na2vs0mg"},{"bike_id":"bb4c23f6-3088-4ba7-a53a-409f4844e31f","system_id":"levelo_inurba_marseille","lat":43.28497,"lon":5.38466,"is_reserved":false,"is_disabled":false,"rental_uris":{"android":"levelo://app?vid=bb4c23f6-3088-4ba7-a53a-409f4844e31f","ios":"levelo://app?vid=bb4c23f6-3088-4ba7-a53a-409f4844e31f"},"vehicle_type_id":"4","last_reported":1737209232,"current_range_meters":34000,"station_id":"ce4bh512rcd13ifvqe3g","pricing_plan_id":"cebpf4jnsgd1na2vs0mg"},{"bike_id":"80a93288-a077-4176-80c1-2d9039e983c5","system_id":"levelo_inurba_marseille","lat":43.30135,"lon":5.3985,"is_reserved":false,"is_disabled":false,"rental_uris":{"android":"levelo://app?vid=80a93288-a077-4176-80c1-2d9039e983c5","ios":"levelo://app?vid=80a93288-a077-4176-80c1-2d9039e983c5"},"vehicle_type_id":"4","last_reported":1737209232,"current_range_meters":22800,"station_id":"ce4bh0h2rcd13ifvqd40","pricing_plan_id":"cebpf4jnsgd1na2vs0mg"},{"bike_id":"1ca09bf7-61ea-456c-9bde-631c2561ab63","system_id":"levelo_inurba_marseille","lat":43.30543,"lon":5.36497,"is_reserved":false,"is_disabled":false,"rental_uris":{"android":"levelo://app?vid=1ca09bf7-61ea-456c-9bde-631c2561ab63","ios":"levelo://app?vid=1ca09bf7-61ea-456c-9bde-631c2561ab63"},"vehicle_type_id":"4","last_reported":1737209232,"current_range_meters":38800,"station_id":"ce4bgs12rcd13ifvqcag","pricing_plan_id":"cebpf4jnsgd1na2vs0mg"},{"bike_id":"763ed4fc-16fd-47a0-aedf-62c028daa66f","system_id":"levelo_inurba_marseille","lat":43.36387,"lon":5.35582,"is_reserved":false,"is_disabled":false,"rental_uris":{"android":"levelo://app?vid=763ed4fc-16fd-47a0-aedf-62c028daa66f","ios":"levelo://app?vid=763ed4fc-16fd-47a0-aedf-62c028daa66f"},"vehicle_type_id":"4","last_reported":1737209232,"current_range_meters":17200,"station_id":"","pricing_plan_id":"cebpf4jnsgd1na2vs0mg"},{"bike_id":"528a34f7-ae61-454a-add8-51024c5b0fee","system_id":"levelo_inurba_marseille","lat":43.26785,"lon":5.39413,"is_reserved":false,"is_disabled":false,"rental_uris":{"android":"levelo://app?vid=528a34f7-ae61-454a-add8-51024c5b0fee","ios":"levelo://app?vid=528a34f7-ae61-454a-add8-51024c5b0fee"},"vehicle_type_id":"4","last_reported":1737209232,"current_range_meters":32800,"station_id":"ce4bhh12rcd13ifvqfg0","pricing_plan_id":"cebpf4jnsgd1na2vs0mg"},{"bike_id":"b42d349b-8767-4500-922c-77c53d2c4648","system_id":"levelo_inurba_marseille","lat":43.260617,"lon":5.393987,"is_reserved":false,"is_disabled":false,"rental_uris":{"android":"levelo://app?vid=b42d349b-8767-4500-922c-77c53d2c4648","ios":"levelo://app?vid=b42d349b-8767-4500-922c-77c53d2c4648"},"vehicle_type_id":"4","last_reported":1737209232,"current_range_meters":22800,"station_id":"ce4bhh92rcd13ifvqfj0","pricing_plan_id":"cebpf4jnsgd1na2vs0mg"},{"bike_id":"fc697a46-0d19-4146-ae76-c84bf483ae89","system_id":"levelo_inurba_marseille","lat":43.26069,"lon":5.39446,"is_reserved":false,"is_disabled":false,"rental_uris":{"android":"levelo://app?vid=fc697a46-0d19-4146-ae76-c84bf483ae89","ios":"levelo://app?vid=fc697a46-0d19-4146-ae76-c84bf483ae89"},"vehicle_type_id":"4","last_reported":1737209232,"current_range_meters":18800,"station_id":"ce4bhh92rcd13ifvqfj0","pricing_plan_id":"cebpf4jnsgd1na2vs0mg"},{"bike_id":"631e545d-2c50-4f95-81c9-772bcbcbb35a","system_id":"levelo_inurba_marseille","lat":43.30785,"lon":5.37645,"is_reserved":false,"is_disabled":false,"rental_uris":{"android":"levelo://app?vid=631e545d-2c50-4f95-81c9-772bcbcbb35a","ios":"levelo://app?vid=631e545d-2c50-4f95-81c9-772bcbcbb35a"},"vehicle_type_id":"4","last_reported":1737209232,"current_range_meters":30800,"station_id":"ce4bgv92rcd13ifvqcq0","pricing_plan_id":"cebpf4jnsgd1na2vs0mg"},{"bike_id":"f3c94274-f861-4c89-8bb1-1ebe1a531935","system_id":"levelo_inurba_marseille","lat":43.2503,"lon":5.38923,"is_reserved":false,"is_disabled":true,"rental_uris":{"android":"levelo://app?vid=f3c94274-f861-4c89-8bb1-1ebe1a531935","ios":"levelo://app?vid=f3c94274-f861-4c89-8bb1-1ebe1a531935"},"vehicle_type_id":"4","last_reported":1737209232,"current_range_meters":400,"station_id":"ce4bhgp2rcd13ifvqfd0","pricing_plan_id":"cebpf4jnsgd1na2vs0mg"},{"bike_id":"ea820ade-d81d-428e-82b9-7f165f7e8e75","system_id":"levelo_inurba_marseille","lat":43.3237,"lon":5.36731,"is_reserved":false,"is_disabled":false,"rental_uris":{"android":"levelo://app?vid=ea820ade-d81d-428e-82b9-7f165f7e8e75","ios":"levelo://app?vid=ea820ade-d81d-428e-82b9-7f165f7e8e75"},"vehicle_type_id":"4","last_reported":1737209232,"current_range_meters":22800,"station_id":"ce4bhsh2rcd13ifvqi2g","pricing_plan_id":"cebpf4jnsgd1na2vs0mg"},{"bike_id":"c29020e0-83ef-4b06-ac4f-c4422257f84a","system_id":"levelo_inurba_marseille","lat":43.31248,"lon":5.36835,"is_reserved":false,"is_disabled":false,"rental_uris":{"android":"levelo://app?vid=c29020e0-83ef-4b06-ac4f-c4422257f84a","ios":"levelo://app?vid=c29020e0-83ef-4b06-ac4f-c4422257f84a"},"vehicle_type_id":"4","last_reported":1737209232,"current_range_meters":39200,"station_id":"ce4bgl92rcd13ifvqbq0","pricing_plan_id":"cebpf4jnsgd1na2vs0mg"},{"bike_id":"880fcafb-c9ff-4b10-9fe1-72031548689a","system_id":"levelo_inurba_marseille","lat":43.28701,"lon":5.36097,"is_reserved":false,"is_disabled":false,"rental_uris":{"android":"levelo://app?vid=880fcafb-c9ff-4b10-9fe1-72031548689a","ios":"levelo://app?vid=880fcafb-c9ff-4b10-9fe1-72031548689a"},"vehicle_type_id":"4","last_reported":1737209232,"current_range_meters":38000,"station_id":"cki0cbj6b192h4jlfktg","pricing_plan_id":"cebpf4jnsgd1na2vs0mg"},{"bike_id":"234a24b2-67f4-470b-a11a-a7b60b2f1f3e","system_id":"levelo_inurba_marseille","lat":43.2922,"lon":5.36085,"is_reserved":false,"is_disabled":false,"rental_uris":{"android":"levelo://app?vid=234a24b2-67f4-470b-a11a-a7b60b2f1f3e","ios":"levelo://app?vid=234a24b2-67f4-470b-a11a-a7b60b2f1f3e"},"vehicle_type_id":"4","last_reported":1737209232,"current_range_meters":33200,"station_id":"ce4bhbh2rcd13ifvqeqg","pricing_plan_id":"cebpf4jnsgd1na2vs0mg"},{"bike_id":"2e00ce67-d361-4edc-b2f6-0809ad451868","system_id":"levelo_inurba_marseille","lat":43.23183,"lon":5.39983,"is_reserved":false,"is_disabled":false,"rental_uris":{"android":"levelo://app?vid=2e00ce67-d361-4edc-b2f6-0809ad451868","ios":"levelo://app?vid=2e00ce67-d361-4edc-b2f6-0809ad451868"},"vehicle_type_id":"4","last_reported":1737209232,"current_range_meters":38800,"station_id":"ce4bhn12rcd13ifvqgqg","pricing_plan_id":"cebpf4jnsgd1na2vs0mg"},{"bike_id":"40c0b6c0-8afe-4089-98d3-594ab9179cf8","system_id":"levelo_inurba_marseille","lat":43.29713,"lon":5.37704,"is_reserved":false,"is_disabled":true,"rental_uris":{"android":"levelo://app?vid=40c0b6c0-8afe-4089-98d3-594ab9179cf8","ios":"levelo://app?vid=40c0b6c0-8afe-4089-98d3-594ab9179cf8"},"vehicle_type_id":"4","last_reported":1737209232,"current_range_meters":2000,"station_id":"ce4bgkh2rcd13ifvqbl0","pricing_plan_id":"cebpf4jnsgd1na2vs0mg"},{"bike_id":"1c837c4b-0b3b-4fbe-9f0b-1b9075619b98","system_id":"levelo_inurba_marseille","lat":43.28943,"lon":5.39609,"is_reserved":false,"is_disabled":false,"rental_uris":{"android":"levelo://app?vid=1c837c4b-0b3b-4fbe-9f0b-1b9075619b98","ios":"levelo://app?vid=1c837c4b-0b3b-4fbe-9f0b-1b9075619b98"},"vehicle_type_id":"4","last_reported":1737209232,"current_range_meters":10800,"station_id":"ce4bh3h2rcd13ifvqdn0","pricing_plan_id":"cebpf4jnsgd1na2vs0mg"},{"bike_id":"b672b566-ae6e-4181-a2cb-0155be334a04","system_id":"levelo_inurba_marseille","lat":43.28957,"lon":5.36629,"is_reserved":false,"is_disabled":true,"rental_uris":{"android":"levelo://app?vid=b672b566-ae6e-4181-a2cb-0155be334a04","ios":"levelo://app?vid=b672b566-ae6e-4181-a2cb-0155be334a04"},"vehicle_type_id":"4","last_reported":1737209232,"current_range_meters":0,"station_id":"ce4bhap2rcd13ifvqek0","pricing_plan_id":"cebpf4jnsgd1na2vs0mg"},{"bike_id":"d3b10c07-c542-48fc-b2a8-5f52f4c607ea","system_id":"levelo_inurba_marseille","lat":43.27559,"lon":5.38387,"is_reserved":false,"is_disabled":false,"rental_uris":{"android":"levelo://app?vid=d3b10c07-c542-48fc-b2a8-5f52f4c607ea","ios":"levelo://app?vid=d3b10c07-c542-48fc-b2a8-5f52f4c607ea"},"vehicle_type_id":"4","last_reported":1737209232,"current_range_meters":38800,"station_id":"ce4bhh92rcd13ifvqfi0","pricing_plan_id":"cebpf4jnsgd1na2vs0mg"},{"bike_id":"76ff2491-e757-446a-8a69-652b78ca4812","system_id":"levelo_inurba_marseille","lat":43.29688,"lon":5.37309,"is_reserved":false,"is_disabled":false,"rental_uris":{"android":"levelo://app?vid=76ff2491-e757-446a-8a69-652b78ca4812","ios":"levelo://app?vid=76ff2491-e757-446a-8a69-652b78ca4812"},"vehicle_type_id":"4","last_reported":1737209232,"current_range_meters":16000,"station_id":"ce4bgk12rcd13ifvqbj0","pricing_plan_id":"cebpf4jnsgd1na2vs0mg"},{"bike_id":"01c6cf32-0c67-41c7-9429-86aabcd038c9","system_id":"levelo_inurba_marseille","lat":43.28492,"lon":5.38569,"is_reserved":false,"is_disabled":false,"rental_uris":{"android":"levelo://app?vid=01c6cf32-0c67-41c7-9429-86aabcd038c9","ios":"levelo://app?vid=01c6cf32-0c67-41c7-9429-86aabcd038c9"},"vehicle_type_id":"4","last_reported":1737209232,"current_range_meters":20400,"station_id":"ce4bh8p2rcd13ifvqeb0","pricing_plan_id":"cebpf4jnsgd1na2vs0mg"},{"bike_id":"bb49dd1b-928a-4c55-bb67-6f2416e0432a","system_id":"levelo_inurba_marseille","lat":43.24071,"lon":5.37765,"is_reserved":false,"is_disabled":false,"rental_uris":{"android":"levelo://app?vid=bb49dd1b-928a-4c55-bb67-6f2416e0432a","ios":"levelo://app?vid=bb49dd1b-928a-4c55-bb67-6f2416e0432a"},"vehicle_type_id":"4","last_reported":1737209232,"current_range_meters":20400,"station_id":"ce4bhnp2rcd13ifvqgvg","pricing_plan_id":"cebpf4jnsgd1na2vs0mg"},{"bike_id":"3eb60c52-95d6-4d4e-9bc7-66b0d87c4a90","system_id":"levelo_inurba_marseille","lat":43.29628,"lon":5.3716,"is_reserved":false,"is_disabled":false,"rental_uris":{"android":"levelo://app?vid=3eb60c52-95d6-4d4e-9bc7-66b0d87c4a90","ios":"levelo://app?vid=3eb60c52-95d6-4d4e-9bc7-66b0d87c4a90"},"vehicle_type_id":"4","last_reported":1737209232,"current_range_meters":38800,"station_id":"ce4bgnh2rcd13ifvqc0g","pricing_plan_id":"cebpf4jnsgd1na2vs0mg"},{"bike_id":"6767abdc-3c6a-42d0-9e7b-2128533c47af","system_id":"levelo_inurba_marseille","lat":43.29034,"lon":5.38121,"is_reserved":false,"is_disabled":false,"rental_uris":{"android":"levelo://app?vid=6767abdc-3c6a-42d0-9e7b-2128533c47af","ios":"levelo://app?vid=6767abdc-3c6a-42d0-9e7b-2128533c47af"},"vehicle_type_id":"4","last_reported":1737209232,"current_range_meters":38800,"station_id":"ce4bh4p2rcd13ifvqe1g","pricing_plan_id":"cebpf4jnsgd1na2vs0mg"},{"bike_id":"11209385-eaee-4327-b6b4-b095c7e23ffe","system_id":"levelo_inurba_marseille","lat":43.28349,"lon":5.38094,"is_reserved":false,"is_disabled":false,"rental_uris":{"android":"levelo://app?vid=11209385-eaee-4327-b6b4-b095c7e23ffe","ios":"levelo://app?vid=11209385-eaee-4327-b6b4-b095c7e23ffe"},"vehicle_type_id":"4","last_reported":1737209232,"current_range_meters":21600,"station_id":"ce4bh412rcd13ifvqdr0","pricing_plan_id":"cebpf4jnsgd1na2vs0mg"},{"bike_id":"4694f23f-179c-4e95-afdf-bfb6a88efac9","system_id":"levelo_inurba_marseille","lat":43.292678,"lon":5.384413,"is_reserved":false,"is_disabled":false,"rental_uris":{"android":"levelo://app?vid=4694f23f-179c-4e95-afdf-bfb6a88efac9","ios":"levelo://app?vid=4694f23f-179c-4e95-afdf-bfb6a88efac9"},"vehicle_type_id":"4","last_reported":1737209232,"current_range_meters":36000,"station_id":"ce4bh692rcd13ifvqea0","pricing_plan_id":"cebpf4jnsgd1na2vs0mg"},{"bike_id":"31a98fb4-ec8e-4f3e-9363-3f49a6908b29","system_id":"levelo_inurba_marseille","lat":43.2842,"lon":5.34973,"is_reserved":false,"is_disabled":false,"rental_uris":{"android":"levelo://app?vid=31a98fb4-ec8e-4f3e-9363-3f49a6908b29","ios":"levelo://app?vid=31a98fb4-ec8e-4f3e-9363-3f49a6908b29"},"vehicle_type_id":"4","last_reported":1737209232,"current_range_meters":10800,"station_id":"ce4bhbh2rcd13ifvqepg","pricing_plan_id":"cebpf4jnsgd1na2vs0mg"},{"bike_id":"2a289409-4e6c-40b8-a21f-fbd4f84dc612","system_id":"levelo_inurba_marseille","lat":43.28618,"lon":5.35109,"is_reserved":false,"is_disabled":false,"rental_uris":{"android":"levelo://app?vid=2a289409-4e6c-40b8-a21f-fbd4f84dc612","ios":"levelo://app?vid=2a289409-4e6c-40b8-a21f-fbd4f84dc612"},"vehicle_type_id":"4","last_reported":1737209232,"current_range_meters":22800,"station_id":"ce4bhch2rcd13ifvqeug","pricing_plan_id":"cebpf4jnsgd1na2vs0mg"},{"bike_id":"295ae294-3a65-4fed-ae58-bcda6f46004d","system_id":"levelo_inurba_marseille","lat":43.231532,"lon":5.436982,"is_reserved":false,"is_disabled":false,"rental_uris":{"android":"levelo://app?vid=295ae294-3a65-4fed-ae58-bcda6f46004d","ios":"levelo://app?vid=295ae294-3a65-4fed-ae58-bcda6f46004d"},"vehicle_type_id":"4","last_reported":1737209232,"current_range_meters":12800,"station_id":"ce4bhmp2rcd13ifvqgog","pricing_plan_id":"cebpf4jnsgd1na2vs0mg"},{"bike_id":"1477df1e-7f90-456f-83d3-515b3688ceeb","system_id":"levelo_inurba_marseille","lat":43.25958,"lon":5.40869,"is_reserved":false,"is_disabled":false,"rental_uris":{"android":"levelo://app?vid=1477df1e-7f90-456f-83d3-515b3688ceeb","ios":"levelo://app?vid=1477df1e-7f90-456f-83d3-515b3688ceeb"},"vehicle_type_id":"4","last_reported":1737209232,"current_range_meters":8000,"station_id":"ce4bhm92rcd13ifvqglg","pricing_plan_id":"cebpf4jnsgd1na2vs0mg"},{"bike_id":"eae4938b-82ed-48a2-af5e-c6d7cb90fcde","system_id":"levelo_inurba_marseille","lat":43.2454,"lon":5.39523,"is_reserved":false,"is_disabled":false,"rental_uris":{"android":"levelo://app?vid=eae4938b-82ed-48a2-af5e-c6d7cb90fcde","ios":"levelo://app?vid=eae4938b-82ed-48a2-af5e-c6d7cb90fcde"},"vehicle_type_id":"4","last_reported":1737209232,"current_range_meters":29600,"station_id":"ce4bhlp2rcd13ifvqgjg","pricing_plan_id":"cebpf4jnsgd1na2vs0mg"},{"bike_id":"9b60dacd-d87f-44b5-a7f9-dd4b9124bd8b","system_id":"levelo_inurba_marseille","lat":43.29624,"lon":5.37731,"is_reserved":false,"is_disabled":false,"rental_uris":{"android":"levelo://app?vid=9b60dacd-d87f-44b5-a7f9-dd4b9124bd8b","ios":"levelo://app?vid=9b60dacd-d87f-44b5-a7f9-dd4b9124bd8b"},"vehicle_type_id":"4","last_reported":1737209232,"current_range_meters":16800,"station_id":"ce4bgi92rcd13ifvqb90","pricing_plan_id":"cebpf4jnsgd1na2vs0mg"},{"bike_id":"11854ff7-8188-4d1d-a4c6-3790dab1f10c","system_id":"levelo_inurba_marseille","lat":43.320517,"lon":5.415785,"is_reserved":false,"is_disabled":false,"rental_uris":{"android":"levelo://app?vid=11854ff7-8188-4d1d-a4c6-3790dab1f10c","ios":"levelo://app?vid=11854ff7-8188-4d1d-a4c6-3790dab1f10c"},"vehicle_type_id":"4","last_reported":1737209232,"current_range_meters":38800,"station_id":"ce4bhq92rcd13ifvqhkg","pricing_plan_id":"cebpf4jnsgd1na2vs0mg"},{"bike_id":"b94614d3-2c6c-4b7f-a918-eb726c1cd570","system_id":"levelo_inurba_marseille","lat":43.32042,"lon":5.41559,"is_reserved":false,"is_disabled":true,"rental_uris":{"android":"levelo://app?vid=b94614d3-2c6c-4b7f-a918-eb726c1cd570","ios":"levelo://app?vid=b94614d3-2c6c-4b7f-a918-eb726c1cd570"},"vehicle_type_id":"4","last_reported":1737209232,"current_range_meters":1200,"station_id":"ce4bhq92rcd13ifvqhkg","pricing_plan_id":"cebpf4jnsgd1na2vs0mg"},{"bike_id":"cf0638aa-29b4-4316-9baa-b44eddc082d7","system_id":"levelo_inurba_marseille","lat":43.30534,"lon":5.36541,"is_reserved":false,"is_disabled":false,"rental_uris":{"android":"levelo://app?vid=cf0638aa-29b4-4316-9baa-b44eddc082d7","ios":"levelo://app?vid=cf0638aa-29b4-4316-9baa-b44eddc082d7"},"vehicle_type_id":"4","last_reported":1737209232,"current_range_meters":37600,"station_id":"ce4bgs12rcd13ifvqcag","pricing_plan_id":"cebpf4jnsgd1na2vs0mg"},{"bike_id":"a73e05ed-9cc0-407f-b54c-f01a40c18c8b","system_id":"levelo_inurba_marseille","lat":43.22934,"lon":5.35376,"is_reserved":false,"is_disabled":false,"rental_uris":{"android":"levelo://app?vid=a73e05ed-9cc0-407f-b54c-f01a40c18c8b","ios":"levelo://app?vid=a73e05ed-9cc0-407f-b54c-f01a40c18c8b"},"vehicle_type_id":"4","last_reported":1737209232,"current_range_meters":20000,"station_id":"cpo3532slgdg3j2ikp40","pricing_plan_id":"cebpf4jnsgd1na2vs0mg"},{"bike_id":"c0e86a8c-8bb4-42a7-8c6d-af427e20bae7","system_id":"levelo_inurba_marseille","lat":43.2937,"lon":5.37835,"is_reserved":false,"is_disabled":false,"rental_uris":{"android":"levelo://app?vid=c0e86a8c-8bb4-42a7-8c6d-af427e20bae7","ios":"levelo://app?vid=c0e86a8c-8bb4-42a7-8c6d-af427e20bae7"},"vehicle_type_id":"4","last_reported":1737209232,"current_range_meters":24800,"station_id":"ce4bgjh2rcd13ifvqbf0","pricing_plan_id":"cebpf4jnsgd1na2vs0mg"},{"bike_id":"0190f9ed-f672-484d-932e-c0ad891df792","system_id":"levelo_inurba_marseille","lat":43.31322,"lon":5.39689,"is_reserved":false,"is_disabled":false,"rental_uris":{"android":"levelo://app?vid=0190f9ed-f672-484d-932e-c0ad891df792","ios":"levelo://app?vid=0190f9ed-f672-484d-932e-c0ad891df792"},"vehicle_type_id":"4","last_reported":1737209232,"current_range_meters":38800,"station_id":"ce4bgvp2rcd13ifvqcu0","pricing_plan_id":"cebpf4jnsgd1na2vs0mg"},{"bike_id":"d2f9e5ac-bb0e-45de-bdfe-28f9e96d56cd","system_id":"levelo_inurba_marseille","lat":43.27376,"lon":5.36257,"is_reserved":false,"is_disabled":false,"rental_uris":{"android":"levelo://app?vid=d2f9e5ac-bb0e-45de-bdfe-28f9e96d56cd","ios":"levelo://app?vid=d2f9e5ac-bb0e-45de-bdfe-28f9e96d56cd"},"vehicle_type_id":"4","last_reported":1737209232,"current_range_meters":24000,"station_id":"ce4bhbh2rcd13ifvqeo0","pricing_plan_id":"cebpf4jnsgd1na2vs0mg"},{"bike_id":"ca8aa51d-4833-4c77-8009-59b7c07323a3","system_id":"levelo_inurba_marseille","lat":43.32375,"lon":5.36746,"is_reserved":false,"is_disabled":false,"rental_uris":{"android":"levelo://app?vid=ca8aa51d-4833-4c77-8009-59b7c07323a3","ios":"levelo://app?vid=ca8aa51d-4833-4c77-8009-59b7c07323a3"},"vehicle_type_id":"4","last_reported":1737209232,"current_range_meters":10000,"station_id":"ce4bhsh2rcd13ifvqi2g","pricing_plan_id":"cebpf4jnsgd1na2vs0mg"},{"bike_id":"5faa8c62-2ac8-41ab-93f0-47014fb93567","system_id":"levelo_inurba_marseille","lat":43.30082,"lon":5.39083,"is_reserved":false,"is_disabled":false,"rental_uris":{"android":"levelo://app?vid=5faa8c62-2ac8-41ab-93f0-47014fb93567","ios":"levelo://app?vid=5faa8c62-2ac8-41ab-93f0-47014fb93567"},"vehicle_type_id":"4","last_reported":1737209232,"current_range_meters":28400,"station_id":"ce4bh192rcd13ifvqdb0","pricing_plan_id":"cebpf4jnsgd1na2vs0mg"},{"bike_id":"0c01565e-9f05-4eee-b4d4-73eb0afe5235","system_id":"levelo_inurba_marseille","lat":43.28907,"lon":5.3641,"is_reserved":false,"is_disabled":false,"rental_uris":{"android":"levelo://app?vid=0c01565e-9f05-4eee-b4d4-73eb0afe5235","ios":"levelo://app?vid=0c01565e-9f05-4eee-b4d4-73eb0afe5235"},"vehicle_type_id":"4","last_reported":1737209232,"current_range_meters":30000,"station_id":"ce4bhc92rcd13ifvqetg","pricing_plan_id":"cebpf4jnsgd1na2vs0mg"},{"bike_id":"96c695e4-d2ae-4622-8b84-ac5bd76f7fbd","system_id":"levelo_inurba_marseille","lat":43.27617,"lon":5.36119,"is_reserved":false,"is_disabled":false,"rental_uris":{"android":"levelo://app?vid=96c695e4-d2ae-4622-8b84-ac5bd76f7fbd","ios":"levelo://app?vid=96c695e4-d2ae-4622-8b84-ac5bd76f7fbd"},"vehicle_type_id":"4","last_reported":1737209232,"current_range_meters":26000,"station_id":"ce4bgj92rcd13ifvqbe0","pricing_plan_id":"cebpf4jnsgd1na2vs0mg"},{"bike_id":"d6fcb2b2-2cb2-421d-ab7a-3b0afff15b9e","system_id":"levelo_inurba_marseille","lat":43.27308,"lon":5.3908,"is_reserved":false,"is_disabled":false,"rental_uris":{"android":"levelo://app?vid=d6fcb2b2-2cb2-421d-ab7a-3b0afff15b9e","ios":"levelo://app?vid=d6fcb2b2-2cb2-421d-ab7a-3b0afff15b9e"},"vehicle_type_id":"4","last_reported":1737209232,"current_range_meters":9200,"station_id":"ce4bhgp2rcd13ifvqfe0","pricing_plan_id":"cebpf4jnsgd1na2vs0mg"},{"bike_id":"5227eeef-eb52-4de5-a5e4-32ec48e82c9e","system_id":"levelo_inurba_marseille","lat":43.29196,"lon":5.35825,"is_reserved":false,"is_disabled":false,"rental_uris":{"android":"levelo://app?vid=5227eeef-eb52-4de5-a5e4-32ec48e82c9e","ios":"levelo://app?vid=5227eeef-eb52-4de5-a5e4-32ec48e82c9e"},"vehicle_type_id":"4","last_reported":1737209232,"current_range_meters":22000,"station_id":"ce4bhb12rcd13ifvqel0","pricing_plan_id":"cebpf4jnsgd1na2vs0mg"},{"bike_id":"6a90ebfd-42fb-4933-8ee6-2d9c45066428","system_id":"levelo_inurba_marseille","lat":43.28491,"lon":5.38557,"is_reserved":false,"is_disabled":false,"rental_uris":{"android":"levelo://app?vid=6a90ebfd-42fb-4933-8ee6-2d9c45066428","ios":"levelo://app?vid=6a90ebfd-42fb-4933-8ee6-2d9c45066428"},"vehicle_type_id":"4","last_reported":1737209232,"current_range_meters":7200,"station_id":"ce4bh8p2rcd13ifvqeb0","pricing_plan_id":"cebpf4jnsgd1na2vs0mg"},{"bike_id":"44aeb646-3174-4a7b-acdf-3d6c871a3edf","system_id":"levelo_inurba_marseille","lat":43.26219,"lon":5.37424,"is_reserved":false,"is_disabled":false,"rental_uris":{"android":"levelo://app?vid=44aeb646-3174-4a7b-acdf-3d6c871a3edf","ios":"levelo://app?vid=44aeb646-3174-4a7b-acdf-3d6c871a3edf"},"vehicle_type_id":"4","last_reported":1737209232,"current_range_meters":22400,"station_id":"ce4bhgp2rcd13ifvqfc0","pricing_plan_id":"cebpf4jnsgd1na2vs0mg"},{"bike_id":"70c24921-dd69-4638-810c-b7f8cf584516","system_id":"levelo_inurba_marseille","lat":43.24075,"lon":5.37742,"is_reserved":false,"is_disabled":false,"rental_uris":{"android":"levelo://app?vid=70c24921-dd69-4638-810c-b7f8cf584516","ios":"levelo://app?vid=70c24921-dd69-4638-810c-b7f8cf584516"},"vehicle_type_id":"4","last_reported":1737209232,"current_range_meters":26800,"station_id":"ce4bhnp2rcd13ifvqgvg","pricing_plan_id":"cebpf4jnsgd1na2vs0mg"},{"bike_id":"fe4e8d1f-2600-468f-a43a-eb21b90157aa","system_id":"levelo_inurba_marseille","lat":43.27333,"lon":5.3908,"is_reserved":false,"is_disabled":false,"rental_uris":{"android":"levelo://app?vid=fe4e8d1f-2600-468f-a43a-eb21b90157aa","ios":"levelo://app?vid=fe4e8d1f-2600-468f-a43a-eb21b90157aa"},"vehicle_type_id":"4","last_reported":1737209232,"current_range_meters":17200,"station_id":"ce4bhgp2rcd13ifvqfe0","pricing_plan_id":"cebpf4jnsgd1na2vs0mg"},{"bike_id":"c9be01c1-c65a-4c98-8923-01889b467275","system_id":"levelo_inurba_marseille","lat":43.26569,"lon":5.37273,"is_reserved":false,"is_disabled":false,"rental_uris":{"android":"levelo://app?vid=c9be01c1-c65a-4c98-8923-01889b467275","ios":"levelo://app?vid=c9be01c1-c65a-4c98-8923-01889b467275"},"vehicle_type_id":"4","last_reported":1737209232,"current_range_meters":38800,"station_id":"ce4bhg12rcd13ifvqf70","pricing_plan_id":"cebpf4jnsgd1na2vs0mg"},{"bike_id":"cf507987-64c3-4d62-8bcc-151213485ee1","system_id":"levelo_inurba_marseille","lat":43.27308,"lon":5.39095,"is_reserved":false,"is_disabled":false,"rental_uris":{"android":"levelo://app?vid=cf507987-64c3-4d62-8bcc-151213485ee1","ios":"levelo://app?vid=cf507987-64c3-4d62-8bcc-151213485ee1"},"vehicle_type_id":"4","last_reported":1737209232,"current_range_meters":39200,"station_id":"ce4bhgp2rcd13ifvqfe0","pricing_plan_id":"cebpf4jnsgd1na2vs0mg"},{"bike_id":"4dddf982-5ca7-40ba-9ade-0b40991a7fe6","system_id":"levelo_inurba_marseille","lat":43.2681,"lon":5.40269,"is_reserved":false,"is_disabled":false,"rental_uris":{"android":"levelo://app?vid=4dddf982-5ca7-40ba-9ade-0b40991a7fe6","ios":"levelo://app?vid=4dddf982-5ca7-40ba-9ade-0b40991a7fe6"},"vehicle_type_id":"4","last_reported":1737209232,"current_range_meters":38000,"station_id":"ce501612rcd8frsf0b60","pricing_plan_id":"cebpf4jnsgd1na2vs0mg"},{"bike_id":"99f1c2d7-59bb-4e15-80c6-07a9881bc182","system_id":"levelo_inurba_marseille","lat":43.28469,"lon":5.38409,"is_reserved":false,"is_disabled":false,"rental_uris":{"android":"levelo://app?vid=99f1c2d7-59bb-4e15-80c6-07a9881bc182","ios":"levelo://app?vid=99f1c2d7-59bb-4e15-80c6-07a9881bc182"},"vehicle_type_id":"4","last_reported":1737209232,"current_range_meters":11600,"station_id":"ce4bh512rcd13ifvqe3g","pricing_plan_id":"cebpf4jnsgd1na2vs0mg"},{"bike_id":"9a13cce5-14b8-4a3d-8dbc-ae522bbfb4c0","system_id":"levelo_inurba_marseille","lat":43.24555,"lon":5.3953,"is_reserved":false,"is_disabled":false,"rental_uris":{"android":"levelo://app?vid=9a13cce5-14b8-4a3d-8dbc-ae522bbfb4c0","ios":"levelo://app?vid=9a13cce5-14b8-4a3d-8dbc-ae522bbfb4c0"},"vehicle_type_id":"4","last_reported":1737209232,"current_range_meters":16400,"station_id":"ce4bhlp2rcd13ifvqgjg","pricing_plan_id":"cebpf4jnsgd1na2vs0mg"},{"bike_id":"0aacbbb4-b4df-4112-9f3e-9c8b0c3a36b2","system_id":"levelo_inurba_marseille","lat":43.24392,"lon":5.37058,"is_reserved":false,"is_disabled":false,"rental_uris":{"android":"levelo://app?vid=0aacbbb4-b4df-4112-9f3e-9c8b0c3a36b2","ios":"levelo://app?vid=0aacbbb4-b4df-4112-9f3e-9c8b0c3a36b2"},"vehicle_type_id":"4","last_reported":1737209232,"current_range_meters":38800,"station_id":"ce4bhhh2rcd13ifvqfk0","pricing_plan_id":"cebpf4jnsgd1na2vs0mg"},{"bike_id":"7b42a98f-a6d5-44c4-85b1-ac2cd91aafd3","system_id":"levelo_inurba_marseille","lat":43.27209,"lon":5.39146,"is_reserved":false,"is_disabled":true,"rental_uris":{"android":"levelo://app?vid=7b42a98f-a6d5-44c4-85b1-ac2cd91aafd3","ios":"levelo://app?vid=7b42a98f-a6d5-44c4-85b1-ac2cd91aafd3"},"vehicle_type_id":"4","last_reported":1737209232,"current_range_meters":0,"station_id":"ce4bhhp2rcd13ifvqfm0","pricing_plan_id":"cebpf4jnsgd1na2vs0mg"},{"bike_id":"891d5aa4-b1b0-4e0c-90ac-49e97bf9c382","system_id":"levelo_inurba_marseille","lat":43.23184,"lon":5.39995,"is_reserved":false,"is_disabled":false,"rental_uris":{"android":"levelo://app?vid=891d5aa4-b1b0-4e0c-90ac-49e97bf9c382","ios":"levelo://app?vid=891d5aa4-b1b0-4e0c-90ac-49e97bf9c382"},"vehicle_type_id":"4","last_reported":1737209232,"current_range_meters":30000,"station_id":"ce4bhn12rcd13ifvqgqg","pricing_plan_id":"cebpf4jnsgd1na2vs0mg"},{"bike_id":"8bb72a74-f62a-4d4e-b8b8-937cb888ec71","system_id":"levelo_inurba_marseille","lat":43.265233,"lon":5.39538,"is_reserved":false,"is_disabled":false,"rental_uris":{"android":"levelo://app?vid=8bb72a74-f62a-4d4e-b8b8-937cb888ec71","ios":"levelo://app?vid=8bb72a74-f62a-4d4e-b8b8-937cb888ec71"},"vehicle_type_id":"4","last_reported":1737209232,"current_range_meters":12000,"station_id":"ce4bhi12rcd13ifvqfq0","pricing_plan_id":"cebpf4jnsgd1na2vs0mg"},{"bike_id":"357eaeda-fef2-41f2-9ad0-621ae2cc5c09","system_id":"levelo_inurba_marseille","lat":43.33768,"lon":5.37496,"is_reserved":false,"is_disabled":false,"rental_uris":{"android":"levelo://app?vid=357eaeda-fef2-41f2-9ad0-621ae2cc5c09","ios":"levelo://app?vid=357eaeda-fef2-41f2-9ad0-621ae2cc5c09"},"vehicle_type_id":"4","last_reported":1737209232,"current_range_meters":31200,"station_id":"","pricing_plan_id":"cebpf4jnsgd1na2vs0mg"},{"bike_id":"f5a585a8-21d9-47e8-9413-332553fda390","system_id":"levelo_inurba_marseille","lat":43.28475,"lon":5.38538,"is_reserved":false,"is_disabled":false,"rental_uris":{"android":"levelo://app?vid=f5a585a8-21d9-47e8-9413-332553fda390","ios":"levelo://app?vid=f5a585a8-21d9-47e8-9413-332553fda390"},"vehicle_type_id":"4","last_reported":1737209232,"current_range_meters":28000,"station_id":"ce4bh8p2rcd13ifvqeb0","pricing_plan_id":"cebpf4jnsgd1na2vs0mg"},{"bike_id":"18408514-e858-4141-93ec-f55d6b26afe0","system_id":"levelo_inurba_marseille","lat":43.29166,"lon":5.37168,"is_reserved":false,"is_disabled":true,"rental_uris":{"android":"levelo://app?vid=18408514-e858-4141-93ec-f55d6b26afe0","ios":"levelo://app?vid=18408514-e858-4141-93ec-f55d6b26afe0"},"vehicle_type_id":"4","last_reported":1737209232,"current_range_meters":400,"station_id":"ce4bha92rcd13ifvqeh0","pricing_plan_id":"cebpf4jnsgd1na2vs0mg"},{"bike_id":"27da5887-7294-4d00-91c3-de75a091f716","system_id":"levelo_inurba_marseille","lat":43.28414,"lon":5.37503,"is_reserved":false,"is_disabled":false,"rental_uris":{"android":"levelo://app?vid=27da5887-7294-4d00-91c3-de75a091f716","ios":"levelo://app?vid=27da5887-7294-4d00-91c3-de75a091f716"},"vehicle_type_id":"4","last_reported":1737209232,"current_range_meters":22800,"station_id":"ce4bh412rcd13ifvqds0","pricing_plan_id":"cebpf4jnsgd1na2vs0mg"},{"bike_id":"735750d8-5f08-4431-bc24-398e0f49226d","system_id":"levelo_inurba_marseille","lat":43.25748,"lon":5.411,"is_reserved":false,"is_disabled":false,"rental_uris":{"android":"levelo://app?vid=735750d8-5f08-4431-bc24-398e0f49226d","ios":"levelo://app?vid=735750d8-5f08-4431-bc24-398e0f49226d"},"vehicle_type_id":"4","last_reported":1737209232,"current_range_meters":11200,"station_id":"ce4bhkp2rcd13ifvqgd0","pricing_plan_id":"cebpf4jnsgd1na2vs0mg"},{"bike_id":"127980a1-0c9f-407e-be8c-6d9c0ac5cb6f","system_id":"levelo_inurba_marseille","lat":43.29184,"lon":5.35814,"is_reserved":false,"is_disabled":false,"rental_uris":{"android":"levelo://app?vid=127980a1-0c9f-407e-be8c-6d9c0ac5cb6f","ios":"levelo://app?vid=127980a1-0c9f-407e-be8c-6d9c0ac5cb6f"},"vehicle_type_id":"4","last_reported":1737209232,"current_range_meters":38800,"station_id":"ce4bhb12rcd13ifvqel0","pricing_plan_id":"cebpf4jnsgd1na2vs0mg"},{"bike_id":"140fc8cf-4281-44e3-bae8-ed54dc40a31c","system_id":"levelo_inurba_marseille","lat":43.25928,"lon":5.4084,"is_reserved":false,"is_disabled":false,"rental_uris":{"android":"levelo://app?vid=140fc8cf-4281-44e3-bae8-ed54dc40a31c","ios":"levelo://app?vid=140fc8cf-4281-44e3-bae8-ed54dc40a31c"},"vehicle_type_id":"4","last_reported":1737209232,"current_range_meters":30400,"station_id":"ce4bhm92rcd13ifvqglg","pricing_plan_id":"cebpf4jnsgd1na2vs0mg"},{"bike_id":"bcd58053-bae7-45e1-88e2-378c4d0a6c9f","system_id":"levelo_inurba_marseille","lat":43.31689,"lon":5.40462,"is_reserved":false,"is_disabled":false,"rental_uris":{"android":"levelo://app?vid=bcd58053-bae7-45e1-88e2-378c4d0a6c9f","ios":"levelo://app?vid=bcd58053-bae7-45e1-88e2-378c4d0a6c9f"},"vehicle_type_id":"4","last_reported":1737209232,"current_range_meters":26800,"station_id":"ce4bh012rcd13ifvqd00","pricing_plan_id":"cebpf4jnsgd1na2vs0mg"},{"bike_id":"01a07bd9-36a1-4c19-a88b-7c9e3a6ee490","system_id":"levelo_inurba_marseille","lat":43.250943,"lon":5.395284,"is_reserved":false,"is_disabled":false,"rental_uris":{"android":"levelo://app?vid=01a07bd9-36a1-4c19-a88b-7c9e3a6ee490","ios":"levelo://app?vid=01a07bd9-36a1-4c19-a88b-7c9e3a6ee490"},"vehicle_type_id":"4","last_reported":1737209232,"current_range_meters":36800,"station_id":"ce4bhm12rcd13ifvqgkg","pricing_plan_id":"cebpf4jnsgd1na2vs0mg"},{"bike_id":"ed86bcef-c18f-44e4-8d9b-7e2c0070d7b1","system_id":"levelo_inurba_marseille","lat":43.273706,"lon":5.362488,"is_reserved":false,"is_disabled":false,"rental_uris":{"android":"levelo://app?vid=ed86bcef-c18f-44e4-8d9b-7e2c0070d7b1","ios":"levelo://app?vid=ed86bcef-c18f-44e4-8d9b-7e2c0070d7b1"},"vehicle_type_id":"4","last_reported":1737209232,"current_range_meters":32400,"station_id":"ce4bhbh2rcd13ifvqeo0","pricing_plan_id":"cebpf4jnsgd1na2vs0mg"},{"bike_id":"9be957d2-26d1-49a4-9f85-b06ee3432064","system_id":"levelo_inurba_marseille","lat":43.337261,"lon":5.392048,"is_reserved":false,"is_disabled":false,"rental_uris":{"android":"levelo://app?vid=9be957d2-26d1-49a4-9f85-b06ee3432064","ios":"levelo://app?vid=9be957d2-26d1-49a4-9f85-b06ee3432064"},"vehicle_type_id":"4","last_reported":1737209232,"current_range_meters":26800,"station_id":"ce4bhr92rcd13ifvqhsg","pricing_plan_id":"cebpf4jnsgd1na2vs0mg"},{"bike_id":"9d571973-919f-4d9a-8263-16469bc08d16","system_id":"levelo_inurba_marseille","lat":43.31364,"lon":5.36695,"is_reserved":false,"is_disabled":false,"rental_uris":{"android":"levelo://app?vid=9d571973-919f-4d9a-8263-16469bc08d16","ios":"levelo://app?vid=9d571973-919f-4d9a-8263-16469bc08d16"},"vehicle_type_id":"4","last_reported":1737209232,"current_range_meters":16000,"station_id":"ce4bgr92rcd13ifvqc6g","pricing_plan_id":"cebpf4jnsgd1na2vs0mg"},{"bike_id":"fd153fd4-8c71-4200-95f4-e02852c298c7","system_id":"levelo_inurba_marseille","lat":43.25084,"lon":5.39513,"is_reserved":false,"is_disabled":false,"rental_uris":{"android":"levelo://app?vid=fd153fd4-8c71-4200-95f4-e02852c298c7","ios":"levelo://app?vid=fd153fd4-8c71-4200-95f4-e02852c298c7"},"vehicle_type_id":"4","last_reported":1737209232,"current_range_meters":35600,"station_id":"ce4bhm12rcd13ifvqgkg","pricing_plan_id":"cebpf4jnsgd1na2vs0mg"},{"bike_id":"3a4204c8-9fba-4be7-9fa2-58a8cfd4d291","system_id":"levelo_inurba_marseille","lat":43.24547,"lon":5.39527,"is_reserved":false,"is_disabled":false,"rental_uris":{"android":"levelo://app?vid=3a4204c8-9fba-4be7-9fa2-58a8cfd4d291","ios":"levelo://app?vid=3a4204c8-9fba-4be7-9fa2-58a8cfd4d291"},"vehicle_type_id":"4","last_reported":1737209232,"current_range_meters":20800,"station_id":"ce4bhlp2rcd13ifvqgjg","pricing_plan_id":"cebpf4jnsgd1na2vs0mg"},{"bike_id":"d8e0d232-ee5d-4dbe-9486-fa07da73e008","system_id":"levelo_inurba_marseille","lat":43.29641,"lon":5.37522,"is_reserved":false,"is_disabled":false,"rental_uris":{"android":"levelo://app?vid=d8e0d232-ee5d-4dbe-9486-fa07da73e008","ios":"levelo://app?vid=d8e0d232-ee5d-4dbe-9486-fa07da73e008"},"vehicle_type_id":"4","last_reported":1737209232,"current_range_meters":35200,"station_id":"","pricing_plan_id":"cebpf4jnsgd1na2vs0mg"},{"bike_id":"b94fc47f-53b6-4a27-9cce-eca5b35ee706","system_id":"levelo_inurba_marseille","lat":43.29553,"lon":5.42289,"is_reserved":false,"is_disabled":false,"rental_uris":{"android":"levelo://app?vid=b94fc47f-53b6-4a27-9cce-eca5b35ee706","ios":"levelo://app?vid=b94fc47f-53b6-4a27-9cce-eca5b35ee706"},"vehicle_type_id":"4","last_reported":1737209232,"current_range_meters":17200,"station_id":"ce4bhph2rcd13ifvqhdg","pricing_plan_id":"cebpf4jnsgd1na2vs0mg"},{"bike_id":"4489757e-df01-42da-be3a-27402f07b76a","system_id":"levelo_inurba_marseille","lat":43.310846,"lon":5.424326,"is_reserved":false,"is_disabled":false,"rental_uris":{"android":"levelo://app?vid=4489757e-df01-42da-be3a-27402f07b76a","ios":"levelo://app?vid=4489757e-df01-42da-be3a-27402f07b76a"},"vehicle_type_id":"4","last_reported":1737209232,"current_range_meters":30000,"station_id":"ce4bhp92rcd13ifvqhag","pricing_plan_id":"cebpf4jnsgd1na2vs0mg"},{"bike_id":"41e66b43-81c2-4cc4-b4fc-989eb06aea62","system_id":"levelo_inurba_marseille","lat":43.25118,"lon":5.40321,"is_reserved":false,"is_disabled":false,"rental_uris":{"android":"levelo://app?vid=41e66b43-81c2-4cc4-b4fc-989eb06aea62","ios":"levelo://app?vid=41e66b43-81c2-4cc4-b4fc-989eb06aea62"},"vehicle_type_id":"4","last_reported":1737209232,"current_range_meters":18000,"station_id":"ce4bhlh2rcd13ifvqgig","pricing_plan_id":"cebpf4jnsgd1na2vs0mg"},{"bike_id":"aaf9b19d-0d21-4f60-bd85-a79491ea0c6f","system_id":"levelo_inurba_marseille","lat":43.26207,"lon":5.37461,"is_reserved":false,"is_disabled":false,"rental_uris":{"android":"levelo://app?vid=aaf9b19d-0d21-4f60-bd85-a79491ea0c6f","ios":"levelo://app?vid=aaf9b19d-0d21-4f60-bd85-a79491ea0c6f"},"vehicle_type_id":"4","last_reported":1737209232,"current_range_meters":36400,"station_id":"ce4bhgp2rcd13ifvqfc0","pricing_plan_id":"cebpf4jnsgd1na2vs0mg"},{"bike_id":"a3a6e438-aca4-4452-bc79-c7078cc666bc","system_id":"levelo_inurba_marseille","lat":43.31712,"lon":5.43707,"is_reserved":false,"is_disabled":false,"rental_uris":{"android":"levelo://app?vid=a3a6e438-aca4-4452-bc79-c7078cc666bc","ios":"levelo://app?vid=a3a6e438-aca4-4452-bc79-c7078cc666bc"},"vehicle_type_id":"4","last_reported":1737209232,"current_range_meters":16400,"station_id":"ce4bhp92rcd13ifvqhcg","pricing_plan_id":"cebpf4jnsgd1na2vs0mg"},{"bike_id":"d29beac8-a618-4bab-b648-f7daf71dd18c","system_id":"levelo_inurba_marseille","lat":43.2668,"lon":5.38265,"is_reserved":false,"is_disabled":false,"rental_uris":{"android":"levelo://app?vid=d29beac8-a618-4bab-b648-f7daf71dd18c","ios":"levelo://app?vid=d29beac8-a618-4bab-b648-f7daf71dd18c"},"vehicle_type_id":"4","last_reported":1737209232,"current_range_meters":19600,"station_id":"ce4bhg92rcd13ifvqf90","pricing_plan_id":"cebpf4jnsgd1na2vs0mg"},{"bike_id":"f7c90272-7d22-44e2-8387-9cf34986af05","system_id":"levelo_inurba_marseille","lat":43.308833,"lon":5.396458,"is_reserved":false,"is_disabled":false,"rental_uris":{"android":"levelo://app?vid=f7c90272-7d22-44e2-8387-9cf34986af05","ios":"levelo://app?vid=f7c90272-7d22-44e2-8387-9cf34986af05"},"vehicle_type_id":"4","last_reported":1737209232,"current_range_meters":38800,"station_id":"ce4bh012rcd13ifvqcv0","pricing_plan_id":"cebpf4jnsgd1na2vs0mg"},{"bike_id":"fae143cc-e0b7-42e0-ac41-6327643321d0","system_id":"levelo_inurba_marseille","lat":43.25825,"lon":5.39424,"is_reserved":false,"is_disabled":false,"rental_uris":{"android":"levelo://app?vid=fae143cc-e0b7-42e0-ac41-6327643321d0","ios":"levelo://app?vid=fae143cc-e0b7-42e0-ac41-6327643321d0"},"vehicle_type_id":"4","last_reported":1737209232,"current_range_meters":32000,"station_id":"ce4bhip2rcd13ifvqft0","pricing_plan_id":"cebpf4jnsgd1na2vs0mg"},{"bike_id":"ec11ae4d-2021-4294-bd30-e659b381e2c6","system_id":"levelo_inurba_marseille","lat":43.29304,"lon":5.37421,"is_reserved":false,"is_disabled":false,"rental_uris":{"android":"levelo://app?vid=ec11ae4d-2021-4294-bd30-e659b381e2c6","ios":"levelo://app?vid=ec11ae4d-2021-4294-bd30-e659b381e2c6"},"vehicle_type_id":"4","last_reported":1737209232,"current_range_meters":20400,"station_id":"ce4bgi12rcd13ifvqb70","pricing_plan_id":"cebpf4jnsgd1na2vs0mg"},{"bike_id":"f50acf71-2c71-425a-9d6e-b4c69fb6b254","system_id":"levelo_inurba_marseille","lat":43.30911,"lon":5.36854,"is_reserved":false,"is_disabled":false,"rental_uris":{"android":"levelo://app?vid=f50acf71-2c71-425a-9d6e-b4c69fb6b254","ios":"levelo://app?vid=f50acf71-2c71-425a-9d6e-b4c69fb6b254"},"vehicle_type_id":"4","last_reported":1737209232,"current_range_meters":34000,"station_id":"ce4bgn92rcd13ifvqbvg","pricing_plan_id":"cebpf4jnsgd1na2vs0mg"},{"bike_id":"f4a4a406-b0a5-42fc-9236-32e93ac6f6b2","system_id":"levelo_inurba_marseille","lat":43.23151,"lon":5.43706,"is_reserved":false,"is_disabled":true,"rental_uris":{"android":"levelo://app?vid=f4a4a406-b0a5-42fc-9236-32e93ac6f6b2","ios":"levelo://app?vid=f4a4a406-b0a5-42fc-9236-32e93ac6f6b2"},"vehicle_type_id":"4","last_reported":1737209232,"current_range_meters":29600,"station_id":"ce4bhmp2rcd13ifvqgog","pricing_plan_id":"cebpf4jnsgd1na2vs0mg"},{"bike_id":"ef83abf5-2186-4bc4-acc7-56a63232355a","system_id":"levelo_inurba_marseille","lat":43.29695,"lon":5.37693,"is_reserved":false,"is_disabled":false,"rental_uris":{"android":"levelo://app?vid=ef83abf5-2186-4bc4-acc7-56a63232355a","ios":"levelo://app?vid=ef83abf5-2186-4bc4-acc7-56a63232355a"},"vehicle_type_id":"4","last_reported":1737209232,"current_range_meters":38800,"station_id":"ce4bgkh2rcd13ifvqbl0","pricing_plan_id":"cebpf4jnsgd1na2vs0mg"},{"bike_id":"4cb16ff0-36b9-430f-adc7-c14428aa4b35","system_id":"levelo_inurba_marseille","lat":43.27212,"lon":5.39176,"is_reserved":false,"is_disabled":false,"rental_uris":{"android":"levelo://app?vid=4cb16ff0-36b9-430f-adc7-c14428aa4b35","ios":"levelo://app?vid=4cb16ff0-36b9-430f-adc7-c14428aa4b35"},"vehicle_type_id":"4","last_reported":1737209232,"current_range_meters":30400,"station_id":"ce4bhhp2rcd13ifvqfm0","pricing_plan_id":"cebpf4jnsgd1na2vs0mg"},{"bike_id":"8746e685-1bb6-4230-95fe-2c80d2550f5b","system_id":"levelo_inurba_marseille","lat":43.27198,"lon":5.39193,"is_reserved":false,"is_disabled":false,"rental_uris":{"android":"levelo://app?vid=8746e685-1bb6-4230-95fe-2c80d2550f5b","ios":"levelo://app?vid=8746e685-1bb6-4230-95fe-2c80d2550f5b"},"vehicle_type_id":"4","last_reported":1737209232,"current_range_meters":2800,"station_id":"ce4bhhp2rcd13ifvqfm0","pricing_plan_id":"cebpf4jnsgd1na2vs0mg"},{"bike_id":"278a6ac0-9a71-4f00-9126-5f5bf2a8c2cf","system_id":"levelo_inurba_marseille","lat":43.29602,"lon":5.37731,"is_reserved":false,"is_disabled":false,"rental_uris":{"android":"levelo://app?vid=278a6ac0-9a71-4f00-9126-5f5bf2a8c2cf","ios":"levelo://app?vid=278a6ac0-9a71-4f00-9126-5f5bf2a8c2cf"},"vehicle_type_id":"4","last_reported":1737209232,"current_range_meters":38800,"station_id":"ce4bgi92rcd13ifvqb90","pricing_plan_id":"cebpf4jnsgd1na2vs0mg"},{"bike_id":"897b5451-91a4-4507-b30e-ad2e4e884264","system_id":"levelo_inurba_marseille","lat":43.26684,"lon":5.3827,"is_reserved":false,"is_disabled":false,"rental_uris":{"android":"levelo://app?vid=897b5451-91a4-4507-b30e-ad2e4e884264","ios":"levelo://app?vid=897b5451-91a4-4507-b30e-ad2e4e884264"},"vehicle_type_id":"4","last_reported":1737209232,"current_range_meters":6400,"station_id":"ce4bhg92rcd13ifvqf90","pricing_plan_id":"cebpf4jnsgd1na2vs0mg"},{"bike_id":"67c549d5-ce81-408a-a146-d43915340e7f","system_id":"levelo_inurba_marseille","lat":43.337258,"lon":5.39184,"is_reserved":false,"is_disabled":false,"rental_uris":{"android":"levelo://app?vid=67c549d5-ce81-408a-a146-d43915340e7f","ios":"levelo://app?vid=67c549d5-ce81-408a-a146-d43915340e7f"},"vehicle_type_id":"4","last_reported":1737209232,"current_range_meters":38800,"station_id":"ce4bhr92rcd13ifvqhsg","pricing_plan_id":"cebpf4jnsgd1na2vs0mg"},{"bike_id":"b58dcef5-cab9-4732-933d-c18fb8a74b04","system_id":"levelo_inurba_marseille","lat":43.23147,"lon":5.43725,"is_reserved":false,"is_disabled":true,"rental_uris":{"android":"levelo://app?vid=b58dcef5-cab9-4732-933d-c18fb8a74b04","ios":"levelo://app?vid=b58dcef5-cab9-4732-933d-c18fb8a74b04"},"vehicle_type_id":"4","last_reported":1737209232,"current_range_meters":0,"station_id":"ce4bhmp2rcd13ifvqgog","pricing_plan_id":"cebpf4jnsgd1na2vs0mg"},{"bike_id":"61fd87f1-d164-466b-8002-6d8bc57ea783","system_id":"levelo_inurba_marseille","lat":43.32371,"lon":5.40598,"is_reserved":false,"is_disabled":false,"rental_uris":{"android":"levelo://app?vid=61fd87f1-d164-466b-8002-6d8bc57ea783","ios":"levelo://app?vid=61fd87f1-d164-466b-8002-6d8bc57ea783"},"vehicle_type_id":"4","last_reported":1737209232,"current_range_meters":28400,"station_id":"ce4bhq92rcd13ifvqhjg","pricing_plan_id":"cebpf4jnsgd1na2vs0mg"},{"bike_id":"b936ffa6-9085-46b5-a0df-a1a2f8dd85b8","system_id":"levelo_inurba_marseille","lat":43.25003,"lon":5.38927,"is_reserved":false,"is_disabled":false,"rental_uris":{"android":"levelo://app?vid=b936ffa6-9085-46b5-a0df-a1a2f8dd85b8","ios":"levelo://app?vid=b936ffa6-9085-46b5-a0df-a1a2f8dd85b8"},"vehicle_type_id":"4","last_reported":1737209232,"current_range_meters":38800,"station_id":"ce4bhgp2rcd13ifvqfd0","pricing_plan_id":"cebpf4jnsgd1na2vs0mg"},{"bike_id":"2b8e66f9-42fe-4fbb-8e79-d03f64ea7468","system_id":"levelo_inurba_marseille","lat":43.30559,"lon":5.3653,"is_reserved":false,"is_disabled":false,"rental_uris":{"android":"levelo://app?vid=2b8e66f9-42fe-4fbb-8e79-d03f64ea7468","ios":"levelo://app?vid=2b8e66f9-42fe-4fbb-8e79-d03f64ea7468"},"vehicle_type_id":"4","last_reported":1737209232,"current_range_meters":16000,"station_id":"ce4bgs12rcd13ifvqcag","pricing_plan_id":"cebpf4jnsgd1na2vs0mg"},{"bike_id":"6f76b243-f090-4217-a488-cbd532747535","system_id":"levelo_inurba_marseille","lat":43.28157,"lon":5.42639,"is_reserved":false,"is_disabled":false,"rental_uris":{"android":"levelo://app?vid=6f76b243-f090-4217-a488-cbd532747535","ios":"levelo://app?vid=6f76b243-f090-4217-a488-cbd532747535"},"vehicle_type_id":"4","last_reported":1737209232,"current_range_meters":27600,"station_id":"ce4bhnh2rcd13ifvqgug","pricing_plan_id":"cebpf4jnsgd1na2vs0mg"},{"bike_id":"b9f01b13-d4af-419f-bbec-6d5fdf8de24f","system_id":"levelo_inurba_marseille","lat":43.29578,"lon":5.37514,"is_reserved":false,"is_disabled":false,"rental_uris":{"android":"levelo://app?vid=b9f01b13-d4af-419f-bbec-6d5fdf8de24f","ios":"levelo://app?vid=b9f01b13-d4af-419f-bbec-6d5fdf8de24f"},"vehicle_type_id":"4","last_reported":1737209232,"current_range_meters":36000,"station_id":"ce4bgh92rcd13ifvqb50","pricing_plan_id":"cebpf4jnsgd1na2vs0mg"},{"bike_id":"a35ccf26-582f-43bf-8774-09aa1c3befaa","system_id":"levelo_inurba_marseille","lat":43.31708,"lon":5.40451,"is_reserved":false,"is_disabled":false,"rental_uris":{"android":"levelo://app?vid=a35ccf26-582f-43bf-8774-09aa1c3befaa","ios":"levelo://app?vid=a35ccf26-582f-43bf-8774-09aa1c3befaa"},"vehicle_type_id":"4","last_reported":1737209232,"current_range_meters":11600,"station_id":"ce4bh012rcd13ifvqd00","pricing_plan_id":"cebpf4jnsgd1na2vs0mg"},{"bike_id":"37feb261-44b2-4b27-b3ae-078664007b08","system_id":"levelo_inurba_marseille","lat":43.32492,"lon":5.365663,"is_reserved":false,"is_disabled":false,"rental_uris":{"android":"levelo://app?vid=37feb261-44b2-4b27-b3ae-078664007b08","ios":"levelo://app?vid=37feb261-44b2-4b27-b3ae-078664007b08"},"vehicle_type_id":"4","last_reported":1737209232,"current_range_meters":6400,"station_id":"ce4bhs12rcd13ifvqhvg","pricing_plan_id":"cebpf4jnsgd1na2vs0mg"},{"bike_id":"49932f9c-d34f-4518-b29b-303d2b0de43c","system_id":"levelo_inurba_marseille","lat":43.30658,"lon":5.40099,"is_reserved":false,"is_disabled":false,"rental_uris":{"android":"levelo://app?vid=49932f9c-d34f-4518-b29b-303d2b0de43c","ios":"levelo://app?vid=49932f9c-d34f-4518-b29b-303d2b0de43c"},"vehicle_type_id":"4","last_reported":1737209232,"current_range_meters":38800,"station_id":"ce4bh112rcd13ifvqda0","pricing_plan_id":"cebpf4jnsgd1na2vs0mg"},{"bike_id":"56b8e9bc-f750-4815-bc98-9098414d16db","system_id":"levelo_inurba_marseille","lat":43.23201,"lon":5.3556,"is_reserved":false,"is_disabled":true,"rental_uris":{"android":"levelo://app?vid=56b8e9bc-f750-4815-bc98-9098414d16db","ios":"levelo://app?vid=56b8e9bc-f750-4815-bc98-9098414d16db"},"vehicle_type_id":"4","last_reported":1737209232,"current_range_meters":0,"station_id":"ce4bhu92rcd13ifvqi70","pricing_plan_id":"cebpf4jnsgd1na2vs0mg"},{"bike_id":"0e91b70c-1e42-4d65-a90a-72cbd40954b0","system_id":"levelo_inurba_marseille","lat":43.32363,"lon":5.36718,"is_reserved":false,"is_disabled":false,"rental_uris":{"android":"levelo://app?vid=0e91b70c-1e42-4d65-a90a-72cbd40954b0","ios":"levelo://app?vid=0e91b70c-1e42-4d65-a90a-72cbd40954b0"},"vehicle_type_id":"4","last_reported":1737209232,"current_range_meters":10800,"station_id":"ce4bhsh2rcd13ifvqi2g","pricing_plan_id":"cebpf4jnsgd1na2vs0mg"},{"bike_id":"bc3c3b41-53f8-4e5a-8bab-6546b8f1a389","system_id":"levelo_inurba_marseille","lat":43.30925,"lon":5.40146,"is_reserved":false,"is_disabled":false,"rental_uris":{"android":"levelo://app?vid=bc3c3b41-53f8-4e5a-8bab-6546b8f1a389","ios":"levelo://app?vid=bc3c3b41-53f8-4e5a-8bab-6546b8f1a389"},"vehicle_type_id":"4","last_reported":1737209232,"current_range_meters":37600,"station_id":"ce4bgvp2rcd13ifvqct0","pricing_plan_id":"cebpf4jnsgd1na2vs0mg"},{"bike_id":"94701ab1-ae36-469a-9936-e20456e40c55","system_id":"levelo_inurba_marseille","lat":43.27211,"lon":5.39191,"is_reserved":false,"is_disabled":false,"rental_uris":{"android":"levelo://app?vid=94701ab1-ae36-469a-9936-e20456e40c55","ios":"levelo://app?vid=94701ab1-ae36-469a-9936-e20456e40c55"},"vehicle_type_id":"4","last_reported":1737209232,"current_range_meters":23200,"station_id":"ce4bhhp2rcd13ifvqfm0","pricing_plan_id":"cebpf4jnsgd1na2vs0mg"},{"bike_id":"a6a2867a-8895-4725-bf15-0eb5bbe499c9","system_id":"levelo_inurba_marseille","lat":43.28974,"lon":5.37831,"is_reserved":false,"is_disabled":false,"rental_uris":{"android":"levelo://app?vid=a6a2867a-8895-4725-bf15-0eb5bbe499c9","ios":"levelo://app?vid=a6a2867a-8895-4725-bf15-0eb5bbe499c9"},"vehicle_type_id":"4","last_reported":1737209232,"current_range_meters":28800,"station_id":"ce4bh9p2rcd13ifvqed0","pricing_plan_id":"cebpf4jnsgd1na2vs0mg"},{"bike_id":"59ce8222-4a2b-4d53-bad2-7dcc47e87151","system_id":"levelo_inurba_marseille","lat":43.29274,"lon":5.36833,"is_reserved":false,"is_disabled":false,"rental_uris":{"android":"levelo://app?vid=59ce8222-4a2b-4d53-bad2-7dcc47e87151","ios":"levelo://app?vid=59ce8222-4a2b-4d53-bad2-7dcc47e87151"},"vehicle_type_id":"4","last_reported":1737209232,"current_range_meters":28000,"station_id":"ce4bhbp2rcd13ifvqesg","pricing_plan_id":"cebpf4jnsgd1na2vs0mg"},{"bike_id":"1872c41d-2b26-4fa6-b496-932a9e0e9645","system_id":"levelo_inurba_marseille","lat":43.29709,"lon":5.37677,"is_reserved":false,"is_disabled":false,"rental_uris":{"android":"levelo://app?vid=1872c41d-2b26-4fa6-b496-932a9e0e9645","ios":"levelo://app?vid=1872c41d-2b26-4fa6-b496-932a9e0e9645"},"vehicle_type_id":"4","last_reported":1737209232,"current_range_meters":38800,"station_id":"ce4bgkh2rcd13ifvqbl0","pricing_plan_id":"cebpf4jnsgd1na2vs0mg"},{"bike_id":"22465212-93af-4e0b-b803-6ee82bba56d5","system_id":"levelo_inurba_marseille","lat":43.33759,"lon":5.3748,"is_reserved":false,"is_disabled":false,"rental_uris":{"android":"levelo://app?vid=22465212-93af-4e0b-b803-6ee82bba56d5","ios":"levelo://app?vid=22465212-93af-4e0b-b803-6ee82bba56d5"},"vehicle_type_id":"4","last_reported":1737209232,"current_range_meters":32800,"station_id":"","pricing_plan_id":"cebpf4jnsgd1na2vs0mg"},{"bike_id":"275aed3e-104b-4ec9-ace4-af91fc180de6","system_id":"levelo_inurba_marseille","lat":43.31087,"lon":5.42428,"is_reserved":false,"is_disabled":false,"rental_uris":{"android":"levelo://app?vid=275aed3e-104b-4ec9-ace4-af91fc180de6","ios":"levelo://app?vid=275aed3e-104b-4ec9-ace4-af91fc180de6"},"vehicle_type_id":"4","last_reported":1737209232,"current_range_meters":39200,"station_id":"ce4bhp92rcd13ifvqhag","pricing_plan_id":"cebpf4jnsgd1na2vs0mg"},{"bike_id":"6f76c7af-d7fa-4fe1-8b48-a9904a047a30","system_id":"levelo_inurba_marseille","lat":43.28458,"lon":5.38526,"is_reserved":false,"is_disabled":false,"rental_uris":{"android":"levelo://app?vid=6f76c7af-d7fa-4fe1-8b48-a9904a047a30","ios":"levelo://app?vid=6f76c7af-d7fa-4fe1-8b48-a9904a047a30"},"vehicle_type_id":"4","last_reported":1737209232,"current_range_meters":23200,"station_id":"ce4bh8p2rcd13ifvqeb0","pricing_plan_id":"cebpf4jnsgd1na2vs0mg"},{"bike_id":"730df4ba-4772-4a0e-9e4a-bb6bde6caaeb","system_id":"levelo_inurba_marseille","lat":43.30162,"lon":5.39898,"is_reserved":false,"is_disabled":true,"rental_uris":{"android":"levelo://app?vid=730df4ba-4772-4a0e-9e4a-bb6bde6caaeb","ios":"levelo://app?vid=730df4ba-4772-4a0e-9e4a-bb6bde6caaeb"},"vehicle_type_id":"4","last_reported":1737209232,"current_range_meters":35600,"station_id":"ce4bh0h2rcd13ifvqd40","pricing_plan_id":"cebpf4jnsgd1na2vs0mg"},{"bike_id":"2669dc48-d52c-4df4-a185-3258641e3a0a","system_id":"levelo_inurba_marseille","lat":43.27974,"lon":5.38697,"is_reserved":false,"is_disabled":true,"rental_uris":{"android":"levelo://app?vid=2669dc48-d52c-4df4-a185-3258641e3a0a","ios":"levelo://app?vid=2669dc48-d52c-4df4-a185-3258641e3a0a"},"vehicle_type_id":"4","last_reported":1737209232,"current_range_meters":0,"station_id":"ce4bhg12rcd13ifvqf80","pricing_plan_id":"cebpf4jnsgd1na2vs0mg"},{"bike_id":"492bb2a4-bb26-45e4-9edc-d3f9691e28d1","system_id":"levelo_inurba_marseille","lat":43.31759,"lon":5.39018,"is_reserved":false,"is_disabled":false,"rental_uris":{"android":"levelo://app?vid=492bb2a4-bb26-45e4-9edc-d3f9691e28d1","ios":"levelo://app?vid=492bb2a4-bb26-45e4-9edc-d3f9691e28d1"},"vehicle_type_id":"4","last_reported":1737209232,"current_range_meters":36800,"station_id":"ce4bhqp2rcd13ifvqhng","pricing_plan_id":"cebpf4jnsgd1na2vs0mg"},{"bike_id":"86b1129b-34c7-4cb1-acb7-46aa8942c62c","system_id":"levelo_inurba_marseille","lat":43.23146,"lon":5.43711,"is_reserved":false,"is_disabled":true,"rental_uris":{"android":"levelo://app?vid=86b1129b-34c7-4cb1-acb7-46aa8942c62c","ios":"levelo://app?vid=86b1129b-34c7-4cb1-acb7-46aa8942c62c"},"vehicle_type_id":"4","last_reported":1737209232,"current_range_meters":0,"station_id":"ce4bhmp2rcd13ifvqgog","pricing_plan_id":"cebpf4jnsgd1na2vs0mg"},{"bike_id":"8e58b092-ba8e-4f96-9901-b2504a890168","system_id":"levelo_inurba_marseille","lat":43.28616,"lon":5.35108,"is_reserved":false,"is_disabled":false,"rental_uris":{"android":"levelo://app?vid=8e58b092-ba8e-4f96-9901-b2504a890168","ios":"levelo://app?vid=8e58b092-ba8e-4f96-9901-b2504a890168"},"vehicle_type_id":"4","last_reported":1737209232,"current_range_meters":16000,"station_id":"ce4bhch2rcd13ifvqeug","pricing_plan_id":"cebpf4jnsgd1na2vs0mg"},{"bike_id":"41890c97-d6ee-4e86-bbaf-9faa21560c72","system_id":"levelo_inurba_marseille","lat":43.30884,"lon":5.3964,"is_reserved":false,"is_disabled":false,"rental_uris":{"android":"levelo://app?vid=41890c97-d6ee-4e86-bbaf-9faa21560c72","ios":"levelo://app?vid=41890c97-d6ee-4e86-bbaf-9faa21560c72"},"vehicle_type_id":"4","last_reported":1737209232,"current_range_meters":39200,"station_id":"ce4bh012rcd13ifvqcv0","pricing_plan_id":"cebpf4jnsgd1na2vs0mg"},{"bike_id":"75d0f9e7-0b6c-4e75-bc90-ee2cb7572a2e","system_id":"levelo_inurba_marseille","lat":43.289767,"lon":5.378301,"is_reserved":false,"is_disabled":false,"rental_uris":{"android":"levelo://app?vid=75d0f9e7-0b6c-4e75-bc90-ee2cb7572a2e","ios":"levelo://app?vid=75d0f9e7-0b6c-4e75-bc90-ee2cb7572a2e"},"vehicle_type_id":"4","last_reported":1737209232,"current_range_meters":24000,"station_id":"ce4bh9p2rcd13ifvqed0","pricing_plan_id":"cebpf4jnsgd1na2vs0mg"},{"bike_id":"b663f53e-1e42-4f0c-a05f-fde242cb0184","system_id":"levelo_inurba_marseille","lat":43.28619,"lon":5.351,"is_reserved":false,"is_disabled":false,"rental_uris":{"android":"levelo://app?vid=b663f53e-1e42-4f0c-a05f-fde242cb0184","ios":"levelo://app?vid=b663f53e-1e42-4f0c-a05f-fde242cb0184"},"vehicle_type_id":"4","last_reported":1737209232,"current_range_meters":25200,"station_id":"ce4bhch2rcd13ifvqeug","pricing_plan_id":"cebpf4jnsgd1na2vs0mg"},{"bike_id":"1b92373a-2800-49a0-b20d-e3cca3811b8b","system_id":"levelo_inurba_marseille","lat":43.30463,"lon":5.37904,"is_reserved":false,"is_disabled":false,"rental_uris":{"android":"levelo://app?vid=1b92373a-2800-49a0-b20d-e3cca3811b8b","ios":"levelo://app?vid=1b92373a-2800-49a0-b20d-e3cca3811b8b"},"vehicle_type_id":"4","last_reported":1737209232,"current_range_meters":12000,"station_id":"ce4bgup2rcd13ifvqcn0","pricing_plan_id":"cebpf4jnsgd1na2vs0mg"},{"bike_id":"c6f874ed-7baa-4ffa-b8dc-93b47368c64c","system_id":"levelo_inurba_marseille","lat":43.2737,"lon":5.3624,"is_reserved":false,"is_disabled":false,"rental_uris":{"android":"levelo://app?vid=c6f874ed-7baa-4ffa-b8dc-93b47368c64c","ios":"levelo://app?vid=c6f874ed-7baa-4ffa-b8dc-93b47368c64c"},"vehicle_type_id":"4","last_reported":1737209232,"current_range_meters":38400,"station_id":"ce4bhbh2rcd13ifvqeo0","pricing_plan_id":"cebpf4jnsgd1na2vs0mg"},{"bike_id":"82eafdac-bd81-479d-a7b0-05db8ca76c26","system_id":"levelo_inurba_marseille","lat":43.25836,"lon":5.39426,"is_reserved":false,"is_disabled":true,"rental_uris":{"android":"levelo://app?vid=82eafdac-bd81-479d-a7b0-05db8ca76c26","ios":"levelo://app?vid=82eafdac-bd81-479d-a7b0-05db8ca76c26"},"vehicle_type_id":"4","last_reported":1737209232,"current_range_meters":0,"station_id":"ce4bhip2rcd13ifvqft0","pricing_plan_id":"cebpf4jnsgd1na2vs0mg"},{"bike_id":"5cf5f4cd-fea4-4d75-9a78-4d8e2b211145","system_id":"levelo_inurba_marseille","lat":43.2623,"lon":5.37425,"is_reserved":false,"is_disabled":false,"rental_uris":{"android":"levelo://app?vid=5cf5f4cd-fea4-4d75-9a78-4d8e2b211145","ios":"levelo://app?vid=5cf5f4cd-fea4-4d75-9a78-4d8e2b211145"},"vehicle_type_id":"4","last_reported":1737209232,"current_range_meters":25200,"station_id":"","pricing_plan_id":"cebpf4jnsgd1na2vs0mg"},{"bike_id":"b7bcbd2a-3d45-4104-a573-c7f4fb9913af","system_id":"levelo_inurba_marseille","lat":43.27069,"lon":5.42276,"is_reserved":false,"is_disabled":false,"rental_uris":{"android":"levelo://app?vid=b7bcbd2a-3d45-4104-a573-c7f4fb9913af","ios":"levelo://app?vid=b7bcbd2a-3d45-4104-a573-c7f4fb9913af"},"vehicle_type_id":"4","last_reported":1737209232,"current_range_meters":7200,"station_id":"ce4bhk92rcd13ifvqgb0","pricing_plan_id":"cebpf4jnsgd1na2vs0mg"},{"bike_id":"5e7d3102-3ef2-410a-882a-73962fd4d957","system_id":"levelo_inurba_marseille","lat":43.31176,"lon":5.37726,"is_reserved":false,"is_disabled":false,"rental_uris":{"android":"levelo://app?vid=5e7d3102-3ef2-410a-882a-73962fd4d957","ios":"levelo://app?vid=5e7d3102-3ef2-410a-882a-73962fd4d957"},"vehicle_type_id":"4","last_reported":1737209232,"current_range_meters":34800,"station_id":"ce4bgj92rcd13ifvqbd0","pricing_plan_id":"cebpf4jnsgd1na2vs0mg"},{"bike_id":"35deb437-7ef2-4ee7-9ea5-27ce0001ca7b","system_id":"levelo_inurba_marseille","lat":43.26068,"lon":5.39396,"is_reserved":false,"is_disabled":false,"rental_uris":{"android":"levelo://app?vid=35deb437-7ef2-4ee7-9ea5-27ce0001ca7b","ios":"levelo://app?vid=35deb437-7ef2-4ee7-9ea5-27ce0001ca7b"},"vehicle_type_id":"4","last_reported":1737209232,"current_range_meters":38000,"station_id":"ce4bhh92rcd13ifvqfj0","pricing_plan_id":"cebpf4jnsgd1na2vs0mg"},{"bike_id":"a072b78c-2700-44c6-9219-503477bf1536","system_id":"levelo_inurba_marseille","lat":43.26199,"lon":5.37451,"is_reserved":false,"is_disabled":false,"rental_uris":{"android":"levelo://app?vid=a072b78c-2700-44c6-9219-503477bf1536","ios":"levelo://app?vid=a072b78c-2700-44c6-9219-503477bf1536"},"vehicle_type_id":"4","last_reported":1737209232,"current_range_meters":28400,"station_id":"ce4bhgp2rcd13ifvqfc0","pricing_plan_id":"cebpf4jnsgd1na2vs0mg"},{"bike_id":"f2390374-e060-4fe1-bcfa-cb2711193e58","system_id":"levelo_inurba_marseille","lat":43.250948,"lon":5.395185,"is_reserved":false,"is_disabled":false,"rental_uris":{"android":"levelo://app?vid=f2390374-e060-4fe1-bcfa-cb2711193e58","ios":"levelo://app?vid=f2390374-e060-4fe1-bcfa-cb2711193e58"},"vehicle_type_id":"4","last_reported":1737209232,"current_range_meters":10000,"station_id":"ce4bhm12rcd13ifvqgkg","pricing_plan_id":"cebpf4jnsgd1na2vs0mg"},{"bike_id":"8caece16-a274-4801-83ed-17227752ce06","system_id":"levelo_inurba_marseille","lat":43.23171,"lon":5.43705,"is_reserved":false,"is_disabled":false,"rental_uris":{"android":"levelo://app?vid=8caece16-a274-4801-83ed-17227752ce06","ios":"levelo://app?vid=8caece16-a274-4801-83ed-17227752ce06"},"vehicle_type_id":"4","last_reported":1737209232,"current_range_meters":16000,"station_id":"ce4bhmp2rcd13ifvqgog","pricing_plan_id":"cebpf4jnsgd1na2vs0mg"},{"bike_id":"0305f394-c880-4930-a94c-8281d7145570","system_id":"levelo_inurba_marseille","lat":43.27374,"lon":5.3626,"is_reserved":false,"is_disabled":false,"rental_uris":{"android":"levelo://app?vid=0305f394-c880-4930-a94c-8281d7145570","ios":"levelo://app?vid=0305f394-c880-4930-a94c-8281d7145570"},"vehicle_type_id":"4","last_reported":1737209232,"current_range_meters":26800,"station_id":"","pricing_plan_id":"cebpf4jnsgd1na2vs0mg"},{"bike_id":"8626833d-4f50-47a8-9a52-5d912ba997ae","system_id":"levelo_inurba_marseille","lat":43.27368,"lon":5.36255,"is_reserved":false,"is_disabled":false,"rental_uris":{"android":"levelo://app?vid=8626833d-4f50-47a8-9a52-5d912ba997ae","ios":"levelo://app?vid=8626833d-4f50-47a8-9a52-5d912ba997ae"},"vehicle_type_id":"4","last_reported":1737209232,"current_range_meters":26000,"station_id":"ce4bhbh2rcd13ifvqeo0","pricing_plan_id":"cebpf4jnsgd1na2vs0mg"},{"bike_id":"aa46790d-0450-4918-bc1d-99d07bd2f297","system_id":"levelo_inurba_marseille","lat":43.2742,"lon":5.39407,"is_reserved":false,"is_disabled":false,"rental_uris":{"android":"levelo://app?vid=aa46790d-0450-4918-bc1d-99d07bd2f297","ios":"levelo://app?vid=aa46790d-0450-4918-bc1d-99d07bd2f297"},"vehicle_type_id":"4","last_reported":1737209232,"current_range_meters":37600,"station_id":"ce4bhdp2rcd13ifvqf20","pricing_plan_id":"cebpf4jnsgd1na2vs0mg"},{"bike_id":"dcefe015-c479-4f82-90e3-a1f4b28ec92b","system_id":"levelo_inurba_marseille","lat":43.29789,"lon":5.38102,"is_reserved":false,"is_disabled":false,"rental_uris":{"android":"levelo://app?vid=dcefe015-c479-4f82-90e3-a1f4b28ec92b","ios":"levelo://app?vid=dcefe015-c479-4f82-90e3-a1f4b28ec92b"},"vehicle_type_id":"4","last_reported":1737209232,"current_range_meters":21600,"station_id":"ce4bgip2rcd13ifvqbb0","pricing_plan_id":"cebpf4jnsgd1na2vs0mg"},{"bike_id":"c4ab3838-1d61-4e29-a39f-fbac00aa12d4","system_id":"levelo_inurba_marseille","lat":43.3122,"lon":5.36836,"is_reserved":false,"is_disabled":false,"rental_uris":{"android":"levelo://app?vid=c4ab3838-1d61-4e29-a39f-fbac00aa12d4","ios":"levelo://app?vid=c4ab3838-1d61-4e29-a39f-fbac00aa12d4"},"vehicle_type_id":"4","last_reported":1737209232,"current_range_meters":38000,"station_id":"ce4bgl92rcd13ifvqbq0","pricing_plan_id":"cebpf4jnsgd1na2vs0mg"},{"bike_id":"4697b5a1-a9b5-4890-8123-a290b2fc91c7","system_id":"levelo_inurba_marseille","lat":43.3246,"lon":5.36584,"is_reserved":false,"is_disabled":false,"rental_uris":{"android":"levelo://app?vid=4697b5a1-a9b5-4890-8123-a290b2fc91c7","ios":"levelo://app?vid=4697b5a1-a9b5-4890-8123-a290b2fc91c7"},"vehicle_type_id":"4","last_reported":1737209232,"current_range_meters":12400,"station_id":"ce4bhs12rcd13ifvqhvg","pricing_plan_id":"cebpf4jnsgd1na2vs0mg"},{"bike_id":"19842dcc-d522-4697-9c1c-8c5555390c23","system_id":"levelo_inurba_marseille","lat":43.2656,"lon":5.37282,"is_reserved":false,"is_disabled":true,"rental_uris":{"android":"levelo://app?vid=19842dcc-d522-4697-9c1c-8c5555390c23","ios":"levelo://app?vid=19842dcc-d522-4697-9c1c-8c5555390c23"},"vehicle_type_id":"4","last_reported":1737209232,"current_range_meters":800,"station_id":"ce4bhg12rcd13ifvqf70","pricing_plan_id":"cebpf4jnsgd1na2vs0mg"},{"bike_id":"a95248e8-7ba2-479e-9b5c-9fb4d8e98c2b","system_id":"levelo_inurba_marseille","lat":43.28096,"lon":5.42187,"is_reserved":false,"is_disabled":true,"rental_uris":{"android":"levelo://app?vid=a95248e8-7ba2-479e-9b5c-9fb4d8e98c2b","ios":"levelo://app?vid=a95248e8-7ba2-479e-9b5c-9fb4d8e98c2b"},"vehicle_type_id":"4","last_reported":1737209232,"current_range_meters":0,"station_id":"","pricing_plan_id":"cebpf4jnsgd1na2vs0mg"},{"bike_id":"246f2aa1-d855-40ee-b8e2-0e541013d632","system_id":"levelo_inurba_marseille","lat":43.27827,"lon":5.40724,"is_reserved":false,"is_disabled":true,"rental_uris":{"android":"levelo://app?vid=246f2aa1-d855-40ee-b8e2-0e541013d632","ios":"levelo://app?vid=246f2aa1-d855-40ee-b8e2-0e541013d632"},"vehicle_type_id":"4","last_reported":1737209232,"current_range_meters":400,"station_id":"ce4bhnh2rcd13ifvqgtg","pricing_plan_id":"cebpf4jnsgd1na2vs0mg"},{"bike_id":"99a6c1a0-67e9-4a5e-8c3b-5d12fae3dd76","system_id":"levelo_inurba_marseille","lat":43.2991,"lon":5.37481,"is_reserved":false,"is_disabled":false,"rental_uris":{"android":"levelo://app?vid=99a6c1a0-67e9-4a5e-8c3b-5d12fae3dd76","ios":"levelo://app?vid=99a6c1a0-67e9-4a5e-8c3b-5d12fae3dd76"},"vehicle_type_id":"4","last_reported":1737209232,"current_range_meters":10000,"station_id":"ce4bgjh2rcd13ifvqbg0","pricing_plan_id":"cebpf4jnsgd1na2vs0mg"},{"bike_id":"225801da-e2fe-487f-b8db-4a017ad7aa14","system_id":"levelo_inurba_marseille","lat":43.30605,"lon":5.372,"is_reserved":false,"is_disabled":false,"rental_uris":{"android":"levelo://app?vid=225801da-e2fe-487f-b8db-4a017ad7aa14","ios":"levelo://app?vid=225801da-e2fe-487f-b8db-4a017ad7aa14"},"vehicle_type_id":"4","last_reported":1737209232,"current_range_meters":37600,"station_id":"ce4bgqh2rcd13ifvqc4g","pricing_plan_id":"cebpf4jnsgd1na2vs0mg"},{"bike_id":"537b717e-5d4b-4fdc-9fc8-722f2e0dd67f","system_id":"levelo_inurba_marseille","lat":43.29075,"lon":5.38136,"is_reserved":false,"is_disabled":false,"rental_uris":{"android":"levelo://app?vid=537b717e-5d4b-4fdc-9fc8-722f2e0dd67f","ios":"levelo://app?vid=537b717e-5d4b-4fdc-9fc8-722f2e0dd67f"},"vehicle_type_id":"4","last_reported":1737209232,"current_range_meters":22000,"station_id":"ce4bh512rcd13ifvqe2g","pricing_plan_id":"cebpf4jnsgd1na2vs0mg"},{"bike_id":"e4b67e29-1aeb-4d72-9c96-fdd0079090dc","system_id":"levelo_inurba_marseille","lat":43.2742,"lon":5.39411,"is_reserved":false,"is_disabled":false,"rental_uris":{"android":"levelo://app?vid=e4b67e29-1aeb-4d72-9c96-fdd0079090dc","ios":"levelo://app?vid=e4b67e29-1aeb-4d72-9c96-fdd0079090dc"},"vehicle_type_id":"4","last_reported":1737209232,"current_range_meters":20800,"station_id":"ce4bhdp2rcd13ifvqf20","pricing_plan_id":"cebpf4jnsgd1na2vs0mg"},{"bike_id":"8494f01d-6f97-4ae6-a516-bdb7ba1e69c7","system_id":"levelo_inurba_marseille","lat":43.3061,"lon":5.37228,"is_reserved":false,"is_disabled":false,"rental_uris":{"android":"levelo://app?vid=8494f01d-6f97-4ae6-a516-bdb7ba1e69c7","ios":"levelo://app?vid=8494f01d-6f97-4ae6-a516-bdb7ba1e69c7"},"vehicle_type_id":"4","last_reported":1737209232,"current_range_meters":38800,"station_id":"ce4bgqh2rcd13ifvqc4g","pricing_plan_id":"cebpf4jnsgd1na2vs0mg"},{"bike_id":"7383474c-b45a-4438-837c-99d7ae866fe7","system_id":"levelo_inurba_marseille","lat":43.26064,"lon":5.39396,"is_reserved":false,"is_disabled":false,"rental_uris":{"android":"levelo://app?vid=7383474c-b45a-4438-837c-99d7ae866fe7","ios":"levelo://app?vid=7383474c-b45a-4438-837c-99d7ae866fe7"},"vehicle_type_id":"4","last_reported":1737209232,"current_range_meters":38000,"station_id":"ce4bhh92rcd13ifvqfj0","pricing_plan_id":"cebpf4jnsgd1na2vs0mg"},{"bike_id":"57ee26b8-38d7-4e6a-b76f-969492568a58","system_id":"levelo_inurba_marseille","lat":43.26943,"lon":5.4025,"is_reserved":false,"is_disabled":false,"rental_uris":{"android":"levelo://app?vid=57ee26b8-38d7-4e6a-b76f-969492568a58","ios":"levelo://app?vid=57ee26b8-38d7-4e6a-b76f-969492568a58"},"vehicle_type_id":"4","last_reported":1737209232,"current_range_meters":37600,"station_id":"cjm6bp8fraef2m0cb0m0","pricing_plan_id":"cebpf4jnsgd1na2vs0mg"},{"bike_id":"0ec45a9a-7197-48d7-aa43-dcad382dfff0","system_id":"levelo_inurba_marseille","lat":43.30558,"lon":5.36526,"is_reserved":false,"is_disabled":false,"rental_uris":{"android":"levelo://app?vid=0ec45a9a-7197-48d7-aa43-dcad382dfff0","ios":"levelo://app?vid=0ec45a9a-7197-48d7-aa43-dcad382dfff0"},"vehicle_type_id":"4","last_reported":1737209232,"current_range_meters":24800,"station_id":"ce4bgs12rcd13ifvqcag","pricing_plan_id":"cebpf4jnsgd1na2vs0mg"},{"bike_id":"9657151a-f0ed-4e70-a62b-590fe85280be","system_id":"levelo_inurba_marseille","lat":43.29358,"lon":5.37861,"is_reserved":false,"is_disabled":false,"rental_uris":{"android":"levelo://app?vid=9657151a-f0ed-4e70-a62b-590fe85280be","ios":"levelo://app?vid=9657151a-f0ed-4e70-a62b-590fe85280be"},"vehicle_type_id":"4","last_reported":1737209232,"current_range_meters":30000,"station_id":"ce4bgjh2rcd13ifvqbf0","pricing_plan_id":"cebpf4jnsgd1na2vs0mg"},{"bike_id":"ebaf160e-4d10-493d-8340-00bc232153f4","system_id":"levelo_inurba_marseille","lat":43.29583,"lon":5.37519,"is_reserved":false,"is_disabled":false,"rental_uris":{"android":"levelo://app?vid=ebaf160e-4d10-493d-8340-00bc232153f4","ios":"levelo://app?vid=ebaf160e-4d10-493d-8340-00bc232153f4"},"vehicle_type_id":"4","last_reported":1737209232,"current_range_meters":20800,"station_id":"ce4bgh92rcd13ifvqb50","pricing_plan_id":"cebpf4jnsgd1na2vs0mg"},{"bike_id":"0d5bf58b-8962-4322-87c4-754920ec04ac","system_id":"levelo_inurba_marseille","lat":43.31259,"lon":5.38718,"is_reserved":false,"is_disabled":true,"rental_uris":{"android":"levelo://app?vid=0d5bf58b-8962-4322-87c4-754920ec04ac","ios":"levelo://app?vid=0d5bf58b-8962-4322-87c4-754920ec04ac"},"vehicle_type_id":"4","last_reported":1737209232,"current_range_meters":36800,"station_id":"","pricing_plan_id":"cebpf4jnsgd1na2vs0mg"},{"bike_id":"0698110d-7a09-455a-9b77-c8d843738c53","system_id":"levelo_inurba_marseille","lat":43.28401,"lon":5.34993,"is_reserved":false,"is_disabled":false,"rental_uris":{"android":"levelo://app?vid=0698110d-7a09-455a-9b77-c8d843738c53","ios":"levelo://app?vid=0698110d-7a09-455a-9b77-c8d843738c53"},"vehicle_type_id":"4","last_reported":1737209232,"current_range_meters":36400,"station_id":"ce4bhbh2rcd13ifvqepg","pricing_plan_id":"cebpf4jnsgd1na2vs0mg"},{"bike_id":"01dfba90-3151-4a28-9053-4eef51191490","system_id":"levelo_inurba_marseille","lat":43.30799,"lon":5.38151,"is_reserved":false,"is_disabled":false,"rental_uris":{"android":"levelo://app?vid=01dfba90-3151-4a28-9053-4eef51191490","ios":"levelo://app?vid=01dfba90-3151-4a28-9053-4eef51191490"},"vehicle_type_id":"4","last_reported":1737209232,"current_range_meters":39200,"station_id":"ce4bgt12rcd13ifvqce0","pricing_plan_id":"cebpf4jnsgd1na2vs0mg"},{"bike_id":"94770b67-adeb-4227-a049-e190b2cc0f97","system_id":"levelo_inurba_marseille","lat":43.27221,"lon":5.39181,"is_reserved":false,"is_disabled":false,"rental_uris":{"android":"levelo://app?vid=94770b67-adeb-4227-a049-e190b2cc0f97","ios":"levelo://app?vid=94770b67-adeb-4227-a049-e190b2cc0f97"},"vehicle_type_id":"4","last_reported":1737209232,"current_range_meters":32000,"station_id":"ce4bhhp2rcd13ifvqfm0","pricing_plan_id":"cebpf4jnsgd1na2vs0mg"},{"bike_id":"fe90f7a6-3920-456a-9451-50d213b7000f","system_id":"levelo_inurba_marseille","lat":43.28475,"lon":5.38441,"is_reserved":false,"is_disabled":true,"rental_uris":{"android":"levelo://app?vid=fe90f7a6-3920-456a-9451-50d213b7000f","ios":"levelo://app?vid=fe90f7a6-3920-456a-9451-50d213b7000f"},"vehicle_type_id":"4","last_reported":1737209232,"current_range_meters":36800,"station_id":"ce4bh512rcd13ifvqe3g","pricing_plan_id":"cebpf4jnsgd1na2vs0mg"},{"bike_id":"3958b03d-b591-4d79-80a4-059614f22dc2","system_id":"levelo_inurba_marseille","lat":43.29902,"lon":5.43636,"is_reserved":false,"is_disabled":false,"rental_uris":{"android":"levelo://app?vid=3958b03d-b591-4d79-80a4-059614f22dc2","ios":"levelo://app?vid=3958b03d-b591-4d79-80a4-059614f22dc2"},"vehicle_type_id":"4","last_reported":1737209232,"current_range_meters":34000,"station_id":"ce4bhpp2rcd13ifvqhfg","pricing_plan_id":"cebpf4jnsgd1na2vs0mg"},{"bike_id":"d68d4c6c-ace6-47ca-a78f-51f9adc5b848","system_id":"levelo_inurba_marseille","lat":43.26228,"lon":5.40463,"is_reserved":false,"is_disabled":false,"rental_uris":{"android":"levelo://app?vid=d68d4c6c-ace6-47ca-a78f-51f9adc5b848","ios":"levelo://app?vid=d68d4c6c-ace6-47ca-a78f-51f9adc5b848"},"vehicle_type_id":"4","last_reported":1737209232,"current_range_meters":8800,"station_id":"","pricing_plan_id":"cebpf4jnsgd1na2vs0mg"},{"bike_id":"79f03200-6149-42da-ae7e-1c8004df8f43","system_id":"levelo_inurba_marseille","lat":43.28004,"lon":5.40005,"is_reserved":false,"is_disabled":false,"rental_uris":{"android":"levelo://app?vid=79f03200-6149-42da-ae7e-1c8004df8f43","ios":"levelo://app?vid=79f03200-6149-42da-ae7e-1c8004df8f43"},"vehicle_type_id":"4","last_reported":1737209232,"current_range_meters":38400,"station_id":"ce4bho92rcd13ifvqh4g","pricing_plan_id":"cebpf4jnsgd1na2vs0mg"},{"bike_id":"30c55592-5c2d-4766-9ae9-6f1e5192194b","system_id":"levelo_inurba_marseille","lat":43.30781,"lon":5.37659,"is_reserved":false,"is_disabled":true,"rental_uris":{"android":"levelo://app?vid=30c55592-5c2d-4766-9ae9-6f1e5192194b","ios":"levelo://app?vid=30c55592-5c2d-4766-9ae9-6f1e5192194b"},"vehicle_type_id":"4","last_reported":1737209232,"current_range_meters":0,"station_id":"ce4bgv92rcd13ifvqcq0","pricing_plan_id":"cebpf4jnsgd1na2vs0mg"},{"bike_id":"bdbeb144-0764-43e9-a5ac-24421d870958","system_id":"levelo_inurba_marseille","lat":43.22944,"lon":5.35371,"is_reserved":false,"is_disabled":false,"rental_uris":{"android":"levelo://app?vid=bdbeb144-0764-43e9-a5ac-24421d870958","ios":"levelo://app?vid=bdbeb144-0764-43e9-a5ac-24421d870958"},"vehicle_type_id":"4","last_reported":1737209232,"current_range_meters":10000,"station_id":"cpo3532slgdg3j2ikp40","pricing_plan_id":"cebpf4jnsgd1na2vs0mg"},{"bike_id":"b205d6b8-894d-4fbe-b662-7e7cffdad903","system_id":"levelo_inurba_marseille","lat":43.305356,"lon":5.365242,"is_reserved":false,"is_disabled":false,"rental_uris":{"android":"levelo://app?vid=b205d6b8-894d-4fbe-b662-7e7cffdad903","ios":"levelo://app?vid=b205d6b8-894d-4fbe-b662-7e7cffdad903"},"vehicle_type_id":"4","last_reported":1737209232,"current_range_meters":38000,"station_id":"ce4bgs12rcd13ifvqcag","pricing_plan_id":"cebpf4jnsgd1na2vs0mg"},{"bike_id":"a9a0e60f-8e94-490a-988c-5a9cfc45d626","system_id":"levelo_inurba_marseille","lat":43.24167,"lon":5.36406,"is_reserved":false,"is_disabled":false,"rental_uris":{"android":"levelo://app?vid=a9a0e60f-8e94-490a-988c-5a9cfc45d626","ios":"levelo://app?vid=a9a0e60f-8e94-490a-988c-5a9cfc45d626"},"vehicle_type_id":"4","last_reported":1737209232,"current_range_meters":10800,"station_id":"cpo36qri1sfpv3e86is0","pricing_plan_id":"cebpf4jnsgd1na2vs0mg"},{"bike_id":"922f6f3d-c9d7-4a58-8a3d-007db77d7920","system_id":"levelo_inurba_marseille","lat":43.24549,"lon":5.39532,"is_reserved":false,"is_disabled":false,"rental_uris":{"android":"levelo://app?vid=922f6f3d-c9d7-4a58-8a3d-007db77d7920","ios":"levelo://app?vid=922f6f3d-c9d7-4a58-8a3d-007db77d7920"},"vehicle_type_id":"4","last_reported":1737209232,"current_range_meters":16400,"station_id":"ce4bhlp2rcd13ifvqgjg","pricing_plan_id":"cebpf4jnsgd1na2vs0mg"},{"bike_id":"c08aa9a5-9070-4550-b495-b813c9c89de5","system_id":"levelo_inurba_marseille","lat":43.32303,"lon":5.3826,"is_reserved":false,"is_disabled":false,"rental_uris":{"android":"levelo://app?vid=c08aa9a5-9070-4550-b495-b813c9c89de5","ios":"levelo://app?vid=c08aa9a5-9070-4550-b495-b813c9c89de5"},"vehicle_type_id":"4","last_reported":1737209232,"current_range_meters":18000,"station_id":"ce4bhr12rcd13ifvqhqg","pricing_plan_id":"cebpf4jnsgd1na2vs0mg"},{"bike_id":"11cd2222-dd89-422a-913d-4cdc05e996df","system_id":"levelo_inurba_marseille","lat":43.2936,"lon":5.37837,"is_reserved":false,"is_disabled":false,"rental_uris":{"android":"levelo://app?vid=11cd2222-dd89-422a-913d-4cdc05e996df","ios":"levelo://app?vid=11cd2222-dd89-422a-913d-4cdc05e996df"},"vehicle_type_id":"4","last_reported":1737209232,"current_range_meters":38800,"station_id":"ce4bgjh2rcd13ifvqbf0","pricing_plan_id":"cebpf4jnsgd1na2vs0mg"},{"bike_id":"76dbf6ef-b4a8-4cef-8918-462b67116819","system_id":"levelo_inurba_marseille","lat":43.32281,"lon":5.38274,"is_reserved":false,"is_disabled":false,"rental_uris":{"android":"levelo://app?vid=76dbf6ef-b4a8-4cef-8918-462b67116819","ios":"levelo://app?vid=76dbf6ef-b4a8-4cef-8918-462b67116819"},"vehicle_type_id":"4","last_reported":1737209232,"current_range_meters":6400,"station_id":"ce4bhr12rcd13ifvqhqg","pricing_plan_id":"cebpf4jnsgd1na2vs0mg"},{"bike_id":"670ccd3a-4687-4b7a-98a3-5e94c19c58f1","system_id":"levelo_inurba_marseille","lat":43.24653,"lon":5.3889,"is_reserved":false,"is_disabled":false,"rental_uris":{"android":"levelo://app?vid=670ccd3a-4687-4b7a-98a3-5e94c19c58f1","ios":"levelo://app?vid=670ccd3a-4687-4b7a-98a3-5e94c19c58f1"},"vehicle_type_id":"4","last_reported":1737209232,"current_range_meters":12400,"station_id":"ce4bhg12rcd13ifvqf60","pricing_plan_id":"cebpf4jnsgd1na2vs0mg"},{"bike_id":"2a456570-dda5-4513-90d7-29300d60015b","system_id":"levelo_inurba_marseille","lat":43.2721,"lon":5.39176,"is_reserved":false,"is_disabled":false,"rental_uris":{"android":"levelo://app?vid=2a456570-dda5-4513-90d7-29300d60015b","ios":"levelo://app?vid=2a456570-dda5-4513-90d7-29300d60015b"},"vehicle_type_id":"4","last_reported":1737209232,"current_range_meters":38800,"station_id":"ce4bhhp2rcd13ifvqfm0","pricing_plan_id":"cebpf4jnsgd1na2vs0mg"},{"bike_id":"4dcfd8f5-b3ab-4034-82ee-58b53bda5c80","system_id":"levelo_inurba_marseille","lat":43.27322,"lon":5.39067,"is_reserved":false,"is_disabled":false,"rental_uris":{"android":"levelo://app?vid=4dcfd8f5-b3ab-4034-82ee-58b53bda5c80","ios":"levelo://app?vid=4dcfd8f5-b3ab-4034-82ee-58b53bda5c80"},"vehicle_type_id":"4","last_reported":1737209232,"current_range_meters":32400,"station_id":"ce4bhgp2rcd13ifvqfe0","pricing_plan_id":"cebpf4jnsgd1na2vs0mg"},{"bike_id":"95d5fca7-dfda-4bcf-a78d-e81265e6be5f","system_id":"levelo_inurba_marseille","lat":43.30903,"lon":5.36853,"is_reserved":false,"is_disabled":false,"rental_uris":{"android":"levelo://app?vid=95d5fca7-dfda-4bcf-a78d-e81265e6be5f","ios":"levelo://app?vid=95d5fca7-dfda-4bcf-a78d-e81265e6be5f"},"vehicle_type_id":"4","last_reported":1737209232,"current_range_meters":38400,"station_id":"ce4bgn92rcd13ifvqbvg","pricing_plan_id":"cebpf4jnsgd1na2vs0mg"},{"bike_id":"380aaf76-d91d-4dfe-8371-252d4636319e","system_id":"levelo_inurba_marseille","lat":43.28935,"lon":5.39641,"is_reserved":false,"is_disabled":false,"rental_uris":{"android":"levelo://app?vid=380aaf76-d91d-4dfe-8371-252d4636319e","ios":"levelo://app?vid=380aaf76-d91d-4dfe-8371-252d4636319e"},"vehicle_type_id":"4","last_reported":1737209232,"current_range_meters":18000,"station_id":"ce4bh3h2rcd13ifvqdn0","pricing_plan_id":"cebpf4jnsgd1na2vs0mg"},{"bike_id":"3d65fd16-1925-4b01-9297-282269f47192","system_id":"levelo_inurba_marseille","lat":43.31722,"lon":5.42393,"is_reserved":false,"is_disabled":false,"rental_uris":{"android":"levelo://app?vid=3d65fd16-1925-4b01-9297-282269f47192","ios":"levelo://app?vid=3d65fd16-1925-4b01-9297-282269f47192"},"vehicle_type_id":"4","last_reported":1737209232,"current_range_meters":20400,"station_id":"ce4bhp92rcd13ifvqhbg","pricing_plan_id":"cebpf4jnsgd1na2vs0mg"},{"bike_id":"b01f54eb-9f9a-4e8b-a087-eef886a716c0","system_id":"levelo_inurba_marseille","lat":43.28345,"lon":5.38112,"is_reserved":false,"is_disabled":false,"rental_uris":{"android":"levelo://app?vid=b01f54eb-9f9a-4e8b-a087-eef886a716c0","ios":"levelo://app?vid=b01f54eb-9f9a-4e8b-a087-eef886a716c0"},"vehicle_type_id":"4","last_reported":1737209232,"current_range_meters":38000,"station_id":"ce4bh412rcd13ifvqdr0","pricing_plan_id":"cebpf4jnsgd1na2vs0mg"},{"bike_id":"f5863b18-13a1-4c6e-92de-5668ea912ad3","system_id":"levelo_inurba_marseille","lat":43.26265,"lon":5.40492,"is_reserved":false,"is_disabled":true,"rental_uris":{"android":"levelo://app?vid=f5863b18-13a1-4c6e-92de-5668ea912ad3","ios":"levelo://app?vid=f5863b18-13a1-4c6e-92de-5668ea912ad3"},"vehicle_type_id":"4","last_reported":1737209232,"current_range_meters":0,"station_id":"","pricing_plan_id":"cebpf4jnsgd1na2vs0mg"},{"bike_id":"184e5477-37dc-439b-b02c-6af800fda570","system_id":"levelo_inurba_marseille","lat":43.2732,"lon":5.39067,"is_reserved":false,"is_disabled":false,"rental_uris":{"android":"levelo://app?vid=184e5477-37dc-439b-b02c-6af800fda570","ios":"levelo://app?vid=184e5477-37dc-439b-b02c-6af800fda570"},"vehicle_type_id":"4","last_reported":1737209232,"current_range_meters":30400,"station_id":"ce4bhgp2rcd13ifvqfe0","pricing_plan_id":"cebpf4jnsgd1na2vs0mg"},{"bike_id":"f0a88b38-69cb-41f6-8083-7034dee10300","system_id":"levelo_inurba_marseille","lat":43.27206,"lon":5.39182,"is_reserved":false,"is_disabled":false,"rental_uris":{"android":"levelo://app?vid=f0a88b38-69cb-41f6-8083-7034dee10300","ios":"levelo://app?vid=f0a88b38-69cb-41f6-8083-7034dee10300"},"vehicle_type_id":"4","last_reported":1737209232,"current_range_meters":5600,"station_id":"ce4bhhp2rcd13ifvqfm0","pricing_plan_id":"cebpf4jnsgd1na2vs0mg"},{"bike_id":"6909cd70-af15-40e5-82f2-dd275990960e","system_id":"levelo_inurba_marseille","lat":43.27613,"lon":5.36106,"is_reserved":false,"is_disabled":false,"rental_uris":{"android":"levelo://app?vid=6909cd70-af15-40e5-82f2-dd275990960e","ios":"levelo://app?vid=6909cd70-af15-40e5-82f2-dd275990960e"},"vehicle_type_id":"4","last_reported":1737209232,"current_range_meters":16800,"station_id":"ce4bgj92rcd13ifvqbe0","pricing_plan_id":"cebpf4jnsgd1na2vs0mg"},{"bike_id":"a5fb3db4-8ed5-4e80-8660-493e868dd8c9","system_id":"levelo_inurba_marseille","lat":43.26556,"lon":5.37288,"is_reserved":false,"is_disabled":false,"rental_uris":{"android":"levelo://app?vid=a5fb3db4-8ed5-4e80-8660-493e868dd8c9","ios":"levelo://app?vid=a5fb3db4-8ed5-4e80-8660-493e868dd8c9"},"vehicle_type_id":"4","last_reported":1737209232,"current_range_meters":14000,"station_id":"ce4bhg12rcd13ifvqf70","pricing_plan_id":"cebpf4jnsgd1na2vs0mg"},{"bike_id":"46686b70-f375-4947-b209-2f4548c2edcf","system_id":"levelo_inurba_marseille","lat":43.28875,"lon":5.394535,"is_reserved":false,"is_disabled":true,"rental_uris":{"android":"levelo://app?vid=46686b70-f375-4947-b209-2f4548c2edcf","ios":"levelo://app?vid=46686b70-f375-4947-b209-2f4548c2edcf"},"vehicle_type_id":"4","last_reported":1737209232,"current_range_meters":0,"station_id":"","pricing_plan_id":"cebpf4jnsgd1na2vs0mg"},{"bike_id":"6cb6dd28-67b0-48c9-8050-38ba6750d7d9","system_id":"levelo_inurba_marseille","lat":43.29792,"lon":5.38102,"is_reserved":false,"is_disabled":false,"rental_uris":{"android":"levelo://app?vid=6cb6dd28-67b0-48c9-8050-38ba6750d7d9","ios":"levelo://app?vid=6cb6dd28-67b0-48c9-8050-38ba6750d7d9"},"vehicle_type_id":"4","last_reported":1737209232,"current_range_meters":29600,"station_id":"ce4bgip2rcd13ifvqbb0","pricing_plan_id":"cebpf4jnsgd1na2vs0mg"},{"bike_id":"b05ae610-20c1-45a1-b652-b1686c6a21ba","system_id":"levelo_inurba_marseille","lat":43.32298,"lon":5.38273,"is_reserved":false,"is_disabled":false,"rental_uris":{"android":"levelo://app?vid=b05ae610-20c1-45a1-b652-b1686c6a21ba","ios":"levelo://app?vid=b05ae610-20c1-45a1-b652-b1686c6a21ba"},"vehicle_type_id":"4","last_reported":1737209232,"current_range_meters":38400,"station_id":"ce4bhr12rcd13ifvqhqg","pricing_plan_id":"cebpf4jnsgd1na2vs0mg"},{"bike_id":"cf798369-c278-4282-9a3c-5e6608aef886","system_id":"levelo_inurba_marseille","lat":43.28618,"lon":5.35107,"is_reserved":false,"is_disabled":true,"rental_uris":{"android":"levelo://app?vid=cf798369-c278-4282-9a3c-5e6608aef886","ios":"levelo://app?vid=cf798369-c278-4282-9a3c-5e6608aef886"},"vehicle_type_id":"4","last_reported":1737209232,"current_range_meters":800,"station_id":"ce4bhch2rcd13ifvqeug","pricing_plan_id":"cebpf4jnsgd1na2vs0mg"},{"bike_id":"982c5e56-6f26-48c1-aefd-d611c3ea6ec0","system_id":"levelo_inurba_marseille","lat":43.2316,"lon":5.43706,"is_reserved":false,"is_disabled":false,"rental_uris":{"android":"levelo://app?vid=982c5e56-6f26-48c1-aefd-d611c3ea6ec0","ios":"levelo://app?vid=982c5e56-6f26-48c1-aefd-d611c3ea6ec0"},"vehicle_type_id":"4","last_reported":1737209232,"current_range_meters":8800,"station_id":"ce4bhmp2rcd13ifvqgog","pricing_plan_id":"cebpf4jnsgd1na2vs0mg"},{"bike_id":"a502fac6-fc2c-47d3-b5a0-b0b0d12c1a71","system_id":"levelo_inurba_marseille","lat":43.30787,"lon":5.38151,"is_reserved":false,"is_disabled":true,"rental_uris":{"android":"levelo://app?vid=a502fac6-fc2c-47d3-b5a0-b0b0d12c1a71","ios":"levelo://app?vid=a502fac6-fc2c-47d3-b5a0-b0b0d12c1a71"},"vehicle_type_id":"4","last_reported":1737209232,"current_range_meters":6400,"station_id":"ce4bgt12rcd13ifvqce0","pricing_plan_id":"cebpf4jnsgd1na2vs0mg"},{"bike_id":"746027a5-9bdb-4aca-a2ff-849afbe49d3e","system_id":"levelo_inurba_marseille","lat":43.26956,"lon":5.38638,"is_reserved":false,"is_disabled":false,"rental_uris":{"android":"levelo://app?vid=746027a5-9bdb-4aca-a2ff-849afbe49d3e","ios":"levelo://app?vid=746027a5-9bdb-4aca-a2ff-849afbe49d3e"},"vehicle_type_id":"4","last_reported":1737209232,"current_range_meters":38800,"station_id":"ce4bhh92rcd13ifvqfh0","pricing_plan_id":"cebpf4jnsgd1na2vs0mg"},{"bike_id":"aee77450-e637-4195-bb0f-578307372c59","system_id":"levelo_inurba_marseille","lat":43.29897,"lon":5.43649,"is_reserved":false,"is_disabled":false,"rental_uris":{"android":"levelo://app?vid=aee77450-e637-4195-bb0f-578307372c59","ios":"levelo://app?vid=aee77450-e637-4195-bb0f-578307372c59"},"vehicle_type_id":"4","last_reported":1737209232,"current_range_meters":37600,"station_id":"ce4bhpp2rcd13ifvqhfg","pricing_plan_id":"cebpf4jnsgd1na2vs0mg"},{"bike_id":"6a0bd30f-92e9-4498-8e2c-7b6717170252","system_id":"levelo_inurba_marseille","lat":43.27202,"lon":5.39176,"is_reserved":false,"is_disabled":false,"rental_uris":{"android":"levelo://app?vid=6a0bd30f-92e9-4498-8e2c-7b6717170252","ios":"levelo://app?vid=6a0bd30f-92e9-4498-8e2c-7b6717170252"},"vehicle_type_id":"4","last_reported":1737209232,"current_range_meters":35600,"station_id":"ce4bhhp2rcd13ifvqfm0","pricing_plan_id":"cebpf4jnsgd1na2vs0mg"},{"bike_id":"38faa407-6403-4f33-bedc-7d91dfea4d6e","system_id":"levelo_inurba_marseille","lat":43.29524,"lon":5.37507,"is_reserved":false,"is_disabled":false,"rental_uris":{"android":"levelo://app?vid=38faa407-6403-4f33-bedc-7d91dfea4d6e","ios":"levelo://app?vid=38faa407-6403-4f33-bedc-7d91dfea4d6e"},"vehicle_type_id":"4","last_reported":1737209232,"current_range_meters":5600,"station_id":"ce4bgkp2rcd13ifvqbmg","pricing_plan_id":"cebpf4jnsgd1na2vs0mg"},{"bike_id":"6870a9e0-7988-452a-a0a6-84e136278682","system_id":"levelo_inurba_marseille","lat":43.26544,"lon":5.37299,"is_reserved":false,"is_disabled":false,"rental_uris":{"android":"levelo://app?vid=6870a9e0-7988-452a-a0a6-84e136278682","ios":"levelo://app?vid=6870a9e0-7988-452a-a0a6-84e136278682"},"vehicle_type_id":"4","last_reported":1737209232,"current_range_meters":37600,"station_id":"ce4bhg12rcd13ifvqf70","pricing_plan_id":"cebpf4jnsgd1na2vs0mg"},{"bike_id":"565f994d-82d3-4ca2-ad40-c2b313cd25cd","system_id":"levelo_inurba_marseille","lat":43.31497,"lon":5.3731,"is_reserved":false,"is_disabled":false,"rental_uris":{"android":"levelo://app?vid=565f994d-82d3-4ca2-ad40-c2b313cd25cd","ios":"levelo://app?vid=565f994d-82d3-4ca2-ad40-c2b313cd25cd"},"vehicle_type_id":"4","last_reported":1737209232,"current_range_meters":36400,"station_id":"ce4bgt12rcd13ifvqcd0","pricing_plan_id":"cebpf4jnsgd1na2vs0mg"},{"bike_id":"f4b03e8f-370c-4696-bf18-15651a5ea3bf","system_id":"levelo_inurba_marseille","lat":43.25727,"lon":5.4111,"is_reserved":false,"is_disabled":false,"rental_uris":{"android":"levelo://app?vid=f4b03e8f-370c-4696-bf18-15651a5ea3bf","ios":"levelo://app?vid=f4b03e8f-370c-4696-bf18-15651a5ea3bf"},"vehicle_type_id":"4","last_reported":1737209232,"current_range_meters":39200,"station_id":"ce4bhkp2rcd13ifvqgd0","pricing_plan_id":"cebpf4jnsgd1na2vs0mg"},{"bike_id":"d1d630df-c8e5-4660-8552-fb3c8dba2c28","system_id":"levelo_inurba_marseille","lat":43.26584,"lon":5.37269,"is_reserved":false,"is_disabled":false,"rental_uris":{"android":"levelo://app?vid=d1d630df-c8e5-4660-8552-fb3c8dba2c28","ios":"levelo://app?vid=d1d630df-c8e5-4660-8552-fb3c8dba2c28"},"vehicle_type_id":"4","last_reported":1737209232,"current_range_meters":27200,"station_id":"ce4bhg12rcd13ifvqf70","pricing_plan_id":"cebpf4jnsgd1na2vs0mg"},{"bike_id":"15dadc6d-099c-483a-8a1d-57a813f08ef5","system_id":"levelo_inurba_marseille","lat":43.30174,"lon":5.36608,"is_reserved":false,"is_disabled":false,"rental_uris":{"android":"levelo://app?vid=15dadc6d-099c-483a-8a1d-57a813f08ef5","ios":"levelo://app?vid=15dadc6d-099c-483a-8a1d-57a813f08ef5"},"vehicle_type_id":"4","last_reported":1737209232,"current_range_meters":16000,"station_id":"ce4bgrh2rcd13ifvqc8g","pricing_plan_id":"cebpf4jnsgd1na2vs0mg"},{"bike_id":"bac5d43b-64fb-4d8b-b2d9-3516b095206a","system_id":"levelo_inurba_marseille","lat":43.293585,"lon":5.378335,"is_reserved":false,"is_disabled":false,"rental_uris":{"android":"levelo://app?vid=bac5d43b-64fb-4d8b-b2d9-3516b095206a","ios":"levelo://app?vid=bac5d43b-64fb-4d8b-b2d9-3516b095206a"},"vehicle_type_id":"4","last_reported":1737209232,"current_range_meters":20800,"station_id":"ce4bgjh2rcd13ifvqbf0","pricing_plan_id":"cebpf4jnsgd1na2vs0mg"},{"bike_id":"b2e3142b-3b1b-4d56-9872-73ee689f9ab7","system_id":"levelo_inurba_marseille","lat":43.26693,"lon":5.38258,"is_reserved":false,"is_disabled":false,"rental_uris":{"android":"levelo://app?vid=b2e3142b-3b1b-4d56-9872-73ee689f9ab7","ios":"levelo://app?vid=b2e3142b-3b1b-4d56-9872-73ee689f9ab7"},"vehicle_type_id":"4","last_reported":1737209232,"current_range_meters":32000,"station_id":"ce4bhg92rcd13ifvqf90","pricing_plan_id":"cebpf4jnsgd1na2vs0mg"},{"bike_id":"89e5abf9-db11-4176-8d87-4ded95733757","system_id":"levelo_inurba_marseille","lat":43.30484,"lon":5.37897,"is_reserved":false,"is_disabled":false,"rental_uris":{"android":"levelo://app?vid=89e5abf9-db11-4176-8d87-4ded95733757","ios":"levelo://app?vid=89e5abf9-db11-4176-8d87-4ded95733757"},"vehicle_type_id":"4","last_reported":1737209232,"current_range_meters":16000,"station_id":"ce4bgup2rcd13ifvqcn0","pricing_plan_id":"cebpf4jnsgd1na2vs0mg"},{"bike_id":"5bbc58ba-a206-496a-87c8-2cecc90ce11a","system_id":"levelo_inurba_marseille","lat":43.25105,"lon":5.39518,"is_reserved":false,"is_disabled":false,"rental_uris":{"android":"levelo://app?vid=5bbc58ba-a206-496a-87c8-2cecc90ce11a","ios":"levelo://app?vid=5bbc58ba-a206-496a-87c8-2cecc90ce11a"},"vehicle_type_id":"4","last_reported":1737209232,"current_range_meters":37600,"station_id":"ce4bhm12rcd13ifvqgkg","pricing_plan_id":"cebpf4jnsgd1na2vs0mg"},{"bike_id":"c73224c5-8662-473f-8844-f010af6d2952","system_id":"levelo_inurba_marseille","lat":43.27189,"lon":5.41006,"is_reserved":false,"is_disabled":true,"rental_uris":{"android":"levelo://app?vid=c73224c5-8662-473f-8844-f010af6d2952","ios":"levelo://app?vid=c73224c5-8662-473f-8844-f010af6d2952"},"vehicle_type_id":"4","last_reported":1737209232,"current_range_meters":24000,"station_id":"ce4bhl12rcd13ifvqgf0","pricing_plan_id":"cebpf4jnsgd1na2vs0mg"},{"bike_id":"b0f1ef28-e8b6-438a-b311-1ed41a1550b9","system_id":"levelo_inurba_marseille","lat":43.29365,"lon":5.37845,"is_reserved":false,"is_disabled":false,"rental_uris":{"android":"levelo://app?vid=b0f1ef28-e8b6-438a-b311-1ed41a1550b9","ios":"levelo://app?vid=b0f1ef28-e8b6-438a-b311-1ed41a1550b9"},"vehicle_type_id":"4","last_reported":1737209232,"current_range_meters":14000,"station_id":"ce4bgjh2rcd13ifvqbf0","pricing_plan_id":"cebpf4jnsgd1na2vs0mg"},{"bike_id":"95b517d0-9dcf-47f9-8053-773bec6e6a69","system_id":"levelo_inurba_marseille","lat":43.266859,"lon":5.395269,"is_reserved":false,"is_disabled":false,"rental_uris":{"android":"levelo://app?vid=95b517d0-9dcf-47f9-8053-773bec6e6a69","ios":"levelo://app?vid=95b517d0-9dcf-47f9-8053-773bec6e6a69"},"vehicle_type_id":"4","last_reported":1737209232,"current_range_meters":16800,"station_id":"","pricing_plan_id":"cebpf4jnsgd1na2vs0mg"},{"bike_id":"99c26200-2d2b-4333-ae4f-6673669d9964","system_id":"levelo_inurba_marseille","lat":43.24072,"lon":5.37757,"is_reserved":false,"is_disabled":false,"rental_uris":{"android":"levelo://app?vid=99c26200-2d2b-4333-ae4f-6673669d9964","ios":"levelo://app?vid=99c26200-2d2b-4333-ae4f-6673669d9964"},"vehicle_type_id":"4","last_reported":1737209232,"current_range_meters":13600,"station_id":"ce4bhnp2rcd13ifvqgvg","pricing_plan_id":"cebpf4jnsgd1na2vs0mg"},{"bike_id":"aee46743-f0f7-4648-88e1-fa3d3a7aa9c0","system_id":"levelo_inurba_marseille","lat":43.2509,"lon":5.39516,"is_reserved":false,"is_disabled":false,"rental_uris":{"android":"levelo://app?vid=aee46743-f0f7-4648-88e1-fa3d3a7aa9c0","ios":"levelo://app?vid=aee46743-f0f7-4648-88e1-fa3d3a7aa9c0"},"vehicle_type_id":"4","last_reported":1737209232,"current_range_meters":24400,"station_id":"ce4bhm12rcd13ifvqgkg","pricing_plan_id":"cebpf4jnsgd1na2vs0mg"},{"bike_id":"426c6dbb-f325-4738-906d-29242f82afb0","system_id":"levelo_inurba_marseille","lat":43.31388,"lon":5.36719,"is_reserved":false,"is_disabled":false,"rental_uris":{"android":"levelo://app?vid=426c6dbb-f325-4738-906d-29242f82afb0","ios":"levelo://app?vid=426c6dbb-f325-4738-906d-29242f82afb0"},"vehicle_type_id":"4","last_reported":1737209232,"current_range_meters":4000,"station_id":"","pricing_plan_id":"cebpf4jnsgd1na2vs0mg"},{"bike_id":"37f6b654-e2e1-4daa-8ecd-7c0d2924119c","system_id":"levelo_inurba_marseille","lat":43.29935,"lon":5.36553,"is_reserved":false,"is_disabled":false,"rental_uris":{"android":"levelo://app?vid=37f6b654-e2e1-4daa-8ecd-7c0d2924119c","ios":"levelo://app?vid=37f6b654-e2e1-4daa-8ecd-7c0d2924119c"},"vehicle_type_id":"4","last_reported":1737209232,"current_range_meters":32800,"station_id":"ce4bgm92rcd13ifvqbr0","pricing_plan_id":"cebpf4jnsgd1na2vs0mg"},{"bike_id":"702d477f-58b0-4e53-9e19-be7bbb68bee3","system_id":"levelo_inurba_marseille","lat":43.2948,"lon":5.38669,"is_reserved":false,"is_disabled":true,"rental_uris":{"android":"levelo://app?vid=702d477f-58b0-4e53-9e19-be7bbb68bee3","ios":"levelo://app?vid=702d477f-58b0-4e53-9e19-be7bbb68bee3"},"vehicle_type_id":"4","last_reported":1737209232,"current_range_meters":0,"station_id":"","pricing_plan_id":"cebpf4jnsgd1na2vs0mg"},{"bike_id":"e82620b5-7f3c-4cc4-b782-051033c05d2c","system_id":"levelo_inurba_marseille","lat":43.2937,"lon":5.37849,"is_reserved":false,"is_disabled":false,"rental_uris":{"android":"levelo://app?vid=e82620b5-7f3c-4cc4-b782-051033c05d2c","ios":"levelo://app?vid=e82620b5-7f3c-4cc4-b782-051033c05d2c"},"vehicle_type_id":"4","last_reported":1737209232,"current_range_meters":5600,"station_id":"ce4bgjh2rcd13ifvqbf0","pricing_plan_id":"cebpf4jnsgd1na2vs0mg"},{"bike_id":"527c23cf-e193-4b3b-b4e9-bc9d0d5bc833","system_id":"levelo_inurba_marseille","lat":43.27334,"lon":5.39112,"is_reserved":false,"is_disabled":false,"rental_uris":{"android":"levelo://app?vid=527c23cf-e193-4b3b-b4e9-bc9d0d5bc833","ios":"levelo://app?vid=527c23cf-e193-4b3b-b4e9-bc9d0d5bc833"},"vehicle_type_id":"4","last_reported":1737209232,"current_range_meters":10000,"station_id":"ce4bhgp2rcd13ifvqfe0","pricing_plan_id":"cebpf4jnsgd1na2vs0mg"},{"bike_id":"a74844a8-2476-4c7d-afaf-2327257fdd01","system_id":"levelo_inurba_marseille","lat":43.23185,"lon":5.39995,"is_reserved":false,"is_disabled":false,"rental_uris":{"android":"levelo://app?vid=a74844a8-2476-4c7d-afaf-2327257fdd01","ios":"levelo://app?vid=a74844a8-2476-4c7d-afaf-2327257fdd01"},"vehicle_type_id":"4","last_reported":1737209232,"current_range_meters":36400,"station_id":"ce4bhn12rcd13ifvqgqg","pricing_plan_id":"cebpf4jnsgd1na2vs0mg"},{"bike_id":"ccc89d62-327a-4d33-abbd-545d059b4917","system_id":"levelo_inurba_marseille","lat":43.31274,"lon":5.40162,"is_reserved":false,"is_disabled":false,"rental_uris":{"android":"levelo://app?vid=ccc89d62-327a-4d33-abbd-545d059b4917","ios":"levelo://app?vid=ccc89d62-327a-4d33-abbd-545d059b4917"},"vehicle_type_id":"4","last_reported":1737209232,"current_range_meters":6000,"station_id":"ce4bh092rcd13ifvqd30","pricing_plan_id":"cebpf4jnsgd1na2vs0mg"},{"bike_id":"a11d48b7-09d8-4a84-938f-7dd062cdaf62","system_id":"levelo_inurba_marseille","lat":43.28723,"lon":5.36091,"is_reserved":false,"is_disabled":false,"rental_uris":{"android":"levelo://app?vid=a11d48b7-09d8-4a84-938f-7dd062cdaf62","ios":"levelo://app?vid=a11d48b7-09d8-4a84-938f-7dd062cdaf62"},"vehicle_type_id":"4","last_reported":1737209232,"current_range_meters":38000,"station_id":"cki0cbj6b192h4jlfktg","pricing_plan_id":"cebpf4jnsgd1na2vs0mg"},{"bike_id":"2ac72771-4094-467c-861c-dc70e44ff175","system_id":"levelo_inurba_marseille","lat":43.30609,"lon":5.37225,"is_reserved":false,"is_disabled":false,"rental_uris":{"android":"levelo://app?vid=2ac72771-4094-467c-861c-dc70e44ff175","ios":"levelo://app?vid=2ac72771-4094-467c-861c-dc70e44ff175"},"vehicle_type_id":"4","last_reported":1737209232,"current_range_meters":30800,"station_id":"ce4bgqh2rcd13ifvqc4g","pricing_plan_id":"cebpf4jnsgd1na2vs0mg"},{"bike_id":"ad196e54-cfe1-4f39-ad58-e7cdfa0873bc","system_id":"levelo_inurba_marseille","lat":43.29586,"lon":5.36732,"is_reserved":false,"is_disabled":false,"rental_uris":{"android":"levelo://app?vid=ad196e54-cfe1-4f39-ad58-e7cdfa0873bc","ios":"levelo://app?vid=ad196e54-cfe1-4f39-ad58-e7cdfa0873bc"},"vehicle_type_id":"4","last_reported":1737209232,"current_range_meters":38800,"station_id":"ce4bgph2rcd13ifvqc2g","pricing_plan_id":"cebpf4jnsgd1na2vs0mg"},{"bike_id":"2d4d90db-92bb-4773-a5bd-968598967aad","system_id":"levelo_inurba_marseille","lat":43.27207,"lon":5.39181,"is_reserved":false,"is_disabled":false,"rental_uris":{"android":"levelo://app?vid=2d4d90db-92bb-4773-a5bd-968598967aad","ios":"levelo://app?vid=2d4d90db-92bb-4773-a5bd-968598967aad"},"vehicle_type_id":"4","last_reported":1737209232,"current_range_meters":36000,"station_id":"ce4bhhp2rcd13ifvqfm0","pricing_plan_id":"cebpf4jnsgd1na2vs0mg"},{"bike_id":"82f8c609-f6ad-4a2a-b796-e258179f4505","system_id":"levelo_inurba_marseille","lat":43.24653,"lon":5.38902,"is_reserved":false,"is_disabled":false,"rental_uris":{"android":"levelo://app?vid=82f8c609-f6ad-4a2a-b796-e258179f4505","ios":"levelo://app?vid=82f8c609-f6ad-4a2a-b796-e258179f4505"},"vehicle_type_id":"4","last_reported":1737209232,"current_range_meters":38400,"station_id":"ce4bhg12rcd13ifvqf60","pricing_plan_id":"cebpf4jnsgd1na2vs0mg"},{"bike_id":"994036af-157a-4481-b51c-d39eb0fced08","system_id":"levelo_inurba_marseille","lat":43.31408,"lon":5.367,"is_reserved":false,"is_disabled":false,"rental_uris":{"android":"levelo://app?vid=994036af-157a-4481-b51c-d39eb0fced08","ios":"levelo://app?vid=994036af-157a-4481-b51c-d39eb0fced08"},"vehicle_type_id":"4","last_reported":1737209232,"current_range_meters":9200,"station_id":"","pricing_plan_id":"cebpf4jnsgd1na2vs0mg"},{"bike_id":"68676ff0-1a05-48a8-8028-acb9858beb08","system_id":"levelo_inurba_marseille","lat":43.32115,"lon":5.36779,"is_reserved":false,"is_disabled":false,"rental_uris":{"android":"levelo://app?vid=68676ff0-1a05-48a8-8028-acb9858beb08","ios":"levelo://app?vid=68676ff0-1a05-48a8-8028-acb9858beb08"},"vehicle_type_id":"4","last_reported":1737209232,"current_range_meters":26000,"station_id":"ce4bhrh2rcd13ifvqhug","pricing_plan_id":"cebpf4jnsgd1na2vs0mg"},