{"last_updated":1746893461,"ttl":60,"version":"2.2","data":{"bikes":[{"bike_id":"58df015e-34c9-4ff2-978d-28f815af8458","system_id":"levelo_inurba_marseille","lat":43.30379,"lon":5.42487,"is_reserved":false,"is_disabled":false,"rental_uris":{"android":"levelo://app?vid=58df015e-34c9-4ff2-978d-28f815af8458","ios":"levelo://app?vid=58df015e-34c9-4ff2-978d-28f815af8458"},"vehicle_type_id":"4","last_reported":1746893461,"current_range_meters":2800,"station_id":"ce4bhoh2rcd13ifvqh6g","pricing_plan_id":"cebpf4jnsgd1na2vs0mg"},{"bike_id":"19898ca3-8136-4be9-9382-0bc8028bb1b5","system_id":"levelo_inurba_marseille","lat":43.247904,"lon":5.374436,"is_reserved":false,"is_disabled":false,"rental_uris":{"android":"levelo://app?vid=19898ca3-8136-4be9-9382-0bc8028bb1b5","ios":"levelo://app?vid=19898ca3-8136-4be9-9382-0bc8028bb1b5"},"vehicle_type_id":"4","last_reported":1746893461,"current_range_meters":2800,"station_id":"","pricing_plan_id":"cebpf4jnsgd1na2vs0mg"},{"bike_id":"e36b3bf8-00c4-4232-ac4a-4dc7ec936a57","system_id":"levelo_inurba_marseille","lat":43.30463,"lon":5.37536,"is_reserved":false,"is_disabled":false,"rental_uris":{"android":"levelo://app?vid=e36b3bf8-00c4-4232-ac4a-4dc7ec936a57","ios":"levelo://app?vid=e36b3bf8-00c4-4232-ac4a-4dc7ec936a57"},"vehicle_type_id":"4","last_reported":1746893461,"current_range_meters":2800,"station_id":"","pricing_plan_id":"cebpf4jnsgd1na2vs0mg"},{"bike_id":"3ae79970-43dd-4eef-bbeb-a08f29dc61ca","system_id":"levelo_inurba_marseille","lat":43.29629,"lon":5.40598,"is_reserved":false,"is_disabled":false,"rental_uris":{"android":"levelo://app?vid=3ae79970-43dd-4eef-bbeb-a08f29dc61ca","ios":"levelo://app?vid=3ae79970-43dd-4eef-bbeb-a08f29dc61ca"},"vehicle_type_id":"4","last_reported":1746893461,"current_range_meters":3200,"station_id":"ce4bh0h2rcd13ifvqd60","pricing_plan_id":"cebpf4jnsgd1na2vs0mg"},{"bike_id":"757950e8-5703-4ccd-97de-8bd6ee601eab","system_id":"levelo_inurba_marseille","lat":43.282492,"lon":5.350804,"is_reserved":false,"is_disabled":false,"rental_uris":{"android":"levelo://app?vid=757950e8-5703-4ccd-97de-8bd6ee601eab","ios":"levelo://app?vid=757950e8-5703-4ccd-97de-8bd6ee601eab"},"vehicle_type_id":"4","last_reported":1746893461,"current_range_meters":3200,"station_id":"ce4bhbp2rcd13ifvqerg","pricing_plan_id":"cebpf4jnsgd1na2vs0mg"},{"bike_id":"b4c3172b-f5f9-415f-80a5-9f3aca8d0586","system_id":"levelo_inurba_marseille","lat":43.29603,"lon":5.38105,"is_reserved":false,"is_disabled":false,"rental_uris":{"android":"levelo://app?vid=b4c3172b-f5f9-415f-80a5-9f3aca8d0586","ios":"levelo://app?vid=b4c3172b-f5f9-415f-80a5-9f3aca8d0586"},"vehicle_type_id":"4","last_reported":1746893461,"current_range_meters":3200,"station_id":"ce4bgl12rcd13ifvqbo0","pricing_plan_id":"cebpf4jnsgd1na2vs0mg"},{"bike_id":"14fab081-8680-426b-95b9-b1e1167ab798","system_id":"levelo_inurba_marseille","lat":43.28158,"lon":5.4265,"is_reserved":false,"is_disabled":false,"rental_uris":{"android":"levelo://app?vid=14fab081-8680-426b-95b9-b1e1167ab798","ios":"levelo://app?vid=14fab081-8680-426b-95b9-b1e1167ab798"},"vehicle_type_id":"4","last_reported":1746893461,"current_range_meters":3600,"station_id":"ce4bhnh2rcd13ifvqgug","pricing_plan_id":"cebpf4jnsgd1na2vs0mg"},{"bike_id":"055c9374-312a-4e38-97c7-f0e9a1d552fb","system_id":"levelo_inurba_marseille","lat":43.33605,"lon":5.40992,"is_reserved":false,"is_disabled":false,"rental_uris":{"android":"levelo://app?vid=055c9374-312a-4e38-97c7-f0e9a1d552fb","ios":"levelo://app?vid=055c9374-312a-4e38-97c7-f0e9a1d552fb"},"vehicle_type_id":"4","last_reported":1746893461,"current_range_meters":3600,"station_id":"ce4bhqh2rcd13ifvqhmg","pricing_plan_id":"cebpf4jnsgd1na2vs0mg"},{"bike_id":"23641817-c01f-4ffd-9aba-7791a8835be0","system_id":"levelo_inurba_marseille","lat":43.22514,"lon":5.34785,"is_reserved":false,"is_disabled":true,"rental_uris":{"android":"levelo://app?vid=23641817-c01f-4ffd-9aba-7791a8835be0","ios":"levelo://app?vid=23641817-c01f-4ffd-9aba-7791a8835be0"},"vehicle_type_id":"4","last_reported":1746893461,"current_range_meters":3600,"station_id":"st_cvj5dfep6f1abm77gieg","pricing_plan_id":"cebpf4jnsgd1na2vs0mg"},{"bike_id":"aab77082-b456-456f-802c-e35cdca64336","system_id":"levelo_inurba_marseille","lat":43.24802,"lon":5.37456,"is_reserved":false,"is_disabled":false,"rental_uris":{"android":"levelo://app?vid=aab77082-b456-456f-802c-e35cdca64336","ios":"levelo://app?vid=aab77082-b456-456f-802c-e35cdca64336"},"vehicle_type_id":"4","last_reported":1746893461,"current_range_meters":4000,"station_id":"ce4bhgh2rcd13ifvqfb0","pricing_plan_id":"cebpf4jnsgd1na2vs0mg"},{"bike_id":"7dc3cd73-96cd-4009-8b6f-a92674351495","system_id":"levelo_inurba_marseille","lat":43.29414,"lon":5.38629,"is_reserved":false,"is_disabled":false,"rental_uris":{"android":"levelo://app?vid=7dc3cd73-96cd-4009-8b6f-a92674351495","ios":"levelo://app?vid=7dc3cd73-96cd-4009-8b6f-a92674351495"},"vehicle_type_id":"4","last_reported":1746893461,"current_range_meters":4000,"station_id":"ce4bh2h2rcd13ifvqdh0","pricing_plan_id":"cebpf4jnsgd1na2vs0mg"},{"bike_id":"733a8fd6-26d4-402e-8a16-6e6e2df0c685","system_id":"levelo_inurba_marseille","lat":43.27896,"lon":5.38003,"is_reserved":false,"is_disabled":false,"rental_uris":{"android":"levelo://app?vid=733a8fd6-26d4-402e-8a16-6e6e2df0c685","ios":"levelo://app?vid=733a8fd6-26d4-402e-8a16-6e6e2df0c685"},"vehicle_type_id":"4","last_reported":1746893461,"current_range_meters":4400,"station_id":"ce4bhf92rcd13ifvqf50","pricing_plan_id":"cebpf4jnsgd1na2vs0mg"},{"bike_id":"f70161ba-5d5a-4224-8f93-70a15e35336a","system_id":"levelo_inurba_marseille","lat":43.27919,"lon":5.39582,"is_reserved":false,"is_disabled":false,"rental_uris":{"android":"levelo://app?vid=f70161ba-5d5a-4224-8f93-70a15e35336a","ios":"levelo://app?vid=f70161ba-5d5a-4224-8f93-70a15e35336a"},"vehicle_type_id":"4","last_reported":1746893461,"current_range_meters":4400,"station_id":"ce4bhf92rcd13ifvqf40","pricing_plan_id":"cebpf4jnsgd1na2vs0mg"},{"bike_id":"7b11bbbb-bc6a-4587-9e09-f7265421003a","system_id":"levelo_inurba_marseille","lat":43.24813,"lon":5.37459,"is_reserved":false,"is_disabled":false,"rental_uris":{"android":"levelo://app?vid=7b11bbbb-bc6a-4587-9e09-f7265421003a","ios":"levelo://app?vid=7b11bbbb-bc6a-4587-9e09-f7265421003a"},"vehicle_type_id":"4","last_reported":1746893461,"current_range_meters":4400,"station_id":"ce4bhgh2rcd13ifvqfb0","pricing_plan_id":"cebpf4jnsgd1na2vs0mg"},{"bike_id":"074ff92d-bd9a-4266-827d-ce785e70aa65","system_id":"levelo_inurba_marseille","lat":43.2738,"lon":5.36244,"is_reserved":false,"is_disabled":false,"rental_uris":{"android":"levelo://app?vid=074ff92d-bd9a-4266-827d-ce785e70aa65","ios":"levelo://app?vid=074ff92d-bd9a-4266-827d-ce785e70aa65"},"vehicle_type_id":"4","last_reported":1746893461,"current_range_meters":4400,"station_id":"ce4bhbh2rcd13ifvqeo0","pricing_plan_id":"cebpf4jnsgd1na2vs0mg"},{"bike_id":"caf9033d-5f00-49c3-b1ee-1328b62008dc","system_id":"levelo_inurba_marseille","lat":43.33586,"lon":5.42864,"is_reserved":false,"is_disabled":false,"rental_uris":{"android":"levelo://app?vid=caf9033d-5f00-49c3-b1ee-1328b62008dc","ios":"levelo://app?vid=caf9033d-5f00-49c3-b1ee-1328b62008dc"},"vehicle_type_id":"4","last_reported":1746893461,"current_range_meters":4400,"station_id":"","pricing_plan_id":"cebpf4jnsgd1na2vs0mg"},{"bike_id":"682a3378-ad3c-4f8a-b8f1-21fab883dab7","system_id":"levelo_inurba_marseille","lat":43.27844,"lon":5.39207,"is_reserved":false,"is_disabled":false,"rental_uris":{"android":"levelo://app?vid=682a3378-ad3c-4f8a-b8f1-21fab883dab7","ios":"levelo://app?vid=682a3378-ad3c-4f8a-b8f1-21fab883dab7"},"vehicle_type_id":"4","last_reported":1746893461,"current_range_meters":4400,"station_id":"ce4bhjp2rcd13ifvqga0","pricing_plan_id":"cebpf4jnsgd1na2vs0mg"},{"bike_id":"619ee267-a6e4-406a-8c03-2df7bac076b6","system_id":"levelo_inurba_marseille","lat":43.23193,"lon":5.3556,"is_reserved":false,"is_disabled":false,"rental_uris":{"android":"levelo://app?vid=619ee267-a6e4-406a-8c03-2df7bac076b6","ios":"levelo://app?vid=619ee267-a6e4-406a-8c03-2df7bac076b6"},"vehicle_type_id":"4","last_reported":1746893461,"current_range_meters":4800,"station_id":"ce4bhu92rcd13ifvqi70","pricing_plan_id":"cebpf4jnsgd1na2vs0mg"},{"bike_id":"b06bff0e-c443-4ccf-805b-52ffd4427895","system_id":"levelo_inurba_marseille","lat":43.24811,"lon":5.37462,"is_reserved":false,"is_disabled":false,"rental_uris":{"android":"levelo://app?vid=b06bff0e-c443-4ccf-805b-52ffd4427895","ios":"levelo://app?vid=b06bff0e-c443-4ccf-805b-52ffd4427895"},"vehicle_type_id":"4","last_reported":1746893461,"current_range_meters":5600,"station_id":"ce4bhgh2rcd13ifvqfb0","pricing_plan_id":"cebpf4jnsgd1na2vs0mg"},{"bike_id":"b2cd32cc-9dfa-4abe-8658-a67006204853","system_id":"levelo_inurba_marseille","lat":43.326447,"lon":5.410104,"is_reserved":false,"is_disabled":false,"rental_uris":{"android":"levelo://app?vid=b2cd32cc-9dfa-4abe-8658-a67006204853","ios":"levelo://app?vid=b2cd32cc-9dfa-4abe-8658-a67006204853"},"vehicle_type_id":"4","last_reported":1746893461,"current_range_meters":5600,"station_id":"ce4bhpp2rcd13ifvqhgg","pricing_plan_id":"cebpf4jnsgd1na2vs0mg"},{"bike_id":"91f94e2b-26d0-4cc3-bdca-77c723feb914","system_id":"levelo_inurba_marseille","lat":43.23956,"lon":5.36635,"is_reserved":false,"is_disabled":false,"rental_uris":{"android":"levelo://app?vid=91f94e2b-26d0-4cc3-bdca-77c723feb914","ios":"levelo://app?vid=91f94e2b-26d0-4cc3-bdca-77c723feb914"},"vehicle_type_id":"4","last_reported":1746893461,"current_range_meters":5600,"station_id":"ce4bhi12rcd13ifvqfp0","pricing_plan_id":"cebpf4jnsgd1na2vs0mg"},{"bike_id":"528ca37c-ed34-4f47-8d4d-0c4749122553","system_id":"levelo_inurba_marseille","lat":43.2695,"lon":5.38645,"is_reserved":false,"is_disabled":false,"rental_uris":{"android":"levelo://app?vid=528ca37c-ed34-4f47-8d4d-0c4749122553","ios":"levelo://app?vid=528ca37c-ed34-4f47-8d4d-0c4749122553"},"vehicle_type_id":"4","last_reported":1746893461,"current_range_meters":5600,"station_id":"ce4bhh92rcd13ifvqfh0","pricing_plan_id":"cebpf4jnsgd1na2vs0mg"},{"bike_id":"71cdb499-dcc5-440d-85e2-094d7ed1b218","system_id":"levelo_inurba_marseille","lat":43.29568,"lon":5.39973,"is_reserved":false,"is_disabled":false,"rental_uris":{"android":"levelo://app?vid=71cdb499-dcc5-440d-85e2-094d7ed1b218","ios":"levelo://app?vid=71cdb499-dcc5-440d-85e2-094d7ed1b218"},"vehicle_type_id":"4","last_reported":1746893461,"current_range_meters":5600,"station_id":"ce4bh312rcd13ifvqdj0","pricing_plan_id":"cebpf4jnsgd1na2vs0mg"},{"bike_id":"ecd9cb5b-d114-4ead-be69-948bbdf45703","system_id":"levelo_inurba_marseille","lat":43.265843,"lon":5.390183,"is_reserved":false,"is_disabled":false,"rental_uris":{"android":"levelo://app?vid=ecd9cb5b-d114-4ead-be69-948bbdf45703","ios":"levelo://app?vid=ecd9cb5b-d114-4ead-be69-948bbdf45703"},"vehicle_type_id":"4","last_reported":1746893461,"current_range_meters":6000,"station_id":"ce4bhe12rcd13ifvqf30","pricing_plan_id":"cebpf4jnsgd1na2vs0mg"},{"bike_id":"3a21e655-db4c-4c56-bbce-c1ee1c1e02cd","system_id":"levelo_inurba_marseille","lat":43.31362,"lon":5.38496,"is_reserved":false,"is_disabled":false,"rental_uris":{"android":"levelo://app?vid=3a21e655-db4c-4c56-bbce-c1ee1c1e02cd","ios":"levelo://app?vid=3a21e655-db4c-4c56-bbce-c1ee1c1e02cd"},"vehicle_type_id":"4","last_reported":1746893461,"current_range_meters":6000,"station_id":"ce4bgt92rcd13ifvqcf0","pricing_plan_id":"cebpf4jnsgd1na2vs0mg"},{"bike_id":"6b7264ab-3e57-48dc-a88e-86a97287cfb1","system_id":"levelo_inurba_marseille","lat":43.27376,"lon":5.362601,"is_reserved":false,"is_disabled":false,"rental_uris":{"android":"levelo://app?vid=6b7264ab-3e57-48dc-a88e-86a97287cfb1","ios":"levelo://app?vid=6b7264ab-3e57-48dc-a88e-86a97287cfb1"},"vehicle_type_id":"4","last_reported":1746893461,"current_range_meters":6400,"station_id":"ce4bhbh2rcd13ifvqeo0","pricing_plan_id":"cebpf4jnsgd1na2vs0mg"},{"bike_id":"0a96b331-eb74-493b-aa9f-2d1cd8fb4573","system_id":"levelo_inurba_marseille","lat":43.29274,"lon":5.36842,"is_reserved":false,"is_disabled":false,"rental_uris":{"android":"levelo://app?vid=0a96b331-eb74-493b-aa9f-2d1cd8fb4573","ios":"levelo://app?vid=0a96b331-eb74-493b-aa9f-2d1cd8fb4573"},"vehicle_type_id":"4","last_reported":1746893461,"current_range_meters":6400,"station_id":"ce4bhbp2rcd13ifvqesg","pricing_plan_id":"cebpf4jnsgd1na2vs0mg"},{"bike_id":"bba7789e-50f0-440d-bcae-060420063871","system_id":"levelo_inurba_marseille","lat":43.258577,"lon":5.376309,"is_reserved":false,"is_disabled":false,"rental_uris":{"android":"levelo://app?vid=bba7789e-50f0-440d-bcae-060420063871","ios":"levelo://app?vid=bba7789e-50f0-440d-bcae-060420063871"},"vehicle_type_id":"4","last_reported":1746893461,"current_range_meters":6800,"station_id":"ce4bhhh2rcd13ifvqfk0","pricing_plan_id":"cebpf4jnsgd1na2vs0mg"},{"bike_id":"c6a89604-7e39-47f1-8390-1e84c37785ab","system_id":"levelo_inurba_marseille","lat":43.26552,"lon":5.37286,"is_reserved":false,"is_disabled":false,"rental_uris":{"android":"levelo://app?vid=c6a89604-7e39-47f1-8390-1e84c37785ab","ios":"levelo://app?vid=c6a89604-7e39-47f1-8390-1e84c37785ab"},"vehicle_type_id":"4","last_reported":1746893461,"current_range_meters":6800,"station_id":"ce4bhg12rcd13ifvqf70","pricing_plan_id":"cebpf4jnsgd1na2vs0mg"},{"bike_id":"0507792a-5eb9-4ff1-aae7-71face414689","system_id":"levelo_inurba_marseille","lat":43.27613,"lon":5.36123,"is_reserved":false,"is_disabled":false,"rental_uris":{"android":"levelo://app?vid=0507792a-5eb9-4ff1-aae7-71face414689","ios":"levelo://app?vid=0507792a-5eb9-4ff1-aae7-71face414689"},"vehicle_type_id":"4","last_reported":1746893461,"current_range_meters":6800,"station_id":"ce4bgj92rcd13ifvqbe0","pricing_plan_id":"cebpf4jnsgd1na2vs0mg"},{"bike_id":"01c8845a-134d-43e1-82cb-720cfec8e047","system_id":"levelo_inurba_marseille","lat":43.24379,"lon":5.37032,"is_reserved":false,"is_disabled":false,"rental_uris":{"android":"levelo://app?vid=01c8845a-134d-43e1-82cb-720cfec8e047","ios":"levelo://app?vid=01c8845a-134d-43e1-82cb-720cfec8e047"},"vehicle_type_id":"4","last_reported":1746893461,"current_range_meters":6800,"station_id":"ce4bhhh2rcd13ifvqfk0","pricing_plan_id":"cebpf4jnsgd1na2vs0mg"},{"bike_id":"4af5fd70-2264-4a74-867f-c5e125bd149d","system_id":"levelo_inurba_marseille","lat":43.25848,"lon":5.39891,"is_reserved":false,"is_disabled":false,"rental_uris":{"android":"levelo://app?vid=4af5fd70-2264-4a74-867f-c5e125bd149d","ios":"levelo://app?vid=4af5fd70-2264-4a74-867f-c5e125bd149d"},"vehicle_type_id":"4","last_reported":1746893461,"current_range_meters":7200,"station_id":"ce4bhl92rcd13ifvqghg","pricing_plan_id":"cebpf4jnsgd1na2vs0mg"},{"bike_id":"eec0ab58-bc79-44d9-8eda-599c7f2d45df","system_id":"levelo_inurba_marseille","lat":43.26936,"lon":5.3864,"is_reserved":false,"is_disabled":false,"rental_uris":{"android":"levelo://app?vid=eec0ab58-bc79-44d9-8eda-599c7f2d45df","ios":"levelo://app?vid=eec0ab58-bc79-44d9-8eda-599c7f2d45df"},"vehicle_type_id":"4","last_reported":1746893461,"current_range_meters":7200,"station_id":"ce4bhh92rcd13ifvqfh0","pricing_plan_id":"cebpf4jnsgd1na2vs0mg"},{"bike_id":"6aff8394-9465-4813-bd29-7086cfc1db05","system_id":"levelo_inurba_marseille","lat":43.24804,"lon":5.37458,"is_reserved":false,"is_disabled":false,"rental_uris":{"android":"levelo://app?vid=6aff8394-9465-4813-bd29-7086cfc1db05","ios":"levelo://app?vid=6aff8394-9465-4813-bd29-7086cfc1db05"},"vehicle_type_id":"4","last_reported":1746893461,"current_range_meters":7200,"station_id":"ce4bhgh2rcd13ifvqfb0","pricing_plan_id":"cebpf4jnsgd1na2vs0mg"},{"bike_id":"db18cb1d-f5f6-4579-80af-37c135e3cade","system_id":"levelo_inurba_marseille","lat":43.30796,"lon":5.3817,"is_reserved":false,"is_disabled":false,"rental_uris":{"android":"levelo://app?vid=db18cb1d-f5f6-4579-80af-37c135e3cade","ios":"levelo://app?vid=db18cb1d-f5f6-4579-80af-37c135e3cade"},"vehicle_type_id":"4","last_reported":1746893461,"current_range_meters":7200,"station_id":"ce4bgt12rcd13ifvqce0","pricing_plan_id":"cebpf4jnsgd1na2vs0mg"},{"bike_id":"df514e43-2d1b-491f-a6f1-d0d1f393a242","system_id":"levelo_inurba_marseille","lat":43.29898,"lon":5.43673,"is_reserved":false,"is_disabled":false,"rental_uris":{"android":"levelo://app?vid=df514e43-2d1b-491f-a6f1-d0d1f393a242","ios":"levelo://app?vid=df514e43-2d1b-491f-a6f1-d0d1f393a242"},"vehicle_type_id":"4","last_reported":1746893461,"current_range_meters":8000,"station_id":"ce4bhpp2rcd13ifvqhfg","pricing_plan_id":"cebpf4jnsgd1na2vs0mg"},{"bike_id":"ea0e5001-4ef7-48eb-9613-499e21600d03","system_id":"levelo_inurba_marseille","lat":43.2549,"lon":5.37654,"is_reserved":false,"is_disabled":true,"rental_uris":{"android":"levelo://app?vid=ea0e5001-4ef7-48eb-9613-499e21600d03","ios":"levelo://app?vid=ea0e5001-4ef7-48eb-9613-499e21600d03"},"vehicle_type_id":"4","last_reported":1746893461,"current_range_meters":8000,"station_id":"ce4bhh12rcd13ifvqff0","pricing_plan_id":"cebpf4jnsgd1na2vs0mg"},{"bike_id":"65b3023a-88ac-4145-864c-5d1d3b09bf20","system_id":"levelo_inurba_marseille","lat":43.2512,"lon":5.4032,"is_reserved":false,"is_disabled":false,"rental_uris":{"android":"levelo://app?vid=65b3023a-88ac-4145-864c-5d1d3b09bf20","ios":"levelo://app?vid=65b3023a-88ac-4145-864c-5d1d3b09bf20"},"vehicle_type_id":"4","last_reported":1746893461,"current_range_meters":8000,"station_id":"ce4bhlh2rcd13ifvqgig","pricing_plan_id":"cebpf4jnsgd1na2vs0mg"},{"bike_id":"d3b71e1d-1625-48b4-9a70-1dd6e42d479f","system_id":"levelo_inurba_marseille","lat":43.28268,"lon":5.35059,"is_reserved":false,"is_disabled":false,"rental_uris":{"android":"levelo://app?vid=d3b71e1d-1625-48b4-9a70-1dd6e42d479f","ios":"levelo://app?vid=d3b71e1d-1625-48b4-9a70-1dd6e42d479f"},"vehicle_type_id":"4","last_reported":1746893461,"current_range_meters":8000,"station_id":"ce4bhbp2rcd13ifvqerg","pricing_plan_id":"cebpf4jnsgd1na2vs0mg"},{"bike_id":"280e66ff-3c1b-41aa-9e16-f9fcfb23a14c","system_id":"levelo_inurba_marseille","lat":43.23192,"lon":5.3555,"is_reserved":false,"is_disabled":false,"rental_uris":{"android":"levelo://app?vid=280e66ff-3c1b-41aa-9e16-f9fcfb23a14c","ios":"levelo://app?vid=280e66ff-3c1b-41aa-9e16-f9fcfb23a14c"},"vehicle_type_id":"4","last_reported":1746893461,"current_range_meters":8000,"station_id":"","pricing_plan_id":"cebpf4jnsgd1na2vs0mg"},{"bike_id":"fcff805d-ecc7-447d-9003-d840643c1cb4","system_id":"levelo_inurba_marseille","lat":43.270623,"lon":5.402572,"is_reserved":false,"is_disabled":false,"rental_uris":{"android":"levelo://app?vid=fcff805d-ecc7-447d-9003-d840643c1cb4","ios":"levelo://app?vid=fcff805d-ecc7-447d-9003-d840643c1cb4"},"vehicle_type_id":"4","last_reported":1746893461,"current_range_meters":8400,"station_id":"ce4bhk92rcd13ifvqgc0","pricing_plan_id":"cebpf4jnsgd1na2vs0mg"},{"bike_id":"59f97d21-f3c4-4983-acaa-a27e53ecb79a","system_id":"levelo_inurba_marseille","lat":43.31757,"lon":5.39019,"is_reserved":false,"is_disabled":false,"rental_uris":{"android":"levelo://app?vid=59f97d21-f3c4-4983-acaa-a27e53ecb79a","ios":"levelo://app?vid=59f97d21-f3c4-4983-acaa-a27e53ecb79a"},"vehicle_type_id":"4","last_reported":1746893461,"current_range_meters":8400,"station_id":"ce4bhqp2rcd13ifvqhng","pricing_plan_id":"cebpf4jnsgd1na2vs0mg"},{"bike_id":"5db2fe94-843e-494a-93fb-e777bcf0c9c8","system_id":"levelo_inurba_marseille","lat":43.23211,"lon":5.35547,"is_reserved":false,"is_disabled":false,"rental_uris":{"android":"levelo://app?vid=5db2fe94-843e-494a-93fb-e777bcf0c9c8","ios":"levelo://app?vid=5db2fe94-843e-494a-93fb-e777bcf0c9c8"},"vehicle_type_id":"4","last_reported":1746893461,"current_range_meters":8400,"station_id":"ce4bhu92rcd13ifvqi70","pricing_plan_id":"cebpf4jnsgd1na2vs0mg"},{"bike_id":"eb4ed1ce-5d16-4b2e-954b-377341ae5b26","system_id":"levelo_inurba_marseille","lat":43.24398,"lon":5.37066,"is_reserved":false,"is_disabled":false,"rental_uris":{"android":"levelo://app?vid=eb4ed1ce-5d16-4b2e-954b-377341ae5b26","ios":"levelo://app?vid=eb4ed1ce-5d16-4b2e-954b-377341ae5b26"},"vehicle_type_id":"4","last_reported":1746893461,"current_range_meters":8400,"station_id":"ce4bhhh2rcd13ifvqfk0","pricing_plan_id":"cebpf4jnsgd1na2vs0mg"},{"bike_id":"3897448b-42b4-439c-8e53-496f2f433cf0","system_id":"levelo_inurba_marseille","lat":43.275482,"lon":5.384297,"is_reserved":false,"is_disabled":false,"rental_uris":{"android":"levelo://app?vid=3897448b-42b4-439c-8e53-496f2f433cf0","ios":"levelo://app?vid=3897448b-42b4-439c-8e53-496f2f433cf0"},"vehicle_type_id":"4","last_reported":1746893461,"current_range_meters":8400,"station_id":"","pricing_plan_id":"cebpf4jnsgd1na2vs0mg"},{"bike_id":"ee0dbaa5-fb88-43ed-8685-5f293d3eae8f","system_id":"levelo_inurba_marseille","lat":43.29376,"lon":5.37851,"is_reserved":false,"is_disabled":false,"rental_uris":{"android":"levelo://app?vid=ee0dbaa5-fb88-43ed-8685-5f293d3eae8f","ios":"levelo://app?vid=ee0dbaa5-fb88-43ed-8685-5f293d3eae8f"},"vehicle_type_id":"4","last_reported":1746893461,"current_range_meters":8400,"station_id":"ce4bgjh2rcd13ifvqbf0","pricing_plan_id":"cebpf4jnsgd1na2vs0mg"},{"bike_id":"c62432af-26cd-4be3-8146-2b72d6dfd8e5","system_id":"levelo_inurba_marseille","lat":43.28707,"lon":5.39996,"is_reserved":false,"is_disabled":false,"rental_uris":{"android":"levelo://app?vid=c62432af-26cd-4be3-8146-2b72d6dfd8e5","ios":"levelo://app?vid=c62432af-26cd-4be3-8146-2b72d6dfd8e5"},"vehicle_type_id":"4","last_reported":1746893461,"current_range_meters":8400,"station_id":"ce4bho92rcd13ifvqh3g","pricing_plan_id":"cebpf4jnsgd1na2vs0mg"},{"bike_id":"7c33fbed-1907-4d64-8703-4d7f451f79a9","system_id":"levelo_inurba_marseille","lat":43.23185,"lon":5.3999,"is_reserved":false,"is_disabled":false,"rental_uris":{"android":"levelo://app?vid=7c33fbed-1907-4d64-8703-4d7f451f79a9","ios":"levelo://app?vid=7c33fbed-1907-4d64-8703-4d7f451f79a9"},"vehicle_type_id":"4","last_reported":1746893461,"current_range_meters":8400,"station_id":"ce4bhn12rcd13ifvqgqg","pricing_plan_id":"cebpf4jnsgd1na2vs0mg"},{"bike_id":"7fe12d21-0223-4b5e-aece-255a23774ee0","system_id":"levelo_inurba_marseille","lat":43.31756,"lon":5.3902,"is_reserved":false,"is_disabled":false,"rental_uris":{"android":"levelo://app?vid=7fe12d21-0223-4b5e-aece-255a23774ee0","ios":"levelo://app?vid=7fe12d21-0223-4b5e-aece-255a23774ee0"},"vehicle_type_id":"4","last_reported":1746893461,"current_range_meters":8400,"station_id":"ce4bhqp2rcd13ifvqhng","pricing_plan_id":"cebpf4jnsgd1na2vs0mg"},{"bike_id":"1edfab30-7d6b-4c67-9efe-f619a18d3a0d","system_id":"levelo_inurba_marseille","lat":43.23209,"lon":5.35562,"is_reserved":false,"is_disabled":false,"rental_uris":{"android":"levelo://app?vid=1edfab30-7d6b-4c67-9efe-f619a18d3a0d","ios":"levelo://app?vid=1edfab30-7d6b-4c67-9efe-f619a18d3a0d"},"vehicle_type_id":"4","last_reported":1746893461,"current_range_meters":8400,"station_id":"ce4bhu92rcd13ifvqi70","pricing_plan_id":"cebpf4jnsgd1na2vs0mg"},{"bike_id":"e52fe6db-b733-4fa6-834f-b79cc91c2191","system_id":"levelo_inurba_marseille","lat":43.27404,"lon":5.36221,"is_reserved":false,"is_disabled":false,"rental_uris":{"android":"levelo://app?vid=e52fe6db-b733-4fa6-834f-b79cc91c2191","ios":"levelo://app?vid=e52fe6db-b733-4fa6-834f-b79cc91c2191"},"vehicle_type_id":"4","last_reported":1746893461,"current_range_meters":8800,"station_id":"","pricing_plan_id":"cebpf4jnsgd1na2vs0mg"},{"bike_id":"79950ede-473d-497e-90c5-4a28201cff09","system_id":"levelo_inurba_marseille","lat":43.26807,"lon":5.402743,"is_reserved":false,"is_disabled":false,"rental_uris":{"android":"levelo://app?vid=79950ede-473d-497e-90c5-4a28201cff09","ios":"levelo://app?vid=79950ede-473d-497e-90c5-4a28201cff09"},"vehicle_type_id":"4","last_reported":1746893461,"current_range_meters":8800,"station_id":"ce501612rcd8frsf0b60","pricing_plan_id":"cebpf4jnsgd1na2vs0mg"},{"bike_id":"8bfaaeeb-f0de-4936-888f-e9f0b96c412a","system_id":"levelo_inurba_marseille","lat":43.23956,"lon":5.36629,"is_reserved":false,"is_disabled":false,"rental_uris":{"android":"levelo://app?vid=8bfaaeeb-f0de-4936-888f-e9f0b96c412a","ios":"levelo://app?vid=8bfaaeeb-f0de-4936-888f-e9f0b96c412a"},"vehicle_type_id":"4","last_reported":1746893461,"current_range_meters":8800,"station_id":"ce4bhi12rcd13ifvqfp0","pricing_plan_id":"cebpf4jnsgd1na2vs0mg"},{"bike_id":"b5b7ac9e-ae66-4cde-a58d-4d4116750a4c","system_id":"levelo_inurba_marseille","lat":43.27689,"lon":5.38914,"is_reserved":false,"is_disabled":false,"rental_uris":{"android":"levelo://app?vid=b5b7ac9e-ae66-4cde-a58d-4d4116750a4c","ios":"levelo://app?vid=b5b7ac9e-ae66-4cde-a58d-4d4116750a4c"},"vehicle_type_id":"4","last_reported":1746893461,"current_range_meters":8800,"station_id":"ce4bhi12rcd13ifvqfo0","pricing_plan_id":"cebpf4jnsgd1na2vs0mg"},{"bike_id":"ef815de1-01c1-4ff2-a490-d66c774efb80","system_id":"levelo_inurba_marseille","lat":43.25718,"lon":5.41113,"is_reserved":false,"is_disabled":false,"rental_uris":{"android":"levelo://app?vid=ef815de1-01c1-4ff2-a490-d66c774efb80","ios":"levelo://app?vid=ef815de1-01c1-4ff2-a490-d66c774efb80"},"vehicle_type_id":"4","last_reported":1746893461,"current_range_meters":8800,"station_id":"ce4bhkp2rcd13ifvqgd0","pricing_plan_id":"cebpf4jnsgd1na2vs0mg"},{"bike_id":"8ecf72ea-920c-4cce-b658-46258a336907","system_id":"levelo_inurba_marseille","lat":43.28573,"lon":5.39498,"is_reserved":false,"is_disabled":false,"rental_uris":{"android":"levelo://app?vid=8ecf72ea-920c-4cce-b658-46258a336907","ios":"levelo://app?vid=8ecf72ea-920c-4cce-b658-46258a336907"},"vehicle_type_id":"4","last_reported":1746893461,"current_range_meters":8800,"station_id":"ce4bh292rcd13ifvqdg0","pricing_plan_id":"cebpf4jnsgd1na2vs0mg"},{"bike_id":"0e89f9aa-8c67-4fd6-b053-4f41a76cd77c","system_id":"levelo_inurba_marseille","lat":43.23194,"lon":5.35563,"is_reserved":false,"is_disabled":false,"rental_uris":{"android":"levelo://app?vid=0e89f9aa-8c67-4fd6-b053-4f41a76cd77c","ios":"levelo://app?vid=0e89f9aa-8c67-4fd6-b053-4f41a76cd77c"},"vehicle_type_id":"4","last_reported":1746893461,"current_range_meters":8800,"station_id":"ce4bhu92rcd13ifvqi70","pricing_plan_id":"cebpf4jnsgd1na2vs0mg"},{"bike_id":"c13f6770-edfc-46b5-bb2d-9740a2cce6d4","system_id":"levelo_inurba_marseille","lat":43.25504,"lon":5.37678,"is_reserved":false,"is_disabled":true,"rental_uris":{"android":"levelo://app?vid=c13f6770-edfc-46b5-bb2d-9740a2cce6d4","ios":"levelo://app?vid=c13f6770-edfc-46b5-bb2d-9740a2cce6d4"},"vehicle_type_id":"4","last_reported":1746893461,"current_range_meters":8800,"station_id":"ce4bhh12rcd13ifvqff0","pricing_plan_id":"cebpf4jnsgd1na2vs0mg"},{"bike_id":"340f4554-b1f2-4650-8073-bd8a6e14018a","system_id":"levelo_inurba_marseille","lat":43.23147,"lon":5.43737,"is_reserved":false,"is_disabled":false,"rental_uris":{"android":"levelo://app?vid=340f4554-b1f2-4650-8073-bd8a6e14018a","ios":"levelo://app?vid=340f4554-b1f2-4650-8073-bd8a6e14018a"},"vehicle_type_id":"4","last_reported":1746893461,"current_range_meters":9200,"station_id":"ce4bhmp2rcd13ifvqgog","pricing_plan_id":"cebpf4jnsgd1na2vs0mg"},{"bike_id":"555d2e9a-1fb7-48a3-ae07-15f46028cc91","system_id":"levelo_inurba_marseille","lat":43.258222,"lon":5.394379,"is_reserved":false,"is_disabled":false,"rental_uris":{"android":"levelo://app?vid=555d2e9a-1fb7-48a3-ae07-15f46028cc91","ios":"levelo://app?vid=555d2e9a-1fb7-48a3-ae07-15f46028cc91"},"vehicle_type_id":"4","last_reported":1746893461,"current_range_meters":9200,"station_id":"ce4bhip2rcd13ifvqft0","pricing_plan_id":"cebpf4jnsgd1na2vs0mg"},{"bike_id":"b4922158-c065-44dc-87b7-acbc4ed85bdc","system_id":"levelo_inurba_marseille","lat":43.31887,"lon":5.4072,"is_reserved":false,"is_disabled":false,"rental_uris":{"android":"levelo://app?vid=b4922158-c065-44dc-87b7-acbc4ed85bdc","ios":"levelo://app?vid=b4922158-c065-44dc-87b7-acbc4ed85bdc"},"vehicle_type_id":"4","last_reported":1746893461,"current_range_meters":9200,"station_id":"ce4bhq12rcd13ifvqhig","pricing_plan_id":"cebpf4jnsgd1na2vs0mg"},{"bike_id":"8de6d870-bdf6-45d4-89c8-49acf995c0ef","system_id":"levelo_inurba_marseille","lat":43.29579,"lon":5.37515,"is_reserved":false,"is_disabled":false,"rental_uris":{"android":"levelo://app?vid=8de6d870-bdf6-45d4-89c8-49acf995c0ef","ios":"levelo://app?vid=8de6d870-bdf6-45d4-89c8-49acf995c0ef"},"vehicle_type_id":"4","last_reported":1746893461,"current_range_meters":9200,"station_id":"ce4bgh92rcd13ifvqb50","pricing_plan_id":"cebpf4jnsgd1na2vs0mg"},{"bike_id":"ee7d7cdf-6a69-48fa-bee6-c92c8dd8bc0a","system_id":"levelo_inurba_marseille","lat":43.32284,"lon":5.38283,"is_reserved":false,"is_disabled":false,"rental_uris":{"android":"levelo://app?vid=ee7d7cdf-6a69-48fa-bee6-c92c8dd8bc0a","ios":"levelo://app?vid=ee7d7cdf-6a69-48fa-bee6-c92c8dd8bc0a"},"vehicle_type_id":"4","last_reported":1746893461,"current_range_meters":9600,"station_id":"ce4bhr12rcd13ifvqhqg","pricing_plan_id":"cebpf4jnsgd1na2vs0mg"},{"bike_id":"09dd0989-998b-4ee1-a199-71e5bde88891","system_id":"levelo_inurba_marseille","lat":43.31759,"lon":5.3902,"is_reserved":false,"is_disabled":false,"rental_uris":{"android":"levelo://app?vid=09dd0989-998b-4ee1-a199-71e5bde88891","ios":"levelo://app?vid=09dd0989-998b-4ee1-a199-71e5bde88891"},"vehicle_type_id":"4","last_reported":1746893461,"current_range_meters":9600,"station_id":"ce4bhqp2rcd13ifvqhng","pricing_plan_id":"cebpf4jnsgd1na2vs0mg"},{"bike_id":"1ffd911c-b79d-4573-be11-c1f9a8ff98b3","system_id":"levelo_inurba_marseille","lat":43.26564,"lon":5.37276,"is_reserved":false,"is_disabled":false,"rental_uris":{"android":"levelo://app?vid=1ffd911c-b79d-4573-be11-c1f9a8ff98b3","ios":"levelo://app?vid=1ffd911c-b79d-4573-be11-c1f9a8ff98b3"},"vehicle_type_id":"4","last_reported":1746893461,"current_range_meters":9600,"station_id":"ce4bhg12rcd13ifvqf70","pricing_plan_id":"cebpf4jnsgd1na2vs0mg"},{"bike_id":"1c120a3d-80ef-4169-8e64-9ed896ae45ba","system_id":"levelo_inurba_marseille","lat":43.24164,"lon":5.364,"is_reserved":false,"is_disabled":false,"rental_uris":{"android":"levelo://app?vid=1c120a3d-80ef-4169-8e64-9ed896ae45ba","ios":"levelo://app?vid=1c120a3d-80ef-4169-8e64-9ed896ae45ba"},"vehicle_type_id":"4","last_reported":1746893461,"current_range_meters":9600,"station_id":"cpo36qri1sfpv3e86is0","pricing_plan_id":"cebpf4jnsgd1na2vs0mg"},{"bike_id":"9b93aef4-da21-4750-b984-130acada265a","system_id":"levelo_inurba_marseille","lat":43.23154,"lon":5.43712,"is_reserved":false,"is_disabled":false,"rental_uris":{"android":"levelo://app?vid=9b93aef4-da21-4750-b984-130acada265a","ios":"levelo://app?vid=9b93aef4-da21-4750-b984-130acada265a"},"vehicle_type_id":"4","last_reported":1746893461,"current_range_meters":9600,"station_id":"ce4bhmp2rcd13ifvqgog","pricing_plan_id":"cebpf4jnsgd1na2vs0mg"},{"bike_id":"90df9be9-7a21-49ec-8485-950c0e323531","system_id":"levelo_inurba_marseille","lat":43.22921,"lon":5.35376,"is_reserved":false,"is_disabled":false,"rental_uris":{"android":"levelo://app?vid=90df9be9-7a21-49ec-8485-950c0e323531","ios":"levelo://app?vid=90df9be9-7a21-49ec-8485-950c0e323531"},"vehicle_type_id":"4","last_reported":1746893461,"current_range_meters":9600,"station_id":"cpo3532slgdg3j2ikp40","pricing_plan_id":"cebpf4jnsgd1na2vs0mg"},{"bike_id":"86b478b2-1cf2-4e07-8a5c-76710e912a41","system_id":"levelo_inurba_marseille","lat":43.29139,"lon":5.36685,"is_reserved":false,"is_disabled":false,"rental_uris":{"android":"levelo://app?vid=86b478b2-1cf2-4e07-8a5c-76710e912a41","ios":"levelo://app?vid=86b478b2-1cf2-4e07-8a5c-76710e912a41"},"vehicle_type_id":"4","last_reported":1746893461,"current_range_meters":9600,"station_id":"","pricing_plan_id":"cebpf4jnsgd1na2vs0mg"},{"bike_id":"6d24e392-46d1-4d72-84a5-5d205b606b14","system_id":"levelo_inurba_marseille","lat":43.28192,"lon":5.42641,"is_reserved":false,"is_disabled":false,"rental_uris":{"android":"levelo://app?vid=6d24e392-46d1-4d72-84a5-5d205b606b14","ios":"levelo://app?vid=6d24e392-46d1-4d72-84a5-5d205b606b14"},"vehicle_type_id":"4","last_reported":1746893461,"current_range_meters":9600,"station_id":"ce4bhnh2rcd13ifvqgug","pricing_plan_id":"cebpf4jnsgd1na2vs0mg"},{"bike_id":"99fb9985-2088-4a48-ae83-62aca3ba1639","system_id":"levelo_inurba_marseille","lat":43.31506,"lon":5.37303,"is_reserved":false,"is_disabled":true,"rental_uris":{"android":"levelo://app?vid=99fb9985-2088-4a48-ae83-62aca3ba1639","ios":"levelo://app?vid=99fb9985-2088-4a48-ae83-62aca3ba1639"},"vehicle_type_id":"4","last_reported":1746893461,"current_range_meters":9600,"station_id":"ce4bgt12rcd13ifvqcd0","pricing_plan_id":"cebpf4jnsgd1na2vs0mg"},{"bike_id":"26d99ef7-d04d-413d-bb2c-784a6ec49a78","system_id":"levelo_inurba_marseille","lat":43.30629,"lon":5.36596,"is_reserved":false,"is_disabled":false,"rental_uris":{"android":"levelo://app?vid=26d99ef7-d04d-413d-bb2c-784a6ec49a78","ios":"levelo://app?vid=26d99ef7-d04d-413d-bb2c-784a6ec49a78"},"vehicle_type_id":"4","last_reported":1746893461,"current_range_meters":9600,"station_id":"","pricing_plan_id":"cebpf4jnsgd1na2vs0mg"},{"bike_id":"76ea03f3-d936-49e1-84b2-3eb520aceebb","system_id":"levelo_inurba_marseille","lat":43.23195,"lon":5.35547,"is_reserved":false,"is_disabled":false,"rental_uris":{"android":"levelo://app?vid=76ea03f3-d936-49e1-84b2-3eb520aceebb","ios":"levelo://app?vid=76ea03f3-d936-49e1-84b2-3eb520aceebb"},"vehicle_type_id":"4","last_reported":1746893461,"current_range_meters":10000,"station_id":"ce4bhu92rcd13ifvqi70","pricing_plan_id":"cebpf4jnsgd1na2vs0mg"},{"bike_id":"a862be1e-1d7e-4978-8b29-fcd7e491d949","system_id":"levelo_inurba_marseille","lat":43.24195,"lon":5.36422,"is_reserved":false,"is_disabled":false,"rental_uris":{"android":"levelo://app?vid=a862be1e-1d7e-4978-8b29-fcd7e491d949","ios":"levelo://app?vid=a862be1e-1d7e-4978-8b29-fcd7e491d949"},"vehicle_type_id":"4","last_reported":1746893461,"current_range_meters":10000,"station_id":"cpo36qri1sfpv3e86is0","pricing_plan_id":"cebpf4jnsgd1na2vs0mg"},{"bike_id":"b7914585-2772-4a82-8ad1-94b273de0da2","system_id":"levelo_inurba_marseille","lat":43.28482,"lon":5.38427,"is_reserved":false,"is_disabled":false,"rental_uris":{"android":"levelo://app?vid=b7914585-2772-4a82-8ad1-94b273de0da2","ios":"levelo://app?vid=b7914585-2772-4a82-8ad1-94b273de0da2"},"vehicle_type_id":"4","last_reported":1746893461,"current_range_meters":10000,"station_id":"ce4bh512rcd13ifvqe3g","pricing_plan_id":"cebpf4jnsgd1na2vs0mg"},{"bike_id":"867b441e-e683-4b36-a17b-08af5098afff","system_id":"levelo_inurba_marseille","lat":43.2826,"lon":5.35076,"is_reserved":false,"is_disabled":false,"rental_uris":{"android":"levelo://app?vid=867b441e-e683-4b36-a17b-08af5098afff","ios":"levelo://app?vid=867b441e-e683-4b36-a17b-08af5098afff"},"vehicle_type_id":"4","last_reported":1746893461,"current_range_meters":10000,"station_id":"ce4bhbp2rcd13ifvqerg","pricing_plan_id":"cebpf4jnsgd1na2vs0mg"},{"bike_id":"501f8e9b-ce61-40aa-b3a3-7ccb23dcd5f9","system_id":"levelo_inurba_marseille","lat":43.231915,"lon":5.355567,"is_reserved":false,"is_disabled":false,"rental_uris":{"android":"levelo://app?vid=501f8e9b-ce61-40aa-b3a3-7ccb23dcd5f9","ios":"levelo://app?vid=501f8e9b-ce61-40aa-b3a3-7ccb23dcd5f9"},"vehicle_type_id":"4","last_reported":1746893461,"current_range_meters":10000,"station_id":"ce4bhu92rcd13ifvqi70","pricing_plan_id":"cebpf4jnsgd1na2vs0mg"},{"bike_id":"5c51be22-6357-407d-9031-a3b01e881f91","system_id":"levelo_inurba_marseille","lat":43.26936,"lon":5.40259,"is_reserved":false,"is_disabled":false,"rental_uris":{"android":"levelo://app?vid=5c51be22-6357-407d-9031-a3b01e881f91","ios":"levelo://app?vid=5c51be22-6357-407d-9031-a3b01e881f91"},"vehicle_type_id":"4","last_reported":1746893461,"current_range_meters":10800,"station_id":"cjm6bp8fraef2m0cb0m0","pricing_plan_id":"cebpf4jnsgd1na2vs0mg"},{"bike_id":"351ef218-24e5-4670-825d-fc1ac5cd3c19","system_id":"levelo_inurba_marseille","lat":43.31717,"lon":5.36376,"is_reserved":false,"is_disabled":false,"rental_uris":{"android":"levelo://app?vid=351ef218-24e5-4670-825d-fc1ac5cd3c19","ios":"levelo://app?vid=351ef218-24e5-4670-825d-fc1ac5cd3c19"},"vehicle_type_id":"4","last_reported":1746893461,"current_range_meters":10800,"station_id":"","pricing_plan_id":"cebpf4jnsgd1na2vs0mg"},{"bike_id":"de8f8e8f-8896-496f-bbda-ae293542a036","system_id":"levelo_inurba_marseille","lat":43.23976,"lon":5.3664,"is_reserved":false,"is_disabled":false,"rental_uris":{"android":"levelo://app?vid=de8f8e8f-8896-496f-bbda-ae293542a036","ios":"levelo://app?vid=de8f8e8f-8896-496f-bbda-ae293542a036"},"vehicle_type_id":"4","last_reported":1746893461,"current_range_meters":10800,"station_id":"ce4bhi12rcd13ifvqfp0","pricing_plan_id":"cebpf4jnsgd1na2vs0mg"},{"bike_id":"054556f3-c6ad-48d1-b256-31e822f36c57","system_id":"levelo_inurba_marseille","lat":43.3118,"lon":5.38714,"is_reserved":false,"is_disabled":false,"rental_uris":{"android":"levelo://app?vid=054556f3-c6ad-48d1-b256-31e822f36c57","ios":"levelo://app?vid=054556f3-c6ad-48d1-b256-31e822f36c57"},"vehicle_type_id":"4","last_reported":1746893461,"current_range_meters":10800,"station_id":"ce4bgv12rcd13ifvqcp0","pricing_plan_id":"cebpf4jnsgd1na2vs0mg"},{"bike_id":"49a3ecb4-aa15-4848-b113-8c35ea1ea6bc","system_id":"levelo_inurba_marseille","lat":43.317097,"lon":5.436997,"is_reserved":false,"is_disabled":false,"rental_uris":{"android":"levelo://app?vid=49a3ecb4-aa15-4848-b113-8c35ea1ea6bc","ios":"levelo://app?vid=49a3ecb4-aa15-4848-b113-8c35ea1ea6bc"},"vehicle_type_id":"4","last_reported":1746893461,"current_range_meters":10800,"station_id":"ce4bhp92rcd13ifvqhcg","pricing_plan_id":"cebpf4jnsgd1na2vs0mg"},{"bike_id":"1d208989-e74d-4fed-8780-912b2efc88cd","system_id":"levelo_inurba_marseille","lat":43.29178,"lon":5.37174,"is_reserved":false,"is_disabled":false,"rental_uris":{"android":"levelo://app?vid=1d208989-e74d-4fed-8780-912b2efc88cd","ios":"levelo://app?vid=1d208989-e74d-4fed-8780-912b2efc88cd"},"vehicle_type_id":"4","last_reported":1746893461,"current_range_meters":10800,"station_id":"ce4bha92rcd13ifvqeh0","pricing_plan_id":"cebpf4jnsgd1na2vs0mg"},{"bike_id":"42f9bd86-3069-4b90-aa34-15bb3499b184","system_id":"levelo_inurba_marseille","lat":43.29073,"lon":5.37178,"is_reserved":false,"is_disabled":false,"rental_uris":{"android":"levelo://app?vid=42f9bd86-3069-4b90-aa34-15bb3499b184","ios":"levelo://app?vid=42f9bd86-3069-4b90-aa34-15bb3499b184"},"vehicle_type_id":"4","last_reported":1746893461,"current_range_meters":10800,"station_id":"ce4bh5p2rcd13ifvqe4g","pricing_plan_id":"cebpf4jnsgd1na2vs0mg"},{"bike_id":"6c990230-14c0-4ee6-8df9-6978ad8dac5f","system_id":"levelo_inurba_marseille","lat":43.26957,"lon":5.40262,"is_reserved":false,"is_disabled":false,"rental_uris":{"android":"levelo://app?vid=6c990230-14c0-4ee6-8df9-6978ad8dac5f","ios":"levelo://app?vid=6c990230-14c0-4ee6-8df9-6978ad8dac5f"},"vehicle_type_id":"4","last_reported":1746893461,"current_range_meters":11200,"station_id":"cjm6bp8fraef2m0cb0m0","pricing_plan_id":"cebpf4jnsgd1na2vs0mg"},{"bike_id":"87d458e3-ffff-4446-a131-b377f09c8d63","system_id":"levelo_inurba_marseille","lat":43.24386,"lon":5.37063,"is_reserved":false,"is_disabled":false,"rental_uris":{"android":"levelo://app?vid=87d458e3-ffff-4446-a131-b377f09c8d63","ios":"levelo://app?vid=87d458e3-ffff-4446-a131-b377f09c8d63"},"vehicle_type_id":"4","last_reported":1746893461,"current_range_meters":11200,"station_id":"ce4bhhh2rcd13ifvqfk0","pricing_plan_id":"cebpf4jnsgd1na2vs0mg"},{"bike_id":"223c9ba0-574a-41b9-8572-953550a094a0","system_id":"levelo_inurba_marseille","lat":43.30176,"lon":5.36624,"is_reserved":false,"is_disabled":false,"rental_uris":{"android":"levelo://app?vid=223c9ba0-574a-41b9-8572-953550a094a0","ios":"levelo://app?vid=223c9ba0-574a-41b9-8572-953550a094a0"},"vehicle_type_id":"4","last_reported":1746893461,"current_range_meters":11200,"station_id":"ce4bgrh2rcd13ifvqc8g","pricing_plan_id":"cebpf4jnsgd1na2vs0mg"},{"bike_id":"942c0dd0-ef1f-4aba-8dfb-50609d42ed99","system_id":"levelo_inurba_marseille","lat":43.3031,"lon":5.40424,"is_reserved":false,"is_disabled":false,"rental_uris":{"android":"levelo://app?vid=942c0dd0-ef1f-4aba-8dfb-50609d42ed99","ios":"levelo://app?vid=942c0dd0-ef1f-4aba-8dfb-50609d42ed99"},"vehicle_type_id":"4","last_reported":1746893461,"current_range_meters":11600,"station_id":"ce4bh012rcd13ifvqd10","pricing_plan_id":"cebpf4jnsgd1na2vs0mg"},{"bike_id":"26ff2128-a28a-4667-8992-d131dd307547","system_id":"levelo_inurba_marseille","lat":43.29007,"lon":5.35625,"is_reserved":false,"is_disabled":false,"rental_uris":{"android":"levelo://app?vid=26ff2128-a28a-4667-8992-d131dd307547","ios":"levelo://app?vid=26ff2128-a28a-4667-8992-d131dd307547"},"vehicle_type_id":"4","last_reported":1746893461,"current_range_meters":11600,"station_id":"ce4bhb92rcd13ifvqen0","pricing_plan_id":"cebpf4jnsgd1na2vs0mg"},{"bike_id":"7460ef4e-03a4-4ed2-b9ec-abbd21add7b6","system_id":"levelo_inurba_marseille","lat":43.29276,"lon":5.36847,"is_reserved":false,"is_disabled":false,"rental_uris":{"android":"levelo://app?vid=7460ef4e-03a4-4ed2-b9ec-abbd21add7b6","ios":"levelo://app?vid=7460ef4e-03a4-4ed2-b9ec-abbd21add7b6"},"vehicle_type_id":"4","last_reported":1746893461,"current_range_meters":11600,"station_id":"ce4bhbp2rcd13ifvqesg","pricing_plan_id":"cebpf4jnsgd1na2vs0mg"},{"bike_id":"79011bfe-d45f-4ef3-8a11-a45232b1a6ca","system_id":"levelo_inurba_marseille","lat":43.243915,"lon":5.37061,"is_reserved":false,"is_disabled":false,"rental_uris":{"android":"levelo://app?vid=79011bfe-d45f-4ef3-8a11-a45232b1a6ca","ios":"levelo://app?vid=79011bfe-d45f-4ef3-8a11-a45232b1a6ca"},"vehicle_type_id":"4","last_reported":1746893461,"current_range_meters":12000,"station_id":"ce4bhhh2rcd13ifvqfk0","pricing_plan_id":"cebpf4jnsgd1na2vs0mg"},{"bike_id":"efe7716d-8aff-45e8-8daf-a7e8ab30ecc2","system_id":"levelo_inurba_marseille","lat":43.24815,"lon":5.37462,"is_reserved":false,"is_disabled":false,"rental_uris":{"android":"levelo://app?vid=efe7716d-8aff-45e8-8daf-a7e8ab30ecc2","ios":"levelo://app?vid=efe7716d-8aff-45e8-8daf-a7e8ab30ecc2"},"vehicle_type_id":"4","last_reported":1746893461,"current_range_meters":12000,"station_id":"ce4bhgh2rcd13ifvqfb0","pricing_plan_id":"cebpf4jnsgd1na2vs0mg"},{"bike_id":"bb9dd4d9-ef7c-411c-9ce2-6f0d8890189a","system_id":"levelo_inurba_marseille","lat":43.24174,"lon":5.3639,"is_reserved":false,"is_disabled":false,"rental_uris":{"android":"levelo://app?vid=bb9dd4d9-ef7c-411c-9ce2-6f0d8890189a","ios":"levelo://app?vid=bb9dd4d9-ef7c-411c-9ce2-6f0d8890189a"},"vehicle_type_id":"4","last_reported":1746893461,"current_range_meters":12000,"station_id":"cpo36qri1sfpv3e86is0","pricing_plan_id":"cebpf4jnsgd1na2vs0mg"},{"bike_id":"44e88eeb-5d69-44d1-ad07-bcaf5276d14e","system_id":"levelo_inurba_marseille","lat":43.26232,"lon":5.40451,"is_reserved":false,"is_disabled":false,"rental_uris":{"android":"levelo://app?vid=44e88eeb-5d69-44d1-ad07-bcaf5276d14e","ios":"levelo://app?vid=44e88eeb-5d69-44d1-ad07-bcaf5276d14e"},"vehicle_type_id":"4","last_reported":1746893461,"current_range_meters":12400,"station_id":"ce4bhmh2rcd13ifvqgmg","pricing_plan_id":"cebpf4jnsgd1na2vs0mg"},{"bike_id":"38488d26-9dc5-474b-8185-fe758f6398da","system_id":"levelo_inurba_marseille","lat":43.26395,"lon":5.39612,"is_reserved":false,"is_disabled":false,"rental_uris":{"android":"levelo://app?vid=38488d26-9dc5-474b-8185-fe758f6398da","ios":"levelo://app?vid=38488d26-9dc5-474b-8185-fe758f6398da"},"vehicle_type_id":"4","last_reported":1746893461,"current_range_meters":12800,"station_id":"ce4bhi12rcd13ifvqfq0","pricing_plan_id":"cebpf4jnsgd1na2vs0mg"},{"bike_id":"1d83476a-9395-4e91-90b3-3098d854b2b3","system_id":"levelo_inurba_marseille","lat":43.29253,"lon":5.38426,"is_reserved":false,"is_disabled":true,"rental_uris":{"android":"levelo://app?vid=1d83476a-9395-4e91-90b3-3098d854b2b3","ios":"levelo://app?vid=1d83476a-9395-4e91-90b3-3098d854b2b3"},"vehicle_type_id":"4","last_reported":1746893461,"current_range_meters":12800,"station_id":"ce4bh692rcd13ifvqea0","pricing_plan_id":"cebpf4jnsgd1na2vs0mg"},{"bike_id":"9080953c-a459-4d74-972d-4c7ca300963c","system_id":"levelo_inurba_marseille","lat":43.231037,"lon":5.354624,"is_reserved":false,"is_disabled":false,"rental_uris":{"android":"levelo://app?vid=9080953c-a459-4d74-972d-4c7ca300963c","ios":"levelo://app?vid=9080953c-a459-4d74-972d-4c7ca300963c"},"vehicle_type_id":"4","last_reported":1746893461,"current_range_meters":12800,"station_id":"cpo3342slgdg3j2ifvpg","pricing_plan_id":"cebpf4jnsgd1na2vs0mg"},{"bike_id":"77c65b2e-c8a1-4438-b3e7-bd917314515b","system_id":"levelo_inurba_marseille","lat":43.29891,"lon":5.43662,"is_reserved":false,"is_disabled":false,"rental_uris":{"android":"levelo://app?vid=77c65b2e-c8a1-4438-b3e7-bd917314515b","ios":"levelo://app?vid=77c65b2e-c8a1-4438-b3e7-bd917314515b"},"vehicle_type_id":"4","last_reported":1746893461,"current_range_meters":13600,"station_id":"ce4bhpp2rcd13ifvqhfg","pricing_plan_id":"cebpf4jnsgd1na2vs0mg"},{"bike_id":"fc2577e7-1497-425b-9d4f-ab8d7dc843c6","system_id":"levelo_inurba_marseille","lat":43.33771,"lon":5.37485,"is_reserved":false,"is_disabled":false,"rental_uris":{"android":"levelo://app?vid=fc2577e7-1497-425b-9d4f-ab8d7dc843c6","ios":"levelo://app?vid=fc2577e7-1497-425b-9d4f-ab8d7dc843c6"},"vehicle_type_id":"4","last_reported":1746893461,"current_range_meters":14000,"station_id":"","pricing_plan_id":"cebpf4jnsgd1na2vs0mg"},{"bike_id":"365059ff-84e4-4e2f-a60b-8b6b4b573335","system_id":"levelo_inurba_marseille","lat":43.26031,"lon":5.37569,"is_reserved":false,"is_disabled":false,"rental_uris":{"android":"levelo://app?vid=365059ff-84e4-4e2f-a60b-8b6b4b573335","ios":"levelo://app?vid=365059ff-84e4-4e2f-a60b-8b6b4b573335"},"vehicle_type_id":"4","last_reported":1746893461,"current_range_meters":14000,"station_id":"ce4bhgh2rcd13ifvqfa0","pricing_plan_id":"cebpf4jnsgd1na2vs0mg"},{"bike_id":"78ca0d22-54bd-4995-a3e7-43240271f9d5","system_id":"levelo_inurba_marseille","lat":43.23198,"lon":5.35557,"is_reserved":false,"is_disabled":false,"rental_uris":{"android":"levelo://app?vid=78ca0d22-54bd-4995-a3e7-43240271f9d5","ios":"levelo://app?vid=78ca0d22-54bd-4995-a3e7-43240271f9d5"},"vehicle_type_id":"4","last_reported":1746893461,"current_range_meters":14000,"station_id":"ce4bhu92rcd13ifvqi70","pricing_plan_id":"cebpf4jnsgd1na2vs0mg"},{"bike_id":"655f8bf7-9a76-449c-acbf-d2a5230f847d","system_id":"levelo_inurba_marseille","lat":43.29873,"lon":5.39742,"is_reserved":false,"is_disabled":false,"rental_uris":{"android":"levelo://app?vid=655f8bf7-9a76-449c-acbf-d2a5230f847d","ios":"levelo://app?vid=655f8bf7-9a76-449c-acbf-d2a5230f847d"},"vehicle_type_id":"4","last_reported":1746893461,"current_range_meters":14000,"station_id":"ce4bh0h2rcd13ifvqd50","pricing_plan_id":"cebpf4jnsgd1na2vs0mg"},{"bike_id":"6ff5f270-f3fe-4e5b-901b-f9bd57065bff","system_id":"levelo_inurba_marseille","lat":43.23195,"lon":5.35554,"is_reserved":false,"is_disabled":false,"rental_uris":{"android":"levelo://app?vid=6ff5f270-f3fe-4e5b-901b-f9bd57065bff","ios":"levelo://app?vid=6ff5f270-f3fe-4e5b-901b-f9bd57065bff"},"vehicle_type_id":"4","last_reported":1746893461,"current_range_meters":14000,"station_id":"ce4bhu92rcd13ifvqi70","pricing_plan_id":"cebpf4jnsgd1na2vs0mg"},{"bike_id":"b98f5c07-8f6f-4f63-9530-5a8d6b30ffb0","system_id":"levelo_inurba_marseille","lat":43.239623,"lon":5.366269,"is_reserved":false,"is_disabled":false,"rental_uris":{"android":"levelo://app?vid=b98f5c07-8f6f-4f63-9530-5a8d6b30ffb0","ios":"levelo://app?vid=b98f5c07-8f6f-4f63-9530-5a8d6b30ffb0"},"vehicle_type_id":"4","last_reported":1746893461,"current_range_meters":14400,"station_id":"ce4bhi12rcd13ifvqfp0","pricing_plan_id":"cebpf4jnsgd1na2vs0mg"},{"bike_id":"8923b22f-9151-404f-a2d7-613d31ffaedf","system_id":"levelo_inurba_marseille","lat":43.30627,"lon":5.36783,"is_reserved":false,"is_disabled":false,"rental_uris":{"android":"levelo://app?vid=8923b22f-9151-404f-a2d7-613d31ffaedf","ios":"levelo://app?vid=8923b22f-9151-404f-a2d7-613d31ffaedf"},"vehicle_type_id":"4","last_reported":1746893461,"current_range_meters":14400,"station_id":"","pricing_plan_id":"cebpf4jnsgd1na2vs0mg"},{"bike_id":"6ee3816b-467c-469f-87c1-ded969c12300","system_id":"levelo_inurba_marseille","lat":43.29008,"lon":5.35617,"is_reserved":false,"is_disabled":false,"rental_uris":{"android":"levelo://app?vid=6ee3816b-467c-469f-87c1-ded969c12300","ios":"levelo://app?vid=6ee3816b-467c-469f-87c1-ded969c12300"},"vehicle_type_id":"4","last_reported":1746893461,"current_range_meters":14400,"station_id":"ce4bhb92rcd13ifvqen0","pricing_plan_id":"cebpf4jnsgd1na2vs0mg"},{"bike_id":"82023fa7-2d5f-46b3-a1d3-ce9499bf1a6b","system_id":"levelo_inurba_marseille","lat":43.2738,"lon":5.3626,"is_reserved":false,"is_disabled":false,"rental_uris":{"android":"levelo://app?vid=82023fa7-2d5f-46b3-a1d3-ce9499bf1a6b","ios":"levelo://app?vid=82023fa7-2d5f-46b3-a1d3-ce9499bf1a6b"},"vehicle_type_id":"4","last_reported":1746893461,"current_range_meters":14800,"station_id":"ce4bhbh2rcd13ifvqeo0","pricing_plan_id":"cebpf4jnsgd1na2vs0mg"},{"bike_id":"25bd9db4-b151-496c-ba5d-8dcff47fadbf","system_id":"levelo_inurba_marseille","lat":43.319607,"lon":5.370623,"is_reserved":false,"is_disabled":false,"rental_uris":{"android":"levelo://app?vid=25bd9db4-b151-496c-ba5d-8dcff47fadbf","ios":"levelo://app?vid=25bd9db4-b151-496c-ba5d-8dcff47fadbf"},"vehicle_type_id":"4","last_reported":1746893461,"current_range_meters":15200,"station_id":"","pricing_plan_id":"cebpf4jnsgd1na2vs0mg"},{"bike_id":"57065f6d-201e-48a4-a8aa-9b29caeb3eb5","system_id":"levelo_inurba_marseille","lat":43.28161,"lon":5.42646,"is_reserved":false,"is_disabled":false,"rental_uris":{"android":"levelo://app?vid=57065f6d-201e-48a4-a8aa-9b29caeb3eb5","ios":"levelo://app?vid=57065f6d-201e-48a4-a8aa-9b29caeb3eb5"},"vehicle_type_id":"4","last_reported":1746893461,"current_range_meters":15200,"station_id":"ce4bhnh2rcd13ifvqgug","pricing_plan_id":"cebpf4jnsgd1na2vs0mg"},{"bike_id":"61a98820-15c6-4bcb-a1fc-1637a5e903dd","system_id":"levelo_inurba_marseille","lat":43.278107,"lon":5.407185,"is_reserved":false,"is_disabled":false,"rental_uris":{"android":"levelo://app?vid=61a98820-15c6-4bcb-a1fc-1637a5e903dd","ios":"levelo://app?vid=61a98820-15c6-4bcb-a1fc-1637a5e903dd"},"vehicle_type_id":"4","last_reported":1746893461,"current_range_meters":15200,"station_id":"ce4bhnh2rcd13ifvqgtg","pricing_plan_id":"cebpf4jnsgd1na2vs0mg"},{"bike_id":"b222ace3-ab88-460b-b1d6-41e908211cad","system_id":"levelo_inurba_marseille","lat":43.21749,"lon":5.34603,"is_reserved":false,"is_disabled":true,"rental_uris":{"android":"levelo://app?vid=b222ace3-ab88-460b-b1d6-41e908211cad","ios":"levelo://app?vid=b222ace3-ab88-460b-b1d6-41e908211cad"},"vehicle_type_id":"4","last_reported":1746893461,"current_range_meters":16000,"station_id":"st_cvj6r9ubvosntc0bgbag","pricing_plan_id":"cebpf4jnsgd1na2vs0mg"},{"bike_id":"6d705489-d3d5-4e12-a28e-5d7bb8b109f3","system_id":"levelo_inurba_marseille","lat":43.26843,"lon":5.42754,"is_reserved":false,"is_disabled":false,"rental_uris":{"android":"levelo://app?vid=6d705489-d3d5-4e12-a28e-5d7bb8b109f3","ios":"levelo://app?vid=6d705489-d3d5-4e12-a28e-5d7bb8b109f3"},"vehicle_type_id":"4","last_reported":1746893461,"current_range_meters":16000,"station_id":"","pricing_plan_id":"cebpf4jnsgd1na2vs0mg"},{"bike_id":"a1121b36-b5cd-4dda-96ef-13a3dfaa55e1","system_id":"levelo_inurba_marseille","lat":43.301401,"lon":5.387791,"is_reserved":false,"is_disabled":false,"rental_uris":{"android":"levelo://app?vid=a1121b36-b5cd-4dda-96ef-13a3dfaa55e1","ios":"levelo://app?vid=a1121b36-b5cd-4dda-96ef-13a3dfaa55e1"},"vehicle_type_id":"4","last_reported":1746893461,"current_range_meters":16000,"station_id":"","pricing_plan_id":"cebpf4jnsgd1na2vs0mg"},{"bike_id":"8b026b76-2392-4b0d-a0d3-193b6fab463e","system_id":"levelo_inurba_marseille","lat":43.231933,"lon":5.355563,"is_reserved":false,"is_disabled":false,"rental_uris":{"android":"levelo://app?vid=8b026b76-2392-4b0d-a0d3-193b6fab463e","ios":"levelo://app?vid=8b026b76-2392-4b0d-a0d3-193b6fab463e"},"vehicle_type_id":"4","last_reported":1746893461,"current_range_meters":16000,"station_id":"ce4bhu92rcd13ifvqi70","pricing_plan_id":"cebpf4jnsgd1na2vs0mg"},{"bike_id":"611984cb-882a-46b7-8fab-e6350303c611","system_id":"levelo_inurba_marseille","lat":43.24179,"lon":5.36432,"is_reserved":false,"is_disabled":false,"rental_uris":{"android":"levelo://app?vid=611984cb-882a-46b7-8fab-e6350303c611","ios":"levelo://app?vid=611984cb-882a-46b7-8fab-e6350303c611"},"vehicle_type_id":"4","last_reported":1746893461,"current_range_meters":16000,"station_id":"cpo36qri1sfpv3e86is0","pricing_plan_id":"cebpf4jnsgd1na2vs0mg"},{"bike_id":"a8e17ede-fdbc-4c15-b71a-25bfaee41300","system_id":"levelo_inurba_marseille","lat":43.29935,"lon":5.36554,"is_reserved":false,"is_disabled":false,"rental_uris":{"android":"levelo://app?vid=a8e17ede-fdbc-4c15-b71a-25bfaee41300","ios":"levelo://app?vid=a8e17ede-fdbc-4c15-b71a-25bfaee41300"},"vehicle_type_id":"4","last_reported":1746893461,"current_range_meters":16000,"station_id":"","pricing_plan_id":"cebpf4jnsgd1na2vs0mg"},{"bike_id":"ddd80f26-913e-4265-9001-0509661216b4","system_id":"levelo_inurba_marseille","lat":43.24164,"lon":5.36449,"is_reserved":false,"is_disabled":false,"rental_uris":{"android":"levelo://app?vid=ddd80f26-913e-4265-9001-0509661216b4","ios":"levelo://app?vid=ddd80f26-913e-4265-9001-0509661216b4"},"vehicle_type_id":"4","last_reported":1746893461,"current_range_meters":16000,"station_id":"cpo36qri1sfpv3e86is0","pricing_plan_id":"cebpf4jnsgd1na2vs0mg"},{"bike_id":"1851c12b-58ac-47bf-b811-525c1ae34555","system_id":"levelo_inurba_marseille","lat":43.22905,"lon":5.35319,"is_reserved":false,"is_disabled":false,"rental_uris":{"android":"levelo://app?vid=1851c12b-58ac-47bf-b811-525c1ae34555","ios":"levelo://app?vid=1851c12b-58ac-47bf-b811-525c1ae34555"},"vehicle_type_id":"4","last_reported":1746893461,"current_range_meters":16000,"station_id":"","pricing_plan_id":"cebpf4jnsgd1na2vs0mg"},{"bike_id":"6add2d36-61c6-46c1-a56e-696306c1bd19","system_id":"levelo_inurba_marseille","lat":43.233642,"lon":5.360716,"is_reserved":false,"is_disabled":false,"rental_uris":{"android":"levelo://app?vid=6add2d36-61c6-46c1-a56e-696306c1bd19","ios":"levelo://app?vid=6add2d36-61c6-46c1-a56e-696306c1bd19"},"vehicle_type_id":"4","last_reported":1746893461,"current_range_meters":16000,"station_id":"","pricing_plan_id":"cebpf4jnsgd1na2vs0mg"},{"bike_id":"6e9da9fc-df22-4979-908e-0c8f10d5e096","system_id":"levelo_inurba_marseille","lat":43.23198,"lon":5.35547,"is_reserved":false,"is_disabled":false,"rental_uris":{"android":"levelo://app?vid=6e9da9fc-df22-4979-908e-0c8f10d5e096","ios":"levelo://app?vid=6e9da9fc-df22-4979-908e-0c8f10d5e096"},"vehicle_type_id":"4","last_reported":1746893461,"current_range_meters":16400,"station_id":"ce4bhu92rcd13ifvqi70","pricing_plan_id":"cebpf4jnsgd1na2vs0mg"},{"bike_id":"d2326ffb-3df8-46f4-b4f5-60b7753a0276","system_id":"levelo_inurba_marseille","lat":43.27996,"lon":5.41668,"is_reserved":false,"is_disabled":false,"rental_uris":{"android":"levelo://app?vid=d2326ffb-3df8-46f4-b4f5-60b7753a0276","ios":"levelo://app?vid=d2326ffb-3df8-46f4-b4f5-60b7753a0276"},"vehicle_type_id":"4","last_reported":1746893461,"current_range_meters":16400,"station_id":"ce4bho12rcd13ifvqh1g","pricing_plan_id":"cebpf4jnsgd1na2vs0mg"},{"bike_id":"ceb911c6-f8fc-4f4e-9ace-c48a9c3c3db1","system_id":"levelo_inurba_marseille","lat":43.26951,"lon":5.38679,"is_reserved":false,"is_disabled":false,"rental_uris":{"android":"levelo://app?vid=ceb911c6-f8fc-4f4e-9ace-c48a9c3c3db1","ios":"levelo://app?vid=ceb911c6-f8fc-4f4e-9ace-c48a9c3c3db1"},"vehicle_type_id":"4","last_reported":1746893461,"current_range_meters":16400,"station_id":"ce4bhh92rcd13ifvqfh0","pricing_plan_id":"cebpf4jnsgd1na2vs0mg"},{"bike_id":"c1fbbe49-2f5d-4a1b-abd6-a1253e725b96","system_id":"levelo_inurba_marseille","lat":43.23152,"lon":5.43736,"is_reserved":false,"is_disabled":false,"rental_uris":{"android":"levelo://app?vid=c1fbbe49-2f5d-4a1b-abd6-a1253e725b96","ios":"levelo://app?vid=c1fbbe49-2f5d-4a1b-abd6-a1253e725b96"},"vehicle_type_id":"4","last_reported":1746893461,"current_range_meters":16400,"station_id":"ce4bhmp2rcd13ifvqgog","pricing_plan_id":"cebpf4jnsgd1na2vs0mg"},{"bike_id":"e2434f42-8ebb-4eed-a218-d21bf35b3735","system_id":"levelo_inurba_marseille","lat":43.29794,"lon":5.38121,"is_reserved":false,"is_disabled":true,"rental_uris":{"android":"levelo://app?vid=e2434f42-8ebb-4eed-a218-d21bf35b3735","ios":"levelo://app?vid=e2434f42-8ebb-4eed-a218-d21bf35b3735"},"vehicle_type_id":"4","last_reported":1746893461,"current_range_meters":16800,"station_id":"ce4bgip2rcd13ifvqbb0","pricing_plan_id":"cebpf4jnsgd1na2vs0mg"},{"bike_id":"adf23e38-aa12-4678-aabc-7945ae931c26","system_id":"levelo_inurba_marseille","lat":43.28413,"lon":5.37522,"is_reserved":false,"is_disabled":false,"rental_uris":{"android":"levelo://app?vid=adf23e38-aa12-4678-aabc-7945ae931c26","ios":"levelo://app?vid=adf23e38-aa12-4678-aabc-7945ae931c26"},"vehicle_type_id":"4","last_reported":1746893461,"current_range_meters":16800,"station_id":"ce4bh412rcd13ifvqds0","pricing_plan_id":"cebpf4jnsgd1na2vs0mg"},{"bike_id":"6663a384-abed-48bd-861f-d563c5fcecd4","system_id":"levelo_inurba_marseille","lat":43.284282,"lon":5.349822,"is_reserved":false,"is_disabled":true,"rental_uris":{"android":"levelo://app?vid=6663a384-abed-48bd-861f-d563c5fcecd4","ios":"levelo://app?vid=6663a384-abed-48bd-861f-d563c5fcecd4"},"vehicle_type_id":"4","last_reported":1746893461,"current_range_meters":16800,"station_id":"ce4bhbh2rcd13ifvqepg","pricing_plan_id":"cebpf4jnsgd1na2vs0mg"},{"bike_id":"80265a29-7634-4f64-abb3-4182c961748a","system_id":"levelo_inurba_marseille","lat":43.25764,"lon":5.38685,"is_reserved":false,"is_disabled":false,"rental_uris":{"android":"levelo://app?vid=80265a29-7634-4f64-abb3-4182c961748a","ios":"levelo://app?vid=80265a29-7634-4f64-abb3-4182c961748a"},"vehicle_type_id":"4","last_reported":1746893461,"current_range_meters":16800,"station_id":"","pricing_plan_id":"cebpf4jnsgd1na2vs0mg"},{"bike_id":"8e70c211-2221-477f-8789-102e3904c4e0","system_id":"levelo_inurba_marseille","lat":43.2501,"lon":5.38919,"is_reserved":false,"is_disabled":false,"rental_uris":{"android":"levelo://app?vid=8e70c211-2221-477f-8789-102e3904c4e0","ios":"levelo://app?vid=8e70c211-2221-477f-8789-102e3904c4e0"},"vehicle_type_id":"4","last_reported":1746893461,"current_range_meters":16800,"station_id":"ce4bhgp2rcd13ifvqfd0","pricing_plan_id":"cebpf4jnsgd1na2vs0mg"},{"bike_id":"e357d5ed-d960-4098-8336-8d9d6c1997e4","system_id":"levelo_inurba_marseille","lat":43.28927,"lon":5.36648,"is_reserved":false,"is_disabled":false,"rental_uris":{"android":"levelo://app?vid=e357d5ed-d960-4098-8336-8d9d6c1997e4","ios":"levelo://app?vid=e357d5ed-d960-4098-8336-8d9d6c1997e4"},"vehicle_type_id":"4","last_reported":1746893461,"current_range_meters":16800,"station_id":"ce4bhap2rcd13ifvqek0","pricing_plan_id":"cebpf4jnsgd1na2vs0mg"},{"bike_id":"78bdd65d-acd5-4212-b9ce-1f713fbfe66f","system_id":"levelo_inurba_marseille","lat":43.21194,"lon":5.35075,"is_reserved":false,"is_disabled":true,"rental_uris":{"android":"levelo://app?vid=78bdd65d-acd5-4212-b9ce-1f713fbfe66f","ios":"levelo://app?vid=78bdd65d-acd5-4212-b9ce-1f713fbfe66f"},"vehicle_type_id":"4","last_reported":1746893461,"current_range_meters":16800,"station_id":"st_cvj6sg6p6f1abm77japg","pricing_plan_id":"cebpf4jnsgd1na2vs0mg"},{"bike_id":"a6c57145-fc35-40da-8787-99ea9ebdf755","system_id":"levelo_inurba_marseille","lat":43.28945,"lon":5.39637,"is_reserved":false,"is_disabled":false,"rental_uris":{"android":"levelo://app?vid=a6c57145-fc35-40da-8787-99ea9ebdf755","ios":"levelo://app?vid=a6c57145-fc35-40da-8787-99ea9ebdf755"},"vehicle_type_id":"4","last_reported":1746893461,"current_range_meters":17200,"station_id":"ce4bh3h2rcd13ifvqdn0","pricing_plan_id":"cebpf4jnsgd1na2vs0mg"},{"bike_id":"cd7fa3e7-226e-4278-82f4-b618d023d785","system_id":"levelo_inurba_marseille","lat":43.24171,"lon":5.36404,"is_reserved":false,"is_disabled":false,"rental_uris":{"android":"levelo://app?vid=cd7fa3e7-226e-4278-82f4-b618d023d785","ios":"levelo://app?vid=cd7fa3e7-226e-4278-82f4-b618d023d785"},"vehicle_type_id":"4","last_reported":1746893461,"current_range_meters":17200,"station_id":"cpo36qri1sfpv3e86is0","pricing_plan_id":"cebpf4jnsgd1na2vs0mg"},{"bike_id":"3fa26a14-db9b-43b1-9d97-3430da2f13c4","system_id":"levelo_inurba_marseille","lat":43.30426,"lon":5.42501,"is_reserved":false,"is_disabled":false,"rental_uris":{"android":"levelo://app?vid=3fa26a14-db9b-43b1-9d97-3430da2f13c4","ios":"levelo://app?vid=3fa26a14-db9b-43b1-9d97-3430da2f13c4"},"vehicle_type_id":"4","last_reported":1746893461,"current_range_meters":17200,"station_id":"ce4bhoh2rcd13ifvqh6g","pricing_plan_id":"cebpf4jnsgd1na2vs0mg"},{"bike_id":"6b4bd4f5-973b-43b4-a6ec-4b513564b3e5","system_id":"levelo_inurba_marseille","lat":43.31088,"lon":5.38353,"is_reserved":false,"is_disabled":false,"rental_uris":{"android":"levelo://app?vid=6b4bd4f5-973b-43b4-a6ec-4b513564b3e5","ios":"levelo://app?vid=6b4bd4f5-973b-43b4-a6ec-4b513564b3e5"},"vehicle_type_id":"4","last_reported":1746893461,"current_range_meters":17600,"station_id":"","pricing_plan_id":"cebpf4jnsgd1na2vs0mg"},{"bike_id":"9eab0d49-c334-432a-9d98-c7770436d910","system_id":"levelo_inurba_marseille","lat":43.284598,"lon":5.358931,"is_reserved":false,"is_disabled":false,"rental_uris":{"android":"levelo://app?vid=9eab0d49-c334-432a-9d98-c7770436d910","ios":"levelo://app?vid=9eab0d49-c334-432a-9d98-c7770436d910"},"vehicle_type_id":"4","last_reported":1746893461,"current_range_meters":17600,"station_id":"ce4bhah2rcd13ifvqei0","pricing_plan_id":"cebpf4jnsgd1na2vs0mg"},{"bike_id":"67cba6af-a37a-4cdd-8866-c7c4ab9c8dc5","system_id":"levelo_inurba_marseille","lat":43.23195,"lon":5.35573,"is_reserved":false,"is_disabled":false,"rental_uris":{"android":"levelo://app?vid=67cba6af-a37a-4cdd-8866-c7c4ab9c8dc5","ios":"levelo://app?vid=67cba6af-a37a-4cdd-8866-c7c4ab9c8dc5"},"vehicle_type_id":"4","last_reported":1746893461,"current_range_meters":17600,"station_id":"ce4bhu92rcd13ifvqi70","pricing_plan_id":"cebpf4jnsgd1na2vs0mg"},{"bike_id":"b6ad92b0-e8cd-4d7d-b1b6-179acb656435","system_id":"levelo_inurba_marseille","lat":43.31328,"lon":5.397,"is_reserved":false,"is_disabled":false,"rental_uris":{"android":"levelo://app?vid=b6ad92b0-e8cd-4d7d-b1b6-179acb656435","ios":"levelo://app?vid=b6ad92b0-e8cd-4d7d-b1b6-179acb656435"},"vehicle_type_id":"4","last_reported":1746893461,"current_range_meters":18000,"station_id":"ce4bgvp2rcd13ifvqcu0","pricing_plan_id":"cebpf4jnsgd1na2vs0mg"},{"bike_id":"1547c9ba-03a6-4fc5-98e1-4a53f713f369","system_id":"levelo_inurba_marseille","lat":43.24167,"lon":5.36431,"is_reserved":false,"is_disabled":false,"rental_uris":{"android":"levelo://app?vid=1547c9ba-03a6-4fc5-98e1-4a53f713f369","ios":"levelo://app?vid=1547c9ba-03a6-4fc5-98e1-4a53f713f369"},"vehicle_type_id":"4","last_reported":1746893461,"current_range_meters":18000,"station_id":"cpo36qri1sfpv3e86is0","pricing_plan_id":"cebpf4jnsgd1na2vs0mg"},{"bike_id":"d3d703d1-4187-435f-9bb9-ab14f33ff2a2","system_id":"levelo_inurba_marseille","lat":43.23951,"lon":5.36639,"is_reserved":false,"is_disabled":false,"rental_uris":{"android":"levelo://app?vid=d3d703d1-4187-435f-9bb9-ab14f33ff2a2","ios":"levelo://app?vid=d3d703d1-4187-435f-9bb9-ab14f33ff2a2"},"vehicle_type_id":"4","last_reported":1746893461,"current_range_meters":18000,"station_id":"ce4bhi12rcd13ifvqfp0","pricing_plan_id":"cebpf4jnsgd1na2vs0mg"},{"bike_id":"8d1124af-99b6-490f-9380-67657165a865","system_id":"levelo_inurba_marseille","lat":43.231914,"lon":5.35556,"is_reserved":false,"is_disabled":false,"rental_uris":{"android":"levelo://app?vid=8d1124af-99b6-490f-9380-67657165a865","ios":"levelo://app?vid=8d1124af-99b6-490f-9380-67657165a865"},"vehicle_type_id":"4","last_reported":1746893461,"current_range_meters":18000,"station_id":"ce4bhu92rcd13ifvqi70","pricing_plan_id":"cebpf4jnsgd1na2vs0mg"},{"bike_id":"e9545b3e-c9da-41f1-b5dd-d89c2866f38c","system_id":"levelo_inurba_marseille","lat":43.287308,"lon":5.360992,"is_reserved":false,"is_disabled":false,"rental_uris":{"android":"levelo://app?vid=e9545b3e-c9da-41f1-b5dd-d89c2866f38c","ios":"levelo://app?vid=e9545b3e-c9da-41f1-b5dd-d89c2866f38c"},"vehicle_type_id":"4","last_reported":1746893461,"current_range_meters":18000,"station_id":"cki0cbj6b192h4jlfktg","pricing_plan_id":"cebpf4jnsgd1na2vs0mg"},{"bike_id":"3dccb26b-c29a-4f8f-a121-85addf304f6b","system_id":"levelo_inurba_marseille","lat":43.32285,"lon":5.38279,"is_reserved":false,"is_disabled":false,"rental_uris":{"android":"levelo://app?vid=3dccb26b-c29a-4f8f-a121-85addf304f6b","ios":"levelo://app?vid=3dccb26b-c29a-4f8f-a121-85addf304f6b"},"vehicle_type_id":"4","last_reported":1746893461,"current_range_meters":18800,"station_id":"ce4bhr12rcd13ifvqhqg","pricing_plan_id":"cebpf4jnsgd1na2vs0mg"},{"bike_id":"e4615e14-a458-43f3-85fe-e20d784ee369","system_id":"levelo_inurba_marseille","lat":43.30329,"lon":5.40432,"is_reserved":false,"is_disabled":false,"rental_uris":{"android":"levelo://app?vid=e4615e14-a458-43f3-85fe-e20d784ee369","ios":"levelo://app?vid=e4615e14-a458-43f3-85fe-e20d784ee369"},"vehicle_type_id":"4","last_reported":1746893461,"current_range_meters":18800,"station_id":"ce4bh012rcd13ifvqd10","pricing_plan_id":"cebpf4jnsgd1na2vs0mg"},{"bike_id":"0480c8c7-d281-440e-a852-52a46695fed5","system_id":"levelo_inurba_marseille","lat":43.24812,"lon":5.3745,"is_reserved":false,"is_disabled":false,"rental_uris":{"android":"levelo://app?vid=0480c8c7-d281-440e-a852-52a46695fed5","ios":"levelo://app?vid=0480c8c7-d281-440e-a852-52a46695fed5"},"vehicle_type_id":"4","last_reported":1746893461,"current_range_meters":18800,"station_id":"ce4bhgh2rcd13ifvqfb0","pricing_plan_id":"cebpf4jnsgd1na2vs0mg"},{"bike_id":"7cb97d5c-817f-45d0-b20f-8d98d53fae39","system_id":"levelo_inurba_marseille","lat":43.2439,"lon":5.37059,"is_reserved":false,"is_disabled":false,"rental_uris":{"android":"levelo://app?vid=7cb97d5c-817f-45d0-b20f-8d98d53fae39","ios":"levelo://app?vid=7cb97d5c-817f-45d0-b20f-8d98d53fae39"},"vehicle_type_id":"4","last_reported":1746893461,"current_range_meters":18800,"station_id":"ce4bhhh2rcd13ifvqfk0","pricing_plan_id":"cebpf4jnsgd1na2vs0mg"},{"bike_id":"f52c819d-ca4b-4640-b458-b877db1bf990","system_id":"levelo_inurba_marseille","lat":43.298696,"lon":5.410136,"is_reserved":false,"is_disabled":false,"rental_uris":{"android":"levelo://app?vid=f52c819d-ca4b-4640-b458-b877db1bf990","ios":"levelo://app?vid=f52c819d-ca4b-4640-b458-b877db1bf990"},"vehicle_type_id":"4","last_reported":1746893461,"current_range_meters":19200,"station_id":"","pricing_plan_id":"cebpf4jnsgd1na2vs0mg"},{"bike_id":"65172fd8-2b56-4e82-b28d-2b51ff072520","system_id":"levelo_inurba_marseille","lat":43.23948,"lon":5.36644,"is_reserved":false,"is_disabled":false,"rental_uris":{"android":"levelo://app?vid=65172fd8-2b56-4e82-b28d-2b51ff072520","ios":"levelo://app?vid=65172fd8-2b56-4e82-b28d-2b51ff072520"},"vehicle_type_id":"4","last_reported":1746893461,"current_range_meters":19200,"station_id":"ce4bhi12rcd13ifvqfp0","pricing_plan_id":"cebpf4jnsgd1na2vs0mg"},{"bike_id":"93a2cdaa-2d8f-45b4-95b2-1deae9871131","system_id":"levelo_inurba_marseille","lat":43.23193,"lon":5.35592,"is_reserved":false,"is_disabled":true,"rental_uris":{"android":"levelo://app?vid=93a2cdaa-2d8f-45b4-95b2-1deae9871131","ios":"levelo://app?vid=93a2cdaa-2d8f-45b4-95b2-1deae9871131"},"vehicle_type_id":"4","last_reported":1746893461,"current_range_meters":19200,"station_id":"ce4bhu92rcd13ifvqi70","pricing_plan_id":"cebpf4jnsgd1na2vs0mg"},{"bike_id":"73ded412-1ade-4c78-acbe-a9afd038932d","system_id":"levelo_inurba_marseille","lat":43.241685,"lon":5.363955,"is_reserved":false,"is_disabled":false,"rental_uris":{"android":"levelo://app?vid=73ded412-1ade-4c78-acbe-a9afd038932d","ios":"levelo://app?vid=73ded412-1ade-4c78-acbe-a9afd038932d"},"vehicle_type_id":"4","last_reported":1746893461,"current_range_meters":19200,"station_id":"cpo36qri1sfpv3e86is0","pricing_plan_id":"cebpf4jnsgd1na2vs0mg"},{"bike_id":"334fb586-2930-40b5-a993-0a5c624c2e93","system_id":"levelo_inurba_marseille","lat":43.30815,"lon":5.43529,"is_reserved":false,"is_disabled":false,"rental_uris":{"android":"levelo://app?vid=334fb586-2930-40b5-a993-0a5c624c2e93","ios":"levelo://app?vid=334fb586-2930-40b5-a993-0a5c624c2e93"},"vehicle_type_id":"4","last_reported":1746893461,"current_range_meters":19200,"station_id":"ce4bhph2rcd13ifvqheg","pricing_plan_id":"cebpf4jnsgd1na2vs0mg"},{"bike_id":"0d311d36-accd-45b6-9c25-a8ad3139586e","system_id":"levelo_inurba_marseille","lat":43.28259,"lon":5.35067,"is_reserved":false,"is_disabled":false,"rental_uris":{"android":"levelo://app?vid=0d311d36-accd-45b6-9c25-a8ad3139586e","ios":"levelo://app?vid=0d311d36-accd-45b6-9c25-a8ad3139586e"},"vehicle_type_id":"4","last_reported":1746893461,"current_range_meters":19200,"station_id":"ce4bhbp2rcd13ifvqerg","pricing_plan_id":"cebpf4jnsgd1na2vs0mg"},{"bike_id":"584db9f5-cf7e-4d73-b73f-bd1aea6b1b53","system_id":"levelo_inurba_marseille","lat":43.292253,"lon":5.391593,"is_reserved":false,"is_disabled":false,"rental_uris":{"android":"levelo://app?vid=584db9f5-cf7e-4d73-b73f-bd1aea6b1b53","ios":"levelo://app?vid=584db9f5-cf7e-4d73-b73f-bd1aea6b1b53"},"vehicle_type_id":"4","last_reported":1746893461,"current_range_meters":19200,"station_id":"ce4bh292rcd13ifvqdf0","pricing_plan_id":"cebpf4jnsgd1na2vs0mg"},{"bike_id":"aba8ff3f-630d-4835-9827-10a095364ac5","system_id":"levelo_inurba_marseille","lat":43.31121,"lon":5.37769,"is_reserved":false,"is_disabled":false,"rental_uris":{"android":"levelo://app?vid=aba8ff3f-630d-4835-9827-10a095364ac5","ios":"levelo://app?vid=aba8ff3f-630d-4835-9827-10a095364ac5"},"vehicle_type_id":"4","last_reported":1746893461,"current_range_meters":19600,"station_id":"ce4bgt92rcd13ifvqcg0","pricing_plan_id":"cebpf4jnsgd1na2vs0mg"},{"bike_id":"46f57986-65a0-4b90-95db-37be3d76cadb","system_id":"levelo_inurba_marseille","lat":43.27416,"lon":5.36296,"is_reserved":false,"is_disabled":false,"rental_uris":{"android":"levelo://app?vid=46f57986-65a0-4b90-95db-37be3d76cadb","ios":"levelo://app?vid=46f57986-65a0-4b90-95db-37be3d76cadb"},"vehicle_type_id":"4","last_reported":1746893461,"current_range_meters":19600,"station_id":"","pricing_plan_id":"cebpf4jnsgd1na2vs0mg"},{"bike_id":"668084ff-302e-48e8-b448-7b8d820fa6d5","system_id":"levelo_inurba_marseille","lat":43.2596,"lon":5.38656,"is_reserved":false,"is_disabled":false,"rental_uris":{"android":"levelo://app?vid=668084ff-302e-48e8-b448-7b8d820fa6d5","ios":"levelo://app?vid=668084ff-302e-48e8-b448-7b8d820fa6d5"},"vehicle_type_id":"4","last_reported":1746893461,"current_range_meters":19600,"station_id":"","pricing_plan_id":"cebpf4jnsgd1na2vs0mg"},{"bike_id":"16d391d7-3df8-4b15-a69c-4f67496caea7","system_id":"levelo_inurba_marseille","lat":43.29716,"lon":5.37704,"is_reserved":false,"is_disabled":false,"rental_uris":{"android":"levelo://app?vid=16d391d7-3df8-4b15-a69c-4f67496caea7","ios":"levelo://app?vid=16d391d7-3df8-4b15-a69c-4f67496caea7"},"vehicle_type_id":"4","last_reported":1746893461,"current_range_meters":20000,"station_id":"ce4bgkh2rcd13ifvqbl0","pricing_plan_id":"cebpf4jnsgd1na2vs0mg"},{"bike_id":"07298d8c-4a55-4836-964b-a4fe243493b7","system_id":"levelo_inurba_marseille","lat":43.29711,"lon":5.36612,"is_reserved":false,"is_disabled":false,"rental_uris":{"android":"levelo://app?vid=07298d8c-4a55-4836-964b-a4fe243493b7","ios":"levelo://app?vid=07298d8c-4a55-4836-964b-a4fe243493b7"},"vehicle_type_id":"4","last_reported":1746893461,"current_range_meters":20000,"station_id":"ce4bgn12rcd13ifvqbt0","pricing_plan_id":"cebpf4jnsgd1na2vs0mg"},{"bike_id":"3db20c75-a844-4f09-8e49-e810347f2ff4","system_id":"levelo_inurba_marseille","lat":43.29784,"lon":5.39345,"is_reserved":false,"is_disabled":false,"rental_uris":{"android":"levelo://app?vid=3db20c75-a844-4f09-8e49-e810347f2ff4","ios":"levelo://app?vid=3db20c75-a844-4f09-8e49-e810347f2ff4"},"vehicle_type_id":"4","last_reported":1746893461,"current_range_meters":20400,"station_id":"chh1huq6cuj3fo74tm60","pricing_plan_id":"cebpf4jnsgd1na2vs0mg"},{"bike_id":"7dec5a23-9465-4dde-a9b5-fc32dc117547","system_id":"levelo_inurba_marseille","lat":43.28408,"lon":5.34981,"is_reserved":false,"is_disabled":true,"rental_uris":{"android":"levelo://app?vid=7dec5a23-9465-4dde-a9b5-fc32dc117547","ios":"levelo://app?vid=7dec5a23-9465-4dde-a9b5-fc32dc117547"},"vehicle_type_id":"4","last_reported":1746893461,"current_range_meters":20400,"station_id":"ce4bhbh2rcd13ifvqepg","pricing_plan_id":"cebpf4jnsgd1na2vs0mg"},{"bike_id":"6162fa35-31af-4301-b613-0a40de22c1a5","system_id":"levelo_inurba_marseille","lat":43.24173,"lon":5.3642,"is_reserved":false,"is_disabled":false,"rental_uris":{"android":"levelo://app?vid=6162fa35-31af-4301-b613-0a40de22c1a5","ios":"levelo://app?vid=6162fa35-31af-4301-b613-0a40de22c1a5"},"vehicle_type_id":"4","last_reported":1746893461,"current_range_meters":20800,"station_id":"cpo36qri1sfpv3e86is0","pricing_plan_id":"cebpf4jnsgd1na2vs0mg"},{"bike_id":"3530f433-23d0-4edf-82c2-458707ed36e8","system_id":"levelo_inurba_marseille","lat":43.291111,"lon":5.379751,"is_reserved":false,"is_disabled":false,"rental_uris":{"android":"levelo://app?vid=3530f433-23d0-4edf-82c2-458707ed36e8","ios":"levelo://app?vid=3530f433-23d0-4edf-82c2-458707ed36e8"},"vehicle_type_id":"4","last_reported":1746893461,"current_range_meters":20800,"station_id":"ce4bh4p2rcd13ifvqe1g","pricing_plan_id":"cebpf4jnsgd1na2vs0mg"},{"bike_id":"87f95fe3-e004-416f-8e09-7b4858f7b431","system_id":"levelo_inurba_marseille","lat":43.3127,"lon":5.40168,"is_reserved":false,"is_disabled":false,"rental_uris":{"android":"levelo://app?vid=87f95fe3-e004-416f-8e09-7b4858f7b431","ios":"levelo://app?vid=87f95fe3-e004-416f-8e09-7b4858f7b431"},"vehicle_type_id":"4","last_reported":1746893461,"current_range_meters":20800,"station_id":"ce4bh092rcd13ifvqd30","pricing_plan_id":"cebpf4jnsgd1na2vs0mg"},{"bike_id":"6f33d593-b6b8-45ca-b839-ed5fd0e98215","system_id":"levelo_inurba_marseille","lat":43.21195,"lon":5.3508,"is_reserved":false,"is_disabled":true,"rental_uris":{"android":"levelo://app?vid=6f33d593-b6b8-45ca-b839-ed5fd0e98215","ios":"levelo://app?vid=6f33d593-b6b8-45ca-b839-ed5fd0e98215"},"vehicle_type_id":"4","last_reported":1746893461,"current_range_meters":20800,"station_id":"st_cvj6sg6p6f1abm77japg","pricing_plan_id":"cebpf4jnsgd1na2vs0mg"},{"bike_id":"acbb2056-3a24-474d-bf36-675a1bdc08b2","system_id":"levelo_inurba_marseille","lat":43.29575,"lon":5.37536,"is_reserved":false,"is_disabled":false,"rental_uris":{"android":"levelo://app?vid=acbb2056-3a24-474d-bf36-675a1bdc08b2","ios":"levelo://app?vid=acbb2056-3a24-474d-bf36-675a1bdc08b2"},"vehicle_type_id":"4","last_reported":1746893461,"current_range_meters":20800,"station_id":"","pricing_plan_id":"cebpf4jnsgd1na2vs0mg"},{"bike_id":"8badfc10-2935-4cf4-8d4b-ae288bfa5446","system_id":"levelo_inurba_marseille","lat":43.3113,"lon":5.38871,"is_reserved":false,"is_disabled":false,"rental_uris":{"android":"levelo://app?vid=8badfc10-2935-4cf4-8d4b-ae288bfa5446","ios":"levelo://app?vid=8badfc10-2935-4cf4-8d4b-ae288bfa5446"},"vehicle_type_id":"4","last_reported":1746893461,"current_range_meters":20800,"station_id":"","pricing_plan_id":"cebpf4jnsgd1na2vs0mg"},{"bike_id":"13aea3d4-3fd9-453e-ab8e-80ed85fa9d78","system_id":"levelo_inurba_marseille","lat":43.31717,"lon":5.43717,"is_reserved":false,"is_disabled":false,"rental_uris":{"android":"levelo://app?vid=13aea3d4-3fd9-453e-ab8e-80ed85fa9d78","ios":"levelo://app?vid=13aea3d4-3fd9-453e-ab8e-80ed85fa9d78"},"vehicle_type_id":"4","last_reported":1746893461,"current_range_meters":21600,"station_id":"ce4bhp92rcd13ifvqhcg","pricing_plan_id":"cebpf4jnsgd1na2vs0mg"},{"bike_id":"fa0a6464-cc95-4782-9948-8c9931f37387","system_id":"levelo_inurba_marseille","lat":43.30262,"lon":5.37721,"is_reserved":false,"is_disabled":false,"rental_uris":{"android":"levelo://app?vid=fa0a6464-cc95-4782-9948-8c9931f37387","ios":"levelo://app?vid=fa0a6464-cc95-4782-9948-8c9931f37387"},"vehicle_type_id":"4","last_reported":1746893461,"current_range_meters":21600,"station_id":"ce4bguh2rcd13ifvqcj0","pricing_plan_id":"cebpf4jnsgd1na2vs0mg"},{"bike_id":"38093c91-1c75-4922-bbb9-886dccd779f4","system_id":"levelo_inurba_marseille","lat":43.31726,"lon":5.43726,"is_reserved":false,"is_disabled":false,"rental_uris":{"android":"levelo://app?vid=38093c91-1c75-4922-bbb9-886dccd779f4","ios":"levelo://app?vid=38093c91-1c75-4922-bbb9-886dccd779f4"},"vehicle_type_id":"4","last_reported":1746893461,"current_range_meters":21600,"station_id":"ce4bhp92rcd13ifvqhcg","pricing_plan_id":"cebpf4jnsgd1na2vs0mg"},{"bike_id":"06c67037-02c8-4202-b670-acbc8bb79ea7","system_id":"levelo_inurba_marseille","lat":43.28618,"lon":5.35101,"is_reserved":false,"is_disabled":false,"rental_uris":{"android":"levelo://app?vid=06c67037-02c8-4202-b670-acbc8bb79ea7","ios":"levelo://app?vid=06c67037-02c8-4202-b670-acbc8bb79ea7"},"vehicle_type_id":"4","last_reported":1746893461,"current_range_meters":22000,"station_id":"","pricing_plan_id":"cebpf4jnsgd1na2vs0mg"},{"bike_id":"f80f8bf9-c747-417c-96c5-1e54335eb50c","system_id":"levelo_inurba_marseille","lat":43.28266,"lon":5.35075,"is_reserved":false,"is_disabled":false,"rental_uris":{"android":"levelo://app?vid=f80f8bf9-c747-417c-96c5-1e54335eb50c","ios":"levelo://app?vid=f80f8bf9-c747-417c-96c5-1e54335eb50c"},"vehicle_type_id":"4","last_reported":1746893461,"current_range_meters":22400,"station_id":"ce4bhbp2rcd13ifvqerg","pricing_plan_id":"cebpf4jnsgd1na2vs0mg"},{"bike_id":"a6c52c62-4137-4efd-8ee4-a55e579275dc","system_id":"levelo_inurba_marseille","lat":43.30326,"lon":5.4044,"is_reserved":false,"is_disabled":false,"rental_uris":{"android":"levelo://app?vid=a6c52c62-4137-4efd-8ee4-a55e579275dc","ios":"levelo://app?vid=a6c52c62-4137-4efd-8ee4-a55e579275dc"},"vehicle_type_id":"4","last_reported":1746893461,"current_range_meters":22400,"station_id":"ce4bh012rcd13ifvqd10","pricing_plan_id":"cebpf4jnsgd1na2vs0mg"},{"bike_id":"3b16162b-4fa6-4dde-bf52-0c2ed1212571","system_id":"levelo_inurba_marseille","lat":43.248114,"lon":5.374614,"is_reserved":false,"is_disabled":false,"rental_uris":{"android":"levelo://app?vid=3b16162b-4fa6-4dde-bf52-0c2ed1212571","ios":"levelo://app?vid=3b16162b-4fa6-4dde-bf52-0c2ed1212571"},"vehicle_type_id":"4","last_reported":1746893461,"current_range_meters":22400,"station_id":"ce4bhgh2rcd13ifvqfb0","pricing_plan_id":"cebpf4jnsgd1na2vs0mg"},{"bike_id":"367fd6c3-b241-4520-b67b-f5bc27fc245f","system_id":"levelo_inurba_marseille","lat":43.25508,"lon":5.377,"is_reserved":false,"is_disabled":false,"rental_uris":{"android":"levelo://app?vid=367fd6c3-b241-4520-b67b-f5bc27fc245f","ios":"levelo://app?vid=367fd6c3-b241-4520-b67b-f5bc27fc245f"},"vehicle_type_id":"4","last_reported":1746893461,"current_range_meters":22400,"station_id":"ce4bhh12rcd13ifvqff0","pricing_plan_id":"cebpf4jnsgd1na2vs0mg"},{"bike_id":"deb50f02-435d-41aa-880d-8e7626aaec3e","system_id":"levelo_inurba_marseille","lat":43.28662,"lon":5.36353,"is_reserved":false,"is_disabled":false,"rental_uris":{"android":"levelo://app?vid=deb50f02-435d-41aa-880d-8e7626aaec3e","ios":"levelo://app?vid=deb50f02-435d-41aa-880d-8e7626aaec3e"},"vehicle_type_id":"4","last_reported":1746893461,"current_range_meters":22400,"station_id":"ce4bhah2rcd13ifvqej0","pricing_plan_id":"cebpf4jnsgd1na2vs0mg"},{"bike_id":"239a9efa-2542-4d68-8e95-0fa3b6565457","system_id":"levelo_inurba_marseille","lat":43.28664,"lon":5.36349,"is_reserved":false,"is_disabled":false,"rental_uris":{"android":"levelo://app?vid=239a9efa-2542-4d68-8e95-0fa3b6565457","ios":"levelo://app?vid=239a9efa-2542-4d68-8e95-0fa3b6565457"},"vehicle_type_id":"4","last_reported":1746893461,"current_range_meters":22400,"station_id":"ce4bhah2rcd13ifvqej0","pricing_plan_id":"cebpf4jnsgd1na2vs0mg"},{"bike_id":"78061550-b018-42bb-953c-0b2f091946ff","system_id":"levelo_inurba_marseille","lat":43.28939,"lon":5.36636,"is_reserved":false,"is_disabled":false,"rental_uris":{"android":"levelo://app?vid=78061550-b018-42bb-953c-0b2f091946ff","ios":"levelo://app?vid=78061550-b018-42bb-953c-0b2f091946ff"},"vehicle_type_id":"4","last_reported":1746893461,"current_range_meters":22400,"station_id":"ce4bhap2rcd13ifvqek0","pricing_plan_id":"cebpf4jnsgd1na2vs0mg"},{"bike_id":"39870899-7204-4b78-a4c9-b639158c6c7a","system_id":"levelo_inurba_marseille","lat":43.31724,"lon":5.42397,"is_reserved":false,"is_disabled":false,"rental_uris":{"android":"levelo://app?vid=39870899-7204-4b78-a4c9-b639158c6c7a","ios":"levelo://app?vid=39870899-7204-4b78-a4c9-b639158c6c7a"},"vehicle_type_id":"4","last_reported":1746893461,"current_range_meters":22800,"station_id":"ce4bhp92rcd13ifvqhbg","pricing_plan_id":"cebpf4jnsgd1na2vs0mg"},{"bike_id":"b015f0b0-f3d4-4322-9e53-93b78b99c5ac","system_id":"levelo_inurba_marseille","lat":43.290105,"lon":5.356032,"is_reserved":false,"is_disabled":false,"rental_uris":{"android":"levelo://app?vid=b015f0b0-f3d4-4322-9e53-93b78b99c5ac","ios":"levelo://app?vid=b015f0b0-f3d4-4322-9e53-93b78b99c5ac"},"vehicle_type_id":"4","last_reported":1746893461,"current_range_meters":22800,"station_id":"ce4bhb92rcd13ifvqen0","pricing_plan_id":"cebpf4jnsgd1na2vs0mg"},{"bike_id":"95c07f58-992e-486e-9e01-f8c38af93653","system_id":"levelo_inurba_marseille","lat":43.30557,"lon":5.36709,"is_reserved":false,"is_disabled":true,"rental_uris":{"android":"levelo://app?vid=95c07f58-992e-486e-9e01-f8c38af93653","ios":"levelo://app?vid=95c07f58-992e-486e-9e01-f8c38af93653"},"vehicle_type_id":"4","last_reported":1746893461,"current_range_meters":22800,"station_id":"ce4bgrp2rcd13ifvqc9g","pricing_plan_id":"cebpf4jnsgd1na2vs0mg"},{"bike_id":"b94dfdae-c7d5-4be3-98cf-d102292a002b","system_id":"levelo_inurba_marseille","lat":43.28722,"lon":5.36101,"is_reserved":false,"is_disabled":false,"rental_uris":{"android":"levelo://app?vid=b94dfdae-c7d5-4be3-98cf-d102292a002b","ios":"levelo://app?vid=b94dfdae-c7d5-4be3-98cf-d102292a002b"},"vehicle_type_id":"4","last_reported":1746893461,"current_range_meters":22800,"station_id":"cki0cbj6b192h4jlfktg","pricing_plan_id":"cebpf4jnsgd1na2vs0mg"},{"bike_id":"313b14bb-532c-4ca8-a7a8-8588d2d40b5b","system_id":"levelo_inurba_marseille","lat":43.25644,"lon":5.38605,"is_reserved":false,"is_disabled":false,"rental_uris":{"android":"levelo://app?vid=313b14bb-532c-4ca8-a7a8-8588d2d40b5b","ios":"levelo://app?vid=313b14bb-532c-4ca8-a7a8-8588d2d40b5b"},"vehicle_type_id":"4","last_reported":1746893461,"current_range_meters":23200,"station_id":"","pricing_plan_id":"cebpf4jnsgd1na2vs0mg"},{"bike_id":"6bee1ec8-c2a3-4ec1-8159-76295a51687b","system_id":"levelo_inurba_marseille","lat":43.27572,"lon":5.38424,"is_reserved":false,"is_disabled":false,"rental_uris":{"android":"levelo://app?vid=6bee1ec8-c2a3-4ec1-8159-76295a51687b","ios":"levelo://app?vid=6bee1ec8-c2a3-4ec1-8159-76295a51687b"},"vehicle_type_id":"4","last_reported":1746893461,"current_range_meters":23200,"station_id":"ce4bhh92rcd13ifvqfi0","pricing_plan_id":"cebpf4jnsgd1na2vs0mg"},{"bike_id":"288646db-fa33-4095-a786-c67ac9268f56","system_id":"levelo_inurba_marseille","lat":43.28445,"lon":5.39191,"is_reserved":false,"is_disabled":false,"rental_uris":{"android":"levelo://app?vid=288646db-fa33-4095-a786-c67ac9268f56","ios":"levelo://app?vid=288646db-fa33-4095-a786-c67ac9268f56"},"vehicle_type_id":"4","last_reported":1746893461,"current_range_meters":23200,"station_id":"ce4bhoh2rcd13ifvqh5g","pricing_plan_id":"cebpf4jnsgd1na2vs0mg"},{"bike_id":"3b74c0b3-c20f-40e4-a396-a75f88839b93","system_id":"levelo_inurba_marseille","lat":43.21772,"lon":5.34616,"is_reserved":false,"is_disabled":false,"rental_uris":{"android":"levelo://app?vid=3b74c0b3-c20f-40e4-a396-a75f88839b93","ios":"levelo://app?vid=3b74c0b3-c20f-40e4-a396-a75f88839b93"},"vehicle_type_id":"4","last_reported":1746893461,"current_range_meters":23200,"station_id":"st_cvj6r9ubvosntc0bgbag","pricing_plan_id":"cebpf4jnsgd1na2vs0mg"},{"bike_id":"00e8dd37-b3e3-4900-be6d-cd0d6a2ebb08","system_id":"levelo_inurba_marseille","lat":43.3033,"lon":5.40433,"is_reserved":false,"is_disabled":false,"rental_uris":{"android":"levelo://app?vid=00e8dd37-b3e3-4900-be6d-cd0d6a2ebb08","ios":"levelo://app?vid=00e8dd37-b3e3-4900-be6d-cd0d6a2ebb08"},"vehicle_type_id":"4","last_reported":1746893461,"current_range_meters":23200,"station_id":"ce4bh012rcd13ifvqd10","pricing_plan_id":"cebpf4jnsgd1na2vs0mg"},{"bike_id":"2b71ce34-0b17-41a3-93d4-afa1cf4620ee","system_id":"levelo_inurba_marseille","lat":43.27945,"lon":5.41048,"is_reserved":false,"is_disabled":false,"rental_uris":{"android":"levelo://app?vid=2b71ce34-0b17-41a3-93d4-afa1cf4620ee","ios":"levelo://app?vid=2b71ce34-0b17-41a3-93d4-afa1cf4620ee"},"vehicle_type_id":"4","last_reported":1746893461,"current_range_meters":23200,"station_id":"ce4bhnp2rcd13ifvqh0g","pricing_plan_id":"cebpf4jnsgd1na2vs0mg"},{"bike_id":"c33d519d-7861-40e7-b4f4-6738c0b51209","system_id":"levelo_inurba_marseille","lat":43.24169,"lon":5.364,"is_reserved":false,"is_disabled":false,"rental_uris":{"android":"levelo://app?vid=c33d519d-7861-40e7-b4f4-6738c0b51209","ios":"levelo://app?vid=c33d519d-7861-40e7-b4f4-6738c0b51209"},"vehicle_type_id":"4","last_reported":1746893461,"current_range_meters":23200,"station_id":"cpo36qri1sfpv3e86is0","pricing_plan_id":"cebpf4jnsgd1na2vs0mg"},{"bike_id":"2959a686-6855-4635-8163-762a263c039c","system_id":"levelo_inurba_marseille","lat":43.28662,"lon":5.36353,"is_reserved":false,"is_disabled":false,"rental_uris":{"android":"levelo://app?vid=2959a686-6855-4635-8163-762a263c039c","ios":"levelo://app?vid=2959a686-6855-4635-8163-762a263c039c"},"vehicle_type_id":"4","last_reported":1746893461,"current_range_meters":23200,"station_id":"ce4bhah2rcd13ifvqej0","pricing_plan_id":"cebpf4jnsgd1na2vs0mg"},{"bike_id":"1976c97d-438e-4376-b451-e587e76cce6d","system_id":"levelo_inurba_marseille","lat":43.23183,"lon":5.43732,"is_reserved":false,"is_disabled":false,"rental_uris":{"android":"levelo://app?vid=1976c97d-438e-4376-b451-e587e76cce6d","ios":"levelo://app?vid=1976c97d-438e-4376-b451-e587e76cce6d"},"vehicle_type_id":"4","last_reported":1746893461,"current_range_meters":24000,"station_id":"ce4bhmp2rcd13ifvqgog","pricing_plan_id":"cebpf4jnsgd1na2vs0mg"},{"bike_id":"b6f0504a-f7d7-4a97-b810-e7c9e7b1c671","system_id":"levelo_inurba_marseille","lat":43.28159,"lon":5.425127,"is_reserved":false,"is_disabled":false,"rental_uris":{"android":"levelo://app?vid=b6f0504a-f7d7-4a97-b810-e7c9e7b1c671","ios":"levelo://app?vid=b6f0504a-f7d7-4a97-b810-e7c9e7b1c671"},"vehicle_type_id":"4","last_reported":1746893461,"current_range_meters":24000,"station_id":"","pricing_plan_id":"cebpf4jnsgd1na2vs0mg"},{"bike_id":"531c9cf6-26da-4c9b-84b6-02505dd36162","system_id":"levelo_inurba_marseille","lat":43.23178,"lon":5.39984,"is_reserved":false,"is_disabled":false,"rental_uris":{"android":"levelo://app?vid=531c9cf6-26da-4c9b-84b6-02505dd36162","ios":"levelo://app?vid=531c9cf6-26da-4c9b-84b6-02505dd36162"},"vehicle_type_id":"4","last_reported":1746893461,"current_range_meters":24000,"station_id":"ce4bhn12rcd13ifvqgqg","pricing_plan_id":"cebpf4jnsgd1na2vs0mg"},{"bike_id":"10a0e600-8113-459c-860d-c9d56a73a6ba","system_id":"levelo_inurba_marseille","lat":43.23952,"lon":5.36648,"is_reserved":false,"is_disabled":false,"rental_uris":{"android":"levelo://app?vid=10a0e600-8113-459c-860d-c9d56a73a6ba","ios":"levelo://app?vid=10a0e600-8113-459c-860d-c9d56a73a6ba"},"vehicle_type_id":"4","last_reported":1746893461,"current_range_meters":24000,"station_id":"ce4bhi12rcd13ifvqfp0","pricing_plan_id":"cebpf4jnsgd1na2vs0mg"},{"bike_id":"0bd37246-3420-4fe7-838c-eacfc2778241","system_id":"levelo_inurba_marseille","lat":43.27839,"lon":5.39214,"is_reserved":false,"is_disabled":false,"rental_uris":{"android":"levelo://app?vid=0bd37246-3420-4fe7-838c-eacfc2778241","ios":"levelo://app?vid=0bd37246-3420-4fe7-838c-eacfc2778241"},"vehicle_type_id":"4","last_reported":1746893461,"current_range_meters":24000,"station_id":"ce4bhjp2rcd13ifvqga0","pricing_plan_id":"cebpf4jnsgd1na2vs0mg"},{"bike_id":"aca142bd-2716-4ee3-8c04-bd27c952c647","system_id":"levelo_inurba_marseille","lat":43.264349,"lon":5.374991,"is_reserved":false,"is_disabled":false,"rental_uris":{"android":"levelo://app?vid=aca142bd-2716-4ee3-8c04-bd27c952c647","ios":"levelo://app?vid=aca142bd-2716-4ee3-8c04-bd27c952c647"},"vehicle_type_id":"4","last_reported":1746893461,"current_range_meters":24400,"station_id":"","pricing_plan_id":"cebpf4jnsgd1na2vs0mg"},{"bike_id":"ed269f08-24c0-40fa-95b0-29c6d4701fde","system_id":"levelo_inurba_marseille","lat":43.27075,"lon":5.42285,"is_reserved":false,"is_disabled":false,"rental_uris":{"android":"levelo://app?vid=ed269f08-24c0-40fa-95b0-29c6d4701fde","ios":"levelo://app?vid=ed269f08-24c0-40fa-95b0-29c6d4701fde"},"vehicle_type_id":"4","last_reported":1746893461,"current_range_meters":24400,"station_id":"ce4bhk92rcd13ifvqgb0","pricing_plan_id":"cebpf4jnsgd1na2vs0mg"},{"bike_id":"5a710823-5f9c-4129-9246-0631b5b69967","system_id":"levelo_inurba_marseille","lat":43.29173,"lon":5.37157,"is_reserved":false,"is_disabled":false,"rental_uris":{"android":"levelo://app?vid=5a710823-5f9c-4129-9246-0631b5b69967","ios":"levelo://app?vid=5a710823-5f9c-4129-9246-0631b5b69967"},"vehicle_type_id":"4","last_reported":1746893461,"current_range_meters":24000,"station_id":"ce4bha92rcd13ifvqeh0","pricing_plan_id":"cebpf4jnsgd1na2vs0mg"},{"bike_id":"b733cd6e-81ee-4f61-b922-3d82c1b945c0","system_id":"levelo_inurba_marseille","lat":43.27174,"lon":5.40996,"is_reserved":false,"is_disabled":false,"rental_uris":{"android":"levelo://app?vid=b733cd6e-81ee-4f61-b922-3d82c1b945c0","ios":"levelo://app?vid=b733cd6e-81ee-4f61-b922-3d82c1b945c0"},"vehicle_type_id":"4","last_reported":1746893461,"current_range_meters":24400,"station_id":"ce4bhl12rcd13ifvqgf0","pricing_plan_id":"cebpf4jnsgd1na2vs0mg"},{"bike_id":"d7c4bcd6-3392-4992-a4d3-f37d85b84ed9","system_id":"levelo_inurba_marseille","lat":43.232,"lon":5.35551,"is_reserved":false,"is_disabled":false,"rental_uris":{"android":"levelo://app?vid=d7c4bcd6-3392-4992-a4d3-f37d85b84ed9","ios":"levelo://app?vid=d7c4bcd6-3392-4992-a4d3-f37d85b84ed9"},"vehicle_type_id":"4","last_reported":1746893461,"current_range_meters":24400,"station_id":"ce4bhu92rcd13ifvqi70","pricing_plan_id":"cebpf4jnsgd1na2vs0mg"},{"bike_id":"584b4e05-7322-4022-95a5-034fafa8dc9b","system_id":"levelo_inurba_marseille","lat":43.24174,"lon":5.36398,"is_reserved":false,"is_disabled":false,"rental_uris":{"android":"levelo://app?vid=584b4e05-7322-4022-95a5-034fafa8dc9b","ios":"levelo://app?vid=584b4e05-7322-4022-95a5-034fafa8dc9b"},"vehicle_type_id":"4","last_reported":1746893461,"current_range_meters":24400,"station_id":"cpo36qri1sfpv3e86is0","pricing_plan_id":"cebpf4jnsgd1na2vs0mg"},{"bike_id":"33d7c69a-79c0-4adb-b732-1748f5dc1cc2","system_id":"levelo_inurba_marseille","lat":43.336118,"lon":5.410392,"is_reserved":false,"is_disabled":false,"rental_uris":{"android":"levelo://app?vid=33d7c69a-79c0-4adb-b732-1748f5dc1cc2","ios":"levelo://app?vid=33d7c69a-79c0-4adb-b732-1748f5dc1cc2"},"vehicle_type_id":"4","last_reported":1746893461,"current_range_meters":24800,"station_id":"ce4bhqh2rcd13ifvqhmg","pricing_plan_id":"cebpf4jnsgd1na2vs0mg"},{"bike_id":"f9feb39a-809a-4ad2-aa45-b269216d2e34","system_id":"levelo_inurba_marseille","lat":43.26932,"lon":5.40261,"is_reserved":false,"is_disabled":false,"rental_uris":{"android":"levelo://app?vid=f9feb39a-809a-4ad2-aa45-b269216d2e34","ios":"levelo://app?vid=f9feb39a-809a-4ad2-aa45-b269216d2e34"},"vehicle_type_id":"4","last_reported":1746893461,"current_range_meters":24800,"station_id":"cjm6bp8fraef2m0cb0m0","pricing_plan_id":"cebpf4jnsgd1na2vs0mg"},{"bike_id":"86c715ca-28c5-4e17-8c6b-ae13a9e2acac","system_id":"levelo_inurba_marseille","lat":43.27572,"lon":5.38423,"is_reserved":false,"is_disabled":false,"rental_uris":{"android":"levelo://app?vid=86c715ca-28c5-4e17-8c6b-ae13a9e2acac","ios":"levelo://app?vid=86c715ca-28c5-4e17-8c6b-ae13a9e2acac"},"vehicle_type_id":"4","last_reported":1746893461,"current_range_meters":24800,"station_id":"ce4bhh92rcd13ifvqfi0","pricing_plan_id":"cebpf4jnsgd1na2vs0mg"},{"bike_id":"dde524d2-d5e3-4577-8b1c-3cac800e8727","system_id":"levelo_inurba_marseille","lat":43.265583,"lon":5.372997,"is_reserved":false,"is_disabled":false,"rental_uris":{"android":"levelo://app?vid=dde524d2-d5e3-4577-8b1c-3cac800e8727","ios":"levelo://app?vid=dde524d2-d5e3-4577-8b1c-3cac800e8727"},"vehicle_type_id":"4","last_reported":1746893461,"current_range_meters":24800,"station_id":"ce4bhg12rcd13ifvqf70","pricing_plan_id":"cebpf4jnsgd1na2vs0mg"},{"bike_id":"9c87cd93-6224-4521-8169-f4ccc69c98a0","system_id":"levelo_inurba_marseille","lat":43.317223,"lon":5.42403,"is_reserved":false,"is_disabled":false,"rental_uris":{"android":"levelo://app?vid=9c87cd93-6224-4521-8169-f4ccc69c98a0","ios":"levelo://app?vid=9c87cd93-6224-4521-8169-f4ccc69c98a0"},"vehicle_type_id":"4","last_reported":1746893461,"current_range_meters":24800,"station_id":"ce4bhp92rcd13ifvqhbg","pricing_plan_id":"cebpf4jnsgd1na2vs0mg"},{"bike_id":"c1c7d2ad-d576-4d74-bf68-8887fcdc9304","system_id":"levelo_inurba_marseille","lat":43.28482,"lon":5.38438,"is_reserved":false,"is_disabled":true,"rental_uris":{"android":"levelo://app?vid=c1c7d2ad-d576-4d74-bf68-8887fcdc9304","ios":"levelo://app?vid=c1c7d2ad-d576-4d74-bf68-8887fcdc9304"},"vehicle_type_id":"4","last_reported":1746893461,"current_range_meters":24800,"station_id":"ce4bh512rcd13ifvqe3g","pricing_plan_id":"cebpf4jnsgd1na2vs0mg"},{"bike_id":"ff34d375-dd64-4ae8-8543-8629f071c6af","system_id":"levelo_inurba_marseille","lat":43.287272,"lon":5.3609,"is_reserved":false,"is_disabled":false,"rental_uris":{"android":"levelo://app?vid=ff34d375-dd64-4ae8-8543-8629f071c6af","ios":"levelo://app?vid=ff34d375-dd64-4ae8-8543-8629f071c6af"},"vehicle_type_id":"4","last_reported":1746893461,"current_range_meters":24800,"station_id":"cki0cbj6b192h4jlfktg","pricing_plan_id":"cebpf4jnsgd1na2vs0mg"},{"bike_id":"a9e0feaf-f6fb-4837-8386-73739bf6fcf2","system_id":"levelo_inurba_marseille","lat":43.28952,"lon":5.36637,"is_reserved":false,"is_disabled":false,"rental_uris":{"android":"levelo://app?vid=a9e0feaf-f6fb-4837-8386-73739bf6fcf2","ios":"levelo://app?vid=a9e0feaf-f6fb-4837-8386-73739bf6fcf2"},"vehicle_type_id":"4","last_reported":1746893461,"current_range_meters":25200,"station_id":"ce4bhap2rcd13ifvqek0","pricing_plan_id":"cebpf4jnsgd1na2vs0mg"},{"bike_id":"5bb2370f-98fd-4304-98e3-4d7c51c35d08","system_id":"levelo_inurba_marseille","lat":43.29608,"lon":5.38103,"is_reserved":false,"is_disabled":false,"rental_uris":{"android":"levelo://app?vid=5bb2370f-98fd-4304-98e3-4d7c51c35d08","ios":"levelo://app?vid=5bb2370f-98fd-4304-98e3-4d7c51c35d08"},"vehicle_type_id":"4","last_reported":1746893461,"current_range_meters":25600,"station_id":"ce4bgl12rcd13ifvqbo0","pricing_plan_id":"cebpf4jnsgd1na2vs0mg"},{"bike_id":"6cdc26a3-d7c4-4afd-ab10-2eeb25907c66","system_id":"levelo_inurba_marseille","lat":43.2886,"lon":5.35864,"is_reserved":false,"is_disabled":false,"rental_uris":{"android":"levelo://app?vid=6cdc26a3-d7c4-4afd-ab10-2eeb25907c66","ios":"levelo://app?vid=6cdc26a3-d7c4-4afd-ab10-2eeb25907c66"},"vehicle_type_id":"4","last_reported":1746893461,"current_range_meters":25200,"station_id":"ce4bhb12rcd13ifvqem0","pricing_plan_id":"cebpf4jnsgd1na2vs0mg"},{"bike_id":"2d706f88-aa3e-4183-b730-61833dcff0f7","system_id":"levelo_inurba_marseille","lat":43.31174,"lon":5.38722,"is_reserved":false,"is_disabled":false,"rental_uris":{"android":"levelo://app?vid=2d706f88-aa3e-4183-b730-61833dcff0f7","ios":"levelo://app?vid=2d706f88-aa3e-4183-b730-61833dcff0f7"},"vehicle_type_id":"4","last_reported":1746893461,"current_range_meters":25600,"station_id":"ce4bgv12rcd13ifvqcp0","pricing_plan_id":"cebpf4jnsgd1na2vs0mg"},{"bike_id":"5e146435-7746-407d-8b9e-3184588dc813","system_id":"levelo_inurba_marseille","lat":43.27972,"lon":5.38741,"is_reserved":false,"is_disabled":false,"rental_uris":{"android":"levelo://app?vid=5e146435-7746-407d-8b9e-3184588dc813","ios":"levelo://app?vid=5e146435-7746-407d-8b9e-3184588dc813"},"vehicle_type_id":"4","last_reported":1746893461,"current_range_meters":25600,"station_id":"ce4bhg12rcd13ifvqf80","pricing_plan_id":"cebpf4jnsgd1na2vs0mg"},{"bike_id":"a6a0b267-46b3-40c1-aad8-962fc5f714c6","system_id":"levelo_inurba_marseille","lat":43.25823,"lon":5.39439,"is_reserved":false,"is_disabled":false,"rental_uris":{"android":"levelo://app?vid=a6a0b267-46b3-40c1-aad8-962fc5f714c6","ios":"levelo://app?vid=a6a0b267-46b3-40c1-aad8-962fc5f714c6"},"vehicle_type_id":"4","last_reported":1746893461,"current_range_meters":26000,"station_id":"ce4bhip2rcd13ifvqft0","pricing_plan_id":"cebpf4jnsgd1na2vs0mg"},{"bike_id":"25b2fadc-45a6-48d6-a6f3-991342f4287c","system_id":"levelo_inurba_marseille","lat":43.24166,"lon":5.36412,"is_reserved":false,"is_disabled":false,"rental_uris":{"android":"levelo://app?vid=25b2fadc-45a6-48d6-a6f3-991342f4287c","ios":"levelo://app?vid=25b2fadc-45a6-48d6-a6f3-991342f4287c"},"vehicle_type_id":"4","last_reported":1746893461,"current_range_meters":26000,"station_id":"cpo36qri1sfpv3e86is0","pricing_plan_id":"cebpf4jnsgd1na2vs0mg"},{"bike_id":"b3b1f17f-edd6-48b5-854e-136035b21916","system_id":"levelo_inurba_marseille","lat":43.27847,"lon":5.39222,"is_reserved":false,"is_disabled":false,"rental_uris":{"android":"levelo://app?vid=b3b1f17f-edd6-48b5-854e-136035b21916","ios":"levelo://app?vid=b3b1f17f-edd6-48b5-854e-136035b21916"},"vehicle_type_id":"4","last_reported":1746893461,"current_range_meters":26000,"station_id":"ce4bhjp2rcd13ifvqga0","pricing_plan_id":"cebpf4jnsgd1na2vs0mg"},{"bike_id":"8d906c2e-2485-4a98-80d0-13b279aabe6b","system_id":"levelo_inurba_marseille","lat":43.31713,"lon":5.43711,"is_reserved":false,"is_disabled":false,"rental_uris":{"android":"levelo://app?vid=8d906c2e-2485-4a98-80d0-13b279aabe6b","ios":"levelo://app?vid=8d906c2e-2485-4a98-80d0-13b279aabe6b"},"vehicle_type_id":"4","last_reported":1746893461,"current_range_meters":26000,"station_id":"ce4bhp92rcd13ifvqhcg","pricing_plan_id":"cebpf4jnsgd1na2vs0mg"},{"bike_id":"0b48a83a-c70e-4a1b-843a-79e6b486e74e","system_id":"levelo_inurba_marseille","lat":43.27337,"lon":5.36206,"is_reserved":false,"is_disabled":false,"rental_uris":{"android":"levelo://app?vid=0b48a83a-c70e-4a1b-843a-79e6b486e74e","ios":"levelo://app?vid=0b48a83a-c70e-4a1b-843a-79e6b486e74e"},"vehicle_type_id":"4","last_reported":1746893461,"current_range_meters":26000,"station_id":"","pricing_plan_id":"cebpf4jnsgd1na2vs0mg"},{"bike_id":"a409f578-7be7-4a6a-8236-ea9829aa51ba","system_id":"levelo_inurba_marseille","lat":43.28702,"lon":5.39996,"is_reserved":false,"is_disabled":false,"rental_uris":{"android":"levelo://app?vid=a409f578-7be7-4a6a-8236-ea9829aa51ba","ios":"levelo://app?vid=a409f578-7be7-4a6a-8236-ea9829aa51ba"},"vehicle_type_id":"4","last_reported":1746893461,"current_range_meters":26800,"station_id":"ce4bho92rcd13ifvqh3g","pricing_plan_id":"cebpf4jnsgd1na2vs0mg"},{"bike_id":"00014e7c-56fa-474c-b085-529ca09dc3d1","system_id":"levelo_inurba_marseille","lat":43.241673,"lon":5.364041,"is_reserved":false,"is_disabled":false,"rental_uris":{"android":"levelo://app?vid=00014e7c-56fa-474c-b085-529ca09dc3d1","ios":"levelo://app?vid=00014e7c-56fa-474c-b085-529ca09dc3d1"},"vehicle_type_id":"4","last_reported":1746893461,"current_range_meters":26800,"station_id":"cpo36qri1sfpv3e86is0","pricing_plan_id":"cebpf4jnsgd1na2vs0mg"},{"bike_id":"a3eac4fa-7a07-43b3-9029-7c1fb2fce06f","system_id":"levelo_inurba_marseille","lat":43.28268,"lon":5.3506,"is_reserved":false,"is_disabled":false,"rental_uris":{"android":"levelo://app?vid=a3eac4fa-7a07-43b3-9029-7c1fb2fce06f","ios":"levelo://app?vid=a3eac4fa-7a07-43b3-9029-7c1fb2fce06f"},"vehicle_type_id":"4","last_reported":1746893461,"current_range_meters":26800,"station_id":"ce4bhbp2rcd13ifvqerg","pricing_plan_id":"cebpf4jnsgd1na2vs0mg"},{"bike_id":"e97d7828-f1f4-4262-868f-4e4734db573d","system_id":"levelo_inurba_marseille","lat":43.26577,"lon":5.39027,"is_reserved":false,"is_disabled":false,"rental_uris":{"android":"levelo://app?vid=e97d7828-f1f4-4262-868f-4e4734db573d","ios":"levelo://app?vid=e97d7828-f1f4-4262-868f-4e4734db573d"},"vehicle_type_id":"4","last_reported":1746893461,"current_range_meters":27200,"station_id":"ce4bhe12rcd13ifvqf30","pricing_plan_id":"cebpf4jnsgd1na2vs0mg"},