{"last_updated":1710968842,"ttl":30,"version":"2.2","data":{"bikes":[{"bike_id":"ae70dba6-a69e-4b6e-8bbe-d347bb4f1c9b","system_id":"levelo_inurba_marseille","lat":43.31231,"lon":5.36882,"is_reserved":false,"is_disabled":false,"rental_uris":{"android":"levelo://app?vid=ae70dba6-a69e-4b6e-8bbe-d347bb4f1c9b","ios":"levelo://app?vid=ae70dba6-a69e-4b6e-8bbe-d347bb4f1c9b"},"vehicle_type_id":"4","last_reported":1710968842,"current_range_meters":27600,"station_id":"ce4bgl92rcd13ifvqbq0","pricing_plan_id":"cebpf4jnsgd1na2vs0mg"},{"bike_id":"61dad4c3-1de9-461d-abe5-93c23ba57a95","system_id":"levelo_inurba_marseille","lat":43.314811,"lon":5.373103,"is_reserved":false,"is_disabled":false,"rental_uris":{"android":"levelo://app?vid=61dad4c3-1de9-461d-abe5-93c23ba57a95","ios":"levelo://app?vid=61dad4c3-1de9-461d-abe5-93c23ba57a95"},"vehicle_type_id":"4","last_reported":1710968842,"current_range_meters":4000,"station_id":"ce4bgt12rcd13ifvqcd0","pricing_plan_id":"cebpf4jnsgd1na2vs0mg"},{"bike_id":"d9fc9512-7d4d-4421-8b7c-aa0fa8a84e53","system_id":"levelo_inurba_marseille","lat":43.309039,"lon":5.371797,"is_reserved":false,"is_disabled":false,"rental_uris":{"android":"levelo://app?vid=d9fc9512-7d4d-4421-8b7c-aa0fa8a84e53","ios":"levelo://app?vid=d9fc9512-7d4d-4421-8b7c-aa0fa8a84e53"},"vehicle_type_id":"4","last_reported":1710968842,"current_range_meters":400,"station_id":"ce4bguh2rcd13ifvqckg","pricing_plan_id":"cebpf4jnsgd1na2vs0mg"},{"bike_id":"b4b941dd-ce77-4e80-b001-7e8904b45430","system_id":"levelo_inurba_marseille","lat":43.309034,"lon":5.371783,"is_reserved":false,"is_disabled":false,"rental_uris":{"android":"levelo://app?vid=b4b941dd-ce77-4e80-b001-7e8904b45430","ios":"levelo://app?vid=b4b941dd-ce77-4e80-b001-7e8904b45430"},"vehicle_type_id":"4","last_reported":1710968842,"current_range_meters":0,"station_id":"ce4bguh2rcd13ifvqckg","pricing_plan_id":"cebpf4jnsgd1na2vs0mg"},{"bike_id":"017e218d-740c-4ea6-8584-d24d05aa3547","system_id":"levelo_inurba_marseille","lat":43.309039,"lon":5.371797,"is_reserved":false,"is_disabled":false,"rental_uris":{"android":"levelo://app?vid=017e218d-740c-4ea6-8584-d24d05aa3547","ios":"levelo://app?vid=017e218d-740c-4ea6-8584-d24d05aa3547"},"vehicle_type_id":"4","last_reported":1710968842,"current_range_meters":4400,"station_id":"ce4bguh2rcd13ifvqckg","pricing_plan_id":"cebpf4jnsgd1na2vs0mg"},{"bike_id":"cc2448ab-eafa-4159-93cf-743bfff055f4","system_id":"levelo_inurba_marseille","lat":43.309039,"lon":5.371797,"is_reserved":false,"is_disabled":false,"rental_uris":{"android":"levelo://app?vid=cc2448ab-eafa-4159-93cf-743bfff055f4","ios":"levelo://app?vid=cc2448ab-eafa-4159-93cf-743bfff055f4"},"vehicle_type_id":"4","last_reported":1710968842,"current_range_meters":17200,"station_id":"ce4bguh2rcd13ifvqckg","pricing_plan_id":"cebpf4jnsgd1na2vs0mg"},{"bike_id":"713d3753-5591-4247-aec5-7b1886d25d7c","system_id":"levelo_inurba_marseille","lat":43.309034,"lon":5.371783,"is_reserved":false,"is_disabled":false,"rental_uris":{"android":"levelo://app?vid=713d3753-5591-4247-aec5-7b1886d25d7c","ios":"levelo://app?vid=713d3753-5591-4247-aec5-7b1886d25d7c"},"vehicle_type_id":"4","last_reported":1710968842,"current_range_meters":16000,"station_id":"ce4bguh2rcd13ifvqckg","pricing_plan_id":"cebpf4jnsgd1na2vs0mg"},{"bike_id":"ff4abf57-cb1b-4870-9af6-37ee424d9622","system_id":"levelo_inurba_marseille","lat":43.30537,"lon":5.367345,"is_reserved":false,"is_disabled":false,"rental_uris":{"android":"levelo://app?vid=ff4abf57-cb1b-4870-9af6-37ee424d9622","ios":"levelo://app?vid=ff4abf57-cb1b-4870-9af6-37ee424d9622"},"vehicle_type_id":"4","last_reported":1710968842,"current_range_meters":4000,"station_id":"ce4bgrp2rcd13ifvqc9g","pricing_plan_id":"cebpf4jnsgd1na2vs0mg"},{"bike_id":"69fd9362-bd24-49e7-a14c-59a00f5266b8","system_id":"levelo_inurba_marseille","lat":43.305989,"lon":5.37225,"is_reserved":false,"is_disabled":false,"rental_uris":{"android":"levelo://app?vid=69fd9362-bd24-49e7-a14c-59a00f5266b8","ios":"levelo://app?vid=69fd9362-bd24-49e7-a14c-59a00f5266b8"},"vehicle_type_id":"4","last_reported":1710968842,"current_range_meters":30800,"station_id":"ce4bgqh2rcd13ifvqc4g","pricing_plan_id":"cebpf4jnsgd1na2vs0mg"},{"bike_id":"1b9fbd33-e612-4240-85a0-6904fa50cbfb","system_id":"levelo_inurba_marseille","lat":43.31026,"lon":5.37702,"is_reserved":false,"is_disabled":false,"rental_uris":{"android":"levelo://app?vid=1b9fbd33-e612-4240-85a0-6904fa50cbfb","ios":"levelo://app?vid=1b9fbd33-e612-4240-85a0-6904fa50cbfb"},"vehicle_type_id":"4","last_reported":1710968842,"current_range_meters":0,"station_id":"","pricing_plan_id":"cebpf4jnsgd1na2vs0mg"},{"bike_id":"8d978b3c-e703-4563-a6a7-b89f67f53b11","system_id":"levelo_inurba_marseille","lat":43.305989,"lon":5.37225,"is_reserved":false,"is_disabled":false,"rental_uris":{"android":"levelo://app?vid=8d978b3c-e703-4563-a6a7-b89f67f53b11","ios":"levelo://app?vid=8d978b3c-e703-4563-a6a7-b89f67f53b11"},"vehicle_type_id":"4","last_reported":1710968842,"current_range_meters":18400,"station_id":"ce4bgqh2rcd13ifvqc4g","pricing_plan_id":"cebpf4jnsgd1na2vs0mg"},{"bike_id":"cc0103d6-3cca-4ed7-a644-ab0a1c2daedb","system_id":"levelo_inurba_marseille","lat":43.31126,"lon":5.37774,"is_reserved":false,"is_disabled":false,"rental_uris":{"android":"levelo://app?vid=cc0103d6-3cca-4ed7-a644-ab0a1c2daedb","ios":"levelo://app?vid=cc0103d6-3cca-4ed7-a644-ab0a1c2daedb"},"vehicle_type_id":"4","last_reported":1710968842,"current_range_meters":0,"station_id":"ce4bgt92rcd13ifvqcg0","pricing_plan_id":"cebpf4jnsgd1na2vs0mg"},{"bike_id":"437566dc-5f6e-40b5-8f74-6f2792cc869d","system_id":"levelo_inurba_marseille","lat":43.307514,"lon":5.375912,"is_reserved":false,"is_disabled":false,"rental_uris":{"android":"levelo://app?vid=437566dc-5f6e-40b5-8f74-6f2792cc869d","ios":"levelo://app?vid=437566dc-5f6e-40b5-8f74-6f2792cc869d"},"vehicle_type_id":"4","last_reported":1710968842,"current_range_meters":5200,"station_id":"ce4bgv92rcd13ifvqcq0","pricing_plan_id":"cebpf4jnsgd1na2vs0mg"},{"bike_id":"848bed00-be92-45f0-8e10-8c726ee3b919","system_id":"levelo_inurba_marseille","lat":43.30792,"lon":5.37642,"is_reserved":false,"is_disabled":false,"rental_uris":{"android":"levelo://app?vid=848bed00-be92-45f0-8e10-8c726ee3b919","ios":"levelo://app?vid=848bed00-be92-45f0-8e10-8c726ee3b919"},"vehicle_type_id":"4","last_reported":1710968842,"current_range_meters":0,"station_id":"ce4bgv92rcd13ifvqcq0","pricing_plan_id":"cebpf4jnsgd1na2vs0mg"},{"bike_id":"37ba464b-025e-451a-99c5-70ea4b86d2f8","system_id":"levelo_inurba_marseille","lat":43.30789,"lon":5.37642,"is_reserved":false,"is_disabled":false,"rental_uris":{"android":"levelo://app?vid=37ba464b-025e-451a-99c5-70ea4b86d2f8","ios":"levelo://app?vid=37ba464b-025e-451a-99c5-70ea4b86d2f8"},"vehicle_type_id":"4","last_reported":1710968842,"current_range_meters":8400,"station_id":"ce4bgv92rcd13ifvqcq0","pricing_plan_id":"cebpf4jnsgd1na2vs0mg"},{"bike_id":"5e809663-0fe6-45da-bb32-63f78af0e1b7","system_id":"levelo_inurba_marseille","lat":43.30794,"lon":5.37653,"is_reserved":false,"is_disabled":false,"rental_uris":{"android":"levelo://app?vid=5e809663-0fe6-45da-bb32-63f78af0e1b7","ios":"levelo://app?vid=5e809663-0fe6-45da-bb32-63f78af0e1b7"},"vehicle_type_id":"4","last_reported":1710968842,"current_range_meters":22800,"station_id":"ce4bgv92rcd13ifvqcq0","pricing_plan_id":"cebpf4jnsgd1na2vs0mg"},{"bike_id":"79f77939-2685-431e-b930-543a2b7657ff","system_id":"levelo_inurba_marseille","lat":43.30788,"lon":5.37648,"is_reserved":false,"is_disabled":false,"rental_uris":{"android":"levelo://app?vid=79f77939-2685-431e-b930-543a2b7657ff","ios":"levelo://app?vid=79f77939-2685-431e-b930-543a2b7657ff"},"vehicle_type_id":"4","last_reported":1710968842,"current_range_meters":29600,"station_id":"ce4bgv92rcd13ifvqcq0","pricing_plan_id":"cebpf4jnsgd1na2vs0mg"},{"bike_id":"29890d2e-f09a-4580-b292-0f70cc3ce606","system_id":"levelo_inurba_marseille","lat":43.30786,"lon":5.37656,"is_reserved":false,"is_disabled":false,"rental_uris":{"android":"levelo://app?vid=29890d2e-f09a-4580-b292-0f70cc3ce606","ios":"levelo://app?vid=29890d2e-f09a-4580-b292-0f70cc3ce606"},"vehicle_type_id":"4","last_reported":1710968842,"current_range_meters":18400,"station_id":"ce4bgv92rcd13ifvqcq0","pricing_plan_id":"cebpf4jnsgd1na2vs0mg"},{"bike_id":"d39817aa-89c3-4ef0-9356-a4056cd22a0e","system_id":"levelo_inurba_marseille","lat":43.31701,"lon":5.377583,"is_reserved":false,"is_disabled":false,"rental_uris":{"android":"levelo://app?vid=d39817aa-89c3-4ef0-9356-a4056cd22a0e","ios":"levelo://app?vid=d39817aa-89c3-4ef0-9356-a4056cd22a0e"},"vehicle_type_id":"4","last_reported":1710968842,"current_range_meters":5600,"station_id":"ce4bgth2rcd13ifvqch0","pricing_plan_id":"cebpf4jnsgd1na2vs0mg"},{"bike_id":"62863dfe-424b-4686-ab60-dfeb394604f3","system_id":"levelo_inurba_marseille","lat":43.30318,"lon":5.36918,"is_reserved":false,"is_disabled":false,"rental_uris":{"android":"levelo://app?vid=62863dfe-424b-4686-ab60-dfeb394604f3","ios":"levelo://app?vid=62863dfe-424b-4686-ab60-dfeb394604f3"},"vehicle_type_id":"4","last_reported":1710968842,"current_range_meters":0,"station_id":"ce4bgqh2rcd13ifvqc5g","pricing_plan_id":"cebpf4jnsgd1na2vs0mg"},{"bike_id":"a0b83547-6500-4266-b8ce-0706e0389551","system_id":"levelo_inurba_marseille","lat":43.32006,"lon":5.37623,"is_reserved":false,"is_disabled":false,"rental_uris":{"android":"levelo://app?vid=a0b83547-6500-4266-b8ce-0706e0389551","ios":"levelo://app?vid=a0b83547-6500-4266-b8ce-0706e0389551"},"vehicle_type_id":"4","last_reported":1710968842,"current_range_meters":15600,"station_id":"","pricing_plan_id":"cebpf4jnsgd1na2vs0mg"},{"bike_id":"0ee23f26-fda8-4449-85b1-5c0e49d11f72","system_id":"levelo_inurba_marseille","lat":43.315289,"lon":5.380349,"is_reserved":false,"is_disabled":false,"rental_uris":{"android":"levelo://app?vid=0ee23f26-fda8-4449-85b1-5c0e49d11f72","ios":"levelo://app?vid=0ee23f26-fda8-4449-85b1-5c0e49d11f72"},"vehicle_type_id":"4","last_reported":1710968842,"current_range_meters":27600,"station_id":"ce4bhsp2rcd13ifvqi50","pricing_plan_id":"cebpf4jnsgd1na2vs0mg"},{"bike_id":"8ae7f2ce-eb6b-4407-b201-7ef78929c4cb","system_id":"levelo_inurba_marseille","lat":43.30192,"lon":5.36622,"is_reserved":false,"is_disabled":false,"rental_uris":{"android":"levelo://app?vid=8ae7f2ce-eb6b-4407-b201-7ef78929c4cb","ios":"levelo://app?vid=8ae7f2ce-eb6b-4407-b201-7ef78929c4cb"},"vehicle_type_id":"4","last_reported":1710968842,"current_range_meters":0,"station_id":"ce4bgrh2rcd13ifvqc8g","pricing_plan_id":"cebpf4jnsgd1na2vs0mg"},{"bike_id":"36d66685-dd91-4d83-849e-229545037d62","system_id":"levelo_inurba_marseille","lat":43.30802,"lon":5.38153,"is_reserved":false,"is_disabled":false,"rental_uris":{"android":"levelo://app?vid=36d66685-dd91-4d83-849e-229545037d62","ios":"levelo://app?vid=36d66685-dd91-4d83-849e-229545037d62"},"vehicle_type_id":"4","last_reported":1710968842,"current_range_meters":5600,"station_id":"ce4bgt12rcd13ifvqce0","pricing_plan_id":"cebpf4jnsgd1na2vs0mg"},{"bike_id":"49db3fe3-ab0b-4514-9566-4be05e971ef1","system_id":"levelo_inurba_marseille","lat":43.308012,"lon":5.381511,"is_reserved":false,"is_disabled":false,"rental_uris":{"android":"levelo://app?vid=49db3fe3-ab0b-4514-9566-4be05e971ef1","ios":"levelo://app?vid=49db3fe3-ab0b-4514-9566-4be05e971ef1"},"vehicle_type_id":"4","last_reported":1710968842,"current_range_meters":7200,"station_id":"ce4bgt12rcd13ifvqce0","pricing_plan_id":"cebpf4jnsgd1na2vs0mg"},{"bike_id":"a1f9695f-9927-41a0-8ba0-3f8a31b03269","system_id":"levelo_inurba_marseille","lat":43.301939,"lon":5.366286,"is_reserved":false,"is_disabled":false,"rental_uris":{"android":"levelo://app?vid=a1f9695f-9927-41a0-8ba0-3f8a31b03269","ios":"levelo://app?vid=a1f9695f-9927-41a0-8ba0-3f8a31b03269"},"vehicle_type_id":"4","last_reported":1710968842,"current_range_meters":30800,"station_id":"ce4bgrh2rcd13ifvqc8g","pricing_plan_id":"cebpf4jnsgd1na2vs0mg"},{"bike_id":"0390248a-02b7-4871-82e7-4e4d3cbfe26e","system_id":"levelo_inurba_marseille","lat":43.30477,"lon":5.37897,"is_reserved":false,"is_disabled":false,"rental_uris":{"android":"levelo://app?vid=0390248a-02b7-4871-82e7-4e4d3cbfe26e","ios":"levelo://app?vid=0390248a-02b7-4871-82e7-4e4d3cbfe26e"},"vehicle_type_id":"4","last_reported":1710968842,"current_range_meters":0,"station_id":"ce4bgup2rcd13ifvqcn0","pricing_plan_id":"cebpf4jnsgd1na2vs0mg"},{"bike_id":"130b48d4-64a8-45e7-a601-a20bdb109fb4","system_id":"levelo_inurba_marseille","lat":43.30473,"lon":5.379,"is_reserved":false,"is_disabled":false,"rental_uris":{"android":"levelo://app?vid=130b48d4-64a8-45e7-a601-a20bdb109fb4","ios":"levelo://app?vid=130b48d4-64a8-45e7-a601-a20bdb109fb4"},"vehicle_type_id":"4","last_reported":1710968842,"current_range_meters":10000,"station_id":"ce4bgup2rcd13ifvqcn0","pricing_plan_id":"cebpf4jnsgd1na2vs0mg"},{"bike_id":"60debb9b-6c38-492e-adc3-e29deb25718b","system_id":"levelo_inurba_marseille","lat":43.304606,"lon":5.379026,"is_reserved":false,"is_disabled":false,"rental_uris":{"android":"levelo://app?vid=60debb9b-6c38-492e-adc3-e29deb25718b","ios":"levelo://app?vid=60debb9b-6c38-492e-adc3-e29deb25718b"},"vehicle_type_id":"4","last_reported":1710968842,"current_range_meters":11200,"station_id":"ce4bgup2rcd13ifvqcn0","pricing_plan_id":"cebpf4jnsgd1na2vs0mg"},{"bike_id":"bd6c4a17-46ef-4b75-b038-cc4fb9e303c7","system_id":"levelo_inurba_marseille","lat":43.304606,"lon":5.379026,"is_reserved":false,"is_disabled":false,"rental_uris":{"android":"levelo://app?vid=bd6c4a17-46ef-4b75-b038-cc4fb9e303c7","ios":"levelo://app?vid=bd6c4a17-46ef-4b75-b038-cc4fb9e303c7"},"vehicle_type_id":"4","last_reported":1710968842,"current_range_meters":0,"station_id":"ce4bgup2rcd13ifvqcn0","pricing_plan_id":"cebpf4jnsgd1na2vs0mg"},{"bike_id":"879fa0b0-fb84-4c46-ac2f-14142b05dd64","system_id":"levelo_inurba_marseille","lat":43.324771,"lon":5.36557,"is_reserved":false,"is_disabled":false,"rental_uris":{"android":"levelo://app?vid=879fa0b0-fb84-4c46-ac2f-14142b05dd64","ios":"levelo://app?vid=879fa0b0-fb84-4c46-ac2f-14142b05dd64"},"vehicle_type_id":"4","last_reported":1710968842,"current_range_meters":21600,"station_id":"ce4bhs12rcd13ifvqhvg","pricing_plan_id":"cebpf4jnsgd1na2vs0mg"},{"bike_id":"2fce2e5e-317a-4865-8219-cd30090cd416","system_id":"levelo_inurba_marseille","lat":43.324889,"lon":5.365755,"is_reserved":false,"is_disabled":false,"rental_uris":{"android":"levelo://app?vid=2fce2e5e-317a-4865-8219-cd30090cd416","ios":"levelo://app?vid=2fce2e5e-317a-4865-8219-cd30090cd416"},"vehicle_type_id":"4","last_reported":1710968842,"current_range_meters":0,"station_id":"ce4bhs12rcd13ifvqhvg","pricing_plan_id":"cebpf4jnsgd1na2vs0mg"},{"bike_id":"976ca96d-8648-4a1b-a0c9-c71b47d4776d","system_id":"levelo_inurba_marseille","lat":43.324771,"lon":5.36557,"is_reserved":false,"is_disabled":false,"rental_uris":{"android":"levelo://app?vid=976ca96d-8648-4a1b-a0c9-c71b47d4776d","ios":"levelo://app?vid=976ca96d-8648-4a1b-a0c9-c71b47d4776d"},"vehicle_type_id":"4","last_reported":1710968842,"current_range_meters":9600,"station_id":"ce4bhs12rcd13ifvqhvg","pricing_plan_id":"cebpf4jnsgd1na2vs0mg"},{"bike_id":"5b1a0abc-fa6f-43bf-a88f-7ae949c24098","system_id":"levelo_inurba_marseille","lat":43.31068,"lon":5.3835,"is_reserved":false,"is_disabled":false,"rental_uris":{"android":"levelo://app?vid=5b1a0abc-fa6f-43bf-a88f-7ae949c24098","ios":"levelo://app?vid=5b1a0abc-fa6f-43bf-a88f-7ae949c24098"},"vehicle_type_id":"4","last_reported":1710968842,"current_range_meters":0,"station_id":"ce4bgv92rcd13ifvqcr0","pricing_plan_id":"cebpf4jnsgd1na2vs0mg"},{"bike_id":"bc5fab7a-7656-44e5-9ee2-5c1c721f0d3a","system_id":"levelo_inurba_marseille","lat":43.310804,"lon":5.38359,"is_reserved":false,"is_disabled":false,"rental_uris":{"android":"levelo://app?vid=bc5fab7a-7656-44e5-9ee2-5c1c721f0d3a","ios":"levelo://app?vid=bc5fab7a-7656-44e5-9ee2-5c1c721f0d3a"},"vehicle_type_id":"4","last_reported":1710968842,"current_range_meters":0,"station_id":"ce4bgv92rcd13ifvqcr0","pricing_plan_id":"cebpf4jnsgd1na2vs0mg"},{"bike_id":"472b8a95-6576-4dd9-86aa-3ce410e32ad3","system_id":"levelo_inurba_marseille","lat":43.3107,"lon":5.38357,"is_reserved":false,"is_disabled":false,"rental_uris":{"android":"levelo://app?vid=472b8a95-6576-4dd9-86aa-3ce410e32ad3","ios":"levelo://app?vid=472b8a95-6576-4dd9-86aa-3ce410e32ad3"},"vehicle_type_id":"4","last_reported":1710968842,"current_range_meters":0,"station_id":"ce4bgv92rcd13ifvqcr0","pricing_plan_id":"cebpf4jnsgd1na2vs0mg"},{"bike_id":"04e9d777-b3f0-4fa6-838c-f929404b7662","system_id":"levelo_inurba_marseille","lat":43.301437,"lon":5.37409,"is_reserved":false,"is_disabled":false,"rental_uris":{"android":"levelo://app?vid=04e9d777-b3f0-4fa6-838c-f929404b7662","ios":"levelo://app?vid=04e9d777-b3f0-4fa6-838c-f929404b7662"},"vehicle_type_id":"4","last_reported":1710968842,"current_range_meters":0,"station_id":"ce4bgs92rcd13ifvqcc0","pricing_plan_id":"cebpf4jnsgd1na2vs0mg"},{"bike_id":"c5888602-c39a-4a5d-b745-ebbd3f4db101","system_id":"levelo_inurba_marseille","lat":43.319935,"lon":5.381699,"is_reserved":false,"is_disabled":false,"rental_uris":{"android":"levelo://app?vid=c5888602-c39a-4a5d-b745-ebbd3f4db101","ios":"levelo://app?vid=c5888602-c39a-4a5d-b745-ebbd3f4db101"},"vehicle_type_id":"4","last_reported":1710968842,"current_range_meters":9200,"station_id":"ce4bhr12rcd13ifvqhpg","pricing_plan_id":"cebpf4jnsgd1na2vs0mg"},{"bike_id":"5aa8d1d9-d2a3-4970-834f-6317bc174708","system_id":"levelo_inurba_marseille","lat":43.319935,"lon":5.381699,"is_reserved":false,"is_disabled":false,"rental_uris":{"android":"levelo://app?vid=5aa8d1d9-d2a3-4970-834f-6317bc174708","ios":"levelo://app?vid=5aa8d1d9-d2a3-4970-834f-6317bc174708"},"vehicle_type_id":"4","last_reported":1710968842,"current_range_meters":18800,"station_id":"ce4bhr12rcd13ifvqhpg","pricing_plan_id":"cebpf4jnsgd1na2vs0mg"},{"bike_id":"53ae1eb9-01b2-4850-b667-39dda217df16","system_id":"levelo_inurba_marseille","lat":43.319935,"lon":5.381699,"is_reserved":false,"is_disabled":false,"rental_uris":{"android":"levelo://app?vid=53ae1eb9-01b2-4850-b667-39dda217df16","ios":"levelo://app?vid=53ae1eb9-01b2-4850-b667-39dda217df16"},"vehicle_type_id":"4","last_reported":1710968842,"current_range_meters":4000,"station_id":"ce4bhr12rcd13ifvqhpg","pricing_plan_id":"cebpf4jnsgd1na2vs0mg"},{"bike_id":"7447f4a7-65fa-4127-a289-941c1f0c603e","system_id":"levelo_inurba_marseille","lat":43.319935,"lon":5.381699,"is_reserved":false,"is_disabled":false,"rental_uris":{"android":"levelo://app?vid=7447f4a7-65fa-4127-a289-941c1f0c603e","ios":"levelo://app?vid=7447f4a7-65fa-4127-a289-941c1f0c603e"},"vehicle_type_id":"4","last_reported":1710968842,"current_range_meters":12800,"station_id":"ce4bhr12rcd13ifvqhpg","pricing_plan_id":"cebpf4jnsgd1na2vs0mg"},{"bike_id":"e8eec59e-f875-48a1-a99b-4940e92b519b","system_id":"levelo_inurba_marseille","lat":43.319935,"lon":5.381699,"is_reserved":false,"is_disabled":false,"rental_uris":{"android":"levelo://app?vid=e8eec59e-f875-48a1-a99b-4940e92b519b","ios":"levelo://app?vid=e8eec59e-f875-48a1-a99b-4940e92b519b"},"vehicle_type_id":"4","last_reported":1710968842,"current_range_meters":10800,"station_id":"ce4bhr12rcd13ifvqhpg","pricing_plan_id":"cebpf4jnsgd1na2vs0mg"},{"bike_id":"11af88b5-ee1f-40b4-b03c-143e8c1aec07","system_id":"levelo_inurba_marseille","lat":43.319956,"lon":5.381615,"is_reserved":false,"is_disabled":false,"rental_uris":{"android":"levelo://app?vid=11af88b5-ee1f-40b4-b03c-143e8c1aec07","ios":"levelo://app?vid=11af88b5-ee1f-40b4-b03c-143e8c1aec07"},"vehicle_type_id":"4","last_reported":1710968842,"current_range_meters":13200,"station_id":"ce4bhr12rcd13ifvqhpg","pricing_plan_id":"cebpf4jnsgd1na2vs0mg"},{"bike_id":"5c8cf22e-b31b-4c10-9b7a-acf0c71cb5bf","system_id":"levelo_inurba_marseille","lat":43.319935,"lon":5.381699,"is_reserved":false,"is_disabled":false,"rental_uris":{"android":"levelo://app?vid=5c8cf22e-b31b-4c10-9b7a-acf0c71cb5bf","ios":"levelo://app?vid=5c8cf22e-b31b-4c10-9b7a-acf0c71cb5bf"},"vehicle_type_id":"4","last_reported":1710968842,"current_range_meters":10000,"station_id":"ce4bhr12rcd13ifvqhpg","pricing_plan_id":"cebpf4jnsgd1na2vs0mg"},{"bike_id":"18754159-673b-4be5-8318-8a2c545ac8ac","system_id":"levelo_inurba_marseille","lat":43.319935,"lon":5.381699,"is_reserved":false,"is_disabled":false,"rental_uris":{"android":"levelo://app?vid=18754159-673b-4be5-8318-8a2c545ac8ac","ios":"levelo://app?vid=18754159-673b-4be5-8318-8a2c545ac8ac"},"vehicle_type_id":"4","last_reported":1710968842,"current_range_meters":6400,"station_id":"ce4bhr12rcd13ifvqhpg","pricing_plan_id":"cebpf4jnsgd1na2vs0mg"},{"bike_id":"bacf9ea7-7b6f-4771-b57c-c8a34d4f67a3","system_id":"levelo_inurba_marseille","lat":43.319935,"lon":5.381699,"is_reserved":false,"is_disabled":false,"rental_uris":{"android":"levelo://app?vid=bacf9ea7-7b6f-4771-b57c-c8a34d4f67a3","ios":"levelo://app?vid=bacf9ea7-7b6f-4771-b57c-c8a34d4f67a3"},"vehicle_type_id":"4","last_reported":1710968842,"current_range_meters":0,"station_id":"ce4bhr12rcd13ifvqhpg","pricing_plan_id":"cebpf4jnsgd1na2vs0mg"},{"bike_id":"be83824f-cd7e-44ed-bda3-89905b40ab1f","system_id":"levelo_inurba_marseille","lat":43.32013,"lon":5.3816,"is_reserved":false,"is_disabled":false,"rental_uris":{"android":"levelo://app?vid=be83824f-cd7e-44ed-bda3-89905b40ab1f","ios":"levelo://app?vid=be83824f-cd7e-44ed-bda3-89905b40ab1f"},"vehicle_type_id":"4","last_reported":1710968842,"current_range_meters":800,"station_id":"ce4bhr12rcd13ifvqhpg","pricing_plan_id":"cebpf4jnsgd1na2vs0mg"},{"bike_id":"12eb73df-2a4a-42f9-baf0-a0158d3f526d","system_id":"levelo_inurba_marseille","lat":43.32015,"lon":5.38169,"is_reserved":false,"is_disabled":false,"rental_uris":{"android":"levelo://app?vid=12eb73df-2a4a-42f9-baf0-a0158d3f526d","ios":"levelo://app?vid=12eb73df-2a4a-42f9-baf0-a0158d3f526d"},"vehicle_type_id":"4","last_reported":1710968842,"current_range_meters":5200,"station_id":"ce4bhr12rcd13ifvqhpg","pricing_plan_id":"cebpf4jnsgd1na2vs0mg"},{"bike_id":"080dba29-aa3a-44b6-b577-ff32e4b84ee7","system_id":"levelo_inurba_marseille","lat":43.299222,"lon":5.365554,"is_reserved":false,"is_disabled":false,"rental_uris":{"android":"levelo://app?vid=080dba29-aa3a-44b6-b577-ff32e4b84ee7","ios":"levelo://app?vid=080dba29-aa3a-44b6-b577-ff32e4b84ee7"},"vehicle_type_id":"4","last_reported":1710968842,"current_range_meters":25600,"station_id":"ce4bgm92rcd13ifvqbr0","pricing_plan_id":"cebpf4jnsgd1na2vs0mg"},{"bike_id":"14d2e6ac-25a4-424d-a785-97e72c90b72d","system_id":"levelo_inurba_marseille","lat":43.299724,"lon":5.371829,"is_reserved":false,"is_disabled":false,"rental_uris":{"android":"levelo://app?vid=14d2e6ac-25a4-424d-a785-97e72c90b72d","ios":"levelo://app?vid=14d2e6ac-25a4-424d-a785-97e72c90b72d"},"vehicle_type_id":"4","last_reported":1710968842,"current_range_meters":0,"station_id":"ce4bgr92rcd13ifvqc7g","pricing_plan_id":"cebpf4jnsgd1na2vs0mg"},{"bike_id":"ed715e15-0738-4d75-b5a3-42e491fa3f5a","system_id":"levelo_inurba_marseille","lat":43.299222,"lon":5.365554,"is_reserved":false,"is_disabled":false,"rental_uris":{"android":"levelo://app?vid=ed715e15-0738-4d75-b5a3-42e491fa3f5a","ios":"levelo://app?vid=ed715e15-0738-4d75-b5a3-42e491fa3f5a"},"vehicle_type_id":"4","last_reported":1710968842,"current_range_meters":31200,"station_id":"ce4bgm92rcd13ifvqbr0","pricing_plan_id":"cebpf4jnsgd1na2vs0mg"},{"bike_id":"b8e945cd-e59c-41e6-9944-acd7d6e57254","system_id":"levelo_inurba_marseille","lat":43.299222,"lon":5.365554,"is_reserved":false,"is_disabled":false,"rental_uris":{"android":"levelo://app?vid=b8e945cd-e59c-41e6-9944-acd7d6e57254","ios":"levelo://app?vid=b8e945cd-e59c-41e6-9944-acd7d6e57254"},"vehicle_type_id":"4","last_reported":1710968842,"current_range_meters":29200,"station_id":"ce4bgm92rcd13ifvqbr0","pricing_plan_id":"cebpf4jnsgd1na2vs0mg"},{"bike_id":"0a38601e-2c55-4fab-98f2-627b163130f5","system_id":"levelo_inurba_marseille","lat":43.299222,"lon":5.365554,"is_reserved":false,"is_disabled":false,"rental_uris":{"android":"levelo://app?vid=0a38601e-2c55-4fab-98f2-627b163130f5","ios":"levelo://app?vid=0a38601e-2c55-4fab-98f2-627b163130f5"},"vehicle_type_id":"4","last_reported":1710968842,"current_range_meters":27600,"station_id":"ce4bgm92rcd13ifvqbr0","pricing_plan_id":"cebpf4jnsgd1na2vs0mg"},{"bike_id":"b4ebbc4b-a760-4c7c-b526-490e9e6f1057","system_id":"levelo_inurba_marseille","lat":43.298037,"lon":5.381066,"is_reserved":false,"is_disabled":false,"rental_uris":{"android":"levelo://app?vid=b4ebbc4b-a760-4c7c-b526-490e9e6f1057","ios":"levelo://app?vid=b4ebbc4b-a760-4c7c-b526-490e9e6f1057"},"vehicle_type_id":"4","last_reported":1710968842,"current_range_meters":21200,"station_id":"ce4bgip2rcd13ifvqbb0","pricing_plan_id":"cebpf4jnsgd1na2vs0mg"},{"bike_id":"ad2251d7-a990-4e8b-8de1-0d1a9fd11152","system_id":"levelo_inurba_marseille","lat":43.299222,"lon":5.365554,"is_reserved":false,"is_disabled":false,"rental_uris":{"android":"levelo://app?vid=ad2251d7-a990-4e8b-8de1-0d1a9fd11152","ios":"levelo://app?vid=ad2251d7-a990-4e8b-8de1-0d1a9fd11152"},"vehicle_type_id":"4","last_reported":1710968842,"current_range_meters":20800,"station_id":"ce4bgm92rcd13ifvqbr0","pricing_plan_id":"cebpf4jnsgd1na2vs0mg"},{"bike_id":"935f564b-92c9-4573-a132-59c52ec639d1","system_id":"levelo_inurba_marseille","lat":43.3026,"lon":5.37985,"is_reserved":false,"is_disabled":false,"rental_uris":{"android":"levelo://app?vid=935f564b-92c9-4573-a132-59c52ec639d1","ios":"levelo://app?vid=935f564b-92c9-4573-a132-59c52ec639d1"},"vehicle_type_id":"4","last_reported":1710968842,"current_range_meters":1600,"station_id":"","pricing_plan_id":"cebpf4jnsgd1na2vs0mg"},{"bike_id":"f7afd12d-48c1-4530-9fcd-d1674bedd322","system_id":"levelo_inurba_marseille","lat":43.298433,"lon":5.362774,"is_reserved":false,"is_disabled":false,"rental_uris":{"android":"levelo://app?vid=f7afd12d-48c1-4530-9fcd-d1674bedd322","ios":"levelo://app?vid=f7afd12d-48c1-4530-9fcd-d1674bedd322"},"vehicle_type_id":"4","last_reported":1710968842,"current_range_meters":13600,"station_id":"ce4bgpp2rcd13ifvqc3g","pricing_plan_id":"cebpf4jnsgd1na2vs0mg"},{"bike_id":"9f90260f-4f65-46c6-9420-9ae0a87c31c9","system_id":"levelo_inurba_marseille","lat":43.305364,"lon":5.384119,"is_reserved":false,"is_disabled":false,"rental_uris":{"android":"levelo://app?vid=9f90260f-4f65-46c6-9420-9ae0a87c31c9","ios":"levelo://app?vid=9f90260f-4f65-46c6-9420-9ae0a87c31c9"},"vehicle_type_id":"4","last_reported":1710968842,"current_range_meters":8800,"station_id":"ce4bgg92rcd13ifvqb30","pricing_plan_id":"cebpf4jnsgd1na2vs0mg"},{"bike_id":"6b956868-09fc-47e3-bb5a-570af4de4e88","system_id":"levelo_inurba_marseille","lat":43.298433,"lon":5.362774,"is_reserved":false,"is_disabled":false,"rental_uris":{"android":"levelo://app?vid=6b956868-09fc-47e3-bb5a-570af4de4e88","ios":"levelo://app?vid=6b956868-09fc-47e3-bb5a-570af4de4e88"},"vehicle_type_id":"4","last_reported":1710968842,"current_range_meters":21200,"station_id":"ce4bgpp2rcd13ifvqc3g","pricing_plan_id":"cebpf4jnsgd1na2vs0mg"},{"bike_id":"78c9f199-dfd0-46df-93e2-1d2b78a57104","system_id":"levelo_inurba_marseille","lat":43.31185,"lon":5.38711,"is_reserved":false,"is_disabled":false,"rental_uris":{"android":"levelo://app?vid=78c9f199-dfd0-46df-93e2-1d2b78a57104","ios":"levelo://app?vid=78c9f199-dfd0-46df-93e2-1d2b78a57104"},"vehicle_type_id":"4","last_reported":1710968842,"current_range_meters":0,"station_id":"ce4bgv12rcd13ifvqcp0","pricing_plan_id":"cebpf4jnsgd1na2vs0mg"},{"bike_id":"de9bf31e-63c0-498b-8997-f8d842261a32","system_id":"levelo_inurba_marseille","lat":43.299157,"lon":5.374793,"is_reserved":false,"is_disabled":false,"rental_uris":{"android":"levelo://app?vid=de9bf31e-63c0-498b-8997-f8d842261a32","ios":"levelo://app?vid=de9bf31e-63c0-498b-8997-f8d842261a32"},"vehicle_type_id":"4","last_reported":1710968842,"current_range_meters":2000,"station_id":"ce4bgjh2rcd13ifvqbg0","pricing_plan_id":"cebpf4jnsgd1na2vs0mg"},{"bike_id":"e8921f28-240b-4d7d-9a83-53bbfb950df2","system_id":"levelo_inurba_marseille","lat":43.311722,"lon":5.387247,"is_reserved":false,"is_disabled":false,"rental_uris":{"android":"levelo://app?vid=e8921f28-240b-4d7d-9a83-53bbfb950df2","ios":"levelo://app?vid=e8921f28-240b-4d7d-9a83-53bbfb950df2"},"vehicle_type_id":"4","last_reported":1710968842,"current_range_meters":12400,"station_id":"ce4bgv12rcd13ifvqcp0","pricing_plan_id":"cebpf4jnsgd1na2vs0mg"},{"bike_id":"95f3b115-6985-4523-b2ce-9e49a81d339b","system_id":"levelo_inurba_marseille","lat":43.311722,"lon":5.387247,"is_reserved":false,"is_disabled":false,"rental_uris":{"android":"levelo://app?vid=95f3b115-6985-4523-b2ce-9e49a81d339b","ios":"levelo://app?vid=95f3b115-6985-4523-b2ce-9e49a81d339b"},"vehicle_type_id":"4","last_reported":1710968842,"current_range_meters":8400,"station_id":"ce4bgv12rcd13ifvqcp0","pricing_plan_id":"cebpf4jnsgd1na2vs0mg"},{"bike_id":"feead7e7-9cee-4c57-94a6-da647512767c","system_id":"levelo_inurba_marseille","lat":43.322896,"lon":5.382515,"is_reserved":false,"is_disabled":false,"rental_uris":{"android":"levelo://app?vid=feead7e7-9cee-4c57-94a6-da647512767c","ios":"levelo://app?vid=feead7e7-9cee-4c57-94a6-da647512767c"},"vehicle_type_id":"4","last_reported":1710968842,"current_range_meters":17600,"station_id":"ce4bhr12rcd13ifvqhqg","pricing_plan_id":"cebpf4jnsgd1na2vs0mg"},{"bike_id":"9fd1b0a3-c4e5-4bb5-b930-60a1070ab499","system_id":"levelo_inurba_marseille","lat":43.32286,"lon":5.38259,"is_reserved":false,"is_disabled":false,"rental_uris":{"android":"levelo://app?vid=9fd1b0a3-c4e5-4bb5-b930-60a1070ab499","ios":"levelo://app?vid=9fd1b0a3-c4e5-4bb5-b930-60a1070ab499"},"vehicle_type_id":"4","last_reported":1710968842,"current_range_meters":800,"station_id":"ce4bhr12rcd13ifvqhqg","pricing_plan_id":"cebpf4jnsgd1na2vs0mg"},{"bike_id":"b95a6c75-914a-4657-89de-306b3f28611a","system_id":"levelo_inurba_marseille","lat":43.32288,"lon":5.3826,"is_reserved":false,"is_disabled":false,"rental_uris":{"android":"levelo://app?vid=b95a6c75-914a-4657-89de-306b3f28611a","ios":"levelo://app?vid=b95a6c75-914a-4657-89de-306b3f28611a"},"vehicle_type_id":"4","last_reported":1710968842,"current_range_meters":3200,"station_id":"ce4bhr12rcd13ifvqhqg","pricing_plan_id":"cebpf4jnsgd1na2vs0mg"},{"bike_id":"51390439-271e-4df1-b83d-c4d9e297d411","system_id":"levelo_inurba_marseille","lat":43.32285,"lon":5.38264,"is_reserved":false,"is_disabled":false,"rental_uris":{"android":"levelo://app?vid=51390439-271e-4df1-b83d-c4d9e297d411","ios":"levelo://app?vid=51390439-271e-4df1-b83d-c4d9e297d411"},"vehicle_type_id":"4","last_reported":1710968842,"current_range_meters":2000,"station_id":"ce4bhr12rcd13ifvqhqg","pricing_plan_id":"cebpf4jnsgd1na2vs0mg"},{"bike_id":"36727d06-0af4-4c64-88de-4193d3d2494b","system_id":"levelo_inurba_marseille","lat":43.32289,"lon":5.3826,"is_reserved":false,"is_disabled":false,"rental_uris":{"android":"levelo://app?vid=36727d06-0af4-4c64-88de-4193d3d2494b","ios":"levelo://app?vid=36727d06-0af4-4c64-88de-4193d3d2494b"},"vehicle_type_id":"4","last_reported":1710968842,"current_range_meters":10400,"station_id":"ce4bhr12rcd13ifvqhqg","pricing_plan_id":"cebpf4jnsgd1na2vs0mg"},{"bike_id":"bd6b6545-b45a-4dc0-b743-d330ab6c2563","system_id":"levelo_inurba_marseille","lat":43.322907,"lon":5.382584,"is_reserved":false,"is_disabled":false,"rental_uris":{"android":"levelo://app?vid=bd6b6545-b45a-4dc0-b743-d330ab6c2563","ios":"levelo://app?vid=bd6b6545-b45a-4dc0-b743-d330ab6c2563"},"vehicle_type_id":"4","last_reported":1710968842,"current_range_meters":25200,"station_id":"ce4bhr12rcd13ifvqhqg","pricing_plan_id":"cebpf4jnsgd1na2vs0mg"},{"bike_id":"f32c3800-2880-49c9-b647-144d107e7f9a","system_id":"levelo_inurba_marseille","lat":43.32289,"lon":5.38261,"is_reserved":false,"is_disabled":false,"rental_uris":{"android":"levelo://app?vid=f32c3800-2880-49c9-b647-144d107e7f9a","ios":"levelo://app?vid=f32c3800-2880-49c9-b647-144d107e7f9a"},"vehicle_type_id":"4","last_reported":1710968842,"current_range_meters":21200,"station_id":"ce4bhr12rcd13ifvqhqg","pricing_plan_id":"cebpf4jnsgd1na2vs0mg"},{"bike_id":"accb2f69-ca20-4b2f-9b54-89cf5f810bdd","system_id":"levelo_inurba_marseille","lat":43.3229,"lon":5.3826,"is_reserved":false,"is_disabled":false,"rental_uris":{"android":"levelo://app?vid=accb2f69-ca20-4b2f-9b54-89cf5f810bdd","ios":"levelo://app?vid=accb2f69-ca20-4b2f-9b54-89cf5f810bdd"},"vehicle_type_id":"4","last_reported":1710968842,"current_range_meters":19600,"station_id":"ce4bhr12rcd13ifvqhqg","pricing_plan_id":"cebpf4jnsgd1na2vs0mg"},{"bike_id":"5f8b4803-e4ba-4452-a9f1-55c7a87b5d2b","system_id":"levelo_inurba_marseille","lat":43.322854,"lon":5.382671,"is_reserved":false,"is_disabled":false,"rental_uris":{"android":"levelo://app?vid=5f8b4803-e4ba-4452-a9f1-55c7a87b5d2b","ios":"levelo://app?vid=5f8b4803-e4ba-4452-a9f1-55c7a87b5d2b"},"vehicle_type_id":"4","last_reported":1710968842,"current_range_meters":11600,"station_id":"ce4bhr12rcd13ifvqhqg","pricing_plan_id":"cebpf4jnsgd1na2vs0mg"},{"bike_id":"fe2c0272-b23e-47ab-9983-08819dc287f5","system_id":"levelo_inurba_marseille","lat":43.32297,"lon":5.38253,"is_reserved":false,"is_disabled":false,"rental_uris":{"android":"levelo://app?vid=fe2c0272-b23e-47ab-9983-08819dc287f5","ios":"levelo://app?vid=fe2c0272-b23e-47ab-9983-08819dc287f5"},"vehicle_type_id":"4","last_reported":1710968842,"current_range_meters":8800,"station_id":"ce4bhr12rcd13ifvqhqg","pricing_plan_id":"cebpf4jnsgd1na2vs0mg"},{"bike_id":"183f89e5-652b-456d-96f6-2eb9b5cab6e7","system_id":"levelo_inurba_marseille","lat":43.32289,"lon":5.38264,"is_reserved":false,"is_disabled":false,"rental_uris":{"android":"levelo://app?vid=183f89e5-652b-456d-96f6-2eb9b5cab6e7","ios":"levelo://app?vid=183f89e5-652b-456d-96f6-2eb9b5cab6e7"},"vehicle_type_id":"4","last_reported":1710968842,"current_range_meters":19600,"station_id":"ce4bhr12rcd13ifvqhqg","pricing_plan_id":"cebpf4jnsgd1na2vs0mg"},{"bike_id":"62e90e97-975b-4b7d-879f-5a0c84df8cc7","system_id":"levelo_inurba_marseille","lat":43.322898,"lon":5.382642,"is_reserved":false,"is_disabled":false,"rental_uris":{"android":"levelo://app?vid=62e90e97-975b-4b7d-879f-5a0c84df8cc7","ios":"levelo://app?vid=62e90e97-975b-4b7d-879f-5a0c84df8cc7"},"vehicle_type_id":"4","last_reported":1710968842,"current_range_meters":2800,"station_id":"ce4bhr12rcd13ifvqhqg","pricing_plan_id":"cebpf4jnsgd1na2vs0mg"},{"bike_id":"a256d229-a5a5-41a4-8cd4-9c14e8c38553","system_id":"levelo_inurba_marseille","lat":43.32287,"lon":5.38269,"is_reserved":false,"is_disabled":false,"rental_uris":{"android":"levelo://app?vid=a256d229-a5a5-41a4-8cd4-9c14e8c38553","ios":"levelo://app?vid=a256d229-a5a5-41a4-8cd4-9c14e8c38553"},"vehicle_type_id":"4","last_reported":1710968842,"current_range_meters":20000,"station_id":"ce4bhr12rcd13ifvqhqg","pricing_plan_id":"cebpf4jnsgd1na2vs0mg"},{"bike_id":"3f897b5a-cdff-4477-8cbe-02af1e3040aa","system_id":"levelo_inurba_marseille","lat":43.32288,"lon":5.38268,"is_reserved":false,"is_disabled":false,"rental_uris":{"android":"levelo://app?vid=3f897b5a-cdff-4477-8cbe-02af1e3040aa","ios":"levelo://app?vid=3f897b5a-cdff-4477-8cbe-02af1e3040aa"},"vehicle_type_id":"4","last_reported":1710968842,"current_range_meters":25600,"station_id":"ce4bhr12rcd13ifvqhqg","pricing_plan_id":"cebpf4jnsgd1na2vs0mg"},{"bike_id":"3ff125a5-dff1-4591-b6cc-449dc2424878","system_id":"levelo_inurba_marseille","lat":43.3229,"lon":5.38266,"is_reserved":false,"is_disabled":false,"rental_uris":{"android":"levelo://app?vid=3ff125a5-dff1-4591-b6cc-449dc2424878","ios":"levelo://app?vid=3ff125a5-dff1-4591-b6cc-449dc2424878"},"vehicle_type_id":"4","last_reported":1710968842,"current_range_meters":13600,"station_id":"ce4bhr12rcd13ifvqhqg","pricing_plan_id":"cebpf4jnsgd1na2vs0mg"},{"bike_id":"8805e5c2-5ebc-4d17-aa66-b7acbedf72f2","system_id":"levelo_inurba_marseille","lat":43.32288,"lon":5.3827,"is_reserved":false,"is_disabled":false,"rental_uris":{"android":"levelo://app?vid=8805e5c2-5ebc-4d17-aa66-b7acbedf72f2","ios":"levelo://app?vid=8805e5c2-5ebc-4d17-aa66-b7acbedf72f2"},"vehicle_type_id":"4","last_reported":1710968842,"current_range_meters":26800,"station_id":"ce4bhr12rcd13ifvqhqg","pricing_plan_id":"cebpf4jnsgd1na2vs0mg"},{"bike_id":"f15b0355-2112-4631-980d-d37c34e26c81","system_id":"levelo_inurba_marseille","lat":43.322872,"lon":5.382756,"is_reserved":false,"is_disabled":false,"rental_uris":{"android":"levelo://app?vid=f15b0355-2112-4631-980d-d37c34e26c81","ios":"levelo://app?vid=f15b0355-2112-4631-980d-d37c34e26c81"},"vehicle_type_id":"4","last_reported":1710968842,"current_range_meters":23200,"station_id":"ce4bhr12rcd13ifvqhqg","pricing_plan_id":"cebpf4jnsgd1na2vs0mg"},{"bike_id":"91866b6c-0f1d-4595-a374-74c3f3fe3718","system_id":"levelo_inurba_marseille","lat":43.32288,"lon":5.38272,"is_reserved":false,"is_disabled":false,"rental_uris":{"android":"levelo://app?vid=91866b6c-0f1d-4595-a374-74c3f3fe3718","ios":"levelo://app?vid=91866b6c-0f1d-4595-a374-74c3f3fe3718"},"vehicle_type_id":"4","last_reported":1710968842,"current_range_meters":28000,"station_id":"ce4bhr12rcd13ifvqhqg","pricing_plan_id":"cebpf4jnsgd1na2vs0mg"},{"bike_id":"7a6e1e34-499e-43d0-812f-75e422b0fa90","system_id":"levelo_inurba_marseille","lat":43.322872,"lon":5.382756,"is_reserved":false,"is_disabled":false,"rental_uris":{"android":"levelo://app?vid=7a6e1e34-499e-43d0-812f-75e422b0fa90","ios":"levelo://app?vid=7a6e1e34-499e-43d0-812f-75e422b0fa90"},"vehicle_type_id":"4","last_reported":1710968842,"current_range_meters":11200,"station_id":"ce4bhr12rcd13ifvqhqg","pricing_plan_id":"cebpf4jnsgd1na2vs0mg"},{"bike_id":"85d4d71c-b2c1-426a-b0b8-be8461195f7e","system_id":"levelo_inurba_marseille","lat":43.322872,"lon":5.382756,"is_reserved":false,"is_disabled":false,"rental_uris":{"android":"levelo://app?vid=85d4d71c-b2c1-426a-b0b8-be8461195f7e","ios":"levelo://app?vid=85d4d71c-b2c1-426a-b0b8-be8461195f7e"},"vehicle_type_id":"4","last_reported":1710968842,"current_range_meters":31200,"station_id":"ce4bhr12rcd13ifvqhqg","pricing_plan_id":"cebpf4jnsgd1na2vs0mg"},{"bike_id":"fce59515-b65f-4fd7-900f-f5b5f1306799","system_id":"levelo_inurba_marseille","lat":43.322908,"lon":5.382734,"is_reserved":false,"is_disabled":false,"rental_uris":{"android":"levelo://app?vid=fce59515-b65f-4fd7-900f-f5b5f1306799","ios":"levelo://app?vid=fce59515-b65f-4fd7-900f-f5b5f1306799"},"vehicle_type_id":"4","last_reported":1710968842,"current_range_meters":21600,"station_id":"ce4bhr12rcd13ifvqhqg","pricing_plan_id":"cebpf4jnsgd1na2vs0mg"},{"bike_id":"4f4a75fa-11e1-4b9c-9fc5-7e2938322638","system_id":"levelo_inurba_marseille","lat":43.32295,"lon":5.3827,"is_reserved":false,"is_disabled":false,"rental_uris":{"android":"levelo://app?vid=4f4a75fa-11e1-4b9c-9fc5-7e2938322638","ios":"levelo://app?vid=4f4a75fa-11e1-4b9c-9fc5-7e2938322638"},"vehicle_type_id":"4","last_reported":1710968842,"current_range_meters":21600,"station_id":"ce4bhr12rcd13ifvqhqg","pricing_plan_id":"cebpf4jnsgd1na2vs0mg"},{"bike_id":"575af3fb-33bf-4a22-a056-670f8999c1ee","system_id":"levelo_inurba_marseille","lat":43.322872,"lon":5.382756,"is_reserved":false,"is_disabled":false,"rental_uris":{"android":"levelo://app?vid=575af3fb-33bf-4a22-a056-670f8999c1ee","ios":"levelo://app?vid=575af3fb-33bf-4a22-a056-670f8999c1ee"},"vehicle_type_id":"4","last_reported":1710968842,"current_range_meters":31200,"station_id":"ce4bhr12rcd13ifvqhqg","pricing_plan_id":"cebpf4jnsgd1na2vs0mg"},{"bike_id":"c865e649-189a-49c7-bd44-564091b00a26","system_id":"levelo_inurba_marseille","lat":43.3229,"lon":5.38281,"is_reserved":false,"is_disabled":false,"rental_uris":{"android":"levelo://app?vid=c865e649-189a-49c7-bd44-564091b00a26","ios":"levelo://app?vid=c865e649-189a-49c7-bd44-564091b00a26"},"vehicle_type_id":"4","last_reported":1710968842,"current_range_meters":9200,"station_id":"ce4bhr12rcd13ifvqhqg","pricing_plan_id":"cebpf4jnsgd1na2vs0mg"},{"bike_id":"54eba52b-a0f3-4e27-98f2-d9dc1dbd74e2","system_id":"levelo_inurba_marseille","lat":43.297163,"lon":5.365866,"is_reserved":false,"is_disabled":false,"rental_uris":{"android":"levelo://app?vid=54eba52b-a0f3-4e27-98f2-d9dc1dbd74e2","ios":"levelo://app?vid=54eba52b-a0f3-4e27-98f2-d9dc1dbd74e2"},"vehicle_type_id":"4","last_reported":1710968842,"current_range_meters":17200,"station_id":"ce4bgn12rcd13ifvqbt0","pricing_plan_id":"cebpf4jnsgd1na2vs0mg"},{"bike_id":"435d2b74-2433-4356-b982-f2f762729ca2","system_id":"levelo_inurba_marseille","lat":43.297163,"lon":5.365866,"is_reserved":false,"is_disabled":false,"rental_uris":{"android":"levelo://app?vid=435d2b74-2433-4356-b982-f2f762729ca2","ios":"levelo://app?vid=435d2b74-2433-4356-b982-f2f762729ca2"},"vehicle_type_id":"4","last_reported":1710968842,"current_range_meters":16400,"station_id":"ce4bgn12rcd13ifvqbt0","pricing_plan_id":"cebpf4jnsgd1na2vs0mg"},{"bike_id":"411f69bd-6029-4e81-afe9-fe385faac392","system_id":"levelo_inurba_marseille","lat":43.31795,"lon":5.38785,"is_reserved":false,"is_disabled":false,"rental_uris":{"android":"levelo://app?vid=411f69bd-6029-4e81-afe9-fe385faac392","ios":"levelo://app?vid=411f69bd-6029-4e81-afe9-fe385faac392"},"vehicle_type_id":"4","last_reported":1710968842,"current_range_meters":17200,"station_id":"","pricing_plan_id":"cebpf4jnsgd1na2vs0mg"},{"bike_id":"0eb28720-4851-4135-b3af-76b432a2117c","system_id":"levelo_inurba_marseille","lat":43.317936,"lon":5.387907,"is_reserved":false,"is_disabled":false,"rental_uris":{"android":"levelo://app?vid=0eb28720-4851-4135-b3af-76b432a2117c","ios":"levelo://app?vid=0eb28720-4851-4135-b3af-76b432a2117c"},"vehicle_type_id":"4","last_reported":1710968842,"current_range_meters":30000,"station_id":"","pricing_plan_id":"cebpf4jnsgd1na2vs0mg"},{"bike_id":"e85417f0-1e2a-4b6c-9dab-b1be1e806110","system_id":"levelo_inurba_marseille","lat":43.298582,"lon":5.379112,"is_reserved":false,"is_disabled":false,"rental_uris":{"android":"levelo://app?vid=e85417f0-1e2a-4b6c-9dab-b1be1e806110","ios":"levelo://app?vid=e85417f0-1e2a-4b6c-9dab-b1be1e806110"},"vehicle_type_id":"4","last_reported":1710968842,"current_range_meters":30800,"station_id":"","pricing_plan_id":"cebpf4jnsgd1na2vs0mg"},{"bike_id":"b674e756-a423-4971-871d-e2ec66a2cbee","system_id":"levelo_inurba_marseille","lat":43.29573,"lon":5.367355,"is_reserved":false,"is_disabled":false,"rental_uris":{"android":"levelo://app?vid=b674e756-a423-4971-871d-e2ec66a2cbee","ios":"levelo://app?vid=b674e756-a423-4971-871d-e2ec66a2cbee"},"vehicle_type_id":"4","last_reported":1710968842,"current_range_meters":8400,"station_id":"ce4bgph2rcd13ifvqc2g","pricing_plan_id":"cebpf4jnsgd1na2vs0mg"},{"bike_id":"abfd4fa7-ccff-4f08-811b-d9c385e71d6c","system_id":"levelo_inurba_marseille","lat":43.29573,"lon":5.367355,"is_reserved":false,"is_disabled":false,"rental_uris":{"android":"levelo://app?vid=abfd4fa7-ccff-4f08-811b-d9c385e71d6c","ios":"levelo://app?vid=abfd4fa7-ccff-4f08-811b-d9c385e71d6c"},"vehicle_type_id":"4","last_reported":1710968842,"current_range_meters":3200,"station_id":"ce4bgph2rcd13ifvqc2g","pricing_plan_id":"cebpf4jnsgd1na2vs0mg"},{"bike_id":"9ff998f1-9557-48f0-9893-42b20bccf4b8","system_id":"levelo_inurba_marseille","lat":43.317557,"lon":5.390173,"is_reserved":false,"is_disabled":false,"rental_uris":{"android":"levelo://app?vid=9ff998f1-9557-48f0-9893-42b20bccf4b8","ios":"levelo://app?vid=9ff998f1-9557-48f0-9893-42b20bccf4b8"},"vehicle_type_id":"4","last_reported":1710968842,"current_range_meters":4000,"station_id":"ce4bhqp2rcd13ifvqhng","pricing_plan_id":"cebpf4jnsgd1na2vs0mg"},{"bike_id":"e2a7c663-01e5-46c8-ab3f-6eb0785905ac","system_id":"levelo_inurba_marseille","lat":43.317557,"lon":5.390173,"is_reserved":false,"is_disabled":false,"rental_uris":{"android":"levelo://app?vid=e2a7c663-01e5-46c8-ab3f-6eb0785905ac","ios":"levelo://app?vid=e2a7c663-01e5-46c8-ab3f-6eb0785905ac"},"vehicle_type_id":"4","last_reported":1710968842,"current_range_meters":23600,"station_id":"ce4bhqp2rcd13ifvqhng","pricing_plan_id":"cebpf4jnsgd1na2vs0mg"},{"bike_id":"36bec338-2565-4a1b-80c8-29dedeeeaebb","system_id":"levelo_inurba_marseille","lat":43.317557,"lon":5.390173,"is_reserved":false,"is_disabled":false,"rental_uris":{"android":"levelo://app?vid=36bec338-2565-4a1b-80c8-29dedeeeaebb","ios":"levelo://app?vid=36bec338-2565-4a1b-80c8-29dedeeeaebb"},"vehicle_type_id":"4","last_reported":1710968842,"current_range_meters":16400,"station_id":"ce4bhqp2rcd13ifvqhng","pricing_plan_id":"cebpf4jnsgd1na2vs0mg"},{"bike_id":"fe43c0ec-6acb-4a46-b174-423dd9a513b3","system_id":"levelo_inurba_marseille","lat":43.317557,"lon":5.390173,"is_reserved":false,"is_disabled":false,"rental_uris":{"android":"levelo://app?vid=fe43c0ec-6acb-4a46-b174-423dd9a513b3","ios":"levelo://app?vid=fe43c0ec-6acb-4a46-b174-423dd9a513b3"},"vehicle_type_id":"4","last_reported":1710968842,"current_range_meters":8800,"station_id":"ce4bhqp2rcd13ifvqhng","pricing_plan_id":"cebpf4jnsgd1na2vs0mg"},{"bike_id":"ad877fa6-1705-46b3-afb5-9e66766bfc1f","system_id":"levelo_inurba_marseille","lat":43.317557,"lon":5.390173,"is_reserved":false,"is_disabled":false,"rental_uris":{"android":"levelo://app?vid=ad877fa6-1705-46b3-afb5-9e66766bfc1f","ios":"levelo://app?vid=ad877fa6-1705-46b3-afb5-9e66766bfc1f"},"vehicle_type_id":"4","last_reported":1710968842,"current_range_meters":14800,"station_id":"ce4bhqp2rcd13ifvqhng","pricing_plan_id":"cebpf4jnsgd1na2vs0mg"},{"bike_id":"e60e4f05-f586-4e0d-87e7-aeac09f2f1c4","system_id":"levelo_inurba_marseille","lat":43.317621,"lon":5.390165,"is_reserved":false,"is_disabled":false,"rental_uris":{"android":"levelo://app?vid=e60e4f05-f586-4e0d-87e7-aeac09f2f1c4","ios":"levelo://app?vid=e60e4f05-f586-4e0d-87e7-aeac09f2f1c4"},"vehicle_type_id":"4","last_reported":1710968842,"current_range_meters":0,"station_id":"ce4bhqp2rcd13ifvqhng","pricing_plan_id":"cebpf4jnsgd1na2vs0mg"},{"bike_id":"a7936f9f-71c0-4704-adbb-9c0e55004743","system_id":"levelo_inurba_marseille","lat":43.317557,"lon":5.390173,"is_reserved":false,"is_disabled":false,"rental_uris":{"android":"levelo://app?vid=a7936f9f-71c0-4704-adbb-9c0e55004743","ios":"levelo://app?vid=a7936f9f-71c0-4704-adbb-9c0e55004743"},"vehicle_type_id":"4","last_reported":1710968842,"current_range_meters":16400,"station_id":"ce4bhqp2rcd13ifvqhng","pricing_plan_id":"cebpf4jnsgd1na2vs0mg"},{"bike_id":"caa9ad54-c544-48ce-86c7-66bd7a54a8af","system_id":"levelo_inurba_marseille","lat":43.317557,"lon":5.390173,"is_reserved":false,"is_disabled":false,"rental_uris":{"android":"levelo://app?vid=caa9ad54-c544-48ce-86c7-66bd7a54a8af","ios":"levelo://app?vid=caa9ad54-c544-48ce-86c7-66bd7a54a8af"},"vehicle_type_id":"4","last_reported":1710968842,"current_range_meters":7200,"station_id":"ce4bhqp2rcd13ifvqhng","pricing_plan_id":"cebpf4jnsgd1na2vs0mg"},{"bike_id":"46515374-5184-4073-9785-447380ba9363","system_id":"levelo_inurba_marseille","lat":43.317557,"lon":5.390173,"is_reserved":false,"is_disabled":false,"rental_uris":{"android":"levelo://app?vid=46515374-5184-4073-9785-447380ba9363","ios":"levelo://app?vid=46515374-5184-4073-9785-447380ba9363"},"vehicle_type_id":"4","last_reported":1710968842,"current_range_meters":8000,"station_id":"ce4bhqp2rcd13ifvqhng","pricing_plan_id":"cebpf4jnsgd1na2vs0mg"},{"bike_id":"025f250a-30cb-47f0-8687-d04f3ca7e1f7","system_id":"levelo_inurba_marseille","lat":43.29587,"lon":5.375093,"is_reserved":false,"is_disabled":false,"rental_uris":{"android":"levelo://app?vid=025f250a-30cb-47f0-8687-d04f3ca7e1f7","ios":"levelo://app?vid=025f250a-30cb-47f0-8687-d04f3ca7e1f7"},"vehicle_type_id":"4","last_reported":1710968842,"current_range_meters":0,"station_id":"ce4bgh92rcd13ifvqb50","pricing_plan_id":"cebpf4jnsgd1na2vs0mg"},{"bike_id":"9e858a22-f3a1-4aff-809e-221edaedfa56","system_id":"levelo_inurba_marseille","lat":43.295748,"lon":5.37522,"is_reserved":false,"is_disabled":false,"rental_uris":{"android":"levelo://app?vid=9e858a22-f3a1-4aff-809e-221edaedfa56","ios":"levelo://app?vid=9e858a22-f3a1-4aff-809e-221edaedfa56"},"vehicle_type_id":"4","last_reported":1710968842,"current_range_meters":16800,"station_id":"ce4bgh92rcd13ifvqb50","pricing_plan_id":"cebpf4jnsgd1na2vs0mg"},{"bike_id":"74843ec6-225e-48aa-82e9-1cc435e4238e","system_id":"levelo_inurba_marseille","lat":43.30437,"lon":5.38879,"is_reserved":false,"is_disabled":false,"rental_uris":{"android":"levelo://app?vid=74843ec6-225e-48aa-82e9-1cc435e4238e","ios":"levelo://app?vid=74843ec6-225e-48aa-82e9-1cc435e4238e"},"vehicle_type_id":"4","last_reported":1710968842,"current_range_meters":31200,"station_id":"ce4bgk12rcd13ifvqbi0","pricing_plan_id":"cebpf4jnsgd1na2vs0mg"},{"bike_id":"78717220-ce96-4a07-ba8c-6e66764bfb7f","system_id":"levelo_inurba_marseille","lat":43.295748,"lon":5.37522,"is_reserved":false,"is_disabled":false,"rental_uris":{"android":"levelo://app?vid=78717220-ce96-4a07-ba8c-6e66764bfb7f","ios":"levelo://app?vid=78717220-ce96-4a07-ba8c-6e66764bfb7f"},"vehicle_type_id":"4","last_reported":1710968842,"current_range_meters":16000,"station_id":"ce4bgh92rcd13ifvqb50","pricing_plan_id":"cebpf4jnsgd1na2vs0mg"},{"bike_id":"8a1b8adf-eca8-45b4-925e-cc88409a7d43","system_id":"levelo_inurba_marseille","lat":43.304274,"lon":5.388873,"is_reserved":false,"is_disabled":false,"rental_uris":{"android":"levelo://app?vid=8a1b8adf-eca8-45b4-925e-cc88409a7d43","ios":"levelo://app?vid=8a1b8adf-eca8-45b4-925e-cc88409a7d43"},"vehicle_type_id":"4","last_reported":1710968842,"current_range_meters":25200,"station_id":"ce4bgk12rcd13ifvqbi0","pricing_plan_id":"cebpf4jnsgd1na2vs0mg"},{"bike_id":"2edc0795-fccc-47c0-beca-45a4afdfc33b","system_id":"levelo_inurba_marseille","lat":43.295736,"lon":5.37505,"is_reserved":false,"is_disabled":false,"rental_uris":{"android":"levelo://app?vid=2edc0795-fccc-47c0-beca-45a4afdfc33b","ios":"levelo://app?vid=2edc0795-fccc-47c0-beca-45a4afdfc33b"},"vehicle_type_id":"4","last_reported":1710968842,"current_range_meters":0,"station_id":"ce4bgh92rcd13ifvqb50","pricing_plan_id":"cebpf4jnsgd1na2vs0mg"},{"bike_id":"f919efad-f8ad-490a-95a6-561d14ead6cc","system_id":"levelo_inurba_marseille","lat":43.304274,"lon":5.388873,"is_reserved":false,"is_disabled":false,"rental_uris":{"android":"levelo://app?vid=f919efad-f8ad-490a-95a6-561d14ead6cc","ios":"levelo://app?vid=f919efad-f8ad-490a-95a6-561d14ead6cc"},"vehicle_type_id":"4","last_reported":1710968842,"current_range_meters":26800,"station_id":"ce4bgk12rcd13ifvqbi0","pricing_plan_id":"cebpf4jnsgd1na2vs0mg"},{"bike_id":"9e2577da-a71b-4ccb-9cef-c58a1f9db946","system_id":"levelo_inurba_marseille","lat":43.304274,"lon":5.388873,"is_reserved":false,"is_disabled":false,"rental_uris":{"android":"levelo://app?vid=9e2577da-a71b-4ccb-9cef-c58a1f9db946","ios":"levelo://app?vid=9e2577da-a71b-4ccb-9cef-c58a1f9db946"},"vehicle_type_id":"4","last_reported":1710968842,"current_range_meters":4400,"station_id":"ce4bgk12rcd13ifvqbi0","pricing_plan_id":"cebpf4jnsgd1na2vs0mg"},{"bike_id":"35e85a87-30cf-41fc-8c56-058a23b082ea","system_id":"levelo_inurba_marseille","lat":43.3044,"lon":5.38889,"is_reserved":false,"is_disabled":false,"rental_uris":{"android":"levelo://app?vid=35e85a87-30cf-41fc-8c56-058a23b082ea","ios":"levelo://app?vid=35e85a87-30cf-41fc-8c56-058a23b082ea"},"vehicle_type_id":"4","last_reported":1710968842,"current_range_meters":27600,"station_id":"ce4bgk12rcd13ifvqbi0","pricing_plan_id":"cebpf4jnsgd1na2vs0mg"},{"bike_id":"22b808e3-8a19-4384-bf41-926a4525c56e","system_id":"levelo_inurba_marseille","lat":43.304453,"lon":5.388977,"is_reserved":false,"is_disabled":false,"rental_uris":{"android":"levelo://app?vid=22b808e3-8a19-4384-bf41-926a4525c56e","ios":"levelo://app?vid=22b808e3-8a19-4384-bf41-926a4525c56e"},"vehicle_type_id":"4","last_reported":1710968842,"current_range_meters":6400,"station_id":"ce4bgk12rcd13ifvqbi0","pricing_plan_id":"cebpf4jnsgd1na2vs0mg"},{"bike_id":"04a0e5a9-9218-4787-bd55-f3b0549e455b","system_id":"levelo_inurba_marseille","lat":43.304274,"lon":5.388873,"is_reserved":false,"is_disabled":false,"rental_uris":{"android":"levelo://app?vid=04a0e5a9-9218-4787-bd55-f3b0549e455b","ios":"levelo://app?vid=04a0e5a9-9218-4787-bd55-f3b0549e455b"},"vehicle_type_id":"4","last_reported":1710968842,"current_range_meters":28000,"station_id":"ce4bgk12rcd13ifvqbi0","pricing_plan_id":"cebpf4jnsgd1na2vs0mg"},{"bike_id":"20ee4b1d-c4f1-47f1-85ed-1b571ba3006d","system_id":"levelo_inurba_marseille","lat":43.304274,"lon":5.388873,"is_reserved":false,"is_disabled":false,"rental_uris":{"android":"levelo://app?vid=20ee4b1d-c4f1-47f1-85ed-1b571ba3006d","ios":"levelo://app?vid=20ee4b1d-c4f1-47f1-85ed-1b571ba3006d"},"vehicle_type_id":"4","last_reported":1710968842,"current_range_meters":0,"station_id":"ce4bgk12rcd13ifvqbi0","pricing_plan_id":"cebpf4jnsgd1na2vs0mg"},{"bike_id":"85ad2883-e5a1-459c-a92d-2eee3237f311","system_id":"levelo_inurba_marseille","lat":43.304293,"lon":5.38889,"is_reserved":false,"is_disabled":false,"rental_uris":{"android":"levelo://app?vid=85ad2883-e5a1-459c-a92d-2eee3237f311","ios":"levelo://app?vid=85ad2883-e5a1-459c-a92d-2eee3237f311"},"vehicle_type_id":"4","last_reported":1710968842,"current_range_meters":13600,"station_id":"ce4bgk12rcd13ifvqbi0","pricing_plan_id":"cebpf4jnsgd1na2vs0mg"},{"bike_id":"2be07263-7007-460e-93bc-a1f3c85f42c6","system_id":"levelo_inurba_marseille","lat":43.304274,"lon":5.388873,"is_reserved":false,"is_disabled":false,"rental_uris":{"android":"levelo://app?vid=2be07263-7007-460e-93bc-a1f3c85f42c6","ios":"levelo://app?vid=2be07263-7007-460e-93bc-a1f3c85f42c6"},"vehicle_type_id":"4","last_reported":1710968842,"current_range_meters":30800,"station_id":"ce4bgk12rcd13ifvqbi0","pricing_plan_id":"cebpf4jnsgd1na2vs0mg"},{"bike_id":"14fdef9b-77a8-4d0d-b918-90c064f2af5b","system_id":"levelo_inurba_marseille","lat":43.296277,"lon":5.377108,"is_reserved":false,"is_disabled":false,"rental_uris":{"android":"levelo://app?vid=14fdef9b-77a8-4d0d-b918-90c064f2af5b","ios":"levelo://app?vid=14fdef9b-77a8-4d0d-b918-90c064f2af5b"},"vehicle_type_id":"4","last_reported":1710968842,"current_range_meters":0,"station_id":"ce4bgi92rcd13ifvqb90","pricing_plan_id":"cebpf4jnsgd1na2vs0mg"},{"bike_id":"1c20c725-b8ec-4909-b5d6-aac8b2553a45","system_id":"levelo_inurba_marseille","lat":43.2999,"lon":5.38483,"is_reserved":false,"is_disabled":false,"rental_uris":{"android":"levelo://app?vid=1c20c725-b8ec-4909-b5d6-aac8b2553a45","ios":"levelo://app?vid=1c20c725-b8ec-4909-b5d6-aac8b2553a45"},"vehicle_type_id":"4","last_reported":1710968842,"current_range_meters":9200,"station_id":"ce4bgj92rcd13ifvqbd0","pricing_plan_id":"cebpf4jnsgd1na2vs0mg"},{"bike_id":"452c0d51-dcae-48a8-9abc-6a9519f24498","system_id":"levelo_inurba_marseille","lat":43.29977,"lon":5.38489,"is_reserved":false,"is_disabled":false,"rental_uris":{"android":"levelo://app?vid=452c0d51-dcae-48a8-9abc-6a9519f24498","ios":"levelo://app?vid=452c0d51-dcae-48a8-9abc-6a9519f24498"},"vehicle_type_id":"4","last_reported":1710968842,"current_range_meters":30000,"station_id":"ce4bgj92rcd13ifvqbd0","pricing_plan_id":"cebpf4jnsgd1na2vs0mg"},{"bike_id":"c783f0ff-03fe-4e3f-bb7c-36842c395733","system_id":"levelo_inurba_marseille","lat":43.299717,"lon":5.384845,"is_reserved":false,"is_disabled":false,"rental_uris":{"android":"levelo://app?vid=c783f0ff-03fe-4e3f-bb7c-36842c395733","ios":"levelo://app?vid=c783f0ff-03fe-4e3f-bb7c-36842c395733"},"vehicle_type_id":"4","last_reported":1710968842,"current_range_meters":24800,"station_id":"ce4bgj92rcd13ifvqbd0","pricing_plan_id":"cebpf4jnsgd1na2vs0mg"},{"bike_id":"ed5b5f1a-3368-4be9-8edb-e1d8c6fd95ee","system_id":"levelo_inurba_marseille","lat":43.299717,"lon":5.384845,"is_reserved":false,"is_disabled":false,"rental_uris":{"android":"levelo://app?vid=ed5b5f1a-3368-4be9-8edb-e1d8c6fd95ee","ios":"levelo://app?vid=ed5b5f1a-3368-4be9-8edb-e1d8c6fd95ee"},"vehicle_type_id":"4","last_reported":1710968842,"current_range_meters":27200,"station_id":"ce4bgj92rcd13ifvqbd0","pricing_plan_id":"cebpf4jnsgd1na2vs0mg"},{"bike_id":"76b35381-6b84-479d-8d6d-c3fe64536fd0","system_id":"levelo_inurba_marseille","lat":43.29974,"lon":5.38491,"is_reserved":false,"is_disabled":false,"rental_uris":{"android":"levelo://app?vid=76b35381-6b84-479d-8d6d-c3fe64536fd0","ios":"levelo://app?vid=76b35381-6b84-479d-8d6d-c3fe64536fd0"},"vehicle_type_id":"4","last_reported":1710968842,"current_range_meters":30800,"station_id":"ce4bgj92rcd13ifvqbd0","pricing_plan_id":"cebpf4jnsgd1na2vs0mg"},{"bike_id":"77e45d43-0c5d-469b-9808-2c6fdba5d50c","system_id":"levelo_inurba_marseille","lat":43.2997,"lon":5.38501,"is_reserved":false,"is_disabled":false,"rental_uris":{"android":"levelo://app?vid=77e45d43-0c5d-469b-9808-2c6fdba5d50c","ios":"levelo://app?vid=77e45d43-0c5d-469b-9808-2c6fdba5d50c"},"vehicle_type_id":"4","last_reported":1710968842,"current_range_meters":2400,"station_id":"ce4bgj92rcd13ifvqbd0","pricing_plan_id":"cebpf4jnsgd1na2vs0mg"},{"bike_id":"a6c96c93-03c9-4782-92f1-901c91cdecf6","system_id":"levelo_inurba_marseille","lat":43.299724,"lon":5.384848,"is_reserved":false,"is_disabled":false,"rental_uris":{"android":"levelo://app?vid=a6c96c93-03c9-4782-92f1-901c91cdecf6","ios":"levelo://app?vid=a6c96c93-03c9-4782-92f1-901c91cdecf6"},"vehicle_type_id":"4","last_reported":1710968842,"current_range_meters":7200,"station_id":"ce4bgj92rcd13ifvqbd0","pricing_plan_id":"cebpf4jnsgd1na2vs0mg"},{"bike_id":"617b0e6f-676e-40f0-bbaf-c9395e5b4dcd","system_id":"levelo_inurba_marseille","lat":43.31444,"lon":5.39281,"is_reserved":false,"is_disabled":false,"rental_uris":{"android":"levelo://app?vid=617b0e6f-676e-40f0-bbaf-c9395e5b4dcd","ios":"levelo://app?vid=617b0e6f-676e-40f0-bbaf-c9395e5b4dcd"},"vehicle_type_id":"4","last_reported":1710968842,"current_range_meters":23600,"station_id":"","pricing_plan_id":"cebpf4jnsgd1na2vs0mg"},{"bike_id":"b4471fdd-b50b-42ae-ad58-4fbb3d0be6ad","system_id":"levelo_inurba_marseille","lat":43.29496,"lon":5.376107,"is_reserved":false,"is_disabled":false,"rental_uris":{"android":"levelo://app?vid=b4471fdd-b50b-42ae-ad58-4fbb3d0be6ad","ios":"levelo://app?vid=b4471fdd-b50b-42ae-ad58-4fbb3d0be6ad"},"vehicle_type_id":"4","last_reported":1710968842,"current_range_meters":12800,"station_id":"","pricing_plan_id":"cebpf4jnsgd1na2vs0mg"},{"bike_id":"4388708f-f465-4dd9-9120-9f4bdae9d416","system_id":"levelo_inurba_marseille","lat":43.322285,"lon":5.38972,"is_reserved":false,"is_disabled":false,"rental_uris":{"android":"levelo://app?vid=4388708f-f465-4dd9-9120-9f4bdae9d416","ios":"levelo://app?vid=4388708f-f465-4dd9-9120-9f4bdae9d416"},"vehicle_type_id":"4","last_reported":1710968842,"current_range_meters":5600,"station_id":"","pricing_plan_id":"cebpf4jnsgd1na2vs0mg"},{"bike_id":"c1ddfa93-1c2b-4c93-9b7e-27d323eae885","system_id":"levelo_inurba_marseille","lat":43.32365,"lon":5.38877,"is_reserved":false,"is_disabled":false,"rental_uris":{"android":"levelo://app?vid=c1ddfa93-1c2b-4c93-9b7e-27d323eae885","ios":"levelo://app?vid=c1ddfa93-1c2b-4c93-9b7e-27d323eae885"},"vehicle_type_id":"4","last_reported":1710968842,"current_range_meters":0,"station_id":"ce4bhqp2rcd13ifvqhog","pricing_plan_id":"cebpf4jnsgd1na2vs0mg"},{"bike_id":"d1c473ef-8f57-4a45-a518-f2821a73640e","system_id":"levelo_inurba_marseille","lat":43.323643,"lon":5.388823,"is_reserved":false,"is_disabled":false,"rental_uris":{"android":"levelo://app?vid=d1c473ef-8f57-4a45-a518-f2821a73640e","ios":"levelo://app?vid=d1c473ef-8f57-4a45-a518-f2821a73640e"},"vehicle_type_id":"4","last_reported":1710968842,"current_range_meters":9200,"station_id":"ce4bhqp2rcd13ifvqhog","pricing_plan_id":"cebpf4jnsgd1na2vs0mg"},{"bike_id":"1ff02ba1-73ab-4e30-ace5-f210683ab2a0","system_id":"levelo_inurba_marseille","lat":43.32369,"lon":5.38881,"is_reserved":false,"is_disabled":false,"rental_uris":{"android":"levelo://app?vid=1ff02ba1-73ab-4e30-ace5-f210683ab2a0","ios":"levelo://app?vid=1ff02ba1-73ab-4e30-ace5-f210683ab2a0"},"vehicle_type_id":"4","last_reported":1710968842,"current_range_meters":20400,"station_id":"ce4bhqp2rcd13ifvqhog","pricing_plan_id":"cebpf4jnsgd1na2vs0mg"},{"bike_id":"576966bc-fe06-4a37-8ac5-8dfdb56cfdc7","system_id":"levelo_inurba_marseille","lat":43.32363,"lon":5.3889,"is_reserved":false,"is_disabled":false,"rental_uris":{"android":"levelo://app?vid=576966bc-fe06-4a37-8ac5-8dfdb56cfdc7","ios":"levelo://app?vid=576966bc-fe06-4a37-8ac5-8dfdb56cfdc7"},"vehicle_type_id":"4","last_reported":1710968842,"current_range_meters":21600,"station_id":"ce4bhqp2rcd13ifvqhog","pricing_plan_id":"cebpf4jnsgd1na2vs0mg"},{"bike_id":"9b43ae9f-97c3-4da0-938b-50afec46d2a5","system_id":"levelo_inurba_marseille","lat":43.32371,"lon":5.38883,"is_reserved":false,"is_disabled":false,"rental_uris":{"android":"levelo://app?vid=9b43ae9f-97c3-4da0-938b-50afec46d2a5","ios":"levelo://app?vid=9b43ae9f-97c3-4da0-938b-50afec46d2a5"},"vehicle_type_id":"4","last_reported":1710968842,"current_range_meters":12400,"station_id":"ce4bhqp2rcd13ifvqhog","pricing_plan_id":"cebpf4jnsgd1na2vs0mg"},{"bike_id":"8c5a09a7-6627-40b5-958f-7a7763e76ce2","system_id":"levelo_inurba_marseille","lat":43.3237,"lon":5.38884,"is_reserved":false,"is_disabled":false,"rental_uris":{"android":"levelo://app?vid=8c5a09a7-6627-40b5-958f-7a7763e76ce2","ios":"levelo://app?vid=8c5a09a7-6627-40b5-958f-7a7763e76ce2"},"vehicle_type_id":"4","last_reported":1710968842,"current_range_meters":9600,"station_id":"ce4bhqp2rcd13ifvqhog","pricing_plan_id":"cebpf4jnsgd1na2vs0mg"},{"bike_id":"9a76c06c-1b70-4f20-ab2d-d3281463a57c","system_id":"levelo_inurba_marseille","lat":43.32368,"lon":5.38887,"is_reserved":false,"is_disabled":false,"rental_uris":{"android":"levelo://app?vid=9a76c06c-1b70-4f20-ab2d-d3281463a57c","ios":"levelo://app?vid=9a76c06c-1b70-4f20-ab2d-d3281463a57c"},"vehicle_type_id":"4","last_reported":1710968842,"current_range_meters":13200,"station_id":"ce4bhqp2rcd13ifvqhog","pricing_plan_id":"cebpf4jnsgd1na2vs0mg"},{"bike_id":"e37c32ea-6d8c-404c-81bf-a340e415fa51","system_id":"levelo_inurba_marseille","lat":43.32367,"lon":5.388836,"is_reserved":false,"is_disabled":false,"rental_uris":{"android":"levelo://app?vid=e37c32ea-6d8c-404c-81bf-a340e415fa51","ios":"levelo://app?vid=e37c32ea-6d8c-404c-81bf-a340e415fa51"},"vehicle_type_id":"4","last_reported":1710968842,"current_range_meters":22400,"station_id":"ce4bhqp2rcd13ifvqhog","pricing_plan_id":"cebpf4jnsgd1na2vs0mg"},{"bike_id":"77d915da-b00f-431f-9fb4-10a630781629","system_id":"levelo_inurba_marseille","lat":43.32371,"lon":5.38886,"is_reserved":false,"is_disabled":false,"rental_uris":{"android":"levelo://app?vid=77d915da-b00f-431f-9fb4-10a630781629","ios":"levelo://app?vid=77d915da-b00f-431f-9fb4-10a630781629"},"vehicle_type_id":"4","last_reported":1710968842,"current_range_meters":16800,"station_id":"ce4bhqp2rcd13ifvqhog","pricing_plan_id":"cebpf4jnsgd1na2vs0mg"},{"bike_id":"88c09819-0132-49e1-a848-b83c3e55111a","system_id":"levelo_inurba_marseille","lat":43.32367,"lon":5.388836,"is_reserved":false,"is_disabled":false,"rental_uris":{"android":"levelo://app?vid=88c09819-0132-49e1-a848-b83c3e55111a","ios":"levelo://app?vid=88c09819-0132-49e1-a848-b83c3e55111a"},"vehicle_type_id":"4","last_reported":1710968842,"current_range_meters":15600,"station_id":"ce4bhqp2rcd13ifvqhog","pricing_plan_id":"cebpf4jnsgd1na2vs0mg"},{"bike_id":"80eb6f3c-7dad-4186-9ec8-bba5dd0c9f98","system_id":"levelo_inurba_marseille","lat":43.32367,"lon":5.388836,"is_reserved":false,"is_disabled":false,"rental_uris":{"android":"levelo://app?vid=80eb6f3c-7dad-4186-9ec8-bba5dd0c9f98","ios":"levelo://app?vid=80eb6f3c-7dad-4186-9ec8-bba5dd0c9f98"},"vehicle_type_id":"4","last_reported":1710968842,"current_range_meters":22800,"station_id":"ce4bhqp2rcd13ifvqhog","pricing_plan_id":"cebpf4jnsgd1na2vs0mg"},{"bike_id":"c074faf9-4ed2-4218-a6fe-6979432995c0","system_id":"levelo_inurba_marseille","lat":43.29601,"lon":5.381084,"is_reserved":false,"is_disabled":false,"rental_uris":{"android":"levelo://app?vid=c074faf9-4ed2-4218-a6fe-6979432995c0","ios":"levelo://app?vid=c074faf9-4ed2-4218-a6fe-6979432995c0"},"vehicle_type_id":"4","last_reported":1710968842,"current_range_meters":13600,"station_id":"ce4bgl12rcd13ifvqbo0","pricing_plan_id":"cebpf4jnsgd1na2vs0mg"},{"bike_id":"8120f30a-ea5f-4bea-965b-4c0c2721500c","system_id":"levelo_inurba_marseille","lat":43.30642,"lon":5.401031,"is_reserved":false,"is_disabled":false,"rental_uris":{"android":"levelo://app?vid=8120f30a-ea5f-4bea-965b-4c0c2721500c","ios":"levelo://app?vid=8120f30a-ea5f-4bea-965b-4c0c2721500c"},"vehicle_type_id":"4","last_reported":1710968842,"current_range_meters":7600,"station_id":"ce4bh112rcd13ifvqda0","pricing_plan_id":"cebpf4jnsgd1na2vs0mg"},{"bike_id":"f79acb19-b963-4546-8c55-8bb05e41d694","system_id":"levelo_inurba_marseille","lat":43.29602,"lon":5.381084,"is_reserved":false,"is_disabled":false,"rental_uris":{"android":"levelo://app?vid=f79acb19-b963-4546-8c55-8bb05e41d694","ios":"levelo://app?vid=f79acb19-b963-4546-8c55-8bb05e41d694"},"vehicle_type_id":"4","last_reported":1710968842,"current_range_meters":22400,"station_id":"ce4bgl12rcd13ifvqbo0","pricing_plan_id":"cebpf4jnsgd1na2vs0mg"},{"bike_id":"4d831f12-0c3f-4c69-ad72-846265dbde46","system_id":"levelo_inurba_marseille","lat":43.29601,"lon":5.381084,"is_reserved":false,"is_disabled":false,"rental_uris":{"android":"levelo://app?vid=4d831f12-0c3f-4c69-ad72-846265dbde46","ios":"levelo://app?vid=4d831f12-0c3f-4c69-ad72-846265dbde46"},"vehicle_type_id":"4","last_reported":1710968842,"current_range_meters":4400,"station_id":"ce4bgl12rcd13ifvqbo0","pricing_plan_id":"cebpf4jnsgd1na2vs0mg"},{"bike_id":"62f41b1b-48e3-4614-9dee-004a59eccf3a","system_id":"levelo_inurba_marseille","lat":43.305923,"lon":5.39262,"is_reserved":false,"is_disabled":false,"rental_uris":{"android":"levelo://app?vid=62f41b1b-48e3-4614-9dee-004a59eccf3a","ios":"levelo://app?vid=62f41b1b-48e3-4614-9dee-004a59eccf3a"},"vehicle_type_id":"4","last_reported":1710968842,"current_range_meters":0,"station_id":"","pricing_plan_id":"cebpf4jnsgd1na2vs0mg"},{"bike_id":"1f3569d2-61cd-4606-baf2-affa25d01c4f","system_id":"levelo_inurba_marseille","lat":43.293259,"lon":5.371586,"is_reserved":false,"is_disabled":false,"rental_uris":{"android":"levelo://app?vid=1f3569d2-61cd-4606-baf2-affa25d01c4f","ios":"levelo://app?vid=1f3569d2-61cd-4606-baf2-affa25d01c4f"},"vehicle_type_id":"4","last_reported":1710968842,"current_range_meters":30800,"station_id":"ce4bgh92rcd13ifvqb40","pricing_plan_id":"cebpf4jnsgd1na2vs0mg"},{"bike_id":"6e291444-68c4-436e-b2a8-960b1c2f58de","system_id":"levelo_inurba_marseille","lat":43.305994,"lon":5.393687,"is_reserved":false,"is_disabled":false,"rental_uris":{"android":"levelo://app?vid=6e291444-68c4-436e-b2a8-960b1c2f58de","ios":"levelo://app?vid=6e291444-68c4-436e-b2a8-960b1c2f58de"},"vehicle_type_id":"4","last_reported":1710968842,"current_range_meters":5200,"station_id":"ce4bh0p2rcd13ifvqd80","pricing_plan_id":"cebpf4jnsgd1na2vs0mg"},{"bike_id":"f6955b7c-ee91-4d49-95c2-f249818a25ae","system_id":"levelo_inurba_marseille","lat":43.293009,"lon":5.374584,"is_reserved":false,"is_disabled":false,"rental_uris":{"android":"levelo://app?vid=f6955b7c-ee91-4d49-95c2-f249818a25ae","ios":"levelo://app?vid=f6955b7c-ee91-4d49-95c2-f249818a25ae"},"vehicle_type_id":"4","last_reported":1710968842,"current_range_meters":0,"station_id":"ce4bgi12rcd13ifvqb70","pricing_plan_id":"cebpf4jnsgd1na2vs0mg"},{"bike_id":"9313acdc-dfbb-4773-b317-e922d2aa42ca","system_id":"levelo_inurba_marseille","lat":43.293009,"lon":5.374584,"is_reserved":false,"is_disabled":false,"rental_uris":{"android":"levelo://app?vid=9313acdc-dfbb-4773-b317-e922d2aa42ca","ios":"levelo://app?vid=9313acdc-dfbb-4773-b317-e922d2aa42ca"},"vehicle_type_id":"4","last_reported":1710968842,"current_range_meters":0,"station_id":"ce4bgi12rcd13ifvqb70","pricing_plan_id":"cebpf4jnsgd1na2vs0mg"},{"bike_id":"8d7866f0-bf26-4878-9af5-bda0d326b93e","system_id":"levelo_inurba_marseille","lat":43.305994,"lon":5.393687,"is_reserved":false,"is_disabled":false,"rental_uris":{"android":"levelo://app?vid=8d7866f0-bf26-4878-9af5-bda0d326b93e","ios":"levelo://app?vid=8d7866f0-bf26-4878-9af5-bda0d326b93e"},"vehicle_type_id":"4","last_reported":1710968842,"current_range_meters":21600,"station_id":"ce4bh0p2rcd13ifvqd80","pricing_plan_id":"cebpf4jnsgd1na2vs0mg"},{"bike_id":"b2a4cf32-a673-4608-ace7-2c73d77a1140","system_id":"levelo_inurba_marseille","lat":43.305994,"lon":5.393687,"is_reserved":false,"is_disabled":false,"rental_uris":{"android":"levelo://app?vid=b2a4cf32-a673-4608-ace7-2c73d77a1140","ios":"levelo://app?vid=b2a4cf32-a673-4608-ace7-2c73d77a1140"},"vehicle_type_id":"4","last_reported":1710968842,"current_range_meters":9600,"station_id":"ce4bh0p2rcd13ifvqd80","pricing_plan_id":"cebpf4jnsgd1na2vs0mg"},{"bike_id":"1745404e-8ad8-425c-b7a1-adfddd4c9bd2","system_id":"levelo_inurba_marseille","lat":43.305994,"lon":5.393687,"is_reserved":false,"is_disabled":false,"rental_uris":{"android":"levelo://app?vid=1745404e-8ad8-425c-b7a1-adfddd4c9bd2","ios":"levelo://app?vid=1745404e-8ad8-425c-b7a1-adfddd4c9bd2"},"vehicle_type_id":"4","last_reported":1710968842,"current_range_meters":15200,"station_id":"ce4bh0p2rcd13ifvqd80","pricing_plan_id":"cebpf4jnsgd1na2vs0mg"},{"bike_id":"861ffac6-9bd7-4375-9c20-1d08eb06677c","system_id":"levelo_inurba_marseille","lat":43.303002,"lon":5.392142,"is_reserved":false,"is_disabled":false,"rental_uris":{"android":"levelo://app?vid=861ffac6-9bd7-4375-9c20-1d08eb06677c","ios":"levelo://app?vid=861ffac6-9bd7-4375-9c20-1d08eb06677c"},"vehicle_type_id":"4","last_reported":1710968842,"current_range_meters":23600,"station_id":"ce4bgkh2rcd13ifvqbk0","pricing_plan_id":"cebpf4jnsgd1na2vs0mg"},{"bike_id":"9f1a9a47-e2fa-4fdb-9de0-647e3faa8083","system_id":"levelo_inurba_marseille","lat":43.2936,"lon":5.37835,"is_reserved":false,"is_disabled":false,"rental_uris":{"android":"levelo://app?vid=9f1a9a47-e2fa-4fdb-9de0-647e3faa8083","ios":"levelo://app?vid=9f1a9a47-e2fa-4fdb-9de0-647e3faa8083"},"vehicle_type_id":"4","last_reported":1710968842,"current_range_meters":0,"station_id":"ce4bgjh2rcd13ifvqbf0","pricing_plan_id":"cebpf4jnsgd1na2vs0mg"},{"bike_id":"930454f1-084f-4341-85e0-01d2ca857b29","system_id":"levelo_inurba_marseille","lat":43.303002,"lon":5.392142,"is_reserved":false,"is_disabled":false,"rental_uris":{"android":"levelo://app?vid=930454f1-084f-4341-85e0-01d2ca857b29","ios":"levelo://app?vid=930454f1-084f-4341-85e0-01d2ca857b29"},"vehicle_type_id":"4","last_reported":1710968842,"current_range_meters":30400,"station_id":"ce4bgkh2rcd13ifvqbk0","pricing_plan_id":"cebpf4jnsgd1na2vs0mg"},{"bike_id":"421a9852-50fc-466b-b2b1-fbd92dcc970f","system_id":"levelo_inurba_marseille","lat":43.303002,"lon":5.392142,"is_reserved":false,"is_disabled":false,"rental_uris":{"android":"levelo://app?vid=421a9852-50fc-466b-b2b1-fbd92dcc970f","ios":"levelo://app?vid=421a9852-50fc-466b-b2b1-fbd92dcc970f"},"vehicle_type_id":"4","last_reported":1710968842,"current_range_meters":12400,"station_id":"ce4bgkh2rcd13ifvqbk0","pricing_plan_id":"cebpf4jnsgd1na2vs0mg"},{"bike_id":"4762ddb0-c179-49bd-863a-3e1f71102c81","system_id":"levelo_inurba_marseille","lat":43.302992,"lon":5.392136,"is_reserved":false,"is_disabled":false,"rental_uris":{"android":"levelo://app?vid=4762ddb0-c179-49bd-863a-3e1f71102c81","ios":"levelo://app?vid=4762ddb0-c179-49bd-863a-3e1f71102c81"},"vehicle_type_id":"4","last_reported":1710968842,"current_range_meters":23600,"station_id":"ce4bgkh2rcd13ifvqbk0","pricing_plan_id":"cebpf4jnsgd1na2vs0mg"},{"bike_id":"b8532f8b-d172-44b4-aa28-45ef5452e0e1","system_id":"levelo_inurba_marseille","lat":43.303002,"lon":5.392142,"is_reserved":false,"is_disabled":false,"rental_uris":{"android":"levelo://app?vid=b8532f8b-d172-44b4-aa28-45ef5452e0e1","ios":"levelo://app?vid=b8532f8b-d172-44b4-aa28-45ef5452e0e1"},"vehicle_type_id":"4","last_reported":1710968842,"current_range_meters":20800,"station_id":"ce4bgkh2rcd13ifvqbk0","pricing_plan_id":"cebpf4jnsgd1na2vs0mg"},{"bike_id":"1e1b17d6-32f8-4e98-971c-6e91baf70ba8","system_id":"levelo_inurba_marseille","lat":43.300852,"lon":5.390859,"is_reserved":false,"is_disabled":false,"rental_uris":{"android":"levelo://app?vid=1e1b17d6-32f8-4e98-971c-6e91baf70ba8","ios":"levelo://app?vid=1e1b17d6-32f8-4e98-971c-6e91baf70ba8"},"vehicle_type_id":"4","last_reported":1710968842,"current_range_meters":17600,"station_id":"ce4bh192rcd13ifvqdb0","pricing_plan_id":"cebpf4jnsgd1na2vs0mg"},{"bike_id":"d974917c-4160-4be4-8b29-1d76dcd5552b","system_id":"levelo_inurba_marseille","lat":43.302992,"lon":5.392136,"is_reserved":false,"is_disabled":false,"rental_uris":{"android":"levelo://app?vid=d974917c-4160-4be4-8b29-1d76dcd5552b","ios":"levelo://app?vid=d974917c-4160-4be4-8b29-1d76dcd5552b"},"vehicle_type_id":"4","last_reported":1710968842,"current_range_meters":7600,"station_id":"ce4bgkh2rcd13ifvqbk0","pricing_plan_id":"cebpf4jnsgd1na2vs0mg"},{"bike_id":"5849033a-db06-4b21-8f9c-6c986953f483","system_id":"levelo_inurba_marseille","lat":43.302992,"lon":5.392136,"is_reserved":false,"is_disabled":false,"rental_uris":{"android":"levelo://app?vid=5849033a-db06-4b21-8f9c-6c986953f483","ios":"levelo://app?vid=5849033a-db06-4b21-8f9c-6c986953f483"},"vehicle_type_id":"4","last_reported":1710968842,"current_range_meters":19200,"station_id":"ce4bgkh2rcd13ifvqbk0","pricing_plan_id":"cebpf4jnsgd1na2vs0mg"},{"bike_id":"793e609b-490d-439f-a58a-87eae87e78ae","system_id":"levelo_inurba_marseille","lat":43.30099,"lon":5.3906,"is_reserved":false,"is_disabled":false,"rental_uris":{"android":"levelo://app?vid=793e609b-490d-439f-a58a-87eae87e78ae","ios":"levelo://app?vid=793e609b-490d-439f-a58a-87eae87e78ae"},"vehicle_type_id":"4","last_reported":1710968842,"current_range_meters":29600,"station_id":"ce4bh192rcd13ifvqdb0","pricing_plan_id":"cebpf4jnsgd1na2vs0mg"},{"bike_id":"a60d1d60-9627-48e0-9031-2353cf063f51","system_id":"levelo_inurba_marseille","lat":43.30108,"lon":5.39076,"is_reserved":false,"is_disabled":false,"rental_uris":{"android":"levelo://app?vid=a60d1d60-9627-48e0-9031-2353cf063f51","ios":"levelo://app?vid=a60d1d60-9627-48e0-9031-2353cf063f51"},"vehicle_type_id":"4","last_reported":1710968842,"current_range_meters":12400,"station_id":"ce4bh192rcd13ifvqdb0","pricing_plan_id":"cebpf4jnsgd1na2vs0mg"},{"bike_id":"15ac054a-ea9f-4bc4-a12b-2e7058193a78","system_id":"levelo_inurba_marseille","lat":43.292311,"lon":5.360731,"is_reserved":false,"is_disabled":false,"rental_uris":{"android":"levelo://app?vid=15ac054a-ea9f-4bc4-a12b-2e7058193a78","ios":"levelo://app?vid=15ac054a-ea9f-4bc4-a12b-2e7058193a78"},"vehicle_type_id":"4","last_reported":1710968842,"current_range_meters":800,"station_id":"ce4bhbh2rcd13ifvqeqg","pricing_plan_id":"cebpf4jnsgd1na2vs0mg"},{"bike_id":"69dcd524-5503-4781-940b-fda83f4b8efc","system_id":"levelo_inurba_marseille","lat":43.292311,"lon":5.360731,"is_reserved":false,"is_disabled":false,"rental_uris":{"android":"levelo://app?vid=69dcd524-5503-4781-940b-fda83f4b8efc","ios":"levelo://app?vid=69dcd524-5503-4781-940b-fda83f4b8efc"},"vehicle_type_id":"4","last_reported":1710968842,"current_range_meters":3200,"station_id":"ce4bhbh2rcd13ifvqeqg","pricing_plan_id":"cebpf4jnsgd1na2vs0mg"},{"bike_id":"b18ba490-263d-4ea3-9b43-ce6d75a82c5f","system_id":"levelo_inurba_marseille","lat":43.30102,"lon":5.39082,"is_reserved":false,"is_disabled":false,"rental_uris":{"android":"levelo://app?vid=b18ba490-263d-4ea3-9b43-ce6d75a82c5f","ios":"levelo://app?vid=b18ba490-263d-4ea3-9b43-ce6d75a82c5f"},"vehicle_type_id":"4","last_reported":1710968842,"current_range_meters":400,"station_id":"ce4bh192rcd13ifvqdb0","pricing_plan_id":"cebpf4jnsgd1na2vs0mg"},{"bike_id":"4636feb4-075b-4843-aae4-27bfaa27d1a7","system_id":"levelo_inurba_marseille","lat":43.30085,"lon":5.390856,"is_reserved":false,"is_disabled":false,"rental_uris":{"android":"levelo://app?vid=4636feb4-075b-4843-aae4-27bfaa27d1a7","ios":"levelo://app?vid=4636feb4-075b-4843-aae4-27bfaa27d1a7"},"vehicle_type_id":"4","last_reported":1710968842,"current_range_meters":18800,"station_id":"ce4bh192rcd13ifvqdb0","pricing_plan_id":"cebpf4jnsgd1na2vs0mg"},{"bike_id":"62dedf89-d0d1-4f5e-9c78-1214bc47ad70","system_id":"levelo_inurba_marseille","lat":43.300852,"lon":5.390859,"is_reserved":false,"is_disabled":false,"rental_uris":{"android":"levelo://app?vid=62dedf89-d0d1-4f5e-9c78-1214bc47ad70","ios":"levelo://app?vid=62dedf89-d0d1-4f5e-9c78-1214bc47ad70"},"vehicle_type_id":"4","last_reported":1710968842,"current_range_meters":5200,"station_id":"ce4bh192rcd13ifvqdb0","pricing_plan_id":"cebpf4jnsgd1na2vs0mg"},{"bike_id":"db865a89-7379-46aa-9ecf-0db8bf088666","system_id":"levelo_inurba_marseille","lat":43.292311,"lon":5.360731,"is_reserved":false,"is_disabled":false,"rental_uris":{"android":"levelo://app?vid=db865a89-7379-46aa-9ecf-0db8bf088666","ios":"levelo://app?vid=db865a89-7379-46aa-9ecf-0db8bf088666"},"vehicle_type_id":"4","last_reported":1710968842,"current_range_meters":26000,"station_id":"ce4bhbh2rcd13ifvqeqg","pricing_plan_id":"cebpf4jnsgd1na2vs0mg"},{"bike_id":"1be1b536-a61f-43df-a307-d85f95ac89c3","system_id":"levelo_inurba_marseille","lat":43.293009,"lon":5.374584,"is_reserved":false,"is_disabled":false,"rental_uris":{"android":"levelo://app?vid=1be1b536-a61f-43df-a307-d85f95ac89c3","ios":"levelo://app?vid=1be1b536-a61f-43df-a307-d85f95ac89c3"},"vehicle_type_id":"4","last_reported":1710968842,"current_range_meters":19600,"station_id":"ce4bgi12rcd13ifvqb70","pricing_plan_id":"cebpf4jnsgd1na2vs0mg"},{"bike_id":"9dce67f8-2bec-4c88-be44-ec5db664a7c6","system_id":"levelo_inurba_marseille","lat":43.298764,"lon":5.388973,"is_reserved":false,"is_disabled":false,"rental_uris":{"android":"levelo://app?vid=9dce67f8-2bec-4c88-be44-ec5db664a7c6","ios":"levelo://app?vid=9dce67f8-2bec-4c88-be44-ec5db664a7c6"},"vehicle_type_id":"4","last_reported":1710968842,"current_range_meters":25600,"station_id":"ce4bh392rcd13ifvqdl0","pricing_plan_id":"cebpf4jnsgd1na2vs0mg"},{"bike_id":"f7f78bf6-fe68-4437-946f-8df8b78bd465","system_id":"levelo_inurba_marseille","lat":43.291671,"lon":5.371575,"is_reserved":false,"is_disabled":false,"rental_uris":{"android":"levelo://app?vid=f7f78bf6-fe68-4437-946f-8df8b78bd465","ios":"levelo://app?vid=f7f78bf6-fe68-4437-946f-8df8b78bd465"},"vehicle_type_id":"4","last_reported":1710968842,"current_range_meters":14000,"station_id":"ce4bha92rcd13ifvqeh0","pricing_plan_id":"cebpf4jnsgd1na2vs0mg"},{"bike_id":"1a9a8ab2-12e7-4310-a1ef-9ee6f4d5764e","system_id":"levelo_inurba_marseille","lat":43.291675,"lon":5.371583,"is_reserved":false,"is_disabled":false,"rental_uris":{"android":"levelo://app?vid=1a9a8ab2-12e7-4310-a1ef-9ee6f4d5764e","ios":"levelo://app?vid=1a9a8ab2-12e7-4310-a1ef-9ee6f4d5764e"},"vehicle_type_id":"4","last_reported":1710968842,"current_range_meters":0,"station_id":"ce4bha92rcd13ifvqeh0","pricing_plan_id":"cebpf4jnsgd1na2vs0mg"},{"bike_id":"26c32cc7-d39e-4fc4-a43e-de6013a6a9d5","system_id":"levelo_inurba_marseille","lat":43.298764,"lon":5.388973,"is_reserved":false,"is_disabled":false,"rental_uris":{"android":"levelo://app?vid=26c32cc7-d39e-4fc4-a43e-de6013a6a9d5","ios":"levelo://app?vid=26c32cc7-d39e-4fc4-a43e-de6013a6a9d5"},"vehicle_type_id":"4","last_reported":1710968842,"current_range_meters":10800,"station_id":"ce4bh392rcd13ifvqdl0","pricing_plan_id":"cebpf4jnsgd1na2vs0mg"},{"bike_id":"20ae81eb-b842-4a06-a9b0-43ba2fa9f3fd","system_id":"levelo_inurba_marseille","lat":43.298764,"lon":5.388973,"is_reserved":false,"is_disabled":false,"rental_uris":{"android":"levelo://app?vid=20ae81eb-b842-4a06-a9b0-43ba2fa9f3fd","ios":"levelo://app?vid=20ae81eb-b842-4a06-a9b0-43ba2fa9f3fd"},"vehicle_type_id":"4","last_reported":1710968842,"current_range_meters":18400,"station_id":"ce4bh392rcd13ifvqdl0","pricing_plan_id":"cebpf4jnsgd1na2vs0mg"},{"bike_id":"3284db4d-505c-4396-b5c0-09c1d63a1909","system_id":"levelo_inurba_marseille","lat":43.298764,"lon":5.388973,"is_reserved":false,"is_disabled":false,"rental_uris":{"android":"levelo://app?vid=3284db4d-505c-4396-b5c0-09c1d63a1909","ios":"levelo://app?vid=3284db4d-505c-4396-b5c0-09c1d63a1909"},"vehicle_type_id":"4","last_reported":1710968842,"current_range_meters":2400,"station_id":"ce4bh392rcd13ifvqdl0","pricing_plan_id":"cebpf4jnsgd1na2vs0mg"},{"bike_id":"3a7ceca4-7be1-4952-85c8-443c14109763","system_id":"levelo_inurba_marseille","lat":43.298764,"lon":5.388973,"is_reserved":false,"is_disabled":false,"rental_uris":{"android":"levelo://app?vid=3a7ceca4-7be1-4952-85c8-443c14109763","ios":"levelo://app?vid=3a7ceca4-7be1-4952-85c8-443c14109763"},"vehicle_type_id":"4","last_reported":1710968842,"current_range_meters":4800,"station_id":"ce4bh392rcd13ifvqdl0","pricing_plan_id":"cebpf4jnsgd1na2vs0mg"},{"bike_id":"74064550-6a79-4406-b042-ba286a910741","system_id":"levelo_inurba_marseille","lat":43.29869,"lon":5.389082,"is_reserved":false,"is_disabled":false,"rental_uris":{"android":"levelo://app?vid=74064550-6a79-4406-b042-ba286a910741","ios":"levelo://app?vid=74064550-6a79-4406-b042-ba286a910741"},"vehicle_type_id":"4","last_reported":1710968842,"current_range_meters":6000,"station_id":"ce4bh392rcd13ifvqdl0","pricing_plan_id":"cebpf4jnsgd1na2vs0mg"},{"bike_id":"cee06ba5-810e-4f98-a682-32a5ad4f4db6","system_id":"levelo_inurba_marseille","lat":43.298764,"lon":5.388973,"is_reserved":false,"is_disabled":false,"rental_uris":{"android":"levelo://app?vid=cee06ba5-810e-4f98-a682-32a5ad4f4db6","ios":"levelo://app?vid=cee06ba5-810e-4f98-a682-32a5ad4f4db6"},"vehicle_type_id":"4","last_reported":1710968842,"current_range_meters":31200,"station_id":"ce4bh392rcd13ifvqdl0","pricing_plan_id":"cebpf4jnsgd1na2vs0mg"},{"bike_id":"e2b5eb95-0d56-46ba-87f5-bd9886698267","system_id":"levelo_inurba_marseille","lat":43.298764,"lon":5.388973,"is_reserved":false,"is_disabled":false,"rental_uris":{"android":"levelo://app?vid=e2b5eb95-0d56-46ba-87f5-bd9886698267","ios":"levelo://app?vid=e2b5eb95-0d56-46ba-87f5-bd9886698267"},"vehicle_type_id":"4","last_reported":1710968842,"current_range_meters":7600,"station_id":"ce4bh392rcd13ifvqdl0","pricing_plan_id":"cebpf4jnsgd1na2vs0mg"},{"bike_id":"3b6a59f6-e008-4c71-ad16-7a23cb39858b","system_id":"levelo_inurba_marseille","lat":43.29201,"lon":5.35809,"is_reserved":false,"is_disabled":false,"rental_uris":{"android":"levelo://app?vid=3b6a59f6-e008-4c71-ad16-7a23cb39858b","ios":"levelo://app?vid=3b6a59f6-e008-4c71-ad16-7a23cb39858b"},"vehicle_type_id":"4","last_reported":1710968842,"current_range_meters":27200,"station_id":"ce4bhb12rcd13ifvqel0","pricing_plan_id":"cebpf4jnsgd1na2vs0mg"},{"bike_id":"a786dfda-a7be-45f5-8eb1-f55192b1f5ae","system_id":"levelo_inurba_marseille","lat":43.298764,"lon":5.388973,"is_reserved":false,"is_disabled":false,"rental_uris":{"android":"levelo://app?vid=a786dfda-a7be-45f5-8eb1-f55192b1f5ae","ios":"levelo://app?vid=a786dfda-a7be-45f5-8eb1-f55192b1f5ae"},"vehicle_type_id":"4","last_reported":1710968842,"current_range_meters":26000,"station_id":"ce4bh392rcd13ifvqdl0","pricing_plan_id":"cebpf4jnsgd1na2vs0mg"},{"bike_id":"fb835833-e365-4d49-a5b6-bc914f5a9204","system_id":"levelo_inurba_marseille","lat":43.291994,"lon":5.357886,"is_reserved":false,"is_disabled":false,"rental_uris":{"android":"levelo://app?vid=fb835833-e365-4d49-a5b6-bc914f5a9204","ios":"levelo://app?vid=fb835833-e365-4d49-a5b6-bc914f5a9204"},"vehicle_type_id":"4","last_reported":1710968842,"current_range_meters":7600,"station_id":"ce4bhb12rcd13ifvqel0","pricing_plan_id":"cebpf4jnsgd1na2vs0mg"},{"bike_id":"e5ac513e-c6e2-492a-957c-7e07d1a4c7f5","system_id":"levelo_inurba_marseille","lat":43.291994,"lon":5.357886,"is_reserved":false,"is_disabled":false,"rental_uris":{"android":"levelo://app?vid=e5ac513e-c6e2-492a-957c-7e07d1a4c7f5","ios":"levelo://app?vid=e5ac513e-c6e2-492a-957c-7e07d1a4c7f5"},"vehicle_type_id":"4","last_reported":1710968842,"current_range_meters":20000,"station_id":"ce4bhb12rcd13ifvqel0","pricing_plan_id":"cebpf4jnsgd1na2vs0mg"},{"bike_id":"d18d7f35-030e-4c5f-bacd-88b4c97d4427","system_id":"levelo_inurba_marseille","lat":43.313291,"lon":5.396838,"is_reserved":false,"is_disabled":false,"rental_uris":{"android":"levelo://app?vid=d18d7f35-030e-4c5f-bacd-88b4c97d4427","ios":"levelo://app?vid=d18d7f35-030e-4c5f-bacd-88b4c97d4427"},"vehicle_type_id":"4","last_reported":1710968842,"current_range_meters":21600,"station_id":"ce4bgvp2rcd13ifvqcu0","pricing_plan_id":"cebpf4jnsgd1na2vs0mg"},{"bike_id":"da12074f-d4bb-49a3-966c-26db0eb02347","system_id":"levelo_inurba_marseille","lat":43.3133,"lon":5.3969,"is_reserved":false,"is_disabled":false,"rental_uris":{"android":"levelo://app?vid=da12074f-d4bb-49a3-966c-26db0eb02347","ios":"levelo://app?vid=da12074f-d4bb-49a3-966c-26db0eb02347"},"vehicle_type_id":"4","last_reported":1710968842,"current_range_meters":11200,"station_id":"ce4bgvp2rcd13ifvqcu0","pricing_plan_id":"cebpf4jnsgd1na2vs0mg"},{"bike_id":"8bb8913d-d93e-44ea-a8eb-320395773244","system_id":"levelo_inurba_marseille","lat":43.313291,"lon":5.396838,"is_reserved":false,"is_disabled":false,"rental_uris":{"android":"levelo://app?vid=8bb8913d-d93e-44ea-a8eb-320395773244","ios":"levelo://app?vid=8bb8913d-d93e-44ea-a8eb-320395773244"},"vehicle_type_id":"4","last_reported":1710968842,"current_range_meters":6800,"station_id":"ce4bgvp2rcd13ifvqcu0","pricing_plan_id":"cebpf4jnsgd1na2vs0mg"},{"bike_id":"1a14467e-0740-4237-9f0a-9b5f7fd6fd5d","system_id":"levelo_inurba_marseille","lat":43.31328,"lon":5.39693,"is_reserved":false,"is_disabled":false,"rental_uris":{"android":"levelo://app?vid=1a14467e-0740-4237-9f0a-9b5f7fd6fd5d","ios":"levelo://app?vid=1a14467e-0740-4237-9f0a-9b5f7fd6fd5d"},"vehicle_type_id":"4","last_reported":1710968842,"current_range_meters":11600,"station_id":"ce4bgvp2rcd13ifvqcu0","pricing_plan_id":"cebpf4jnsgd1na2vs0mg"},{"bike_id":"85f7a590-e0d5-4a7e-bd3b-ebf8b68636f8","system_id":"levelo_inurba_marseille","lat":43.309047,"lon":5.396551,"is_reserved":false,"is_disabled":false,"rental_uris":{"android":"levelo://app?vid=85f7a590-e0d5-4a7e-bd3b-ebf8b68636f8","ios":"levelo://app?vid=85f7a590-e0d5-4a7e-bd3b-ebf8b68636f8"},"vehicle_type_id":"4","last_reported":1710968842,"current_range_meters":16800,"station_id":"ce4bh012rcd13ifvqcv0","pricing_plan_id":"cebpf4jnsgd1na2vs0mg"},{"bike_id":"92cc4c09-e988-4c1a-bc77-00fb021b508c","system_id":"levelo_inurba_marseille","lat":43.309038,"lon":5.396546,"is_reserved":false,"is_disabled":false,"rental_uris":{"android":"levelo://app?vid=92cc4c09-e988-4c1a-bc77-00fb021b508c","ios":"levelo://app?vid=92cc4c09-e988-4c1a-bc77-00fb021b508c"},"vehicle_type_id":"4","last_reported":1710968842,"current_range_meters":3600,"station_id":"ce4bh012rcd13ifvqcv0","pricing_plan_id":"cebpf4jnsgd1na2vs0mg"},{"bike_id":"07b33bdb-b32e-4e96-b5f6-0d447221a7a0","system_id":"levelo_inurba_marseille","lat":43.309047,"lon":5.396551,"is_reserved":false,"is_disabled":false,"rental_uris":{"android":"levelo://app?vid=07b33bdb-b32e-4e96-b5f6-0d447221a7a0","ios":"levelo://app?vid=07b33bdb-b32e-4e96-b5f6-0d447221a7a0"},"vehicle_type_id":"4","last_reported":1710968842,"current_range_meters":0,"station_id":"ce4bh012rcd13ifvqcv0","pricing_plan_id":"cebpf4jnsgd1na2vs0mg"},{"bike_id":"f399e40b-2880-4463-8f21-2301aa18a7ea","system_id":"levelo_inurba_marseille","lat":43.31331,"lon":5.39697,"is_reserved":false,"is_disabled":false,"rental_uris":{"android":"levelo://app?vid=f399e40b-2880-4463-8f21-2301aa18a7ea","ios":"levelo://app?vid=f399e40b-2880-4463-8f21-2301aa18a7ea"},"vehicle_type_id":"4","last_reported":1710968842,"current_range_meters":30400,"station_id":"ce4bgvp2rcd13ifvqcu0","pricing_plan_id":"cebpf4jnsgd1na2vs0mg"},{"bike_id":"19abde90-e59c-4a03-b674-5216fb336a1b","system_id":"levelo_inurba_marseille","lat":43.309047,"lon":5.396551,"is_reserved":false,"is_disabled":false,"rental_uris":{"android":"levelo://app?vid=19abde90-e59c-4a03-b674-5216fb336a1b","ios":"levelo://app?vid=19abde90-e59c-4a03-b674-5216fb336a1b"},"vehicle_type_id":"4","last_reported":1710968842,"current_range_meters":4800,"station_id":"ce4bh012rcd13ifvqcv0","pricing_plan_id":"cebpf4jnsgd1na2vs0mg"},{"bike_id":"6fbc2c79-dbbd-4a22-9154-9ea1202dd717","system_id":"levelo_inurba_marseille","lat":43.2936,"lon":5.37835,"is_reserved":false,"is_disabled":false,"rental_uris":{"android":"levelo://app?vid=6fbc2c79-dbbd-4a22-9154-9ea1202dd717","ios":"levelo://app?vid=6fbc2c79-dbbd-4a22-9154-9ea1202dd717"},"vehicle_type_id":"4","last_reported":1710968842,"current_range_meters":12400,"station_id":"ce4bgjh2rcd13ifvqbf0","pricing_plan_id":"cebpf4jnsgd1na2vs0mg"},{"bike_id":"cb1c1ab4-ac9f-4a4a-a537-421a2b6be3d5","system_id":"levelo_inurba_marseille","lat":43.309038,"lon":5.396546,"is_reserved":false,"is_disabled":false,"rental_uris":{"android":"levelo://app?vid=cb1c1ab4-ac9f-4a4a-a537-421a2b6be3d5","ios":"levelo://app?vid=cb1c1ab4-ac9f-4a4a-a537-421a2b6be3d5"},"vehicle_type_id":"4","last_reported":1710968842,"current_range_meters":6400,"station_id":"ce4bh012rcd13ifvqcv0","pricing_plan_id":"cebpf4jnsgd1na2vs0mg"},{"bike_id":"55f4ef9a-0884-4104-bfa3-bb2197ceea08","system_id":"levelo_inurba_marseille","lat":43.309038,"lon":5.396546,"is_reserved":false,"is_disabled":false,"rental_uris":{"android":"levelo://app?vid=55f4ef9a-0884-4104-bfa3-bb2197ceea08","ios":"levelo://app?vid=55f4ef9a-0884-4104-bfa3-bb2197ceea08"},"vehicle_type_id":"4","last_reported":1710968842,"current_range_meters":30400,"station_id":"ce4bh012rcd13ifvqcv0","pricing_plan_id":"cebpf4jnsgd1na2vs0mg"},{"bike_id":"aa69654d-f42b-483a-a42c-59813cca4c31","system_id":"levelo_inurba_marseille","lat":43.309047,"lon":5.396551,"is_reserved":false,"is_disabled":false,"rental_uris":{"android":"levelo://app?vid=aa69654d-f42b-483a-a42c-59813cca4c31","ios":"levelo://app?vid=aa69654d-f42b-483a-a42c-59813cca4c31"},"vehicle_type_id":"4","last_reported":1710968842,"current_range_meters":4000,"station_id":"ce4bh012rcd13ifvqcv0","pricing_plan_id":"cebpf4jnsgd1na2vs0mg"},{"bike_id":"9c1df4af-feb8-42f0-ae2a-b38635e74ab3","system_id":"levelo_inurba_marseille","lat":43.309047,"lon":5.396551,"is_reserved":false,"is_disabled":false,"rental_uris":{"android":"levelo://app?vid=9c1df4af-feb8-42f0-ae2a-b38635e74ab3","ios":"levelo://app?vid=9c1df4af-feb8-42f0-ae2a-b38635e74ab3"},"vehicle_type_id":"4","last_reported":1710968842,"current_range_meters":20400,"station_id":"ce4bh012rcd13ifvqcv0","pricing_plan_id":"cebpf4jnsgd1na2vs0mg"},{"bike_id":"47f81c1c-b6c4-4659-ac9a-51acb627fecd","system_id":"levelo_inurba_marseille","lat":43.29529,"lon":5.385581,"is_reserved":false,"is_disabled":false,"rental_uris":{"android":"levelo://app?vid=47f81c1c-b6c4-4659-ac9a-51acb627fecd","ios":"levelo://app?vid=47f81c1c-b6c4-4659-ac9a-51acb627fecd"},"vehicle_type_id":"4","last_reported":1710968842,"current_range_meters":30000,"station_id":"ce4bgih2rcd13ifvqba0","pricing_plan_id":"cebpf4jnsgd1na2vs0mg"},{"bike_id":"a4ec75aa-eee5-48f5-a43d-7787c34eb39d","system_id":"levelo_inurba_marseille","lat":43.291994,"lon":5.357886,"is_reserved":false,"is_disabled":false,"rental_uris":{"android":"levelo://app?vid=a4ec75aa-eee5-48f5-a43d-7787c34eb39d","ios":"levelo://app?vid=a4ec75aa-eee5-48f5-a43d-7787c34eb39d"},"vehicle_type_id":"4","last_reported":1710968842,"current_range_meters":23600,"station_id":"ce4bhb12rcd13ifvqel0","pricing_plan_id":"cebpf4jnsgd1na2vs0mg"},{"bike_id":"4bdd8f65-06e2-4fde-a516-71334bd6c790","system_id":"levelo_inurba_marseille","lat":43.309047,"lon":5.396551,"is_reserved":false,"is_disabled":false,"rental_uris":{"android":"levelo://app?vid=4bdd8f65-06e2-4fde-a516-71334bd6c790","ios":"levelo://app?vid=4bdd8f65-06e2-4fde-a516-71334bd6c790"},"vehicle_type_id":"4","last_reported":1710968842,"current_range_meters":27200,"station_id":"ce4bh012rcd13ifvqcv0","pricing_plan_id":"cebpf4jnsgd1na2vs0mg"},{"bike_id":"88a1522e-a352-4738-8f7a-33f644d5b7db","system_id":"levelo_inurba_marseille","lat":43.309047,"lon":5.396551,"is_reserved":false,"is_disabled":false,"rental_uris":{"android":"levelo://app?vid=88a1522e-a352-4738-8f7a-33f644d5b7db","ios":"levelo://app?vid=88a1522e-a352-4738-8f7a-33f644d5b7db"},"vehicle_type_id":"4","last_reported":1710968842,"current_range_meters":8000,"station_id":"ce4bh012rcd13ifvqcv0","pricing_plan_id":"cebpf4jnsgd1na2vs0mg"},{"bike_id":"e8b5911a-ecb5-42db-8ef6-6ecd0ac438a8","system_id":"levelo_inurba_marseille","lat":43.309047,"lon":5.396551,"is_reserved":false,"is_disabled":false,"rental_uris":{"android":"levelo://app?vid=e8b5911a-ecb5-42db-8ef6-6ecd0ac438a8","ios":"levelo://app?vid=e8b5911a-ecb5-42db-8ef6-6ecd0ac438a8"},"vehicle_type_id":"4","last_reported":1710968842,"current_range_meters":13200,"station_id":"ce4bh012rcd13ifvqcv0","pricing_plan_id":"cebpf4jnsgd1na2vs0mg"},{"bike_id":"b3896fd2-1c60-41a4-a222-3cfd585b8c9b","system_id":"levelo_inurba_marseille","lat":43.29529,"lon":5.385581,"is_reserved":false,"is_disabled":false,"rental_uris":{"android":"levelo://app?vid=b3896fd2-1c60-41a4-a222-3cfd585b8c9b","ios":"levelo://app?vid=b3896fd2-1c60-41a4-a222-3cfd585b8c9b"},"vehicle_type_id":"4","last_reported":1710968842,"current_range_meters":16800,"station_id":"ce4bgih2rcd13ifvqba0","pricing_plan_id":"cebpf4jnsgd1na2vs0mg"},{"bike_id":"e6a63688-83d2-48b8-9edb-4a69dbb3fa35","system_id":"levelo_inurba_marseille","lat":43.309047,"lon":5.396551,"is_reserved":false,"is_disabled":false,"rental_uris":{"android":"levelo://app?vid=e6a63688-83d2-48b8-9edb-4a69dbb3fa35","ios":"levelo://app?vid=e6a63688-83d2-48b8-9edb-4a69dbb3fa35"},"vehicle_type_id":"4","last_reported":1710968842,"current_range_meters":7200,"station_id":"ce4bh012rcd13ifvqcv0","pricing_plan_id":"cebpf4jnsgd1na2vs0mg"},{"bike_id":"f06e8ea6-bf45-4fb8-9991-ac9f19792e0a","system_id":"levelo_inurba_marseille","lat":43.29529,"lon":5.385581,"is_reserved":false,"is_disabled":false,"rental_uris":{"android":"levelo://app?vid=f06e8ea6-bf45-4fb8-9991-ac9f19792e0a","ios":"levelo://app?vid=f06e8ea6-bf45-4fb8-9991-ac9f19792e0a"},"vehicle_type_id":"4","last_reported":1710968842,"current_range_meters":22400,"station_id":"ce4bgih2rcd13ifvqba0","pricing_plan_id":"cebpf4jnsgd1na2vs0mg"},{"bike_id":"020e6dbd-7a95-4137-9886-f39c3d25f64b","system_id":"levelo_inurba_marseille","lat":43.29529,"lon":5.385581,"is_reserved":false,"is_disabled":false,"rental_uris":{"android":"levelo://app?vid=020e6dbd-7a95-4137-9886-f39c3d25f64b","ios":"levelo://app?vid=020e6dbd-7a95-4137-9886-f39c3d25f64b"},"vehicle_type_id":"4","last_reported":1710968842,"current_range_meters":6000,"station_id":"ce4bgih2rcd13ifvqba0","pricing_plan_id":"cebpf4jnsgd1na2vs0mg"},{"bike_id":"406ef3d2-5f98-4f58-8803-abf5cb2113ab","system_id":"levelo_inurba_marseille","lat":43.29529,"lon":5.385581,"is_reserved":false,"is_disabled":false,"rental_uris":{"android":"levelo://app?vid=406ef3d2-5f98-4f58-8803-abf5cb2113ab","ios":"levelo://app?vid=406ef3d2-5f98-4f58-8803-abf5cb2113ab"},"vehicle_type_id":"4","last_reported":1710968842,"current_range_meters":30000,"station_id":"ce4bgih2rcd13ifvqba0","pricing_plan_id":"cebpf4jnsgd1na2vs0mg"},{"bike_id":"e2907010-8412-49ad-bd98-623e95da470c","system_id":"levelo_inurba_marseille","lat":43.29534,"lon":5.38541,"is_reserved":false,"is_disabled":false,"rental_uris":{"android":"levelo://app?vid=e2907010-8412-49ad-bd98-623e95da470c","ios":"levelo://app?vid=e2907010-8412-49ad-bd98-623e95da470c"},"vehicle_type_id":"4","last_reported":1710968842,"current_range_meters":7600,"station_id":"ce4bgih2rcd13ifvqba0","pricing_plan_id":"cebpf4jnsgd1na2vs0mg"},{"bike_id":"5e8b3ee1-e0c5-43a4-871e-b257b8b1ec5c","system_id":"levelo_inurba_marseille","lat":43.29529,"lon":5.385581,"is_reserved":false,"is_disabled":false,"rental_uris":{"android":"levelo://app?vid=5e8b3ee1-e0c5-43a4-871e-b257b8b1ec5c","ios":"levelo://app?vid=5e8b3ee1-e0c5-43a4-871e-b257b8b1ec5c"},"vehicle_type_id":"4","last_reported":1710968842,"current_range_meters":8000,"station_id":"ce4bgih2rcd13ifvqba0","pricing_plan_id":"cebpf4jnsgd1na2vs0mg"},{"bike_id":"466be6af-0b2f-4f9a-8206-2916b8583c00","system_id":"levelo_inurba_marseille","lat":43.29529,"lon":5.385581,"is_reserved":false,"is_disabled":false,"rental_uris":{"android":"levelo://app?vid=466be6af-0b2f-4f9a-8206-2916b8583c00","ios":"levelo://app?vid=466be6af-0b2f-4f9a-8206-2916b8583c00"},"vehicle_type_id":"4","last_reported":1710968842,"current_range_meters":27200,"station_id":"ce4bgih2rcd13ifvqba0","pricing_plan_id":"cebpf4jnsgd1na2vs0mg"},{"bike_id":"8d744f66-bdd6-459e-a9a4-890fe4590bed","system_id":"levelo_inurba_marseille","lat":43.29529,"lon":5.385581,"is_reserved":false,"is_disabled":false,"rental_uris":{"android":"levelo://app?vid=8d744f66-bdd6-459e-a9a4-890fe4590bed","ios":"levelo://app?vid=8d744f66-bdd6-459e-a9a4-890fe4590bed"},"vehicle_type_id":"4","last_reported":1710968842,"current_range_meters":15200,"station_id":"ce4bgih2rcd13ifvqba0","pricing_plan_id":"cebpf4jnsgd1na2vs0mg"},{"bike_id":"3c40f348-cb7f-4c6e-82f9-37f9c4b59204","system_id":"levelo_inurba_marseille","lat":43.29529,"lon":5.385581,"is_reserved":false,"is_disabled":false,"rental_uris":{"android":"levelo://app?vid=3c40f348-cb7f-4c6e-82f9-37f9c4b59204","ios":"levelo://app?vid=3c40f348-cb7f-4c6e-82f9-37f9c4b59204"},"vehicle_type_id":"4","last_reported":1710968842,"current_range_meters":10800,"station_id":"ce4bgih2rcd13ifvqba0","pricing_plan_id":"cebpf4jnsgd1na2vs0mg"},{"bike_id":"94fd7518-018a-4e95-8f4c-09c04aa2056d","system_id":"levelo_inurba_marseille","lat":43.290869,"lon":5.372189,"is_reserved":false,"is_disabled":false,"rental_uris":{"android":"levelo://app?vid=94fd7518-018a-4e95-8f4c-09c04aa2056d","ios":"levelo://app?vid=94fd7518-018a-4e95-8f4c-09c04aa2056d"},"vehicle_type_id":"4","last_reported":1710968842,"current_range_meters":17200,"station_id":"","pricing_plan_id":"cebpf4jnsgd1na2vs0mg"},{"bike_id":"be5dbdb7-aa53-4822-8908-93fade68e57e","system_id":"levelo_inurba_marseille","lat":43.303169,"lon":5.394937,"is_reserved":false,"is_disabled":false,"rental_uris":{"android":"levelo://app?vid=be5dbdb7-aa53-4822-8908-93fade68e57e","ios":"levelo://app?vid=be5dbdb7-aa53-4822-8908-93fade68e57e"},"vehicle_type_id":"4","last_reported":1710968842,"current_range_meters":20800,"station_id":"","pricing_plan_id":"cebpf4jnsgd1na2vs0mg"},{"bike_id":"8358a533-624e-4ee3-b4db-6ba27ff534fd","system_id":"levelo_inurba_marseille","lat":43.2909,"lon":5.375425,"is_reserved":false,"is_disabled":false,"rental_uris":{"android":"levelo://app?vid=8358a533-624e-4ee3-b4db-6ba27ff534fd","ios":"levelo://app?vid=8358a533-624e-4ee3-b4db-6ba27ff534fd"},"vehicle_type_id":"4","last_reported":1710968842,"current_range_meters":5600,"station_id":"ce4bh692rcd13ifvqe90","pricing_plan_id":"cebpf4jnsgd1na2vs0mg"},{"bike_id":"a5f21f9b-0ba8-4d5b-b30a-7ec9c793aca5","system_id":"levelo_inurba_marseille","lat":43.291426,"lon":5.37769,"is_reserved":false,"is_disabled":false,"rental_uris":{"android":"levelo://app?vid=a5f21f9b-0ba8-4d5b-b30a-7ec9c793aca5","ios":"levelo://app?vid=a5f21f9b-0ba8-4d5b-b30a-7ec9c793aca5"},"vehicle_type_id":"4","last_reported":1710968842,"current_range_meters":26000,"station_id":"","pricing_plan_id":"cebpf4jnsgd1na2vs0mg"},{"bike_id":"08e1c831-8794-41e6-ae9c-8fc7630de4eb","system_id":"levelo_inurba_marseille","lat":43.302008,"lon":5.394694,"is_reserved":false,"is_disabled":false,"rental_uris":{"android":"levelo://app?vid=08e1c831-8794-41e6-ae9c-8fc7630de4eb","ios":"levelo://app?vid=08e1c831-8794-41e6-ae9c-8fc7630de4eb"},"vehicle_type_id":"4","last_reported":1710968842,"current_range_meters":7600,"station_id":"ce4bh0p2rcd13ifvqd70","pricing_plan_id":"cebpf4jnsgd1na2vs0mg"},{"bike_id":"08400fba-90f0-4a13-b2a4-06b28c446c27","system_id":"levelo_inurba_marseille","lat":43.302008,"lon":5.394694,"is_reserved":false,"is_disabled":false,"rental_uris":{"android":"levelo://app?vid=08400fba-90f0-4a13-b2a4-06b28c446c27","ios":"levelo://app?vid=08400fba-90f0-4a13-b2a4-06b28c446c27"},"vehicle_type_id":"4","last_reported":1710968842,"current_range_meters":6000,"station_id":"ce4bh0p2rcd13ifvqd70","pricing_plan_id":"cebpf4jnsgd1na2vs0mg"},{"bike_id":"77fd9e29-18fe-45f9-914b-3468191b1d6f","system_id":"levelo_inurba_marseille","lat":43.302008,"lon":5.394694,"is_reserved":false,"is_disabled":false,"rental_uris":{"android":"levelo://app?vid=77fd9e29-18fe-45f9-914b-3468191b1d6f","ios":"levelo://app?vid=77fd9e29-18fe-45f9-914b-3468191b1d6f"},"vehicle_type_id":"4","last_reported":1710968842,"current_range_meters":29600,"station_id":"ce4bh0p2rcd13ifvqd70","pricing_plan_id":"cebpf4jnsgd1na2vs0mg"},