{"last_updated":1774041653,"ttl":60,"version":"2.2","data":{"bikes":[{"bike_id":"33eb42bc-48d5-41d9-b570-aa7ee969cd7f","system_id":"levelo_inurba_marseille","lat":43.29873,"lon":5.38926,"is_reserved":false,"is_disabled":false,"rental_uris":{"android":"levelo://app?vid=33eb42bc-48d5-41d9-b570-aa7ee969cd7f","ios":"levelo://app?vid=33eb42bc-48d5-41d9-b570-aa7ee969cd7f"},"vehicle_type_id":"4","last_reported":1774041653,"current_range_meters":2800,"station_id":"ce4bh392rcd13ifvqdl0","pricing_plan_id":"cebpf4jnsgd1na2vs0mg"},{"bike_id":"81d546f0-44e5-406c-a513-e68eb273ce1a","system_id":"levelo_inurba_marseille","lat":43.29199,"lon":5.38442,"is_reserved":false,"is_disabled":false,"rental_uris":{"android":"levelo://app?vid=81d546f0-44e5-406c-a513-e68eb273ce1a","ios":"levelo://app?vid=81d546f0-44e5-406c-a513-e68eb273ce1a"},"vehicle_type_id":"4","last_reported":1774041653,"current_range_meters":2800,"station_id":"","pricing_plan_id":"cebpf4jnsgd1na2vs0mg"},{"bike_id":"163513a9-cf44-4a3f-b8cb-792a9f3aa129","system_id":"levelo_inurba_marseille","lat":43.26543,"lon":5.37303,"is_reserved":false,"is_disabled":false,"rental_uris":{"android":"levelo://app?vid=163513a9-cf44-4a3f-b8cb-792a9f3aa129","ios":"levelo://app?vid=163513a9-cf44-4a3f-b8cb-792a9f3aa129"},"vehicle_type_id":"4","last_reported":1774041653,"current_range_meters":2800,"station_id":"ce4bhg12rcd13ifvqf70","pricing_plan_id":"cebpf4jnsgd1na2vs0mg"},{"bike_id":"8a854e0a-3b9f-471d-80f2-bfadb0595e6b","system_id":"levelo_inurba_marseille","lat":43.31327,"lon":5.3764,"is_reserved":false,"is_disabled":false,"rental_uris":{"android":"levelo://app?vid=8a854e0a-3b9f-471d-80f2-bfadb0595e6b","ios":"levelo://app?vid=8a854e0a-3b9f-471d-80f2-bfadb0595e6b"},"vehicle_type_id":"4","last_reported":1774041653,"current_range_meters":2800,"station_id":"","pricing_plan_id":"cebpf4jnsgd1na2vs0mg"},{"bike_id":"10aaca33-c248-4ae6-bc77-0fbbde265c9c","system_id":"levelo_inurba_marseille","lat":43.2925,"lon":5.38443,"is_reserved":false,"is_disabled":false,"rental_uris":{"android":"levelo://app?vid=10aaca33-c248-4ae6-bc77-0fbbde265c9c","ios":"levelo://app?vid=10aaca33-c248-4ae6-bc77-0fbbde265c9c"},"vehicle_type_id":"4","last_reported":1774041653,"current_range_meters":2800,"station_id":"ce4bh692rcd13ifvqea0","pricing_plan_id":"cebpf4jnsgd1na2vs0mg"},{"bike_id":"325d7323-9829-4444-84da-ad2b66b7f5d0","system_id":"levelo_inurba_marseille","lat":43.29015,"lon":5.38644,"is_reserved":false,"is_disabled":false,"rental_uris":{"android":"levelo://app?vid=325d7323-9829-4444-84da-ad2b66b7f5d0","ios":"levelo://app?vid=325d7323-9829-4444-84da-ad2b66b7f5d0"},"vehicle_type_id":"4","last_reported":1774041653,"current_range_meters":2800,"station_id":"ce4bh4p2rcd13ifvqe0g","pricing_plan_id":"cebpf4jnsgd1na2vs0mg"},{"bike_id":"5f55fa3f-3695-461c-9ed0-604b233e703a","system_id":"levelo_inurba_marseille","lat":43.2837,"lon":5.3866,"is_reserved":false,"is_disabled":false,"rental_uris":{"android":"levelo://app?vid=5f55fa3f-3695-461c-9ed0-604b233e703a","ios":"levelo://app?vid=5f55fa3f-3695-461c-9ed0-604b233e703a"},"vehicle_type_id":"4","last_reported":1774041653,"current_range_meters":2800,"station_id":"","pricing_plan_id":"cebpf4jnsgd1na2vs0mg"},{"bike_id":"5ef274df-9d9d-45f8-bed6-5c9c7d607c8e","system_id":"levelo_inurba_marseille","lat":43.29981,"lon":5.38507,"is_reserved":false,"is_disabled":false,"rental_uris":{"android":"levelo://app?vid=5ef274df-9d9d-45f8-bed6-5c9c7d607c8e","ios":"levelo://app?vid=5ef274df-9d9d-45f8-bed6-5c9c7d607c8e"},"vehicle_type_id":"4","last_reported":1774041653,"current_range_meters":2800,"station_id":"ce4bgj92rcd13ifvqbd0","pricing_plan_id":"cebpf4jnsgd1na2vs0mg"},{"bike_id":"ef9496c7-12d3-4835-b316-30e7646ddff1","system_id":"levelo_inurba_marseille","lat":43.30815,"lon":5.3814,"is_reserved":false,"is_disabled":false,"rental_uris":{"android":"levelo://app?vid=ef9496c7-12d3-4835-b316-30e7646ddff1","ios":"levelo://app?vid=ef9496c7-12d3-4835-b316-30e7646ddff1"},"vehicle_type_id":"4","last_reported":1774041653,"current_range_meters":2800,"station_id":"ce4bgt12rcd13ifvqce0","pricing_plan_id":"cebpf4jnsgd1na2vs0mg"},{"bike_id":"2bbd22cf-686f-461f-b177-5e332cf0cc5c","system_id":"levelo_inurba_marseille","lat":43.31356,"lon":5.38498,"is_reserved":false,"is_disabled":false,"rental_uris":{"android":"levelo://app?vid=2bbd22cf-686f-461f-b177-5e332cf0cc5c","ios":"levelo://app?vid=2bbd22cf-686f-461f-b177-5e332cf0cc5c"},"vehicle_type_id":"4","last_reported":1774041653,"current_range_meters":2800,"station_id":"ce4bgt92rcd13ifvqcf0","pricing_plan_id":"cebpf4jnsgd1na2vs0mg"},{"bike_id":"761118ee-02f3-49c7-b816-ce77eb032c9a","system_id":"levelo_inurba_marseille","lat":43.2866,"lon":5.36345,"is_reserved":false,"is_disabled":false,"rental_uris":{"android":"levelo://app?vid=761118ee-02f3-49c7-b816-ce77eb032c9a","ios":"levelo://app?vid=761118ee-02f3-49c7-b816-ce77eb032c9a"},"vehicle_type_id":"4","last_reported":1774041653,"current_range_meters":2800,"station_id":"ce4bhah2rcd13ifvqej0","pricing_plan_id":"cebpf4jnsgd1na2vs0mg"},{"bike_id":"23b74feb-6213-4e52-b60f-feae837db4c1","system_id":"levelo_inurba_marseille","lat":43.31352,"lon":5.36759,"is_reserved":false,"is_disabled":false,"rental_uris":{"android":"levelo://app?vid=23b74feb-6213-4e52-b60f-feae837db4c1","ios":"levelo://app?vid=23b74feb-6213-4e52-b60f-feae837db4c1"},"vehicle_type_id":"4","last_reported":1774041653,"current_range_meters":2800,"station_id":"ce4bgr92rcd13ifvqc6g","pricing_plan_id":"cebpf4jnsgd1na2vs0mg"},{"bike_id":"06ce4f90-d2c1-4cdf-8e92-af4e6c83cb49","system_id":"levelo_inurba_marseille","lat":43.28998,"lon":5.3562,"is_reserved":false,"is_disabled":true,"rental_uris":{"android":"levelo://app?vid=06ce4f90-d2c1-4cdf-8e92-af4e6c83cb49","ios":"levelo://app?vid=06ce4f90-d2c1-4cdf-8e92-af4e6c83cb49"},"vehicle_type_id":"4","last_reported":1774041653,"current_range_meters":2800,"station_id":"ce4bhb92rcd13ifvqen0","pricing_plan_id":"cebpf4jnsgd1na2vs0mg"},{"bike_id":"7beed423-ea87-4a75-826f-b7d98154ae53","system_id":"levelo_inurba_marseille","lat":43.27427,"lon":5.39438,"is_reserved":false,"is_disabled":false,"rental_uris":{"android":"levelo://app?vid=7beed423-ea87-4a75-826f-b7d98154ae53","ios":"levelo://app?vid=7beed423-ea87-4a75-826f-b7d98154ae53"},"vehicle_type_id":"4","last_reported":1774041653,"current_range_meters":2800,"station_id":"ce4bhdp2rcd13ifvqf20","pricing_plan_id":"cebpf4jnsgd1na2vs0mg"},{"bike_id":"1d57943a-f648-4cd2-9286-173cacdbf130","system_id":"levelo_inurba_marseille","lat":43.29622,"lon":5.37718,"is_reserved":false,"is_disabled":false,"rental_uris":{"android":"levelo://app?vid=1d57943a-f648-4cd2-9286-173cacdbf130","ios":"levelo://app?vid=1d57943a-f648-4cd2-9286-173cacdbf130"},"vehicle_type_id":"4","last_reported":1774041653,"current_range_meters":2800,"station_id":"ce4bgi92rcd13ifvqb90","pricing_plan_id":"cebpf4jnsgd1na2vs0mg"},{"bike_id":"6d685847-ceb0-4f79-99f2-cc8153818f13","system_id":"levelo_inurba_marseille","lat":43.27376,"lon":5.36252,"is_reserved":false,"is_disabled":true,"rental_uris":{"android":"levelo://app?vid=6d685847-ceb0-4f79-99f2-cc8153818f13","ios":"levelo://app?vid=6d685847-ceb0-4f79-99f2-cc8153818f13"},"vehicle_type_id":"4","last_reported":1774041653,"current_range_meters":2800,"station_id":"ce4bhbh2rcd13ifvqeo0","pricing_plan_id":"cebpf4jnsgd1na2vs0mg"},{"bike_id":"3ed4bc13-b22d-44b4-aa6f-19f196c483da","system_id":"levelo_inurba_marseille","lat":43.24186,"lon":5.36402,"is_reserved":false,"is_disabled":false,"rental_uris":{"android":"levelo://app?vid=3ed4bc13-b22d-44b4-aa6f-19f196c483da","ios":"levelo://app?vid=3ed4bc13-b22d-44b4-aa6f-19f196c483da"},"vehicle_type_id":"4","last_reported":1774041653,"current_range_meters":2800,"station_id":"cpo36qri1sfpv3e86is0","pricing_plan_id":"cebpf4jnsgd1na2vs0mg"},{"bike_id":"39421cf9-7a72-4fc3-a879-2901ca5d5846","system_id":"levelo_inurba_marseille","lat":43.2379,"lon":5.36639,"is_reserved":false,"is_disabled":false,"rental_uris":{"android":"levelo://app?vid=39421cf9-7a72-4fc3-a879-2901ca5d5846","ios":"levelo://app?vid=39421cf9-7a72-4fc3-a879-2901ca5d5846"},"vehicle_type_id":"4","last_reported":1774041653,"current_range_meters":2800,"station_id":"st_d3nk18o9ro0c73en2l3g","pricing_plan_id":"cebpf4jnsgd1na2vs0mg"},{"bike_id":"7a19cacb-f160-4af8-b976-f3c6e4188de2","system_id":"levelo_inurba_marseille","lat":43.31687,"lon":5.40469,"is_reserved":false,"is_disabled":false,"rental_uris":{"android":"levelo://app?vid=7a19cacb-f160-4af8-b976-f3c6e4188de2","ios":"levelo://app?vid=7a19cacb-f160-4af8-b976-f3c6e4188de2"},"vehicle_type_id":"4","last_reported":1774041653,"current_range_meters":2800,"station_id":"ce4bh012rcd13ifvqd00","pricing_plan_id":"cebpf4jnsgd1na2vs0mg"},{"bike_id":"11db26d7-8ee0-46eb-abd5-821363842081","system_id":"levelo_inurba_marseille","lat":43.30293,"lon":5.39219,"is_reserved":false,"is_disabled":false,"rental_uris":{"android":"levelo://app?vid=11db26d7-8ee0-46eb-abd5-821363842081","ios":"levelo://app?vid=11db26d7-8ee0-46eb-abd5-821363842081"},"vehicle_type_id":"4","last_reported":1774041653,"current_range_meters":2800,"station_id":"ce4bgkh2rcd13ifvqbk0","pricing_plan_id":"cebpf4jnsgd1na2vs0mg"},{"bike_id":"66be2595-d8a5-40d3-b0b9-334f8fbba844","system_id":"levelo_inurba_marseille","lat":43.24634,"lon":5.43154,"is_reserved":false,"is_disabled":false,"rental_uris":{"android":"levelo://app?vid=66be2595-d8a5-40d3-b0b9-334f8fbba844","ios":"levelo://app?vid=66be2595-d8a5-40d3-b0b9-334f8fbba844"},"vehicle_type_id":"4","last_reported":1774041653,"current_range_meters":3200,"station_id":"","pricing_plan_id":"cebpf4jnsgd1na2vs0mg"},{"bike_id":"27cfd7f2-48c6-4fe4-9d82-e5b76120df75","system_id":"levelo_inurba_marseille","lat":43.2981,"lon":5.44054,"is_reserved":false,"is_disabled":false,"rental_uris":{"android":"levelo://app?vid=27cfd7f2-48c6-4fe4-9d82-e5b76120df75","ios":"levelo://app?vid=27cfd7f2-48c6-4fe4-9d82-e5b76120df75"},"vehicle_type_id":"4","last_reported":1774041653,"current_range_meters":3200,"station_id":"st_d3jp68qikq2c7381ktn0","pricing_plan_id":"cebpf4jnsgd1na2vs0mg"},{"bike_id":"6d1835a9-d7e3-4445-9d8e-d0bd22c8ee86","system_id":"levelo_inurba_marseille","lat":43.29539,"lon":5.38534,"is_reserved":false,"is_disabled":false,"rental_uris":{"android":"levelo://app?vid=6d1835a9-d7e3-4445-9d8e-d0bd22c8ee86","ios":"levelo://app?vid=6d1835a9-d7e3-4445-9d8e-d0bd22c8ee86"},"vehicle_type_id":"4","last_reported":1774041653,"current_range_meters":3200,"station_id":"ce4bgih2rcd13ifvqba0","pricing_plan_id":"cebpf4jnsgd1na2vs0mg"},{"bike_id":"d9e4122f-ff2d-4b69-b4f6-4e416102f841","system_id":"levelo_inurba_marseille","lat":43.231865,"lon":5.399816,"is_reserved":false,"is_disabled":false,"rental_uris":{"android":"levelo://app?vid=d9e4122f-ff2d-4b69-b4f6-4e416102f841","ios":"levelo://app?vid=d9e4122f-ff2d-4b69-b4f6-4e416102f841"},"vehicle_type_id":"4","last_reported":1774041653,"current_range_meters":3200,"station_id":"ce4bhn12rcd13ifvqgqg","pricing_plan_id":"cebpf4jnsgd1na2vs0mg"},{"bike_id":"e8786a2c-56c3-4456-9303-7d76d9dca754","system_id":"levelo_inurba_marseille","lat":43.31501,"lon":5.37285,"is_reserved":false,"is_disabled":false,"rental_uris":{"android":"levelo://app?vid=e8786a2c-56c3-4456-9303-7d76d9dca754","ios":"levelo://app?vid=e8786a2c-56c3-4456-9303-7d76d9dca754"},"vehicle_type_id":"4","last_reported":1774041653,"current_range_meters":3200,"station_id":"ce4bgt12rcd13ifvqcd0","pricing_plan_id":"cebpf4jnsgd1na2vs0mg"},{"bike_id":"b3c35a8e-82e4-4c24-a0bb-50f3ef602711","system_id":"levelo_inurba_marseille","lat":43.29506,"lon":5.39094,"is_reserved":false,"is_disabled":false,"rental_uris":{"android":"levelo://app?vid=b3c35a8e-82e4-4c24-a0bb-50f3ef602711","ios":"levelo://app?vid=b3c35a8e-82e4-4c24-a0bb-50f3ef602711"},"vehicle_type_id":"4","last_reported":1774041653,"current_range_meters":3200,"station_id":"ce4bh3p2rcd13ifvqdp0","pricing_plan_id":"cebpf4jnsgd1na2vs0mg"},{"bike_id":"7bd8d017-c910-446f-a89a-6ed676250d74","system_id":"levelo_inurba_marseille","lat":43.30674,"lon":5.40075,"is_reserved":false,"is_disabled":false,"rental_uris":{"android":"levelo://app?vid=7bd8d017-c910-446f-a89a-6ed676250d74","ios":"levelo://app?vid=7bd8d017-c910-446f-a89a-6ed676250d74"},"vehicle_type_id":"4","last_reported":1774041653,"current_range_meters":3200,"station_id":"ce4bh112rcd13ifvqda0","pricing_plan_id":"cebpf4jnsgd1na2vs0mg"},{"bike_id":"00456695-d732-4f33-93c8-e39b4d4bf96b","system_id":"levelo_inurba_marseille","lat":43.29788,"lon":5.38112,"is_reserved":false,"is_disabled":true,"rental_uris":{"android":"levelo://app?vid=00456695-d732-4f33-93c8-e39b4d4bf96b","ios":"levelo://app?vid=00456695-d732-4f33-93c8-e39b4d4bf96b"},"vehicle_type_id":"4","last_reported":1774041653,"current_range_meters":3200,"station_id":"ce4bgip2rcd13ifvqbb0","pricing_plan_id":"cebpf4jnsgd1na2vs0mg"},{"bike_id":"9fbfdc7a-8398-40b5-b97f-ba1104c7c96f","system_id":"levelo_inurba_marseille","lat":43.23196,"lon":5.35556,"is_reserved":false,"is_disabled":false,"rental_uris":{"android":"levelo://app?vid=9fbfdc7a-8398-40b5-b97f-ba1104c7c96f","ios":"levelo://app?vid=9fbfdc7a-8398-40b5-b97f-ba1104c7c96f"},"vehicle_type_id":"4","last_reported":1774041653,"current_range_meters":3200,"station_id":"ce4bhu92rcd13ifvqi70","pricing_plan_id":"cebpf4jnsgd1na2vs0mg"},{"bike_id":"c1ddb56e-5872-4146-9097-f7e9b2184454","system_id":"levelo_inurba_marseille","lat":43.29305,"lon":5.37167,"is_reserved":false,"is_disabled":false,"rental_uris":{"android":"levelo://app?vid=c1ddb56e-5872-4146-9097-f7e9b2184454","ios":"levelo://app?vid=c1ddb56e-5872-4146-9097-f7e9b2184454"},"vehicle_type_id":"4","last_reported":1774041653,"current_range_meters":3200,"station_id":"ce4bgh92rcd13ifvqb40","pricing_plan_id":"cebpf4jnsgd1na2vs0mg"},{"bike_id":"b9452ea7-745e-419d-8fd9-2c36c379e046","system_id":"levelo_inurba_marseille","lat":43.29511,"lon":5.39078,"is_reserved":false,"is_disabled":false,"rental_uris":{"android":"levelo://app?vid=b9452ea7-745e-419d-8fd9-2c36c379e046","ios":"levelo://app?vid=b9452ea7-745e-419d-8fd9-2c36c379e046"},"vehicle_type_id":"4","last_reported":1774041653,"current_range_meters":3200,"station_id":"ce4bh0h2rcd13ifvqd60","pricing_plan_id":"cebpf4jnsgd1na2vs0mg"},{"bike_id":"1054b580-a1de-4d08-a27f-839170fb2504","system_id":"levelo_inurba_marseille","lat":43.30589,"lon":5.39361,"is_reserved":false,"is_disabled":false,"rental_uris":{"android":"levelo://app?vid=1054b580-a1de-4d08-a27f-839170fb2504","ios":"levelo://app?vid=1054b580-a1de-4d08-a27f-839170fb2504"},"vehicle_type_id":"4","last_reported":1774041653,"current_range_meters":3200,"station_id":"ce4bh0p2rcd13ifvqd80","pricing_plan_id":"cebpf4jnsgd1na2vs0mg"},{"bike_id":"e193d30c-bc14-428c-aa8b-69aacbc22c20","system_id":"levelo_inurba_marseille","lat":43.32114,"lon":5.36805,"is_reserved":false,"is_disabled":false,"rental_uris":{"android":"levelo://app?vid=e193d30c-bc14-428c-aa8b-69aacbc22c20","ios":"levelo://app?vid=e193d30c-bc14-428c-aa8b-69aacbc22c20"},"vehicle_type_id":"4","last_reported":1774041653,"current_range_meters":3200,"station_id":"ce4bhrh2rcd13ifvqhug","pricing_plan_id":"cebpf4jnsgd1na2vs0mg"},{"bike_id":"b24efd61-5957-4034-9985-644c1e3ae6d7","system_id":"levelo_inurba_marseille","lat":43.29801,"lon":5.37894,"is_reserved":false,"is_disabled":false,"rental_uris":{"android":"levelo://app?vid=b24efd61-5957-4034-9985-644c1e3ae6d7","ios":"levelo://app?vid=b24efd61-5957-4034-9985-644c1e3ae6d7"},"vehicle_type_id":"4","last_reported":1774041653,"current_range_meters":3200,"station_id":"","pricing_plan_id":"cebpf4jnsgd1na2vs0mg"},{"bike_id":"4e863406-68b4-4983-85a4-8459dc5cf74d","system_id":"levelo_inurba_marseille","lat":43.28408,"lon":5.37515,"is_reserved":false,"is_disabled":false,"rental_uris":{"android":"levelo://app?vid=4e863406-68b4-4983-85a4-8459dc5cf74d","ios":"levelo://app?vid=4e863406-68b4-4983-85a4-8459dc5cf74d"},"vehicle_type_id":"4","last_reported":1774041653,"current_range_meters":3200,"station_id":"ce4bh412rcd13ifvqds0","pricing_plan_id":"cebpf4jnsgd1na2vs0mg"},{"bike_id":"744826ba-753a-4ecc-8e5c-e31c07526efd","system_id":"levelo_inurba_marseille","lat":43.28003,"lon":5.41624,"is_reserved":false,"is_disabled":false,"rental_uris":{"android":"levelo://app?vid=744826ba-753a-4ecc-8e5c-e31c07526efd","ios":"levelo://app?vid=744826ba-753a-4ecc-8e5c-e31c07526efd"},"vehicle_type_id":"4","last_reported":1774041653,"current_range_meters":3200,"station_id":"ce4bho12rcd13ifvqh1g","pricing_plan_id":"cebpf4jnsgd1na2vs0mg"},{"bike_id":"9a90aad9-e8ee-4411-b0b1-900228edcb58","system_id":"levelo_inurba_marseille","lat":43.28974,"lon":5.3784,"is_reserved":false,"is_disabled":false,"rental_uris":{"android":"levelo://app?vid=9a90aad9-e8ee-4411-b0b1-900228edcb58","ios":"levelo://app?vid=9a90aad9-e8ee-4411-b0b1-900228edcb58"},"vehicle_type_id":"4","last_reported":1774041653,"current_range_meters":3200,"station_id":"ce4bh9p2rcd13ifvqed0","pricing_plan_id":"cebpf4jnsgd1na2vs0mg"},{"bike_id":"47a8436c-9b2f-44b6-92e2-20a5fab160f3","system_id":"levelo_inurba_marseille","lat":43.24794,"lon":5.37448,"is_reserved":false,"is_disabled":true,"rental_uris":{"android":"levelo://app?vid=47a8436c-9b2f-44b6-92e2-20a5fab160f3","ios":"levelo://app?vid=47a8436c-9b2f-44b6-92e2-20a5fab160f3"},"vehicle_type_id":"4","last_reported":1774041653,"current_range_meters":3200,"station_id":"ce4bhgh2rcd13ifvqfb0","pricing_plan_id":"cebpf4jnsgd1na2vs0mg"},{"bike_id":"eb1add3e-0fa8-4a8d-8324-ba62c1fc132c","system_id":"levelo_inurba_marseille","lat":43.29057,"lon":5.38117,"is_reserved":false,"is_disabled":false,"rental_uris":{"android":"levelo://app?vid=eb1add3e-0fa8-4a8d-8324-ba62c1fc132c","ios":"levelo://app?vid=eb1add3e-0fa8-4a8d-8324-ba62c1fc132c"},"vehicle_type_id":"4","last_reported":1774041653,"current_range_meters":3200,"station_id":"ce4bh512rcd13ifvqe2g","pricing_plan_id":"cebpf4jnsgd1na2vs0mg"},{"bike_id":"bebae7b0-c2c6-4b1d-8855-8b06d4443a00","system_id":"levelo_inurba_marseille","lat":43.28475,"lon":5.48395,"is_reserved":false,"is_disabled":false,"rental_uris":{"android":"levelo://app?vid=bebae7b0-c2c6-4b1d-8855-8b06d4443a00","ios":"levelo://app?vid=bebae7b0-c2c6-4b1d-8855-8b06d4443a00"},"vehicle_type_id":"4","last_reported":1774041653,"current_range_meters":3200,"station_id":"","pricing_plan_id":"cebpf4jnsgd1na2vs0mg"},{"bike_id":"10964380-842c-47fb-8636-5b8a318713b6","system_id":"levelo_inurba_marseille","lat":43.29267,"lon":5.38428,"is_reserved":false,"is_disabled":false,"rental_uris":{"android":"levelo://app?vid=10964380-842c-47fb-8636-5b8a318713b6","ios":"levelo://app?vid=10964380-842c-47fb-8636-5b8a318713b6"},"vehicle_type_id":"4","last_reported":1774041653,"current_range_meters":3200,"station_id":"ce4bh692rcd13ifvqea0","pricing_plan_id":"cebpf4jnsgd1na2vs0mg"},{"bike_id":"ec327ac2-9680-48a1-8584-22f43bc41c50","system_id":"levelo_inurba_marseille","lat":43.29234,"lon":5.3765,"is_reserved":false,"is_disabled":true,"rental_uris":{"android":"levelo://app?vid=ec327ac2-9680-48a1-8584-22f43bc41c50","ios":"levelo://app?vid=ec327ac2-9680-48a1-8584-22f43bc41c50"},"vehicle_type_id":"4","last_reported":1774041653,"current_range_meters":3200,"station_id":"ce4bgi12rcd13ifvqb80","pricing_plan_id":"cebpf4jnsgd1na2vs0mg"},{"bike_id":"010140ef-22d0-4b54-8ebb-e007ebac7f13","system_id":"levelo_inurba_marseille","lat":43.29527,"lon":5.39035,"is_reserved":false,"is_disabled":false,"rental_uris":{"android":"levelo://app?vid=010140ef-22d0-4b54-8ebb-e007ebac7f13","ios":"levelo://app?vid=010140ef-22d0-4b54-8ebb-e007ebac7f13"},"vehicle_type_id":"4","last_reported":1774041653,"current_range_meters":3600,"station_id":"ce4bh3p2rcd13ifvqdp0","pricing_plan_id":"cebpf4jnsgd1na2vs0mg"},{"bike_id":"52f6a6b9-7af9-4956-b458-baf5061e66bf","system_id":"levelo_inurba_marseille","lat":43.23338,"lon":5.44466,"is_reserved":false,"is_disabled":false,"rental_uris":{"android":"levelo://app?vid=52f6a6b9-7af9-4956-b458-baf5061e66bf","ios":"levelo://app?vid=52f6a6b9-7af9-4956-b458-baf5061e66bf"},"vehicle_type_id":"4","last_reported":1774041653,"current_range_meters":3600,"station_id":"","pricing_plan_id":"cebpf4jnsgd1na2vs0mg"},{"bike_id":"347a0133-45d3-4213-ae48-606f4453bbf3","system_id":"levelo_inurba_marseille","lat":43.23053,"lon":5.35494,"is_reserved":false,"is_disabled":false,"rental_uris":{"android":"levelo://app?vid=347a0133-45d3-4213-ae48-606f4453bbf3","ios":"levelo://app?vid=347a0133-45d3-4213-ae48-606f4453bbf3"},"vehicle_type_id":"4","last_reported":1774041653,"current_range_meters":3600,"station_id":"cpo3342slgdg3j2ifvpg","pricing_plan_id":"cebpf4jnsgd1na2vs0mg"},{"bike_id":"13c4f90f-0c2b-450e-80ad-fb83da41ea7f","system_id":"levelo_inurba_marseille","lat":43.30609,"lon":5.39347,"is_reserved":false,"is_disabled":false,"rental_uris":{"android":"levelo://app?vid=13c4f90f-0c2b-450e-80ad-fb83da41ea7f","ios":"levelo://app?vid=13c4f90f-0c2b-450e-80ad-fb83da41ea7f"},"vehicle_type_id":"4","last_reported":1774041653,"current_range_meters":3600,"station_id":"ce4bh0p2rcd13ifvqd80","pricing_plan_id":"cebpf4jnsgd1na2vs0mg"},{"bike_id":"e5e18d51-d281-4feb-b73c-20d80ef4d3b8","system_id":"levelo_inurba_marseille","lat":43.28147,"lon":5.4264,"is_reserved":false,"is_disabled":false,"rental_uris":{"android":"levelo://app?vid=e5e18d51-d281-4feb-b73c-20d80ef4d3b8","ios":"levelo://app?vid=e5e18d51-d281-4feb-b73c-20d80ef4d3b8"},"vehicle_type_id":"4","last_reported":1774041653,"current_range_meters":3600,"station_id":"ce4bhnh2rcd13ifvqgug","pricing_plan_id":"cebpf4jnsgd1na2vs0mg"},{"bike_id":"acc1d9ad-de67-4bcb-8101-b4d4cbb70a2f","system_id":"levelo_inurba_marseille","lat":43.29253,"lon":5.38454,"is_reserved":false,"is_disabled":false,"rental_uris":{"android":"levelo://app?vid=acc1d9ad-de67-4bcb-8101-b4d4cbb70a2f","ios":"levelo://app?vid=acc1d9ad-de67-4bcb-8101-b4d4cbb70a2f"},"vehicle_type_id":"4","last_reported":1774041653,"current_range_meters":3600,"station_id":"ce4bh692rcd13ifvqea0","pricing_plan_id":"cebpf4jnsgd1na2vs0mg"},{"bike_id":"26ce8e1f-db05-4ba0-acb9-cdbc5d3c8c0d","system_id":"levelo_inurba_marseille","lat":43.28471,"lon":5.38421,"is_reserved":false,"is_disabled":true,"rental_uris":{"android":"levelo://app?vid=26ce8e1f-db05-4ba0-acb9-cdbc5d3c8c0d","ios":"levelo://app?vid=26ce8e1f-db05-4ba0-acb9-cdbc5d3c8c0d"},"vehicle_type_id":"4","last_reported":1774041653,"current_range_meters":3600,"station_id":"ce4bh512rcd13ifvqe3g","pricing_plan_id":"cebpf4jnsgd1na2vs0mg"},{"bike_id":"6e50a54a-c657-4ef5-9339-4c225154dc0d","system_id":"levelo_inurba_marseille","lat":43.27916,"lon":5.42213,"is_reserved":false,"is_disabled":false,"rental_uris":{"android":"levelo://app?vid=6e50a54a-c657-4ef5-9339-4c225154dc0d","ios":"levelo://app?vid=6e50a54a-c657-4ef5-9339-4c225154dc0d"},"vehicle_type_id":"4","last_reported":1774041653,"current_range_meters":3600,"station_id":"","pricing_plan_id":"cebpf4jnsgd1na2vs0mg"},{"bike_id":"14e04f51-6012-47f2-a15a-594508b26271","system_id":"levelo_inurba_marseille","lat":43.27441,"lon":5.43672,"is_reserved":false,"is_disabled":false,"rental_uris":{"android":"levelo://app?vid=14e04f51-6012-47f2-a15a-594508b26271","ios":"levelo://app?vid=14e04f51-6012-47f2-a15a-594508b26271"},"vehicle_type_id":"4","last_reported":1774041653,"current_range_meters":3600,"station_id":"ce4bhk92rcd13ifvqgb0","pricing_plan_id":"cebpf4jnsgd1na2vs0mg"},{"bike_id":"6e5c9c0c-36df-4c39-8744-c5a43cee38c3","system_id":"levelo_inurba_marseille","lat":43.27941,"lon":5.41055,"is_reserved":false,"is_disabled":false,"rental_uris":{"android":"levelo://app?vid=6e5c9c0c-36df-4c39-8744-c5a43cee38c3","ios":"levelo://app?vid=6e5c9c0c-36df-4c39-8744-c5a43cee38c3"},"vehicle_type_id":"4","last_reported":1774041653,"current_range_meters":3600,"station_id":"ce4bhnp2rcd13ifvqh0g","pricing_plan_id":"cebpf4jnsgd1na2vs0mg"},{"bike_id":"3dd115cf-9577-4889-afa0-0aeda5ca4fae","system_id":"levelo_inurba_marseille","lat":43.28999,"lon":5.35611,"is_reserved":false,"is_disabled":true,"rental_uris":{"android":"levelo://app?vid=3dd115cf-9577-4889-afa0-0aeda5ca4fae","ios":"levelo://app?vid=3dd115cf-9577-4889-afa0-0aeda5ca4fae"},"vehicle_type_id":"4","last_reported":1774041653,"current_range_meters":3600,"station_id":"ce4bhb92rcd13ifvqen0","pricing_plan_id":"cebpf4jnsgd1na2vs0mg"},{"bike_id":"52d988a9-4106-4034-9ccf-07996999a50f","system_id":"levelo_inurba_marseille","lat":43.33595,"lon":5.41028,"is_reserved":false,"is_disabled":false,"rental_uris":{"android":"levelo://app?vid=52d988a9-4106-4034-9ccf-07996999a50f","ios":"levelo://app?vid=52d988a9-4106-4034-9ccf-07996999a50f"},"vehicle_type_id":"4","last_reported":1774041653,"current_range_meters":3600,"station_id":"ce4bhqh2rcd13ifvqhmg","pricing_plan_id":"cebpf4jnsgd1na2vs0mg"},{"bike_id":"ac37f631-a6af-438e-b5aa-4d0bf782d802","system_id":"levelo_inurba_marseille","lat":43.3043,"lon":5.38879,"is_reserved":false,"is_disabled":false,"rental_uris":{"android":"levelo://app?vid=ac37f631-a6af-438e-b5aa-4d0bf782d802","ios":"levelo://app?vid=ac37f631-a6af-438e-b5aa-4d0bf782d802"},"vehicle_type_id":"4","last_reported":1774041653,"current_range_meters":3600,"station_id":"ce4bgk12rcd13ifvqbi0","pricing_plan_id":"cebpf4jnsgd1na2vs0mg"},{"bike_id":"cc2b2e8b-fb1d-4616-8447-851c70af165a","system_id":"levelo_inurba_marseille","lat":43.29481,"lon":5.39741,"is_reserved":false,"is_disabled":true,"rental_uris":{"android":"levelo://app?vid=cc2b2e8b-fb1d-4616-8447-851c70af165a","ios":"levelo://app?vid=cc2b2e8b-fb1d-4616-8447-851c70af165a"},"vehicle_type_id":"4","last_reported":1774041653,"current_range_meters":4000,"station_id":"ce4bh3h2rcd13ifvqdo0","pricing_plan_id":"cebpf4jnsgd1na2vs0mg"},{"bike_id":"d4776486-3084-421f-968a-3d6e49dfba03","system_id":"levelo_inurba_marseille","lat":43.28534,"lon":5.44097,"is_reserved":false,"is_disabled":false,"rental_uris":{"android":"levelo://app?vid=d4776486-3084-421f-968a-3d6e49dfba03","ios":"levelo://app?vid=d4776486-3084-421f-968a-3d6e49dfba03"},"vehicle_type_id":"4","last_reported":1774041653,"current_range_meters":4000,"station_id":"st_d3j3df2ikq2c7380ej80","pricing_plan_id":"cebpf4jnsgd1na2vs0mg"},{"bike_id":"a0468db3-a6ee-4c27-b4cc-b8425f8ccbb9","system_id":"levelo_inurba_marseille","lat":43.29267,"lon":5.3845,"is_reserved":false,"is_disabled":false,"rental_uris":{"android":"levelo://app?vid=a0468db3-a6ee-4c27-b4cc-b8425f8ccbb9","ios":"levelo://app?vid=a0468db3-a6ee-4c27-b4cc-b8425f8ccbb9"},"vehicle_type_id":"4","last_reported":1774041653,"current_range_meters":4000,"station_id":"ce4bh692rcd13ifvqea0","pricing_plan_id":"cebpf4jnsgd1na2vs0mg"},{"bike_id":"addd9e53-bfde-4c2f-8c89-4a891b6a7add","system_id":"levelo_inurba_marseille","lat":43.31342,"lon":5.3792,"is_reserved":false,"is_disabled":false,"rental_uris":{"android":"levelo://app?vid=addd9e53-bfde-4c2f-8c89-4a891b6a7add","ios":"levelo://app?vid=addd9e53-bfde-4c2f-8c89-4a891b6a7add"},"vehicle_type_id":"4","last_reported":1774041653,"current_range_meters":4000,"station_id":"","pricing_plan_id":"cebpf4jnsgd1na2vs0mg"},{"bike_id":"172e8e6e-c941-4a85-8aff-a061f2ddbe2d","system_id":"levelo_inurba_marseille","lat":43.28473,"lon":5.35885,"is_reserved":false,"is_disabled":false,"rental_uris":{"android":"levelo://app?vid=172e8e6e-c941-4a85-8aff-a061f2ddbe2d","ios":"levelo://app?vid=172e8e6e-c941-4a85-8aff-a061f2ddbe2d"},"vehicle_type_id":"4","last_reported":1774041653,"current_range_meters":4000,"station_id":"ce4bhah2rcd13ifvqei0","pricing_plan_id":"cebpf4jnsgd1na2vs0mg"},{"bike_id":"ae8594e7-b6c0-438d-a254-3ca636cf4147","system_id":"levelo_inurba_marseille","lat":43.30304,"lon":5.39208,"is_reserved":false,"is_disabled":false,"rental_uris":{"android":"levelo://app?vid=ae8594e7-b6c0-438d-a254-3ca636cf4147","ios":"levelo://app?vid=ae8594e7-b6c0-438d-a254-3ca636cf4147"},"vehicle_type_id":"4","last_reported":1774041653,"current_range_meters":4000,"station_id":"ce4bgkh2rcd13ifvqbk0","pricing_plan_id":"cebpf4jnsgd1na2vs0mg"},{"bike_id":"d58aafab-54c5-439d-9d05-4f120f4236a4","system_id":"levelo_inurba_marseille","lat":43.25507,"lon":5.37653,"is_reserved":false,"is_disabled":false,"rental_uris":{"android":"levelo://app?vid=d58aafab-54c5-439d-9d05-4f120f4236a4","ios":"levelo://app?vid=d58aafab-54c5-439d-9d05-4f120f4236a4"},"vehicle_type_id":"4","last_reported":1774041653,"current_range_meters":4000,"station_id":"ce4bhh12rcd13ifvqff0","pricing_plan_id":"cebpf4jnsgd1na2vs0mg"},{"bike_id":"851438d0-cd22-4580-80ed-eaca7199e818","system_id":"levelo_inurba_marseille","lat":43.29907,"lon":5.37984,"is_reserved":false,"is_disabled":false,"rental_uris":{"android":"levelo://app?vid=851438d0-cd22-4580-80ed-eaca7199e818","ios":"levelo://app?vid=851438d0-cd22-4580-80ed-eaca7199e818"},"vehicle_type_id":"4","last_reported":1774041653,"current_range_meters":4000,"station_id":"","pricing_plan_id":"cebpf4jnsgd1na2vs0mg"},{"bike_id":"09c2457a-1b1f-4989-a1a6-bb0d58c4caef","system_id":"levelo_inurba_marseille","lat":43.29593,"lon":5.38114,"is_reserved":false,"is_disabled":false,"rental_uris":{"android":"levelo://app?vid=09c2457a-1b1f-4989-a1a6-bb0d58c4caef","ios":"levelo://app?vid=09c2457a-1b1f-4989-a1a6-bb0d58c4caef"},"vehicle_type_id":"4","last_reported":1774041653,"current_range_meters":4000,"station_id":"ce4bgl12rcd13ifvqbo0","pricing_plan_id":"cebpf4jnsgd1na2vs0mg"},{"bike_id":"62ff937e-689f-4def-8b0f-f0f7271c7beb","system_id":"levelo_inurba_marseille","lat":43.33542,"lon":5.37471,"is_reserved":false,"is_disabled":false,"rental_uris":{"android":"levelo://app?vid=62ff937e-689f-4def-8b0f-f0f7271c7beb","ios":"levelo://app?vid=62ff937e-689f-4def-8b0f-f0f7271c7beb"},"vehicle_type_id":"4","last_reported":1774041653,"current_range_meters":4000,"station_id":"st_d46tts09ee8s73dlu43g","pricing_plan_id":"cebpf4jnsgd1na2vs0mg"},{"bike_id":"c7e3a474-0497-4f6e-9ae6-ba0d89f6fff2","system_id":"levelo_inurba_marseille","lat":43.28433,"lon":5.39222,"is_reserved":false,"is_disabled":false,"rental_uris":{"android":"levelo://app?vid=c7e3a474-0497-4f6e-9ae6-ba0d89f6fff2","ios":"levelo://app?vid=c7e3a474-0497-4f6e-9ae6-ba0d89f6fff2"},"vehicle_type_id":"4","last_reported":1774041653,"current_range_meters":4000,"station_id":"ce4bhoh2rcd13ifvqh5g","pricing_plan_id":"cebpf4jnsgd1na2vs0mg"},{"bike_id":"5d3f2b71-b477-41f7-8cdf-8bc530c6de07","system_id":"levelo_inurba_marseille","lat":43.29964,"lon":5.38493,"is_reserved":false,"is_disabled":false,"rental_uris":{"android":"levelo://app?vid=5d3f2b71-b477-41f7-8cdf-8bc530c6de07","ios":"levelo://app?vid=5d3f2b71-b477-41f7-8cdf-8bc530c6de07"},"vehicle_type_id":"4","last_reported":1774041653,"current_range_meters":4000,"station_id":"ce4bgj92rcd13ifvqbd0","pricing_plan_id":"cebpf4jnsgd1na2vs0mg"},{"bike_id":"3ff905df-9cfc-4198-a321-86ecfaa87b21","system_id":"levelo_inurba_marseille","lat":43.29535,"lon":5.39028,"is_reserved":false,"is_disabled":false,"rental_uris":{"android":"levelo://app?vid=3ff905df-9cfc-4198-a321-86ecfaa87b21","ios":"levelo://app?vid=3ff905df-9cfc-4198-a321-86ecfaa87b21"},"vehicle_type_id":"4","last_reported":1774041653,"current_range_meters":4000,"station_id":"ce4bh3p2rcd13ifvqdp0","pricing_plan_id":"cebpf4jnsgd1na2vs0mg"},{"bike_id":"c64b48df-c4ec-47e1-b59c-2cdce0bb4060","system_id":"levelo_inurba_marseille","lat":43.29544,"lon":5.38555,"is_reserved":false,"is_disabled":false,"rental_uris":{"android":"levelo://app?vid=c64b48df-c4ec-47e1-b59c-2cdce0bb4060","ios":"levelo://app?vid=c64b48df-c4ec-47e1-b59c-2cdce0bb4060"},"vehicle_type_id":"4","last_reported":1774041653,"current_range_meters":4000,"station_id":"ce4bgih2rcd13ifvqba0","pricing_plan_id":"cebpf4jnsgd1na2vs0mg"},{"bike_id":"18652e1a-76d0-4d2c-9d53-6877d429b723","system_id":"levelo_inurba_marseille","lat":43.31339,"lon":5.39688,"is_reserved":false,"is_disabled":false,"rental_uris":{"android":"levelo://app?vid=18652e1a-76d0-4d2c-9d53-6877d429b723","ios":"levelo://app?vid=18652e1a-76d0-4d2c-9d53-6877d429b723"},"vehicle_type_id":"4","last_reported":1774041653,"current_range_meters":4000,"station_id":"ce4bgvp2rcd13ifvqcu0","pricing_plan_id":"cebpf4jnsgd1na2vs0mg"},{"bike_id":"51a5d3cf-46d4-4381-a3aa-e5708524a237","system_id":"levelo_inurba_marseille","lat":43.25833,"lon":5.39431,"is_reserved":false,"is_disabled":false,"rental_uris":{"android":"levelo://app?vid=51a5d3cf-46d4-4381-a3aa-e5708524a237","ios":"levelo://app?vid=51a5d3cf-46d4-4381-a3aa-e5708524a237"},"vehicle_type_id":"4","last_reported":1774041653,"current_range_meters":4000,"station_id":"ce4bhip2rcd13ifvqft0","pricing_plan_id":"cebpf4jnsgd1na2vs0mg"},{"bike_id":"b3c6ee7e-839e-47ca-8bd1-12618e78dd87","system_id":"levelo_inurba_marseille","lat":43.23964,"lon":5.36603,"is_reserved":false,"is_disabled":false,"rental_uris":{"android":"levelo://app?vid=b3c6ee7e-839e-47ca-8bd1-12618e78dd87","ios":"levelo://app?vid=b3c6ee7e-839e-47ca-8bd1-12618e78dd87"},"vehicle_type_id":"4","last_reported":1774041653,"current_range_meters":4000,"station_id":"ce4bhi12rcd13ifvqfp0","pricing_plan_id":"cebpf4jnsgd1na2vs0mg"},{"bike_id":"b14bb5e1-7882-4380-b389-98bb380dac81","system_id":"levelo_inurba_marseille","lat":43.2396,"lon":5.36628,"is_reserved":false,"is_disabled":false,"rental_uris":{"android":"levelo://app?vid=b14bb5e1-7882-4380-b389-98bb380dac81","ios":"levelo://app?vid=b14bb5e1-7882-4380-b389-98bb380dac81"},"vehicle_type_id":"4","last_reported":1774041653,"current_range_meters":4000,"station_id":"ce4bhi12rcd13ifvqfp0","pricing_plan_id":"cebpf4jnsgd1na2vs0mg"},{"bike_id":"994727e4-c816-412f-a7ed-9a624002e1f0","system_id":"levelo_inurba_marseille","lat":43.2756,"lon":5.38413,"is_reserved":false,"is_disabled":false,"rental_uris":{"android":"levelo://app?vid=994727e4-c816-412f-a7ed-9a624002e1f0","ios":"levelo://app?vid=994727e4-c816-412f-a7ed-9a624002e1f0"},"vehicle_type_id":"4","last_reported":1774041653,"current_range_meters":4400,"station_id":"ce4bhh92rcd13ifvqfi0","pricing_plan_id":"cebpf4jnsgd1na2vs0mg"},{"bike_id":"58a96077-ea6f-42e7-80e5-42d54c909067","system_id":"levelo_inurba_marseille","lat":43.29526,"lon":5.38547,"is_reserved":false,"is_disabled":false,"rental_uris":{"android":"levelo://app?vid=58a96077-ea6f-42e7-80e5-42d54c909067","ios":"levelo://app?vid=58a96077-ea6f-42e7-80e5-42d54c909067"},"vehicle_type_id":"4","last_reported":1774041653,"current_range_meters":4400,"station_id":"ce4bgih2rcd13ifvqba0","pricing_plan_id":"cebpf4jnsgd1na2vs0mg"},{"bike_id":"d3436185-52ce-4254-b111-184a25b8e49a","system_id":"levelo_inurba_marseille","lat":43.29025,"lon":5.38631,"is_reserved":false,"is_disabled":false,"rental_uris":{"android":"levelo://app?vid=d3436185-52ce-4254-b111-184a25b8e49a","ios":"levelo://app?vid=d3436185-52ce-4254-b111-184a25b8e49a"},"vehicle_type_id":"4","last_reported":1774041653,"current_range_meters":4400,"station_id":"ce4bh4p2rcd13ifvqe0g","pricing_plan_id":"cebpf4jnsgd1na2vs0mg"},{"bike_id":"a26bf25c-c77e-421f-b726-b955305a5bfb","system_id":"levelo_inurba_marseille","lat":43.318751,"lon":5.406086,"is_reserved":false,"is_disabled":false,"rental_uris":{"android":"levelo://app?vid=a26bf25c-c77e-421f-b726-b955305a5bfb","ios":"levelo://app?vid=a26bf25c-c77e-421f-b726-b955305a5bfb"},"vehicle_type_id":"4","last_reported":1774041653,"current_range_meters":4400,"station_id":"ce4bhq12rcd13ifvqhig","pricing_plan_id":"cebpf4jnsgd1na2vs0mg"},{"bike_id":"c403789f-54d1-498d-8a6f-0afb1901503e","system_id":"levelo_inurba_marseille","lat":43.29532,"lon":5.38541,"is_reserved":false,"is_disabled":false,"rental_uris":{"android":"levelo://app?vid=c403789f-54d1-498d-8a6f-0afb1901503e","ios":"levelo://app?vid=c403789f-54d1-498d-8a6f-0afb1901503e"},"vehicle_type_id":"4","last_reported":1774041653,"current_range_meters":4400,"station_id":"ce4bgih2rcd13ifvqba0","pricing_plan_id":"cebpf4jnsgd1na2vs0mg"},{"bike_id":"6a9ca49c-f0f4-4bcd-919e-ec1e27145b2c","system_id":"levelo_inurba_marseille","lat":43.29272,"lon":5.38425,"is_reserved":false,"is_disabled":false,"rental_uris":{"android":"levelo://app?vid=6a9ca49c-f0f4-4bcd-919e-ec1e27145b2c","ios":"levelo://app?vid=6a9ca49c-f0f4-4bcd-919e-ec1e27145b2c"},"vehicle_type_id":"4","last_reported":1774041653,"current_range_meters":4400,"station_id":"ce4bh692rcd13ifvqea0","pricing_plan_id":"cebpf4jnsgd1na2vs0mg"},{"bike_id":"72b77c48-0199-4da7-b2bd-61018905b01d","system_id":"levelo_inurba_marseille","lat":43.27207,"lon":5.39196,"is_reserved":false,"is_disabled":false,"rental_uris":{"android":"levelo://app?vid=72b77c48-0199-4da7-b2bd-61018905b01d","ios":"levelo://app?vid=72b77c48-0199-4da7-b2bd-61018905b01d"},"vehicle_type_id":"4","last_reported":1774041653,"current_range_meters":4400,"station_id":"ce4bhhp2rcd13ifvqfm0","pricing_plan_id":"cebpf4jnsgd1na2vs0mg"},{"bike_id":"6b596f47-5f2b-41a1-ba8e-cc3c7bac807e","system_id":"levelo_inurba_marseille","lat":43.22918,"lon":5.35312,"is_reserved":false,"is_disabled":false,"rental_uris":{"android":"levelo://app?vid=6b596f47-5f2b-41a1-ba8e-cc3c7bac807e","ios":"levelo://app?vid=6b596f47-5f2b-41a1-ba8e-cc3c7bac807e"},"vehicle_type_id":"4","last_reported":1774041653,"current_range_meters":4400,"station_id":"cpo3532slgdg3j2ikp40","pricing_plan_id":"cebpf4jnsgd1na2vs0mg"},{"bike_id":"5e32a84a-9632-4d68-a676-0db8488c8cec","system_id":"levelo_inurba_marseille","lat":43.30421,"lon":5.38893,"is_reserved":false,"is_disabled":false,"rental_uris":{"android":"levelo://app?vid=5e32a84a-9632-4d68-a676-0db8488c8cec","ios":"levelo://app?vid=5e32a84a-9632-4d68-a676-0db8488c8cec"},"vehicle_type_id":"4","last_reported":1774041653,"current_range_meters":4400,"station_id":"ce4bgk12rcd13ifvqbi0","pricing_plan_id":"cebpf4jnsgd1na2vs0mg"},{"bike_id":"7ca42abf-10c8-4a42-940f-cf2bacf786b1","system_id":"levelo_inurba_marseille","lat":43.29258,"lon":5.38446,"is_reserved":false,"is_disabled":false,"rental_uris":{"android":"levelo://app?vid=7ca42abf-10c8-4a42-940f-cf2bacf786b1","ios":"levelo://app?vid=7ca42abf-10c8-4a42-940f-cf2bacf786b1"},"vehicle_type_id":"4","last_reported":1774041653,"current_range_meters":4400,"station_id":"ce4bh692rcd13ifvqea0","pricing_plan_id":"cebpf4jnsgd1na2vs0mg"},{"bike_id":"e08d225b-8f4a-4ce0-895d-d9f7f842408c","system_id":"levelo_inurba_marseille","lat":43.24163,"lon":5.36399,"is_reserved":false,"is_disabled":false,"rental_uris":{"android":"levelo://app?vid=e08d225b-8f4a-4ce0-895d-d9f7f842408c","ios":"levelo://app?vid=e08d225b-8f4a-4ce0-895d-d9f7f842408c"},"vehicle_type_id":"4","last_reported":1774041653,"current_range_meters":4400,"station_id":"cpo36qri1sfpv3e86is0","pricing_plan_id":"cebpf4jnsgd1na2vs0mg"},{"bike_id":"938f5b2b-699a-47ff-8381-c70adbd93b65","system_id":"levelo_inurba_marseille","lat":43.29781,"lon":5.37104,"is_reserved":false,"is_disabled":true,"rental_uris":{"android":"levelo://app?vid=938f5b2b-699a-47ff-8381-c70adbd93b65","ios":"levelo://app?vid=938f5b2b-699a-47ff-8381-c70adbd93b65"},"vehicle_type_id":"4","last_reported":1774041653,"current_range_meters":4400,"station_id":"ce4bgop2rcd13ifvqc1g","pricing_plan_id":"cebpf4jnsgd1na2vs0mg"},{"bike_id":"286ecc91-d145-493f-a0d1-839c5d1aa125","system_id":"levelo_inurba_marseille","lat":43.2954,"lon":5.38542,"is_reserved":false,"is_disabled":false,"rental_uris":{"android":"levelo://app?vid=286ecc91-d145-493f-a0d1-839c5d1aa125","ios":"levelo://app?vid=286ecc91-d145-493f-a0d1-839c5d1aa125"},"vehicle_type_id":"4","last_reported":1774041653,"current_range_meters":4400,"station_id":"ce4bgih2rcd13ifvqba0","pricing_plan_id":"cebpf4jnsgd1na2vs0mg"},{"bike_id":"d16b4f5e-9b9d-4635-b7ab-14fa4ff08f4b","system_id":"levelo_inurba_marseille","lat":43.24647,"lon":5.43167,"is_reserved":false,"is_disabled":false,"rental_uris":{"android":"levelo://app?vid=d16b4f5e-9b9d-4635-b7ab-14fa4ff08f4b","ios":"levelo://app?vid=d16b4f5e-9b9d-4635-b7ab-14fa4ff08f4b"},"vehicle_type_id":"4","last_reported":1774041653,"current_range_meters":4400,"station_id":"","pricing_plan_id":"cebpf4jnsgd1na2vs0mg"},{"bike_id":"0ed38292-ab19-4024-944a-2b648c0fb4df","system_id":"levelo_inurba_marseille","lat":43.29126,"lon":5.38464,"is_reserved":false,"is_disabled":false,"rental_uris":{"android":"levelo://app?vid=0ed38292-ab19-4024-944a-2b648c0fb4df","ios":"levelo://app?vid=0ed38292-ab19-4024-944a-2b648c0fb4df"},"vehicle_type_id":"4","last_reported":1774041653,"current_range_meters":4400,"station_id":"","pricing_plan_id":"cebpf4jnsgd1na2vs0mg"},{"bike_id":"3bcd3f37-7909-4e8a-be03-a9562a2c0e45","system_id":"levelo_inurba_marseille","lat":43.28476,"lon":5.48396,"is_reserved":false,"is_disabled":false,"rental_uris":{"android":"levelo://app?vid=3bcd3f37-7909-4e8a-be03-a9562a2c0e45","ios":"levelo://app?vid=3bcd3f37-7909-4e8a-be03-a9562a2c0e45"},"vehicle_type_id":"4","last_reported":1774041653,"current_range_meters":4800,"station_id":"","pricing_plan_id":"cebpf4jnsgd1na2vs0mg"},{"bike_id":"384adf8d-e4b9-484e-90c8-9ffde0b1cce8","system_id":"levelo_inurba_marseille","lat":43.29557,"lon":5.38518,"is_reserved":false,"is_disabled":false,"rental_uris":{"android":"levelo://app?vid=384adf8d-e4b9-484e-90c8-9ffde0b1cce8","ios":"levelo://app?vid=384adf8d-e4b9-484e-90c8-9ffde0b1cce8"},"vehicle_type_id":"4","last_reported":1774041653,"current_range_meters":4800,"station_id":"ce4bgih2rcd13ifvqba0","pricing_plan_id":"cebpf4jnsgd1na2vs0mg"},{"bike_id":"5b01deff-913c-411c-8cf9-6c8d6b002af3","system_id":"levelo_inurba_marseille","lat":43.2794,"lon":5.41045,"is_reserved":false,"is_disabled":false,"rental_uris":{"android":"levelo://app?vid=5b01deff-913c-411c-8cf9-6c8d6b002af3","ios":"levelo://app?vid=5b01deff-913c-411c-8cf9-6c8d6b002af3"},"vehicle_type_id":"4","last_reported":1774041653,"current_range_meters":4800,"station_id":"ce4bhnp2rcd13ifvqh0g","pricing_plan_id":"cebpf4jnsgd1na2vs0mg"},{"bike_id":"6f80791c-cd2c-499f-a197-0ad16dc3e7a9","system_id":"levelo_inurba_marseille","lat":43.29797,"lon":5.38094,"is_reserved":false,"is_disabled":false,"rental_uris":{"android":"levelo://app?vid=6f80791c-cd2c-499f-a197-0ad16dc3e7a9","ios":"levelo://app?vid=6f80791c-cd2c-499f-a197-0ad16dc3e7a9"},"vehicle_type_id":"4","last_reported":1774041653,"current_range_meters":4800,"station_id":"ce4bgip2rcd13ifvqbb0","pricing_plan_id":"cebpf4jnsgd1na2vs0mg"},{"bike_id":"1a8ebb2b-7a3b-4487-943b-40d4947ef355","system_id":"levelo_inurba_marseille","lat":43.31719,"lon":5.42397,"is_reserved":false,"is_disabled":false,"rental_uris":{"android":"levelo://app?vid=1a8ebb2b-7a3b-4487-943b-40d4947ef355","ios":"levelo://app?vid=1a8ebb2b-7a3b-4487-943b-40d4947ef355"},"vehicle_type_id":"4","last_reported":1774041653,"current_range_meters":4800,"station_id":"ce4bhp92rcd13ifvqhbg","pricing_plan_id":"cebpf4jnsgd1na2vs0mg"},{"bike_id":"524e23bd-dc82-419d-b67e-57370b63f793","system_id":"levelo_inurba_marseille","lat":43.299638,"lon":5.384927,"is_reserved":false,"is_disabled":false,"rental_uris":{"android":"levelo://app?vid=524e23bd-dc82-419d-b67e-57370b63f793","ios":"levelo://app?vid=524e23bd-dc82-419d-b67e-57370b63f793"},"vehicle_type_id":"4","last_reported":1774041653,"current_range_meters":4800,"station_id":"ce4bgj92rcd13ifvqbd0","pricing_plan_id":"cebpf4jnsgd1na2vs0mg"},{"bike_id":"130fb92b-9d5d-4d89-affa-d9008e4a024a","system_id":"levelo_inurba_marseille","lat":43.28563,"lon":5.39504,"is_reserved":false,"is_disabled":false,"rental_uris":{"android":"levelo://app?vid=130fb92b-9d5d-4d89-affa-d9008e4a024a","ios":"levelo://app?vid=130fb92b-9d5d-4d89-affa-d9008e4a024a"},"vehicle_type_id":"4","last_reported":1774041653,"current_range_meters":4800,"station_id":"ce4bh292rcd13ifvqdg0","pricing_plan_id":"cebpf4jnsgd1na2vs0mg"},{"bike_id":"d725c900-b9f2-4885-bb5e-2c21a6be4955","system_id":"levelo_inurba_marseille","lat":43.29229,"lon":5.38458,"is_reserved":false,"is_disabled":false,"rental_uris":{"android":"levelo://app?vid=d725c900-b9f2-4885-bb5e-2c21a6be4955","ios":"levelo://app?vid=d725c900-b9f2-4885-bb5e-2c21a6be4955"},"vehicle_type_id":"4","last_reported":1774041653,"current_range_meters":4800,"station_id":"ce4bh692rcd13ifvqea0","pricing_plan_id":"cebpf4jnsgd1na2vs0mg"},{"bike_id":"6389be8a-ff79-4f18-9b0e-a4ccd37c7fc6","system_id":"levelo_inurba_marseille","lat":43.30203,"lon":5.39464,"is_reserved":false,"is_disabled":false,"rental_uris":{"android":"levelo://app?vid=6389be8a-ff79-4f18-9b0e-a4ccd37c7fc6","ios":"levelo://app?vid=6389be8a-ff79-4f18-9b0e-a4ccd37c7fc6"},"vehicle_type_id":"4","last_reported":1774041653,"current_range_meters":4800,"station_id":"ce4bgn92rcd13ifvqbvg","pricing_plan_id":"cebpf4jnsgd1na2vs0mg"},{"bike_id":"f510aab5-c125-407f-aeb0-e610c0cdfef8","system_id":"levelo_inurba_marseille","lat":43.23783,"lon":5.36618,"is_reserved":false,"is_disabled":false,"rental_uris":{"android":"levelo://app?vid=f510aab5-c125-407f-aeb0-e610c0cdfef8","ios":"levelo://app?vid=f510aab5-c125-407f-aeb0-e610c0cdfef8"},"vehicle_type_id":"4","last_reported":1774041653,"current_range_meters":4800,"station_id":"st_d3nk18o9ro0c73en2l3g","pricing_plan_id":"cebpf4jnsgd1na2vs0mg"},{"bike_id":"6528eebf-5319-49e7-ac0e-054aadd64ddf","system_id":"levelo_inurba_marseille","lat":43.27284,"lon":5.39123,"is_reserved":false,"is_disabled":true,"rental_uris":{"android":"levelo://app?vid=6528eebf-5319-49e7-ac0e-054aadd64ddf","ios":"levelo://app?vid=6528eebf-5319-49e7-ac0e-054aadd64ddf"},"vehicle_type_id":"4","last_reported":1774041653,"current_range_meters":4800,"station_id":"","pricing_plan_id":"cebpf4jnsgd1na2vs0mg"},{"bike_id":"c6b20400-3641-48f3-b609-b110a5527d07","system_id":"levelo_inurba_marseille","lat":43.22567,"lon":5.41636,"is_reserved":false,"is_disabled":false,"rental_uris":{"android":"levelo://app?vid=c6b20400-3641-48f3-b609-b110a5527d07","ios":"levelo://app?vid=c6b20400-3641-48f3-b609-b110a5527d07"},"vehicle_type_id":"4","last_reported":1774041653,"current_range_meters":5600,"station_id":"st_d2o4gvlbi1j2169b742g","pricing_plan_id":"cebpf4jnsgd1na2vs0mg"},{"bike_id":"0fc939da-6f49-4043-9a62-2b1b4104b394","system_id":"levelo_inurba_marseille","lat":43.30576,"lon":5.39331,"is_reserved":false,"is_disabled":false,"rental_uris":{"android":"levelo://app?vid=0fc939da-6f49-4043-9a62-2b1b4104b394","ios":"levelo://app?vid=0fc939da-6f49-4043-9a62-2b1b4104b394"},"vehicle_type_id":"4","last_reported":1774041653,"current_range_meters":5600,"station_id":"ce4bh0p2rcd13ifvqd80","pricing_plan_id":"cebpf4jnsgd1na2vs0mg"},{"bike_id":"c2eb5523-d809-4755-b92b-20e60964cc5a","system_id":"levelo_inurba_marseille","lat":43.28849,"lon":5.39333,"is_reserved":false,"is_disabled":false,"rental_uris":{"android":"levelo://app?vid=c2eb5523-d809-4755-b92b-20e60964cc5a","ios":"levelo://app?vid=c2eb5523-d809-4755-b92b-20e60964cc5a"},"vehicle_type_id":"4","last_reported":1774041653,"current_range_meters":5600,"station_id":"ce4bh2p2rcd13ifvqdi0","pricing_plan_id":"cebpf4jnsgd1na2vs0mg"},{"bike_id":"cfd7f779-6e1f-41b4-bfe4-0da5f5789300","system_id":"levelo_inurba_marseille","lat":43.23964,"lon":5.36624,"is_reserved":false,"is_disabled":false,"rental_uris":{"android":"levelo://app?vid=cfd7f779-6e1f-41b4-bfe4-0da5f5789300","ios":"levelo://app?vid=cfd7f779-6e1f-41b4-bfe4-0da5f5789300"},"vehicle_type_id":"4","last_reported":1774041653,"current_range_meters":5600,"station_id":"ce4bhi12rcd13ifvqfp0","pricing_plan_id":"cebpf4jnsgd1na2vs0mg"},{"bike_id":"5201580a-caa7-4e1e-a770-f01b1ddaf456","system_id":"levelo_inurba_marseille","lat":43.281909,"lon":5.351266,"is_reserved":false,"is_disabled":false,"rental_uris":{"android":"levelo://app?vid=5201580a-caa7-4e1e-a770-f01b1ddaf456","ios":"levelo://app?vid=5201580a-caa7-4e1e-a770-f01b1ddaf456"},"vehicle_type_id":"4","last_reported":1774041653,"current_range_meters":5600,"station_id":"ce4bhbh2rcd13ifvqeo0","pricing_plan_id":"cebpf4jnsgd1na2vs0mg"},{"bike_id":"e7d52348-570a-4440-8818-e57d451e3dc2","system_id":"levelo_inurba_marseille","lat":43.292612,"lon":5.384293,"is_reserved":false,"is_disabled":false,"rental_uris":{"android":"levelo://app?vid=e7d52348-570a-4440-8818-e57d451e3dc2","ios":"levelo://app?vid=e7d52348-570a-4440-8818-e57d451e3dc2"},"vehicle_type_id":"4","last_reported":1774041653,"current_range_meters":5600,"station_id":"ce4bh692rcd13ifvqea0","pricing_plan_id":"cebpf4jnsgd1na2vs0mg"},{"bike_id":"ba2f8fd0-11ac-4347-b470-23519177c832","system_id":"levelo_inurba_marseille","lat":43.29812,"lon":5.44068,"is_reserved":false,"is_disabled":false,"rental_uris":{"android":"levelo://app?vid=ba2f8fd0-11ac-4347-b470-23519177c832","ios":"levelo://app?vid=ba2f8fd0-11ac-4347-b470-23519177c832"},"vehicle_type_id":"4","last_reported":1774041653,"current_range_meters":5600,"station_id":"st_d3jp68qikq2c7381ktn0","pricing_plan_id":"cebpf4jnsgd1na2vs0mg"},{"bike_id":"3c76fb79-92b3-4803-a35d-7a9a81d21794","system_id":"levelo_inurba_marseille","lat":43.22942,"lon":5.35357,"is_reserved":false,"is_disabled":false,"rental_uris":{"android":"levelo://app?vid=3c76fb79-92b3-4803-a35d-7a9a81d21794","ios":"levelo://app?vid=3c76fb79-92b3-4803-a35d-7a9a81d21794"},"vehicle_type_id":"4","last_reported":1774041653,"current_range_meters":5600,"station_id":"cpo3532slgdg3j2ikp40","pricing_plan_id":"cebpf4jnsgd1na2vs0mg"},{"bike_id":"ad824871-f26f-43d5-989f-be12666e5434","system_id":"levelo_inurba_marseille","lat":43.3044,"lon":5.38909,"is_reserved":false,"is_disabled":false,"rental_uris":{"android":"levelo://app?vid=ad824871-f26f-43d5-989f-be12666e5434","ios":"levelo://app?vid=ad824871-f26f-43d5-989f-be12666e5434"},"vehicle_type_id":"4","last_reported":1774041653,"current_range_meters":5600,"station_id":"ce4bgk12rcd13ifvqbi0","pricing_plan_id":"cebpf4jnsgd1na2vs0mg"},{"bike_id":"8cce7d2e-730d-4e01-b1ce-981f589be696","system_id":"levelo_inurba_marseille","lat":43.31693,"lon":5.43686,"is_reserved":false,"is_disabled":false,"rental_uris":{"android":"levelo://app?vid=8cce7d2e-730d-4e01-b1ce-981f589be696","ios":"levelo://app?vid=8cce7d2e-730d-4e01-b1ce-981f589be696"},"vehicle_type_id":"4","last_reported":1774041653,"current_range_meters":5600,"station_id":"ce4bhp92rcd13ifvqhcg","pricing_plan_id":"cebpf4jnsgd1na2vs0mg"},{"bike_id":"c48440d7-f4d5-4be3-a842-7dc1a317748e","system_id":"levelo_inurba_marseille","lat":43.33945,"lon":5.35721,"is_reserved":false,"is_disabled":false,"rental_uris":{"android":"levelo://app?vid=c48440d7-f4d5-4be3-a842-7dc1a317748e","ios":"levelo://app?vid=c48440d7-f4d5-4be3-a842-7dc1a317748e"},"vehicle_type_id":"4","last_reported":1774041653,"current_range_meters":5600,"station_id":"","pricing_plan_id":"cebpf4jnsgd1na2vs0mg"},{"bike_id":"c0af0d2d-ef19-456a-8a0f-587d767ce3c1","system_id":"levelo_inurba_marseille","lat":43.28929,"lon":5.36639,"is_reserved":false,"is_disabled":false,"rental_uris":{"android":"levelo://app?vid=c0af0d2d-ef19-456a-8a0f-587d767ce3c1","ios":"levelo://app?vid=c0af0d2d-ef19-456a-8a0f-587d767ce3c1"},"vehicle_type_id":"4","last_reported":1774041653,"current_range_meters":6000,"station_id":"ce4bhap2rcd13ifvqek0","pricing_plan_id":"cebpf4jnsgd1na2vs0mg"},{"bike_id":"54b5947b-2df4-40d8-9aae-0c3baf7810d3","system_id":"levelo_inurba_marseille","lat":43.29528,"lon":5.38545,"is_reserved":false,"is_disabled":false,"rental_uris":{"android":"levelo://app?vid=54b5947b-2df4-40d8-9aae-0c3baf7810d3","ios":"levelo://app?vid=54b5947b-2df4-40d8-9aae-0c3baf7810d3"},"vehicle_type_id":"4","last_reported":1774041653,"current_range_meters":6000,"station_id":"ce4bgih2rcd13ifvqba0","pricing_plan_id":"cebpf4jnsgd1na2vs0mg"},{"bike_id":"ac4ca0f2-f5c2-4c9c-81db-9f7b20e89d0c","system_id":"levelo_inurba_marseille","lat":43.28538,"lon":5.44108,"is_reserved":false,"is_disabled":true,"rental_uris":{"android":"levelo://app?vid=ac4ca0f2-f5c2-4c9c-81db-9f7b20e89d0c","ios":"levelo://app?vid=ac4ca0f2-f5c2-4c9c-81db-9f7b20e89d0c"},"vehicle_type_id":"4","last_reported":1774041653,"current_range_meters":6000,"station_id":"st_d3j3df2ikq2c7380ej80","pricing_plan_id":"cebpf4jnsgd1na2vs0mg"},{"bike_id":"6ed5a050-03b8-428f-a90d-7322e427cc5d","system_id":"levelo_inurba_marseille","lat":43.30956,"lon":5.39053,"is_reserved":false,"is_disabled":false,"rental_uris":{"android":"levelo://app?vid=6ed5a050-03b8-428f-a90d-7322e427cc5d","ios":"levelo://app?vid=6ed5a050-03b8-428f-a90d-7322e427cc5d"},"vehicle_type_id":"4","last_reported":1774041653,"current_range_meters":6000,"station_id":"ce4bgup2rcd13ifvqco0","pricing_plan_id":"cebpf4jnsgd1na2vs0mg"},{"bike_id":"eb16a777-6452-4a3d-82a8-3665e2ca5ee1","system_id":"levelo_inurba_marseille","lat":43.2903,"lon":5.38647,"is_reserved":false,"is_disabled":false,"rental_uris":{"android":"levelo://app?vid=eb16a777-6452-4a3d-82a8-3665e2ca5ee1","ios":"levelo://app?vid=eb16a777-6452-4a3d-82a8-3665e2ca5ee1"},"vehicle_type_id":"4","last_reported":1774041653,"current_range_meters":6000,"station_id":"ce4bh4p2rcd13ifvqe0g","pricing_plan_id":"cebpf4jnsgd1na2vs0mg"},{"bike_id":"31caa62d-cb2c-42fd-aa8e-1e9ca230fd55","system_id":"levelo_inurba_marseille","lat":43.28023,"lon":5.36949,"is_reserved":false,"is_disabled":false,"rental_uris":{"android":"levelo://app?vid=31caa62d-cb2c-42fd-aa8e-1e9ca230fd55","ios":"levelo://app?vid=31caa62d-cb2c-42fd-aa8e-1e9ca230fd55"},"vehicle_type_id":"4","last_reported":1774041653,"current_range_meters":6000,"station_id":"ce4bha12rcd13ifvqef0","pricing_plan_id":"cebpf4jnsgd1na2vs0mg"},{"bike_id":"ea98c126-ecbf-4f2c-9bc3-d44b4729d199","system_id":"levelo_inurba_marseille","lat":43.31258,"lon":5.41334,"is_reserved":false,"is_disabled":false,"rental_uris":{"android":"levelo://app?vid=ea98c126-ecbf-4f2c-9bc3-d44b4729d199","ios":"levelo://app?vid=ea98c126-ecbf-4f2c-9bc3-d44b4729d199"},"vehicle_type_id":"4","last_reported":1774041653,"current_range_meters":6000,"station_id":"","pricing_plan_id":"cebpf4jnsgd1na2vs0mg"},{"bike_id":"f35291ea-a517-45e6-bccf-54011aa5a0ff","system_id":"levelo_inurba_marseille","lat":43.28012,"lon":5.3694,"is_reserved":false,"is_disabled":false,"rental_uris":{"android":"levelo://app?vid=f35291ea-a517-45e6-bccf-54011aa5a0ff","ios":"levelo://app?vid=f35291ea-a517-45e6-bccf-54011aa5a0ff"},"vehicle_type_id":"4","last_reported":1774041653,"current_range_meters":6000,"station_id":"ce4bha12rcd13ifvqef0","pricing_plan_id":"cebpf4jnsgd1na2vs0mg"},{"bike_id":"119d24bc-e3dd-4e47-a0b9-64bbbcc5b1ee","system_id":"levelo_inurba_marseille","lat":43.21739,"lon":5.34624,"is_reserved":false,"is_disabled":true,"rental_uris":{"android":"levelo://app?vid=119d24bc-e3dd-4e47-a0b9-64bbbcc5b1ee","ios":"levelo://app?vid=119d24bc-e3dd-4e47-a0b9-64bbbcc5b1ee"},"vehicle_type_id":"4","last_reported":1774041653,"current_range_meters":6000,"station_id":"st_cvj6r9ubvosntc0bgbag","pricing_plan_id":"cebpf4jnsgd1na2vs0mg"},{"bike_id":"3d18bcea-12d0-49b7-b6ec-28e0853ad909","system_id":"levelo_inurba_marseille","lat":43.29526,"lon":5.38535,"is_reserved":false,"is_disabled":false,"rental_uris":{"android":"levelo://app?vid=3d18bcea-12d0-49b7-b6ec-28e0853ad909","ios":"levelo://app?vid=3d18bcea-12d0-49b7-b6ec-28e0853ad909"},"vehicle_type_id":"4","last_reported":1774041653,"current_range_meters":6000,"station_id":"ce4bgih2rcd13ifvqba0","pricing_plan_id":"cebpf4jnsgd1na2vs0mg"},{"bike_id":"29705345-7a8e-4bdd-8b65-5ba8856c877f","system_id":"levelo_inurba_marseille","lat":43.30288,"lon":5.44948,"is_reserved":false,"is_disabled":false,"rental_uris":{"android":"levelo://app?vid=29705345-7a8e-4bdd-8b65-5ba8856c877f","ios":"levelo://app?vid=29705345-7a8e-4bdd-8b65-5ba8856c877f"},"vehicle_type_id":"4","last_reported":1774041653,"current_range_meters":6000,"station_id":"","pricing_plan_id":"cebpf4jnsgd1na2vs0mg"},{"bike_id":"a41de53c-a6b7-4218-a883-add34022c124","system_id":"levelo_inurba_marseille","lat":43.24814,"lon":5.37465,"is_reserved":false,"is_disabled":false,"rental_uris":{"android":"levelo://app?vid=a41de53c-a6b7-4218-a883-add34022c124","ios":"levelo://app?vid=a41de53c-a6b7-4218-a883-add34022c124"},"vehicle_type_id":"4","last_reported":1774041653,"current_range_meters":6000,"station_id":"ce4bhgh2rcd13ifvqfb0","pricing_plan_id":"cebpf4jnsgd1na2vs0mg"},{"bike_id":"428ffd06-b4c4-423f-b91b-d51225a48c2d","system_id":"levelo_inurba_marseille","lat":43.26387,"lon":5.41068,"is_reserved":false,"is_disabled":false,"rental_uris":{"android":"levelo://app?vid=428ffd06-b4c4-423f-b91b-d51225a48c2d","ios":"levelo://app?vid=428ffd06-b4c4-423f-b91b-d51225a48c2d"},"vehicle_type_id":"4","last_reported":1774041653,"current_range_meters":6000,"station_id":"st_d4e5ca6na9uc73bfl5fg","pricing_plan_id":"cebpf4jnsgd1na2vs0mg"},{"bike_id":"6af48b78-9264-46e8-acef-b91c65aa129d","system_id":"levelo_inurba_marseille","lat":43.29254,"lon":5.38437,"is_reserved":false,"is_disabled":false,"rental_uris":{"android":"levelo://app?vid=6af48b78-9264-46e8-acef-b91c65aa129d","ios":"levelo://app?vid=6af48b78-9264-46e8-acef-b91c65aa129d"},"vehicle_type_id":"4","last_reported":1774041653,"current_range_meters":6000,"station_id":"ce4bh692rcd13ifvqea0","pricing_plan_id":"cebpf4jnsgd1na2vs0mg"},{"bike_id":"23c209c6-7d3c-4387-b04a-03a2b9a72d01","system_id":"levelo_inurba_marseille","lat":43.28354,"lon":5.43278,"is_reserved":false,"is_disabled":false,"rental_uris":{"android":"levelo://app?vid=23c209c6-7d3c-4387-b04a-03a2b9a72d01","ios":"levelo://app?vid=23c209c6-7d3c-4387-b04a-03a2b9a72d01"},"vehicle_type_id":"4","last_reported":1774041653,"current_range_meters":6000,"station_id":"","pricing_plan_id":"cebpf4jnsgd1na2vs0mg"},{"bike_id":"a8676dec-714d-4196-8ee5-c630f314ac31","system_id":"levelo_inurba_marseille","lat":43.29241,"lon":5.38442,"is_reserved":false,"is_disabled":false,"rental_uris":{"android":"levelo://app?vid=a8676dec-714d-4196-8ee5-c630f314ac31","ios":"levelo://app?vid=a8676dec-714d-4196-8ee5-c630f314ac31"},"vehicle_type_id":"4","last_reported":1774041653,"current_range_meters":6000,"station_id":"ce4bh692rcd13ifvqea0","pricing_plan_id":"cebpf4jnsgd1na2vs0mg"},{"bike_id":"74ebb480-171b-43e5-b0fc-ba46b71dee8d","system_id":"levelo_inurba_marseille","lat":43.25331,"lon":5.42174,"is_reserved":false,"is_disabled":true,"rental_uris":{"android":"levelo://app?vid=74ebb480-171b-43e5-b0fc-ba46b71dee8d","ios":"levelo://app?vid=74ebb480-171b-43e5-b0fc-ba46b71dee8d"},"vehicle_type_id":"4","last_reported":1774041653,"current_range_meters":6000,"station_id":"st_d2m65c5bi1j21697t3ng","pricing_plan_id":"cebpf4jnsgd1na2vs0mg"},{"bike_id":"c2440210-13d0-4065-abd2-c19adec3109c","system_id":"levelo_inurba_marseille","lat":43.29959,"lon":5.37178,"is_reserved":false,"is_disabled":false,"rental_uris":{"android":"levelo://app?vid=c2440210-13d0-4065-abd2-c19adec3109c","ios":"levelo://app?vid=c2440210-13d0-4065-abd2-c19adec3109c"},"vehicle_type_id":"4","last_reported":1774041653,"current_range_meters":6000,"station_id":"ce4bgr92rcd13ifvqc7g","pricing_plan_id":"cebpf4jnsgd1na2vs0mg"},{"bike_id":"8c397955-edba-42df-9dfa-9ba38f0d58e7","system_id":"levelo_inurba_marseille","lat":43.2925,"lon":5.3843,"is_reserved":false,"is_disabled":false,"rental_uris":{"android":"levelo://app?vid=8c397955-edba-42df-9dfa-9ba38f0d58e7","ios":"levelo://app?vid=8c397955-edba-42df-9dfa-9ba38f0d58e7"},"vehicle_type_id":"4","last_reported":1774041653,"current_range_meters":6000,"station_id":"ce4bh692rcd13ifvqea0","pricing_plan_id":"cebpf4jnsgd1na2vs0mg"},{"bike_id":"2f25180c-d604-427d-a094-e0c4d1040987","system_id":"levelo_inurba_marseille","lat":43.29257,"lon":5.38445,"is_reserved":false,"is_disabled":false,"rental_uris":{"android":"levelo://app?vid=2f25180c-d604-427d-a094-e0c4d1040987","ios":"levelo://app?vid=2f25180c-d604-427d-a094-e0c4d1040987"},"vehicle_type_id":"4","last_reported":1774041653,"current_range_meters":6000,"station_id":"ce4bh692rcd13ifvqea0","pricing_plan_id":"cebpf4jnsgd1na2vs0mg"},{"bike_id":"d44c6574-122e-43bf-9f21-976a0ac86204","system_id":"levelo_inurba_marseille","lat":43.23149,"lon":5.43717,"is_reserved":false,"is_disabled":false,"rental_uris":{"android":"levelo://app?vid=d44c6574-122e-43bf-9f21-976a0ac86204","ios":"levelo://app?vid=d44c6574-122e-43bf-9f21-976a0ac86204"},"vehicle_type_id":"4","last_reported":1774041653,"current_range_meters":6400,"station_id":"ce4bhmp2rcd13ifvqgog","pricing_plan_id":"cebpf4jnsgd1na2vs0mg"},{"bike_id":"69764ffb-a2a8-40c2-b881-193bb8aef64e","system_id":"levelo_inurba_marseille","lat":43.29165,"lon":5.37149,"is_reserved":false,"is_disabled":false,"rental_uris":{"android":"levelo://app?vid=69764ffb-a2a8-40c2-b881-193bb8aef64e","ios":"levelo://app?vid=69764ffb-a2a8-40c2-b881-193bb8aef64e"},"vehicle_type_id":"4","last_reported":1774041653,"current_range_meters":6400,"station_id":"ce4bha92rcd13ifvqeh0","pricing_plan_id":"cebpf4jnsgd1na2vs0mg"},{"bike_id":"5c37a49c-ab60-4c11-8a61-6592ff444186","system_id":"levelo_inurba_marseille","lat":43.27908,"lon":5.39175,"is_reserved":false,"is_disabled":false,"rental_uris":{"android":"levelo://app?vid=5c37a49c-ab60-4c11-8a61-6592ff444186","ios":"levelo://app?vid=5c37a49c-ab60-4c11-8a61-6592ff444186"},"vehicle_type_id":"4","last_reported":1774041653,"current_range_meters":6400,"station_id":"","pricing_plan_id":"cebpf4jnsgd1na2vs0mg"},{"bike_id":"d99c0162-f6d1-4d2c-acef-490ddcd63ab1","system_id":"levelo_inurba_marseille","lat":43.29002,"lon":5.3782,"is_reserved":false,"is_disabled":false,"rental_uris":{"android":"levelo://app?vid=d99c0162-f6d1-4d2c-acef-490ddcd63ab1","ios":"levelo://app?vid=d99c0162-f6d1-4d2c-acef-490ddcd63ab1"},"vehicle_type_id":"4","last_reported":1774041653,"current_range_meters":6400,"station_id":"ce4bh9p2rcd13ifvqed0","pricing_plan_id":"cebpf4jnsgd1na2vs0mg"},{"bike_id":"764f9c95-27c4-4855-a690-6fb3e9859de2","system_id":"levelo_inurba_marseille","lat":43.29567,"lon":5.39993,"is_reserved":false,"is_disabled":false,"rental_uris":{"android":"levelo://app?vid=764f9c95-27c4-4855-a690-6fb3e9859de2","ios":"levelo://app?vid=764f9c95-27c4-4855-a690-6fb3e9859de2"},"vehicle_type_id":"4","last_reported":1774041653,"current_range_meters":6400,"station_id":"ce4bh312rcd13ifvqdj0","pricing_plan_id":"cebpf4jnsgd1na2vs0mg"},{"bike_id":"ff78297d-e887-4754-ae40-8b2c9748daf5","system_id":"levelo_inurba_marseille","lat":43.28419,"lon":5.34989,"is_reserved":false,"is_disabled":false,"rental_uris":{"android":"levelo://app?vid=ff78297d-e887-4754-ae40-8b2c9748daf5","ios":"levelo://app?vid=ff78297d-e887-4754-ae40-8b2c9748daf5"},"vehicle_type_id":"4","last_reported":1774041653,"current_range_meters":6400,"station_id":"ce4bhbh2rcd13ifvqepg","pricing_plan_id":"cebpf4jnsgd1na2vs0mg"},{"bike_id":"aeef9e81-be5b-4068-99e4-442404659303","system_id":"levelo_inurba_marseille","lat":43.3047,"lon":5.37901,"is_reserved":false,"is_disabled":false,"rental_uris":{"android":"levelo://app?vid=aeef9e81-be5b-4068-99e4-442404659303","ios":"levelo://app?vid=aeef9e81-be5b-4068-99e4-442404659303"},"vehicle_type_id":"4","last_reported":1774041653,"current_range_meters":6400,"station_id":"ce4bgup2rcd13ifvqcn0","pricing_plan_id":"cebpf4jnsgd1na2vs0mg"},{"bike_id":"ac892ece-8dac-4a9f-b241-0cfa093a6b78","system_id":"levelo_inurba_marseille","lat":43.30535,"lon":5.36702,"is_reserved":false,"is_disabled":false,"rental_uris":{"android":"levelo://app?vid=ac892ece-8dac-4a9f-b241-0cfa093a6b78","ios":"levelo://app?vid=ac892ece-8dac-4a9f-b241-0cfa093a6b78"},"vehicle_type_id":"4","last_reported":1774041653,"current_range_meters":6400,"station_id":"ce4bgrp2rcd13ifvqc9g","pricing_plan_id":"cebpf4jnsgd1na2vs0mg"},{"bike_id":"3e5c7bdb-60ee-4795-a793-9681791a8e87","system_id":"levelo_inurba_marseille","lat":43.29756,"lon":5.42793,"is_reserved":false,"is_disabled":false,"rental_uris":{"android":"levelo://app?vid=3e5c7bdb-60ee-4795-a793-9681791a8e87","ios":"levelo://app?vid=3e5c7bdb-60ee-4795-a793-9681791a8e87"},"vehicle_type_id":"4","last_reported":1774041653,"current_range_meters":6400,"station_id":"st_d3md5207bmas73dh9klg","pricing_plan_id":"cebpf4jnsgd1na2vs0mg"},{"bike_id":"5ea68d44-1982-470b-b617-05246700513c","system_id":"levelo_inurba_marseille","lat":43.313457,"lon":5.367051,"is_reserved":false,"is_disabled":false,"rental_uris":{"android":"levelo://app?vid=5ea68d44-1982-470b-b617-05246700513c","ios":"levelo://app?vid=5ea68d44-1982-470b-b617-05246700513c"},"vehicle_type_id":"4","last_reported":1774041653,"current_range_meters":6400,"station_id":"ce4bgr92rcd13ifvqc6g","pricing_plan_id":"cebpf4jnsgd1na2vs0mg"},{"bike_id":"7405b636-d01e-4d7b-8201-c7f860d2ab41","system_id":"levelo_inurba_marseille","lat":43.29019,"lon":5.38648,"is_reserved":false,"is_disabled":false,"rental_uris":{"android":"levelo://app?vid=7405b636-d01e-4d7b-8201-c7f860d2ab41","ios":"levelo://app?vid=7405b636-d01e-4d7b-8201-c7f860d2ab41"},"vehicle_type_id":"4","last_reported":1774041653,"current_range_meters":6400,"station_id":"ce4bh4p2rcd13ifvqe0g","pricing_plan_id":"cebpf4jnsgd1na2vs0mg"},{"bike_id":"29ceb06a-4df8-4e2a-9dd9-b070e185b37f","system_id":"levelo_inurba_marseille","lat":43.28476,"lon":5.48398,"is_reserved":false,"is_disabled":false,"rental_uris":{"android":"levelo://app?vid=29ceb06a-4df8-4e2a-9dd9-b070e185b37f","ios":"levelo://app?vid=29ceb06a-4df8-4e2a-9dd9-b070e185b37f"},"vehicle_type_id":"4","last_reported":1774041653,"current_range_meters":6400,"station_id":"","pricing_plan_id":"cebpf4jnsgd1na2vs0mg"},{"bike_id":"c142af26-b83c-4aa3-ab8b-699576493d34","system_id":"levelo_inurba_marseille","lat":43.2119,"lon":5.35088,"is_reserved":false,"is_disabled":true,"rental_uris":{"android":"levelo://app?vid=c142af26-b83c-4aa3-ab8b-699576493d34","ios":"levelo://app?vid=c142af26-b83c-4aa3-ab8b-699576493d34"},"vehicle_type_id":"4","last_reported":1774041653,"current_range_meters":6400,"station_id":"st_cvj6sg6p6f1abm77japg","pricing_plan_id":"cebpf4jnsgd1na2vs0mg"},{"bike_id":"e5eba928-e3a4-441b-9540-937747ee47b9","system_id":"levelo_inurba_marseille","lat":43.22564,"lon":5.41634,"is_reserved":false,"is_disabled":false,"rental_uris":{"android":"levelo://app?vid=e5eba928-e3a4-441b-9540-937747ee47b9","ios":"levelo://app?vid=e5eba928-e3a4-441b-9540-937747ee47b9"},"vehicle_type_id":"4","last_reported":1774041653,"current_range_meters":6400,"station_id":"st_d2o4gvlbi1j2169b742g","pricing_plan_id":"cebpf4jnsgd1na2vs0mg"},{"bike_id":"a1ce7f88-8f8c-48ff-bc8b-8021c61764ea","system_id":"levelo_inurba_marseille","lat":43.33542,"lon":5.37467,"is_reserved":false,"is_disabled":false,"rental_uris":{"android":"levelo://app?vid=a1ce7f88-8f8c-48ff-bc8b-8021c61764ea","ios":"levelo://app?vid=a1ce7f88-8f8c-48ff-bc8b-8021c61764ea"},"vehicle_type_id":"4","last_reported":1774041653,"current_range_meters":6400,"station_id":"st_d46tts09ee8s73dlu43g","pricing_plan_id":"cebpf4jnsgd1na2vs0mg"},{"bike_id":"3d8b9441-846b-4bc6-a99f-7538b53156c2","system_id":"levelo_inurba_marseille","lat":43.29772,"lon":5.38094,"is_reserved":false,"is_disabled":true,"rental_uris":{"android":"levelo://app?vid=3d8b9441-846b-4bc6-a99f-7538b53156c2","ios":"levelo://app?vid=3d8b9441-846b-4bc6-a99f-7538b53156c2"},"vehicle_type_id":"4","last_reported":1774041653,"current_range_meters":6800,"station_id":"ce4bgip2rcd13ifvqbb0","pricing_plan_id":"cebpf4jnsgd1na2vs0mg"},{"bike_id":"f328e3b6-a38c-49fe-80e0-c552630893a5","system_id":"levelo_inurba_marseille","lat":43.22926,"lon":5.35383,"is_reserved":false,"is_disabled":false,"rental_uris":{"android":"levelo://app?vid=f328e3b6-a38c-49fe-80e0-c552630893a5","ios":"levelo://app?vid=f328e3b6-a38c-49fe-80e0-c552630893a5"},"vehicle_type_id":"4","last_reported":1774041653,"current_range_meters":6800,"station_id":"cpo3532slgdg3j2ikp40","pricing_plan_id":"cebpf4jnsgd1na2vs0mg"},{"bike_id":"a775511c-9985-4a58-8c4c-775aad7f3e36","system_id":"levelo_inurba_marseille","lat":43.299,"lon":5.43642,"is_reserved":false,"is_disabled":false,"rental_uris":{"android":"levelo://app?vid=a775511c-9985-4a58-8c4c-775aad7f3e36","ios":"levelo://app?vid=a775511c-9985-4a58-8c4c-775aad7f3e36"},"vehicle_type_id":"4","last_reported":1774041653,"current_range_meters":6800,"station_id":"ce4bhpp2rcd13ifvqhfg","pricing_plan_id":"cebpf4jnsgd1na2vs0mg"},{"bike_id":"8fabfbd8-6bca-4d80-b0ba-1889f10e95a6","system_id":"levelo_inurba_marseille","lat":43.30321,"lon":5.40435,"is_reserved":false,"is_disabled":false,"rental_uris":{"android":"levelo://app?vid=8fabfbd8-6bca-4d80-b0ba-1889f10e95a6","ios":"levelo://app?vid=8fabfbd8-6bca-4d80-b0ba-1889f10e95a6"},"vehicle_type_id":"4","last_reported":1774041653,"current_range_meters":6800,"station_id":"ce4bh012rcd13ifvqd10","pricing_plan_id":"cebpf4jnsgd1na2vs0mg"},{"bike_id":"ec805567-1bc2-4aa0-9a36-661edaf8b31c","system_id":"levelo_inurba_marseille","lat":43.29237,"lon":5.39245,"is_reserved":false,"is_disabled":false,"rental_uris":{"android":"levelo://app?vid=ec805567-1bc2-4aa0-9a36-661edaf8b31c","ios":"levelo://app?vid=ec805567-1bc2-4aa0-9a36-661edaf8b31c"},"vehicle_type_id":"4","last_reported":1774041653,"current_range_meters":6800,"station_id":"","pricing_plan_id":"cebpf4jnsgd1na2vs0mg"},{"bike_id":"f2a1264e-1a0f-4232-99d7-3ea69f966741","system_id":"levelo_inurba_marseille","lat":43.29962,"lon":5.38521,"is_reserved":false,"is_disabled":false,"rental_uris":{"android":"levelo://app?vid=f2a1264e-1a0f-4232-99d7-3ea69f966741","ios":"levelo://app?vid=f2a1264e-1a0f-4232-99d7-3ea69f966741"},"vehicle_type_id":"4","last_reported":1774041653,"current_range_meters":6800,"station_id":"ce4bgj92rcd13ifvqbd0","pricing_plan_id":"cebpf4jnsgd1na2vs0mg"},{"bike_id":"89ad46cf-ad84-4e5e-be57-87ac2cebe69c","system_id":"levelo_inurba_marseille","lat":43.28468,"lon":5.48436,"is_reserved":false,"is_disabled":false,"rental_uris":{"android":"levelo://app?vid=89ad46cf-ad84-4e5e-be57-87ac2cebe69c","ios":"levelo://app?vid=89ad46cf-ad84-4e5e-be57-87ac2cebe69c"},"vehicle_type_id":"4","last_reported":1774041653,"current_range_meters":6800,"station_id":"st_d3svhcjqgbts73a3dn0g","pricing_plan_id":"cebpf4jnsgd1na2vs0mg"},{"bike_id":"b26f962c-922c-47b9-914e-5e79d3f8e9c6","system_id":"levelo_inurba_marseille","lat":43.28849,"lon":5.35864,"is_reserved":false,"is_disabled":false,"rental_uris":{"android":"levelo://app?vid=b26f962c-922c-47b9-914e-5e79d3f8e9c6","ios":"levelo://app?vid=b26f962c-922c-47b9-914e-5e79d3f8e9c6"},"vehicle_type_id":"4","last_reported":1774041653,"current_range_meters":6800,"station_id":"ce4bhb12rcd13ifvqem0","pricing_plan_id":"cebpf4jnsgd1na2vs0mg"},{"bike_id":"920cf3ac-527c-4fdc-a69b-a8e8414d2b46","system_id":"levelo_inurba_marseille","lat":43.34135,"lon":5.40903,"is_reserved":false,"is_disabled":false,"rental_uris":{"android":"levelo://app?vid=920cf3ac-527c-4fdc-a69b-a8e8414d2b46","ios":"levelo://app?vid=920cf3ac-527c-4fdc-a69b-a8e8414d2b46"},"vehicle_type_id":"4","last_reported":1774041653,"current_range_meters":6800,"station_id":"ce4bhqh2rcd13ifvqhlg","pricing_plan_id":"cebpf4jnsgd1na2vs0mg"},{"bike_id":"36fc14e7-b188-438e-838c-69da638cdac7","system_id":"levelo_inurba_marseille","lat":43.28696,"lon":5.37419,"is_reserved":false,"is_disabled":false,"rental_uris":{"android":"levelo://app?vid=36fc14e7-b188-438e-838c-69da638cdac7","ios":"levelo://app?vid=36fc14e7-b188-438e-838c-69da638cdac7"},"vehicle_type_id":"4","last_reported":1774041653,"current_range_meters":6800,"station_id":"ce4bh3p2rcd13ifvqdq0","pricing_plan_id":"cebpf4jnsgd1na2vs0mg"},{"bike_id":"df39463a-2c4e-4d84-b833-2dafcf0a7834","system_id":"levelo_inurba_marseille","lat":43.31391,"lon":5.38504,"is_reserved":false,"is_disabled":false,"rental_uris":{"android":"levelo://app?vid=df39463a-2c4e-4d84-b833-2dafcf0a7834","ios":"levelo://app?vid=df39463a-2c4e-4d84-b833-2dafcf0a7834"},"vehicle_type_id":"4","last_reported":1774041653,"current_range_meters":7200,"station_id":"ce4bgt92rcd13ifvqcf0","pricing_plan_id":"cebpf4jnsgd1na2vs0mg"},{"bike_id":"d4bdd173-78c7-4a96-b0a8-c9b4c4e56d68","system_id":"levelo_inurba_marseille","lat":43.28372,"lon":5.3757,"is_reserved":false,"is_disabled":true,"rental_uris":{"android":"levelo://app?vid=d4bdd173-78c7-4a96-b0a8-c9b4c4e56d68","ios":"levelo://app?vid=d4bdd173-78c7-4a96-b0a8-c9b4c4e56d68"},"vehicle_type_id":"4","last_reported":1774041653,"current_range_meters":7200,"station_id":"","pricing_plan_id":"cebpf4jnsgd1na2vs0mg"},{"bike_id":"cb35b956-4400-4517-a338-c40c59225904","system_id":"levelo_inurba_marseille","lat":43.31231,"lon":5.4018,"is_reserved":false,"is_disabled":false,"rental_uris":{"android":"levelo://app?vid=cb35b956-4400-4517-a338-c40c59225904","ios":"levelo://app?vid=cb35b956-4400-4517-a338-c40c59225904"},"vehicle_type_id":"4","last_reported":1774041653,"current_range_meters":7200,"station_id":"ce4bh092rcd13ifvqd30","pricing_plan_id":"cebpf4jnsgd1na2vs0mg"},{"bike_id":"53f48266-4564-420b-96ab-d243233055dc","system_id":"levelo_inurba_marseille","lat":43.28473,"lon":5.48396,"is_reserved":false,"is_disabled":false,"rental_uris":{"android":"levelo://app?vid=53f48266-4564-420b-96ab-d243233055dc","ios":"levelo://app?vid=53f48266-4564-420b-96ab-d243233055dc"},"vehicle_type_id":"4","last_reported":1774041653,"current_range_meters":7200,"station_id":"","pricing_plan_id":"cebpf4jnsgd1na2vs0mg"},{"bike_id":"0f699794-8202-4161-a052-1d39a341c5fa","system_id":"levelo_inurba_marseille","lat":43.31177,"lon":5.387,"is_reserved":false,"is_disabled":true,"rental_uris":{"android":"levelo://app?vid=0f699794-8202-4161-a052-1d39a341c5fa","ios":"levelo://app?vid=0f699794-8202-4161-a052-1d39a341c5fa"},"vehicle_type_id":"4","last_reported":1774041653,"current_range_meters":7200,"station_id":"ce4bgv12rcd13ifvqcp0","pricing_plan_id":"cebpf4jnsgd1na2vs0mg"},{"bike_id":"25aa8eae-4bf7-4a6e-a564-f40c93bdfbf0","system_id":"levelo_inurba_marseille","lat":43.29296,"lon":5.37159,"is_reserved":false,"is_disabled":false,"rental_uris":{"android":"levelo://app?vid=25aa8eae-4bf7-4a6e-a564-f40c93bdfbf0","ios":"levelo://app?vid=25aa8eae-4bf7-4a6e-a564-f40c93bdfbf0"},"vehicle_type_id":"4","last_reported":1774041653,"current_range_meters":7200,"station_id":"ce4bgh92rcd13ifvqb40","pricing_plan_id":"cebpf4jnsgd1na2vs0mg"},{"bike_id":"0a4ebb20-b1b2-4c96-ab45-660b0030c07d","system_id":"levelo_inurba_marseille","lat":43.29519,"lon":5.37505,"is_reserved":false,"is_disabled":false,"rental_uris":{"android":"levelo://app?vid=0a4ebb20-b1b2-4c96-ab45-660b0030c07d","ios":"levelo://app?vid=0a4ebb20-b1b2-4c96-ab45-660b0030c07d"},"vehicle_type_id":"4","last_reported":1774041653,"current_range_meters":7200,"station_id":"ce4bgkp2rcd13ifvqbmg","pricing_plan_id":"cebpf4jnsgd1na2vs0mg"},{"bike_id":"438e751f-dc4c-4a68-a5bc-61364a6fc533","system_id":"levelo_inurba_marseille","lat":43.29961,"lon":5.38529,"is_reserved":false,"is_disabled":false,"rental_uris":{"android":"levelo://app?vid=438e751f-dc4c-4a68-a5bc-61364a6fc533","ios":"levelo://app?vid=438e751f-dc4c-4a68-a5bc-61364a6fc533"},"vehicle_type_id":"4","last_reported":1774041653,"current_range_meters":7200,"station_id":"ce4bgj92rcd13ifvqbd0","pricing_plan_id":"cebpf4jnsgd1na2vs0mg"},{"bike_id":"01da0a3e-b5e6-41b6-bdda-1a023c9254de","system_id":"levelo_inurba_marseille","lat":43.2796,"lon":5.38758,"is_reserved":false,"is_disabled":false,"rental_uris":{"android":"levelo://app?vid=01da0a3e-b5e6-41b6-bdda-1a023c9254de","ios":"levelo://app?vid=01da0a3e-b5e6-41b6-bdda-1a023c9254de"},"vehicle_type_id":"4","last_reported":1774041653,"current_range_meters":7200,"station_id":"ce4bhg12rcd13ifvqf80","pricing_plan_id":"cebpf4jnsgd1na2vs0mg"},{"bike_id":"2b417375-2de9-435c-92dc-c48c071cb720","system_id":"levelo_inurba_marseille","lat":43.30952,"lon":5.39045,"is_reserved":false,"is_disabled":false,"rental_uris":{"android":"levelo://app?vid=2b417375-2de9-435c-92dc-c48c071cb720","ios":"levelo://app?vid=2b417375-2de9-435c-92dc-c48c071cb720"},"vehicle_type_id":"4","last_reported":1774041653,"current_range_meters":7200,"station_id":"ce4bgup2rcd13ifvqco0","pricing_plan_id":"cebpf4jnsgd1na2vs0mg"},{"bike_id":"df0a7c4a-e5ee-4fb7-bde2-0c1e7af18f24","system_id":"levelo_inurba_marseille","lat":43.28947,"lon":5.36389,"is_reserved":false,"is_disabled":false,"rental_uris":{"android":"levelo://app?vid=df0a7c4a-e5ee-4fb7-bde2-0c1e7af18f24","ios":"levelo://app?vid=df0a7c4a-e5ee-4fb7-bde2-0c1e7af18f24"},"vehicle_type_id":"4","last_reported":1774041653,"current_range_meters":7200,"station_id":"ce4bhc92rcd13ifvqetg","pricing_plan_id":"cebpf4jnsgd1na2vs0mg"},{"bike_id":"cea353e4-e125-47ad-a5a9-9107391ff77f","system_id":"levelo_inurba_marseille","lat":43.258642,"lon":5.394521,"is_reserved":false,"is_disabled":false,"rental_uris":{"android":"levelo://app?vid=cea353e4-e125-47ad-a5a9-9107391ff77f","ios":"levelo://app?vid=cea353e4-e125-47ad-a5a9-9107391ff77f"},"vehicle_type_id":"4","last_reported":1774041653,"current_range_meters":7200,"station_id":"ce4bhip2rcd13ifvqft0","pricing_plan_id":"cebpf4jnsgd1na2vs0mg"},{"bike_id":"7fa64d84-cd92-4f02-a79d-c348b129b15f","system_id":"levelo_inurba_marseille","lat":43.24187,"lon":5.36381,"is_reserved":false,"is_disabled":false,"rental_uris":{"android":"levelo://app?vid=7fa64d84-cd92-4f02-a79d-c348b129b15f","ios":"levelo://app?vid=7fa64d84-cd92-4f02-a79d-c348b129b15f"},"vehicle_type_id":"4","last_reported":1774041653,"current_range_meters":7200,"station_id":"cpo36qri1sfpv3e86is0","pricing_plan_id":"cebpf4jnsgd1na2vs0mg"},{"bike_id":"4b295a26-027e-4cc3-9749-f20702b828de","system_id":"levelo_inurba_marseille","lat":43.26506,"lon":5.39561,"is_reserved":false,"is_disabled":false,"rental_uris":{"android":"levelo://app?vid=4b295a26-027e-4cc3-9749-f20702b828de","ios":"levelo://app?vid=4b295a26-027e-4cc3-9749-f20702b828de"},"vehicle_type_id":"4","last_reported":1774041653,"current_range_meters":7200,"station_id":"ce4bhi12rcd13ifvqfq0","pricing_plan_id":"cebpf4jnsgd1na2vs0mg"},{"bike_id":"0c744d67-74b3-4bed-8fa1-274d8c3afbea","system_id":"levelo_inurba_marseille","lat":43.23783,"lon":5.36644,"is_reserved":false,"is_disabled":false,"rental_uris":{"android":"levelo://app?vid=0c744d67-74b3-4bed-8fa1-274d8c3afbea","ios":"levelo://app?vid=0c744d67-74b3-4bed-8fa1-274d8c3afbea"},"vehicle_type_id":"4","last_reported":1774041653,"current_range_meters":7200,"station_id":"st_d3nk18o9ro0c73en2l3g","pricing_plan_id":"cebpf4jnsgd1na2vs0mg"},{"bike_id":"deac1b59-9224-462e-876f-7f51cfb86add","system_id":"levelo_inurba_marseille","lat":43.30597,"lon":5.39366,"is_reserved":false,"is_disabled":false,"rental_uris":{"android":"levelo://app?vid=deac1b59-9224-462e-876f-7f51cfb86add","ios":"levelo://app?vid=deac1b59-9224-462e-876f-7f51cfb86add"},"vehicle_type_id":"4","last_reported":1774041653,"current_range_meters":7200,"station_id":"ce4bh0p2rcd13ifvqd80","pricing_plan_id":"cebpf4jnsgd1na2vs0mg"},{"bike_id":"83675f3e-fe90-4bf0-8b69-f095eac9e73c","system_id":"levelo_inurba_marseille","lat":43.27054,"lon":5.42287,"is_reserved":false,"is_disabled":false,"rental_uris":{"android":"levelo://app?vid=83675f3e-fe90-4bf0-8b69-f095eac9e73c","ios":"levelo://app?vid=83675f3e-fe90-4bf0-8b69-f095eac9e73c"},"vehicle_type_id":"4","last_reported":1774041653,"current_range_meters":7200,"station_id":"ce4bhk92rcd13ifvqgb0","pricing_plan_id":"cebpf4jnsgd1na2vs0mg"},{"bike_id":"58710bad-cb83-4e33-8172-f5b8b3ffc498","system_id":"levelo_inurba_marseille","lat":43.297,"lon":5.37653,"is_reserved":false,"is_disabled":false,"rental_uris":{"android":"levelo://app?vid=58710bad-cb83-4e33-8172-f5b8b3ffc498","ios":"levelo://app?vid=58710bad-cb83-4e33-8172-f5b8b3ffc498"},"vehicle_type_id":"4","last_reported":1774041653,"current_range_meters":7200,"station_id":"ce4bgkh2rcd13ifvqbl0","pricing_plan_id":"cebpf4jnsgd1na2vs0mg"},{"bike_id":"912e5f30-2e0b-48a9-85db-a984611241c9","system_id":"levelo_inurba_marseille","lat":43.2981,"lon":5.44078,"is_reserved":false,"is_disabled":false,"rental_uris":{"android":"levelo://app?vid=912e5f30-2e0b-48a9-85db-a984611241c9","ios":"levelo://app?vid=912e5f30-2e0b-48a9-85db-a984611241c9"},"vehicle_type_id":"4","last_reported":1774041653,"current_range_meters":8000,"station_id":"st_d3jp68qikq2c7381ktn0","pricing_plan_id":"cebpf4jnsgd1na2vs0mg"},{"bike_id":"280960d4-564e-4c0a-b167-a44b4f0f3c47","system_id":"levelo_inurba_marseille","lat":43.29876,"lon":5.39736,"is_reserved":false,"is_disabled":true,"rental_uris":{"android":"levelo://app?vid=280960d4-564e-4c0a-b167-a44b4f0f3c47","ios":"levelo://app?vid=280960d4-564e-4c0a-b167-a44b4f0f3c47"},"vehicle_type_id":"4","last_reported":1774041653,"current_range_meters":8000,"station_id":"ce4bh0h2rcd13ifvqd50","pricing_plan_id":"cebpf4jnsgd1na2vs0mg"},{"bike_id":"f12ce399-1654-48f8-a320-211fcab6582c","system_id":"levelo_inurba_marseille","lat":43.23784,"lon":5.36621,"is_reserved":false,"is_disabled":false,"rental_uris":{"android":"levelo://app?vid=f12ce399-1654-48f8-a320-211fcab6582c","ios":"levelo://app?vid=f12ce399-1654-48f8-a320-211fcab6582c"},"vehicle_type_id":"4","last_reported":1774041653,"current_range_meters":8000,"station_id":"st_d3nk18o9ro0c73en2l3g","pricing_plan_id":"cebpf4jnsgd1na2vs0mg"},{"bike_id":"8648ff3d-a49d-4491-be6c-bab3f9812603","system_id":"levelo_inurba_marseille","lat":43.28276,"lon":5.43831,"is_reserved":false,"is_disabled":false,"rental_uris":{"android":"levelo://app?vid=8648ff3d-a49d-4491-be6c-bab3f9812603","ios":"levelo://app?vid=8648ff3d-a49d-4491-be6c-bab3f9812603"},"vehicle_type_id":"4","last_reported":1774041653,"current_range_meters":8000,"station_id":"","pricing_plan_id":"cebpf4jnsgd1na2vs0mg"},{"bike_id":"e5442f07-fb15-4276-9252-55d9dab8a584","system_id":"levelo_inurba_marseille","lat":43.28992,"lon":5.38631,"is_reserved":false,"is_disabled":false,"rental_uris":{"android":"levelo://app?vid=e5442f07-fb15-4276-9252-55d9dab8a584","ios":"levelo://app?vid=e5442f07-fb15-4276-9252-55d9dab8a584"},"vehicle_type_id":"4","last_reported":1774041653,"current_range_meters":8000,"station_id":"ce4bh4p2rcd13ifvqe0g","pricing_plan_id":"cebpf4jnsgd1na2vs0mg"},{"bike_id":"8506a0d2-8da7-4194-be49-a467a2b4dc87","system_id":"levelo_inurba_marseille","lat":43.29781,"lon":5.38098,"is_reserved":false,"is_disabled":false,"rental_uris":{"android":"levelo://app?vid=8506a0d2-8da7-4194-be49-a467a2b4dc87","ios":"levelo://app?vid=8506a0d2-8da7-4194-be49-a467a2b4dc87"},"vehicle_type_id":"4","last_reported":1774041653,"current_range_meters":8000,"station_id":"ce4bgip2rcd13ifvqbb0","pricing_plan_id":"cebpf4jnsgd1na2vs0mg"},{"bike_id":"a8c8307b-e1e9-4950-a785-578e1a82f805","system_id":"levelo_inurba_marseille","lat":43.31265,"lon":5.37845,"is_reserved":false,"is_disabled":false,"rental_uris":{"android":"levelo://app?vid=a8c8307b-e1e9-4950-a785-578e1a82f805","ios":"levelo://app?vid=a8c8307b-e1e9-4950-a785-578e1a82f805"},"vehicle_type_id":"4","last_reported":1774041653,"current_range_meters":8000,"station_id":"","pricing_plan_id":"cebpf4jnsgd1na2vs0mg"},{"bike_id":"962e3e51-db50-4f61-a079-9b1c6a103eb5","system_id":"levelo_inurba_marseille","lat":43.30963,"lon":5.36814,"is_reserved":false,"is_disabled":false,"rental_uris":{"android":"levelo://app?vid=962e3e51-db50-4f61-a079-9b1c6a103eb5","ios":"levelo://app?vid=962e3e51-db50-4f61-a079-9b1c6a103eb5"},"vehicle_type_id":"4","last_reported":1774041653,"current_range_meters":8000,"station_id":"","pricing_plan_id":"cebpf4jnsgd1na2vs0mg"},{"bike_id":"2efb687e-9426-4c07-a1d0-2467cfb4ef43","system_id":"levelo_inurba_marseille","lat":43.297888,"lon":5.393384,"is_reserved":false,"is_disabled":false,"rental_uris":{"android":"levelo://app?vid=2efb687e-9426-4c07-a1d0-2467cfb4ef43","ios":"levelo://app?vid=2efb687e-9426-4c07-a1d0-2467cfb4ef43"},"vehicle_type_id":"4","last_reported":1774041653,"current_range_meters":8000,"station_id":"chh1huq6cuj3fo74tm60","pricing_plan_id":"cebpf4jnsgd1na2vs0mg"},{"bike_id":"35570900-01ad-426e-87bb-9c7a2a02c960","system_id":"levelo_inurba_marseille","lat":43.30969,"lon":5.39075,"is_reserved":false,"is_disabled":false,"rental_uris":{"android":"levelo://app?vid=35570900-01ad-426e-87bb-9c7a2a02c960","ios":"levelo://app?vid=35570900-01ad-426e-87bb-9c7a2a02c960"},"vehicle_type_id":"4","last_reported":1774041653,"current_range_meters":8000,"station_id":"ce4bgup2rcd13ifvqco0","pricing_plan_id":"cebpf4jnsgd1na2vs0mg"},{"bike_id":"58eae58d-be80-492e-96da-9a6a01180b9b","system_id":"levelo_inurba_marseille","lat":43.29697,"lon":5.36602,"is_reserved":false,"is_disabled":false,"rental_uris":{"android":"levelo://app?vid=58eae58d-be80-492e-96da-9a6a01180b9b","ios":"levelo://app?vid=58eae58d-be80-492e-96da-9a6a01180b9b"},"vehicle_type_id":"4","last_reported":1774041653,"current_range_meters":8000,"station_id":"ce4bgn12rcd13ifvqbt0","pricing_plan_id":"cebpf4jnsgd1na2vs0mg"},{"bike_id":"0229787f-3585-41fd-a359-a19c5bd305b9","system_id":"levelo_inurba_marseille","lat":43.28976,"lon":5.37851,"is_reserved":false,"is_disabled":false,"rental_uris":{"android":"levelo://app?vid=0229787f-3585-41fd-a359-a19c5bd305b9","ios":"levelo://app?vid=0229787f-3585-41fd-a359-a19c5bd305b9"},"vehicle_type_id":"4","last_reported":1774041653,"current_range_meters":8000,"station_id":"ce4bh9p2rcd13ifvqed0","pricing_plan_id":"cebpf4jnsgd1na2vs0mg"},{"bike_id":"2cea9d46-c32a-4a24-9abe-5dc099975957","system_id":"levelo_inurba_marseille","lat":43.28475,"lon":5.48403,"is_reserved":false,"is_disabled":false,"rental_uris":{"android":"levelo://app?vid=2cea9d46-c32a-4a24-9abe-5dc099975957","ios":"levelo://app?vid=2cea9d46-c32a-4a24-9abe-5dc099975957"},"vehicle_type_id":"4","last_reported":1774041653,"current_range_meters":8000,"station_id":"","pricing_plan_id":"cebpf4jnsgd1na2vs0mg"},{"bike_id":"2d9e4754-9b17-40b5-bbeb-5b1c9c5bbe64","system_id":"levelo_inurba_marseille","lat":43.3013,"lon":5.38791,"is_reserved":false,"is_disabled":true,"rental_uris":{"android":"levelo://app?vid=2d9e4754-9b17-40b5-bbeb-5b1c9c5bbe64","ios":"levelo://app?vid=2d9e4754-9b17-40b5-bbeb-5b1c9c5bbe64"},"vehicle_type_id":"4","last_reported":1774041653,"current_range_meters":8000,"station_id":"ce4bghh2rcd13ifvqb60","pricing_plan_id":"cebpf4jnsgd1na2vs0mg"},{"bike_id":"bfcd297d-8eb3-4c95-ac63-338c1f23c812","system_id":"levelo_inurba_marseille","lat":43.26578,"lon":5.37258,"is_reserved":false,"is_disabled":false,"rental_uris":{"android":"levelo://app?vid=bfcd297d-8eb3-4c95-ac63-338c1f23c812","ios":"levelo://app?vid=bfcd297d-8eb3-4c95-ac63-338c1f23c812"},"vehicle_type_id":"4","last_reported":1774041653,"current_range_meters":8000,"station_id":"ce4bhg12rcd13ifvqf70","pricing_plan_id":"cebpf4jnsgd1na2vs0mg"},{"bike_id":"e7bfe124-6bd5-429f-868e-470e45ebe762","system_id":"levelo_inurba_marseille","lat":43.31516,"lon":5.36739,"is_reserved":false,"is_disabled":false,"rental_uris":{"android":"levelo://app?vid=e7bfe124-6bd5-429f-868e-470e45ebe762","ios":"levelo://app?vid=e7bfe124-6bd5-429f-868e-470e45ebe762"},"vehicle_type_id":"4","last_reported":1774041653,"current_range_meters":8000,"station_id":"","pricing_plan_id":"cebpf4jnsgd1na2vs0mg"},{"bike_id":"17d96762-b18b-4acb-8b48-dfac205b8c54","system_id":"levelo_inurba_marseille","lat":43.28573,"lon":5.39497,"is_reserved":false,"is_disabled":false,"rental_uris":{"android":"levelo://app?vid=17d96762-b18b-4acb-8b48-dfac205b8c54","ios":"levelo://app?vid=17d96762-b18b-4acb-8b48-dfac205b8c54"},"vehicle_type_id":"4","last_reported":1774041653,"current_range_meters":8000,"station_id":"ce4bh292rcd13ifvqdg0","pricing_plan_id":"cebpf4jnsgd1na2vs0mg"},{"bike_id":"d29e150c-e1ff-47e5-9e1e-2ce209460bc0","system_id":"levelo_inurba_marseille","lat":43.28696,"lon":5.37396,"is_reserved":false,"is_disabled":false,"rental_uris":{"android":"levelo://app?vid=d29e150c-e1ff-47e5-9e1e-2ce209460bc0","ios":"levelo://app?vid=d29e150c-e1ff-47e5-9e1e-2ce209460bc0"},"vehicle_type_id":"4","last_reported":1774041653,"current_range_meters":8400,"station_id":"ce4bh3p2rcd13ifvqdq0","pricing_plan_id":"cebpf4jnsgd1na2vs0mg"},{"bike_id":"0000eb28-7a39-460e-8edd-af93d734134a","system_id":"levelo_inurba_marseille","lat":43.31309,"lon":5.36726,"is_reserved":false,"is_disabled":false,"rental_uris":{"android":"levelo://app?vid=0000eb28-7a39-460e-8edd-af93d734134a","ios":"levelo://app?vid=0000eb28-7a39-460e-8edd-af93d734134a"},"vehicle_type_id":"4","last_reported":1774041653,"current_range_meters":8400,"station_id":"ce4bgr92rcd13ifvqc6g","pricing_plan_id":"cebpf4jnsgd1na2vs0mg"},{"bike_id":"cc777a7e-f3d4-4026-819d-66c6f1a5d2b6","system_id":"levelo_inurba_marseille","lat":43.29236,"lon":5.42589,"is_reserved":false,"is_disabled":false,"rental_uris":{"android":"levelo://app?vid=cc777a7e-f3d4-4026-819d-66c6f1a5d2b6","ios":"levelo://app?vid=cc777a7e-f3d4-4026-819d-66c6f1a5d2b6"},"vehicle_type_id":"4","last_reported":1774041653,"current_range_meters":8400,"station_id":"","pricing_plan_id":"cebpf4jnsgd1na2vs0mg"},{"bike_id":"e2420c11-4646-4145-aa2e-baedb91a43dc","system_id":"levelo_inurba_marseille","lat":43.32349,"lon":5.36751,"is_reserved":false,"is_disabled":false,"rental_uris":{"android":"levelo://app?vid=e2420c11-4646-4145-aa2e-baedb91a43dc","ios":"levelo://app?vid=e2420c11-4646-4145-aa2e-baedb91a43dc"},"vehicle_type_id":"4","last_reported":1774041653,"current_range_meters":8400,"station_id":"ce4bhsh2rcd13ifvqi2g","pricing_plan_id":"cebpf4jnsgd1na2vs0mg"},{"bike_id":"d00ce6b1-d263-4644-9ac8-801c3d34ac19","system_id":"levelo_inurba_marseille","lat":43.22565,"lon":5.41638,"is_reserved":false,"is_disabled":false,"rental_uris":{"android":"levelo://app?vid=d00ce6b1-d263-4644-9ac8-801c3d34ac19","ios":"levelo://app?vid=d00ce6b1-d263-4644-9ac8-801c3d34ac19"},"vehicle_type_id":"4","last_reported":1774041653,"current_range_meters":8400,"station_id":"st_d2o4gvlbi1j2169b742g","pricing_plan_id":"cebpf4jnsgd1na2vs0mg"},{"bike_id":"1466758c-2c3d-4cc4-860b-d3d146ceb5ca","system_id":"levelo_inurba_marseille","lat":43.32659,"lon":5.40971,"is_reserved":false,"is_disabled":false,"rental_uris":{"android":"levelo://app?vid=1466758c-2c3d-4cc4-860b-d3d146ceb5ca","ios":"levelo://app?vid=1466758c-2c3d-4cc4-860b-d3d146ceb5ca"},"vehicle_type_id":"4","last_reported":1774041653,"current_range_meters":8400,"station_id":"ce4bhpp2rcd13ifvqhgg","pricing_plan_id":"cebpf4jnsgd1na2vs0mg"},{"bike_id":"f3414e99-2d7c-4b03-96db-df8c1c6d3f2b","system_id":"levelo_inurba_marseille","lat":43.28482,"lon":5.48408,"is_reserved":false,"is_disabled":false,"rental_uris":{"android":"levelo://app?vid=f3414e99-2d7c-4b03-96db-df8c1c6d3f2b","ios":"levelo://app?vid=f3414e99-2d7c-4b03-96db-df8c1c6d3f2b"},"vehicle_type_id":"4","last_reported":1774041653,"current_range_meters":8400,"station_id":"","pricing_plan_id":"cebpf4jnsgd1na2vs0mg"},{"bike_id":"ab77a418-345e-453b-bca3-3815a5ee3842","system_id":"levelo_inurba_marseille","lat":43.23195,"lon":5.35563,"is_reserved":false,"is_disabled":false,"rental_uris":{"android":"levelo://app?vid=ab77a418-345e-453b-bca3-3815a5ee3842","ios":"levelo://app?vid=ab77a418-345e-453b-bca3-3815a5ee3842"},"vehicle_type_id":"4","last_reported":1774041653,"current_range_meters":8400,"station_id":"ce4bhu92rcd13ifvqi70","pricing_plan_id":"cebpf4jnsgd1na2vs0mg"},{"bike_id":"bfa999de-7a32-454a-b31e-f99ace51a3fc","system_id":"levelo_inurba_marseille","lat":43.28472,"lon":5.48394,"is_reserved":false,"is_disabled":false,"rental_uris":{"android":"levelo://app?vid=bfa999de-7a32-454a-b31e-f99ace51a3fc","ios":"levelo://app?vid=bfa999de-7a32-454a-b31e-f99ace51a3fc"},"vehicle_type_id":"4","last_reported":1774041653,"current_range_meters":8400,"station_id":"","pricing_plan_id":"cebpf4jnsgd1na2vs0mg"},{"bike_id":"eea5b844-b303-4614-bdb0-ae897dd307b5","system_id":"levelo_inurba_marseille","lat":43.24803,"lon":5.37458,"is_reserved":false,"is_disabled":false,"rental_uris":{"android":"levelo://app?vid=eea5b844-b303-4614-bdb0-ae897dd307b5","ios":"levelo://app?vid=eea5b844-b303-4614-bdb0-ae897dd307b5"},"vehicle_type_id":"4","last_reported":1774041653,"current_range_meters":8400,"station_id":"ce4bhgh2rcd13ifvqfb0","pricing_plan_id":"cebpf4jnsgd1na2vs0mg"},{"bike_id":"f423ad6a-ff2f-42b0-a321-a9688a91861e","system_id":"levelo_inurba_marseille","lat":43.29249,"lon":5.38431,"is_reserved":false,"is_disabled":false,"rental_uris":{"android":"levelo://app?vid=f423ad6a-ff2f-42b0-a321-a9688a91861e","ios":"levelo://app?vid=f423ad6a-ff2f-42b0-a321-a9688a91861e"},"vehicle_type_id":"4","last_reported":1774041653,"current_range_meters":8400,"station_id":"ce4bh692rcd13ifvqea0","pricing_plan_id":"cebpf4jnsgd1na2vs0mg"},{"bike_id":"b3b3bb0b-fb2d-4490-a557-6f80b344e03f","system_id":"levelo_inurba_marseille","lat":43.28943,"lon":5.39652,"is_reserved":false,"is_disabled":true,"rental_uris":{"android":"levelo://app?vid=b3b3bb0b-fb2d-4490-a557-6f80b344e03f","ios":"levelo://app?vid=b3b3bb0b-fb2d-4490-a557-6f80b344e03f"},"vehicle_type_id":"4","last_reported":1774041653,"current_range_meters":8400,"station_id":"ce4bh3h2rcd13ifvqdn0","pricing_plan_id":"cebpf4jnsgd1na2vs0mg"},{"bike_id":"619b8d4c-fc96-4a20-8efc-e52a01e0f227","system_id":"levelo_inurba_marseille","lat":43.28415,"lon":5.37506,"is_reserved":false,"is_disabled":false,"rental_uris":{"android":"levelo://app?vid=619b8d4c-fc96-4a20-8efc-e52a01e0f227","ios":"levelo://app?vid=619b8d4c-fc96-4a20-8efc-e52a01e0f227"},"vehicle_type_id":"4","last_reported":1774041653,"current_range_meters":8400,"station_id":"ce4bh412rcd13ifvqds0","pricing_plan_id":"cebpf4jnsgd1na2vs0mg"},{"bike_id":"15fb4bb8-4c0f-4ee3-a727-89e0f28d0a52","system_id":"levelo_inurba_marseille","lat":43.2378,"lon":5.36626,"is_reserved":false,"is_disabled":false,"rental_uris":{"android":"levelo://app?vid=15fb4bb8-4c0f-4ee3-a727-89e0f28d0a52","ios":"levelo://app?vid=15fb4bb8-4c0f-4ee3-a727-89e0f28d0a52"},"vehicle_type_id":"4","last_reported":1774041653,"current_range_meters":8400,"station_id":"st_d3nk18o9ro0c73en2l3g","pricing_plan_id":"cebpf4jnsgd1na2vs0mg"},{"bike_id":"ffee91b4-e1f4-4cfe-bfbf-9ca7434cffe2","system_id":"levelo_inurba_marseille","lat":43.27412,"lon":5.39399,"is_reserved":false,"is_disabled":true,"rental_uris":{"android":"levelo://app?vid=ffee91b4-e1f4-4cfe-bfbf-9ca7434cffe2","ios":"levelo://app?vid=ffee91b4-e1f4-4cfe-bfbf-9ca7434cffe2"},"vehicle_type_id":"4","last_reported":1774041653,"current_range_meters":8400,"station_id":"ce4bhdp2rcd13ifvqf20","pricing_plan_id":"cebpf4jnsgd1na2vs0mg"},{"bike_id":"6d4adc4d-5e1c-4bca-adc3-709dc5740d66","system_id":"levelo_inurba_marseille","lat":43.28934,"lon":5.36385,"is_reserved":false,"is_disabled":false,"rental_uris":{"android":"levelo://app?vid=6d4adc4d-5e1c-4bca-adc3-709dc5740d66","ios":"levelo://app?vid=6d4adc4d-5e1c-4bca-adc3-709dc5740d66"},"vehicle_type_id":"4","last_reported":1774041653,"current_range_meters":8400,"station_id":"ce4bhc92rcd13ifvqetg","pricing_plan_id":"cebpf4jnsgd1na2vs0mg"},{"bike_id":"9bedb971-6887-4d43-88c8-1762430f453d","system_id":"levelo_inurba_marseille","lat":43.24667,"lon":5.38175,"is_reserved":false,"is_disabled":true,"rental_uris":{"android":"levelo://app?vid=9bedb971-6887-4d43-88c8-1762430f453d","ios":"levelo://app?vid=9bedb971-6887-4d43-88c8-1762430f453d"},"vehicle_type_id":"4","last_reported":1774041653,"current_range_meters":8400,"station_id":"ce4bhih2rcd13ifvqfr0","pricing_plan_id":"cebpf4jnsgd1na2vs0mg"},{"bike_id":"f0426bcc-214a-440d-9087-e67e9b61b664","system_id":"levelo_inurba_marseille","lat":43.30457,"lon":5.38875,"is_reserved":false,"is_disabled":false,"rental_uris":{"android":"levelo://app?vid=f0426bcc-214a-440d-9087-e67e9b61b664","ios":"levelo://app?vid=f0426bcc-214a-440d-9087-e67e9b61b664"},"vehicle_type_id":"4","last_reported":1774041653,"current_range_meters":8400,"station_id":"ce4bgk12rcd13ifvqbi0","pricing_plan_id":"cebpf4jnsgd1na2vs0mg"},{"bike_id":"0efbab43-d108-42d3-a69a-7cf4a950ead7","system_id":"levelo_inurba_marseille","lat":43.297974,"lon":5.381093,"is_reserved":false,"is_disabled":false,"rental_uris":{"android":"levelo://app?vid=0efbab43-d108-42d3-a69a-7cf4a950ead7","ios":"levelo://app?vid=0efbab43-d108-42d3-a69a-7cf4a950ead7"},"vehicle_type_id":"4","last_reported":1774041653,"current_range_meters":8400,"station_id":"ce4bgip2rcd13ifvqbb0","pricing_plan_id":"cebpf4jnsgd1na2vs0mg"},{"bike_id":"f1f05684-c35e-40ef-b486-2d99671c1d77","system_id":"levelo_inurba_marseille","lat":43.31168,"lon":5.38711,"is_reserved":false,"is_disabled":false,"rental_uris":{"android":"levelo://app?vid=f1f05684-c35e-40ef-b486-2d99671c1d77","ios":"levelo://app?vid=f1f05684-c35e-40ef-b486-2d99671c1d77"},"vehicle_type_id":"4","last_reported":1774041653,"current_range_meters":8400,"station_id":"ce4bgv12rcd13ifvqcp0","pricing_plan_id":"cebpf4jnsgd1na2vs0mg"},{"bike_id":"609f2110-5d7a-4e4b-b912-a2a4de0a9bab","system_id":"levelo_inurba_marseille","lat":43.28644,"lon":5.36399,"is_reserved":false,"is_disabled":false,"rental_uris":{"android":"levelo://app?vid=609f2110-5d7a-4e4b-b912-a2a4de0a9bab","ios":"levelo://app?vid=609f2110-5d7a-4e4b-b912-a2a4de0a9bab"},"vehicle_type_id":"4","last_reported":1774041653,"current_range_meters":8400,"station_id":"ce4bhah2rcd13ifvqej0","pricing_plan_id":"cebpf4jnsgd1na2vs0mg"},{"bike_id":"485d18ea-0249-4635-98bb-8652152de738","system_id":"levelo_inurba_marseille","lat":43.23781,"lon":5.3664,"is_reserved":false,"is_disabled":false,"rental_uris":{"android":"levelo://app?vid=485d18ea-0249-4635-98bb-8652152de738","ios":"levelo://app?vid=485d18ea-0249-4635-98bb-8652152de738"},"vehicle_type_id":"4","last_reported":1774041653,"current_range_meters":8400,"station_id":"st_d3nk18o9ro0c73en2l3g","pricing_plan_id":"cebpf4jnsgd1na2vs0mg"},{"bike_id":"c7ca3395-61a6-424a-8b4e-14bb7ddfa33a","system_id":"levelo_inurba_marseille","lat":43.30131,"lon":5.38803,"is_reserved":false,"is_disabled":true,"rental_uris":{"android":"levelo://app?vid=c7ca3395-61a6-424a-8b4e-14bb7ddfa33a","ios":"levelo://app?vid=c7ca3395-61a6-424a-8b4e-14bb7ddfa33a"},"vehicle_type_id":"4","last_reported":1774041653,"current_range_meters":8400,"station_id":"ce4bghh2rcd13ifvqb60","pricing_plan_id":"cebpf4jnsgd1na2vs0mg"},{"bike_id":"c1fd3e07-d04b-4823-a0ff-4b1f57d857dd","system_id":"levelo_inurba_marseille","lat":43.30307,"lon":5.39196,"is_reserved":false,"is_disabled":false,"rental_uris":{"android":"levelo://app?vid=c1fd3e07-d04b-4823-a0ff-4b1f57d857dd","ios":"levelo://app?vid=c1fd3e07-d04b-4823-a0ff-4b1f57d857dd"},"vehicle_type_id":"4","last_reported":1774041653,"current_range_meters":8400,"station_id":"ce4bgkh2rcd13ifvqbk0","pricing_plan_id":"cebpf4jnsgd1na2vs0mg"},{"bike_id":"a5aa7d4c-8e7e-4cd9-a63a-f0c4106e8adf","system_id":"levelo_inurba_marseille","lat":43.29269,"lon":5.38448,"is_reserved":false,"is_disabled":false,"rental_uris":{"android":"levelo://app?vid=a5aa7d4c-8e7e-4cd9-a63a-f0c4106e8adf","ios":"levelo://app?vid=a5aa7d4c-8e7e-4cd9-a63a-f0c4106e8adf"},"vehicle_type_id":"4","last_reported":1774041653,"current_range_meters":8400,"station_id":"ce4bh692rcd13ifvqea0","pricing_plan_id":"cebpf4jnsgd1na2vs0mg"},{"bike_id":"26f2f2e0-a362-4cb9-bbd9-484ffbb8865b","system_id":"levelo_inurba_marseille","lat":43.29871,"lon":5.38917,"is_reserved":false,"is_disabled":false,"rental_uris":{"android":"levelo://app?vid=26f2f2e0-a362-4cb9-bbd9-484ffbb8865b","ios":"levelo://app?vid=26f2f2e0-a362-4cb9-bbd9-484ffbb8865b"},"vehicle_type_id":"4","last_reported":1774041653,"current_range_meters":8400,"station_id":"ce4bh392rcd13ifvqdl0","pricing_plan_id":"cebpf4jnsgd1na2vs0mg"},{"bike_id":"4cfda525-c1a6-40b6-a6a8-f7d117c609ed","system_id":"levelo_inurba_marseille","lat":43.28853,"lon":5.39308,"is_reserved":false,"is_disabled":false,"rental_uris":{"android":"levelo://app?vid=4cfda525-c1a6-40b6-a6a8-f7d117c609ed","ios":"levelo://app?vid=4cfda525-c1a6-40b6-a6a8-f7d117c609ed"},"vehicle_type_id":"4","last_reported":1774041653,"current_range_meters":8400,"station_id":"ce4bh2p2rcd13ifvqdi0","pricing_plan_id":"cebpf4jnsgd1na2vs0mg"},{"bike_id":"95563f2f-e770-4721-af6e-b34b3f0063e2","system_id":"levelo_inurba_marseille","lat":43.29764,"lon":5.37118,"is_reserved":false,"is_disabled":false,"rental_uris":{"android":"levelo://app?vid=95563f2f-e770-4721-af6e-b34b3f0063e2","ios":"levelo://app?vid=95563f2f-e770-4721-af6e-b34b3f0063e2"},"vehicle_type_id":"4","last_reported":1774041653,"current_range_meters":8800,"station_id":"ce4bgop2rcd13ifvqc1g","pricing_plan_id":"cebpf4jnsgd1na2vs0mg"},{"bike_id":"72e035d0-dcc2-4dcf-8660-2e348be6861e","system_id":"levelo_inurba_marseille","lat":43.31461,"lon":5.45376,"is_reserved":false,"is_disabled":false,"rental_uris":{"android":"levelo://app?vid=72e035d0-dcc2-4dcf-8660-2e348be6861e","ios":"levelo://app?vid=72e035d0-dcc2-4dcf-8660-2e348be6861e"},"vehicle_type_id":"4","last_reported":1774041653,"current_range_meters":8800,"station_id":"","pricing_plan_id":"cebpf4jnsgd1na2vs0mg"},{"bike_id":"92f32112-8a58-4a2d-8380-c50aa46da344","system_id":"levelo_inurba_marseille","lat":43.24071,"lon":5.36369,"is_reserved":false,"is_disabled":false,"rental_uris":{"android":"levelo://app?vid=92f32112-8a58-4a2d-8380-c50aa46da344","ios":"levelo://app?vid=92f32112-8a58-4a2d-8380-c50aa46da344"},"vehicle_type_id":"4","last_reported":1774041653,"current_range_meters":8800,"station_id":"","pricing_plan_id":"cebpf4jnsgd1na2vs0mg"},