{"last_updated":1722363058,"ttl":30,"version":"2.2","data":{"bikes":[{"bike_id":"763c3ee1-fb98-48d1-99f1-d8fc8e79df3f","system_id":"levelo_inurba_marseille","lat":43.3124,"lon":5.36816,"is_reserved":false,"is_disabled":false,"rental_uris":{"android":"levelo://app?vid=763c3ee1-fb98-48d1-99f1-d8fc8e79df3f","ios":"levelo://app?vid=763c3ee1-fb98-48d1-99f1-d8fc8e79df3f"},"vehicle_type_id":"4","last_reported":1722363058,"current_range_meters":16400,"station_id":"ce4bgl92rcd13ifvqbq0","pricing_plan_id":"cebpf4jnsgd1na2vs0mg"},{"bike_id":"0c204385-009b-48a3-99b5-0e0e0d91b30f","system_id":"levelo_inurba_marseille","lat":43.31234,"lon":5.36819,"is_reserved":false,"is_disabled":false,"rental_uris":{"android":"levelo://app?vid=0c204385-009b-48a3-99b5-0e0e0d91b30f","ios":"levelo://app?vid=0c204385-009b-48a3-99b5-0e0e0d91b30f"},"vehicle_type_id":"4","last_reported":1722363058,"current_range_meters":5600,"station_id":"ce4bgl92rcd13ifvqbq0","pricing_plan_id":"cebpf4jnsgd1na2vs0mg"},{"bike_id":"def5710e-d266-4f5d-9f1f-fd3103fccbef","system_id":"levelo_inurba_marseille","lat":43.31243,"lon":5.36825,"is_reserved":false,"is_disabled":false,"rental_uris":{"android":"levelo://app?vid=def5710e-d266-4f5d-9f1f-fd3103fccbef","ios":"levelo://app?vid=def5710e-d266-4f5d-9f1f-fd3103fccbef"},"vehicle_type_id":"4","last_reported":1722363058,"current_range_meters":0,"station_id":"","pricing_plan_id":"cebpf4jnsgd1na2vs0mg"},{"bike_id":"f76b8154-7ae7-4119-9d4b-306e3d27af4e","system_id":"levelo_inurba_marseille","lat":43.314811,"lon":5.373103,"is_reserved":false,"is_disabled":false,"rental_uris":{"android":"levelo://app?vid=f76b8154-7ae7-4119-9d4b-306e3d27af4e","ios":"levelo://app?vid=f76b8154-7ae7-4119-9d4b-306e3d27af4e"},"vehicle_type_id":"4","last_reported":1722363058,"current_range_meters":1200,"station_id":"ce4bgt12rcd13ifvqcd0","pricing_plan_id":"cebpf4jnsgd1na2vs0mg"},{"bike_id":"1dc499d6-97af-4e68-b6e7-7b2106b8b68d","system_id":"levelo_inurba_marseille","lat":43.317017,"lon":5.37392,"is_reserved":false,"is_disabled":false,"rental_uris":{"android":"levelo://app?vid=1dc499d6-97af-4e68-b6e7-7b2106b8b68d","ios":"levelo://app?vid=1dc499d6-97af-4e68-b6e7-7b2106b8b68d"},"vehicle_type_id":"4","last_reported":1722363058,"current_range_meters":0,"station_id":"","pricing_plan_id":"cebpf4jnsgd1na2vs0mg"},{"bike_id":"a813189c-a7ef-405c-9468-d1785eb060e9","system_id":"levelo_inurba_marseille","lat":43.30543,"lon":5.36539,"is_reserved":false,"is_disabled":false,"rental_uris":{"android":"levelo://app?vid=a813189c-a7ef-405c-9468-d1785eb060e9","ios":"levelo://app?vid=a813189c-a7ef-405c-9468-d1785eb060e9"},"vehicle_type_id":"4","last_reported":1722363058,"current_range_meters":0,"station_id":"ce4bgs12rcd13ifvqcag","pricing_plan_id":"cebpf4jnsgd1na2vs0mg"},{"bike_id":"c5b3fcdb-cc23-42c5-86b9-92e089ed4ac8","system_id":"levelo_inurba_marseille","lat":43.30541,"lon":5.36547,"is_reserved":false,"is_disabled":false,"rental_uris":{"android":"levelo://app?vid=c5b3fcdb-cc23-42c5-86b9-92e089ed4ac8","ios":"levelo://app?vid=c5b3fcdb-cc23-42c5-86b9-92e089ed4ac8"},"vehicle_type_id":"4","last_reported":1722363058,"current_range_meters":8000,"station_id":"ce4bgs12rcd13ifvqcag","pricing_plan_id":"cebpf4jnsgd1na2vs0mg"},{"bike_id":"bca7b021-933f-49d3-9772-c5a9df80b10e","system_id":"levelo_inurba_marseille","lat":43.305989,"lon":5.37225,"is_reserved":false,"is_disabled":false,"rental_uris":{"android":"levelo://app?vid=bca7b021-933f-49d3-9772-c5a9df80b10e","ios":"levelo://app?vid=bca7b021-933f-49d3-9772-c5a9df80b10e"},"vehicle_type_id":"4","last_reported":1722363058,"current_range_meters":1600,"station_id":"ce4bgqh2rcd13ifvqc4g","pricing_plan_id":"cebpf4jnsgd1na2vs0mg"},{"bike_id":"338d49fa-49ab-4e97-a4d5-fff72294587c","system_id":"levelo_inurba_marseille","lat":43.311125,"lon":5.377624,"is_reserved":false,"is_disabled":false,"rental_uris":{"android":"levelo://app?vid=338d49fa-49ab-4e97-a4d5-fff72294587c","ios":"levelo://app?vid=338d49fa-49ab-4e97-a4d5-fff72294587c"},"vehicle_type_id":"4","last_reported":1722363058,"current_range_meters":0,"station_id":"ce4bgt92rcd13ifvqcg0","pricing_plan_id":"cebpf4jnsgd1na2vs0mg"},{"bike_id":"2f9a36ff-61b6-44c0-858a-f6a8a5b5ac45","system_id":"levelo_inurba_marseille","lat":43.31113,"lon":5.37762,"is_reserved":false,"is_disabled":false,"rental_uris":{"android":"levelo://app?vid=2f9a36ff-61b6-44c0-858a-f6a8a5b5ac45","ios":"levelo://app?vid=2f9a36ff-61b6-44c0-858a-f6a8a5b5ac45"},"vehicle_type_id":"4","last_reported":1722363058,"current_range_meters":0,"station_id":"ce4bgt92rcd13ifvqcg0","pricing_plan_id":"cebpf4jnsgd1na2vs0mg"},{"bike_id":"d760fd40-7b70-4b36-bde0-53c6a0c9bf21","system_id":"levelo_inurba_marseille","lat":43.307945,"lon":5.376487,"is_reserved":false,"is_disabled":false,"rental_uris":{"android":"levelo://app?vid=d760fd40-7b70-4b36-bde0-53c6a0c9bf21","ios":"levelo://app?vid=d760fd40-7b70-4b36-bde0-53c6a0c9bf21"},"vehicle_type_id":"4","last_reported":1722363058,"current_range_meters":8000,"station_id":"ce4bgv92rcd13ifvqcq0","pricing_plan_id":"cebpf4jnsgd1na2vs0mg"},{"bike_id":"08caa18b-7039-4612-a81e-33e4c2b99e62","system_id":"levelo_inurba_marseille","lat":43.307945,"lon":5.376487,"is_reserved":false,"is_disabled":false,"rental_uris":{"android":"levelo://app?vid=08caa18b-7039-4612-a81e-33e4c2b99e62","ios":"levelo://app?vid=08caa18b-7039-4612-a81e-33e4c2b99e62"},"vehicle_type_id":"4","last_reported":1722363058,"current_range_meters":6800,"station_id":"ce4bgv92rcd13ifvqcq0","pricing_plan_id":"cebpf4jnsgd1na2vs0mg"},{"bike_id":"18a2db18-64f8-4cc1-9bc0-37f8fde23608","system_id":"levelo_inurba_marseille","lat":43.317075,"lon":5.377367,"is_reserved":false,"is_disabled":false,"rental_uris":{"android":"levelo://app?vid=18a2db18-64f8-4cc1-9bc0-37f8fde23608","ios":"levelo://app?vid=18a2db18-64f8-4cc1-9bc0-37f8fde23608"},"vehicle_type_id":"4","last_reported":1722363058,"current_range_meters":28000,"station_id":"ce4bgth2rcd13ifvqch0","pricing_plan_id":"cebpf4jnsgd1na2vs0mg"},{"bike_id":"93eb177f-35a7-4d93-9d3e-c63b3ef6dcce","system_id":"levelo_inurba_marseille","lat":43.31166,"lon":5.37984,"is_reserved":false,"is_disabled":false,"rental_uris":{"android":"levelo://app?vid=93eb177f-35a7-4d93-9d3e-c63b3ef6dcce","ios":"levelo://app?vid=93eb177f-35a7-4d93-9d3e-c63b3ef6dcce"},"vehicle_type_id":"4","last_reported":1722363058,"current_range_meters":12400,"station_id":"","pricing_plan_id":"cebpf4jnsgd1na2vs0mg"},{"bike_id":"73f58f22-0d99-4c84-8411-c4f8da74d999","system_id":"levelo_inurba_marseille","lat":43.302833,"lon":5.36761,"is_reserved":false,"is_disabled":false,"rental_uris":{"android":"levelo://app?vid=73f58f22-0d99-4c84-8411-c4f8da74d999","ios":"levelo://app?vid=73f58f22-0d99-4c84-8411-c4f8da74d999"},"vehicle_type_id":"4","last_reported":1722363058,"current_range_meters":0,"station_id":"","pricing_plan_id":"cebpf4jnsgd1na2vs0mg"},{"bike_id":"109aa6a2-32f8-4340-abbf-3891066e06e8","system_id":"levelo_inurba_marseille","lat":43.31528,"lon":5.38032,"is_reserved":false,"is_disabled":false,"rental_uris":{"android":"levelo://app?vid=109aa6a2-32f8-4340-abbf-3891066e06e8","ios":"levelo://app?vid=109aa6a2-32f8-4340-abbf-3891066e06e8"},"vehicle_type_id":"4","last_reported":1722363058,"current_range_meters":0,"station_id":"ce4bhsp2rcd13ifvqi50","pricing_plan_id":"cebpf4jnsgd1na2vs0mg"},{"bike_id":"e2230309-7a84-46f5-9210-e46114ecbc49","system_id":"levelo_inurba_marseille","lat":43.30858,"lon":5.379553,"is_reserved":false,"is_disabled":false,"rental_uris":{"android":"levelo://app?vid=e2230309-7a84-46f5-9210-e46114ecbc49","ios":"levelo://app?vid=e2230309-7a84-46f5-9210-e46114ecbc49"},"vehicle_type_id":"4","last_reported":1722363058,"current_range_meters":13600,"station_id":"","pricing_plan_id":"cebpf4jnsgd1na2vs0mg"},{"bike_id":"6de4c134-83cb-4c14-ac3f-1be735e40e86","system_id":"levelo_inurba_marseille","lat":43.315289,"lon":5.380349,"is_reserved":false,"is_disabled":false,"rental_uris":{"android":"levelo://app?vid=6de4c134-83cb-4c14-ac3f-1be735e40e86","ios":"levelo://app?vid=6de4c134-83cb-4c14-ac3f-1be735e40e86"},"vehicle_type_id":"4","last_reported":1722363058,"current_range_meters":9200,"station_id":"ce4bhsp2rcd13ifvqi50","pricing_plan_id":"cebpf4jnsgd1na2vs0mg"},{"bike_id":"f7a43328-f890-4198-a16e-f2e9289b65b7","system_id":"levelo_inurba_marseille","lat":43.301939,"lon":5.366286,"is_reserved":false,"is_disabled":false,"rental_uris":{"android":"levelo://app?vid=f7a43328-f890-4198-a16e-f2e9289b65b7","ios":"levelo://app?vid=f7a43328-f890-4198-a16e-f2e9289b65b7"},"vehicle_type_id":"4","last_reported":1722363058,"current_range_meters":3600,"station_id":"ce4bgrh2rcd13ifvqc8g","pricing_plan_id":"cebpf4jnsgd1na2vs0mg"},{"bike_id":"f2016d65-eec5-4510-addb-987ed803af6b","system_id":"levelo_inurba_marseille","lat":43.301939,"lon":5.366286,"is_reserved":false,"is_disabled":false,"rental_uris":{"android":"levelo://app?vid=f2016d65-eec5-4510-addb-987ed803af6b","ios":"levelo://app?vid=f2016d65-eec5-4510-addb-987ed803af6b"},"vehicle_type_id":"4","last_reported":1722363058,"current_range_meters":25600,"station_id":"ce4bgrh2rcd13ifvqc8g","pricing_plan_id":"cebpf4jnsgd1na2vs0mg"},{"bike_id":"74b03b6a-8798-4772-8cdb-54033e3464c6","system_id":"levelo_inurba_marseille","lat":43.308012,"lon":5.381511,"is_reserved":false,"is_disabled":false,"rental_uris":{"android":"levelo://app?vid=74b03b6a-8798-4772-8cdb-54033e3464c6","ios":"levelo://app?vid=74b03b6a-8798-4772-8cdb-54033e3464c6"},"vehicle_type_id":"4","last_reported":1722363058,"current_range_meters":12000,"station_id":"ce4bgt12rcd13ifvqce0","pricing_plan_id":"cebpf4jnsgd1na2vs0mg"},{"bike_id":"fda966d1-aa7d-48d2-a63e-b9485fbfb3ff","system_id":"levelo_inurba_marseille","lat":43.311943,"lon":5.38286,"is_reserved":false,"is_disabled":false,"rental_uris":{"android":"levelo://app?vid=fda966d1-aa7d-48d2-a63e-b9485fbfb3ff","ios":"levelo://app?vid=fda966d1-aa7d-48d2-a63e-b9485fbfb3ff"},"vehicle_type_id":"4","last_reported":1722363058,"current_range_meters":16400,"station_id":"","pricing_plan_id":"cebpf4jnsgd1na2vs0mg"},{"bike_id":"2cea40d3-5fd0-4d75-8dd2-15c4087239df","system_id":"levelo_inurba_marseille","lat":43.324771,"lon":5.36557,"is_reserved":false,"is_disabled":false,"rental_uris":{"android":"levelo://app?vid=2cea40d3-5fd0-4d75-8dd2-15c4087239df","ios":"levelo://app?vid=2cea40d3-5fd0-4d75-8dd2-15c4087239df"},"vehicle_type_id":"4","last_reported":1722363058,"current_range_meters":31200,"station_id":"ce4bhs12rcd13ifvqhvg","pricing_plan_id":"cebpf4jnsgd1na2vs0mg"},{"bike_id":"8ff35442-5aba-40af-8700-3ca0987f6871","system_id":"levelo_inurba_marseille","lat":43.324771,"lon":5.36557,"is_reserved":false,"is_disabled":false,"rental_uris":{"android":"levelo://app?vid=8ff35442-5aba-40af-8700-3ca0987f6871","ios":"levelo://app?vid=8ff35442-5aba-40af-8700-3ca0987f6871"},"vehicle_type_id":"4","last_reported":1722363058,"current_range_meters":31600,"station_id":"ce4bhs12rcd13ifvqhvg","pricing_plan_id":"cebpf4jnsgd1na2vs0mg"},{"bike_id":"54895650-e49b-4264-8eac-814f7cf3cd6a","system_id":"levelo_inurba_marseille","lat":43.324771,"lon":5.36557,"is_reserved":false,"is_disabled":false,"rental_uris":{"android":"levelo://app?vid=54895650-e49b-4264-8eac-814f7cf3cd6a","ios":"levelo://app?vid=54895650-e49b-4264-8eac-814f7cf3cd6a"},"vehicle_type_id":"4","last_reported":1722363058,"current_range_meters":31200,"station_id":"ce4bhs12rcd13ifvqhvg","pricing_plan_id":"cebpf4jnsgd1na2vs0mg"},{"bike_id":"99bd0741-5faa-4815-a2e1-13964c9aab5f","system_id":"levelo_inurba_marseille","lat":43.324771,"lon":5.36557,"is_reserved":false,"is_disabled":false,"rental_uris":{"android":"levelo://app?vid=99bd0741-5faa-4815-a2e1-13964c9aab5f","ios":"levelo://app?vid=99bd0741-5faa-4815-a2e1-13964c9aab5f"},"vehicle_type_id":"4","last_reported":1722363058,"current_range_meters":31200,"station_id":"ce4bhs12rcd13ifvqhvg","pricing_plan_id":"cebpf4jnsgd1na2vs0mg"},{"bike_id":"b91e00b6-fad8-48fa-a5fe-93d84a028d26","system_id":"levelo_inurba_marseille","lat":43.324771,"lon":5.36557,"is_reserved":false,"is_disabled":false,"rental_uris":{"android":"levelo://app?vid=b91e00b6-fad8-48fa-a5fe-93d84a028d26","ios":"levelo://app?vid=b91e00b6-fad8-48fa-a5fe-93d84a028d26"},"vehicle_type_id":"4","last_reported":1722363058,"current_range_meters":26000,"station_id":"ce4bhs12rcd13ifvqhvg","pricing_plan_id":"cebpf4jnsgd1na2vs0mg"},{"bike_id":"cf2295fe-e9a5-4fa3-992d-424feac9b7ac","system_id":"levelo_inurba_marseille","lat":43.324771,"lon":5.36557,"is_reserved":false,"is_disabled":false,"rental_uris":{"android":"levelo://app?vid=cf2295fe-e9a5-4fa3-992d-424feac9b7ac","ios":"levelo://app?vid=cf2295fe-e9a5-4fa3-992d-424feac9b7ac"},"vehicle_type_id":"4","last_reported":1722363058,"current_range_meters":31200,"station_id":"ce4bhs12rcd13ifvqhvg","pricing_plan_id":"cebpf4jnsgd1na2vs0mg"},{"bike_id":"bbc4a081-5d44-4c70-aca6-ba0be4373e40","system_id":"levelo_inurba_marseille","lat":43.324771,"lon":5.36557,"is_reserved":false,"is_disabled":false,"rental_uris":{"android":"levelo://app?vid=bbc4a081-5d44-4c70-aca6-ba0be4373e40","ios":"levelo://app?vid=bbc4a081-5d44-4c70-aca6-ba0be4373e40"},"vehicle_type_id":"4","last_reported":1722363058,"current_range_meters":22400,"station_id":"ce4bhs12rcd13ifvqhvg","pricing_plan_id":"cebpf4jnsgd1na2vs0mg"},{"bike_id":"81b2cec5-9edc-4aa8-9eb0-9d0322aedda7","system_id":"levelo_inurba_marseille","lat":43.31991,"lon":5.38159,"is_reserved":false,"is_disabled":false,"rental_uris":{"android":"levelo://app?vid=81b2cec5-9edc-4aa8-9eb0-9d0322aedda7","ios":"levelo://app?vid=81b2cec5-9edc-4aa8-9eb0-9d0322aedda7"},"vehicle_type_id":"4","last_reported":1722363058,"current_range_meters":31200,"station_id":"ce4bhr12rcd13ifvqhpg","pricing_plan_id":"cebpf4jnsgd1na2vs0mg"},{"bike_id":"551fe17e-47c8-4fd9-8c8a-e5db7ee65fa2","system_id":"levelo_inurba_marseille","lat":43.313571,"lon":5.384829,"is_reserved":false,"is_disabled":false,"rental_uris":{"android":"levelo://app?vid=551fe17e-47c8-4fd9-8c8a-e5db7ee65fa2","ios":"levelo://app?vid=551fe17e-47c8-4fd9-8c8a-e5db7ee65fa2"},"vehicle_type_id":"4","last_reported":1722363058,"current_range_meters":20400,"station_id":"ce4bgt92rcd13ifvqcf0","pricing_plan_id":"cebpf4jnsgd1na2vs0mg"},{"bike_id":"5f1e52b7-e903-4e03-b5af-d397ffad87a7","system_id":"levelo_inurba_marseille","lat":43.299222,"lon":5.365554,"is_reserved":false,"is_disabled":false,"rental_uris":{"android":"levelo://app?vid=5f1e52b7-e903-4e03-b5af-d397ffad87a7","ios":"levelo://app?vid=5f1e52b7-e903-4e03-b5af-d397ffad87a7"},"vehicle_type_id":"4","last_reported":1722363058,"current_range_meters":31200,"station_id":"ce4bgm92rcd13ifvqbr0","pricing_plan_id":"cebpf4jnsgd1na2vs0mg"},{"bike_id":"36b7f174-53d8-402e-81dc-003c23100589","system_id":"levelo_inurba_marseille","lat":43.299222,"lon":5.365554,"is_reserved":false,"is_disabled":false,"rental_uris":{"android":"levelo://app?vid=36b7f174-53d8-402e-81dc-003c23100589","ios":"levelo://app?vid=36b7f174-53d8-402e-81dc-003c23100589"},"vehicle_type_id":"4","last_reported":1722363058,"current_range_meters":16400,"station_id":"ce4bgm92rcd13ifvqbr0","pricing_plan_id":"cebpf4jnsgd1na2vs0mg"},{"bike_id":"22c9c77e-e02b-4415-a16a-b5f9e2ba7f40","system_id":"levelo_inurba_marseille","lat":43.29934,"lon":5.36535,"is_reserved":false,"is_disabled":false,"rental_uris":{"android":"levelo://app?vid=22c9c77e-e02b-4415-a16a-b5f9e2ba7f40","ios":"levelo://app?vid=22c9c77e-e02b-4415-a16a-b5f9e2ba7f40"},"vehicle_type_id":"4","last_reported":1722363058,"current_range_meters":30400,"station_id":"ce4bgm92rcd13ifvqbr0","pricing_plan_id":"cebpf4jnsgd1na2vs0mg"},{"bike_id":"f6c4f99f-73a5-4e65-894e-17e869bbc64e","system_id":"levelo_inurba_marseille","lat":43.299724,"lon":5.371829,"is_reserved":false,"is_disabled":false,"rental_uris":{"android":"levelo://app?vid=f6c4f99f-73a5-4e65-894e-17e869bbc64e","ios":"levelo://app?vid=f6c4f99f-73a5-4e65-894e-17e869bbc64e"},"vehicle_type_id":"4","last_reported":1722363058,"current_range_meters":400,"station_id":"ce4bgr92rcd13ifvqc7g","pricing_plan_id":"cebpf4jnsgd1na2vs0mg"},{"bike_id":"72f5f952-d309-40f8-997e-186b37d551a4","system_id":"levelo_inurba_marseille","lat":43.299209,"lon":5.365547,"is_reserved":false,"is_disabled":false,"rental_uris":{"android":"levelo://app?vid=72f5f952-d309-40f8-997e-186b37d551a4","ios":"levelo://app?vid=72f5f952-d309-40f8-997e-186b37d551a4"},"vehicle_type_id":"4","last_reported":1722363058,"current_range_meters":31200,"station_id":"ce4bgm92rcd13ifvqbr0","pricing_plan_id":"cebpf4jnsgd1na2vs0mg"},{"bike_id":"b4f316c8-ae9e-490e-b6f3-9436814039ba","system_id":"levelo_inurba_marseille","lat":43.32001,"lon":5.38279,"is_reserved":false,"is_disabled":false,"rental_uris":{"android":"levelo://app?vid=b4f316c8-ae9e-490e-b6f3-9436814039ba","ios":"levelo://app?vid=b4f316c8-ae9e-490e-b6f3-9436814039ba"},"vehicle_type_id":"4","last_reported":1722363058,"current_range_meters":13200,"station_id":"","pricing_plan_id":"cebpf4jnsgd1na2vs0mg"},{"bike_id":"9e59dc63-1c0d-4891-a590-f0c6445e7b56","system_id":"levelo_inurba_marseille","lat":43.32008,"lon":5.38283,"is_reserved":false,"is_disabled":false,"rental_uris":{"android":"levelo://app?vid=9e59dc63-1c0d-4891-a590-f0c6445e7b56","ios":"levelo://app?vid=9e59dc63-1c0d-4891-a590-f0c6445e7b56"},"vehicle_type_id":"4","last_reported":1722363058,"current_range_meters":7600,"station_id":"","pricing_plan_id":"cebpf4jnsgd1na2vs0mg"},{"bike_id":"eca1ad18-bfc7-4d68-8deb-0d3723e9e467","system_id":"levelo_inurba_marseille","lat":43.32129,"lon":5.38294,"is_reserved":false,"is_disabled":false,"rental_uris":{"android":"levelo://app?vid=eca1ad18-bfc7-4d68-8deb-0d3723e9e467","ios":"levelo://app?vid=eca1ad18-bfc7-4d68-8deb-0d3723e9e467"},"vehicle_type_id":"4","last_reported":1722363058,"current_range_meters":9600,"station_id":"","pricing_plan_id":"cebpf4jnsgd1na2vs0mg"},{"bike_id":"5f891965-243d-4268-a6be-25ad5e9d37df","system_id":"levelo_inurba_marseille","lat":43.29851,"lon":5.36282,"is_reserved":false,"is_disabled":false,"rental_uris":{"android":"levelo://app?vid=5f891965-243d-4268-a6be-25ad5e9d37df","ios":"levelo://app?vid=5f891965-243d-4268-a6be-25ad5e9d37df"},"vehicle_type_id":"4","last_reported":1722363058,"current_range_meters":4400,"station_id":"ce4bgpp2rcd13ifvqc3g","pricing_plan_id":"cebpf4jnsgd1na2vs0mg"},{"bike_id":"3a03c0c8-f48c-4eb7-9fe5-17f1d4c67650","system_id":"levelo_inurba_marseille","lat":43.29847,"lon":5.36281,"is_reserved":false,"is_disabled":false,"rental_uris":{"android":"levelo://app?vid=3a03c0c8-f48c-4eb7-9fe5-17f1d4c67650","ios":"levelo://app?vid=3a03c0c8-f48c-4eb7-9fe5-17f1d4c67650"},"vehicle_type_id":"4","last_reported":1722363058,"current_range_meters":20000,"station_id":"ce4bgpp2rcd13ifvqc3g","pricing_plan_id":"cebpf4jnsgd1na2vs0mg"},{"bike_id":"e3e0ffaa-4c61-4f46-bce9-8c74f4937f89","system_id":"levelo_inurba_marseille","lat":43.298433,"lon":5.362774,"is_reserved":false,"is_disabled":false,"rental_uris":{"android":"levelo://app?vid=e3e0ffaa-4c61-4f46-bce9-8c74f4937f89","ios":"levelo://app?vid=e3e0ffaa-4c61-4f46-bce9-8c74f4937f89"},"vehicle_type_id":"4","last_reported":1722363058,"current_range_meters":2800,"station_id":"ce4bgpp2rcd13ifvqc3g","pricing_plan_id":"cebpf4jnsgd1na2vs0mg"},{"bike_id":"36514dbc-4d58-4db2-bd52-cb7b248c2226","system_id":"levelo_inurba_marseille","lat":43.32155,"lon":5.38294,"is_reserved":false,"is_disabled":false,"rental_uris":{"android":"levelo://app?vid=36514dbc-4d58-4db2-bd52-cb7b248c2226","ios":"levelo://app?vid=36514dbc-4d58-4db2-bd52-cb7b248c2226"},"vehicle_type_id":"4","last_reported":1722363058,"current_range_meters":0,"station_id":"","pricing_plan_id":"cebpf4jnsgd1na2vs0mg"},{"bike_id":"f2407b14-3b20-410e-86d8-3624797b721e","system_id":"levelo_inurba_marseille","lat":43.298412,"lon":5.362689,"is_reserved":false,"is_disabled":false,"rental_uris":{"android":"levelo://app?vid=f2407b14-3b20-410e-86d8-3624797b721e","ios":"levelo://app?vid=f2407b14-3b20-410e-86d8-3624797b721e"},"vehicle_type_id":"4","last_reported":1722363058,"current_range_meters":28400,"station_id":"","pricing_plan_id":"cebpf4jnsgd1na2vs0mg"},{"bike_id":"c105a6cb-79a1-4167-9445-ef6a404a78b4","system_id":"levelo_inurba_marseille","lat":43.311722,"lon":5.387247,"is_reserved":false,"is_disabled":false,"rental_uris":{"android":"levelo://app?vid=c105a6cb-79a1-4167-9445-ef6a404a78b4","ios":"levelo://app?vid=c105a6cb-79a1-4167-9445-ef6a404a78b4"},"vehicle_type_id":"4","last_reported":1722363058,"current_range_meters":19200,"station_id":"ce4bgv12rcd13ifvqcp0","pricing_plan_id":"cebpf4jnsgd1na2vs0mg"},{"bike_id":"fea679d5-3119-49ac-9fd9-695858814bed","system_id":"levelo_inurba_marseille","lat":43.30153,"lon":5.38099,"is_reserved":false,"is_disabled":false,"rental_uris":{"android":"levelo://app?vid=fea679d5-3119-49ac-9fd9-695858814bed","ios":"levelo://app?vid=fea679d5-3119-49ac-9fd9-695858814bed"},"vehicle_type_id":"4","last_reported":1722363058,"current_range_meters":0,"station_id":"","pricing_plan_id":"cebpf4jnsgd1na2vs0mg"},{"bike_id":"0634c343-c64d-4dbf-a3b8-aef615139325","system_id":"levelo_inurba_marseille","lat":43.30144,"lon":5.380917,"is_reserved":false,"is_disabled":false,"rental_uris":{"android":"levelo://app?vid=0634c343-c64d-4dbf-a3b8-aef615139325","ios":"levelo://app?vid=0634c343-c64d-4dbf-a3b8-aef615139325"},"vehicle_type_id":"4","last_reported":1722363058,"current_range_meters":0,"station_id":"","pricing_plan_id":"cebpf4jnsgd1na2vs0mg"},{"bike_id":"d6943fe6-e2c5-4393-9a32-2b162452b951","system_id":"levelo_inurba_marseille","lat":43.322872,"lon":5.382756,"is_reserved":false,"is_disabled":false,"rental_uris":{"android":"levelo://app?vid=d6943fe6-e2c5-4393-9a32-2b162452b951","ios":"levelo://app?vid=d6943fe6-e2c5-4393-9a32-2b162452b951"},"vehicle_type_id":"4","last_reported":1722363058,"current_range_meters":22400,"station_id":"ce4bhr12rcd13ifvqhqg","pricing_plan_id":"cebpf4jnsgd1na2vs0mg"},{"bike_id":"93b8c960-1928-460b-be2f-4462643980aa","system_id":"levelo_inurba_marseille","lat":43.297163,"lon":5.365866,"is_reserved":false,"is_disabled":false,"rental_uris":{"android":"levelo://app?vid=93b8c960-1928-460b-be2f-4462643980aa","ios":"levelo://app?vid=93b8c960-1928-460b-be2f-4462643980aa"},"vehicle_type_id":"4","last_reported":1722363058,"current_range_meters":9200,"station_id":"ce4bgn12rcd13ifvqbt0","pricing_plan_id":"cebpf4jnsgd1na2vs0mg"},{"bike_id":"36fb8efa-f86f-46e3-a9b0-ed4b11962a84","system_id":"levelo_inurba_marseille","lat":43.297163,"lon":5.365866,"is_reserved":false,"is_disabled":false,"rental_uris":{"android":"levelo://app?vid=36fb8efa-f86f-46e3-a9b0-ed4b11962a84","ios":"levelo://app?vid=36fb8efa-f86f-46e3-a9b0-ed4b11962a84"},"vehicle_type_id":"4","last_reported":1722363058,"current_range_meters":1200,"station_id":"ce4bgn12rcd13ifvqbt0","pricing_plan_id":"cebpf4jnsgd1na2vs0mg"},{"bike_id":"9266143a-9546-4c26-9e06-b1ecc4abae8a","system_id":"levelo_inurba_marseille","lat":43.300265,"lon":5.382035,"is_reserved":false,"is_disabled":false,"rental_uris":{"android":"levelo://app?vid=9266143a-9546-4c26-9e06-b1ecc4abae8a","ios":"levelo://app?vid=9266143a-9546-4c26-9e06-b1ecc4abae8a"},"vehicle_type_id":"4","last_reported":1722363058,"current_range_meters":5600,"station_id":"","pricing_plan_id":"cebpf4jnsgd1na2vs0mg"},{"bike_id":"e84a76ca-d7f0-49a9-872f-5c1da2ebf394","system_id":"levelo_inurba_marseille","lat":43.296131,"lon":5.370791,"is_reserved":false,"is_disabled":false,"rental_uris":{"android":"levelo://app?vid=e84a76ca-d7f0-49a9-872f-5c1da2ebf394","ios":"levelo://app?vid=e84a76ca-d7f0-49a9-872f-5c1da2ebf394"},"vehicle_type_id":"4","last_reported":1722363058,"current_range_meters":2800,"station_id":"ce4bgnh2rcd13ifvqc0g","pricing_plan_id":"cebpf4jnsgd1na2vs0mg"},{"bike_id":"14477702-f006-4b79-80d8-c341b767b34a","system_id":"levelo_inurba_marseille","lat":43.296935,"lon":5.376544,"is_reserved":false,"is_disabled":false,"rental_uris":{"android":"levelo://app?vid=14477702-f006-4b79-80d8-c341b767b34a","ios":"levelo://app?vid=14477702-f006-4b79-80d8-c341b767b34a"},"vehicle_type_id":"4","last_reported":1722363058,"current_range_meters":3600,"station_id":"ce4bgkh2rcd13ifvqbl0","pricing_plan_id":"cebpf4jnsgd1na2vs0mg"},{"bike_id":"f1d2e7fd-a6f5-4a2d-8444-80dc9839d9d9","system_id":"levelo_inurba_marseille","lat":43.30947,"lon":5.39024,"is_reserved":false,"is_disabled":false,"rental_uris":{"android":"levelo://app?vid=f1d2e7fd-a6f5-4a2d-8444-80dc9839d9d9","ios":"levelo://app?vid=f1d2e7fd-a6f5-4a2d-8444-80dc9839d9d9"},"vehicle_type_id":"4","last_reported":1722363058,"current_range_meters":0,"station_id":"ce4bgup2rcd13ifvqco0","pricing_plan_id":"cebpf4jnsgd1na2vs0mg"},{"bike_id":"da33d3a0-5dc1-47f3-8223-2548b5a2ed16","system_id":"levelo_inurba_marseille","lat":43.309589,"lon":5.390258,"is_reserved":false,"is_disabled":false,"rental_uris":{"android":"levelo://app?vid=da33d3a0-5dc1-47f3-8223-2548b5a2ed16","ios":"levelo://app?vid=da33d3a0-5dc1-47f3-8223-2548b5a2ed16"},"vehicle_type_id":"4","last_reported":1722363058,"current_range_meters":0,"station_id":"ce4bgup2rcd13ifvqco0","pricing_plan_id":"cebpf4jnsgd1na2vs0mg"},{"bike_id":"689ac155-e57b-4311-86bb-bdb1065b7f23","system_id":"levelo_inurba_marseille","lat":43.317557,"lon":5.390173,"is_reserved":false,"is_disabled":false,"rental_uris":{"android":"levelo://app?vid=689ac155-e57b-4311-86bb-bdb1065b7f23","ios":"levelo://app?vid=689ac155-e57b-4311-86bb-bdb1065b7f23"},"vehicle_type_id":"4","last_reported":1722363058,"current_range_meters":3600,"station_id":"ce4bhqp2rcd13ifvqhng","pricing_plan_id":"cebpf4jnsgd1na2vs0mg"},{"bike_id":"02f4bb60-1e0a-4264-aa1d-cd52ab922d18","system_id":"levelo_inurba_marseille","lat":43.317557,"lon":5.390173,"is_reserved":false,"is_disabled":false,"rental_uris":{"android":"levelo://app?vid=02f4bb60-1e0a-4264-aa1d-cd52ab922d18","ios":"levelo://app?vid=02f4bb60-1e0a-4264-aa1d-cd52ab922d18"},"vehicle_type_id":"4","last_reported":1722363058,"current_range_meters":10800,"station_id":"ce4bhqp2rcd13ifvqhng","pricing_plan_id":"cebpf4jnsgd1na2vs0mg"},{"bike_id":"d79fc152-1ed9-4542-9a73-15edf1f5d98a","system_id":"levelo_inurba_marseille","lat":43.298037,"lon":5.381066,"is_reserved":false,"is_disabled":false,"rental_uris":{"android":"levelo://app?vid=d79fc152-1ed9-4542-9a73-15edf1f5d98a","ios":"levelo://app?vid=d79fc152-1ed9-4542-9a73-15edf1f5d98a"},"vehicle_type_id":"4","last_reported":1722363058,"current_range_meters":0,"station_id":"ce4bgip2rcd13ifvqbb0","pricing_plan_id":"cebpf4jnsgd1na2vs0mg"},{"bike_id":"10666167-65f2-4402-a942-a5b8449395df","system_id":"levelo_inurba_marseille","lat":43.298037,"lon":5.381066,"is_reserved":false,"is_disabled":false,"rental_uris":{"android":"levelo://app?vid=10666167-65f2-4402-a942-a5b8449395df","ios":"levelo://app?vid=10666167-65f2-4402-a942-a5b8449395df"},"vehicle_type_id":"4","last_reported":1722363058,"current_range_meters":800,"station_id":"ce4bgip2rcd13ifvqbb0","pricing_plan_id":"cebpf4jnsgd1na2vs0mg"},{"bike_id":"50b66a48-ffc2-450c-90f3-302ed72c77d0","system_id":"levelo_inurba_marseille","lat":43.304278,"lon":5.388868,"is_reserved":false,"is_disabled":false,"rental_uris":{"android":"levelo://app?vid=50b66a48-ffc2-450c-90f3-302ed72c77d0","ios":"levelo://app?vid=50b66a48-ffc2-450c-90f3-302ed72c77d0"},"vehicle_type_id":"4","last_reported":1722363058,"current_range_meters":800,"station_id":"ce4bgk12rcd13ifvqbi0","pricing_plan_id":"cebpf4jnsgd1na2vs0mg"},{"bike_id":"55a1a744-abf3-4201-a3cd-91e874dae414","system_id":"levelo_inurba_marseille","lat":43.304278,"lon":5.388868,"is_reserved":false,"is_disabled":false,"rental_uris":{"android":"levelo://app?vid=55a1a744-abf3-4201-a3cd-91e874dae414","ios":"levelo://app?vid=55a1a744-abf3-4201-a3cd-91e874dae414"},"vehicle_type_id":"4","last_reported":1722363058,"current_range_meters":400,"station_id":"ce4bgk12rcd13ifvqbi0","pricing_plan_id":"cebpf4jnsgd1na2vs0mg"},{"bike_id":"10651c73-abd9-4f03-9178-a6743798d12b","system_id":"levelo_inurba_marseille","lat":43.29968,"lon":5.38494,"is_reserved":false,"is_disabled":false,"rental_uris":{"android":"levelo://app?vid=10651c73-abd9-4f03-9178-a6743798d12b","ios":"levelo://app?vid=10651c73-abd9-4f03-9178-a6743798d12b"},"vehicle_type_id":"4","last_reported":1722363058,"current_range_meters":0,"station_id":"","pricing_plan_id":"cebpf4jnsgd1na2vs0mg"},{"bike_id":"ce12425c-0693-4626-86cc-55377980fc08","system_id":"levelo_inurba_marseille","lat":43.299717,"lon":5.384845,"is_reserved":false,"is_disabled":false,"rental_uris":{"android":"levelo://app?vid=ce12425c-0693-4626-86cc-55377980fc08","ios":"levelo://app?vid=ce12425c-0693-4626-86cc-55377980fc08"},"vehicle_type_id":"4","last_reported":1722363058,"current_range_meters":0,"station_id":"ce4bgj92rcd13ifvqbd0","pricing_plan_id":"cebpf4jnsgd1na2vs0mg"},{"bike_id":"592628ea-8fd2-4cd2-aaee-05c3f4ce1eae","system_id":"levelo_inurba_marseille","lat":43.301396,"lon":5.387812,"is_reserved":false,"is_disabled":false,"rental_uris":{"android":"levelo://app?vid=592628ea-8fd2-4cd2-aaee-05c3f4ce1eae","ios":"levelo://app?vid=592628ea-8fd2-4cd2-aaee-05c3f4ce1eae"},"vehicle_type_id":"4","last_reported":1722363058,"current_range_meters":14000,"station_id":"ce4bghh2rcd13ifvqb60","pricing_plan_id":"cebpf4jnsgd1na2vs0mg"},{"bike_id":"f82955c6-47f8-47c7-b3af-36c73ca2f14b","system_id":"levelo_inurba_marseille","lat":43.301396,"lon":5.387812,"is_reserved":false,"is_disabled":false,"rental_uris":{"android":"levelo://app?vid=f82955c6-47f8-47c7-b3af-36c73ca2f14b","ios":"levelo://app?vid=f82955c6-47f8-47c7-b3af-36c73ca2f14b"},"vehicle_type_id":"4","last_reported":1722363058,"current_range_meters":11200,"station_id":"ce4bghh2rcd13ifvqb60","pricing_plan_id":"cebpf4jnsgd1na2vs0mg"},{"bike_id":"2f2a0aa5-c757-4f96-b699-828fc3d362d0","system_id":"levelo_inurba_marseille","lat":43.301396,"lon":5.387812,"is_reserved":false,"is_disabled":false,"rental_uris":{"android":"levelo://app?vid=2f2a0aa5-c757-4f96-b699-828fc3d362d0","ios":"levelo://app?vid=2f2a0aa5-c757-4f96-b699-828fc3d362d0"},"vehicle_type_id":"4","last_reported":1722363058,"current_range_meters":12400,"station_id":"ce4bghh2rcd13ifvqb60","pricing_plan_id":"cebpf4jnsgd1na2vs0mg"},{"bike_id":"3d7fd34c-7335-4bc7-88f2-ace6544e32b5","system_id":"levelo_inurba_marseille","lat":43.299717,"lon":5.384845,"is_reserved":false,"is_disabled":false,"rental_uris":{"android":"levelo://app?vid=3d7fd34c-7335-4bc7-88f2-ace6544e32b5","ios":"levelo://app?vid=3d7fd34c-7335-4bc7-88f2-ace6544e32b5"},"vehicle_type_id":"4","last_reported":1722363058,"current_range_meters":0,"station_id":"ce4bgj92rcd13ifvqbd0","pricing_plan_id":"cebpf4jnsgd1na2vs0mg"},{"bike_id":"d8e182a6-9cb2-489e-81df-0dc62662cf6a","system_id":"levelo_inurba_marseille","lat":43.301396,"lon":5.387812,"is_reserved":false,"is_disabled":false,"rental_uris":{"android":"levelo://app?vid=d8e182a6-9cb2-489e-81df-0dc62662cf6a","ios":"levelo://app?vid=d8e182a6-9cb2-489e-81df-0dc62662cf6a"},"vehicle_type_id":"4","last_reported":1722363058,"current_range_meters":8400,"station_id":"ce4bghh2rcd13ifvqb60","pricing_plan_id":"cebpf4jnsgd1na2vs0mg"},{"bike_id":"f3a2e69f-8ffb-4835-b8cf-a148293b832d","system_id":"levelo_inurba_marseille","lat":43.32367,"lon":5.388836,"is_reserved":false,"is_disabled":false,"rental_uris":{"android":"levelo://app?vid=f3a2e69f-8ffb-4835-b8cf-a148293b832d","ios":"levelo://app?vid=f3a2e69f-8ffb-4835-b8cf-a148293b832d"},"vehicle_type_id":"4","last_reported":1722363058,"current_range_meters":7200,"station_id":"ce4bhqp2rcd13ifvqhog","pricing_plan_id":"cebpf4jnsgd1na2vs0mg"},{"bike_id":"50d32fdd-73b9-4081-8a00-2b85a482c685","system_id":"levelo_inurba_marseille","lat":43.32367,"lon":5.38884,"is_reserved":false,"is_disabled":false,"rental_uris":{"android":"levelo://app?vid=50d32fdd-73b9-4081-8a00-2b85a482c685","ios":"levelo://app?vid=50d32fdd-73b9-4081-8a00-2b85a482c685"},"vehicle_type_id":"4","last_reported":1722363058,"current_range_meters":10000,"station_id":"ce4bhqp2rcd13ifvqhog","pricing_plan_id":"cebpf4jnsgd1na2vs0mg"},{"bike_id":"fee44ed7-99d8-4907-ade1-1bc0df3cc621","system_id":"levelo_inurba_marseille","lat":43.32371,"lon":5.38885,"is_reserved":false,"is_disabled":false,"rental_uris":{"android":"levelo://app?vid=fee44ed7-99d8-4907-ade1-1bc0df3cc621","ios":"levelo://app?vid=fee44ed7-99d8-4907-ade1-1bc0df3cc621"},"vehicle_type_id":"4","last_reported":1722363058,"current_range_meters":31200,"station_id":"ce4bhqp2rcd13ifvqhog","pricing_plan_id":"cebpf4jnsgd1na2vs0mg"},{"bike_id":"116fe290-7199-4adf-8e0b-969d2bbbab63","system_id":"levelo_inurba_marseille","lat":43.29602,"lon":5.381084,"is_reserved":false,"is_disabled":false,"rental_uris":{"android":"levelo://app?vid=116fe290-7199-4adf-8e0b-969d2bbbab63","ios":"levelo://app?vid=116fe290-7199-4adf-8e0b-969d2bbbab63"},"vehicle_type_id":"4","last_reported":1722363058,"current_range_meters":23600,"station_id":"ce4bgl12rcd13ifvqbo0","pricing_plan_id":"cebpf4jnsgd1na2vs0mg"},{"bike_id":"8abd5ed1-8004-4ae1-9189-359cbbeb1b28","system_id":"levelo_inurba_marseille","lat":43.29601,"lon":5.381084,"is_reserved":false,"is_disabled":false,"rental_uris":{"android":"levelo://app?vid=8abd5ed1-8004-4ae1-9189-359cbbeb1b28","ios":"levelo://app?vid=8abd5ed1-8004-4ae1-9189-359cbbeb1b28"},"vehicle_type_id":"4","last_reported":1722363058,"current_range_meters":0,"station_id":"ce4bgl12rcd13ifvqbo0","pricing_plan_id":"cebpf4jnsgd1na2vs0mg"},{"bike_id":"85852bce-a7bd-496c-8672-fd9fe9dae0db","system_id":"levelo_inurba_marseille","lat":43.29601,"lon":5.381084,"is_reserved":false,"is_disabled":false,"rental_uris":{"android":"levelo://app?vid=85852bce-a7bd-496c-8672-fd9fe9dae0db","ios":"levelo://app?vid=85852bce-a7bd-496c-8672-fd9fe9dae0db"},"vehicle_type_id":"4","last_reported":1722363058,"current_range_meters":5200,"station_id":"ce4bgl12rcd13ifvqbo0","pricing_plan_id":"cebpf4jnsgd1na2vs0mg"},{"bike_id":"de0381d9-3d12-4023-9cd2-8f4101a03e41","system_id":"levelo_inurba_marseille","lat":43.29279,"lon":5.36836,"is_reserved":false,"is_disabled":false,"rental_uris":{"android":"levelo://app?vid=de0381d9-3d12-4023-9cd2-8f4101a03e41","ios":"levelo://app?vid=de0381d9-3d12-4023-9cd2-8f4101a03e41"},"vehicle_type_id":"4","last_reported":1722363058,"current_range_meters":0,"station_id":"ce4bhbp2rcd13ifvqesg","pricing_plan_id":"cebpf4jnsgd1na2vs0mg"},{"bike_id":"07b01b00-bdf3-4f1a-b3ab-95b23cd1fdbe","system_id":"levelo_inurba_marseille","lat":43.29277,"lon":5.36846,"is_reserved":false,"is_disabled":false,"rental_uris":{"android":"levelo://app?vid=07b01b00-bdf3-4f1a-b3ab-95b23cd1fdbe","ios":"levelo://app?vid=07b01b00-bdf3-4f1a-b3ab-95b23cd1fdbe"},"vehicle_type_id":"4","last_reported":1722363058,"current_range_meters":0,"station_id":"ce4bhbp2rcd13ifvqesg","pricing_plan_id":"cebpf4jnsgd1na2vs0mg"},{"bike_id":"d22aea95-8e6b-4c91-80ec-9f3feed9f562","system_id":"levelo_inurba_marseille","lat":43.292749,"lon":5.368402,"is_reserved":false,"is_disabled":false,"rental_uris":{"android":"levelo://app?vid=d22aea95-8e6b-4c91-80ec-9f3feed9f562","ios":"levelo://app?vid=d22aea95-8e6b-4c91-80ec-9f3feed9f562"},"vehicle_type_id":"4","last_reported":1722363058,"current_range_meters":0,"station_id":"ce4bhbp2rcd13ifvqesg","pricing_plan_id":"cebpf4jnsgd1na2vs0mg"},{"bike_id":"83a5204e-9ffb-4261-bc69-08f2ef774052","system_id":"levelo_inurba_marseille","lat":43.292749,"lon":5.368402,"is_reserved":false,"is_disabled":false,"rental_uris":{"android":"levelo://app?vid=83a5204e-9ffb-4261-bc69-08f2ef774052","ios":"levelo://app?vid=83a5204e-9ffb-4261-bc69-08f2ef774052"},"vehicle_type_id":"4","last_reported":1722363058,"current_range_meters":0,"station_id":"ce4bhbp2rcd13ifvqesg","pricing_plan_id":"cebpf4jnsgd1na2vs0mg"},{"bike_id":"076335d3-e18e-41ff-b820-4c3005b51842","system_id":"levelo_inurba_marseille","lat":43.290104,"lon":5.356111,"is_reserved":false,"is_disabled":false,"rental_uris":{"android":"levelo://app?vid=076335d3-e18e-41ff-b820-4c3005b51842","ios":"levelo://app?vid=076335d3-e18e-41ff-b820-4c3005b51842"},"vehicle_type_id":"4","last_reported":1722363058,"current_range_meters":22800,"station_id":"ce4bhb92rcd13ifvqen0","pricing_plan_id":"cebpf4jnsgd1na2vs0mg"},{"bike_id":"6fb1e79d-f37b-4f9e-851c-4c33f0c8ecdf","system_id":"levelo_inurba_marseille","lat":43.29301,"lon":5.37433,"is_reserved":false,"is_disabled":false,"rental_uris":{"android":"levelo://app?vid=6fb1e79d-f37b-4f9e-851c-4c33f0c8ecdf","ios":"levelo://app?vid=6fb1e79d-f37b-4f9e-851c-4c33f0c8ecdf"},"vehicle_type_id":"4","last_reported":1722363058,"current_range_meters":0,"station_id":"ce4bgi12rcd13ifvqb70","pricing_plan_id":"cebpf4jnsgd1na2vs0mg"},{"bike_id":"27d90768-5ab9-4044-aaad-7ca62e963451","system_id":"levelo_inurba_marseille","lat":43.305994,"lon":5.393687,"is_reserved":false,"is_disabled":false,"rental_uris":{"android":"levelo://app?vid=27d90768-5ab9-4044-aaad-7ca62e963451","ios":"levelo://app?vid=27d90768-5ab9-4044-aaad-7ca62e963451"},"vehicle_type_id":"4","last_reported":1722363058,"current_range_meters":0,"station_id":"ce4bh0p2rcd13ifvqd80","pricing_plan_id":"cebpf4jnsgd1na2vs0mg"},{"bike_id":"2ed8c705-c69a-4c87-9501-b64c97cbae7e","system_id":"levelo_inurba_marseille","lat":43.300852,"lon":5.390859,"is_reserved":false,"is_disabled":false,"rental_uris":{"android":"levelo://app?vid=2ed8c705-c69a-4c87-9501-b64c97cbae7e","ios":"levelo://app?vid=2ed8c705-c69a-4c87-9501-b64c97cbae7e"},"vehicle_type_id":"4","last_reported":1722363058,"current_range_meters":10400,"station_id":"ce4bh192rcd13ifvqdb0","pricing_plan_id":"cebpf4jnsgd1na2vs0mg"},{"bike_id":"7c34ee98-c682-4263-8700-33d7a996ea01","system_id":"levelo_inurba_marseille","lat":43.30101,"lon":5.39075,"is_reserved":false,"is_disabled":false,"rental_uris":{"android":"levelo://app?vid=7c34ee98-c682-4263-8700-33d7a996ea01","ios":"levelo://app?vid=7c34ee98-c682-4263-8700-33d7a996ea01"},"vehicle_type_id":"4","last_reported":1722363058,"current_range_meters":0,"station_id":"ce4bh192rcd13ifvqdb0","pricing_plan_id":"cebpf4jnsgd1na2vs0mg"},{"bike_id":"757c5616-b101-4a32-aacc-e52964690fd6","system_id":"levelo_inurba_marseille","lat":43.30085,"lon":5.390856,"is_reserved":false,"is_disabled":false,"rental_uris":{"android":"levelo://app?vid=757c5616-b101-4a32-aacc-e52964690fd6","ios":"levelo://app?vid=757c5616-b101-4a32-aacc-e52964690fd6"},"vehicle_type_id":"4","last_reported":1722363058,"current_range_meters":28400,"station_id":"ce4bh192rcd13ifvqdb0","pricing_plan_id":"cebpf4jnsgd1na2vs0mg"},{"bike_id":"fa7f8469-e307-4d44-9432-47e48f85339c","system_id":"levelo_inurba_marseille","lat":43.292311,"lon":5.360731,"is_reserved":false,"is_disabled":false,"rental_uris":{"android":"levelo://app?vid=fa7f8469-e307-4d44-9432-47e48f85339c","ios":"levelo://app?vid=fa7f8469-e307-4d44-9432-47e48f85339c"},"vehicle_type_id":"4","last_reported":1722363058,"current_range_meters":0,"station_id":"ce4bhbh2rcd13ifvqeqg","pricing_plan_id":"cebpf4jnsgd1na2vs0mg"},{"bike_id":"6b9fafc7-75a0-4c31-a9b2-35c12043cc33","system_id":"levelo_inurba_marseille","lat":43.299707,"lon":5.384859,"is_reserved":false,"is_disabled":false,"rental_uris":{"android":"levelo://app?vid=6b9fafc7-75a0-4c31-a9b2-35c12043cc33","ios":"levelo://app?vid=6b9fafc7-75a0-4c31-a9b2-35c12043cc33"},"vehicle_type_id":"4","last_reported":1722363058,"current_range_meters":15600,"station_id":"ce4bgj92rcd13ifvqbd0","pricing_plan_id":"cebpf4jnsgd1na2vs0mg"},{"bike_id":"37aa70fc-27b8-4f06-a287-4957ead0d35e","system_id":"levelo_inurba_marseille","lat":43.29208,"lon":5.36061,"is_reserved":false,"is_disabled":false,"rental_uris":{"android":"levelo://app?vid=37aa70fc-27b8-4f06-a287-4957ead0d35e","ios":"levelo://app?vid=37aa70fc-27b8-4f06-a287-4957ead0d35e"},"vehicle_type_id":"4","last_reported":1722363058,"current_range_meters":31200,"station_id":"ce4bhbh2rcd13ifvqeqg","pricing_plan_id":"cebpf4jnsgd1na2vs0mg"},{"bike_id":"368d0d2d-3831-410f-8ea4-540532774a1b","system_id":"levelo_inurba_marseille","lat":43.29265,"lon":5.37618,"is_reserved":false,"is_disabled":false,"rental_uris":{"android":"levelo://app?vid=368d0d2d-3831-410f-8ea4-540532774a1b","ios":"levelo://app?vid=368d0d2d-3831-410f-8ea4-540532774a1b"},"vehicle_type_id":"4","last_reported":1722363058,"current_range_meters":10400,"station_id":"ce4bgi12rcd13ifvqb80","pricing_plan_id":"cebpf4jnsgd1na2vs0mg"},{"bike_id":"5220b7de-212c-4868-87c8-0b448124e967","system_id":"levelo_inurba_marseille","lat":43.298764,"lon":5.388973,"is_reserved":false,"is_disabled":false,"rental_uris":{"android":"levelo://app?vid=5220b7de-212c-4868-87c8-0b448124e967","ios":"levelo://app?vid=5220b7de-212c-4868-87c8-0b448124e967"},"vehicle_type_id":"4","last_reported":1722363058,"current_range_meters":29200,"station_id":"ce4bh392rcd13ifvqdl0","pricing_plan_id":"cebpf4jnsgd1na2vs0mg"},{"bike_id":"b28b81b6-7292-4b30-a736-897a5718d752","system_id":"levelo_inurba_marseille","lat":43.291671,"lon":5.371575,"is_reserved":false,"is_disabled":false,"rental_uris":{"android":"levelo://app?vid=b28b81b6-7292-4b30-a736-897a5718d752","ios":"levelo://app?vid=b28b81b6-7292-4b30-a736-897a5718d752"},"vehicle_type_id":"4","last_reported":1722363058,"current_range_meters":400,"station_id":"ce4bha92rcd13ifvqeh0","pricing_plan_id":"cebpf4jnsgd1na2vs0mg"},{"bike_id":"7b262f6d-f275-49d0-bc38-5c6a58276240","system_id":"levelo_inurba_marseille","lat":43.291671,"lon":5.371575,"is_reserved":false,"is_disabled":false,"rental_uris":{"android":"levelo://app?vid=7b262f6d-f275-49d0-bc38-5c6a58276240","ios":"levelo://app?vid=7b262f6d-f275-49d0-bc38-5c6a58276240"},"vehicle_type_id":"4","last_reported":1722363058,"current_range_meters":0,"station_id":"ce4bha92rcd13ifvqeh0","pricing_plan_id":"cebpf4jnsgd1na2vs0mg"},{"bike_id":"6bdb63cb-246f-4924-95bd-9fe605c6d4fe","system_id":"levelo_inurba_marseille","lat":43.291671,"lon":5.371575,"is_reserved":false,"is_disabled":false,"rental_uris":{"android":"levelo://app?vid=6bdb63cb-246f-4924-95bd-9fe605c6d4fe","ios":"levelo://app?vid=6bdb63cb-246f-4924-95bd-9fe605c6d4fe"},"vehicle_type_id":"4","last_reported":1722363058,"current_range_meters":14800,"station_id":"ce4bha92rcd13ifvqeh0","pricing_plan_id":"cebpf4jnsgd1na2vs0mg"},{"bike_id":"2262cddc-a361-4ea5-bf96-7c5c76cb266f","system_id":"levelo_inurba_marseille","lat":43.309038,"lon":5.396546,"is_reserved":false,"is_disabled":false,"rental_uris":{"android":"levelo://app?vid=2262cddc-a361-4ea5-bf96-7c5c76cb266f","ios":"levelo://app?vid=2262cddc-a361-4ea5-bf96-7c5c76cb266f"},"vehicle_type_id":"4","last_reported":1722363058,"current_range_meters":0,"station_id":"ce4bh012rcd13ifvqcv0","pricing_plan_id":"cebpf4jnsgd1na2vs0mg"},{"bike_id":"4f56f087-7831-45cc-baf5-2a70caf29495","system_id":"levelo_inurba_marseille","lat":43.2936,"lon":5.37835,"is_reserved":false,"is_disabled":false,"rental_uris":{"android":"levelo://app?vid=4f56f087-7831-45cc-baf5-2a70caf29495","ios":"levelo://app?vid=4f56f087-7831-45cc-baf5-2a70caf29495"},"vehicle_type_id":"4","last_reported":1722363058,"current_range_meters":0,"station_id":"ce4bgjh2rcd13ifvqbf0","pricing_plan_id":"cebpf4jnsgd1na2vs0mg"},{"bike_id":"40d2cf6f-c5a0-4f1f-af86-ac336bbdbab4","system_id":"levelo_inurba_marseille","lat":43.313291,"lon":5.396838,"is_reserved":false,"is_disabled":false,"rental_uris":{"android":"levelo://app?vid=40d2cf6f-c5a0-4f1f-af86-ac336bbdbab4","ios":"levelo://app?vid=40d2cf6f-c5a0-4f1f-af86-ac336bbdbab4"},"vehicle_type_id":"4","last_reported":1722363058,"current_range_meters":3600,"station_id":"ce4bgvp2rcd13ifvqcu0","pricing_plan_id":"cebpf4jnsgd1na2vs0mg"},{"bike_id":"4bdf6d49-80ae-41c0-8383-f9c61dde2db6","system_id":"levelo_inurba_marseille","lat":43.29542,"lon":5.38536,"is_reserved":false,"is_disabled":false,"rental_uris":{"android":"levelo://app?vid=4bdf6d49-80ae-41c0-8383-f9c61dde2db6","ios":"levelo://app?vid=4bdf6d49-80ae-41c0-8383-f9c61dde2db6"},"vehicle_type_id":"4","last_reported":1722363058,"current_range_meters":0,"station_id":"ce4bgih2rcd13ifvqba0","pricing_plan_id":"cebpf4jnsgd1na2vs0mg"},{"bike_id":"a4111ed4-37ce-401a-8c5e-ac5d6d32b8e4","system_id":"levelo_inurba_marseille","lat":43.29529,"lon":5.385581,"is_reserved":false,"is_disabled":false,"rental_uris":{"android":"levelo://app?vid=a4111ed4-37ce-401a-8c5e-ac5d6d32b8e4","ios":"levelo://app?vid=a4111ed4-37ce-401a-8c5e-ac5d6d32b8e4"},"vehicle_type_id":"4","last_reported":1722363058,"current_range_meters":26400,"station_id":"ce4bgih2rcd13ifvqba0","pricing_plan_id":"cebpf4jnsgd1na2vs0mg"},{"bike_id":"c02e5159-1d1c-4533-8f1e-cc3e6112106c","system_id":"levelo_inurba_marseille","lat":43.29529,"lon":5.385581,"is_reserved":false,"is_disabled":false,"rental_uris":{"android":"levelo://app?vid=c02e5159-1d1c-4533-8f1e-cc3e6112106c","ios":"levelo://app?vid=c02e5159-1d1c-4533-8f1e-cc3e6112106c"},"vehicle_type_id":"4","last_reported":1722363058,"current_range_meters":20800,"station_id":"ce4bgih2rcd13ifvqba0","pricing_plan_id":"cebpf4jnsgd1na2vs0mg"},{"bike_id":"ef054814-0e9e-454f-a8e3-0f293037a743","system_id":"levelo_inurba_marseille","lat":43.294153,"lon":5.386305,"is_reserved":false,"is_disabled":false,"rental_uris":{"android":"levelo://app?vid=ef054814-0e9e-454f-a8e3-0f293037a743","ios":"levelo://app?vid=ef054814-0e9e-454f-a8e3-0f293037a743"},"vehicle_type_id":"4","last_reported":1722363058,"current_range_meters":26800,"station_id":"ce4bh2h2rcd13ifvqdh0","pricing_plan_id":"cebpf4jnsgd1na2vs0mg"},{"bike_id":"97612e1d-97f1-47b4-8df8-dd0fef4f53d3","system_id":"levelo_inurba_marseille","lat":43.29423,"lon":5.38621,"is_reserved":false,"is_disabled":false,"rental_uris":{"android":"levelo://app?vid=97612e1d-97f1-47b4-8df8-dd0fef4f53d3","ios":"levelo://app?vid=97612e1d-97f1-47b4-8df8-dd0fef4f53d3"},"vehicle_type_id":"4","last_reported":1722363058,"current_range_meters":0,"station_id":"ce4bh2h2rcd13ifvqdh0","pricing_plan_id":"cebpf4jnsgd1na2vs0mg"},{"bike_id":"aedd9912-2b18-4f41-a1ec-0cea9350ec53","system_id":"levelo_inurba_marseille","lat":43.290319,"lon":5.375732,"is_reserved":false,"is_disabled":false,"rental_uris":{"android":"levelo://app?vid=aedd9912-2b18-4f41-a1ec-0cea9350ec53","ios":"levelo://app?vid=aedd9912-2b18-4f41-a1ec-0cea9350ec53"},"vehicle_type_id":"4","last_reported":1722363058,"current_range_meters":0,"station_id":"ce4bh692rcd13ifvqe90","pricing_plan_id":"cebpf4jnsgd1na2vs0mg"},{"bike_id":"83bd5235-6c2e-4a0a-832b-9cfa2c7f2de0","system_id":"levelo_inurba_marseille","lat":43.29416,"lon":5.38617,"is_reserved":false,"is_disabled":false,"rental_uris":{"android":"levelo://app?vid=83bd5235-6c2e-4a0a-832b-9cfa2c7f2de0","ios":"levelo://app?vid=83bd5235-6c2e-4a0a-832b-9cfa2c7f2de0"},"vehicle_type_id":"4","last_reported":1722363058,"current_range_meters":0,"station_id":"ce4bh2h2rcd13ifvqdh0","pricing_plan_id":"cebpf4jnsgd1na2vs0mg"},{"bike_id":"79c4bb20-c5c9-4f51-87d4-508d7e078bb3","system_id":"levelo_inurba_marseille","lat":43.290319,"lon":5.375732,"is_reserved":false,"is_disabled":false,"rental_uris":{"android":"levelo://app?vid=79c4bb20-c5c9-4f51-87d4-508d7e078bb3","ios":"levelo://app?vid=79c4bb20-c5c9-4f51-87d4-508d7e078bb3"},"vehicle_type_id":"4","last_reported":1722363058,"current_range_meters":11600,"station_id":"ce4bh692rcd13ifvqe90","pricing_plan_id":"cebpf4jnsgd1na2vs0mg"},{"bike_id":"fe2d5aae-7c40-498c-a135-0da9aefe4e6c","system_id":"levelo_inurba_marseille","lat":43.294162,"lon":5.386292,"is_reserved":false,"is_disabled":false,"rental_uris":{"android":"levelo://app?vid=fe2d5aae-7c40-498c-a135-0da9aefe4e6c","ios":"levelo://app?vid=fe2d5aae-7c40-498c-a135-0da9aefe4e6c"},"vehicle_type_id":"4","last_reported":1722363058,"current_range_meters":0,"station_id":"ce4bh2h2rcd13ifvqdh0","pricing_plan_id":"cebpf4jnsgd1na2vs0mg"},{"bike_id":"ef7b4d9a-895a-4a81-9eaf-8d6b6cbc9dd4","system_id":"levelo_inurba_marseille","lat":43.2942,"lon":5.38627,"is_reserved":false,"is_disabled":false,"rental_uris":{"android":"levelo://app?vid=ef7b4d9a-895a-4a81-9eaf-8d6b6cbc9dd4","ios":"levelo://app?vid=ef7b4d9a-895a-4a81-9eaf-8d6b6cbc9dd4"},"vehicle_type_id":"4","last_reported":1722363058,"current_range_meters":0,"station_id":"ce4bh2h2rcd13ifvqdh0","pricing_plan_id":"cebpf4jnsgd1na2vs0mg"},{"bike_id":"0a053fb5-0d9b-4017-9b90-fc9012903334","system_id":"levelo_inurba_marseille","lat":43.294162,"lon":5.386292,"is_reserved":false,"is_disabled":false,"rental_uris":{"android":"levelo://app?vid=0a053fb5-0d9b-4017-9b90-fc9012903334","ios":"levelo://app?vid=0a053fb5-0d9b-4017-9b90-fc9012903334"},"vehicle_type_id":"4","last_reported":1722363058,"current_range_meters":9200,"station_id":"ce4bh2h2rcd13ifvqdh0","pricing_plan_id":"cebpf4jnsgd1na2vs0mg"},{"bike_id":"1396755e-25f0-4f71-afbb-54c5ff17adc3","system_id":"levelo_inurba_marseille","lat":43.294162,"lon":5.386292,"is_reserved":false,"is_disabled":false,"rental_uris":{"android":"levelo://app?vid=1396755e-25f0-4f71-afbb-54c5ff17adc3","ios":"levelo://app?vid=1396755e-25f0-4f71-afbb-54c5ff17adc3"},"vehicle_type_id":"4","last_reported":1722363058,"current_range_meters":8000,"station_id":"ce4bh2h2rcd13ifvqdh0","pricing_plan_id":"cebpf4jnsgd1na2vs0mg"},{"bike_id":"8354a8aa-e817-455d-a092-69d5bdcf9496","system_id":"levelo_inurba_marseille","lat":43.28942,"lon":5.36638,"is_reserved":false,"is_disabled":false,"rental_uris":{"android":"levelo://app?vid=8354a8aa-e817-455d-a092-69d5bdcf9496","ios":"levelo://app?vid=8354a8aa-e817-455d-a092-69d5bdcf9496"},"vehicle_type_id":"4","last_reported":1722363058,"current_range_meters":6800,"station_id":"ce4bhap2rcd13ifvqek0","pricing_plan_id":"cebpf4jnsgd1na2vs0mg"},{"bike_id":"93e5d07c-59ed-4645-bc99-93415d706a57","system_id":"levelo_inurba_marseille","lat":43.292644,"lon":5.384257,"is_reserved":false,"is_disabled":false,"rental_uris":{"android":"levelo://app?vid=93e5d07c-59ed-4645-bc99-93415d706a57","ios":"levelo://app?vid=93e5d07c-59ed-4645-bc99-93415d706a57"},"vehicle_type_id":"4","last_reported":1722363058,"current_range_meters":0,"station_id":"ce4bh692rcd13ifvqea0","pricing_plan_id":"cebpf4jnsgd1na2vs0mg"},{"bike_id":"6e0049bc-e3c3-4491-80fd-48a8f571e282","system_id":"levelo_inurba_marseille","lat":43.29271,"lon":5.38436,"is_reserved":false,"is_disabled":false,"rental_uris":{"android":"levelo://app?vid=6e0049bc-e3c3-4491-80fd-48a8f571e282","ios":"levelo://app?vid=6e0049bc-e3c3-4491-80fd-48a8f571e282"},"vehicle_type_id":"4","last_reported":1722363058,"current_range_meters":0,"station_id":"ce4bh692rcd13ifvqea0","pricing_plan_id":"cebpf4jnsgd1na2vs0mg"},{"bike_id":"1780cc65-a019-41d0-85a9-8616f97f1112","system_id":"levelo_inurba_marseille","lat":43.29271,"lon":5.38438,"is_reserved":false,"is_disabled":false,"rental_uris":{"android":"levelo://app?vid=1780cc65-a019-41d0-85a9-8616f97f1112","ios":"levelo://app?vid=1780cc65-a019-41d0-85a9-8616f97f1112"},"vehicle_type_id":"4","last_reported":1722363058,"current_range_meters":24000,"station_id":"ce4bh692rcd13ifvqea0","pricing_plan_id":"cebpf4jnsgd1na2vs0mg"},{"bike_id":"81bfaf58-00d0-4b83-831c-1aac20b2eba7","system_id":"levelo_inurba_marseille","lat":43.2927,"lon":5.38438,"is_reserved":false,"is_disabled":false,"rental_uris":{"android":"levelo://app?vid=81bfaf58-00d0-4b83-831c-1aac20b2eba7","ios":"levelo://app?vid=81bfaf58-00d0-4b83-831c-1aac20b2eba7"},"vehicle_type_id":"4","last_reported":1722363058,"current_range_meters":0,"station_id":"ce4bh692rcd13ifvqea0","pricing_plan_id":"cebpf4jnsgd1na2vs0mg"},{"bike_id":"58c0a165-4a5a-4c7e-8ba4-915626844fbb","system_id":"levelo_inurba_marseille","lat":43.293009,"lon":5.374584,"is_reserved":false,"is_disabled":false,"rental_uris":{"android":"levelo://app?vid=58c0a165-4a5a-4c7e-8ba4-915626844fbb","ios":"levelo://app?vid=58c0a165-4a5a-4c7e-8ba4-915626844fbb"},"vehicle_type_id":"4","last_reported":1722363058,"current_range_meters":24000,"station_id":"ce4bgi12rcd13ifvqb70","pricing_plan_id":"cebpf4jnsgd1na2vs0mg"},{"bike_id":"7e61f711-4519-4449-9c93-7d30b9cb5982","system_id":"levelo_inurba_marseille","lat":43.292644,"lon":5.384257,"is_reserved":false,"is_disabled":false,"rental_uris":{"android":"levelo://app?vid=7e61f711-4519-4449-9c93-7d30b9cb5982","ios":"levelo://app?vid=7e61f711-4519-4449-9c93-7d30b9cb5982"},"vehicle_type_id":"4","last_reported":1722363058,"current_range_meters":11200,"station_id":"ce4bh692rcd13ifvqea0","pricing_plan_id":"cebpf4jnsgd1na2vs0mg"},{"bike_id":"7fe4339c-de7a-48a7-b875-23a0873a9f92","system_id":"levelo_inurba_marseille","lat":43.292644,"lon":5.384257,"is_reserved":false,"is_disabled":false,"rental_uris":{"android":"levelo://app?vid=7fe4339c-de7a-48a7-b875-23a0873a9f92","ios":"levelo://app?vid=7fe4339c-de7a-48a7-b875-23a0873a9f92"},"vehicle_type_id":"4","last_reported":1722363058,"current_range_meters":0,"station_id":"ce4bh692rcd13ifvqea0","pricing_plan_id":"cebpf4jnsgd1na2vs0mg"},{"bike_id":"448f0ac1-d663-4429-8736-49c03d5c13c2","system_id":"levelo_inurba_marseille","lat":43.292644,"lon":5.384257,"is_reserved":false,"is_disabled":false,"rental_uris":{"android":"levelo://app?vid=448f0ac1-d663-4429-8736-49c03d5c13c2","ios":"levelo://app?vid=448f0ac1-d663-4429-8736-49c03d5c13c2"},"vehicle_type_id":"4","last_reported":1722363058,"current_range_meters":10800,"station_id":"ce4bh692rcd13ifvqea0","pricing_plan_id":"cebpf4jnsgd1na2vs0mg"},{"bike_id":"6004acca-3607-4ce0-bf46-5ef777e2b99a","system_id":"levelo_inurba_marseille","lat":43.29097,"lon":5.38136,"is_reserved":false,"is_disabled":false,"rental_uris":{"android":"levelo://app?vid=6004acca-3607-4ce0-bf46-5ef777e2b99a","ios":"levelo://app?vid=6004acca-3607-4ce0-bf46-5ef777e2b99a"},"vehicle_type_id":"4","last_reported":1722363058,"current_range_meters":31200,"station_id":"ce4bh512rcd13ifvqe2g","pricing_plan_id":"cebpf4jnsgd1na2vs0mg"},{"bike_id":"28cc7c8f-baee-4d2a-b903-253053aafa45","system_id":"levelo_inurba_marseille","lat":43.295169,"lon":5.390426,"is_reserved":false,"is_disabled":false,"rental_uris":{"android":"levelo://app?vid=28cc7c8f-baee-4d2a-b903-253053aafa45","ios":"levelo://app?vid=28cc7c8f-baee-4d2a-b903-253053aafa45"},"vehicle_type_id":"4","last_reported":1722363058,"current_range_meters":20400,"station_id":"ce4bh3p2rcd13ifvqdp0","pricing_plan_id":"cebpf4jnsgd1na2vs0mg"},{"bike_id":"879a1e6a-cbfd-4947-96a5-d76416c7d9c8","system_id":"levelo_inurba_marseille","lat":43.295169,"lon":5.390426,"is_reserved":false,"is_disabled":false,"rental_uris":{"android":"levelo://app?vid=879a1e6a-cbfd-4947-96a5-d76416c7d9c8","ios":"levelo://app?vid=879a1e6a-cbfd-4947-96a5-d76416c7d9c8"},"vehicle_type_id":"4","last_reported":1722363058,"current_range_meters":13200,"station_id":"ce4bh3p2rcd13ifvqdp0","pricing_plan_id":"cebpf4jnsgd1na2vs0mg"},{"bike_id":"cee080a2-b206-4b3b-a08e-2f36a970f20d","system_id":"levelo_inurba_marseille","lat":43.29522,"lon":5.39034,"is_reserved":false,"is_disabled":false,"rental_uris":{"android":"levelo://app?vid=cee080a2-b206-4b3b-a08e-2f36a970f20d","ios":"levelo://app?vid=cee080a2-b206-4b3b-a08e-2f36a970f20d"},"vehicle_type_id":"4","last_reported":1722363058,"current_range_meters":30000,"station_id":"ce4bh3p2rcd13ifvqdp0","pricing_plan_id":"cebpf4jnsgd1na2vs0mg"},{"bike_id":"07cafed1-7c6e-4d6b-8267-e84039b92363","system_id":"levelo_inurba_marseille","lat":43.305989,"lon":5.37225,"is_reserved":false,"is_disabled":false,"rental_uris":{"android":"levelo://app?vid=07cafed1-7c6e-4d6b-8267-e84039b92363","ios":"levelo://app?vid=07cafed1-7c6e-4d6b-8267-e84039b92363"},"vehicle_type_id":"4","last_reported":1722363058,"current_range_meters":6000,"station_id":"ce4bgqh2rcd13ifvqc4g","pricing_plan_id":"cebpf4jnsgd1na2vs0mg"},{"bike_id":"3dee2aa8-3986-42a9-a66e-70302ced6194","system_id":"levelo_inurba_marseille","lat":43.295169,"lon":5.390426,"is_reserved":false,"is_disabled":false,"rental_uris":{"android":"levelo://app?vid=3dee2aa8-3986-42a9-a66e-70302ced6194","ios":"levelo://app?vid=3dee2aa8-3986-42a9-a66e-70302ced6194"},"vehicle_type_id":"4","last_reported":1722363058,"current_range_meters":31200,"station_id":"ce4bh3p2rcd13ifvqdp0","pricing_plan_id":"cebpf4jnsgd1na2vs0mg"},{"bike_id":"3785e5b7-1666-438c-a600-325823d28a96","system_id":"levelo_inurba_marseille","lat":43.3303,"lon":5.39059,"is_reserved":false,"is_disabled":false,"rental_uris":{"android":"levelo://app?vid=3785e5b7-1666-438c-a600-325823d28a96","ios":"levelo://app?vid=3785e5b7-1666-438c-a600-325823d28a96"},"vehicle_type_id":"4","last_reported":1722363058,"current_range_meters":24000,"station_id":"ce4bhr92rcd13ifvqhrg","pricing_plan_id":"cebpf4jnsgd1na2vs0mg"},{"bike_id":"a7d1c81f-0b76-4eac-9772-763ba02be31a","system_id":"levelo_inurba_marseille","lat":43.28856,"lon":5.358371,"is_reserved":false,"is_disabled":false,"rental_uris":{"android":"levelo://app?vid=a7d1c81f-0b76-4eac-9772-763ba02be31a","ios":"levelo://app?vid=a7d1c81f-0b76-4eac-9772-763ba02be31a"},"vehicle_type_id":"4","last_reported":1722363058,"current_range_meters":1600,"station_id":"ce4bhb12rcd13ifvqem0","pricing_plan_id":"cebpf4jnsgd1na2vs0mg"},{"bike_id":"afdc5f7d-454e-4c8b-ae19-92f436327d89","system_id":"levelo_inurba_marseille","lat":43.288608,"lon":5.358437,"is_reserved":false,"is_disabled":false,"rental_uris":{"android":"levelo://app?vid=afdc5f7d-454e-4c8b-ae19-92f436327d89","ios":"levelo://app?vid=afdc5f7d-454e-4c8b-ae19-92f436327d89"},"vehicle_type_id":"4","last_reported":1722363058,"current_range_meters":0,"station_id":"ce4bhb12rcd13ifvqem0","pricing_plan_id":"cebpf4jnsgd1na2vs0mg"},{"bike_id":"f4cdf6f8-59cc-4926-bbd3-bf830cd7e7b6","system_id":"levelo_inurba_marseille","lat":43.29016,"lon":5.38139,"is_reserved":false,"is_disabled":false,"rental_uris":{"android":"levelo://app?vid=f4cdf6f8-59cc-4926-bbd3-bf830cd7e7b6","ios":"levelo://app?vid=f4cdf6f8-59cc-4926-bbd3-bf830cd7e7b6"},"vehicle_type_id":"4","last_reported":1722363058,"current_range_meters":29200,"station_id":"ce4bh4p2rcd13ifvqe1g","pricing_plan_id":"cebpf4jnsgd1na2vs0mg"},{"bike_id":"c5ef24df-22dc-42b0-9f89-d6e3ed6a081b","system_id":"levelo_inurba_marseille","lat":43.28856,"lon":5.358371,"is_reserved":false,"is_disabled":false,"rental_uris":{"android":"levelo://app?vid=c5ef24df-22dc-42b0-9f89-d6e3ed6a081b","ios":"levelo://app?vid=c5ef24df-22dc-42b0-9f89-d6e3ed6a081b"},"vehicle_type_id":"4","last_reported":1722363058,"current_range_meters":4400,"station_id":"ce4bhb12rcd13ifvqem0","pricing_plan_id":"cebpf4jnsgd1na2vs0mg"},{"bike_id":"031bef61-f042-414a-81fd-8c51ed6ded19","system_id":"levelo_inurba_marseille","lat":43.288583,"lon":5.358353,"is_reserved":false,"is_disabled":false,"rental_uris":{"android":"levelo://app?vid=031bef61-f042-414a-81fd-8c51ed6ded19","ios":"levelo://app?vid=031bef61-f042-414a-81fd-8c51ed6ded19"},"vehicle_type_id":"4","last_reported":1722363058,"current_range_meters":0,"station_id":"ce4bhb12rcd13ifvqem0","pricing_plan_id":"cebpf4jnsgd1na2vs0mg"},{"bike_id":"ae629e9d-cb96-47c2-8fa6-303a2c30a37e","system_id":"levelo_inurba_marseille","lat":43.28855,"lon":5.35849,"is_reserved":false,"is_disabled":false,"rental_uris":{"android":"levelo://app?vid=ae629e9d-cb96-47c2-8fa6-303a2c30a37e","ios":"levelo://app?vid=ae629e9d-cb96-47c2-8fa6-303a2c30a37e"},"vehicle_type_id":"4","last_reported":1722363058,"current_range_meters":0,"station_id":"ce4bhb12rcd13ifvqem0","pricing_plan_id":"cebpf4jnsgd1na2vs0mg"},{"bike_id":"3ae3d420-bef2-40d3-b407-040ccd0a6861","system_id":"levelo_inurba_marseille","lat":43.312609,"lon":5.401662,"is_reserved":false,"is_disabled":false,"rental_uris":{"android":"levelo://app?vid=3ae3d420-bef2-40d3-b407-040ccd0a6861","ios":"levelo://app?vid=3ae3d420-bef2-40d3-b407-040ccd0a6861"},"vehicle_type_id":"4","last_reported":1722363058,"current_range_meters":4800,"station_id":"ce4bh092rcd13ifvqd30","pricing_plan_id":"cebpf4jnsgd1na2vs0mg"},{"bike_id":"9ce3a99b-e7ec-45cc-938c-5cdf88f25031","system_id":"levelo_inurba_marseille","lat":43.28787,"lon":5.37367,"is_reserved":false,"is_disabled":false,"rental_uris":{"android":"levelo://app?vid=9ce3a99b-e7ec-45cc-938c-5cdf88f25031","ios":"levelo://app?vid=9ce3a99b-e7ec-45cc-938c-5cdf88f25031"},"vehicle_type_id":"4","last_reported":1722363058,"current_range_meters":20800,"station_id":"","pricing_plan_id":"cebpf4jnsgd1na2vs0mg"},{"bike_id":"f5d3a63e-fe61-4e75-b0cb-aaffc2141b5f","system_id":"levelo_inurba_marseille","lat":43.337507,"lon":5.374583,"is_reserved":false,"is_disabled":false,"rental_uris":{"android":"levelo://app?vid=f5d3a63e-fe61-4e75-b0cb-aaffc2141b5f","ios":"levelo://app?vid=f5d3a63e-fe61-4e75-b0cb-aaffc2141b5f"},"vehicle_type_id":"4","last_reported":1722363058,"current_range_meters":29200,"station_id":"","pricing_plan_id":"cebpf4jnsgd1na2vs0mg"},{"bike_id":"f0b8f330-f5d6-4f50-a1e0-e43f29330e0a","system_id":"levelo_inurba_marseille","lat":43.306412,"lon":5.401035,"is_reserved":false,"is_disabled":false,"rental_uris":{"android":"levelo://app?vid=f0b8f330-f5d6-4f50-a1e0-e43f29330e0a","ios":"levelo://app?vid=f0b8f330-f5d6-4f50-a1e0-e43f29330e0a"},"vehicle_type_id":"4","last_reported":1722363058,"current_range_meters":800,"station_id":"ce4bh112rcd13ifvqda0","pricing_plan_id":"cebpf4jnsgd1na2vs0mg"},{"bike_id":"0947d520-5902-43d2-9e61-47bf12ff75f9","system_id":"levelo_inurba_marseille","lat":43.337553,"lon":5.374554,"is_reserved":false,"is_disabled":false,"rental_uris":{"android":"levelo://app?vid=0947d520-5902-43d2-9e61-47bf12ff75f9","ios":"levelo://app?vid=0947d520-5902-43d2-9e61-47bf12ff75f9"},"vehicle_type_id":"4","last_reported":1722363058,"current_range_meters":17600,"station_id":"","pricing_plan_id":"cebpf4jnsgd1na2vs0mg"},{"bike_id":"af2e964a-a009-4834-8c68-bdc252944123","system_id":"levelo_inurba_marseille","lat":43.337612,"lon":5.374505,"is_reserved":false,"is_disabled":false,"rental_uris":{"android":"levelo://app?vid=af2e964a-a009-4834-8c68-bdc252944123","ios":"levelo://app?vid=af2e964a-a009-4834-8c68-bdc252944123"},"vehicle_type_id":"4","last_reported":1722363058,"current_range_meters":30000,"station_id":"","pricing_plan_id":"cebpf4jnsgd1na2vs0mg"},{"bike_id":"8a9d18e7-4b28-4885-93f5-01f7c946107e","system_id":"levelo_inurba_marseille","lat":43.306412,"lon":5.401035,"is_reserved":false,"is_disabled":false,"rental_uris":{"android":"levelo://app?vid=8a9d18e7-4b28-4885-93f5-01f7c946107e","ios":"levelo://app?vid=8a9d18e7-4b28-4885-93f5-01f7c946107e"},"vehicle_type_id":"4","last_reported":1722363058,"current_range_meters":23600,"station_id":"ce4bh112rcd13ifvqda0","pricing_plan_id":"cebpf4jnsgd1na2vs0mg"},{"bike_id":"8702566d-cae0-430e-9317-675c6ee3cf93","system_id":"levelo_inurba_marseille","lat":43.301117,"lon":5.398795,"is_reserved":false,"is_disabled":false,"rental_uris":{"android":"levelo://app?vid=8702566d-cae0-430e-9317-675c6ee3cf93","ios":"levelo://app?vid=8702566d-cae0-430e-9317-675c6ee3cf93"},"vehicle_type_id":"4","last_reported":1722363058,"current_range_meters":24400,"station_id":"ce4bh0h2rcd13ifvqd40","pricing_plan_id":"cebpf4jnsgd1na2vs0mg"},{"bike_id":"aaccf157-5fed-43be-bd49-e6c3bb99467a","system_id":"levelo_inurba_marseille","lat":43.30122,"lon":5.39851,"is_reserved":false,"is_disabled":false,"rental_uris":{"android":"levelo://app?vid=aaccf157-5fed-43be-bd49-e6c3bb99467a","ios":"levelo://app?vid=aaccf157-5fed-43be-bd49-e6c3bb99467a"},"vehicle_type_id":"4","last_reported":1722363058,"current_range_meters":0,"station_id":"ce4bh0h2rcd13ifvqd40","pricing_plan_id":"cebpf4jnsgd1na2vs0mg"},{"bike_id":"835e3b51-89d3-4be4-ad28-278881264b71","system_id":"levelo_inurba_marseille","lat":43.301117,"lon":5.398795,"is_reserved":false,"is_disabled":false,"rental_uris":{"android":"levelo://app?vid=835e3b51-89d3-4be4-ad28-278881264b71","ios":"levelo://app?vid=835e3b51-89d3-4be4-ad28-278881264b71"},"vehicle_type_id":"4","last_reported":1722363058,"current_range_meters":18000,"station_id":"ce4bh0h2rcd13ifvqd40","pricing_plan_id":"cebpf4jnsgd1na2vs0mg"},{"bike_id":"f29e2326-1e56-4535-8c7c-96173b6e3cfe","system_id":"levelo_inurba_marseille","lat":43.301117,"lon":5.398795,"is_reserved":false,"is_disabled":false,"rental_uris":{"android":"levelo://app?vid=f29e2326-1e56-4535-8c7c-96173b6e3cfe","ios":"levelo://app?vid=f29e2326-1e56-4535-8c7c-96173b6e3cfe"},"vehicle_type_id":"4","last_reported":1722363058,"current_range_meters":0,"station_id":"ce4bh0h2rcd13ifvqd40","pricing_plan_id":"cebpf4jnsgd1na2vs0mg"},{"bike_id":"49eb6144-b043-4ced-b2f3-faa7542bf4b9","system_id":"levelo_inurba_marseille","lat":43.301117,"lon":5.398795,"is_reserved":false,"is_disabled":false,"rental_uris":{"android":"levelo://app?vid=49eb6144-b043-4ced-b2f3-faa7542bf4b9","ios":"levelo://app?vid=49eb6144-b043-4ced-b2f3-faa7542bf4b9"},"vehicle_type_id":"4","last_reported":1722363058,"current_range_meters":7200,"station_id":"ce4bh0h2rcd13ifvqd40","pricing_plan_id":"cebpf4jnsgd1na2vs0mg"},{"bike_id":"4ccca6dc-86c6-4112-a1cd-5bf74b0a492d","system_id":"levelo_inurba_marseille","lat":43.298681,"lon":5.397225,"is_reserved":false,"is_disabled":false,"rental_uris":{"android":"levelo://app?vid=4ccca6dc-86c6-4112-a1cd-5bf74b0a492d","ios":"levelo://app?vid=4ccca6dc-86c6-4112-a1cd-5bf74b0a492d"},"vehicle_type_id":"4","last_reported":1722363058,"current_range_meters":29200,"station_id":"ce4bh0h2rcd13ifvqd50","pricing_plan_id":"cebpf4jnsgd1na2vs0mg"},{"bike_id":"d83c05e7-7143-4a6e-b635-12c3aa5e9b46","system_id":"levelo_inurba_marseille","lat":43.286591,"lon":5.363346,"is_reserved":false,"is_disabled":false,"rental_uris":{"android":"levelo://app?vid=d83c05e7-7143-4a6e-b635-12c3aa5e9b46","ios":"levelo://app?vid=d83c05e7-7143-4a6e-b635-12c3aa5e9b46"},"vehicle_type_id":"4","last_reported":1722363058,"current_range_meters":6400,"station_id":"ce4bhah2rcd13ifvqej0","pricing_plan_id":"cebpf4jnsgd1na2vs0mg"},{"bike_id":"52d24e7e-a9a7-4758-a32e-742bb38cd2c6","system_id":"levelo_inurba_marseille","lat":43.28662,"lon":5.36349,"is_reserved":false,"is_disabled":false,"rental_uris":{"android":"levelo://app?vid=52d24e7e-a9a7-4758-a32e-742bb38cd2c6","ios":"levelo://app?vid=52d24e7e-a9a7-4758-a32e-742bb38cd2c6"},"vehicle_type_id":"4","last_reported":1722363058,"current_range_meters":0,"station_id":"ce4bhah2rcd13ifvqej0","pricing_plan_id":"cebpf4jnsgd1na2vs0mg"},{"bike_id":"6ccd42bc-48bf-490a-b939-e0066eca71c8","system_id":"levelo_inurba_marseille","lat":43.289307,"lon":5.38406,"is_reserved":false,"is_disabled":false,"rental_uris":{"android":"levelo://app?vid=6ccd42bc-48bf-490a-b939-e0066eca71c8","ios":"levelo://app?vid=6ccd42bc-48bf-490a-b939-e0066eca71c8"},"vehicle_type_id":"4","last_reported":1722363058,"current_range_meters":26800,"station_id":"ce4bh612rcd13ifvqe6g","pricing_plan_id":"cebpf4jnsgd1na2vs0mg"},{"bike_id":"a793b69b-bc0c-46e8-89a8-d061a92dd826","system_id":"levelo_inurba_marseille","lat":43.289307,"lon":5.38406,"is_reserved":false,"is_disabled":false,"rental_uris":{"android":"levelo://app?vid=a793b69b-bc0c-46e8-89a8-d061a92dd826","ios":"levelo://app?vid=a793b69b-bc0c-46e8-89a8-d061a92dd826"},"vehicle_type_id":"4","last_reported":1722363058,"current_range_meters":7200,"station_id":"ce4bh612rcd13ifvqe6g","pricing_plan_id":"cebpf4jnsgd1na2vs0mg"},{"bike_id":"ce9ed0e8-116f-4740-9e62-d8cd973f33a2","system_id":"levelo_inurba_marseille","lat":43.290336,"lon":5.386425,"is_reserved":false,"is_disabled":false,"rental_uris":{"android":"levelo://app?vid=ce9ed0e8-116f-4740-9e62-d8cd973f33a2","ios":"levelo://app?vid=ce9ed0e8-116f-4740-9e62-d8cd973f33a2"},"vehicle_type_id":"4","last_reported":1722363058,"current_range_meters":0,"station_id":"ce4bh4p2rcd13ifvqe0g","pricing_plan_id":"cebpf4jnsgd1na2vs0mg"},{"bike_id":"246b8ea4-4d1f-4c5f-95c3-dab0ab3e6f14","system_id":"levelo_inurba_marseille","lat":43.29029,"lon":5.38643,"is_reserved":false,"is_disabled":false,"rental_uris":{"android":"levelo://app?vid=246b8ea4-4d1f-4c5f-95c3-dab0ab3e6f14","ios":"levelo://app?vid=246b8ea4-4d1f-4c5f-95c3-dab0ab3e6f14"},"vehicle_type_id":"4","last_reported":1722363058,"current_range_meters":0,"station_id":"ce4bh4p2rcd13ifvqe0g","pricing_plan_id":"cebpf4jnsgd1na2vs0mg"},{"bike_id":"c6039c82-8dc1-487e-886a-c328e5717f39","system_id":"levelo_inurba_marseille","lat":43.29019,"lon":5.386217,"is_reserved":false,"is_disabled":false,"rental_uris":{"android":"levelo://app?vid=c6039c82-8dc1-487e-886a-c328e5717f39","ios":"levelo://app?vid=c6039c82-8dc1-487e-886a-c328e5717f39"},"vehicle_type_id":"4","last_reported":1722363058,"current_range_meters":0,"station_id":"ce4bh4p2rcd13ifvqe0g","pricing_plan_id":"cebpf4jnsgd1na2vs0mg"},{"bike_id":"eb3a7315-db48-4b3d-88a0-16de77aabcbb","system_id":"levelo_inurba_marseille","lat":43.30244,"lon":5.40061,"is_reserved":false,"is_disabled":false,"rental_uris":{"android":"levelo://app?vid=eb3a7315-db48-4b3d-88a0-16de77aabcbb","ios":"levelo://app?vid=eb3a7315-db48-4b3d-88a0-16de77aabcbb"},"vehicle_type_id":"4","last_reported":1722363058,"current_range_meters":3200,"station_id":"ce4bgvh2rcd13ifvqcs0","pricing_plan_id":"cebpf4jnsgd1na2vs0mg"},{"bike_id":"c48c8685-95de-44e6-8e20-5476162371e7","system_id":"levelo_inurba_marseille","lat":43.29029,"lon":5.3865,"is_reserved":false,"is_disabled":false,"rental_uris":{"android":"levelo://app?vid=c48c8685-95de-44e6-8e20-5476162371e7","ios":"levelo://app?vid=c48c8685-95de-44e6-8e20-5476162371e7"},"vehicle_type_id":"4","last_reported":1722363058,"current_range_meters":0,"station_id":"ce4bh4p2rcd13ifvqe0g","pricing_plan_id":"cebpf4jnsgd1na2vs0mg"},{"bike_id":"ba849904-0f3f-49a4-8905-a5d42b32b9d8","system_id":"levelo_inurba_marseille","lat":43.29027,"lon":5.38647,"is_reserved":false,"is_disabled":false,"rental_uris":{"android":"levelo://app?vid=ba849904-0f3f-49a4-8905-a5d42b32b9d8","ios":"levelo://app?vid=ba849904-0f3f-49a4-8905-a5d42b32b9d8"},"vehicle_type_id":"4","last_reported":1722363058,"current_range_meters":0,"station_id":"ce4bh4p2rcd13ifvqe0g","pricing_plan_id":"cebpf4jnsgd1na2vs0mg"},{"bike_id":"1d39ce40-6f06-4763-8c1b-328b28db7ad8","system_id":"levelo_inurba_marseille","lat":43.286039,"lon":5.370681,"is_reserved":false,"is_disabled":false,"rental_uris":{"android":"levelo://app?vid=1d39ce40-6f06-4763-8c1b-328b28db7ad8","ios":"levelo://app?vid=1d39ce40-6f06-4763-8c1b-328b28db7ad8"},"vehicle_type_id":"4","last_reported":1722363058,"current_range_meters":800,"station_id":"ce4bht12rcd13ifvqi60","pricing_plan_id":"cebpf4jnsgd1na2vs0mg"},{"bike_id":"b32ab0c2-2b50-42a5-a1a2-4454fa1a5eb5","system_id":"levelo_inurba_marseille","lat":43.286039,"lon":5.370681,"is_reserved":false,"is_disabled":false,"rental_uris":{"android":"levelo://app?vid=b32ab0c2-2b50-42a5-a1a2-4454fa1a5eb5","ios":"levelo://app?vid=b32ab0c2-2b50-42a5-a1a2-4454fa1a5eb5"},"vehicle_type_id":"4","last_reported":1722363058,"current_range_meters":4800,"station_id":"ce4bht12rcd13ifvqi60","pricing_plan_id":"cebpf4jnsgd1na2vs0mg"},{"bike_id":"59fb77ce-c565-4199-8f1e-816be4583450","system_id":"levelo_inurba_marseille","lat":43.28797,"lon":5.35237,"is_reserved":false,"is_disabled":false,"rental_uris":{"android":"levelo://app?vid=59fb77ce-c565-4199-8f1e-816be4583450","ios":"levelo://app?vid=59fb77ce-c565-4199-8f1e-816be4583450"},"vehicle_type_id":"4","last_reported":1722363058,"current_range_meters":7200,"station_id":"","pricing_plan_id":"cebpf4jnsgd1na2vs0mg"},{"bike_id":"8390ffe2-fc85-4eaa-a6a1-03bbd1855b34","system_id":"levelo_inurba_marseille","lat":43.31399,"lon":5.40402,"is_reserved":false,"is_disabled":false,"rental_uris":{"android":"levelo://app?vid=8390ffe2-fc85-4eaa-a6a1-03bbd1855b34","ios":"levelo://app?vid=8390ffe2-fc85-4eaa-a6a1-03bbd1855b34"},"vehicle_type_id":"4","last_reported":1722363058,"current_range_meters":0,"station_id":"","pricing_plan_id":"cebpf4jnsgd1na2vs0mg"},{"bike_id":"01b4534c-e50f-470e-b7cd-ecb5c529a294","system_id":"levelo_inurba_marseille","lat":43.28715,"lon":5.37924,"is_reserved":false,"is_disabled":false,"rental_uris":{"android":"levelo://app?vid=01b4534c-e50f-470e-b7cd-ecb5c529a294","ios":"levelo://app?vid=01b4534c-e50f-470e-b7cd-ecb5c529a294"},"vehicle_type_id":"4","last_reported":1722363058,"current_range_meters":0,"station_id":"ce4bh9p2rcd13ifvqec0","pricing_plan_id":"cebpf4jnsgd1na2vs0mg"},{"bike_id":"ae53eb98-1063-4b99-88f3-3757a562b1e1","system_id":"levelo_inurba_marseille","lat":43.287184,"lon":5.37937,"is_reserved":false,"is_disabled":false,"rental_uris":{"android":"levelo://app?vid=ae53eb98-1063-4b99-88f3-3757a562b1e1","ios":"levelo://app?vid=ae53eb98-1063-4b99-88f3-3757a562b1e1"},"vehicle_type_id":"4","last_reported":1722363058,"current_range_meters":0,"station_id":"ce4bh9p2rcd13ifvqec0","pricing_plan_id":"cebpf4jnsgd1na2vs0mg"},{"bike_id":"6fb29889-abed-41ae-bf4a-aca8aa5bb334","system_id":"levelo_inurba_marseille","lat":43.31712,"lon":5.40446,"is_reserved":false,"is_disabled":false,"rental_uris":{"android":"levelo://app?vid=6fb29889-abed-41ae-bf4a-aca8aa5bb334","ios":"levelo://app?vid=6fb29889-abed-41ae-bf4a-aca8aa5bb334"},"vehicle_type_id":"4","last_reported":1722363058,"current_range_meters":1600,"station_id":"ce4bh012rcd13ifvqd00","pricing_plan_id":"cebpf4jnsgd1na2vs0mg"},{"bike_id":"9ae5ed27-33ec-48ce-b181-3419fc10c084","system_id":"levelo_inurba_marseille","lat":43.316821,"lon":5.404737,"is_reserved":false,"is_disabled":false,"rental_uris":{"android":"levelo://app?vid=9ae5ed27-33ec-48ce-b181-3419fc10c084","ios":"levelo://app?vid=9ae5ed27-33ec-48ce-b181-3419fc10c084"},"vehicle_type_id":"4","last_reported":1722363058,"current_range_meters":400,"station_id":"ce4bh012rcd13ifvqd00","pricing_plan_id":"cebpf4jnsgd1na2vs0mg"},{"bike_id":"70793a1e-8b9f-4e29-8904-7d09d73fac5b","system_id":"levelo_inurba_marseille","lat":43.292018,"lon":5.392937,"is_reserved":false,"is_disabled":false,"rental_uris":{"android":"levelo://app?vid=70793a1e-8b9f-4e29-8904-7d09d73fac5b","ios":"levelo://app?vid=70793a1e-8b9f-4e29-8904-7d09d73fac5b"},"vehicle_type_id":"4","last_reported":1722363058,"current_range_meters":1200,"station_id":"ce4bhbp2rcd13ifvqerg","pricing_plan_id":"cebpf4jnsgd1na2vs0mg"},{"bike_id":"c24fb498-aacb-4753-925b-a2f476ef8ea1","system_id":"levelo_inurba_marseille","lat":43.291994,"lon":5.392907,"is_reserved":false,"is_disabled":false,"rental_uris":{"android":"levelo://app?vid=c24fb498-aacb-4753-925b-a2f476ef8ea1","ios":"levelo://app?vid=c24fb498-aacb-4753-925b-a2f476ef8ea1"},"vehicle_type_id":"4","last_reported":1722363058,"current_range_meters":10400,"station_id":"ce4bh192rcd13ifvqdd0","pricing_plan_id":"cebpf4jnsgd1na2vs0mg"},{"bike_id":"77f1e53d-0a53-4206-8d21-217d229fb235","system_id":"levelo_inurba_marseille","lat":43.29197,"lon":5.39315,"is_reserved":false,"is_disabled":false,"rental_uris":{"android":"levelo://app?vid=77f1e53d-0a53-4206-8d21-217d229fb235","ios":"levelo://app?vid=77f1e53d-0a53-4206-8d21-217d229fb235"},"vehicle_type_id":"4","last_reported":1722363058,"current_range_meters":0,"station_id":"ce4bh192rcd13ifvqdd0","pricing_plan_id":"cebpf4jnsgd1na2vs0mg"},{"bike_id":"daccd034-bde7-4088-9197-9dc0c01257f0","system_id":"levelo_inurba_marseille","lat":43.291994,"lon":5.392907,"is_reserved":false,"is_disabled":false,"rental_uris":{"android":"levelo://app?vid=daccd034-bde7-4088-9197-9dc0c01257f0","ios":"levelo://app?vid=daccd034-bde7-4088-9197-9dc0c01257f0"},"vehicle_type_id":"4","last_reported":1722363058,"current_range_meters":0,"station_id":"ce4bh192rcd13ifvqdd0","pricing_plan_id":"cebpf4jnsgd1na2vs0mg"},{"bike_id":"7bc24c15-ae9d-4d96-8b89-6dc0342edf96","system_id":"levelo_inurba_marseille","lat":43.284538,"lon":5.358657,"is_reserved":false,"is_disabled":false,"rental_uris":{"android":"levelo://app?vid=7bc24c15-ae9d-4d96-8b89-6dc0342edf96","ios":"levelo://app?vid=7bc24c15-ae9d-4d96-8b89-6dc0342edf96"},"vehicle_type_id":"4","last_reported":1722363058,"current_range_meters":0,"station_id":"ce4bhah2rcd13ifvqei0","pricing_plan_id":"cebpf4jnsgd1na2vs0mg"},{"bike_id":"08c63ef0-2ee6-427d-9d62-b3bddcee13ac","system_id":"levelo_inurba_marseille","lat":43.284538,"lon":5.358657,"is_reserved":false,"is_disabled":false,"rental_uris":{"android":"levelo://app?vid=08c63ef0-2ee6-427d-9d62-b3bddcee13ac","ios":"levelo://app?vid=08c63ef0-2ee6-427d-9d62-b3bddcee13ac"},"vehicle_type_id":"4","last_reported":1722363058,"current_range_meters":28000,"station_id":"ce4bhah2rcd13ifvqei0","pricing_plan_id":"cebpf4jnsgd1na2vs0mg"},{"bike_id":"94ea2fd8-4549-4032-8db6-62bb250cb19b","system_id":"levelo_inurba_marseille","lat":43.294314,"lon":5.397498,"is_reserved":false,"is_disabled":false,"rental_uris":{"android":"levelo://app?vid=94ea2fd8-4549-4032-8db6-62bb250cb19b","ios":"levelo://app?vid=94ea2fd8-4549-4032-8db6-62bb250cb19b"},"vehicle_type_id":"4","last_reported":1722363058,"current_range_meters":0,"station_id":"ce4bh3h2rcd13ifvqdo0","pricing_plan_id":"cebpf4jnsgd1na2vs0mg"},{"bike_id":"f56452ab-45a1-45c2-9555-82df3b314403","system_id":"levelo_inurba_marseille","lat":43.28619,"lon":5.35106,"is_reserved":false,"is_disabled":false,"rental_uris":{"android":"levelo://app?vid=f56452ab-45a1-45c2-9555-82df3b314403","ios":"levelo://app?vid=f56452ab-45a1-45c2-9555-82df3b314403"},"vehicle_type_id":"4","last_reported":1722363058,"current_range_meters":0,"station_id":"ce4bhch2rcd13ifvqeug","pricing_plan_id":"cebpf4jnsgd1na2vs0mg"},{"bike_id":"f53a7273-1626-4f34-b690-a4b477bb9905","system_id":"levelo_inurba_marseille","lat":43.28615,"lon":5.35109,"is_reserved":false,"is_disabled":false,"rental_uris":{"android":"levelo://app?vid=f53a7273-1626-4f34-b690-a4b477bb9905","ios":"levelo://app?vid=f53a7273-1626-4f34-b690-a4b477bb9905"},"vehicle_type_id":"4","last_reported":1722363058,"current_range_meters":0,"station_id":"ce4bhch2rcd13ifvqeug","pricing_plan_id":"cebpf4jnsgd1na2vs0mg"},{"bike_id":"288c8ee9-bf65-4ad9-b5fd-77c40d428f81","system_id":"levelo_inurba_marseille","lat":43.28617,"lon":5.351,"is_reserved":false,"is_disabled":false,"rental_uris":{"android":"levelo://app?vid=288c8ee9-bf65-4ad9-b5fd-77c40d428f81","ios":"levelo://app?vid=288c8ee9-bf65-4ad9-b5fd-77c40d428f81"},"vehicle_type_id":"4","last_reported":1722363058,"current_range_meters":0,"station_id":"","pricing_plan_id":"cebpf4jnsgd1na2vs0mg"},{"bike_id":"8ee92367-b3e1-43f1-a160-d6d7445b5aad","system_id":"levelo_inurba_marseille","lat":43.28614,"lon":5.35105,"is_reserved":false,"is_disabled":false,"rental_uris":{"android":"levelo://app?vid=8ee92367-b3e1-43f1-a160-d6d7445b5aad","ios":"levelo://app?vid=8ee92367-b3e1-43f1-a160-d6d7445b5aad"},"vehicle_type_id":"4","last_reported":1722363058,"current_range_meters":0,"station_id":"ce4bhch2rcd13ifvqeug","pricing_plan_id":"cebpf4jnsgd1na2vs0mg"},{"bike_id":"431e8603-7e2f-4c67-90ac-7af62f313b58","system_id":"levelo_inurba_marseille","lat":43.286147,"lon":5.351027,"is_reserved":false,"is_disabled":false,"rental_uris":{"android":"levelo://app?vid=431e8603-7e2f-4c67-90ac-7af62f313b58","ios":"levelo://app?vid=431e8603-7e2f-4c67-90ac-7af62f313b58"},"vehicle_type_id":"4","last_reported":1722363058,"current_range_meters":4000,"station_id":"ce4bhch2rcd13ifvqeug","pricing_plan_id":"cebpf4jnsgd1na2vs0mg"},{"bike_id":"f6f0e109-c18f-4dcf-850b-c4c67eb1c920","system_id":"levelo_inurba_marseille","lat":43.28616,"lon":5.35097,"is_reserved":false,"is_disabled":false,"rental_uris":{"android":"levelo://app?vid=f6f0e109-c18f-4dcf-850b-c4c67eb1c920","ios":"levelo://app?vid=f6f0e109-c18f-4dcf-850b-c4c67eb1c920"},"vehicle_type_id":"4","last_reported":1722363058,"current_range_meters":0,"station_id":"ce4bhch2rcd13ifvqeug","pricing_plan_id":"cebpf4jnsgd1na2vs0mg"},{"bike_id":"a6f17783-fcce-4e0a-aead-cd1cc42a84cd","system_id":"levelo_inurba_marseille","lat":43.283998,"lon":5.375062,"is_reserved":false,"is_disabled":false,"rental_uris":{"android":"levelo://app?vid=a6f17783-fcce-4e0a-aead-cd1cc42a84cd","ios":"levelo://app?vid=a6f17783-fcce-4e0a-aead-cd1cc42a84cd"},"vehicle_type_id":"4","last_reported":1722363058,"current_range_meters":18800,"station_id":"ce4bh412rcd13ifvqds0","pricing_plan_id":"cebpf4jnsgd1na2vs0mg"},{"bike_id":"be3c4447-14ce-4099-9ab5-22a6a6614b22","system_id":"levelo_inurba_marseille","lat":43.283998,"lon":5.375062,"is_reserved":false,"is_disabled":false,"rental_uris":{"android":"levelo://app?vid=be3c4447-14ce-4099-9ab5-22a6a6614b22","ios":"levelo://app?vid=be3c4447-14ce-4099-9ab5-22a6a6614b22"},"vehicle_type_id":"4","last_reported":1722363058,"current_range_meters":15600,"station_id":"ce4bh412rcd13ifvqds0","pricing_plan_id":"cebpf4jnsgd1na2vs0mg"},{"bike_id":"6d2b673c-a05a-42d7-a9ad-b7e2dac6d303","system_id":"levelo_inurba_marseille","lat":43.295713,"lon":5.399639,"is_reserved":false,"is_disabled":false,"rental_uris":{"android":"levelo://app?vid=6d2b673c-a05a-42d7-a9ad-b7e2dac6d303","ios":"levelo://app?vid=6d2b673c-a05a-42d7-a9ad-b7e2dac6d303"},"vehicle_type_id":"4","last_reported":1722363058,"current_range_meters":2400,"station_id":"ce4bh312rcd13ifvqdj0","pricing_plan_id":"cebpf4jnsgd1na2vs0mg"},{"bike_id":"ff1d4c92-c43a-4600-a33d-3ee4ada71311","system_id":"levelo_inurba_marseille","lat":43.295713,"lon":5.399639,"is_reserved":false,"is_disabled":false,"rental_uris":{"android":"levelo://app?vid=ff1d4c92-c43a-4600-a33d-3ee4ada71311","ios":"levelo://app?vid=ff1d4c92-c43a-4600-a33d-3ee4ada71311"},"vehicle_type_id":"4","last_reported":1722363058,"current_range_meters":0,"station_id":"ce4bh312rcd13ifvqdj0","pricing_plan_id":"cebpf4jnsgd1na2vs0mg"},{"bike_id":"160a20c2-661c-4483-9ad1-4224048eeb03","system_id":"levelo_inurba_marseille","lat":43.286595,"lon":5.386795,"is_reserved":false,"is_disabled":false,"rental_uris":{"android":"levelo://app?vid=160a20c2-661c-4483-9ad1-4224048eeb03","ios":"levelo://app?vid=160a20c2-661c-4483-9ad1-4224048eeb03"},"vehicle_type_id":"4","last_reported":1722363058,"current_range_meters":22400,"station_id":"ce4bh492rcd13ifvqdug","pricing_plan_id":"cebpf4jnsgd1na2vs0mg"},{"bike_id":"c32b104a-abb5-4603-aab6-e112e942598a","system_id":"levelo_inurba_marseille","lat":43.323464,"lon":5.406297,"is_reserved":false,"is_disabled":false,"rental_uris":{"android":"levelo://app?vid=c32b104a-abb5-4603-aab6-e112e942598a","ios":"levelo://app?vid=c32b104a-abb5-4603-aab6-e112e942598a"},"vehicle_type_id":"4","last_reported":1722363058,"current_range_meters":19200,"station_id":"ce4bhq92rcd13ifvqhjg","pricing_plan_id":"cebpf4jnsgd1na2vs0mg"},{"bike_id":"58021119-2ada-4f61-beee-6a352fb82343","system_id":"levelo_inurba_marseille","lat":43.323464,"lon":5.406297,"is_reserved":false,"is_disabled":false,"rental_uris":{"android":"levelo://app?vid=58021119-2ada-4f61-beee-6a352fb82343","ios":"levelo://app?vid=58021119-2ada-4f61-beee-6a352fb82343"},"vehicle_type_id":"4","last_reported":1722363058,"current_range_meters":18000,"station_id":"ce4bhq92rcd13ifvqhjg","pricing_plan_id":"cebpf4jnsgd1na2vs0mg"},{"bike_id":"2c7adba4-503b-4558-98f5-ea28e2601807","system_id":"levelo_inurba_marseille","lat":43.28798,"lon":5.39162,"is_reserved":false,"is_disabled":false,"rental_uris":{"android":"levelo://app?vid=2c7adba4-503b-4558-98f5-ea28e2601807","ios":"levelo://app?vid=2c7adba4-503b-4558-98f5-ea28e2601807"},"vehicle_type_id":"4","last_reported":1722363058,"current_range_meters":9200,"station_id":"","pricing_plan_id":"cebpf4jnsgd1na2vs0mg"},{"bike_id":"d38348c7-d622-4ccf-bfd7-e994d51468d5","system_id":"levelo_inurba_marseille","lat":43.284778,"lon":5.384098,"is_reserved":false,"is_disabled":false,"rental_uris":{"android":"levelo://app?vid=d38348c7-d622-4ccf-bfd7-e994d51468d5","ios":"levelo://app?vid=d38348c7-d622-4ccf-bfd7-e994d51468d5"},"vehicle_type_id":"4","last_reported":1722363058,"current_range_meters":0,"station_id":"ce4bh512rcd13ifvqe3g","pricing_plan_id":"cebpf4jnsgd1na2vs0mg"},{"bike_id":"58de2154-9b46-41fe-9b5b-05179d6b6f58","system_id":"levelo_inurba_marseille","lat":43.28475,"lon":5.38405,"is_reserved":false,"is_disabled":false,"rental_uris":{"android":"levelo://app?vid=58de2154-9b46-41fe-9b5b-05179d6b6f58","ios":"levelo://app?vid=58de2154-9b46-41fe-9b5b-05179d6b6f58"},"vehicle_type_id":"4","last_reported":1722363058,"current_range_meters":0,"station_id":"ce4bh512rcd13ifvqe3g","pricing_plan_id":"cebpf4jnsgd1na2vs0mg"},{"bike_id":"403e7fa6-c014-4204-b1cd-05aa6bc17461","system_id":"levelo_inurba_marseille","lat":43.284771,"lon":5.384147,"is_reserved":false,"is_disabled":false,"rental_uris":{"android":"levelo://app?vid=403e7fa6-c014-4204-b1cd-05aa6bc17461","ios":"levelo://app?vid=403e7fa6-c014-4204-b1cd-05aa6bc17461"},"vehicle_type_id":"4","last_reported":1722363058,"current_range_meters":0,"station_id":"ce4bh512rcd13ifvqe3g","pricing_plan_id":"cebpf4jnsgd1na2vs0mg"},{"bike_id":"8547d9cb-82c3-496f-a6ad-b1102f40f39f","system_id":"levelo_inurba_marseille","lat":43.284723,"lon":5.38412,"is_reserved":false,"is_disabled":false,"rental_uris":{"android":"levelo://app?vid=8547d9cb-82c3-496f-a6ad-b1102f40f39f","ios":"levelo://app?vid=8547d9cb-82c3-496f-a6ad-b1102f40f39f"},"vehicle_type_id":"4","last_reported":1722363058,"current_range_meters":0,"station_id":"ce4bh512rcd13ifvqe3g","pricing_plan_id":"cebpf4jnsgd1na2vs0mg"},{"bike_id":"d9884cfc-3730-41fa-841d-6f0505902a3c","system_id":"levelo_inurba_marseille","lat":43.28356,"lon":5.38106,"is_reserved":false,"is_disabled":false,"rental_uris":{"android":"levelo://app?vid=d9884cfc-3730-41fa-841d-6f0505902a3c","ios":"levelo://app?vid=d9884cfc-3730-41fa-841d-6f0505902a3c"},"vehicle_type_id":"4","last_reported":1722363058,"current_range_meters":0,"station_id":"ce4bh412rcd13ifvqdr0","pricing_plan_id":"cebpf4jnsgd1na2vs0mg"},{"bike_id":"851f63d9-ab41-440e-9eea-b5bfc2d6831d","system_id":"levelo_inurba_marseille","lat":43.283494,"lon":5.380945,"is_reserved":false,"is_disabled":false,"rental_uris":{"android":"levelo://app?vid=851f63d9-ab41-440e-9eea-b5bfc2d6831d","ios":"levelo://app?vid=851f63d9-ab41-440e-9eea-b5bfc2d6831d"},"vehicle_type_id":"4","last_reported":1722363058,"current_range_meters":0,"station_id":"ce4bh412rcd13ifvqdr0","pricing_plan_id":"cebpf4jnsgd1na2vs0mg"},{"bike_id":"8fa47d58-04b2-4f4e-8d2a-6243ad95628e","system_id":"levelo_inurba_marseille","lat":43.283498,"lon":5.380948,"is_reserved":false,"is_disabled":false,"rental_uris":{"android":"levelo://app?vid=8fa47d58-04b2-4f4e-8d2a-6243ad95628e","ios":"levelo://app?vid=8fa47d58-04b2-4f4e-8d2a-6243ad95628e"},"vehicle_type_id":"4","last_reported":1722363058,"current_range_meters":23200,"station_id":"ce4bh412rcd13ifvqdr0","pricing_plan_id":"cebpf4jnsgd1na2vs0mg"},{"bike_id":"2ca98b3c-5262-4254-81a8-773a10774353","system_id":"levelo_inurba_marseille","lat":43.283494,"lon":5.380945,"is_reserved":false,"is_disabled":false,"rental_uris":{"android":"levelo://app?vid=2ca98b3c-5262-4254-81a8-773a10774353","ios":"levelo://app?vid=2ca98b3c-5262-4254-81a8-773a10774353"},"vehicle_type_id":"4","last_reported":1722363058,"current_range_meters":8400,"station_id":"ce4bh412rcd13ifvqdr0","pricing_plan_id":"cebpf4jnsgd1na2vs0mg"},{"bike_id":"6ec7d8e3-7c43-4cc0-90e8-259b214ed10b","system_id":"levelo_inurba_marseille","lat":43.284253,"lon":5.349873,"is_reserved":false,"is_disabled":false,"rental_uris":{"android":"levelo://app?vid=6ec7d8e3-7c43-4cc0-90e8-259b214ed10b","ios":"levelo://app?vid=6ec7d8e3-7c43-4cc0-90e8-259b214ed10b"},"vehicle_type_id":"4","last_reported":1722363058,"current_range_meters":24400,"station_id":"ce4bhbh2rcd13ifvqepg","pricing_plan_id":"cebpf4jnsgd1na2vs0mg"},{"bike_id":"66e5459e-d2cb-4fae-a2bc-80cc88c6b56d","system_id":"levelo_inurba_marseille","lat":43.2842,"lon":5.349944,"is_reserved":false,"is_disabled":false,"rental_uris":{"android":"levelo://app?vid=66e5459e-d2cb-4fae-a2bc-80cc88c6b56d","ios":"levelo://app?vid=66e5459e-d2cb-4fae-a2bc-80cc88c6b56d"},"vehicle_type_id":"4","last_reported":1722363058,"current_range_meters":30000,"station_id":"ce4bhbh2rcd13ifvqepg","pricing_plan_id":"cebpf4jnsgd1na2vs0mg"},{"bike_id":"82b57403-0121-4457-b09d-23d00af23779","system_id":"levelo_inurba_marseille","lat":43.284214,"lon":5.349706,"is_reserved":false,"is_disabled":false,"rental_uris":{"android":"levelo://app?vid=82b57403-0121-4457-b09d-23d00af23779","ios":"levelo://app?vid=82b57403-0121-4457-b09d-23d00af23779"},"vehicle_type_id":"4","last_reported":1722363058,"current_range_meters":5600,"station_id":"ce4bhbh2rcd13ifvqepg","pricing_plan_id":"cebpf4jnsgd1na2vs0mg"},{"bike_id":"45e7074b-622d-4f39-b3ff-46dd1dbc0464","system_id":"levelo_inurba_marseille","lat":43.284214,"lon":5.349706,"is_reserved":false,"is_disabled":false,"rental_uris":{"android":"levelo://app?vid=45e7074b-622d-4f39-b3ff-46dd1dbc0464","ios":"levelo://app?vid=45e7074b-622d-4f39-b3ff-46dd1dbc0464"},"vehicle_type_id":"4","last_reported":1722363058,"current_range_meters":31200,"station_id":"ce4bhbh2rcd13ifvqepg","pricing_plan_id":"cebpf4jnsgd1na2vs0mg"},{"bike_id":"c4106f8b-5b79-44af-a638-ed5f140c9ff0","system_id":"levelo_inurba_marseille","lat":43.284214,"lon":5.349706,"is_reserved":false,"is_disabled":false,"rental_uris":{"android":"levelo://app?vid=c4106f8b-5b79-44af-a638-ed5f140c9ff0","ios":"levelo://app?vid=c4106f8b-5b79-44af-a638-ed5f140c9ff0"},"vehicle_type_id":"4","last_reported":1722363058,"current_range_meters":26400,"station_id":"ce4bhbh2rcd13ifvqepg","pricing_plan_id":"cebpf4jnsgd1na2vs0mg"},{"bike_id":"c28dbaa0-748f-4261-94ec-de9fc9abfd14","system_id":"levelo_inurba_marseille","lat":43.284214,"lon":5.349706,"is_reserved":false,"is_disabled":false,"rental_uris":{"android":"levelo://app?vid=c28dbaa0-748f-4261-94ec-de9fc9abfd14","ios":"levelo://app?vid=c28dbaa0-748f-4261-94ec-de9fc9abfd14"},"vehicle_type_id":"4","last_reported":1722363058,"current_range_meters":18400,"station_id":"ce4bhbh2rcd13ifvqepg","pricing_plan_id":"cebpf4jnsgd1na2vs0mg"},{"bike_id":"239ef51b-a56f-4b51-bc6e-e9c6710c9833","system_id":"levelo_inurba_marseille","lat":43.28419,"lon":5.34983,"is_reserved":false,"is_disabled":false,"rental_uris":{"android":"levelo://app?vid=239ef51b-a56f-4b51-bc6e-e9c6710c9833","ios":"levelo://app?vid=239ef51b-a56f-4b51-bc6e-e9c6710c9833"},"vehicle_type_id":"4","last_reported":1722363058,"current_range_meters":23600,"station_id":"ce4bhbh2rcd13ifvqepg","pricing_plan_id":"cebpf4jnsgd1na2vs0mg"},{"bike_id":"8d1ea3b8-704d-42ae-9231-365ba66d0282","system_id":"levelo_inurba_marseille","lat":43.28419,"lon":5.34975,"is_reserved":false,"is_disabled":false,"rental_uris":{"android":"levelo://app?vid=8d1ea3b8-704d-42ae-9231-365ba66d0282","ios":"levelo://app?vid=8d1ea3b8-704d-42ae-9231-365ba66d0282"},"vehicle_type_id":"4","last_reported":1722363058,"current_range_meters":6800,"station_id":"ce4bhbh2rcd13ifvqepg","pricing_plan_id":"cebpf4jnsgd1na2vs0mg"},{"bike_id":"24996c05-d1a9-4bee-8b39-cc8506ad0236","system_id":"levelo_inurba_marseille","lat":43.28415,"lon":5.34986,"is_reserved":false,"is_disabled":false,"rental_uris":{"android":"levelo://app?vid=24996c05-d1a9-4bee-8b39-cc8506ad0236","ios":"levelo://app?vid=24996c05-d1a9-4bee-8b39-cc8506ad0236"},"vehicle_type_id":"4","last_reported":1722363058,"current_range_meters":18800,"station_id":"ce4bhbh2rcd13ifvqepg","pricing_plan_id":"cebpf4jnsgd1na2vs0mg"},{"bike_id":"a7613f88-85b3-4874-be73-86cafde32652","system_id":"levelo_inurba_marseille","lat":43.28415,"lon":5.34983,"is_reserved":false,"is_disabled":false,"rental_uris":{"android":"levelo://app?vid=a7613f88-85b3-4874-be73-86cafde32652","ios":"levelo://app?vid=a7613f88-85b3-4874-be73-86cafde32652"},"vehicle_type_id":"4","last_reported":1722363058,"current_range_meters":27200,"station_id":"ce4bhbh2rcd13ifvqepg","pricing_plan_id":"cebpf4jnsgd1na2vs0mg"},{"bike_id":"51ab3421-cc8b-40e6-a7ab-53ac7fea2400","system_id":"levelo_inurba_marseille","lat":43.28415,"lon":5.34981,"is_reserved":false,"is_disabled":false,"rental_uris":{"android":"levelo://app?vid=51ab3421-cc8b-40e6-a7ab-53ac7fea2400","ios":"levelo://app?vid=51ab3421-cc8b-40e6-a7ab-53ac7fea2400"},"vehicle_type_id":"4","last_reported":1722363058,"current_range_meters":16800,"station_id":"ce4bhbh2rcd13ifvqepg","pricing_plan_id":"cebpf4jnsgd1na2vs0mg"},{"bike_id":"aefccedc-714d-4857-a102-4debb1b89bc6","system_id":"levelo_inurba_marseille","lat":43.28412,"lon":5.3499,"is_reserved":false,"is_disabled":false,"rental_uris":{"android":"levelo://app?vid=aefccedc-714d-4857-a102-4debb1b89bc6","ios":"levelo://app?vid=aefccedc-714d-4857-a102-4debb1b89bc6"},"vehicle_type_id":"4","last_reported":1722363058,"current_range_meters":16400,"station_id":"ce4bhbh2rcd13ifvqepg","pricing_plan_id":"cebpf4jnsgd1na2vs0mg"},{"bike_id":"b9110baf-8213-458a-86b7-f98a01065836","system_id":"levelo_inurba_marseille","lat":43.284217,"lon":5.349697,"is_reserved":false,"is_disabled":false,"rental_uris":{"android":"levelo://app?vid=b9110baf-8213-458a-86b7-f98a01065836","ios":"levelo://app?vid=b9110baf-8213-458a-86b7-f98a01065836"},"vehicle_type_id":"4","last_reported":1722363058,"current_range_meters":0,"station_id":"ce4bhbh2rcd13ifvqepg","pricing_plan_id":"cebpf4jnsgd1na2vs0mg"},{"bike_id":"571eeb62-3273-4ed6-9b4d-664476220a74","system_id":"levelo_inurba_marseille","lat":43.284214,"lon":5.349706,"is_reserved":false,"is_disabled":false,"rental_uris":{"android":"levelo://app?vid=571eeb62-3273-4ed6-9b4d-664476220a74","ios":"levelo://app?vid=571eeb62-3273-4ed6-9b4d-664476220a74"},"vehicle_type_id":"4","last_reported":1722363058,"current_range_meters":21600,"station_id":"ce4bhbh2rcd13ifvqepg","pricing_plan_id":"cebpf4jnsgd1na2vs0mg"},{"bike_id":"3355c3e6-97d7-4aeb-b5f9-f9392da306b2","system_id":"levelo_inurba_marseille","lat":43.28414,"lon":5.34977,"is_reserved":false,"is_disabled":false,"rental_uris":{"android":"levelo://app?vid=3355c3e6-97d7-4aeb-b5f9-f9392da306b2","ios":"levelo://app?vid=3355c3e6-97d7-4aeb-b5f9-f9392da306b2"},"vehicle_type_id":"4","last_reported":1722363058,"current_range_meters":8800,"station_id":"ce4bhbh2rcd13ifvqepg","pricing_plan_id":"cebpf4jnsgd1na2vs0mg"},{"bike_id":"84966196-85b8-4e88-a7ca-d197f617956f","system_id":"levelo_inurba_marseille","lat":43.28413,"lon":5.3498,"is_reserved":false,"is_disabled":false,"rental_uris":{"android":"levelo://app?vid=84966196-85b8-4e88-a7ca-d197f617956f","ios":"levelo://app?vid=84966196-85b8-4e88-a7ca-d197f617956f"},"vehicle_type_id":"4","last_reported":1722363058,"current_range_meters":10400,"station_id":"ce4bhbh2rcd13ifvqepg","pricing_plan_id":"cebpf4jnsgd1na2vs0mg"},{"bike_id":"e7e14634-ea6d-4355-964f-6addb910cf9f","system_id":"levelo_inurba_marseille","lat":43.284214,"lon":5.349706,"is_reserved":false,"is_disabled":false,"rental_uris":{"android":"levelo://app?vid=e7e14634-ea6d-4355-964f-6addb910cf9f","ios":"levelo://app?vid=e7e14634-ea6d-4355-964f-6addb910cf9f"},"vehicle_type_id":"4","last_reported":1722363058,"current_range_meters":28800,"station_id":"ce4bhbh2rcd13ifvqepg","pricing_plan_id":"cebpf4jnsgd1na2vs0mg"},{"bike_id":"e44232b5-9c27-4bbb-83fd-984bae82a2b4","system_id":"levelo_inurba_marseille","lat":43.28412,"lon":5.34978,"is_reserved":false,"is_disabled":false,"rental_uris":{"android":"levelo://app?vid=e44232b5-9c27-4bbb-83fd-984bae82a2b4","ios":"levelo://app?vid=e44232b5-9c27-4bbb-83fd-984bae82a2b4"},"vehicle_type_id":"4","last_reported":1722363058,"current_range_meters":14000,"station_id":"ce4bhbh2rcd13ifvqepg","pricing_plan_id":"cebpf4jnsgd1na2vs0mg"},{"bike_id":"ce569411-6b2e-4aac-946a-d4791e2dd3d3","system_id":"levelo_inurba_marseille","lat":43.28414,"lon":5.3497,"is_reserved":false,"is_disabled":false,"rental_uris":{"android":"levelo://app?vid=ce569411-6b2e-4aac-946a-d4791e2dd3d3","ios":"levelo://app?vid=ce569411-6b2e-4aac-946a-d4791e2dd3d3"},"vehicle_type_id":"4","last_reported":1722363058,"current_range_meters":17200,"station_id":"ce4bhbh2rcd13ifvqepg","pricing_plan_id":"cebpf4jnsgd1na2vs0mg"},{"bike_id":"0f5232d2-38db-4048-90ee-729dde9555a3","system_id":"levelo_inurba_marseille","lat":43.284086,"lon":5.349846,"is_reserved":false,"is_disabled":false,"rental_uris":{"android":"levelo://app?vid=0f5232d2-38db-4048-90ee-729dde9555a3","ios":"levelo://app?vid=0f5232d2-38db-4048-90ee-729dde9555a3"},"vehicle_type_id":"4","last_reported":1722363058,"current_range_meters":27200,"station_id":"ce4bhbh2rcd13ifvqepg","pricing_plan_id":"cebpf4jnsgd1na2vs0mg"},{"bike_id":"f0b5031a-dd4c-4d0c-9473-2507337b6c8b","system_id":"levelo_inurba_marseille","lat":43.284217,"lon":5.349697,"is_reserved":false,"is_disabled":false,"rental_uris":{"android":"levelo://app?vid=f0b5031a-dd4c-4d0c-9473-2507337b6c8b","ios":"levelo://app?vid=f0b5031a-dd4c-4d0c-9473-2507337b6c8b"},"vehicle_type_id":"4","last_reported":1722363058,"current_range_meters":14400,"station_id":"ce4bhbh2rcd13ifvqepg","pricing_plan_id":"cebpf4jnsgd1na2vs0mg"},{"bike_id":"46e40419-d35f-4e23-a30a-fa4dee5fe208","system_id":"levelo_inurba_marseille","lat":43.28408,"lon":5.34975,"is_reserved":false,"is_disabled":false,"rental_uris":{"android":"levelo://app?vid=46e40419-d35f-4e23-a30a-fa4dee5fe208","ios":"levelo://app?vid=46e40419-d35f-4e23-a30a-fa4dee5fe208"},"vehicle_type_id":"4","last_reported":1722363058,"current_range_meters":26800,"station_id":"ce4bhbh2rcd13ifvqepg","pricing_plan_id":"cebpf4jnsgd1na2vs0mg"},{"bike_id":"a493fe93-bede-4805-aeb8-0ffcb75f42bc","system_id":"levelo_inurba_marseille","lat":43.284057,"lon":5.349787,"is_reserved":false,"is_disabled":false,"rental_uris":{"android":"levelo://app?vid=a493fe93-bede-4805-aeb8-0ffcb75f42bc","ios":"levelo://app?vid=a493fe93-bede-4805-aeb8-0ffcb75f42bc"},"vehicle_type_id":"4","last_reported":1722363058,"current_range_meters":13200,"station_id":"ce4bhbh2rcd13ifvqepg","pricing_plan_id":"cebpf4jnsgd1na2vs0mg"},{"bike_id":"e3d31f17-4438-49f8-9dc5-99405ef46022","system_id":"levelo_inurba_marseille","lat":43.284214,"lon":5.349706,"is_reserved":false,"is_disabled":false,"rental_uris":{"android":"levelo://app?vid=e3d31f17-4438-49f8-9dc5-99405ef46022","ios":"levelo://app?vid=e3d31f17-4438-49f8-9dc5-99405ef46022"},"vehicle_type_id":"4","last_reported":1722363058,"current_range_meters":31600,"station_id":"ce4bhbh2rcd13ifvqepg","pricing_plan_id":"cebpf4jnsgd1na2vs0mg"},{"bike_id":"ae0bda2d-7b3c-4b21-b686-08628c703729","system_id":"levelo_inurba_marseille","lat":43.28039,"lon":5.369297,"is_reserved":false,"is_disabled":false,"rental_uris":{"android":"levelo://app?vid=ae0bda2d-7b3c-4b21-b686-08628c703729","ios":"levelo://app?vid=ae0bda2d-7b3c-4b21-b686-08628c703729"},"vehicle_type_id":"4","last_reported":1722363058,"current_range_meters":6000,"station_id":"ce4bha12rcd13ifvqef0","pricing_plan_id":"cebpf4jnsgd1na2vs0mg"},{"bike_id":"52523b10-b07c-4822-a505-6ba07b020262","system_id":"levelo_inurba_marseille","lat":43.292724,"lon":5.401131,"is_reserved":false,"is_disabled":false,"rental_uris":{"android":"levelo://app?vid=52523b10-b07c-4822-a505-6ba07b020262","ios":"levelo://app?vid=52523b10-b07c-4822-a505-6ba07b020262"},"vehicle_type_id":"4","last_reported":1722363058,"current_range_meters":400,"station_id":"ce4bh312rcd13ifvqdk0","pricing_plan_id":"cebpf4jnsgd1na2vs0mg"},{"bike_id":"91ac12bf-fd3d-4f14-8959-b0aed1873c43","system_id":"levelo_inurba_marseille","lat":43.292724,"lon":5.401131,"is_reserved":false,"is_disabled":false,"rental_uris":{"android":"levelo://app?vid=91ac12bf-fd3d-4f14-8959-b0aed1873c43","ios":"levelo://app?vid=91ac12bf-fd3d-4f14-8959-b0aed1873c43"},"vehicle_type_id":"4","last_reported":1722363058,"current_range_meters":28800,"station_id":"ce4bh312rcd13ifvqdk0","pricing_plan_id":"cebpf4jnsgd1na2vs0mg"},{"bike_id":"6ee08397-5bab-41f9-aa6d-559f3f51de31","system_id":"levelo_inurba_marseille","lat":43.282744,"lon":5.350533,"is_reserved":false,"is_disabled":false,"rental_uris":{"android":"levelo://app?vid=6ee08397-5bab-41f9-aa6d-559f3f51de31","ios":"levelo://app?vid=6ee08397-5bab-41f9-aa6d-559f3f51de31"},"vehicle_type_id":"4","last_reported":1722363058,"current_range_meters":0,"station_id":"ce4bhbp2rcd13ifvqerg","pricing_plan_id":"cebpf4jnsgd1na2vs0mg"},{"bike_id":"2fe8fe63-94e3-483b-b7eb-7f0abdc6f92e","system_id":"levelo_inurba_marseille","lat":43.282707,"lon":5.350647,"is_reserved":false,"is_disabled":false,"rental_uris":{"android":"levelo://app?vid=2fe8fe63-94e3-483b-b7eb-7f0abdc6f92e","ios":"levelo://app?vid=2fe8fe63-94e3-483b-b7eb-7f0abdc6f92e"},"vehicle_type_id":"4","last_reported":1722363058,"current_range_meters":0,"station_id":"ce4bhbp2rcd13ifvqerg","pricing_plan_id":"cebpf4jnsgd1na2vs0mg"},{"bike_id":"2ad008f6-9437-4015-88fa-06ebcbf9764b","system_id":"levelo_inurba_marseille","lat":43.28269,"lon":5.3507,"is_reserved":false,"is_disabled":false,"rental_uris":{"android":"levelo://app?vid=2ad008f6-9437-4015-88fa-06ebcbf9764b","ios":"levelo://app?vid=2ad008f6-9437-4015-88fa-06ebcbf9764b"},"vehicle_type_id":"4","last_reported":1722363058,"current_range_meters":24800,"station_id":"ce4bhbp2rcd13ifvqerg","pricing_plan_id":"cebpf4jnsgd1na2vs0mg"},{"bike_id":"0f379b6e-7d26-48a8-ac8a-48f2f269cd74","system_id":"levelo_inurba_marseille","lat":43.28039,"lon":5.369297,"is_reserved":false,"is_disabled":false,"rental_uris":{"android":"levelo://app?vid=0f379b6e-7d26-48a8-ac8a-48f2f269cd74","ios":"levelo://app?vid=0f379b6e-7d26-48a8-ac8a-48f2f269cd74"},