{"last_updated":1731863233,"ttl":60,"version":"2.2","data":{"bikes":[{"bike_id":"73806b4b-3409-4fe7-9bac-cc9da7355bda","system_id":"levelo_inurba_marseille","lat":43.3103,"lon":5.4,"is_reserved":false,"is_disabled":false,"rental_uris":{"android":"levelo://app?vid=73806b4b-3409-4fe7-9bac-cc9da7355bda","ios":"levelo://app?vid=73806b4b-3409-4fe7-9bac-cc9da7355bda"},"vehicle_type_id":"4","last_reported":1731863233,"current_range_meters":28400,"station_id":"","pricing_plan_id":"cebpf4jnsgd1na2vs0mg"},{"bike_id":"1562d490-86dd-42bf-b3d1-c47fd5bdf54f","system_id":"levelo_inurba_marseille","lat":43.31495,"lon":5.37312,"is_reserved":false,"is_disabled":false,"rental_uris":{"android":"levelo://app?vid=1562d490-86dd-42bf-b3d1-c47fd5bdf54f","ios":"levelo://app?vid=1562d490-86dd-42bf-b3d1-c47fd5bdf54f"},"vehicle_type_id":"4","last_reported":1731863233,"current_range_meters":38800,"station_id":"ce4bgt12rcd13ifvqcd0","pricing_plan_id":"cebpf4jnsgd1na2vs0mg"},{"bike_id":"bc04bb9e-af20-4973-934a-dac214f7ce85","system_id":"levelo_inurba_marseille","lat":43.28852,"lon":5.39318,"is_reserved":false,"is_disabled":false,"rental_uris":{"android":"levelo://app?vid=bc04bb9e-af20-4973-934a-dac214f7ce85","ios":"levelo://app?vid=bc04bb9e-af20-4973-934a-dac214f7ce85"},"vehicle_type_id":"4","last_reported":1731863233,"current_range_meters":17600,"station_id":"ce4bh2p2rcd13ifvqdi0","pricing_plan_id":"cebpf4jnsgd1na2vs0mg"},{"bike_id":"44720281-c3bd-49b6-9692-7abb10aa685d","system_id":"levelo_inurba_marseille","lat":43.320587,"lon":5.414393,"is_reserved":false,"is_disabled":false,"rental_uris":{"android":"levelo://app?vid=44720281-c3bd-49b6-9692-7abb10aa685d","ios":"levelo://app?vid=44720281-c3bd-49b6-9692-7abb10aa685d"},"vehicle_type_id":"4","last_reported":1731863233,"current_range_meters":34000,"station_id":"ce4bhq92rcd13ifvqhkg","pricing_plan_id":"cebpf4jnsgd1na2vs0mg"},{"bike_id":"714ac282-c8d1-4d7a-abf5-faa4551e2ed8","system_id":"levelo_inurba_marseille","lat":43.28942,"lon":5.3963,"is_reserved":false,"is_disabled":false,"rental_uris":{"android":"levelo://app?vid=714ac282-c8d1-4d7a-abf5-faa4551e2ed8","ios":"levelo://app?vid=714ac282-c8d1-4d7a-abf5-faa4551e2ed8"},"vehicle_type_id":"4","last_reported":1731863233,"current_range_meters":12000,"station_id":"ce4bh3h2rcd13ifvqdn0","pricing_plan_id":"cebpf4jnsgd1na2vs0mg"},{"bike_id":"86cdb2c1-3cd8-4802-b6d8-facf9ed13346","system_id":"levelo_inurba_marseille","lat":43.244415,"lon":5.396625,"is_reserved":false,"is_disabled":false,"rental_uris":{"android":"levelo://app?vid=86cdb2c1-3cd8-4802-b6d8-facf9ed13346","ios":"levelo://app?vid=86cdb2c1-3cd8-4802-b6d8-facf9ed13346"},"vehicle_type_id":"4","last_reported":1731863233,"current_range_meters":36400,"station_id":"ce4bhhh2rcd13ifvqfl0","pricing_plan_id":"cebpf4jnsgd1na2vs0mg"},{"bike_id":"0672d165-d197-4474-bbec-2df95543fd2f","system_id":"levelo_inurba_marseille","lat":43.299,"lon":5.43662,"is_reserved":false,"is_disabled":false,"rental_uris":{"android":"levelo://app?vid=0672d165-d197-4474-bbec-2df95543fd2f","ios":"levelo://app?vid=0672d165-d197-4474-bbec-2df95543fd2f"},"vehicle_type_id":"4","last_reported":1731863233,"current_range_meters":7200,"station_id":"ce4bhpp2rcd13ifvqhfg","pricing_plan_id":"cebpf4jnsgd1na2vs0mg"},{"bike_id":"71d9a399-edad-46d6-90e6-e7cf923c707d","system_id":"levelo_inurba_marseille","lat":43.229309,"lon":5.353816,"is_reserved":false,"is_disabled":false,"rental_uris":{"android":"levelo://app?vid=71d9a399-edad-46d6-90e6-e7cf923c707d","ios":"levelo://app?vid=71d9a399-edad-46d6-90e6-e7cf923c707d"},"vehicle_type_id":"4","last_reported":1731863233,"current_range_meters":24000,"station_id":"cpo3532slgdg3j2ikp40","pricing_plan_id":"cebpf4jnsgd1na2vs0mg"},{"bike_id":"e1f1fcdd-0c3a-4cee-b115-278955bbef78","system_id":"levelo_inurba_marseille","lat":43.29302,"lon":5.37183,"is_reserved":false,"is_disabled":false,"rental_uris":{"android":"levelo://app?vid=e1f1fcdd-0c3a-4cee-b115-278955bbef78","ios":"levelo://app?vid=e1f1fcdd-0c3a-4cee-b115-278955bbef78"},"vehicle_type_id":"4","last_reported":1731863233,"current_range_meters":16800,"station_id":"","pricing_plan_id":"cebpf4jnsgd1na2vs0mg"},{"bike_id":"67e1fa4f-b68c-47f5-819e-127a687ba2fe","system_id":"levelo_inurba_marseille","lat":43.31326,"lon":5.39699,"is_reserved":false,"is_disabled":false,"rental_uris":{"android":"levelo://app?vid=67e1fa4f-b68c-47f5-819e-127a687ba2fe","ios":"levelo://app?vid=67e1fa4f-b68c-47f5-819e-127a687ba2fe"},"vehicle_type_id":"4","last_reported":1731863233,"current_range_meters":38400,"station_id":"ce4bgvp2rcd13ifvqcu0","pricing_plan_id":"cebpf4jnsgd1na2vs0mg"},{"bike_id":"4c167bc3-2964-4625-adc0-c92e539ad80f","system_id":"levelo_inurba_marseille","lat":43.28277,"lon":5.40799,"is_reserved":false,"is_disabled":false,"rental_uris":{"android":"levelo://app?vid=4c167bc3-2964-4625-adc0-c92e539ad80f","ios":"levelo://app?vid=4c167bc3-2964-4625-adc0-c92e539ad80f"},"vehicle_type_id":"4","last_reported":1731863233,"current_range_meters":34000,"station_id":"","pricing_plan_id":"cebpf4jnsgd1na2vs0mg"},{"bike_id":"40b3fa09-1437-4466-9eb8-514229237428","system_id":"levelo_inurba_marseille","lat":43.31327,"lon":5.39691,"is_reserved":false,"is_disabled":false,"rental_uris":{"android":"levelo://app?vid=40b3fa09-1437-4466-9eb8-514229237428","ios":"levelo://app?vid=40b3fa09-1437-4466-9eb8-514229237428"},"vehicle_type_id":"4","last_reported":1731863233,"current_range_meters":16400,"station_id":"ce4bgvp2rcd13ifvqcu0","pricing_plan_id":"cebpf4jnsgd1na2vs0mg"},{"bike_id":"fa6635ac-845c-4465-845e-59d72dfe430d","system_id":"levelo_inurba_marseille","lat":43.29172,"lon":5.39315,"is_reserved":false,"is_disabled":false,"rental_uris":{"android":"levelo://app?vid=fa6635ac-845c-4465-845e-59d72dfe430d","ios":"levelo://app?vid=fa6635ac-845c-4465-845e-59d72dfe430d"},"vehicle_type_id":"4","last_reported":1731863233,"current_range_meters":38800,"station_id":"ce4bh192rcd13ifvqdd0","pricing_plan_id":"cebpf4jnsgd1na2vs0mg"},{"bike_id":"44a253fe-0c31-4482-bf7d-eed3349505cd","system_id":"levelo_inurba_marseille","lat":43.27495,"lon":5.42459,"is_reserved":false,"is_disabled":false,"rental_uris":{"android":"levelo://app?vid=44a253fe-0c31-4482-bf7d-eed3349505cd","ios":"levelo://app?vid=44a253fe-0c31-4482-bf7d-eed3349505cd"},"vehicle_type_id":"4","last_reported":1731863233,"current_range_meters":16800,"station_id":"ce4bhn92rcd13ifvqgrg","pricing_plan_id":"cebpf4jnsgd1na2vs0mg"},{"bike_id":"6b0ea79e-cb12-4a50-9845-e4686b3cacc8","system_id":"levelo_inurba_marseille","lat":43.295751,"lon":5.399791,"is_reserved":false,"is_disabled":false,"rental_uris":{"android":"levelo://app?vid=6b0ea79e-cb12-4a50-9845-e4686b3cacc8","ios":"levelo://app?vid=6b0ea79e-cb12-4a50-9845-e4686b3cacc8"},"vehicle_type_id":"4","last_reported":1731863233,"current_range_meters":8800,"station_id":"","pricing_plan_id":"cebpf4jnsgd1na2vs0mg"},{"bike_id":"52038750-418f-4305-a236-2d5e7e2daf29","system_id":"levelo_inurba_marseille","lat":43.29418,"lon":5.38634,"is_reserved":false,"is_disabled":false,"rental_uris":{"android":"levelo://app?vid=52038750-418f-4305-a236-2d5e7e2daf29","ios":"levelo://app?vid=52038750-418f-4305-a236-2d5e7e2daf29"},"vehicle_type_id":"4","last_reported":1731863233,"current_range_meters":12400,"station_id":"ce4bh2h2rcd13ifvqdh0","pricing_plan_id":"cebpf4jnsgd1na2vs0mg"},{"bike_id":"e450fefa-84cd-454d-80cb-9aabf8fc7727","system_id":"levelo_inurba_marseille","lat":43.27939,"lon":5.41052,"is_reserved":false,"is_disabled":false,"rental_uris":{"android":"levelo://app?vid=e450fefa-84cd-454d-80cb-9aabf8fc7727","ios":"levelo://app?vid=e450fefa-84cd-454d-80cb-9aabf8fc7727"},"vehicle_type_id":"4","last_reported":1731863233,"current_range_meters":14000,"station_id":"ce4bhnp2rcd13ifvqh0g","pricing_plan_id":"cebpf4jnsgd1na2vs0mg"},{"bike_id":"15cf5655-8a69-4c0e-9a99-d89469b095e7","system_id":"levelo_inurba_marseille","lat":43.30132,"lon":5.39858,"is_reserved":false,"is_disabled":false,"rental_uris":{"android":"levelo://app?vid=15cf5655-8a69-4c0e-9a99-d89469b095e7","ios":"levelo://app?vid=15cf5655-8a69-4c0e-9a99-d89469b095e7"},"vehicle_type_id":"4","last_reported":1731863233,"current_range_meters":25600,"station_id":"ce4bh0h2rcd13ifvqd40","pricing_plan_id":"cebpf4jnsgd1na2vs0mg"},{"bike_id":"0e1d2e7a-8318-45fe-af1b-31857eb1aac8","system_id":"levelo_inurba_marseille","lat":43.2396,"lon":5.36629,"is_reserved":false,"is_disabled":false,"rental_uris":{"android":"levelo://app?vid=0e1d2e7a-8318-45fe-af1b-31857eb1aac8","ios":"levelo://app?vid=0e1d2e7a-8318-45fe-af1b-31857eb1aac8"},"vehicle_type_id":"4","last_reported":1731863233,"current_range_meters":23200,"station_id":"ce4bhi12rcd13ifvqfp0","pricing_plan_id":"cebpf4jnsgd1na2vs0mg"},{"bike_id":"2bd3ae1c-22d2-4b0f-9fd7-42d6b84fc3a3","system_id":"levelo_inurba_marseille","lat":43.336,"lon":5.41042,"is_reserved":false,"is_disabled":false,"rental_uris":{"android":"levelo://app?vid=2bd3ae1c-22d2-4b0f-9fd7-42d6b84fc3a3","ios":"levelo://app?vid=2bd3ae1c-22d2-4b0f-9fd7-42d6b84fc3a3"},"vehicle_type_id":"4","last_reported":1731863233,"current_range_meters":17200,"station_id":"ce4bhqh2rcd13ifvqhmg","pricing_plan_id":"cebpf4jnsgd1na2vs0mg"},{"bike_id":"79b76398-f4aa-422b-b325-2360d07a8784","system_id":"levelo_inurba_marseille","lat":43.33728,"lon":5.39192,"is_reserved":false,"is_disabled":false,"rental_uris":{"android":"levelo://app?vid=79b76398-f4aa-422b-b325-2360d07a8784","ios":"levelo://app?vid=79b76398-f4aa-422b-b325-2360d07a8784"},"vehicle_type_id":"4","last_reported":1731863233,"current_range_meters":39200,"station_id":"ce4bhr92rcd13ifvqhsg","pricing_plan_id":"cebpf4jnsgd1na2vs0mg"},{"bike_id":"77cecedb-8203-415f-9923-94639bfbe325","system_id":"levelo_inurba_marseille","lat":43.29031,"lon":5.39969,"is_reserved":false,"is_disabled":false,"rental_uris":{"android":"levelo://app?vid=77cecedb-8203-415f-9923-94639bfbe325","ios":"levelo://app?vid=77cecedb-8203-415f-9923-94639bfbe325"},"vehicle_type_id":"4","last_reported":1731863233,"current_range_meters":30400,"station_id":"ce4bh392rcd13ifvqdm0","pricing_plan_id":"cebpf4jnsgd1na2vs0mg"},{"bike_id":"e6c7239f-829c-4dc1-a86b-06d948887e55","system_id":"levelo_inurba_marseille","lat":43.29622,"lon":5.37159,"is_reserved":false,"is_disabled":false,"rental_uris":{"android":"levelo://app?vid=e6c7239f-829c-4dc1-a86b-06d948887e55","ios":"levelo://app?vid=e6c7239f-829c-4dc1-a86b-06d948887e55"},"vehicle_type_id":"4","last_reported":1731863233,"current_range_meters":38800,"station_id":"ce4bgnh2rcd13ifvqc0g","pricing_plan_id":"cebpf4jnsgd1na2vs0mg"},{"bike_id":"cd7a46d4-9cd2-4964-a4f4-f19fd89cdeee","system_id":"levelo_inurba_marseille","lat":43.23953,"lon":5.36627,"is_reserved":false,"is_disabled":false,"rental_uris":{"android":"levelo://app?vid=cd7a46d4-9cd2-4964-a4f4-f19fd89cdeee","ios":"levelo://app?vid=cd7a46d4-9cd2-4964-a4f4-f19fd89cdeee"},"vehicle_type_id":"4","last_reported":1731863233,"current_range_meters":6800,"station_id":"ce4bhi12rcd13ifvqfp0","pricing_plan_id":"cebpf4jnsgd1na2vs0mg"},{"bike_id":"08d8e06d-9c67-4cb2-a984-13a35d41bafa","system_id":"levelo_inurba_marseille","lat":43.26684,"lon":5.38273,"is_reserved":false,"is_disabled":false,"rental_uris":{"android":"levelo://app?vid=08d8e06d-9c67-4cb2-a984-13a35d41bafa","ios":"levelo://app?vid=08d8e06d-9c67-4cb2-a984-13a35d41bafa"},"vehicle_type_id":"4","last_reported":1731863233,"current_range_meters":37600,"station_id":"ce4bhg92rcd13ifvqf90","pricing_plan_id":"cebpf4jnsgd1na2vs0mg"},{"bike_id":"5991c491-d60f-43b4-830f-bfa2d451094e","system_id":"levelo_inurba_marseille","lat":43.23965,"lon":5.36642,"is_reserved":false,"is_disabled":false,"rental_uris":{"android":"levelo://app?vid=5991c491-d60f-43b4-830f-bfa2d451094e","ios":"levelo://app?vid=5991c491-d60f-43b4-830f-bfa2d451094e"},"vehicle_type_id":"4","last_reported":1731863233,"current_range_meters":32000,"station_id":"ce4bhi12rcd13ifvqfp0","pricing_plan_id":"cebpf4jnsgd1na2vs0mg"},{"bike_id":"3608ba08-7ded-4bea-9bdf-36b9d8bfa9d4","system_id":"levelo_inurba_marseille","lat":43.2694,"lon":5.40257,"is_reserved":false,"is_disabled":false,"rental_uris":{"android":"levelo://app?vid=3608ba08-7ded-4bea-9bdf-36b9d8bfa9d4","ios":"levelo://app?vid=3608ba08-7ded-4bea-9bdf-36b9d8bfa9d4"},"vehicle_type_id":"4","last_reported":1731863233,"current_range_meters":9200,"station_id":"cjm6bp8fraef2m0cb0m0","pricing_plan_id":"cebpf4jnsgd1na2vs0mg"},{"bike_id":"c0c4abd4-fe51-4b2b-8daf-e4079a13821c","system_id":"levelo_inurba_marseille","lat":43.3171,"lon":5.37741,"is_reserved":false,"is_disabled":false,"rental_uris":{"android":"levelo://app?vid=c0c4abd4-fe51-4b2b-8daf-e4079a13821c","ios":"levelo://app?vid=c0c4abd4-fe51-4b2b-8daf-e4079a13821c"},"vehicle_type_id":"4","last_reported":1731863233,"current_range_meters":8800,"station_id":"ce4bgth2rcd13ifvqch0","pricing_plan_id":"cebpf4jnsgd1na2vs0mg"},{"bike_id":"176b56b2-3f7f-4f22-97c6-741add3cb4ae","system_id":"levelo_inurba_marseille","lat":43.2465,"lon":5.38903,"is_reserved":false,"is_disabled":false,"rental_uris":{"android":"levelo://app?vid=176b56b2-3f7f-4f22-97c6-741add3cb4ae","ios":"levelo://app?vid=176b56b2-3f7f-4f22-97c6-741add3cb4ae"},"vehicle_type_id":"4","last_reported":1731863233,"current_range_meters":38800,"station_id":"ce4bhg12rcd13ifvqf60","pricing_plan_id":"cebpf4jnsgd1na2vs0mg"},{"bike_id":"dd55c685-4e35-4901-8d29-950f589066fc","system_id":"levelo_inurba_marseille","lat":43.29711,"lon":5.37699,"is_reserved":false,"is_disabled":false,"rental_uris":{"android":"levelo://app?vid=dd55c685-4e35-4901-8d29-950f589066fc","ios":"levelo://app?vid=dd55c685-4e35-4901-8d29-950f589066fc"},"vehicle_type_id":"4","last_reported":1731863233,"current_range_meters":4800,"station_id":"ce4bgkh2rcd13ifvqbl0","pricing_plan_id":"cebpf4jnsgd1na2vs0mg"},{"bike_id":"013cacda-dd4d-498e-96fa-c8987c5f38e2","system_id":"levelo_inurba_marseille","lat":43.29052,"lon":5.37175,"is_reserved":false,"is_disabled":false,"rental_uris":{"android":"levelo://app?vid=013cacda-dd4d-498e-96fa-c8987c5f38e2","ios":"levelo://app?vid=013cacda-dd4d-498e-96fa-c8987c5f38e2"},"vehicle_type_id":"4","last_reported":1731863233,"current_range_meters":11600,"station_id":"ce4bh5p2rcd13ifvqe4g","pricing_plan_id":"cebpf4jnsgd1na2vs0mg"},{"bike_id":"4218e25f-b589-4585-9802-2be2a1418d47","system_id":"levelo_inurba_marseille","lat":43.34143,"lon":5.40909,"is_reserved":false,"is_disabled":false,"rental_uris":{"android":"levelo://app?vid=4218e25f-b589-4585-9802-2be2a1418d47","ios":"levelo://app?vid=4218e25f-b589-4585-9802-2be2a1418d47"},"vehicle_type_id":"4","last_reported":1731863233,"current_range_meters":38800,"station_id":"ce4bhqh2rcd13ifvqhlg","pricing_plan_id":"cebpf4jnsgd1na2vs0mg"},{"bike_id":"e7ec7041-a0df-49bb-8de5-799d09f62281","system_id":"levelo_inurba_marseille","lat":43.278562,"lon":5.354683,"is_reserved":false,"is_disabled":false,"rental_uris":{"android":"levelo://app?vid=e7ec7041-a0df-49bb-8de5-799d09f62281","ios":"levelo://app?vid=e7ec7041-a0df-49bb-8de5-799d09f62281"},"vehicle_type_id":"4","last_reported":1731863233,"current_range_meters":24800,"station_id":"","pricing_plan_id":"cebpf4jnsgd1na2vs0mg"},{"bike_id":"e29b415b-4a08-4c5b-9713-528d7b480fe6","system_id":"levelo_inurba_marseille","lat":43.25,"lon":5.38928,"is_reserved":false,"is_disabled":false,"rental_uris":{"android":"levelo://app?vid=e29b415b-4a08-4c5b-9713-528d7b480fe6","ios":"levelo://app?vid=e29b415b-4a08-4c5b-9713-528d7b480fe6"},"vehicle_type_id":"4","last_reported":1731863233,"current_range_meters":36800,"station_id":"ce4bhgp2rcd13ifvqfd0","pricing_plan_id":"cebpf4jnsgd1na2vs0mg"},{"bike_id":"3c19aea8-ef6d-4fd6-a6d7-5df7e838a0d9","system_id":"levelo_inurba_marseille","lat":43.308062,"lon":5.38161,"is_reserved":false,"is_disabled":false,"rental_uris":{"android":"levelo://app?vid=3c19aea8-ef6d-4fd6-a6d7-5df7e838a0d9","ios":"levelo://app?vid=3c19aea8-ef6d-4fd6-a6d7-5df7e838a0d9"},"vehicle_type_id":"4","last_reported":1731863233,"current_range_meters":2000,"station_id":"ce4bgt12rcd13ifvqce0","pricing_plan_id":"cebpf4jnsgd1na2vs0mg"},{"bike_id":"91670ae9-5671-4211-87a2-69bac32a1372","system_id":"levelo_inurba_marseille","lat":43.295165,"lon":5.394064,"is_reserved":false,"is_disabled":false,"rental_uris":{"android":"levelo://app?vid=91670ae9-5671-4211-87a2-69bac32a1372","ios":"levelo://app?vid=91670ae9-5671-4211-87a2-69bac32a1372"},"vehicle_type_id":"4","last_reported":1731863233,"current_range_meters":3200,"station_id":"ce4bh292rcd13ifvqdf0","pricing_plan_id":"cebpf4jnsgd1na2vs0mg"},{"bike_id":"f6073236-7748-440c-8a7e-d1e18e3a60f0","system_id":"levelo_inurba_marseille","lat":43.29574,"lon":5.39991,"is_reserved":false,"is_disabled":false,"rental_uris":{"android":"levelo://app?vid=f6073236-7748-440c-8a7e-d1e18e3a60f0","ios":"levelo://app?vid=f6073236-7748-440c-8a7e-d1e18e3a60f0"},"vehicle_type_id":"4","last_reported":1731863233,"current_range_meters":38800,"station_id":"ce4bh312rcd13ifvqdj0","pricing_plan_id":"cebpf4jnsgd1na2vs0mg"},{"bike_id":"01272bd5-a2c0-44b6-b76e-87cd305d9451","system_id":"levelo_inurba_marseille","lat":43.33023,"lon":5.39047,"is_reserved":false,"is_disabled":false,"rental_uris":{"android":"levelo://app?vid=01272bd5-a2c0-44b6-b76e-87cd305d9451","ios":"levelo://app?vid=01272bd5-a2c0-44b6-b76e-87cd305d9451"},"vehicle_type_id":"4","last_reported":1731863233,"current_range_meters":14400,"station_id":"ce4bhr92rcd13ifvqhrg","pricing_plan_id":"cebpf4jnsgd1na2vs0mg"},{"bike_id":"e1f6415b-e101-43e7-9b1b-480b213c11b4","system_id":"levelo_inurba_marseille","lat":43.2954,"lon":5.39402,"is_reserved":false,"is_disabled":false,"rental_uris":{"android":"levelo://app?vid=e1f6415b-e101-43e7-9b1b-480b213c11b4","ios":"levelo://app?vid=e1f6415b-e101-43e7-9b1b-480b213c11b4"},"vehicle_type_id":"4","last_reported":1731863233,"current_range_meters":6000,"station_id":"ce4bh292rcd13ifvqdf0","pricing_plan_id":"cebpf4jnsgd1na2vs0mg"},{"bike_id":"788c7850-e839-469b-a86c-2684a93eb7e4","system_id":"levelo_inurba_marseille","lat":43.26064,"lon":5.39398,"is_reserved":false,"is_disabled":false,"rental_uris":{"android":"levelo://app?vid=788c7850-e839-469b-a86c-2684a93eb7e4","ios":"levelo://app?vid=788c7850-e839-469b-a86c-2684a93eb7e4"},"vehicle_type_id":"4","last_reported":1731863233,"current_range_meters":28800,"station_id":"ce4bhh92rcd13ifvqfj0","pricing_plan_id":"cebpf4jnsgd1na2vs0mg"},{"bike_id":"3776a2d9-aeba-4fac-9f8b-8ccf01253141","system_id":"levelo_inurba_marseille","lat":43.2869,"lon":5.37936,"is_reserved":false,"is_disabled":false,"rental_uris":{"android":"levelo://app?vid=3776a2d9-aeba-4fac-9f8b-8ccf01253141","ios":"levelo://app?vid=3776a2d9-aeba-4fac-9f8b-8ccf01253141"},"vehicle_type_id":"4","last_reported":1731863233,"current_range_meters":38800,"station_id":"ce4bh9p2rcd13ifvqec0","pricing_plan_id":"cebpf4jnsgd1na2vs0mg"},{"bike_id":"8300deb3-1fed-4359-9d2f-62192a22298f","system_id":"levelo_inurba_marseille","lat":43.298727,"lon":5.389091,"is_reserved":false,"is_disabled":false,"rental_uris":{"android":"levelo://app?vid=8300deb3-1fed-4359-9d2f-62192a22298f","ios":"levelo://app?vid=8300deb3-1fed-4359-9d2f-62192a22298f"},"vehicle_type_id":"4","last_reported":1731863233,"current_range_meters":33200,"station_id":"ce4bht12rcd13ifvqi60","pricing_plan_id":"cebpf4jnsgd1na2vs0mg"},{"bike_id":"d753c74d-4fd7-4b0f-8e5d-7b63399c76ab","system_id":"levelo_inurba_marseille","lat":43.31755,"lon":5.39011,"is_reserved":false,"is_disabled":false,"rental_uris":{"android":"levelo://app?vid=d753c74d-4fd7-4b0f-8e5d-7b63399c76ab","ios":"levelo://app?vid=d753c74d-4fd7-4b0f-8e5d-7b63399c76ab"},"vehicle_type_id":"4","last_reported":1731863233,"current_range_meters":38800,"station_id":"ce4bhqp2rcd13ifvqhng","pricing_plan_id":"cebpf4jnsgd1na2vs0mg"},{"bike_id":"a241b926-3325-4880-b8b4-4dfc5d9ed1d3","system_id":"levelo_inurba_marseille","lat":43.27068,"lon":5.42285,"is_reserved":false,"is_disabled":false,"rental_uris":{"android":"levelo://app?vid=a241b926-3325-4880-b8b4-4dfc5d9ed1d3","ios":"levelo://app?vid=a241b926-3325-4880-b8b4-4dfc5d9ed1d3"},"vehicle_type_id":"4","last_reported":1731863233,"current_range_meters":34800,"station_id":"ce4bhk92rcd13ifvqgb0","pricing_plan_id":"cebpf4jnsgd1na2vs0mg"},{"bike_id":"5938f129-0be9-4612-acac-86791f6673ad","system_id":"levelo_inurba_marseille","lat":43.28195,"lon":5.44385,"is_reserved":false,"is_disabled":false,"rental_uris":{"android":"levelo://app?vid=5938f129-0be9-4612-acac-86791f6673ad","ios":"levelo://app?vid=5938f129-0be9-4612-acac-86791f6673ad"},"vehicle_type_id":"4","last_reported":1731863233,"current_range_meters":12000,"station_id":"","pricing_plan_id":"cebpf4jnsgd1na2vs0mg"},{"bike_id":"68820d12-d953-4c8b-81d9-7fcbba3d190d","system_id":"levelo_inurba_marseille","lat":43.30547,"lon":5.36548,"is_reserved":false,"is_disabled":false,"rental_uris":{"android":"levelo://app?vid=68820d12-d953-4c8b-81d9-7fcbba3d190d","ios":"levelo://app?vid=68820d12-d953-4c8b-81d9-7fcbba3d190d"},"vehicle_type_id":"4","last_reported":1731863233,"current_range_meters":24000,"station_id":"ce4bgs12rcd13ifvqcag","pricing_plan_id":"cebpf4jnsgd1na2vs0mg"},{"bike_id":"e9c95dd5-afb3-4df6-8ea4-96bbc6bd78de","system_id":"levelo_inurba_marseille","lat":43.33024,"lon":5.39041,"is_reserved":false,"is_disabled":false,"rental_uris":{"android":"levelo://app?vid=e9c95dd5-afb3-4df6-8ea4-96bbc6bd78de","ios":"levelo://app?vid=e9c95dd5-afb3-4df6-8ea4-96bbc6bd78de"},"vehicle_type_id":"4","last_reported":1731863233,"current_range_meters":37600,"station_id":"ce4bhr92rcd13ifvqhrg","pricing_plan_id":"cebpf4jnsgd1na2vs0mg"},{"bike_id":"492164d6-6223-4746-bdd7-8c067a33c5cb","system_id":"levelo_inurba_marseille","lat":43.28697,"lon":5.39987,"is_reserved":false,"is_disabled":false,"rental_uris":{"android":"levelo://app?vid=492164d6-6223-4746-bdd7-8c067a33c5cb","ios":"levelo://app?vid=492164d6-6223-4746-bdd7-8c067a33c5cb"},"vehicle_type_id":"4","last_reported":1731863233,"current_range_meters":38800,"station_id":"ce4bho92rcd13ifvqh3g","pricing_plan_id":"cebpf4jnsgd1na2vs0mg"},{"bike_id":"12867844-fa2a-41b2-8d74-706d4ef15909","system_id":"levelo_inurba_marseille","lat":43.33775,"lon":5.3743,"is_reserved":false,"is_disabled":false,"rental_uris":{"android":"levelo://app?vid=12867844-fa2a-41b2-8d74-706d4ef15909","ios":"levelo://app?vid=12867844-fa2a-41b2-8d74-706d4ef15909"},"vehicle_type_id":"4","last_reported":1731863233,"current_range_meters":32400,"station_id":"","pricing_plan_id":"cebpf4jnsgd1na2vs0mg"},{"bike_id":"e5e0bf9f-93e0-4373-9c1b-b0768f81fd67","system_id":"levelo_inurba_marseille","lat":43.30121,"lon":5.3984,"is_reserved":false,"is_disabled":false,"rental_uris":{"android":"levelo://app?vid=e5e0bf9f-93e0-4373-9c1b-b0768f81fd67","ios":"levelo://app?vid=e5e0bf9f-93e0-4373-9c1b-b0768f81fd67"},"vehicle_type_id":"4","last_reported":1731863233,"current_range_meters":6800,"station_id":"ce4bh0h2rcd13ifvqd40","pricing_plan_id":"cebpf4jnsgd1na2vs0mg"},{"bike_id":"3e5c2c0c-c0cd-4917-b3b6-e845afe68481","system_id":"levelo_inurba_marseille","lat":43.29611,"lon":5.3773,"is_reserved":false,"is_disabled":false,"rental_uris":{"android":"levelo://app?vid=3e5c2c0c-c0cd-4917-b3b6-e845afe68481","ios":"levelo://app?vid=3e5c2c0c-c0cd-4917-b3b6-e845afe68481"},"vehicle_type_id":"4","last_reported":1731863233,"current_range_meters":6400,"station_id":"ce4bgi92rcd13ifvqb90","pricing_plan_id":"cebpf4jnsgd1na2vs0mg"},{"bike_id":"10808265-c82e-4663-ad34-00454e769817","system_id":"levelo_inurba_marseille","lat":43.23185,"lon":5.39989,"is_reserved":false,"is_disabled":false,"rental_uris":{"android":"levelo://app?vid=10808265-c82e-4663-ad34-00454e769817","ios":"levelo://app?vid=10808265-c82e-4663-ad34-00454e769817"},"vehicle_type_id":"4","last_reported":1731863233,"current_range_meters":30000,"station_id":"ce4bhn12rcd13ifvqgqg","pricing_plan_id":"cebpf4jnsgd1na2vs0mg"},{"bike_id":"89c904fb-0a3a-4936-8248-779e27c519ff","system_id":"levelo_inurba_marseille","lat":43.323663,"lon":5.388796,"is_reserved":false,"is_disabled":false,"rental_uris":{"android":"levelo://app?vid=89c904fb-0a3a-4936-8248-779e27c519ff","ios":"levelo://app?vid=89c904fb-0a3a-4936-8248-779e27c519ff"},"vehicle_type_id":"4","last_reported":1731863233,"current_range_meters":8400,"station_id":"ce4bhqp2rcd13ifvqhog","pricing_plan_id":"cebpf4jnsgd1na2vs0mg"},{"bike_id":"8f019a78-c493-4f9d-a72d-a75fc0e36210","system_id":"levelo_inurba_marseille","lat":43.2407,"lon":5.37767,"is_reserved":false,"is_disabled":false,"rental_uris":{"android":"levelo://app?vid=8f019a78-c493-4f9d-a72d-a75fc0e36210","ios":"levelo://app?vid=8f019a78-c493-4f9d-a72d-a75fc0e36210"},"vehicle_type_id":"4","last_reported":1731863233,"current_range_meters":30000,"station_id":"ce4bhnp2rcd13ifvqgvg","pricing_plan_id":"cebpf4jnsgd1na2vs0mg"},{"bike_id":"9c6f4244-a69b-49da-ae94-316810a9841a","system_id":"levelo_inurba_marseille","lat":43.2962,"lon":5.37159,"is_reserved":false,"is_disabled":false,"rental_uris":{"android":"levelo://app?vid=9c6f4244-a69b-49da-ae94-316810a9841a","ios":"levelo://app?vid=9c6f4244-a69b-49da-ae94-316810a9841a"},"vehicle_type_id":"4","last_reported":1731863233,"current_range_meters":38800,"station_id":"ce4bgnh2rcd13ifvqc0g","pricing_plan_id":"cebpf4jnsgd1na2vs0mg"},{"bike_id":"e41c3d35-299e-4edf-9f5a-5abefe3f7692","system_id":"levelo_inurba_marseille","lat":43.30884,"lon":5.37196,"is_reserved":false,"is_disabled":false,"rental_uris":{"android":"levelo://app?vid=e41c3d35-299e-4edf-9f5a-5abefe3f7692","ios":"levelo://app?vid=e41c3d35-299e-4edf-9f5a-5abefe3f7692"},"vehicle_type_id":"4","last_reported":1731863233,"current_range_meters":18000,"station_id":"ce4bguh2rcd13ifvqckg","pricing_plan_id":"cebpf4jnsgd1na2vs0mg"},{"bike_id":"1b6d5f86-0c35-4c74-ac79-b91438dbaaff","system_id":"levelo_inurba_marseille","lat":43.32049,"lon":5.41553,"is_reserved":false,"is_disabled":false,"rental_uris":{"android":"levelo://app?vid=1b6d5f86-0c35-4c74-ac79-b91438dbaaff","ios":"levelo://app?vid=1b6d5f86-0c35-4c74-ac79-b91438dbaaff"},"vehicle_type_id":"4","last_reported":1731863233,"current_range_meters":22400,"station_id":"ce4bhq92rcd13ifvqhkg","pricing_plan_id":"cebpf4jnsgd1na2vs0mg"},{"bike_id":"c1ee7606-908f-4f92-b8e8-2cbba6adfd35","system_id":"levelo_inurba_marseille","lat":43.27174,"lon":5.40997,"is_reserved":false,"is_disabled":false,"rental_uris":{"android":"levelo://app?vid=c1ee7606-908f-4f92-b8e8-2cbba6adfd35","ios":"levelo://app?vid=c1ee7606-908f-4f92-b8e8-2cbba6adfd35"},"vehicle_type_id":"4","last_reported":1731863233,"current_range_meters":27600,"station_id":"ce4bhl12rcd13ifvqgf0","pricing_plan_id":"cebpf4jnsgd1na2vs0mg"},{"bike_id":"68800380-8986-4e82-84bb-e4795ea3f3a8","system_id":"levelo_inurba_marseille","lat":43.31712,"lon":5.43707,"is_reserved":false,"is_disabled":false,"rental_uris":{"android":"levelo://app?vid=68800380-8986-4e82-84bb-e4795ea3f3a8","ios":"levelo://app?vid=68800380-8986-4e82-84bb-e4795ea3f3a8"},"vehicle_type_id":"4","last_reported":1731863233,"current_range_meters":38000,"station_id":"ce4bhp92rcd13ifvqhcg","pricing_plan_id":"cebpf4jnsgd1na2vs0mg"},{"bike_id":"d854484b-7395-4ff5-b313-d2f66272c3b0","system_id":"levelo_inurba_marseille","lat":43.29444,"lon":5.38629,"is_reserved":false,"is_disabled":false,"rental_uris":{"android":"levelo://app?vid=d854484b-7395-4ff5-b313-d2f66272c3b0","ios":"levelo://app?vid=d854484b-7395-4ff5-b313-d2f66272c3b0"},"vehicle_type_id":"4","last_reported":1731863233,"current_range_meters":33200,"station_id":"ce4bh2h2rcd13ifvqdh0","pricing_plan_id":"cebpf4jnsgd1na2vs0mg"},{"bike_id":"e335d36c-20b6-411b-b8b7-1d03278383c5","system_id":"levelo_inurba_marseille","lat":43.28439,"lon":5.39206,"is_reserved":false,"is_disabled":false,"rental_uris":{"android":"levelo://app?vid=e335d36c-20b6-411b-b8b7-1d03278383c5","ios":"levelo://app?vid=e335d36c-20b6-411b-b8b7-1d03278383c5"},"vehicle_type_id":"4","last_reported":1731863233,"current_range_meters":37600,"station_id":"ce4bhoh2rcd13ifvqh5g","pricing_plan_id":"cebpf4jnsgd1na2vs0mg"},{"bike_id":"189cc7bd-7d21-4a99-bf91-52999cd541e5","system_id":"levelo_inurba_marseille","lat":43.2926,"lon":5.38451,"is_reserved":false,"is_disabled":false,"rental_uris":{"android":"levelo://app?vid=189cc7bd-7d21-4a99-bf91-52999cd541e5","ios":"levelo://app?vid=189cc7bd-7d21-4a99-bf91-52999cd541e5"},"vehicle_type_id":"4","last_reported":1731863233,"current_range_meters":36800,"station_id":"ce4bh692rcd13ifvqea0","pricing_plan_id":"cebpf4jnsgd1na2vs0mg"},{"bike_id":"2e368939-18cc-4c00-933b-d4f584405a03","system_id":"levelo_inurba_marseille","lat":43.28956,"lon":5.37816,"is_reserved":false,"is_disabled":false,"rental_uris":{"android":"levelo://app?vid=2e368939-18cc-4c00-933b-d4f584405a03","ios":"levelo://app?vid=2e368939-18cc-4c00-933b-d4f584405a03"},"vehicle_type_id":"4","last_reported":1731863233,"current_range_meters":38800,"station_id":"ce4bh9p2rcd13ifvqed0","pricing_plan_id":"cebpf4jnsgd1na2vs0mg"},{"bike_id":"6bf9c66d-a478-43f2-a8ec-03fd163b4909","system_id":"levelo_inurba_marseille","lat":43.25663,"lon":5.40833,"is_reserved":false,"is_disabled":false,"rental_uris":{"android":"levelo://app?vid=6bf9c66d-a478-43f2-a8ec-03fd163b4909","ios":"levelo://app?vid=6bf9c66d-a478-43f2-a8ec-03fd163b4909"},"vehicle_type_id":"4","last_reported":1731863233,"current_range_meters":38000,"station_id":"ce4bhh92rcd13ifvqfh0","pricing_plan_id":"cebpf4jnsgd1na2vs0mg"},{"bike_id":"fdc2ef1d-2336-4af2-8c45-31090a79f8d8","system_id":"levelo_inurba_marseille","lat":43.2957,"lon":5.39972,"is_reserved":false,"is_disabled":false,"rental_uris":{"android":"levelo://app?vid=fdc2ef1d-2336-4af2-8c45-31090a79f8d8","ios":"levelo://app?vid=fdc2ef1d-2336-4af2-8c45-31090a79f8d8"},"vehicle_type_id":"4","last_reported":1731863233,"current_range_meters":22400,"station_id":"ce4bh312rcd13ifvqdj0","pricing_plan_id":"cebpf4jnsgd1na2vs0mg"},{"bike_id":"88fbcddc-fc1e-4412-b0ae-ec12ac073173","system_id":"levelo_inurba_marseille","lat":43.280945,"lon":5.396112,"is_reserved":false,"is_disabled":false,"rental_uris":{"android":"levelo://app?vid=88fbcddc-fc1e-4412-b0ae-ec12ac073173","ios":"levelo://app?vid=88fbcddc-fc1e-4412-b0ae-ec12ac073173"},"vehicle_type_id":"4","last_reported":1731863233,"current_range_meters":22800,"station_id":"ce4bho12rcd13ifvqh2g","pricing_plan_id":"cebpf4jnsgd1na2vs0mg"},{"bike_id":"fc533337-8ddf-4371-9fc6-d6945f259c49","system_id":"levelo_inurba_marseille","lat":43.29256,"lon":5.38438,"is_reserved":false,"is_disabled":false,"rental_uris":{"android":"levelo://app?vid=fc533337-8ddf-4371-9fc6-d6945f259c49","ios":"levelo://app?vid=fc533337-8ddf-4371-9fc6-d6945f259c49"},"vehicle_type_id":"4","last_reported":1731863233,"current_range_meters":6800,"station_id":"ce4bh692rcd13ifvqea0","pricing_plan_id":"cebpf4jnsgd1na2vs0mg"},{"bike_id":"d1a573d1-ba06-4fc2-940c-d7e03d32f8e7","system_id":"levelo_inurba_marseille","lat":43.29023,"lon":5.39985,"is_reserved":false,"is_disabled":false,"rental_uris":{"android":"levelo://app?vid=d1a573d1-ba06-4fc2-940c-d7e03d32f8e7","ios":"levelo://app?vid=d1a573d1-ba06-4fc2-940c-d7e03d32f8e7"},"vehicle_type_id":"4","last_reported":1731863233,"current_range_meters":38800,"station_id":"ce4bh392rcd13ifvqdm0","pricing_plan_id":"cebpf4jnsgd1na2vs0mg"},{"bike_id":"c2273092-4ad4-4483-8525-e6150ece5338","system_id":"levelo_inurba_marseille","lat":43.29897,"lon":5.43667,"is_reserved":false,"is_disabled":false,"rental_uris":{"android":"levelo://app?vid=c2273092-4ad4-4483-8525-e6150ece5338","ios":"levelo://app?vid=c2273092-4ad4-4483-8525-e6150ece5338"},"vehicle_type_id":"4","last_reported":1731863233,"current_range_meters":38800,"station_id":"ce4bhpp2rcd13ifvqhfg","pricing_plan_id":"cebpf4jnsgd1na2vs0mg"},{"bike_id":"89f7a861-2513-4008-9979-e4e6dedda816","system_id":"levelo_inurba_marseille","lat":43.24999,"lon":5.38928,"is_reserved":false,"is_disabled":false,"rental_uris":{"android":"levelo://app?vid=89f7a861-2513-4008-9979-e4e6dedda816","ios":"levelo://app?vid=89f7a861-2513-4008-9979-e4e6dedda816"},"vehicle_type_id":"4","last_reported":1731863233,"current_range_meters":31200,"station_id":"ce4bhgp2rcd13ifvqfd0","pricing_plan_id":"cebpf4jnsgd1na2vs0mg"},{"bike_id":"61102216-1914-4b3c-a218-cdf2139a7b35","system_id":"levelo_inurba_marseille","lat":43.30274,"lon":5.37704,"is_reserved":false,"is_disabled":false,"rental_uris":{"android":"levelo://app?vid=61102216-1914-4b3c-a218-cdf2139a7b35","ios":"levelo://app?vid=61102216-1914-4b3c-a218-cdf2139a7b35"},"vehicle_type_id":"4","last_reported":1731863233,"current_range_meters":32000,"station_id":"ce4bguh2rcd13ifvqcj0","pricing_plan_id":"cebpf4jnsgd1na2vs0mg"},{"bike_id":"4dbc0218-1a69-402f-8e04-eae51a579d86","system_id":"levelo_inurba_marseille","lat":43.26939,"lon":5.40258,"is_reserved":false,"is_disabled":false,"rental_uris":{"android":"levelo://app?vid=4dbc0218-1a69-402f-8e04-eae51a579d86","ios":"levelo://app?vid=4dbc0218-1a69-402f-8e04-eae51a579d86"},"vehicle_type_id":"4","last_reported":1731863233,"current_range_meters":20800,"station_id":"cjm6bp8fraef2m0cb0m0","pricing_plan_id":"cebpf4jnsgd1na2vs0mg"},{"bike_id":"4f01fa73-c9c0-4fc0-986b-b2a94d270e4a","system_id":"levelo_inurba_marseille","lat":43.302519,"lon":5.400883,"is_reserved":false,"is_disabled":false,"rental_uris":{"android":"levelo://app?vid=4f01fa73-c9c0-4fc0-986b-b2a94d270e4a","ios":"levelo://app?vid=4f01fa73-c9c0-4fc0-986b-b2a94d270e4a"},"vehicle_type_id":"4","last_reported":1731863233,"current_range_meters":9200,"station_id":"ce4bgvh2rcd13ifvqcs0","pricing_plan_id":"cebpf4jnsgd1na2vs0mg"},{"bike_id":"6d757fef-4f26-43f9-ac2c-ffab39bf7dae","system_id":"levelo_inurba_marseille","lat":43.32249,"lon":5.36901,"is_reserved":false,"is_disabled":false,"rental_uris":{"android":"levelo://app?vid=6d757fef-4f26-43f9-ac2c-ffab39bf7dae","ios":"levelo://app?vid=6d757fef-4f26-43f9-ac2c-ffab39bf7dae"},"vehicle_type_id":"4","last_reported":1731863233,"current_range_meters":14400,"station_id":"","pricing_plan_id":"cebpf4jnsgd1na2vs0mg"},{"bike_id":"d7717e34-cc3b-4f42-983b-439f772f9660","system_id":"levelo_inurba_marseille","lat":43.3017,"lon":5.36612,"is_reserved":false,"is_disabled":false,"rental_uris":{"android":"levelo://app?vid=d7717e34-cc3b-4f42-983b-439f772f9660","ios":"levelo://app?vid=d7717e34-cc3b-4f42-983b-439f772f9660"},"vehicle_type_id":"4","last_reported":1731863233,"current_range_meters":36800,"station_id":"ce4bgrh2rcd13ifvqc8g","pricing_plan_id":"cebpf4jnsgd1na2vs0mg"},{"bike_id":"ccde50fe-39a0-4353-9b44-8d094f53ec41","system_id":"levelo_inurba_marseille","lat":43.30554,"lon":5.36525,"is_reserved":false,"is_disabled":false,"rental_uris":{"android":"levelo://app?vid=ccde50fe-39a0-4353-9b44-8d094f53ec41","ios":"levelo://app?vid=ccde50fe-39a0-4353-9b44-8d094f53ec41"},"vehicle_type_id":"4","last_reported":1731863233,"current_range_meters":38800,"station_id":"ce4bgs12rcd13ifvqcag","pricing_plan_id":"cebpf4jnsgd1na2vs0mg"},{"bike_id":"e7f09b34-d85e-4c10-9f69-c6158f172e7e","system_id":"levelo_inurba_marseille","lat":43.27074,"lon":5.42281,"is_reserved":false,"is_disabled":false,"rental_uris":{"android":"levelo://app?vid=e7f09b34-d85e-4c10-9f69-c6158f172e7e","ios":"levelo://app?vid=e7f09b34-d85e-4c10-9f69-c6158f172e7e"},"vehicle_type_id":"4","last_reported":1731863233,"current_range_meters":28000,"station_id":"ce4bhk92rcd13ifvqgb0","pricing_plan_id":"cebpf4jnsgd1na2vs0mg"},{"bike_id":"02c2b654-c294-4645-b32b-c8ef06e889bd","system_id":"levelo_inurba_marseille","lat":43.29261,"lon":5.38431,"is_reserved":false,"is_disabled":false,"rental_uris":{"android":"levelo://app?vid=02c2b654-c294-4645-b32b-c8ef06e889bd","ios":"levelo://app?vid=02c2b654-c294-4645-b32b-c8ef06e889bd"},"vehicle_type_id":"4","last_reported":1731863233,"current_range_meters":38800,"station_id":"ce4bh692rcd13ifvqea0","pricing_plan_id":"cebpf4jnsgd1na2vs0mg"},{"bike_id":"5f1adb0d-fbb1-4014-8d52-af9cb2b5f12e","system_id":"levelo_inurba_marseille","lat":43.28709,"lon":5.37394,"is_reserved":false,"is_disabled":false,"rental_uris":{"android":"levelo://app?vid=5f1adb0d-fbb1-4014-8d52-af9cb2b5f12e","ios":"levelo://app?vid=5f1adb0d-fbb1-4014-8d52-af9cb2b5f12e"},"vehicle_type_id":"4","last_reported":1731863233,"current_range_meters":38800,"station_id":"ce4bh3p2rcd13ifvqdq0","pricing_plan_id":"cebpf4jnsgd1na2vs0mg"},{"bike_id":"fb5c9f74-a570-4e59-ac1a-0b9aa2e3571c","system_id":"levelo_inurba_marseille","lat":43.29194,"lon":5.39328,"is_reserved":false,"is_disabled":false,"rental_uris":{"android":"levelo://app?vid=fb5c9f74-a570-4e59-ac1a-0b9aa2e3571c","ios":"levelo://app?vid=fb5c9f74-a570-4e59-ac1a-0b9aa2e3571c"},"vehicle_type_id":"4","last_reported":1731863233,"current_range_meters":14400,"station_id":"ce4bh192rcd13ifvqdd0","pricing_plan_id":"cebpf4jnsgd1na2vs0mg"},{"bike_id":"081ceb9f-cf52-47a8-96d1-de05af2271de","system_id":"levelo_inurba_marseille","lat":43.29713,"lon":5.37694,"is_reserved":false,"is_disabled":false,"rental_uris":{"android":"levelo://app?vid=081ceb9f-cf52-47a8-96d1-de05af2271de","ios":"levelo://app?vid=081ceb9f-cf52-47a8-96d1-de05af2271de"},"vehicle_type_id":"4","last_reported":1731863233,"current_range_meters":19600,"station_id":"ce4bgkh2rcd13ifvqbl0","pricing_plan_id":"cebpf4jnsgd1na2vs0mg"},{"bike_id":"167bdff2-7e5b-481b-8fa5-ebc419d22e4d","system_id":"levelo_inurba_marseille","lat":43.303,"lon":5.36886,"is_reserved":false,"is_disabled":false,"rental_uris":{"android":"levelo://app?vid=167bdff2-7e5b-481b-8fa5-ebc419d22e4d","ios":"levelo://app?vid=167bdff2-7e5b-481b-8fa5-ebc419d22e4d"},"vehicle_type_id":"4","last_reported":1731863233,"current_range_meters":8800,"station_id":"ce4bgqh2rcd13ifvqc5g","pricing_plan_id":"cebpf4jnsgd1na2vs0mg"},{"bike_id":"551b02bb-6f5c-4ad7-af64-49a5557723c4","system_id":"levelo_inurba_marseille","lat":43.23965,"lon":5.36632,"is_reserved":false,"is_disabled":false,"rental_uris":{"android":"levelo://app?vid=551b02bb-6f5c-4ad7-af64-49a5557723c4","ios":"levelo://app?vid=551b02bb-6f5c-4ad7-af64-49a5557723c4"},"vehicle_type_id":"4","last_reported":1731863233,"current_range_meters":38800,"station_id":"ce4bhi12rcd13ifvqfp0","pricing_plan_id":"cebpf4jnsgd1na2vs0mg"},{"bike_id":"5255316c-4675-4031-9a98-bcf52aa3f92f","system_id":"levelo_inurba_marseille","lat":43.27996,"lon":5.40007,"is_reserved":false,"is_disabled":false,"rental_uris":{"android":"levelo://app?vid=5255316c-4675-4031-9a98-bcf52aa3f92f","ios":"levelo://app?vid=5255316c-4675-4031-9a98-bcf52aa3f92f"},"vehicle_type_id":"4","last_reported":1731863233,"current_range_meters":3200,"station_id":"ce4bho92rcd13ifvqh4g","pricing_plan_id":"cebpf4jnsgd1na2vs0mg"},{"bike_id":"8e8e86c7-67d6-4ec2-bdce-a3dbd32b81a4","system_id":"levelo_inurba_marseille","lat":43.28843,"lon":5.3931,"is_reserved":false,"is_disabled":false,"rental_uris":{"android":"levelo://app?vid=8e8e86c7-67d6-4ec2-bdce-a3dbd32b81a4","ios":"levelo://app?vid=8e8e86c7-67d6-4ec2-bdce-a3dbd32b81a4"},"vehicle_type_id":"4","last_reported":1731863233,"current_range_meters":17200,"station_id":"ce4bh2p2rcd13ifvqdi0","pricing_plan_id":"cebpf4jnsgd1na2vs0mg"},{"bike_id":"6a564278-fee4-4e46-bcdf-ecda0a44b671","system_id":"levelo_inurba_marseille","lat":43.3144,"lon":5.36855,"is_reserved":false,"is_disabled":false,"rental_uris":{"android":"levelo://app?vid=6a564278-fee4-4e46-bcdf-ecda0a44b671","ios":"levelo://app?vid=6a564278-fee4-4e46-bcdf-ecda0a44b671"},"vehicle_type_id":"4","last_reported":1731863233,"current_range_meters":38800,"station_id":"ce4bgt12rcd13ifvqcd0","pricing_plan_id":"cebpf4jnsgd1na2vs0mg"},{"bike_id":"6f4185ba-0d14-49f4-aa40-36e0cbac687e","system_id":"levelo_inurba_marseille","lat":43.29897,"lon":5.43672,"is_reserved":false,"is_disabled":false,"rental_uris":{"android":"levelo://app?vid=6f4185ba-0d14-49f4-aa40-36e0cbac687e","ios":"levelo://app?vid=6f4185ba-0d14-49f4-aa40-36e0cbac687e"},"vehicle_type_id":"4","last_reported":1731863233,"current_range_meters":39200,"station_id":"ce4bhpp2rcd13ifvqhfg","pricing_plan_id":"cebpf4jnsgd1na2vs0mg"},{"bike_id":"67618147-5ef7-489c-9972-6fc8d139853e","system_id":"levelo_inurba_marseille","lat":43.29193,"lon":5.39319,"is_reserved":false,"is_disabled":false,"rental_uris":{"android":"levelo://app?vid=67618147-5ef7-489c-9972-6fc8d139853e","ios":"levelo://app?vid=67618147-5ef7-489c-9972-6fc8d139853e"},"vehicle_type_id":"4","last_reported":1731863233,"current_range_meters":22800,"station_id":"ce4bh192rcd13ifvqdd0","pricing_plan_id":"cebpf4jnsgd1na2vs0mg"},{"bike_id":"7e23e424-ca41-4b7d-ba0a-2d4146dbb252","system_id":"levelo_inurba_marseille","lat":43.29196,"lon":5.35806,"is_reserved":false,"is_disabled":false,"rental_uris":{"android":"levelo://app?vid=7e23e424-ca41-4b7d-ba0a-2d4146dbb252","ios":"levelo://app?vid=7e23e424-ca41-4b7d-ba0a-2d4146dbb252"},"vehicle_type_id":"4","last_reported":1731863233,"current_range_meters":38800,"station_id":"ce4bhb12rcd13ifvqel0","pricing_plan_id":"cebpf4jnsgd1na2vs0mg"},{"bike_id":"ad982bfa-78ad-414d-a23f-0f0b04b06fc8","system_id":"levelo_inurba_marseille","lat":43.31764,"lon":5.39015,"is_reserved":false,"is_disabled":false,"rental_uris":{"android":"levelo://app?vid=ad982bfa-78ad-414d-a23f-0f0b04b06fc8","ios":"levelo://app?vid=ad982bfa-78ad-414d-a23f-0f0b04b06fc8"},"vehicle_type_id":"4","last_reported":1731863233,"current_range_meters":24800,"station_id":"ce4bhqp2rcd13ifvqhng","pricing_plan_id":"cebpf4jnsgd1na2vs0mg"},{"bike_id":"9270a1f7-7025-4b9b-8f92-0efeae537e81","system_id":"levelo_inurba_marseille","lat":43.27056,"lon":5.40263,"is_reserved":false,"is_disabled":false,"rental_uris":{"android":"levelo://app?vid=9270a1f7-7025-4b9b-8f92-0efeae537e81","ios":"levelo://app?vid=9270a1f7-7025-4b9b-8f92-0efeae537e81"},"vehicle_type_id":"4","last_reported":1731863233,"current_range_meters":27200,"station_id":"ce4bhk92rcd13ifvqgc0","pricing_plan_id":"cebpf4jnsgd1na2vs0mg"},{"bike_id":"f976a80f-7c03-4b36-a3c3-6f1fb71e32bd","system_id":"levelo_inurba_marseille","lat":43.29531,"lon":5.38549,"is_reserved":false,"is_disabled":false,"rental_uris":{"android":"levelo://app?vid=f976a80f-7c03-4b36-a3c3-6f1fb71e32bd","ios":"levelo://app?vid=f976a80f-7c03-4b36-a3c3-6f1fb71e32bd"},"vehicle_type_id":"4","last_reported":1731863233,"current_range_meters":3200,"station_id":"ce4bgih2rcd13ifvqba0","pricing_plan_id":"cebpf4jnsgd1na2vs0mg"},{"bike_id":"aedf0c89-1e5d-42d2-9af3-32999bc8bda5","system_id":"levelo_inurba_marseille","lat":43.29874,"lon":5.39735,"is_reserved":false,"is_disabled":false,"rental_uris":{"android":"levelo://app?vid=aedf0c89-1e5d-42d2-9af3-32999bc8bda5","ios":"levelo://app?vid=aedf0c89-1e5d-42d2-9af3-32999bc8bda5"},"vehicle_type_id":"4","last_reported":1731863233,"current_range_meters":33200,"station_id":"ce4bh0h2rcd13ifvqd50","pricing_plan_id":"cebpf4jnsgd1na2vs0mg"},{"bike_id":"3590e062-7e7d-45ac-8a96-b8be11ad3205","system_id":"levelo_inurba_marseille","lat":43.24385,"lon":5.37065,"is_reserved":false,"is_disabled":false,"rental_uris":{"android":"levelo://app?vid=3590e062-7e7d-45ac-8a96-b8be11ad3205","ios":"levelo://app?vid=3590e062-7e7d-45ac-8a96-b8be11ad3205"},"vehicle_type_id":"4","last_reported":1731863233,"current_range_meters":6400,"station_id":"ce4bhhh2rcd13ifvqfk0","pricing_plan_id":"cebpf4jnsgd1na2vs0mg"},{"bike_id":"29a219a4-3517-41b1-883f-448707e4c9d8","system_id":"levelo_inurba_marseille","lat":43.27073,"lon":5.42276,"is_reserved":false,"is_disabled":false,"rental_uris":{"android":"levelo://app?vid=29a219a4-3517-41b1-883f-448707e4c9d8","ios":"levelo://app?vid=29a219a4-3517-41b1-883f-448707e4c9d8"},"vehicle_type_id":"4","last_reported":1731863233,"current_range_meters":6000,"station_id":"ce4bhk92rcd13ifvqgb0","pricing_plan_id":"cebpf4jnsgd1na2vs0mg"},{"bike_id":"edcc37b2-b4cc-4e59-9eee-05166e459fd6","system_id":"levelo_inurba_marseille","lat":43.30425,"lon":5.389,"is_reserved":false,"is_disabled":false,"rental_uris":{"android":"levelo://app?vid=edcc37b2-b4cc-4e59-9eee-05166e459fd6","ios":"levelo://app?vid=edcc37b2-b4cc-4e59-9eee-05166e459fd6"},"vehicle_type_id":"4","last_reported":1731863233,"current_range_meters":7200,"station_id":"ce4bgk12rcd13ifvqbi0","pricing_plan_id":"cebpf4jnsgd1na2vs0mg"},{"bike_id":"eb9a84f5-6092-4dc4-a3c0-a07efb437c77","system_id":"levelo_inurba_marseille","lat":43.3377,"lon":5.37428,"is_reserved":false,"is_disabled":false,"rental_uris":{"android":"levelo://app?vid=eb9a84f5-6092-4dc4-a3c0-a07efb437c77","ios":"levelo://app?vid=eb9a84f5-6092-4dc4-a3c0-a07efb437c77"},"vehicle_type_id":"4","last_reported":1731863233,"current_range_meters":5600,"station_id":"","pricing_plan_id":"cebpf4jnsgd1na2vs0mg"},{"bike_id":"22ea48db-755d-43c3-a7d2-0beff01815d8","system_id":"levelo_inurba_marseille","lat":43.33784,"lon":5.37435,"is_reserved":false,"is_disabled":false,"rental_uris":{"android":"levelo://app?vid=22ea48db-755d-43c3-a7d2-0beff01815d8","ios":"levelo://app?vid=22ea48db-755d-43c3-a7d2-0beff01815d8"},"vehicle_type_id":"4","last_reported":1731863233,"current_range_meters":8000,"station_id":"","pricing_plan_id":"cebpf4jnsgd1na2vs0mg"},{"bike_id":"e572c8c8-2c29-468a-9de9-47bf2d2e9b00","system_id":"levelo_inurba_marseille","lat":43.27489,"lon":5.42458,"is_reserved":false,"is_disabled":false,"rental_uris":{"android":"levelo://app?vid=e572c8c8-2c29-468a-9de9-47bf2d2e9b00","ios":"levelo://app?vid=e572c8c8-2c29-468a-9de9-47bf2d2e9b00"},"vehicle_type_id":"4","last_reported":1731863233,"current_range_meters":27600,"station_id":"ce4bhn92rcd13ifvqgrg","pricing_plan_id":"cebpf4jnsgd1na2vs0mg"},{"bike_id":"9cb0b469-c3fc-4d83-949d-73db257c9c5b","system_id":"levelo_inurba_marseille","lat":43.28719,"lon":5.37932,"is_reserved":false,"is_disabled":false,"rental_uris":{"android":"levelo://app?vid=9cb0b469-c3fc-4d83-949d-73db257c9c5b","ios":"levelo://app?vid=9cb0b469-c3fc-4d83-949d-73db257c9c5b"},"vehicle_type_id":"4","last_reported":1731863233,"current_range_meters":19200,"station_id":"ce4bh9p2rcd13ifvqec0","pricing_plan_id":"cebpf4jnsgd1na2vs0mg"},{"bike_id":"a1862017-f597-4949-a306-4d7c53cc8b86","system_id":"levelo_inurba_marseille","lat":43.2417,"lon":5.364,"is_reserved":false,"is_disabled":false,"rental_uris":{"android":"levelo://app?vid=a1862017-f597-4949-a306-4d7c53cc8b86","ios":"levelo://app?vid=a1862017-f597-4949-a306-4d7c53cc8b86"},"vehicle_type_id":"4","last_reported":1731863233,"current_range_meters":7200,"station_id":"cpo36qri1sfpv3e86is0","pricing_plan_id":"cebpf4jnsgd1na2vs0mg"},{"bike_id":"ca655f3b-8380-4045-b3f8-8acaa0e83ede","system_id":"levelo_inurba_marseille","lat":43.33739,"lon":5.37423,"is_reserved":false,"is_disabled":false,"rental_uris":{"android":"levelo://app?vid=ca655f3b-8380-4045-b3f8-8acaa0e83ede","ios":"levelo://app?vid=ca655f3b-8380-4045-b3f8-8acaa0e83ede"},"vehicle_type_id":"4","last_reported":1731863233,"current_range_meters":32400,"station_id":"","pricing_plan_id":"cebpf4jnsgd1na2vs0mg"},{"bike_id":"92334839-cd0e-4515-86b5-ec1f7ad039ed","system_id":"levelo_inurba_marseille","lat":43.29779,"lon":5.37102,"is_reserved":false,"is_disabled":false,"rental_uris":{"android":"levelo://app?vid=92334839-cd0e-4515-86b5-ec1f7ad039ed","ios":"levelo://app?vid=92334839-cd0e-4515-86b5-ec1f7ad039ed"},"vehicle_type_id":"4","last_reported":1731863233,"current_range_meters":38800,"station_id":"ce4bgop2rcd13ifvqc1g","pricing_plan_id":"cebpf4jnsgd1na2vs0mg"},{"bike_id":"a6b8c285-acc9-4039-9531-1aae39136a33","system_id":"levelo_inurba_marseille","lat":43.312042,"lon":5.367348,"is_reserved":false,"is_disabled":false,"rental_uris":{"android":"levelo://app?vid=a6b8c285-acc9-4039-9531-1aae39136a33","ios":"levelo://app?vid=a6b8c285-acc9-4039-9531-1aae39136a33"},"vehicle_type_id":"4","last_reported":1731863233,"current_range_meters":9600,"station_id":"","pricing_plan_id":"cebpf4jnsgd1na2vs0mg"},{"bike_id":"04e579be-d930-46e5-bb29-40fdc45896e1","system_id":"levelo_inurba_marseille","lat":43.32614,"lon":5.36208,"is_reserved":false,"is_disabled":false,"rental_uris":{"android":"levelo://app?vid=04e579be-d930-46e5-bb29-40fdc45896e1","ios":"levelo://app?vid=04e579be-d930-46e5-bb29-40fdc45896e1"},"vehicle_type_id":"4","last_reported":1731863233,"current_range_meters":5600,"station_id":"","pricing_plan_id":"cebpf4jnsgd1na2vs0mg"},{"bike_id":"37b940f2-53f1-40b3-bcdc-a092eab2c248","system_id":"levelo_inurba_marseille","lat":43.23953,"lon":5.36631,"is_reserved":false,"is_disabled":false,"rental_uris":{"android":"levelo://app?vid=37b940f2-53f1-40b3-bcdc-a092eab2c248","ios":"levelo://app?vid=37b940f2-53f1-40b3-bcdc-a092eab2c248"},"vehicle_type_id":"4","last_reported":1731863233,"current_range_meters":19200,"station_id":"ce4bhi12rcd13ifvqfp0","pricing_plan_id":"cebpf4jnsgd1na2vs0mg"},{"bike_id":"de4c87ca-7c6c-4db5-9f8f-004dec701b70","system_id":"levelo_inurba_marseille","lat":43.29415,"lon":5.38626,"is_reserved":false,"is_disabled":false,"rental_uris":{"android":"levelo://app?vid=de4c87ca-7c6c-4db5-9f8f-004dec701b70","ios":"levelo://app?vid=de4c87ca-7c6c-4db5-9f8f-004dec701b70"},"vehicle_type_id":"4","last_reported":1731863233,"current_range_meters":32800,"station_id":"ce4bh2h2rcd13ifvqdh0","pricing_plan_id":"cebpf4jnsgd1na2vs0mg"},{"bike_id":"24a3584e-3a5d-4746-b81e-de9e5853c9e4","system_id":"levelo_inurba_marseille","lat":43.23181,"lon":5.3998,"is_reserved":false,"is_disabled":false,"rental_uris":{"android":"levelo://app?vid=24a3584e-3a5d-4746-b81e-de9e5853c9e4","ios":"levelo://app?vid=24a3584e-3a5d-4746-b81e-de9e5853c9e4"},"vehicle_type_id":"4","last_reported":1731863233,"current_range_meters":3200,"station_id":"ce4bhn12rcd13ifvqgqg","pricing_plan_id":"cebpf4jnsgd1na2vs0mg"},{"bike_id":"3731846e-2218-45f1-ac96-76a41185ff9d","system_id":"levelo_inurba_marseille","lat":43.24167,"lon":5.36396,"is_reserved":false,"is_disabled":false,"rental_uris":{"android":"levelo://app?vid=3731846e-2218-45f1-ac96-76a41185ff9d","ios":"levelo://app?vid=3731846e-2218-45f1-ac96-76a41185ff9d"},"vehicle_type_id":"4","last_reported":1731863233,"current_range_meters":36000,"station_id":"cpo36qri1sfpv3e86is0","pricing_plan_id":"cebpf4jnsgd1na2vs0mg"},{"bike_id":"f091d246-afea-4d4b-a521-2dd926ad8909","system_id":"levelo_inurba_marseille","lat":43.296204,"lon":5.377149,"is_reserved":false,"is_disabled":false,"rental_uris":{"android":"levelo://app?vid=f091d246-afea-4d4b-a521-2dd926ad8909","ios":"levelo://app?vid=f091d246-afea-4d4b-a521-2dd926ad8909"},"vehicle_type_id":"4","last_reported":1731863233,"current_range_meters":2000,"station_id":"ce4bgi92rcd13ifvqb90","pricing_plan_id":"cebpf4jnsgd1na2vs0mg"},{"bike_id":"6dc2bbb2-446f-4764-92b0-8bcf1fff043f","system_id":"levelo_inurba_marseille","lat":43.28856,"lon":5.39318,"is_reserved":false,"is_disabled":false,"rental_uris":{"android":"levelo://app?vid=6dc2bbb2-446f-4764-92b0-8bcf1fff043f","ios":"levelo://app?vid=6dc2bbb2-446f-4764-92b0-8bcf1fff043f"},"vehicle_type_id":"4","last_reported":1731863233,"current_range_meters":25200,"station_id":"ce4bh2p2rcd13ifvqdi0","pricing_plan_id":"cebpf4jnsgd1na2vs0mg"},{"bike_id":"92ac4858-87d6-4ceb-8f6e-004635a816a8","system_id":"levelo_inurba_marseille","lat":43.277871,"lon":5.407385,"is_reserved":false,"is_disabled":false,"rental_uris":{"android":"levelo://app?vid=92ac4858-87d6-4ceb-8f6e-004635a816a8","ios":"levelo://app?vid=92ac4858-87d6-4ceb-8f6e-004635a816a8"},"vehicle_type_id":"4","last_reported":1731863233,"current_range_meters":26000,"station_id":"ce4bhnh2rcd13ifvqgtg","pricing_plan_id":"cebpf4jnsgd1na2vs0mg"},{"bike_id":"16075618-5513-460d-ad7f-e1ae46081e48","system_id":"levelo_inurba_marseille","lat":43.28738,"lon":5.43315,"is_reserved":false,"is_disabled":false,"rental_uris":{"android":"levelo://app?vid=16075618-5513-460d-ad7f-e1ae46081e48","ios":"levelo://app?vid=16075618-5513-460d-ad7f-e1ae46081e48"},"vehicle_type_id":"4","last_reported":1731863233,"current_range_meters":1600,"station_id":"ce4bhqp2rcd13ifvqhng","pricing_plan_id":"cebpf4jnsgd1na2vs0mg"},{"bike_id":"1396ab55-0e44-4ee6-a17e-86cf36813da1","system_id":"levelo_inurba_marseille","lat":43.24178,"lon":5.39735,"is_reserved":false,"is_disabled":false,"rental_uris":{"android":"levelo://app?vid=1396ab55-0e44-4ee6-a17e-86cf36813da1","ios":"levelo://app?vid=1396ab55-0e44-4ee6-a17e-86cf36813da1"},"vehicle_type_id":"4","last_reported":1731863233,"current_range_meters":27200,"station_id":"ce4bhn12rcd13ifvqgpg","pricing_plan_id":"cebpf4jnsgd1na2vs0mg"},{"bike_id":"7efe671e-e031-412a-ba30-0af405fb15e2","system_id":"levelo_inurba_marseille","lat":43.31115,"lon":5.3779,"is_reserved":false,"is_disabled":false,"rental_uris":{"android":"levelo://app?vid=7efe671e-e031-412a-ba30-0af405fb15e2","ios":"levelo://app?vid=7efe671e-e031-412a-ba30-0af405fb15e2"},"vehicle_type_id":"4","last_reported":1731863233,"current_range_meters":38800,"station_id":"ce4bgt92rcd13ifvqcg0","pricing_plan_id":"cebpf4jnsgd1na2vs0mg"},{"bike_id":"d3fa101b-9f9f-425c-acbf-1bfe6e3186bf","system_id":"levelo_inurba_marseille","lat":43.27998,"lon":5.40011,"is_reserved":false,"is_disabled":false,"rental_uris":{"android":"levelo://app?vid=d3fa101b-9f9f-425c-acbf-1bfe6e3186bf","ios":"levelo://app?vid=d3fa101b-9f9f-425c-acbf-1bfe6e3186bf"},"vehicle_type_id":"4","last_reported":1731863233,"current_range_meters":5600,"station_id":"ce4bho92rcd13ifvqh4g","pricing_plan_id":"cebpf4jnsgd1na2vs0mg"},{"bike_id":"7a11832a-fcbd-4fba-9168-00715c9248e1","system_id":"levelo_inurba_marseille","lat":43.29902,"lon":5.38147,"is_reserved":false,"is_disabled":false,"rental_uris":{"android":"levelo://app?vid=7a11832a-fcbd-4fba-9168-00715c9248e1","ios":"levelo://app?vid=7a11832a-fcbd-4fba-9168-00715c9248e1"},"vehicle_type_id":"4","last_reported":1731863233,"current_range_meters":4800,"station_id":"ce4bgj12rcd13ifvqbc0","pricing_plan_id":"cebpf4jnsgd1na2vs0mg"},{"bike_id":"7465bc4b-7341-47ef-959d-45c0a1d37e4c","system_id":"levelo_inurba_marseille","lat":43.24083,"lon":5.37753,"is_reserved":false,"is_disabled":false,"rental_uris":{"android":"levelo://app?vid=7465bc4b-7341-47ef-959d-45c0a1d37e4c","ios":"levelo://app?vid=7465bc4b-7341-47ef-959d-45c0a1d37e4c"},"vehicle_type_id":"4","last_reported":1731863233,"current_range_meters":28000,"station_id":"ce4bhnp2rcd13ifvqgvg","pricing_plan_id":"cebpf4jnsgd1na2vs0mg"},{"bike_id":"a84f5389-258d-4508-9c0f-32ee5d326b43","system_id":"levelo_inurba_marseille","lat":43.33767,"lon":5.37475,"is_reserved":false,"is_disabled":false,"rental_uris":{"android":"levelo://app?vid=a84f5389-258d-4508-9c0f-32ee5d326b43","ios":"levelo://app?vid=a84f5389-258d-4508-9c0f-32ee5d326b43"},"vehicle_type_id":"4","last_reported":1731863233,"current_range_meters":28800,"station_id":"","pricing_plan_id":"cebpf4jnsgd1na2vs0mg"},{"bike_id":"f719f1a5-5b03-487e-b760-dd0cf7706874","system_id":"levelo_inurba_marseille","lat":43.29515,"lon":5.39047,"is_reserved":false,"is_disabled":false,"rental_uris":{"android":"levelo://app?vid=f719f1a5-5b03-487e-b760-dd0cf7706874","ios":"levelo://app?vid=f719f1a5-5b03-487e-b760-dd0cf7706874"},"vehicle_type_id":"4","last_reported":1731863233,"current_range_meters":16000,"station_id":"ce4bh3p2rcd13ifvqdp0","pricing_plan_id":"cebpf4jnsgd1na2vs0mg"},{"bike_id":"719862df-eb31-4da6-8f57-20e84f6c29b5","system_id":"levelo_inurba_marseille","lat":43.32367,"lon":5.38888,"is_reserved":false,"is_disabled":false,"rental_uris":{"android":"levelo://app?vid=719862df-eb31-4da6-8f57-20e84f6c29b5","ios":"levelo://app?vid=719862df-eb31-4da6-8f57-20e84f6c29b5"},"vehicle_type_id":"4","last_reported":1731863233,"current_range_meters":9200,"station_id":"ce4bhqp2rcd13ifvqhog","pricing_plan_id":"cebpf4jnsgd1na2vs0mg"},{"bike_id":"74c07879-62f9-4c82-8d08-d1b4ad27325b","system_id":"levelo_inurba_marseille","lat":43.27054,"lon":5.40263,"is_reserved":false,"is_disabled":false,"rental_uris":{"android":"levelo://app?vid=74c07879-62f9-4c82-8d08-d1b4ad27325b","ios":"levelo://app?vid=74c07879-62f9-4c82-8d08-d1b4ad27325b"},"vehicle_type_id":"4","last_reported":1731863233,"current_range_meters":11600,"station_id":"ce4bhk92rcd13ifvqgc0","pricing_plan_id":"cebpf4jnsgd1na2vs0mg"},{"bike_id":"d6ea0d18-09c5-4a16-8d92-16497ecc1e85","system_id":"levelo_inurba_marseille","lat":43.27493,"lon":5.42454,"is_reserved":false,"is_disabled":false,"rental_uris":{"android":"levelo://app?vid=d6ea0d18-09c5-4a16-8d92-16497ecc1e85","ios":"levelo://app?vid=d6ea0d18-09c5-4a16-8d92-16497ecc1e85"},"vehicle_type_id":"4","last_reported":1731863233,"current_range_meters":8400,"station_id":"ce4bhn92rcd13ifvqgrg","pricing_plan_id":"cebpf4jnsgd1na2vs0mg"},{"bike_id":"9a1d4e3e-2bc3-4eee-b25c-4ab9505ff894","system_id":"levelo_inurba_marseille","lat":43.34141,"lon":5.40907,"is_reserved":false,"is_disabled":false,"rental_uris":{"android":"levelo://app?vid=9a1d4e3e-2bc3-4eee-b25c-4ab9505ff894","ios":"levelo://app?vid=9a1d4e3e-2bc3-4eee-b25c-4ab9505ff894"},"vehicle_type_id":"4","last_reported":1731863233,"current_range_meters":3200,"station_id":"ce4bhqh2rcd13ifvqhlg","pricing_plan_id":"cebpf4jnsgd1na2vs0mg"},{"bike_id":"7c0a99b0-2291-4a5e-b431-d5d68272736a","system_id":"levelo_inurba_marseille","lat":43.2407,"lon":5.3777,"is_reserved":false,"is_disabled":false,"rental_uris":{"android":"levelo://app?vid=7c0a99b0-2291-4a5e-b431-d5d68272736a","ios":"levelo://app?vid=7c0a99b0-2291-4a5e-b431-d5d68272736a"},"vehicle_type_id":"4","last_reported":1731863233,"current_range_meters":3600,"station_id":"ce4bhnp2rcd13ifvqgvg","pricing_plan_id":"cebpf4jnsgd1na2vs0mg"},{"bike_id":"2d0c69ee-5bbd-4523-995a-0e315f06df51","system_id":"levelo_inurba_marseille","lat":43.3088,"lon":5.39627,"is_reserved":false,"is_disabled":false,"rental_uris":{"android":"levelo://app?vid=2d0c69ee-5bbd-4523-995a-0e315f06df51","ios":"levelo://app?vid=2d0c69ee-5bbd-4523-995a-0e315f06df51"},"vehicle_type_id":"4","last_reported":1731863233,"current_range_meters":37600,"station_id":"ce4bh012rcd13ifvqcv0","pricing_plan_id":"cebpf4jnsgd1na2vs0mg"},{"bike_id":"dbb459d0-cec5-45cc-a404-4ade9d6dc37a","system_id":"levelo_inurba_marseille","lat":43.25077,"lon":5.39508,"is_reserved":false,"is_disabled":false,"rental_uris":{"android":"levelo://app?vid=dbb459d0-cec5-45cc-a404-4ade9d6dc37a","ios":"levelo://app?vid=dbb459d0-cec5-45cc-a404-4ade9d6dc37a"},"vehicle_type_id":"4","last_reported":1731863233,"current_range_meters":24800,"station_id":"ce4bhm12rcd13ifvqgkg","pricing_plan_id":"cebpf4jnsgd1na2vs0mg"},{"bike_id":"c5462199-7932-4eef-a617-53d36b699976","system_id":"levelo_inurba_marseille","lat":43.29525,"lon":5.39402,"is_reserved":false,"is_disabled":false,"rental_uris":{"android":"levelo://app?vid=c5462199-7932-4eef-a617-53d36b699976","ios":"levelo://app?vid=c5462199-7932-4eef-a617-53d36b699976"},"vehicle_type_id":"4","last_reported":1731863233,"current_range_meters":24800,"station_id":"ce4bh292rcd13ifvqdf0","pricing_plan_id":"cebpf4jnsgd1na2vs0mg"},{"bike_id":"55522100-4530-48ff-a5a7-158977e55d56","system_id":"levelo_inurba_marseille","lat":43.26564,"lon":5.39015,"is_reserved":false,"is_disabled":false,"rental_uris":{"android":"levelo://app?vid=55522100-4530-48ff-a5a7-158977e55d56","ios":"levelo://app?vid=55522100-4530-48ff-a5a7-158977e55d56"},"vehicle_type_id":"4","last_reported":1731863233,"current_range_meters":14400,"station_id":"ce4bhe12rcd13ifvqf30","pricing_plan_id":"cebpf4jnsgd1na2vs0mg"},{"bike_id":"6fe8590f-e391-4325-bdde-177e28f31a3e","system_id":"levelo_inurba_marseille","lat":43.33723,"lon":5.39189,"is_reserved":false,"is_disabled":false,"rental_uris":{"android":"levelo://app?vid=6fe8590f-e391-4325-bdde-177e28f31a3e","ios":"levelo://app?vid=6fe8590f-e391-4325-bdde-177e28f31a3e"},"vehicle_type_id":"4","last_reported":1731863233,"current_range_meters":38800,"station_id":"ce4bhr92rcd13ifvqhsg","pricing_plan_id":"cebpf4jnsgd1na2vs0mg"},{"bike_id":"6685a7e0-c811-42b1-b24a-f5642ac48162","system_id":"levelo_inurba_marseille","lat":43.32242,"lon":5.38251,"is_reserved":false,"is_disabled":false,"rental_uris":{"android":"levelo://app?vid=6685a7e0-c811-42b1-b24a-f5642ac48162","ios":"levelo://app?vid=6685a7e0-c811-42b1-b24a-f5642ac48162"},"vehicle_type_id":"4","last_reported":1731863233,"current_range_meters":29600,"station_id":"","pricing_plan_id":"cebpf4jnsgd1na2vs0mg"},{"bike_id":"f05710e7-93f9-4716-9a29-bdd3cba31e96","system_id":"levelo_inurba_marseille","lat":43.26802,"lon":5.40273,"is_reserved":false,"is_disabled":false,"rental_uris":{"android":"levelo://app?vid=f05710e7-93f9-4716-9a29-bdd3cba31e96","ios":"levelo://app?vid=f05710e7-93f9-4716-9a29-bdd3cba31e96"},"vehicle_type_id":"4","last_reported":1731863233,"current_range_meters":16400,"station_id":"ce501612rcd8frsf0b60","pricing_plan_id":"cebpf4jnsgd1na2vs0mg"},{"bike_id":"022f478e-da93-4eda-9d1b-2d0e36905c07","system_id":"levelo_inurba_marseille","lat":43.33761,"lon":5.37427,"is_reserved":false,"is_disabled":false,"rental_uris":{"android":"levelo://app?vid=022f478e-da93-4eda-9d1b-2d0e36905c07","ios":"levelo://app?vid=022f478e-da93-4eda-9d1b-2d0e36905c07"},"vehicle_type_id":"4","last_reported":1731863233,"current_range_meters":10000,"station_id":"","pricing_plan_id":"cebpf4jnsgd1na2vs0mg"},{"bike_id":"3c7108fb-85fe-43b6-95ce-e6a5e6d34b1a","system_id":"levelo_inurba_marseille","lat":43.3374,"lon":5.39182,"is_reserved":false,"is_disabled":false,"rental_uris":{"android":"levelo://app?vid=3c7108fb-85fe-43b6-95ce-e6a5e6d34b1a","ios":"levelo://app?vid=3c7108fb-85fe-43b6-95ce-e6a5e6d34b1a"},"vehicle_type_id":"4","last_reported":1731863233,"current_range_meters":27600,"station_id":"ce4bhr92rcd13ifvqhsg","pricing_plan_id":"cebpf4jnsgd1na2vs0mg"},{"bike_id":"f9c0693a-5392-458c-a522-c9c7c8099709","system_id":"levelo_inurba_marseille","lat":43.262,"lon":5.37916,"is_reserved":false,"is_disabled":false,"rental_uris":{"android":"levelo://app?vid=f9c0693a-5392-458c-a522-c9c7c8099709","ios":"levelo://app?vid=f9c0693a-5392-458c-a522-c9c7c8099709"},"vehicle_type_id":"4","last_reported":1731863233,"current_range_meters":38800,"station_id":"ce4bhjp2rcd13ifvqg90","pricing_plan_id":"cebpf4jnsgd1na2vs0mg"},{"bike_id":"6a08bed7-45cc-46d2-8e00-fe77891e64fa","system_id":"levelo_inurba_marseille","lat":43.30272,"lon":5.37717,"is_reserved":false,"is_disabled":false,"rental_uris":{"android":"levelo://app?vid=6a08bed7-45cc-46d2-8e00-fe77891e64fa","ios":"levelo://app?vid=6a08bed7-45cc-46d2-8e00-fe77891e64fa"},"vehicle_type_id":"4","last_reported":1731863233,"current_range_meters":1600,"station_id":"ce4bguh2rcd13ifvqcj0","pricing_plan_id":"cebpf4jnsgd1na2vs0mg"},{"bike_id":"27634ed1-a61a-4a65-95bf-6e3cf6e87707","system_id":"levelo_inurba_marseille","lat":43.28938,"lon":5.39636,"is_reserved":false,"is_disabled":false,"rental_uris":{"android":"levelo://app?vid=27634ed1-a61a-4a65-95bf-6e3cf6e87707","ios":"levelo://app?vid=27634ed1-a61a-4a65-95bf-6e3cf6e87707"},"vehicle_type_id":"4","last_reported":1731863233,"current_range_meters":10800,"station_id":"ce4bh3h2rcd13ifvqdn0","pricing_plan_id":"cebpf4jnsgd1na2vs0mg"},{"bike_id":"a3660f97-1f39-4007-ab40-a595781e2f52","system_id":"levelo_inurba_marseille","lat":43.27807,"lon":5.40713,"is_reserved":false,"is_disabled":false,"rental_uris":{"android":"levelo://app?vid=a3660f97-1f39-4007-ab40-a595781e2f52","ios":"levelo://app?vid=a3660f97-1f39-4007-ab40-a595781e2f52"},"vehicle_type_id":"4","last_reported":1731863233,"current_range_meters":38000,"station_id":"ce4bhnh2rcd13ifvqgtg","pricing_plan_id":"cebpf4jnsgd1na2vs0mg"},{"bike_id":"3821c55d-6be2-4ed5-b9ea-b9ff488fccd5","system_id":"levelo_inurba_marseille","lat":43.319971,"lon":5.381608,"is_reserved":false,"is_disabled":false,"rental_uris":{"android":"levelo://app?vid=3821c55d-6be2-4ed5-b9ea-b9ff488fccd5","ios":"levelo://app?vid=3821c55d-6be2-4ed5-b9ea-b9ff488fccd5"},"vehicle_type_id":"4","last_reported":1731863233,"current_range_meters":2000,"station_id":"ce4bhr12rcd13ifvqhpg","pricing_plan_id":"cebpf4jnsgd1na2vs0mg"},{"bike_id":"99daf5ca-badb-48ac-b73d-0b799c490739","system_id":"levelo_inurba_marseille","lat":43.25109,"lon":5.40324,"is_reserved":false,"is_disabled":false,"rental_uris":{"android":"levelo://app?vid=99daf5ca-badb-48ac-b73d-0b799c490739","ios":"levelo://app?vid=99daf5ca-badb-48ac-b73d-0b799c490739"},"vehicle_type_id":"4","last_reported":1731863233,"current_range_meters":8000,"station_id":"ce4bhlh2rcd13ifvqgig","pricing_plan_id":"cebpf4jnsgd1na2vs0mg"},{"bike_id":"4ce09065-2d98-496c-91c9-1841e3f2358f","system_id":"levelo_inurba_marseille","lat":43.29029,"lon":5.3813,"is_reserved":false,"is_disabled":false,"rental_uris":{"android":"levelo://app?vid=4ce09065-2d98-496c-91c9-1841e3f2358f","ios":"levelo://app?vid=4ce09065-2d98-496c-91c9-1841e3f2358f"},"vehicle_type_id":"4","last_reported":1731863233,"current_range_meters":19200,"station_id":"ce4bh4p2rcd13ifvqe1g","pricing_plan_id":"cebpf4jnsgd1na2vs0mg"},{"bike_id":"479ba0b5-770d-439b-89a0-6ac806039940","system_id":"levelo_inurba_marseille","lat":43.30326,"lon":5.40441,"is_reserved":false,"is_disabled":false,"rental_uris":{"android":"levelo://app?vid=479ba0b5-770d-439b-89a0-6ac806039940","ios":"levelo://app?vid=479ba0b5-770d-439b-89a0-6ac806039940"},"vehicle_type_id":"4","last_reported":1731863233,"current_range_meters":17200,"station_id":"ce4bh012rcd13ifvqd10","pricing_plan_id":"cebpf4jnsgd1na2vs0mg"},{"bike_id":"631d8f32-b319-4147-bf15-1ee3537df774","system_id":"levelo_inurba_marseille","lat":43.26939,"lon":5.40256,"is_reserved":false,"is_disabled":false,"rental_uris":{"android":"levelo://app?vid=631d8f32-b319-4147-bf15-1ee3537df774","ios":"levelo://app?vid=631d8f32-b319-4147-bf15-1ee3537df774"},"vehicle_type_id":"4","last_reported":1731863233,"current_range_meters":2000,"station_id":"cjm6bp8fraef2m0cb0m0","pricing_plan_id":"cebpf4jnsgd1na2vs0mg"},{"bike_id":"e155ec0d-e7f5-4141-a4ed-9b834319c82d","system_id":"levelo_inurba_marseille","lat":43.29029,"lon":5.38131,"is_reserved":false,"is_disabled":false,"rental_uris":{"android":"levelo://app?vid=e155ec0d-e7f5-4141-a4ed-9b834319c82d","ios":"levelo://app?vid=e155ec0d-e7f5-4141-a4ed-9b834319c82d"},"vehicle_type_id":"4","last_reported":1731863233,"current_range_meters":22400,"station_id":"ce4bh4p2rcd13ifvqe1g","pricing_plan_id":"cebpf4jnsgd1na2vs0mg"},{"bike_id":"90bb2cae-4339-46de-973d-1d239b082c40","system_id":"levelo_inurba_marseille","lat":43.23185,"lon":5.39995,"is_reserved":false,"is_disabled":false,"rental_uris":{"android":"levelo://app?vid=90bb2cae-4339-46de-973d-1d239b082c40","ios":"levelo://app?vid=90bb2cae-4339-46de-973d-1d239b082c40"},"vehicle_type_id":"4","last_reported":1731863233,"current_range_meters":17600,"station_id":"ce4bhn12rcd13ifvqgqg","pricing_plan_id":"cebpf4jnsgd1na2vs0mg"},{"bike_id":"ec6eed20-141b-4d63-9055-c0e9df3ba24b","system_id":"levelo_inurba_marseille","lat":43.27051,"lon":5.40266,"is_reserved":false,"is_disabled":false,"rental_uris":{"android":"levelo://app?vid=ec6eed20-141b-4d63-9055-c0e9df3ba24b","ios":"levelo://app?vid=ec6eed20-141b-4d63-9055-c0e9df3ba24b"},"vehicle_type_id":"4","last_reported":1731863233,"current_range_meters":2000,"station_id":"ce4bhk92rcd13ifvqgc0","pricing_plan_id":"cebpf4jnsgd1na2vs0mg"},{"bike_id":"03610925-a848-4509-93d0-1b57c0885fff","system_id":"levelo_inurba_marseille","lat":43.2953,"lon":5.3855,"is_reserved":false,"is_disabled":false,"rental_uris":{"android":"levelo://app?vid=03610925-a848-4509-93d0-1b57c0885fff","ios":"levelo://app?vid=03610925-a848-4509-93d0-1b57c0885fff"},"vehicle_type_id":"4","last_reported":1731863233,"current_range_meters":30000,"station_id":"ce4bgih2rcd13ifvqba0","pricing_plan_id":"cebpf4jnsgd1na2vs0mg"},{"bike_id":"4efce40a-c056-43bf-b2cc-fbd1086a5e4d","system_id":"levelo_inurba_marseille","lat":43.27054,"lon":5.40264,"is_reserved":false,"is_disabled":false,"rental_uris":{"android":"levelo://app?vid=4efce40a-c056-43bf-b2cc-fbd1086a5e4d","ios":"levelo://app?vid=4efce40a-c056-43bf-b2cc-fbd1086a5e4d"},"vehicle_type_id":"4","last_reported":1731863233,"current_range_meters":6000,"station_id":"ce4bhk92rcd13ifvqgc0","pricing_plan_id":"cebpf4jnsgd1na2vs0mg"},{"bike_id":"2a4e5c10-e674-4bfc-9d36-109839567bf5","system_id":"levelo_inurba_marseille","lat":43.32369,"lon":5.38888,"is_reserved":false,"is_disabled":false,"rental_uris":{"android":"levelo://app?vid=2a4e5c10-e674-4bfc-9d36-109839567bf5","ios":"levelo://app?vid=2a4e5c10-e674-4bfc-9d36-109839567bf5"},"vehicle_type_id":"4","last_reported":1731863233,"current_range_meters":11600,"station_id":"ce4bhr92rcd13ifvqhsg","pricing_plan_id":"cebpf4jnsgd1na2vs0mg"},{"bike_id":"2b5c3fcd-740a-4039-8216-9ed95df3ad9d","system_id":"levelo_inurba_marseille","lat":43.32335,"lon":5.40624,"is_reserved":false,"is_disabled":false,"rental_uris":{"android":"levelo://app?vid=2b5c3fcd-740a-4039-8216-9ed95df3ad9d","ios":"levelo://app?vid=2b5c3fcd-740a-4039-8216-9ed95df3ad9d"},"vehicle_type_id":"4","last_reported":1731863233,"current_range_meters":39200,"station_id":"ce4bhq92rcd13ifvqhjg","pricing_plan_id":"cebpf4jnsgd1na2vs0mg"},{"bike_id":"3bd1413c-11c3-447f-94dd-44ebd9a7fb8c","system_id":"levelo_inurba_marseille","lat":43.28696,"lon":5.39985,"is_reserved":false,"is_disabled":false,"rental_uris":{"android":"levelo://app?vid=3bd1413c-11c3-447f-94dd-44ebd9a7fb8c","ios":"levelo://app?vid=3bd1413c-11c3-447f-94dd-44ebd9a7fb8c"},"vehicle_type_id":"4","last_reported":1731863233,"current_range_meters":38800,"station_id":"ce4bho92rcd13ifvqh3g","pricing_plan_id":"cebpf4jnsgd1na2vs0mg"},{"bike_id":"ced9b0a3-1cdb-4c48-8fd2-bbf25c3164f4","system_id":"levelo_inurba_marseille","lat":43.28359,"lon":5.3811,"is_reserved":false,"is_disabled":false,"rental_uris":{"android":"levelo://app?vid=ced9b0a3-1cdb-4c48-8fd2-bbf25c3164f4","ios":"levelo://app?vid=ced9b0a3-1cdb-4c48-8fd2-bbf25c3164f4"},"vehicle_type_id":"4","last_reported":1731863233,"current_range_meters":2000,"station_id":"ce4bh412rcd13ifvqdr0","pricing_plan_id":"cebpf4jnsgd1na2vs0mg"},{"bike_id":"e6187a8c-5322-430b-8e20-f7ea09791dc1","system_id":"levelo_inurba_marseille","lat":43.2903,"lon":5.38645,"is_reserved":false,"is_disabled":false,"rental_uris":{"android":"levelo://app?vid=e6187a8c-5322-430b-8e20-f7ea09791dc1","ios":"levelo://app?vid=e6187a8c-5322-430b-8e20-f7ea09791dc1"},"vehicle_type_id":"4","last_reported":1731863233,"current_range_meters":4400,"station_id":"ce4bh4p2rcd13ifvqe0g","pricing_plan_id":"cebpf4jnsgd1na2vs0mg"},{"bike_id":"6e46d6b8-a62f-49c3-affa-aadb4402265c","system_id":"levelo_inurba_marseille","lat":43.32538,"lon":5.41435,"is_reserved":false,"is_disabled":false,"rental_uris":{"android":"levelo://app?vid=6e46d6b8-a62f-49c3-affa-aadb4402265c","ios":"levelo://app?vid=6e46d6b8-a62f-49c3-affa-aadb4402265c"},"vehicle_type_id":"4","last_reported":1731863233,"current_range_meters":39200,"station_id":"ce4bhq12rcd13ifvqhhg","pricing_plan_id":"cebpf4jnsgd1na2vs0mg"},{"bike_id":"43a34f7f-d7ef-4532-ab01-88719e59139f","system_id":"levelo_inurba_marseille","lat":43.29021,"lon":5.37554,"is_reserved":false,"is_disabled":false,"rental_uris":{"android":"levelo://app?vid=43a34f7f-d7ef-4532-ab01-88719e59139f","ios":"levelo://app?vid=43a34f7f-d7ef-4532-ab01-88719e59139f"},"vehicle_type_id":"4","last_reported":1731863233,"current_range_meters":33200,"station_id":"ce4bh692rcd13ifvqe90","pricing_plan_id":"cebpf4jnsgd1na2vs0mg"},{"bike_id":"0d84feb5-1b95-49ab-bf91-c474041a34ca","system_id":"levelo_inurba_marseille","lat":43.33025,"lon":5.39034,"is_reserved":false,"is_disabled":false,"rental_uris":{"android":"levelo://app?vid=0d84feb5-1b95-49ab-bf91-c474041a34ca","ios":"levelo://app?vid=0d84feb5-1b95-49ab-bf91-c474041a34ca"},"vehicle_type_id":"4","last_reported":1731863233,"current_range_meters":24400,"station_id":"ce4bhr92rcd13ifvqhrg","pricing_plan_id":"cebpf4jnsgd1na2vs0mg"},{"bike_id":"211e51e8-dbf7-4d22-b6f1-8020f0c8fa6e","system_id":"levelo_inurba_marseille","lat":43.24174,"lon":5.36403,"is_reserved":false,"is_disabled":false,"rental_uris":{"android":"levelo://app?vid=211e51e8-dbf7-4d22-b6f1-8020f0c8fa6e","ios":"levelo://app?vid=211e51e8-dbf7-4d22-b6f1-8020f0c8fa6e"},"vehicle_type_id":"4","last_reported":1731863233,"current_range_meters":18800,"station_id":"cpo36qri1sfpv3e86is0","pricing_plan_id":"cebpf4jnsgd1na2vs0mg"},{"bike_id":"34077825-d4ec-4c1a-b478-3e942d397c3a","system_id":"levelo_inurba_marseille","lat":43.29416,"lon":5.38617,"is_reserved":false,"is_disabled":false,"rental_uris":{"android":"levelo://app?vid=34077825-d4ec-4c1a-b478-3e942d397c3a","ios":"levelo://app?vid=34077825-d4ec-4c1a-b478-3e942d397c3a"},"vehicle_type_id":"4","last_reported":1731863233,"current_range_meters":3200,"station_id":"ce4bh2h2rcd13ifvqdh0","pricing_plan_id":"cebpf4jnsgd1na2vs0mg"},{"bike_id":"14b0dd5d-fb7f-4337-812d-2efd5b171e81","system_id":"levelo_inurba_marseille","lat":43.23039,"lon":5.35506,"is_reserved":false,"is_disabled":false,"rental_uris":{"android":"levelo://app?vid=14b0dd5d-fb7f-4337-812d-2efd5b171e81","ios":"levelo://app?vid=14b0dd5d-fb7f-4337-812d-2efd5b171e81"},"vehicle_type_id":"4","last_reported":1731863233,"current_range_meters":36800,"station_id":"cpo3342slgdg3j2ifvpg","pricing_plan_id":"cebpf4jnsgd1na2vs0mg"},{"bike_id":"bf22383f-69a1-47db-8197-97da374c3ff0","system_id":"levelo_inurba_marseille","lat":43.231964,"lon":5.355616,"is_reserved":false,"is_disabled":false,"rental_uris":{"android":"levelo://app?vid=bf22383f-69a1-47db-8197-97da374c3ff0","ios":"levelo://app?vid=bf22383f-69a1-47db-8197-97da374c3ff0"},"vehicle_type_id":"4","last_reported":1731863233,"current_range_meters":38800,"station_id":"ce4bhu92rcd13ifvqi70","pricing_plan_id":"cebpf4jnsgd1na2vs0mg"},{"bike_id":"b32891ac-cfd9-4fd2-ba02-01b96d174f58","system_id":"levelo_inurba_marseille","lat":43.29531,"lon":5.38547,"is_reserved":false,"is_disabled":false,"rental_uris":{"android":"levelo://app?vid=b32891ac-cfd9-4fd2-ba02-01b96d174f58","ios":"levelo://app?vid=b32891ac-cfd9-4fd2-ba02-01b96d174f58"},"vehicle_type_id":"4","last_reported":1731863233,"current_range_meters":12400,"station_id":"ce4bgih2rcd13ifvqba0","pricing_plan_id":"cebpf4jnsgd1na2vs0mg"},{"bike_id":"3ae0aab2-6749-426e-9dae-c2a153107058","system_id":"levelo_inurba_marseille","lat":43.23179,"lon":5.39989,"is_reserved":false,"is_disabled":false,"rental_uris":{"android":"levelo://app?vid=3ae0aab2-6749-426e-9dae-c2a153107058","ios":"levelo://app?vid=3ae0aab2-6749-426e-9dae-c2a153107058"},"vehicle_type_id":"4","last_reported":1731863233,"current_range_meters":8800,"station_id":"ce4bhn12rcd13ifvqgqg","pricing_plan_id":"cebpf4jnsgd1na2vs0mg"},{"bike_id":"fc87d9dd-817d-4356-b0ad-803cd355ddb2","system_id":"levelo_inurba_marseille","lat":43.29034,"lon":5.38648,"is_reserved":false,"is_disabled":false,"rental_uris":{"android":"levelo://app?vid=fc87d9dd-817d-4356-b0ad-803cd355ddb2","ios":"levelo://app?vid=fc87d9dd-817d-4356-b0ad-803cd355ddb2"},"vehicle_type_id":"4","last_reported":1731863233,"current_range_meters":31200,"station_id":"ce4bh4p2rcd13ifvqe0g","pricing_plan_id":"cebpf4jnsgd1na2vs0mg"},{"bike_id":"86f0ffba-2736-4770-b312-4aff7181899d","system_id":"levelo_inurba_marseille","lat":43.292633,"lon":5.384432,"is_reserved":false,"is_disabled":false,"rental_uris":{"android":"levelo://app?vid=86f0ffba-2736-4770-b312-4aff7181899d","ios":"levelo://app?vid=86f0ffba-2736-4770-b312-4aff7181899d"},"vehicle_type_id":"4","last_reported":1731863233,"current_range_meters":38800,"station_id":"ce4bh692rcd13ifvqea0","pricing_plan_id":"cebpf4jnsgd1na2vs0mg"},{"bike_id":"c2440676-f599-4c39-8af0-b9492fbd96c6","system_id":"levelo_inurba_marseille","lat":43.299648,"lon":5.384915,"is_reserved":false,"is_disabled":false,"rental_uris":{"android":"levelo://app?vid=c2440676-f599-4c39-8af0-b9492fbd96c6","ios":"levelo://app?vid=c2440676-f599-4c39-8af0-b9492fbd96c6"},"vehicle_type_id":"4","last_reported":1731863233,"current_range_meters":16000,"station_id":"ce4bh4p2rcd13ifvqe0g","pricing_plan_id":"cebpf4jnsgd1na2vs0mg"},{"bike_id":"e29b0bdb-a6bb-49df-8119-eb74168a2788","system_id":"levelo_inurba_marseille","lat":43.298,"lon":5.38096,"is_reserved":false,"is_disabled":false,"rental_uris":{"android":"levelo://app?vid=e29b0bdb-a6bb-49df-8119-eb74168a2788","ios":"levelo://app?vid=e29b0bdb-a6bb-49df-8119-eb74168a2788"},"vehicle_type_id":"4","last_reported":1731863233,"current_range_meters":20400,"station_id":"ce4bgip2rcd13ifvqbb0","pricing_plan_id":"cebpf4jnsgd1na2vs0mg"},{"bike_id":"215bfaa1-48d4-468a-ab0d-1ee191384f9f","system_id":"levelo_inurba_marseille","lat":43.28151,"lon":5.42641,"is_reserved":false,"is_disabled":false,"rental_uris":{"android":"levelo://app?vid=215bfaa1-48d4-468a-ab0d-1ee191384f9f","ios":"levelo://app?vid=215bfaa1-48d4-468a-ab0d-1ee191384f9f"},"vehicle_type_id":"4","last_reported":1731863233,"current_range_meters":38800,"station_id":"ce4bhnh2rcd13ifvqgug","pricing_plan_id":"cebpf4jnsgd1na2vs0mg"},{"bike_id":"1730b666-5d9f-4386-940f-496e4b34ea35","system_id":"levelo_inurba_marseille","lat":43.30782,"lon":5.376473,"is_reserved":false,"is_disabled":false,"rental_uris":{"android":"levelo://app?vid=1730b666-5d9f-4386-940f-496e4b34ea35","ios":"levelo://app?vid=1730b666-5d9f-4386-940f-496e4b34ea35"},"vehicle_type_id":"4","last_reported":1731863233,"current_range_meters":38800,"station_id":"ce4bgv92rcd13ifvqcq0","pricing_plan_id":"cebpf4jnsgd1na2vs0mg"},{"bike_id":"eb1e3dd4-44e1-447b-b6e5-227b1f23dd28","system_id":"levelo_inurba_marseille","lat":43.2749,"lon":5.42457,"is_reserved":false,"is_disabled":false,"rental_uris":{"android":"levelo://app?vid=eb1e3dd4-44e1-447b-b6e5-227b1f23dd28","ios":"levelo://app?vid=eb1e3dd4-44e1-447b-b6e5-227b1f23dd28"},"vehicle_type_id":"4","last_reported":1731863233,"current_range_meters":4800,"station_id":"ce4bhn92rcd13ifvqgrg","pricing_plan_id":"cebpf4jnsgd1na2vs0mg"},{"bike_id":"ef3da61f-cf2f-4e7f-962f-a81fa6e6e1a4","system_id":"levelo_inurba_marseille","lat":43.26053,"lon":5.39399,"is_reserved":false,"is_disabled":false,"rental_uris":{"android":"levelo://app?vid=ef3da61f-cf2f-4e7f-962f-a81fa6e6e1a4","ios":"levelo://app?vid=ef3da61f-cf2f-4e7f-962f-a81fa6e6e1a4"},"vehicle_type_id":"4","last_reported":1731863233,"current_range_meters":30000,"station_id":"ce4bhh92rcd13ifvqfj0","pricing_plan_id":"cebpf4jnsgd1na2vs0mg"},{"bike_id":"89f9cc89-c83a-4846-8582-75d0a1e3f429","system_id":"levelo_inurba_marseille","lat":43.31075,"lon":5.38365,"is_reserved":false,"is_disabled":false,"rental_uris":{"android":"levelo://app?vid=89f9cc89-c83a-4846-8582-75d0a1e3f429","ios":"levelo://app?vid=89f9cc89-c83a-4846-8582-75d0a1e3f429"},"vehicle_type_id":"4","last_reported":1731863233,"current_range_meters":28400,"station_id":"ce4bgv92rcd13ifvqcr0","pricing_plan_id":"cebpf4jnsgd1na2vs0mg"},{"bike_id":"98c96914-5b17-44c7-a9c8-86a53bbce846","system_id":"levelo_inurba_marseille","lat":43.305069,"lon":5.400973,"is_reserved":false,"is_disabled":false,"rental_uris":{"android":"levelo://app?vid=98c96914-5b17-44c7-a9c8-86a53bbce846","ios":"levelo://app?vid=98c96914-5b17-44c7-a9c8-86a53bbce846"},"vehicle_type_id":"4","last_reported":1731863233,"current_range_meters":19200,"station_id":"ce4bh112rcd13ifvqda0","pricing_plan_id":"cebpf4jnsgd1na2vs0mg"},{"bike_id":"022c545f-ad96-4ef2-95bc-d300750fa31c","system_id":"levelo_inurba_marseille","lat":43.27998,"lon":5.40013,"is_reserved":false,"is_disabled":false,"rental_uris":{"android":"levelo://app?vid=022c545f-ad96-4ef2-95bc-d300750fa31c","ios":"levelo://app?vid=022c545f-ad96-4ef2-95bc-d300750fa31c"},"vehicle_type_id":"4","last_reported":1731863233,"current_range_meters":17200,"station_id":"ce4bho92rcd13ifvqh4g","pricing_plan_id":"cebpf4jnsgd1na2vs0mg"},{"bike_id":"8af3b9ff-4fe4-461d-96c7-7a69f444e8bc","system_id":"levelo_inurba_marseille","lat":43.289398,"lon":5.355015,"is_reserved":false,"is_disabled":false,"rental_uris":{"android":"levelo://app?vid=8af3b9ff-4fe4-461d-96c7-7a69f444e8bc","ios":"levelo://app?vid=8af3b9ff-4fe4-461d-96c7-7a69f444e8bc"},"vehicle_type_id":"4","last_reported":1731863233,"current_range_meters":6000,"station_id":"ce4bgkp2rcd13ifvqbmg","pricing_plan_id":"cebpf4jnsgd1na2vs0mg"},{"bike_id":"5dfe24a3-82b2-4f40-ba2d-0c40a729334c","system_id":"levelo_inurba_marseille","lat":43.29963,"lon":5.38503,"is_reserved":false,"is_disabled":false,"rental_uris":{"android":"levelo://app?vid=5dfe24a3-82b2-4f40-ba2d-0c40a729334c","ios":"levelo://app?vid=5dfe24a3-82b2-4f40-ba2d-0c40a729334c"},"vehicle_type_id":"4","last_reported":1731863233,"current_range_meters":6400,"station_id":"ce4bgj92rcd13ifvqbd0","pricing_plan_id":"cebpf4jnsgd1na2vs0mg"},{"bike_id":"bf003776-bb1e-42f5-bdaa-f26db88f7d56","system_id":"levelo_inurba_marseille","lat":43.29879,"lon":5.38908,"is_reserved":false,"is_disabled":false,"rental_uris":{"android":"levelo://app?vid=bf003776-bb1e-42f5-bdaa-f26db88f7d56","ios":"levelo://app?vid=bf003776-bb1e-42f5-bdaa-f26db88f7d56"},"vehicle_type_id":"4","last_reported":1731863233,"current_range_meters":27600,"station_id":"ce4bh392rcd13ifvqdl0","pricing_plan_id":"cebpf4jnsgd1na2vs0mg"},{"bike_id":"b50a16c4-51d0-4a12-b78f-e59e6cba7454","system_id":"levelo_inurba_marseille","lat":43.29712,"lon":5.36615,"is_reserved":false,"is_disabled":false,"rental_uris":{"android":"levelo://app?vid=b50a16c4-51d0-4a12-b78f-e59e6cba7454","ios":"levelo://app?vid=b50a16c4-51d0-4a12-b78f-e59e6cba7454"},"vehicle_type_id":"4","last_reported":1731863233,"current_range_meters":27600,"station_id":"ce4bgn12rcd13ifvqbt0","pricing_plan_id":"cebpf4jnsgd1na2vs0mg"},{"bike_id":"19b161c9-9eeb-4141-a798-c3ecdef02326","system_id":"levelo_inurba_marseille","lat":43.27827,"lon":5.40721,"is_reserved":false,"is_disabled":false,"rental_uris":{"android":"levelo://app?vid=19b161c9-9eeb-4141-a798-c3ecdef02326","ios":"levelo://app?vid=19b161c9-9eeb-4141-a798-c3ecdef02326"},"vehicle_type_id":"4","last_reported":1731863233,"current_range_meters":36000,"station_id":"ce4bhnh2rcd13ifvqgtg","pricing_plan_id":"cebpf4jnsgd1na2vs0mg"},{"bike_id":"8d58502a-a5b6-42b3-8be5-8a9e2a9160d5","system_id":"levelo_inurba_marseille","lat":43.3078,"lon":5.37667,"is_reserved":false,"is_disabled":false,"rental_uris":{"android":"levelo://app?vid=8d58502a-a5b6-42b3-8be5-8a9e2a9160d5","ios":"levelo://app?vid=8d58502a-a5b6-42b3-8be5-8a9e2a9160d5"},"vehicle_type_id":"4","last_reported":1731863233,"current_range_meters":16400,"station_id":"ce4bgv92rcd13ifvqcq0","pricing_plan_id":"cebpf4jnsgd1na2vs0mg"},{"bike_id":"03d1705c-09bf-49e1-8be6-3711a9394528","system_id":"levelo_inurba_marseille","lat":43.27049,"lon":5.40264,"is_reserved":false,"is_disabled":false,"rental_uris":{"android":"levelo://app?vid=03d1705c-09bf-49e1-8be6-3711a9394528","ios":"levelo://app?vid=03d1705c-09bf-49e1-8be6-3711a9394528"},"vehicle_type_id":"4","last_reported":1731863233,"current_range_meters":14800,"station_id":"ce4bhk92rcd13ifvqgc0","pricing_plan_id":"cebpf4jnsgd1na2vs0mg"},{"bike_id":"fdf7d630-0f51-4a6f-8af0-03e2a4008ec2","system_id":"levelo_inurba_marseille","lat":43.2926,"lon":5.38433,"is_reserved":false,"is_disabled":false,"rental_uris":{"android":"levelo://app?vid=fdf7d630-0f51-4a6f-8af0-03e2a4008ec2","ios":"levelo://app?vid=fdf7d630-0f51-4a6f-8af0-03e2a4008ec2"},"vehicle_type_id":"4","last_reported":1731863233,"current_range_meters":38800,"station_id":"ce4bh692rcd13ifvqea0","pricing_plan_id":"cebpf4jnsgd1na2vs0mg"},{"bike_id":"aebb50a8-8ba0-4378-9e54-d98cf8ebd81e","system_id":"levelo_inurba_marseille","lat":43.25936,"lon":5.40913,"is_reserved":false,"is_disabled":false,"rental_uris":{"android":"levelo://app?vid=aebb50a8-8ba0-4378-9e54-d98cf8ebd81e","ios":"levelo://app?vid=aebb50a8-8ba0-4378-9e54-d98cf8ebd81e"},"vehicle_type_id":"4","last_reported":1731863233,"current_range_meters":28400,"station_id":"ce4bhm92rcd13ifvqglg","pricing_plan_id":"cebpf4jnsgd1na2vs0mg"},{"bike_id":"f8dee2bf-8ebd-4d65-80ec-9c6f1b15e386","system_id":"levelo_inurba_marseille","lat":43.29036,"lon":5.39976,"is_reserved":false,"is_disabled":false,"rental_uris":{"android":"levelo://app?vid=f8dee2bf-8ebd-4d65-80ec-9c6f1b15e386","ios":"levelo://app?vid=f8dee2bf-8ebd-4d65-80ec-9c6f1b15e386"},"vehicle_type_id":"4","last_reported":1731863233,"current_range_meters":8400,"station_id":"ce4bh392rcd13ifvqdm0","pricing_plan_id":"cebpf4jnsgd1na2vs0mg"},{"bike_id":"d21f9ecc-933f-43be-8da6-1b9a2a7d0ec7","system_id":"levelo_inurba_marseille","lat":43.27813,"lon":5.4071,"is_reserved":false,"is_disabled":false,"rental_uris":{"android":"levelo://app?vid=d21f9ecc-933f-43be-8da6-1b9a2a7d0ec7","ios":"levelo://app?vid=d21f9ecc-933f-43be-8da6-1b9a2a7d0ec7"},"vehicle_type_id":"4","last_reported":1731863233,"current_range_meters":14000,"station_id":"ce4bhnh2rcd13ifvqgtg","pricing_plan_id":"cebpf4jnsgd1na2vs0mg"},{"bike_id":"c6605e5c-efd3-4ee6-8d2c-f4a2edd0fde2","system_id":"levelo_inurba_marseille","lat":43.26561,"lon":5.39022,"is_reserved":false,"is_disabled":false,"rental_uris":{"android":"levelo://app?vid=c6605e5c-efd3-4ee6-8d2c-f4a2edd0fde2","ios":"levelo://app?vid=c6605e5c-efd3-4ee6-8d2c-f4a2edd0fde2"},"vehicle_type_id":"4","last_reported":1731863233,"current_range_meters":5600,"station_id":"ce4bhe12rcd13ifvqf30","pricing_plan_id":"cebpf4jnsgd1na2vs0mg"},{"bike_id":"1790ac93-5525-4bd4-a7ed-139eaa60ba18","system_id":"levelo_inurba_marseille","lat":43.30335,"lon":5.43506,"is_reserved":false,"is_disabled":false,"rental_uris":{"android":"levelo://app?vid=1790ac93-5525-4bd4-a7ed-139eaa60ba18","ios":"levelo://app?vid=1790ac93-5525-4bd4-a7ed-139eaa60ba18"},"vehicle_type_id":"4","last_reported":1731863233,"current_range_meters":8400,"station_id":"ce4bhph2rcd13ifvqheg","pricing_plan_id":"cebpf4jnsgd1na2vs0mg"},{"bike_id":"0c8e27cf-3ef8-4ad3-add6-2bd6fc2ae3c2","system_id":"levelo_inurba_marseille","lat":43.23953,"lon":5.36629,"is_reserved":false,"is_disabled":false,"rental_uris":{"android":"levelo://app?vid=0c8e27cf-3ef8-4ad3-add6-2bd6fc2ae3c2","ios":"levelo://app?vid=0c8e27cf-3ef8-4ad3-add6-2bd6fc2ae3c2"},"vehicle_type_id":"4","last_reported":1731863233,"current_range_meters":16400,"station_id":"ce4bhi12rcd13ifvqfp0","pricing_plan_id":"cebpf4jnsgd1na2vs0mg"},{"bike_id":"5f3fb1ad-c881-43c3-a260-173c01bf6972","system_id":"levelo_inurba_marseille","lat":43.30437,"lon":5.3889,"is_reserved":false,"is_disabled":false,"rental_uris":{"android":"levelo://app?vid=5f3fb1ad-c881-43c3-a260-173c01bf6972","ios":"levelo://app?vid=5f3fb1ad-c881-43c3-a260-173c01bf6972"},"vehicle_type_id":"4","last_reported":1731863233,"current_range_meters":28000,"station_id":"ce4bgk12rcd13ifvqbi0","pricing_plan_id":"cebpf4jnsgd1na2vs0mg"},{"bike_id":"0c4673dd-49e4-41c6-b194-f5039b92b2a7","system_id":"levelo_inurba_marseille","lat":43.31712,"lon":5.43708,"is_reserved":false,"is_disabled":false,"rental_uris":{"android":"levelo://app?vid=0c4673dd-49e4-41c6-b194-f5039b92b2a7","ios":"levelo://app?vid=0c4673dd-49e4-41c6-b194-f5039b92b2a7"},"vehicle_type_id":"4","last_reported":1731863233,"current_range_meters":8400,"station_id":"ce4bhp92rcd13ifvqhcg","pricing_plan_id":"cebpf4jnsgd1na2vs0mg"},{"bike_id":"0c22e25c-7d41-4e77-88e8-389eb0cefb27","system_id":"levelo_inurba_marseille","lat":43.30301,"lon":5.36884,"is_reserved":false,"is_disabled":false,"rental_uris":{"android":"levelo://app?vid=0c22e25c-7d41-4e77-88e8-389eb0cefb27","ios":"levelo://app?vid=0c22e25c-7d41-4e77-88e8-389eb0cefb27"},"vehicle_type_id":"4","last_reported":1731863233,"current_range_meters":32000,"station_id":"ce4bgqh2rcd13ifvqc5g","pricing_plan_id":"cebpf4jnsgd1na2vs0mg"},{"bike_id":"093d4fc0-14b0-412f-bbe3-ab12b33e9d7c","system_id":"levelo_inurba_marseille","lat":43.24546,"lon":5.39523,"is_reserved":false,"is_disabled":false,"rental_uris":{"android":"levelo://app?vid=093d4fc0-14b0-412f-bbe3-ab12b33e9d7c","ios":"levelo://app?vid=093d4fc0-14b0-412f-bbe3-ab12b33e9d7c"},"vehicle_type_id":"4","last_reported":1731863233,"current_range_meters":30400,"station_id":"ce4bhlp2rcd13ifvqgjg","pricing_plan_id":"cebpf4jnsgd1na2vs0mg"},{"bike_id":"81003638-fde2-4960-a6fd-db05db2cbb3d","system_id":"levelo_inurba_marseille","lat":43.304252,"lon":5.388933,"is_reserved":false,"is_disabled":false,"rental_uris":{"android":"levelo://app?vid=81003638-fde2-4960-a6fd-db05db2cbb3d","ios":"levelo://app?vid=81003638-fde2-4960-a6fd-db05db2cbb3d"},"vehicle_type_id":"4","last_reported":1731863233,"current_range_meters":8800,"station_id":"ce4bgk12rcd13ifvqbi0","pricing_plan_id":"cebpf4jnsgd1na2vs0mg"},{"bike_id":"74047d96-09f8-4030-89b9-ef9d05954b55","system_id":"levelo_inurba_marseille","lat":43.30302,"lon":5.39209,"is_reserved":false,"is_disabled":false,"rental_uris":{"android":"levelo://app?vid=74047d96-09f8-4030-89b9-ef9d05954b55","ios":"levelo://app?vid=74047d96-09f8-4030-89b9-ef9d05954b55"},"vehicle_type_id":"4","last_reported":1731863233,"current_range_meters":38800,"station_id":"ce4bgkh2rcd13ifvqbk0","pricing_plan_id":"cebpf4jnsgd1na2vs0mg"},{"bike_id":"e8a9c6be-e65f-4957-9cfa-54c2dbf86b0c","system_id":"levelo_inurba_marseille","lat":43.24387,"lon":5.37054,"is_reserved":false,"is_disabled":false,"rental_uris":{"android":"levelo://app?vid=e8a9c6be-e65f-4957-9cfa-54c2dbf86b0c","ios":"levelo://app?vid=e8a9c6be-e65f-4957-9cfa-54c2dbf86b0c"},"vehicle_type_id":"4","last_reported":1731863233,"current_range_meters":38800,"station_id":"ce4bhhh2rcd13ifvqfk0","pricing_plan_id":"cebpf4jnsgd1na2vs0mg"},{"bike_id":"015307fb-3c30-470b-a741-80261489ad9e","system_id":"levelo_inurba_marseille","lat":43.30311,"lon":5.39218,"is_reserved":false,"is_disabled":false,"rental_uris":{"android":"levelo://app?vid=015307fb-3c30-470b-a741-80261489ad9e","ios":"levelo://app?vid=015307fb-3c30-470b-a741-80261489ad9e"},"vehicle_type_id":"4","last_reported":1731863233,"current_range_meters":0,"station_id":"ce4bgkh2rcd13ifvqbk0","pricing_plan_id":"cebpf4jnsgd1na2vs0mg"},{"bike_id":"d71eda63-1cda-4d2e-91a6-60cd0ced487f","system_id":"levelo_inurba_marseille","lat":43.3014,"lon":5.38768,"is_reserved":false,"is_disabled":false,"rental_uris":{"android":"levelo://app?vid=d71eda63-1cda-4d2e-91a6-60cd0ced487f","ios":"levelo://app?vid=d71eda63-1cda-4d2e-91a6-60cd0ced487f"},"vehicle_type_id":"4","last_reported":1731863233,"current_range_meters":17200,"station_id":"ce4bghh2rcd13ifvqb60","pricing_plan_id":"cebpf4jnsgd1na2vs0mg"},{"bike_id":"591171f5-2b7e-4b86-ab03-4a5d008cda54","system_id":"levelo_inurba_marseille","lat":43.27073,"lon":5.42284,"is_reserved":false,"is_disabled":false,"rental_uris":{"android":"levelo://app?vid=591171f5-2b7e-4b86-ab03-4a5d008cda54","ios":"levelo://app?vid=591171f5-2b7e-4b86-ab03-4a5d008cda54"},"vehicle_type_id":"4","last_reported":1731863233,"current_range_meters":11600,"station_id":"ce4bhk92rcd13ifvqgb0","pricing_plan_id":"cebpf4jnsgd1na2vs0mg"},{"bike_id":"0abede36-a0e8-4ce1-85b2-e9b3ddfce058","system_id":"levelo_inurba_marseille","lat":43.33024,"lon":5.39027,"is_reserved":false,"is_disabled":false,"rental_uris":{"android":"levelo://app?vid=0abede36-a0e8-4ce1-85b2-e9b3ddfce058","ios":"levelo://app?vid=0abede36-a0e8-4ce1-85b2-e9b3ddfce058"},"vehicle_type_id":"4","last_reported":1731863233,"current_range_meters":9600,"station_id":"ce4bhr92rcd13ifvqhrg","pricing_plan_id":"cebpf4jnsgd1na2vs0mg"},{"bike_id":"7a988331-5db7-409c-90c8-76e1b9cced84","system_id":"levelo_inurba_marseille","lat":43.2318,"lon":5.39998,"is_reserved":false,"is_disabled":false,"rental_uris":{"android":"levelo://app?vid=7a988331-5db7-409c-90c8-76e1b9cced84","ios":"levelo://app?vid=7a988331-5db7-409c-90c8-76e1b9cced84"},"vehicle_type_id":"4","last_reported":1731863233,"current_range_meters":19200,"station_id":"ce4bhn12rcd13ifvqgqg","pricing_plan_id":"cebpf4jnsgd1na2vs0mg"},{"bike_id":"9d630da1-875c-43be-9172-a8587fa2d6f2","system_id":"levelo_inurba_marseille","lat":43.24543,"lon":5.39524,"is_reserved":false,"is_disabled":false,"rental_uris":{"android":"levelo://app?vid=9d630da1-875c-43be-9172-a8587fa2d6f2","ios":"levelo://app?vid=9d630da1-875c-43be-9172-a8587fa2d6f2"},"vehicle_type_id":"4","last_reported":1731863233,"current_range_meters":30800,"station_id":"ce4bhlp2rcd13ifvqgjg","pricing_plan_id":"cebpf4jnsgd1na2vs0mg"},{"bike_id":"c1a8b3fe-89f1-480d-83ff-6a91c23e456c","system_id":"levelo_inurba_marseille","lat":43.27495,"lon":5.42461,"is_reserved":false,"is_disabled":false,"rental_uris":{"android":"levelo://app?vid=c1a8b3fe-89f1-480d-83ff-6a91c23e456c","ios":"levelo://app?vid=c1a8b3fe-89f1-480d-83ff-6a91c23e456c"},"vehicle_type_id":"4","last_reported":1731863233,"current_range_meters":4400,"station_id":"ce4bhn92rcd13ifvqgrg","pricing_plan_id":"cebpf4jnsgd1na2vs0mg"},{"bike_id":"38a5cf6b-9bb0-4c1d-b39e-0cec64475131","system_id":"levelo_inurba_marseille","lat":43.2408,"lon":5.37758,"is_reserved":false,"is_disabled":false,"rental_uris":{"android":"levelo://app?vid=38a5cf6b-9bb0-4c1d-b39e-0cec64475131","ios":"levelo://app?vid=38a5cf6b-9bb0-4c1d-b39e-0cec64475131"},"vehicle_type_id":"4","last_reported":1731863233,"current_range_meters":32000,"station_id":"ce4bhnp2rcd13ifvqgvg","pricing_plan_id":"cebpf4jnsgd1na2vs0mg"},{"bike_id":"886f93b8-64a9-4c32-ba42-0ffe2cb5612a","system_id":"levelo_inurba_marseille","lat":43.279441,"lon":5.41048,"is_reserved":false,"is_disabled":false,"rental_uris":{"android":"levelo://app?vid=886f93b8-64a9-4c32-ba42-0ffe2cb5612a","ios":"levelo://app?vid=886f93b8-64a9-4c32-ba42-0ffe2cb5612a"},"vehicle_type_id":"4","last_reported":1731863233,"current_range_meters":9200,"station_id":"ce4bhnp2rcd13ifvqh0g","pricing_plan_id":"cebpf4jnsgd1na2vs0mg"},{"bike_id":"e608b048-85bd-4921-9953-b4fde1df79a8","system_id":"levelo_inurba_marseille","lat":43.26801,"lon":5.39453,"is_reserved":false,"is_disabled":false,"rental_uris":{"android":"levelo://app?vid=e608b048-85bd-4921-9953-b4fde1df79a8","ios":"levelo://app?vid=e608b048-85bd-4921-9953-b4fde1df79a8"},"vehicle_type_id":"4","last_reported":1731863233,"current_range_meters":18800,"station_id":"ce4bhh12rcd13ifvqfg0","pricing_plan_id":"cebpf4jnsgd1na2vs0mg"},{"bike_id":"8c136141-9076-439c-ad98-f4a545c1c9f9","system_id":"levelo_inurba_marseille","lat":43.29517,"lon":5.3904,"is_reserved":false,"is_disabled":false,"rental_uris":{"android":"levelo://app?vid=8c136141-9076-439c-ad98-f4a545c1c9f9","ios":"levelo://app?vid=8c136141-9076-439c-ad98-f4a545c1c9f9"},"vehicle_type_id":"4","last_reported":1731863233,"current_range_meters":7200,"station_id":"ce4bh3p2rcd13ifvqdp0","pricing_plan_id":"cebpf4jnsgd1na2vs0mg"},{"bike_id":"194b64bb-189d-42ab-90e8-f05750be56d4","system_id":"levelo_inurba_marseille","lat":43.26687,"lon":5.38275,"is_reserved":false,"is_disabled":false,"rental_uris":{"android":"levelo://app?vid=194b64bb-189d-42ab-90e8-f05750be56d4","ios":"levelo://app?vid=194b64bb-189d-42ab-90e8-f05750be56d4"},"vehicle_type_id":"4","last_reported":1731863233,"current_range_meters":17200,"station_id":"ce4bhg92rcd13ifvqf90","pricing_plan_id":"cebpf4jnsgd1na2vs0mg"},{"bike_id":"bdc0e6d5-d0ff-48ab-b6c7-e1edc472e6d7","system_id":"levelo_inurba_marseille","lat":43.24177,"lon":5.39734,"is_reserved":false,"is_disabled":false,"rental_uris":{"android":"levelo://app?vid=bdc0e6d5-d0ff-48ab-b6c7-e1edc472e6d7","ios":"levelo://app?vid=bdc0e6d5-d0ff-48ab-b6c7-e1edc472e6d7"},"vehicle_type_id":"4","last_reported":1731863233,"current_range_meters":24400,"station_id":"ce4bhn12rcd13ifvqgpg","pricing_plan_id":"cebpf4jnsgd1na2vs0mg"},{"bike_id":"5ca49efd-2378-45c0-95d9-13adcb9f66ba","system_id":"levelo_inurba_marseille","lat":43.337444,"lon":5.374475,"is_reserved":false,"is_disabled":false,"rental_uris":{"android":"levelo://app?vid=5ca49efd-2378-45c0-95d9-13adcb9f66ba","ios":"levelo://app?vid=5ca49efd-2378-45c0-95d9-13adcb9f66ba"},"vehicle_type_id":"4","last_reported":1731863233,"current_range_meters":11600,"station_id":"","pricing_plan_id":"cebpf4jnsgd1na2vs0mg"},{"bike_id":"48a6ffb4-c67c-4cea-afcd-9e1bca1d71d7","system_id":"levelo_inurba_marseille","lat":43.30459,"lon":5.37902,"is_reserved":false,"is_disabled":false,"rental_uris":{"android":"levelo://app?vid=48a6ffb4-c67c-4cea-afcd-9e1bca1d71d7","ios":"levelo://app?vid=48a6ffb4-c67c-4cea-afcd-9e1bca1d71d7"},"vehicle_type_id":"4","last_reported":1731863233,"current_range_meters":800,"station_id":"ce4bgup2rcd13ifvqcn0","pricing_plan_id":"cebpf4jnsgd1na2vs0mg"},{"bike_id":"f3b72512-7983-4999-b0ca-6ea306fa44b3","system_id":"levelo_inurba_marseille","lat":43.29226,"lon":5.36076,"is_reserved":false,"is_disabled":false,"rental_uris":{"android":"levelo://app?vid=f3b72512-7983-4999-b0ca-6ea306fa44b3","ios":"levelo://app?vid=f3b72512-7983-4999-b0ca-6ea306fa44b3"},"vehicle_type_id":"4","last_reported":1731863233,"current_range_meters":19600,"station_id":"ce4bhbh2rcd13ifvqeqg","pricing_plan_id":"cebpf4jnsgd1na2vs0mg"},{"bike_id":"3635b753-84a6-4eb1-ae74-51003c4b26e0","system_id":"levelo_inurba_marseille","lat":43.29414,"lon":5.38627,"is_reserved":false,"is_disabled":false,"rental_uris":{"android":"levelo://app?vid=3635b753-84a6-4eb1-ae74-51003c4b26e0","ios":"levelo://app?vid=3635b753-84a6-4eb1-ae74-51003c4b26e0"},"vehicle_type_id":"4","last_reported":1731863233,"current_range_meters":25200,"station_id":"ce4bh2h2rcd13ifvqdh0","pricing_plan_id":"cebpf4jnsgd1na2vs0mg"},{"bike_id":"1778d17f-6930-48cc-bbc7-b8a8f9e82ade","system_id":"levelo_inurba_marseille","lat":43.298683,"lon":5.397395,"is_reserved":false,"is_disabled":false,"rental_uris":{"android":"levelo://app?vid=1778d17f-6930-48cc-bbc7-b8a8f9e82ade","ios":"levelo://app?vid=1778d17f-6930-48cc-bbc7-b8a8f9e82ade"},"vehicle_type_id":"4","last_reported":1731863233,"current_range_meters":22800,"station_id":"ce4bh0h2rcd13ifvqd50","pricing_plan_id":"cebpf4jnsgd1na2vs0mg"},{"bike_id":"733b0472-6ef2-4805-b70d-1753d56926fb","system_id":"levelo_inurba_marseille","lat":43.288854,"lon":5.359212,"is_reserved":false,"is_disabled":false,"rental_uris":{"android":"levelo://app?vid=733b0472-6ef2-4805-b70d-1753d56926fb","ios":"levelo://app?vid=733b0472-6ef2-4805-b70d-1753d56926fb"},"vehicle_type_id":"4","last_reported":1731863233,"current_range_meters":7200,"station_id":"ce4bhb12rcd13ifvqem0","pricing_plan_id":"cebpf4jnsgd1na2vs0mg"},{"bike_id":"015b8d61-7f97-44fe-8f4a-7914b814b6c8","system_id":"levelo_inurba_marseille","lat":43.29617,"lon":5.37156,"is_reserved":false,"is_disabled":false,"rental_uris":{"android":"levelo://app?vid=015b8d61-7f97-44fe-8f4a-7914b814b6c8","ios":"levelo://app?vid=015b8d61-7f97-44fe-8f4a-7914b814b6c8"},"vehicle_type_id":"4","last_reported":1731863233,"current_range_meters":7200,"station_id":"ce4bgnh2rcd13ifvqc0g","pricing_plan_id":"cebpf4jnsgd1na2vs0mg"},{"bike_id":"c2136344-f439-44c0-bbb8-9fe5d2427915","system_id":"levelo_inurba_marseille","lat":43.29252,"lon":5.38439,"is_reserved":false,"is_disabled":false,"rental_uris":{"android":"levelo://app?vid=c2136344-f439-44c0-bbb8-9fe5d2427915","ios":"levelo://app?vid=c2136344-f439-44c0-bbb8-9fe5d2427915"},"vehicle_type_id":"4","last_reported":1731863233,"current_range_meters":28800,"station_id":"ce4bh692rcd13ifvqea0","pricing_plan_id":"cebpf4jnsgd1na2vs0mg"},{"bike_id":"1aa48035-f2c1-4ec0-bfc1-13944b669e58","system_id":"levelo_inurba_marseille","lat":43.29528,"lon":5.3941,"is_reserved":false,"is_disabled":false,"rental_uris":{"android":"levelo://app?vid=1aa48035-f2c1-4ec0-bfc1-13944b669e58","ios":"levelo://app?vid=1aa48035-f2c1-4ec0-bfc1-13944b669e58"},"vehicle_type_id":"4","last_reported":1731863233,"current_range_meters":17600,"station_id":"ce4bh292rcd13ifvqdf0","pricing_plan_id":"cebpf4jnsgd1na2vs0mg"},{"bike_id":"d5239e75-3632-422a-91e7-46af35142fd5","system_id":"levelo_inurba_marseille","lat":43.30913,"lon":5.36841,"is_reserved":false,"is_disabled":false,"rental_uris":{"android":"levelo://app?vid=d5239e75-3632-422a-91e7-46af35142fd5","ios":"levelo://app?vid=d5239e75-3632-422a-91e7-46af35142fd5"},"vehicle_type_id":"4","last_reported":1731863233,"current_range_meters":12000,"station_id":"ce4bgn92rcd13ifvqbvg","pricing_plan_id":"cebpf4jnsgd1na2vs0mg"},{"bike_id":"3c2765f8-d1ee-481e-be45-aedc7d33409b","system_id":"levelo_inurba_marseille","lat":43.30881,"lon":5.39658,"is_reserved":false,"is_disabled":false,"rental_uris":{"android":"levelo://app?vid=3c2765f8-d1ee-481e-be45-aedc7d33409b","ios":"levelo://app?vid=3c2765f8-d1ee-481e-be45-aedc7d33409b"},"vehicle_type_id":"4","last_reported":1731863233,"current_range_meters":36000,"station_id":"ce4bh012rcd13ifvqcv0","pricing_plan_id":"cebpf4jnsgd1na2vs0mg"},{"bike_id":"33adffe5-2d2d-4db8-ad4c-cfabb94467ef","system_id":"levelo_inurba_marseille","lat":43.29571,"lon":5.3998,"is_reserved":false,"is_disabled":false,"rental_uris":{"android":"levelo://app?vid=33adffe5-2d2d-4db8-ad4c-cfabb94467ef","ios":"levelo://app?vid=33adffe5-2d2d-4db8-ad4c-cfabb94467ef"},"vehicle_type_id":"4","last_reported":1731863233,"current_range_meters":24800,"station_id":"ce4bh312rcd13ifvqdj0","pricing_plan_id":"cebpf4jnsgd1na2vs0mg"},