{"last_updated":1747156180,"ttl":60,"version":"2.2","data":{"bikes":[{"bike_id":"c0b9fd4f-e181-46ce-b0bf-f5119973334f","system_id":"levelo_inurba_marseille","lat":43.33771,"lon":5.37424,"is_reserved":false,"is_disabled":false,"rental_uris":{"android":"levelo://app?vid=c0b9fd4f-e181-46ce-b0bf-f5119973334f","ios":"levelo://app?vid=c0b9fd4f-e181-46ce-b0bf-f5119973334f"},"vehicle_type_id":"4","last_reported":1747156180,"current_range_meters":22800,"station_id":"","pricing_plan_id":"cebpf4jnsgd1na2vs0mg"},{"bike_id":"49c47ed7-52af-4f8e-abc1-3485cf2c06af","system_id":"levelo_inurba_marseille","lat":43.224975,"lon":5.347796,"is_reserved":false,"is_disabled":true,"rental_uris":{"android":"levelo://app?vid=49c47ed7-52af-4f8e-abc1-3485cf2c06af","ios":"levelo://app?vid=49c47ed7-52af-4f8e-abc1-3485cf2c06af"},"vehicle_type_id":"4","last_reported":1747156180,"current_range_meters":0,"station_id":"","pricing_plan_id":"cebpf4jnsgd1na2vs0mg"},{"bike_id":"0fedde00-40eb-40d2-8fc2-e61ecce46b7b","system_id":"levelo_inurba_marseille","lat":43.28314,"lon":5.43238,"is_reserved":false,"is_disabled":true,"rental_uris":{"android":"levelo://app?vid=0fedde00-40eb-40d2-8fc2-e61ecce46b7b","ios":"levelo://app?vid=0fedde00-40eb-40d2-8fc2-e61ecce46b7b"},"vehicle_type_id":"4","last_reported":1747156180,"current_range_meters":0,"station_id":"","pricing_plan_id":"cebpf4jnsgd1na2vs0mg"},{"bike_id":"d19ebaab-ef98-4efa-b952-7192b9b2f014","system_id":"levelo_inurba_marseille","lat":43.26171,"lon":5.39204,"is_reserved":false,"is_disabled":true,"rental_uris":{"android":"levelo://app?vid=d19ebaab-ef98-4efa-b952-7192b9b2f014","ios":"levelo://app?vid=d19ebaab-ef98-4efa-b952-7192b9b2f014"},"vehicle_type_id":"4","last_reported":1747156180,"current_range_meters":0,"station_id":"","pricing_plan_id":"cebpf4jnsgd1na2vs0mg"},{"bike_id":"8ff1a8e4-2f9f-4826-84a8-269ba70eec40","system_id":"levelo_inurba_marseille","lat":43.30537,"lon":5.36934,"is_reserved":false,"is_disabled":true,"rental_uris":{"android":"levelo://app?vid=8ff1a8e4-2f9f-4826-84a8-269ba70eec40","ios":"levelo://app?vid=8ff1a8e4-2f9f-4826-84a8-269ba70eec40"},"vehicle_type_id":"4","last_reported":1747156180,"current_range_meters":0,"station_id":"","pricing_plan_id":"cebpf4jnsgd1na2vs0mg"},{"bike_id":"792567c6-0442-4011-aff0-9c05e25deb48","system_id":"levelo_inurba_marseille","lat":43.2807,"lon":5.44205,"is_reserved":false,"is_disabled":true,"rental_uris":{"android":"levelo://app?vid=792567c6-0442-4011-aff0-9c05e25deb48","ios":"levelo://app?vid=792567c6-0442-4011-aff0-9c05e25deb48"},"vehicle_type_id":"4","last_reported":1747156180,"current_range_meters":0,"station_id":"","pricing_plan_id":"cebpf4jnsgd1na2vs0mg"},{"bike_id":"df5bb61e-bb74-473a-aae9-aaaae4fd5d3e","system_id":"levelo_inurba_marseille","lat":43.30213,"lon":5.39461,"is_reserved":false,"is_disabled":true,"rental_uris":{"android":"levelo://app?vid=df5bb61e-bb74-473a-aae9-aaaae4fd5d3e","ios":"levelo://app?vid=df5bb61e-bb74-473a-aae9-aaaae4fd5d3e"},"vehicle_type_id":"4","last_reported":1747156180,"current_range_meters":0,"station_id":"ce4bh0p2rcd13ifvqd70","pricing_plan_id":"cebpf4jnsgd1na2vs0mg"},{"bike_id":"4c83611d-16fc-4d5c-ade2-7ac664bfda7e","system_id":"levelo_inurba_marseille","lat":43.28263,"lon":5.35063,"is_reserved":false,"is_disabled":true,"rental_uris":{"android":"levelo://app?vid=4c83611d-16fc-4d5c-ade2-7ac664bfda7e","ios":"levelo://app?vid=4c83611d-16fc-4d5c-ade2-7ac664bfda7e"},"vehicle_type_id":"4","last_reported":1747156180,"current_range_meters":0,"station_id":"ce4bhbp2rcd13ifvqerg","pricing_plan_id":"cebpf4jnsgd1na2vs0mg"},{"bike_id":"4606212b-17d1-41c0-8f30-af1d9ef0fe70","system_id":"levelo_inurba_marseille","lat":43.29276,"lon":5.36843,"is_reserved":false,"is_disabled":true,"rental_uris":{"android":"levelo://app?vid=4606212b-17d1-41c0-8f30-af1d9ef0fe70","ios":"levelo://app?vid=4606212b-17d1-41c0-8f30-af1d9ef0fe70"},"vehicle_type_id":"4","last_reported":1747156180,"current_range_meters":0,"station_id":"ce4bhbp2rcd13ifvqesg","pricing_plan_id":"cebpf4jnsgd1na2vs0mg"},{"bike_id":"50bec9d9-ec13-4b8b-826c-936044c89865","system_id":"levelo_inurba_marseille","lat":43.26211,"lon":5.37441,"is_reserved":false,"is_disabled":true,"rental_uris":{"android":"levelo://app?vid=50bec9d9-ec13-4b8b-826c-936044c89865","ios":"levelo://app?vid=50bec9d9-ec13-4b8b-826c-936044c89865"},"vehicle_type_id":"4","last_reported":1747156180,"current_range_meters":0,"station_id":"ce4bhgp2rcd13ifvqfc0","pricing_plan_id":"cebpf4jnsgd1na2vs0mg"},{"bike_id":"5d827ec4-8e5e-4cde-b859-9c1aa0de8069","system_id":"levelo_inurba_marseille","lat":43.27078,"lon":5.4025,"is_reserved":false,"is_disabled":true,"rental_uris":{"android":"levelo://app?vid=5d827ec4-8e5e-4cde-b859-9c1aa0de8069","ios":"levelo://app?vid=5d827ec4-8e5e-4cde-b859-9c1aa0de8069"},"vehicle_type_id":"4","last_reported":1747156180,"current_range_meters":0,"station_id":"ce4bhk92rcd13ifvqgc0","pricing_plan_id":"cebpf4jnsgd1na2vs0mg"},{"bike_id":"b0df7db8-3421-497a-b7ae-6831a9f35d5d","system_id":"levelo_inurba_marseille","lat":43.26226,"lon":5.40449,"is_reserved":false,"is_disabled":true,"rental_uris":{"android":"levelo://app?vid=b0df7db8-3421-497a-b7ae-6831a9f35d5d","ios":"levelo://app?vid=b0df7db8-3421-497a-b7ae-6831a9f35d5d"},"vehicle_type_id":"4","last_reported":1747156180,"current_range_meters":0,"station_id":"ce4bhmh2rcd13ifvqgmg","pricing_plan_id":"cebpf4jnsgd1na2vs0mg"},{"bike_id":"7d648bb7-ab7e-409a-add7-d4a17f03de12","system_id":"levelo_inurba_marseille","lat":43.23145,"lon":5.43713,"is_reserved":false,"is_disabled":true,"rental_uris":{"android":"levelo://app?vid=7d648bb7-ab7e-409a-add7-d4a17f03de12","ios":"levelo://app?vid=7d648bb7-ab7e-409a-add7-d4a17f03de12"},"vehicle_type_id":"4","last_reported":1747156180,"current_range_meters":0,"station_id":"ce4bhmp2rcd13ifvqgog","pricing_plan_id":"cebpf4jnsgd1na2vs0mg"},{"bike_id":"1379c1b4-43bb-41c8-8ac5-e8b96fe0daf1","system_id":"levelo_inurba_marseille","lat":43.28722,"lon":5.39984,"is_reserved":false,"is_disabled":true,"rental_uris":{"android":"levelo://app?vid=1379c1b4-43bb-41c8-8ac5-e8b96fe0daf1","ios":"levelo://app?vid=1379c1b4-43bb-41c8-8ac5-e8b96fe0daf1"},"vehicle_type_id":"4","last_reported":1747156180,"current_range_meters":0,"station_id":"ce4bho92rcd13ifvqh3g","pricing_plan_id":"cebpf4jnsgd1na2vs0mg"},{"bike_id":"6af03016-8529-41bf-a76c-959e0f94726e","system_id":"levelo_inurba_marseille","lat":43.26803,"lon":5.402557,"is_reserved":false,"is_disabled":true,"rental_uris":{"android":"levelo://app?vid=6af03016-8529-41bf-a76c-959e0f94726e","ios":"levelo://app?vid=6af03016-8529-41bf-a76c-959e0f94726e"},"vehicle_type_id":"4","last_reported":1747156180,"current_range_meters":0,"station_id":"ce501612rcd8frsf0b60","pricing_plan_id":"cebpf4jnsgd1na2vs0mg"},{"bike_id":"fc2577e7-1497-425b-9d4f-ab8d7dc843c6","system_id":"levelo_inurba_marseille","lat":43.33771,"lon":5.37485,"is_reserved":false,"is_disabled":true,"rental_uris":{"android":"levelo://app?vid=fc2577e7-1497-425b-9d4f-ab8d7dc843c6","ios":"levelo://app?vid=fc2577e7-1497-425b-9d4f-ab8d7dc843c6"},"vehicle_type_id":"4","last_reported":1747156180,"current_range_meters":400,"station_id":"","pricing_plan_id":"cebpf4jnsgd1na2vs0mg"},{"bike_id":"beb3c1d3-9efa-4c13-9eee-f5ee63560545","system_id":"levelo_inurba_marseille","lat":43.31358,"lon":5.38489,"is_reserved":false,"is_disabled":true,"rental_uris":{"android":"levelo://app?vid=beb3c1d3-9efa-4c13-9eee-f5ee63560545","ios":"levelo://app?vid=beb3c1d3-9efa-4c13-9eee-f5ee63560545"},"vehicle_type_id":"4","last_reported":1747156180,"current_range_meters":400,"station_id":"ce4bgt92rcd13ifvqcf0","pricing_plan_id":"cebpf4jnsgd1na2vs0mg"},{"bike_id":"7ca2e088-01be-4e30-9cca-e5127e630277","system_id":"levelo_inurba_marseille","lat":43.30944,"lon":5.39046,"is_reserved":false,"is_disabled":true,"rental_uris":{"android":"levelo://app?vid=7ca2e088-01be-4e30-9cca-e5127e630277","ios":"levelo://app?vid=7ca2e088-01be-4e30-9cca-e5127e630277"},"vehicle_type_id":"4","last_reported":1747156180,"current_range_meters":400,"station_id":"ce4bgup2rcd13ifvqco0","pricing_plan_id":"cebpf4jnsgd1na2vs0mg"},{"bike_id":"8060c257-88f3-40cf-9adf-13075ceb18f1","system_id":"levelo_inurba_marseille","lat":43.28108,"lon":5.37841,"is_reserved":false,"is_disabled":true,"rental_uris":{"android":"levelo://app?vid=8060c257-88f3-40cf-9adf-13075ceb18f1","ios":"levelo://app?vid=8060c257-88f3-40cf-9adf-13075ceb18f1"},"vehicle_type_id":"4","last_reported":1747156180,"current_range_meters":400,"station_id":"ce4bha12rcd13ifvqee0","pricing_plan_id":"cebpf4jnsgd1na2vs0mg"},{"bike_id":"66fb4fa2-7da9-424b-92d5-91cc088584e4","system_id":"levelo_inurba_marseille","lat":43.24387,"lon":5.37062,"is_reserved":false,"is_disabled":true,"rental_uris":{"android":"levelo://app?vid=66fb4fa2-7da9-424b-92d5-91cc088584e4","ios":"levelo://app?vid=66fb4fa2-7da9-424b-92d5-91cc088584e4"},"vehicle_type_id":"4","last_reported":1747156180,"current_range_meters":400,"station_id":"ce4bhhh2rcd13ifvqfk0","pricing_plan_id":"cebpf4jnsgd1na2vs0mg"},{"bike_id":"28bd34d5-39c3-4042-af14-a0e78c095a0e","system_id":"levelo_inurba_marseille","lat":43.25583,"lon":5.38231,"is_reserved":false,"is_disabled":true,"rental_uris":{"android":"levelo://app?vid=28bd34d5-39c3-4042-af14-a0e78c095a0e","ios":"levelo://app?vid=28bd34d5-39c3-4042-af14-a0e78c095a0e"},"vehicle_type_id":"4","last_reported":1747156180,"current_range_meters":400,"station_id":"ce4bhih2rcd13ifvqfs0","pricing_plan_id":"cebpf4jnsgd1na2vs0mg"},{"bike_id":"82708510-bc4c-47a7-a1d0-bd89ef8b6e0f","system_id":"levelo_inurba_marseille","lat":43.29552,"lon":5.42295,"is_reserved":false,"is_disabled":true,"rental_uris":{"android":"levelo://app?vid=82708510-bc4c-47a7-a1d0-bd89ef8b6e0f","ios":"levelo://app?vid=82708510-bc4c-47a7-a1d0-bd89ef8b6e0f"},"vehicle_type_id":"4","last_reported":1747156180,"current_range_meters":400,"station_id":"ce4bhph2rcd13ifvqhdg","pricing_plan_id":"cebpf4jnsgd1na2vs0mg"},{"bike_id":"c86d99ca-b9ff-48a3-9841-614a665e9daa","system_id":"levelo_inurba_marseille","lat":43.2886,"lon":5.39316,"is_reserved":false,"is_disabled":true,"rental_uris":{"android":"levelo://app?vid=c86d99ca-b9ff-48a3-9841-614a665e9daa","ios":"levelo://app?vid=c86d99ca-b9ff-48a3-9841-614a665e9daa"},"vehicle_type_id":"4","last_reported":1747156180,"current_range_meters":800,"station_id":"ce4bh2p2rcd13ifvqdi0","pricing_plan_id":"cebpf4jnsgd1na2vs0mg"},{"bike_id":"9f7b3f80-2937-40c2-b561-111ba16027df","system_id":"levelo_inurba_marseille","lat":43.27982,"lon":5.387,"is_reserved":false,"is_disabled":true,"rental_uris":{"android":"levelo://app?vid=9f7b3f80-2937-40c2-b561-111ba16027df","ios":"levelo://app?vid=9f7b3f80-2937-40c2-b561-111ba16027df"},"vehicle_type_id":"4","last_reported":1747156180,"current_range_meters":800,"station_id":"ce4bhg12rcd13ifvqf80","pricing_plan_id":"cebpf4jnsgd1na2vs0mg"},{"bike_id":"dbcd43c5-0231-48e8-8662-49ea9a142f63","system_id":"levelo_inurba_marseille","lat":43.25009,"lon":5.38921,"is_reserved":false,"is_disabled":true,"rental_uris":{"android":"levelo://app?vid=dbcd43c5-0231-48e8-8662-49ea9a142f63","ios":"levelo://app?vid=dbcd43c5-0231-48e8-8662-49ea9a142f63"},"vehicle_type_id":"4","last_reported":1747156180,"current_range_meters":800,"station_id":"ce4bhgp2rcd13ifvqfd0","pricing_plan_id":"cebpf4jnsgd1na2vs0mg"},{"bike_id":"88c9cea4-7c43-4591-a7a7-6c19a3054d53","system_id":"levelo_inurba_marseille","lat":43.24389,"lon":5.37055,"is_reserved":false,"is_disabled":true,"rental_uris":{"android":"levelo://app?vid=88c9cea4-7c43-4591-a7a7-6c19a3054d53","ios":"levelo://app?vid=88c9cea4-7c43-4591-a7a7-6c19a3054d53"},"vehicle_type_id":"4","last_reported":1747156180,"current_range_meters":800,"station_id":"ce4bhhh2rcd13ifvqfk0","pricing_plan_id":"cebpf4jnsgd1na2vs0mg"},{"bike_id":"518be039-efd2-47c8-8b30-051fb6e63694","system_id":"levelo_inurba_marseille","lat":43.28,"lon":5.40011,"is_reserved":false,"is_disabled":true,"rental_uris":{"android":"levelo://app?vid=518be039-efd2-47c8-8b30-051fb6e63694","ios":"levelo://app?vid=518be039-efd2-47c8-8b30-051fb6e63694"},"vehicle_type_id":"4","last_reported":1747156180,"current_range_meters":800,"station_id":"ce4bho92rcd13ifvqh4g","pricing_plan_id":"cebpf4jnsgd1na2vs0mg"},{"bike_id":"af30bead-5700-4246-b658-500b90280c48","system_id":"levelo_inurba_marseille","lat":43.29844,"lon":5.36277,"is_reserved":false,"is_disabled":true,"rental_uris":{"android":"levelo://app?vid=af30bead-5700-4246-b658-500b90280c48","ios":"levelo://app?vid=af30bead-5700-4246-b658-500b90280c48"},"vehicle_type_id":"4","last_reported":1747156180,"current_range_meters":1200,"station_id":"ce4bgpp2rcd13ifvqc3g","pricing_plan_id":"cebpf4jnsgd1na2vs0mg"},{"bike_id":"c70d111f-879e-4c64-9f7c-cde41d7cfa5d","system_id":"levelo_inurba_marseille","lat":43.31687,"lon":5.40473,"is_reserved":false,"is_disabled":true,"rental_uris":{"android":"levelo://app?vid=c70d111f-879e-4c64-9f7c-cde41d7cfa5d","ios":"levelo://app?vid=c70d111f-879e-4c64-9f7c-cde41d7cfa5d"},"vehicle_type_id":"4","last_reported":1747156180,"current_range_meters":1200,"station_id":"ce4bh012rcd13ifvqd00","pricing_plan_id":"cebpf4jnsgd1na2vs0mg"},{"bike_id":"e2704982-b03b-4735-b74d-6f905594e2c4","system_id":"levelo_inurba_marseille","lat":43.31278,"lon":5.40164,"is_reserved":false,"is_disabled":true,"rental_uris":{"android":"levelo://app?vid=e2704982-b03b-4735-b74d-6f905594e2c4","ios":"levelo://app?vid=e2704982-b03b-4735-b74d-6f905594e2c4"},"vehicle_type_id":"4","last_reported":1747156180,"current_range_meters":1200,"station_id":"ce4bh092rcd13ifvqd30","pricing_plan_id":"cebpf4jnsgd1na2vs0mg"},{"bike_id":"68e76d30-035d-4eab-b21f-7994308627c1","system_id":"levelo_inurba_marseille","lat":43.2904,"lon":5.39953,"is_reserved":false,"is_disabled":true,"rental_uris":{"android":"levelo://app?vid=68e76d30-035d-4eab-b21f-7994308627c1","ios":"levelo://app?vid=68e76d30-035d-4eab-b21f-7994308627c1"},"vehicle_type_id":"4","last_reported":1747156180,"current_range_meters":1200,"station_id":"ce4bh392rcd13ifvqdm0","pricing_plan_id":"cebpf4jnsgd1na2vs0mg"},{"bike_id":"c5b2f958-1263-4cfd-897a-aad79610fe60","system_id":"levelo_inurba_marseille","lat":43.28402,"lon":5.37523,"is_reserved":false,"is_disabled":true,"rental_uris":{"android":"levelo://app?vid=c5b2f958-1263-4cfd-897a-aad79610fe60","ios":"levelo://app?vid=c5b2f958-1263-4cfd-897a-aad79610fe60"},"vehicle_type_id":"4","last_reported":1747156180,"current_range_meters":1200,"station_id":"ce4bh412rcd13ifvqds0","pricing_plan_id":"cebpf4jnsgd1na2vs0mg"},{"bike_id":"f84d39a3-57d8-4021-bfd4-1c1a87399ffc","system_id":"levelo_inurba_marseille","lat":43.28484,"lon":5.38417,"is_reserved":false,"is_disabled":true,"rental_uris":{"android":"levelo://app?vid=f84d39a3-57d8-4021-bfd4-1c1a87399ffc","ios":"levelo://app?vid=f84d39a3-57d8-4021-bfd4-1c1a87399ffc"},"vehicle_type_id":"4","last_reported":1747156180,"current_range_meters":1200,"station_id":"ce4bh512rcd13ifvqe3g","pricing_plan_id":"cebpf4jnsgd1na2vs0mg"},{"bike_id":"877155ab-f977-4fad-bc28-a51546ffe9de","system_id":"levelo_inurba_marseille","lat":43.262,"lon":5.37441,"is_reserved":false,"is_disabled":true,"rental_uris":{"android":"levelo://app?vid=877155ab-f977-4fad-bc28-a51546ffe9de","ios":"levelo://app?vid=877155ab-f977-4fad-bc28-a51546ffe9de"},"vehicle_type_id":"4","last_reported":1747156180,"current_range_meters":1200,"station_id":"ce4bhgp2rcd13ifvqfc0","pricing_plan_id":"cebpf4jnsgd1na2vs0mg"},{"bike_id":"b4fb1da7-2a07-4efc-80d8-65fed4b0bac9","system_id":"levelo_inurba_marseille","lat":43.26958,"lon":5.38633,"is_reserved":false,"is_disabled":true,"rental_uris":{"android":"levelo://app?vid=b4fb1da7-2a07-4efc-80d8-65fed4b0bac9","ios":"levelo://app?vid=b4fb1da7-2a07-4efc-80d8-65fed4b0bac9"},"vehicle_type_id":"4","last_reported":1747156180,"current_range_meters":1200,"station_id":"ce4bhh92rcd13ifvqfh0","pricing_plan_id":"cebpf4jnsgd1na2vs0mg"},{"bike_id":"f2770791-3161-47e4-8e90-9f438fb8a5c2","system_id":"levelo_inurba_marseille","lat":43.2706,"lon":5.4026,"is_reserved":false,"is_disabled":true,"rental_uris":{"android":"levelo://app?vid=f2770791-3161-47e4-8e90-9f438fb8a5c2","ios":"levelo://app?vid=f2770791-3161-47e4-8e90-9f438fb8a5c2"},"vehicle_type_id":"4","last_reported":1747156180,"current_range_meters":1200,"station_id":"ce4bhk92rcd13ifvqgc0","pricing_plan_id":"cebpf4jnsgd1na2vs0mg"},{"bike_id":"f31c8ee1-3a12-4877-b4ea-5feaadcb361e","system_id":"levelo_inurba_marseille","lat":43.31356,"lon":5.38492,"is_reserved":false,"is_disabled":true,"rental_uris":{"android":"levelo://app?vid=f31c8ee1-3a12-4877-b4ea-5feaadcb361e","ios":"levelo://app?vid=f31c8ee1-3a12-4877-b4ea-5feaadcb361e"},"vehicle_type_id":"4","last_reported":1747156180,"current_range_meters":1600,"station_id":"ce4bgt92rcd13ifvqcf0","pricing_plan_id":"cebpf4jnsgd1na2vs0mg"},{"bike_id":"55c21ea4-10f7-4fb6-ab8f-1e8c66d2fa37","system_id":"levelo_inurba_marseille","lat":43.29276,"lon":5.38427,"is_reserved":false,"is_disabled":true,"rental_uris":{"android":"levelo://app?vid=55c21ea4-10f7-4fb6-ab8f-1e8c66d2fa37","ios":"levelo://app?vid=55c21ea4-10f7-4fb6-ab8f-1e8c66d2fa37"},"vehicle_type_id":"4","last_reported":1747156180,"current_range_meters":1600,"station_id":"ce4bh692rcd13ifvqea0","pricing_plan_id":"cebpf4jnsgd1na2vs0mg"},{"bike_id":"11b56afd-b89e-4390-a6d6-36315a2712da","system_id":"levelo_inurba_marseille","lat":43.26555,"lon":5.37284,"is_reserved":false,"is_disabled":true,"rental_uris":{"android":"levelo://app?vid=11b56afd-b89e-4390-a6d6-36315a2712da","ios":"levelo://app?vid=11b56afd-b89e-4390-a6d6-36315a2712da"},"vehicle_type_id":"4","last_reported":1747156180,"current_range_meters":1600,"station_id":"ce4bhg12rcd13ifvqf70","pricing_plan_id":"cebpf4jnsgd1na2vs0mg"},{"bike_id":"7d4b7501-cac6-403e-90bb-390002322926","system_id":"levelo_inurba_marseille","lat":43.2781,"lon":5.40748,"is_reserved":false,"is_disabled":true,"rental_uris":{"android":"levelo://app?vid=7d4b7501-cac6-403e-90bb-390002322926","ios":"levelo://app?vid=7d4b7501-cac6-403e-90bb-390002322926"},"vehicle_type_id":"4","last_reported":1747156180,"current_range_meters":1600,"station_id":"ce4bhnh2rcd13ifvqgtg","pricing_plan_id":"cebpf4jnsgd1na2vs0mg"},{"bike_id":"f5d1bfce-e113-4742-888a-6eb121f13a53","system_id":"levelo_inurba_marseille","lat":43.279505,"lon":5.410448,"is_reserved":false,"is_disabled":true,"rental_uris":{"android":"levelo://app?vid=f5d1bfce-e113-4742-888a-6eb121f13a53","ios":"levelo://app?vid=f5d1bfce-e113-4742-888a-6eb121f13a53"},"vehicle_type_id":"4","last_reported":1747156180,"current_range_meters":1600,"station_id":"ce4bhnp2rcd13ifvqh0g","pricing_plan_id":"cebpf4jnsgd1na2vs0mg"},{"bike_id":"fe97520e-359d-4448-8466-e4beff0c6e7b","system_id":"levelo_inurba_marseille","lat":43.28704,"lon":5.39997,"is_reserved":false,"is_disabled":true,"rental_uris":{"android":"levelo://app?vid=fe97520e-359d-4448-8466-e4beff0c6e7b","ios":"levelo://app?vid=fe97520e-359d-4448-8466-e4beff0c6e7b"},"vehicle_type_id":"4","last_reported":1747156180,"current_range_meters":1600,"station_id":"ce4bho92rcd13ifvqh3g","pricing_plan_id":"cebpf4jnsgd1na2vs0mg"},{"bike_id":"57badf15-88cc-4eeb-8ff2-84ebdd053337","system_id":"levelo_inurba_marseille","lat":43.29969,"lon":5.38495,"is_reserved":false,"is_disabled":true,"rental_uris":{"android":"levelo://app?vid=57badf15-88cc-4eeb-8ff2-84ebdd053337","ios":"levelo://app?vid=57badf15-88cc-4eeb-8ff2-84ebdd053337"},"vehicle_type_id":"4","last_reported":1747156180,"current_range_meters":2000,"station_id":"ce4bgj92rcd13ifvqbd0","pricing_plan_id":"cebpf4jnsgd1na2vs0mg"},{"bike_id":"9ee37240-b59b-4b0b-bef3-1cf4905307c0","system_id":"levelo_inurba_marseille","lat":43.31078,"lon":5.38349,"is_reserved":false,"is_disabled":true,"rental_uris":{"android":"levelo://app?vid=9ee37240-b59b-4b0b-bef3-1cf4905307c0","ios":"levelo://app?vid=9ee37240-b59b-4b0b-bef3-1cf4905307c0"},"vehicle_type_id":"4","last_reported":1747156180,"current_range_meters":2000,"station_id":"ce4bgv92rcd13ifvqcr0","pricing_plan_id":"cebpf4jnsgd1na2vs0mg"},{"bike_id":"b93e0852-8f53-4af2-ae95-9df0dfc8c8e6","system_id":"levelo_inurba_marseille","lat":43.2511,"lon":5.40312,"is_reserved":false,"is_disabled":true,"rental_uris":{"android":"levelo://app?vid=b93e0852-8f53-4af2-ae95-9df0dfc8c8e6","ios":"levelo://app?vid=b93e0852-8f53-4af2-ae95-9df0dfc8c8e6"},"vehicle_type_id":"4","last_reported":1747156180,"current_range_meters":2000,"station_id":"ce4bhlh2rcd13ifvqgig","pricing_plan_id":"cebpf4jnsgd1na2vs0mg"},{"bike_id":"bf30935e-8bac-4a75-8df0-c53cfd35f3cb","system_id":"levelo_inurba_marseille","lat":43.2977,"lon":5.39347,"is_reserved":false,"is_disabled":true,"rental_uris":{"android":"levelo://app?vid=bf30935e-8bac-4a75-8df0-c53cfd35f3cb","ios":"levelo://app?vid=bf30935e-8bac-4a75-8df0-c53cfd35f3cb"},"vehicle_type_id":"4","last_reported":1747156180,"current_range_meters":2000,"station_id":"chh1huq6cuj3fo74tm60","pricing_plan_id":"cebpf4jnsgd1na2vs0mg"},{"bike_id":"74ce7741-5813-4b25-8268-d773ddb37d17","system_id":"levelo_inurba_marseille","lat":43.30329,"lon":5.43848,"is_reserved":false,"is_disabled":true,"rental_uris":{"android":"levelo://app?vid=74ce7741-5813-4b25-8268-d773ddb37d17","ios":"levelo://app?vid=74ce7741-5813-4b25-8268-d773ddb37d17"},"vehicle_type_id":"4","last_reported":1747156180,"current_range_meters":2800,"station_id":"","pricing_plan_id":"cebpf4jnsgd1na2vs0mg"},{"bike_id":"cfbef50e-dbd4-4984-a170-e7d84095c10b","system_id":"levelo_inurba_marseille","lat":43.2957,"lon":5.3996,"is_reserved":false,"is_disabled":false,"rental_uris":{"android":"levelo://app?vid=cfbef50e-dbd4-4984-a170-e7d84095c10b","ios":"levelo://app?vid=cfbef50e-dbd4-4984-a170-e7d84095c10b"},"vehicle_type_id":"4","last_reported":1747156180,"current_range_meters":2800,"station_id":"ce4bh312rcd13ifvqdj0","pricing_plan_id":"cebpf4jnsgd1na2vs0mg"},{"bike_id":"87521bad-54f6-4a27-ab8a-9df3ddc1636b","system_id":"levelo_inurba_marseille","lat":43.292525,"lon":5.394538,"is_reserved":false,"is_disabled":false,"rental_uris":{"android":"levelo://app?vid=87521bad-54f6-4a27-ab8a-9df3ddc1636b","ios":"levelo://app?vid=87521bad-54f6-4a27-ab8a-9df3ddc1636b"},"vehicle_type_id":"4","last_reported":1747156180,"current_range_meters":2800,"station_id":"ce4bh4p2rcd13ifvqe0g","pricing_plan_id":"cebpf4jnsgd1na2vs0mg"},{"bike_id":"7dd1c6f0-5bba-4226-8d61-762b603803e9","system_id":"levelo_inurba_marseille","lat":43.25585,"lon":5.38232,"is_reserved":false,"is_disabled":false,"rental_uris":{"android":"levelo://app?vid=7dd1c6f0-5bba-4226-8d61-762b603803e9","ios":"levelo://app?vid=7dd1c6f0-5bba-4226-8d61-762b603803e9"},"vehicle_type_id":"4","last_reported":1747156180,"current_range_meters":2800,"station_id":"ce4bhih2rcd13ifvqfs0","pricing_plan_id":"cebpf4jnsgd1na2vs0mg"},{"bike_id":"2fb35c88-32b7-45b8-bf70-51f85cee46d9","system_id":"levelo_inurba_marseille","lat":43.29804,"lon":5.38071,"is_reserved":false,"is_disabled":false,"rental_uris":{"android":"levelo://app?vid=2fb35c88-32b7-45b8-bf70-51f85cee46d9","ios":"levelo://app?vid=2fb35c88-32b7-45b8-bf70-51f85cee46d9"},"vehicle_type_id":"4","last_reported":1747156180,"current_range_meters":3200,"station_id":"ce4bgip2rcd13ifvqbb0","pricing_plan_id":"cebpf4jnsgd1na2vs0mg"},{"bike_id":"b3e75499-0496-4425-9bf5-b6143a617e71","system_id":"levelo_inurba_marseille","lat":43.28417,"lon":5.34985,"is_reserved":false,"is_disabled":false,"rental_uris":{"android":"levelo://app?vid=b3e75499-0496-4425-9bf5-b6143a617e71","ios":"levelo://app?vid=b3e75499-0496-4425-9bf5-b6143a617e71"},"vehicle_type_id":"4","last_reported":1747156180,"current_range_meters":3200,"station_id":"ce4bhbh2rcd13ifvqepg","pricing_plan_id":"cebpf4jnsgd1na2vs0mg"},{"bike_id":"4c5fe432-c95f-4866-8822-5772fbbd705b","system_id":"levelo_inurba_marseille","lat":43.25503,"lon":5.37656,"is_reserved":false,"is_disabled":false,"rental_uris":{"android":"levelo://app?vid=4c5fe432-c95f-4866-8822-5772fbbd705b","ios":"levelo://app?vid=4c5fe432-c95f-4866-8822-5772fbbd705b"},"vehicle_type_id":"4","last_reported":1747156180,"current_range_meters":3200,"station_id":"ce4bhh12rcd13ifvqff0","pricing_plan_id":"cebpf4jnsgd1na2vs0mg"},{"bike_id":"c28aca22-eb19-42b0-aaab-8a146036703e","system_id":"levelo_inurba_marseille","lat":43.26504,"lon":5.39537,"is_reserved":false,"is_disabled":false,"rental_uris":{"android":"levelo://app?vid=c28aca22-eb19-42b0-aaab-8a146036703e","ios":"levelo://app?vid=c28aca22-eb19-42b0-aaab-8a146036703e"},"vehicle_type_id":"4","last_reported":1747156180,"current_range_meters":3200,"station_id":"ce4bhi12rcd13ifvqfq0","pricing_plan_id":"cebpf4jnsgd1na2vs0mg"},{"bike_id":"865a1494-a569-423a-95ca-de809d558057","system_id":"levelo_inurba_marseille","lat":43.31804,"lon":5.36835,"is_reserved":false,"is_disabled":false,"rental_uris":{"android":"levelo://app?vid=865a1494-a569-423a-95ca-de809d558057","ios":"levelo://app?vid=865a1494-a569-423a-95ca-de809d558057"},"vehicle_type_id":"4","last_reported":1747156180,"current_range_meters":3600,"station_id":"","pricing_plan_id":"cebpf4jnsgd1na2vs0mg"},{"bike_id":"29a55b5f-1251-4f20-b2c8-2a725be7e300","system_id":"levelo_inurba_marseille","lat":43.25507,"lon":5.37646,"is_reserved":false,"is_disabled":false,"rental_uris":{"android":"levelo://app?vid=29a55b5f-1251-4f20-b2c8-2a725be7e300","ios":"levelo://app?vid=29a55b5f-1251-4f20-b2c8-2a725be7e300"},"vehicle_type_id":"4","last_reported":1747156180,"current_range_meters":3600,"station_id":"ce4bhh12rcd13ifvqff0","pricing_plan_id":"cebpf4jnsgd1na2vs0mg"},{"bike_id":"7b972455-3864-4368-bc9d-a28bc2d133e5","system_id":"levelo_inurba_marseille","lat":43.2559,"lon":5.38219,"is_reserved":false,"is_disabled":false,"rental_uris":{"android":"levelo://app?vid=7b972455-3864-4368-bc9d-a28bc2d133e5","ios":"levelo://app?vid=7b972455-3864-4368-bc9d-a28bc2d133e5"},"vehicle_type_id":"4","last_reported":1747156180,"current_range_meters":3600,"station_id":"ce4bhih2rcd13ifvqfs0","pricing_plan_id":"cebpf4jnsgd1na2vs0mg"},{"bike_id":"090f50be-6c2b-4ca5-8079-6bb2780be30a","system_id":"levelo_inurba_marseille","lat":43.30906,"lon":5.36844,"is_reserved":false,"is_disabled":false,"rental_uris":{"android":"levelo://app?vid=090f50be-6c2b-4ca5-8079-6bb2780be30a","ios":"levelo://app?vid=090f50be-6c2b-4ca5-8079-6bb2780be30a"},"vehicle_type_id":"4","last_reported":1747156180,"current_range_meters":4000,"station_id":"ce4bgn92rcd13ifvqbvg","pricing_plan_id":"cebpf4jnsgd1na2vs0mg"},{"bike_id":"ee30a91a-3068-4462-9738-292917ed587c","system_id":"levelo_inurba_marseille","lat":43.29281,"lon":5.40112,"is_reserved":false,"is_disabled":false,"rental_uris":{"android":"levelo://app?vid=ee30a91a-3068-4462-9738-292917ed587c","ios":"levelo://app?vid=ee30a91a-3068-4462-9738-292917ed587c"},"vehicle_type_id":"4","last_reported":1747156180,"current_range_meters":4000,"station_id":"ce4bh312rcd13ifvqdk0","pricing_plan_id":"cebpf4jnsgd1na2vs0mg"},{"bike_id":"f051cc11-b334-46bf-9982-6f43e861107d","system_id":"levelo_inurba_marseille","lat":43.288625,"lon":5.358556,"is_reserved":false,"is_disabled":false,"rental_uris":{"android":"levelo://app?vid=f051cc11-b334-46bf-9982-6f43e861107d","ios":"levelo://app?vid=f051cc11-b334-46bf-9982-6f43e861107d"},"vehicle_type_id":"4","last_reported":1747156180,"current_range_meters":4000,"station_id":"ce4bhb12rcd13ifvqem0","pricing_plan_id":"cebpf4jnsgd1na2vs0mg"},{"bike_id":"af3a3e53-4d5a-45b9-9355-bc523c2ddd74","system_id":"levelo_inurba_marseille","lat":43.29225,"lon":5.37507,"is_reserved":false,"is_disabled":false,"rental_uris":{"android":"levelo://app?vid=af3a3e53-4d5a-45b9-9355-bc523c2ddd74","ios":"levelo://app?vid=af3a3e53-4d5a-45b9-9355-bc523c2ddd74"},"vehicle_type_id":"4","last_reported":1747156180,"current_range_meters":4400,"station_id":"","pricing_plan_id":"cebpf4jnsgd1na2vs0mg"},{"bike_id":"9d1e9770-1526-4525-bdbf-b64c7731a069","system_id":"levelo_inurba_marseille","lat":43.28939,"lon":5.36627,"is_reserved":false,"is_disabled":false,"rental_uris":{"android":"levelo://app?vid=9d1e9770-1526-4525-bdbf-b64c7731a069","ios":"levelo://app?vid=9d1e9770-1526-4525-bdbf-b64c7731a069"},"vehicle_type_id":"4","last_reported":1747156180,"current_range_meters":4400,"station_id":"ce4bhap2rcd13ifvqek0","pricing_plan_id":"cebpf4jnsgd1na2vs0mg"},{"bike_id":"5472d981-e1fb-4327-b860-e88422efb0de","system_id":"levelo_inurba_marseille","lat":43.2827,"lon":5.35065,"is_reserved":false,"is_disabled":false,"rental_uris":{"android":"levelo://app?vid=5472d981-e1fb-4327-b860-e88422efb0de","ios":"levelo://app?vid=5472d981-e1fb-4327-b860-e88422efb0de"},"vehicle_type_id":"4","last_reported":1747156180,"current_range_meters":4400,"station_id":"ce4bhbp2rcd13ifvqerg","pricing_plan_id":"cebpf4jnsgd1na2vs0mg"},{"bike_id":"22b5b891-f9dc-4849-9cb7-652e4944e601","system_id":"levelo_inurba_marseille","lat":43.27812,"lon":5.40705,"is_reserved":false,"is_disabled":false,"rental_uris":{"android":"levelo://app?vid=22b5b891-f9dc-4849-9cb7-652e4944e601","ios":"levelo://app?vid=22b5b891-f9dc-4849-9cb7-652e4944e601"},"vehicle_type_id":"4","last_reported":1747156180,"current_range_meters":4400,"station_id":"ce4bhnh2rcd13ifvqgtg","pricing_plan_id":"cebpf4jnsgd1na2vs0mg"},{"bike_id":"54d0d152-a727-4203-b04b-7f8652f1c1c5","system_id":"levelo_inurba_marseille","lat":43.23194,"lon":5.35555,"is_reserved":false,"is_disabled":false,"rental_uris":{"android":"levelo://app?vid=54d0d152-a727-4203-b04b-7f8652f1c1c5","ios":"levelo://app?vid=54d0d152-a727-4203-b04b-7f8652f1c1c5"},"vehicle_type_id":"4","last_reported":1747156180,"current_range_meters":4400,"station_id":"ce4bhu92rcd13ifvqi70","pricing_plan_id":"cebpf4jnsgd1na2vs0mg"},{"bike_id":"89a5c76e-8b60-4ec8-aab9-40ad7fcad3c0","system_id":"levelo_inurba_marseille","lat":43.27622,"lon":5.36106,"is_reserved":false,"is_disabled":false,"rental_uris":{"android":"levelo://app?vid=89a5c76e-8b60-4ec8-aab9-40ad7fcad3c0","ios":"levelo://app?vid=89a5c76e-8b60-4ec8-aab9-40ad7fcad3c0"},"vehicle_type_id":"4","last_reported":1747156180,"current_range_meters":4800,"station_id":"ce4bgj92rcd13ifvqbe0","pricing_plan_id":"cebpf4jnsgd1na2vs0mg"},{"bike_id":"10cac3f4-b750-46ea-824f-dd5b9db78963","system_id":"levelo_inurba_marseille","lat":43.30537,"lon":5.36558,"is_reserved":false,"is_disabled":false,"rental_uris":{"android":"levelo://app?vid=10cac3f4-b750-46ea-824f-dd5b9db78963","ios":"levelo://app?vid=10cac3f4-b750-46ea-824f-dd5b9db78963"},"vehicle_type_id":"4","last_reported":1747156180,"current_range_meters":4800,"station_id":"ce4bgs12rcd13ifvqcag","pricing_plan_id":"cebpf4jnsgd1na2vs0mg"},{"bike_id":"63ac897e-3615-45a7-9e2a-77bb73e0355c","system_id":"levelo_inurba_marseille","lat":43.30883,"lon":5.39639,"is_reserved":false,"is_disabled":false,"rental_uris":{"android":"levelo://app?vid=63ac897e-3615-45a7-9e2a-77bb73e0355c","ios":"levelo://app?vid=63ac897e-3615-45a7-9e2a-77bb73e0355c"},"vehicle_type_id":"4","last_reported":1747156180,"current_range_meters":5600,"station_id":"ce4bh012rcd13ifvqcv0","pricing_plan_id":"cebpf4jnsgd1na2vs0mg"},{"bike_id":"703f07f1-f47c-4ab2-9da2-ada8cd774a5f","system_id":"levelo_inurba_marseille","lat":43.30131,"lon":5.39862,"is_reserved":false,"is_disabled":false,"rental_uris":{"android":"levelo://app?vid=703f07f1-f47c-4ab2-9da2-ada8cd774a5f","ios":"levelo://app?vid=703f07f1-f47c-4ab2-9da2-ada8cd774a5f"},"vehicle_type_id":"4","last_reported":1747156180,"current_range_meters":5600,"station_id":"ce4bh0h2rcd13ifvqd40","pricing_plan_id":"cebpf4jnsgd1na2vs0mg"},{"bike_id":"ddf88d05-6ba0-4fa1-b613-05a5c2b89ca9","system_id":"levelo_inurba_marseille","lat":43.30885,"lon":5.39658,"is_reserved":false,"is_disabled":false,"rental_uris":{"android":"levelo://app?vid=ddf88d05-6ba0-4fa1-b613-05a5c2b89ca9","ios":"levelo://app?vid=ddf88d05-6ba0-4fa1-b613-05a5c2b89ca9"},"vehicle_type_id":"4","last_reported":1747156180,"current_range_meters":6000,"station_id":"ce4bh012rcd13ifvqcv0","pricing_plan_id":"cebpf4jnsgd1na2vs0mg"},{"bike_id":"42d9b087-f18a-4e28-919a-6c4531598823","system_id":"levelo_inurba_marseille","lat":43.298756,"lon":5.389053,"is_reserved":false,"is_disabled":false,"rental_uris":{"android":"levelo://app?vid=42d9b087-f18a-4e28-919a-6c4531598823","ios":"levelo://app?vid=42d9b087-f18a-4e28-919a-6c4531598823"},"vehicle_type_id":"4","last_reported":1747156180,"current_range_meters":6400,"station_id":"ce4bh392rcd13ifvqdl0","pricing_plan_id":"cebpf4jnsgd1na2vs0mg"},{"bike_id":"9abbf851-5129-4606-a4ad-4858f943ce92","system_id":"levelo_inurba_marseille","lat":43.29168,"lon":5.37151,"is_reserved":false,"is_disabled":false,"rental_uris":{"android":"levelo://app?vid=9abbf851-5129-4606-a4ad-4858f943ce92","ios":"levelo://app?vid=9abbf851-5129-4606-a4ad-4858f943ce92"},"vehicle_type_id":"4","last_reported":1747156180,"current_range_meters":6400,"station_id":"ce4bha92rcd13ifvqeh0","pricing_plan_id":"cebpf4jnsgd1na2vs0mg"},{"bike_id":"6648c4e1-a4bc-48f9-9bd9-dc56e9e52e67","system_id":"levelo_inurba_marseille","lat":43.28855,"lon":5.35854,"is_reserved":false,"is_disabled":false,"rental_uris":{"android":"levelo://app?vid=6648c4e1-a4bc-48f9-9bd9-dc56e9e52e67","ios":"levelo://app?vid=6648c4e1-a4bc-48f9-9bd9-dc56e9e52e67"},"vehicle_type_id":"4","last_reported":1747156180,"current_range_meters":6400,"station_id":"ce4bhb12rcd13ifvqem0","pricing_plan_id":"cebpf4jnsgd1na2vs0mg"},{"bike_id":"dc48ff38-1a68-4c00-96e1-d971e8e196ff","system_id":"levelo_inurba_marseille","lat":43.2886,"lon":5.35851,"is_reserved":false,"is_disabled":false,"rental_uris":{"android":"levelo://app?vid=dc48ff38-1a68-4c00-96e1-d971e8e196ff","ios":"levelo://app?vid=dc48ff38-1a68-4c00-96e1-d971e8e196ff"},"vehicle_type_id":"4","last_reported":1747156180,"current_range_meters":6400,"station_id":"ce4bhb12rcd13ifvqem0","pricing_plan_id":"cebpf4jnsgd1na2vs0mg"},{"bike_id":"64d2553a-cb5d-432b-993b-dacf2e6d3b50","system_id":"levelo_inurba_marseille","lat":43.2922,"lon":5.36072,"is_reserved":false,"is_disabled":false,"rental_uris":{"android":"levelo://app?vid=64d2553a-cb5d-432b-993b-dacf2e6d3b50","ios":"levelo://app?vid=64d2553a-cb5d-432b-993b-dacf2e6d3b50"},"vehicle_type_id":"4","last_reported":1747156180,"current_range_meters":6400,"station_id":"ce4bhbh2rcd13ifvqeqg","pricing_plan_id":"cebpf4jnsgd1na2vs0mg"},{"bike_id":"ebf89b3c-92cf-4afd-929b-a8429327c141","system_id":"levelo_inurba_marseille","lat":43.30415,"lon":5.41292,"is_reserved":false,"is_disabled":false,"rental_uris":{"android":"levelo://app?vid=ebf89b3c-92cf-4afd-929b-a8429327c141","ios":"levelo://app?vid=ebf89b3c-92cf-4afd-929b-a8429327c141"},"vehicle_type_id":"4","last_reported":1747156180,"current_range_meters":6400,"station_id":"ce4bhop2rcd13ifvqh8g","pricing_plan_id":"cebpf4jnsgd1na2vs0mg"},{"bike_id":"92c26d64-3651-49b1-aab0-88f6585b2c48","system_id":"levelo_inurba_marseille","lat":43.31359,"lon":5.38496,"is_reserved":false,"is_disabled":false,"rental_uris":{"android":"levelo://app?vid=92c26d64-3651-49b1-aab0-88f6585b2c48","ios":"levelo://app?vid=92c26d64-3651-49b1-aab0-88f6585b2c48"},"vehicle_type_id":"4","last_reported":1747156180,"current_range_meters":6800,"station_id":"ce4bgt92rcd13ifvqcf0","pricing_plan_id":"cebpf4jnsgd1na2vs0mg"},{"bike_id":"0d014c69-9c81-43d6-b092-a34bc1006994","system_id":"levelo_inurba_marseille","lat":43.30122,"lon":5.3986,"is_reserved":false,"is_disabled":false,"rental_uris":{"android":"levelo://app?vid=0d014c69-9c81-43d6-b092-a34bc1006994","ios":"levelo://app?vid=0d014c69-9c81-43d6-b092-a34bc1006994"},"vehicle_type_id":"4","last_reported":1747156180,"current_range_meters":6800,"station_id":"ce4bh0h2rcd13ifvqd40","pricing_plan_id":"cebpf4jnsgd1na2vs0mg"},{"bike_id":"597e7865-b942-4532-81ea-d2c26c4cbf33","system_id":"levelo_inurba_marseille","lat":43.24072,"lon":5.37767,"is_reserved":false,"is_disabled":false,"rental_uris":{"android":"levelo://app?vid=597e7865-b942-4532-81ea-d2c26c4cbf33","ios":"levelo://app?vid=597e7865-b942-4532-81ea-d2c26c4cbf33"},"vehicle_type_id":"4","last_reported":1747156180,"current_range_meters":6800,"station_id":"ce4bhnp2rcd13ifvqgvg","pricing_plan_id":"cebpf4jnsgd1na2vs0mg"},{"bike_id":"c009d4e7-c4e5-4086-9854-870649aa7fc4","system_id":"levelo_inurba_marseille","lat":43.23064,"lon":5.3549,"is_reserved":false,"is_disabled":false,"rental_uris":{"android":"levelo://app?vid=c009d4e7-c4e5-4086-9854-870649aa7fc4","ios":"levelo://app?vid=c009d4e7-c4e5-4086-9854-870649aa7fc4"},"vehicle_type_id":"4","last_reported":1747156180,"current_range_meters":6800,"station_id":"cpo3342slgdg3j2ifvpg","pricing_plan_id":"cebpf4jnsgd1na2vs0mg"},{"bike_id":"0623dc42-c47a-40c1-ad62-8253941490b6","system_id":"levelo_inurba_marseille","lat":43.31451,"lon":5.37376,"is_reserved":false,"is_disabled":false,"rental_uris":{"android":"levelo://app?vid=0623dc42-c47a-40c1-ad62-8253941490b6","ios":"levelo://app?vid=0623dc42-c47a-40c1-ad62-8253941490b6"},"vehicle_type_id":"4","last_reported":1747156180,"current_range_meters":7200,"station_id":"","pricing_plan_id":"cebpf4jnsgd1na2vs0mg"},{"bike_id":"0f585387-87e9-4ff8-b1d7-ca8427102f12","system_id":"levelo_inurba_marseille","lat":43.30948,"lon":5.39028,"is_reserved":false,"is_disabled":false,"rental_uris":{"android":"levelo://app?vid=0f585387-87e9-4ff8-b1d7-ca8427102f12","ios":"levelo://app?vid=0f585387-87e9-4ff8-b1d7-ca8427102f12"},"vehicle_type_id":"4","last_reported":1747156180,"current_range_meters":7200,"station_id":"ce4bgup2rcd13ifvqco0","pricing_plan_id":"cebpf4jnsgd1na2vs0mg"},{"bike_id":"643bfb58-6a8c-43c3-bdcc-739fdfe7b1db","system_id":"levelo_inurba_marseille","lat":43.30775,"lon":5.37663,"is_reserved":false,"is_disabled":false,"rental_uris":{"android":"levelo://app?vid=643bfb58-6a8c-43c3-bdcc-739fdfe7b1db","ios":"levelo://app?vid=643bfb58-6a8c-43c3-bdcc-739fdfe7b1db"},"vehicle_type_id":"4","last_reported":1747156180,"current_range_meters":7200,"station_id":"ce4bgv92rcd13ifvqcq0","pricing_plan_id":"cebpf4jnsgd1na2vs0mg"},{"bike_id":"c4786ded-3433-45df-b69f-aad4168b36d3","system_id":"levelo_inurba_marseille","lat":43.29222,"lon":5.36062,"is_reserved":false,"is_disabled":false,"rental_uris":{"android":"levelo://app?vid=c4786ded-3433-45df-b69f-aad4168b36d3","ios":"levelo://app?vid=c4786ded-3433-45df-b69f-aad4168b36d3"},"vehicle_type_id":"4","last_reported":1747156180,"current_range_meters":7200,"station_id":"ce4bhbh2rcd13ifvqeqg","pricing_plan_id":"cebpf4jnsgd1na2vs0mg"},{"bike_id":"9c7676e5-9efb-433b-a9cd-caa3d372070c","system_id":"levelo_inurba_marseille","lat":43.26783,"lon":5.39419,"is_reserved":false,"is_disabled":false,"rental_uris":{"android":"levelo://app?vid=9c7676e5-9efb-433b-a9cd-caa3d372070c","ios":"levelo://app?vid=9c7676e5-9efb-433b-a9cd-caa3d372070c"},"vehicle_type_id":"4","last_reported":1747156180,"current_range_meters":7200,"station_id":"ce4bhh12rcd13ifvqfg0","pricing_plan_id":"cebpf4jnsgd1na2vs0mg"},{"bike_id":"e486d79c-adad-4f84-8422-f92282ad57ce","system_id":"levelo_inurba_marseille","lat":43.27494,"lon":5.42453,"is_reserved":false,"is_disabled":false,"rental_uris":{"android":"levelo://app?vid=e486d79c-adad-4f84-8422-f92282ad57ce","ios":"levelo://app?vid=e486d79c-adad-4f84-8422-f92282ad57ce"},"vehicle_type_id":"4","last_reported":1747156180,"current_range_meters":7200,"station_id":"ce4bhn92rcd13ifvqgrg","pricing_plan_id":"cebpf4jnsgd1na2vs0mg"},{"bike_id":"b69b925f-64c1-488e-a5be-f5b24a137c47","system_id":"levelo_inurba_marseille","lat":43.29566,"lon":5.37516,"is_reserved":false,"is_disabled":false,"rental_uris":{"android":"levelo://app?vid=b69b925f-64c1-488e-a5be-f5b24a137c47","ios":"levelo://app?vid=b69b925f-64c1-488e-a5be-f5b24a137c47"},"vehicle_type_id":"4","last_reported":1747156180,"current_range_meters":8000,"station_id":"ce4bgh92rcd13ifvqb50","pricing_plan_id":"cebpf4jnsgd1na2vs0mg"},{"bike_id":"efccda69-0bd4-43ed-930a-0c81b856af35","system_id":"levelo_inurba_marseille","lat":43.28616,"lon":5.35103,"is_reserved":false,"is_disabled":false,"rental_uris":{"android":"levelo://app?vid=efccda69-0bd4-43ed-930a-0c81b856af35","ios":"levelo://app?vid=efccda69-0bd4-43ed-930a-0c81b856af35"},"vehicle_type_id":"4","last_reported":1747156180,"current_range_meters":8000,"station_id":"ce4bhch2rcd13ifvqeug","pricing_plan_id":"cebpf4jnsgd1na2vs0mg"},{"bike_id":"00cb21ec-7a90-456d-90a9-f2a720a5d244","system_id":"levelo_inurba_marseille","lat":43.26502,"lon":5.39532,"is_reserved":false,"is_disabled":false,"rental_uris":{"android":"levelo://app?vid=00cb21ec-7a90-456d-90a9-f2a720a5d244","ios":"levelo://app?vid=00cb21ec-7a90-456d-90a9-f2a720a5d244"},"vehicle_type_id":"4","last_reported":1747156180,"current_range_meters":8000,"station_id":"ce4bhi12rcd13ifvqfq0","pricing_plan_id":"cebpf4jnsgd1na2vs0mg"},{"bike_id":"8110e5ba-a6d2-4262-967b-a93928a38689","system_id":"levelo_inurba_marseille","lat":43.24803,"lon":5.37454,"is_reserved":false,"is_disabled":false,"rental_uris":{"android":"levelo://app?vid=8110e5ba-a6d2-4262-967b-a93928a38689","ios":"levelo://app?vid=8110e5ba-a6d2-4262-967b-a93928a38689"},"vehicle_type_id":"4","last_reported":1747156180,"current_range_meters":8400,"station_id":"","pricing_plan_id":"cebpf4jnsgd1na2vs0mg"},{"bike_id":"cbdb6b11-76f5-444a-9958-e91b020b5fc5","system_id":"levelo_inurba_marseille","lat":43.2919,"lon":5.35809,"is_reserved":false,"is_disabled":false,"rental_uris":{"android":"levelo://app?vid=cbdb6b11-76f5-444a-9958-e91b020b5fc5","ios":"levelo://app?vid=cbdb6b11-76f5-444a-9958-e91b020b5fc5"},"vehicle_type_id":"4","last_reported":1747156180,"current_range_meters":8400,"station_id":"ce4bhb12rcd13ifvqel0","pricing_plan_id":"cebpf4jnsgd1na2vs0mg"},{"bike_id":"135a6fbd-0c6a-486e-a7fd-6fca8c346b0f","system_id":"levelo_inurba_marseille","lat":43.26021,"lon":5.37558,"is_reserved":false,"is_disabled":false,"rental_uris":{"android":"levelo://app?vid=135a6fbd-0c6a-486e-a7fd-6fca8c346b0f","ios":"levelo://app?vid=135a6fbd-0c6a-486e-a7fd-6fca8c346b0f"},"vehicle_type_id":"4","last_reported":1747156180,"current_range_meters":8400,"station_id":"ce4bhgh2rcd13ifvqfa0","pricing_plan_id":"cebpf4jnsgd1na2vs0mg"},{"bike_id":"afb43d52-461d-43bf-8e94-31e613b696cf","system_id":"levelo_inurba_marseille","lat":43.28942,"lon":5.36638,"is_reserved":false,"is_disabled":false,"rental_uris":{"android":"levelo://app?vid=afb43d52-461d-43bf-8e94-31e613b696cf","ios":"levelo://app?vid=afb43d52-461d-43bf-8e94-31e613b696cf"},"vehicle_type_id":"4","last_reported":1747156180,"current_range_meters":8800,"station_id":"ce4bhap2rcd13ifvqek0","pricing_plan_id":"cebpf4jnsgd1na2vs0mg"},{"bike_id":"ba4b24ce-de5d-4dba-b212-eb988c3a8f3b","system_id":"levelo_inurba_marseille","lat":43.29189,"lon":5.358,"is_reserved":false,"is_disabled":false,"rental_uris":{"android":"levelo://app?vid=ba4b24ce-de5d-4dba-b212-eb988c3a8f3b","ios":"levelo://app?vid=ba4b24ce-de5d-4dba-b212-eb988c3a8f3b"},"vehicle_type_id":"4","last_reported":1747156180,"current_range_meters":8800,"station_id":"ce4bhb12rcd13ifvqel0","pricing_plan_id":"cebpf4jnsgd1na2vs0mg"},{"bike_id":"2662f1a5-817a-472a-942e-96930dccf995","system_id":"levelo_inurba_marseille","lat":43.246542,"lon":5.388984,"is_reserved":false,"is_disabled":false,"rental_uris":{"android":"levelo://app?vid=2662f1a5-817a-472a-942e-96930dccf995","ios":"levelo://app?vid=2662f1a5-817a-472a-942e-96930dccf995"},"vehicle_type_id":"4","last_reported":1747156180,"current_range_meters":8800,"station_id":"ce4bhg12rcd13ifvqf60","pricing_plan_id":"cebpf4jnsgd1na2vs0mg"},{"bike_id":"bd2e98e4-bb4d-46d2-b0b6-849c1b0345b5","system_id":"levelo_inurba_marseille","lat":43.292315,"lon":5.360664,"is_reserved":false,"is_disabled":false,"rental_uris":{"android":"levelo://app?vid=bd2e98e4-bb4d-46d2-b0b6-849c1b0345b5","ios":"levelo://app?vid=bd2e98e4-bb4d-46d2-b0b6-849c1b0345b5"},"vehicle_type_id":"4","last_reported":1747156180,"current_range_meters":9200,"station_id":"ce4bhbh2rcd13ifvqeqg","pricing_plan_id":"cebpf4jnsgd1na2vs0mg"},{"bike_id":"0e89a721-196d-4572-b905-e39e1dafff7a","system_id":"levelo_inurba_marseille","lat":43.32113,"lon":5.36774,"is_reserved":false,"is_disabled":false,"rental_uris":{"android":"levelo://app?vid=0e89a721-196d-4572-b905-e39e1dafff7a","ios":"levelo://app?vid=0e89a721-196d-4572-b905-e39e1dafff7a"},"vehicle_type_id":"4","last_reported":1747156180,"current_range_meters":9200,"station_id":"ce4bhrh2rcd13ifvqhug","pricing_plan_id":"cebpf4jnsgd1na2vs0mg"},{"bike_id":"d559a899-b1bd-4a71-a12e-4458bcd0cdbf","system_id":"levelo_inurba_marseille","lat":43.23059,"lon":5.35502,"is_reserved":false,"is_disabled":false,"rental_uris":{"android":"levelo://app?vid=d559a899-b1bd-4a71-a12e-4458bcd0cdbf","ios":"levelo://app?vid=d559a899-b1bd-4a71-a12e-4458bcd0cdbf"},"vehicle_type_id":"4","last_reported":1747156180,"current_range_meters":9200,"station_id":"cpo3342slgdg3j2ifvpg","pricing_plan_id":"cebpf4jnsgd1na2vs0mg"},{"bike_id":"8a255e11-7c7f-45a9-9397-2846883b843d","system_id":"levelo_inurba_marseille","lat":43.28933,"lon":5.36643,"is_reserved":false,"is_disabled":false,"rental_uris":{"android":"levelo://app?vid=8a255e11-7c7f-45a9-9397-2846883b843d","ios":"levelo://app?vid=8a255e11-7c7f-45a9-9397-2846883b843d"},"vehicle_type_id":"4","last_reported":1747156180,"current_range_meters":9600,"station_id":"ce4bhap2rcd13ifvqek0","pricing_plan_id":"cebpf4jnsgd1na2vs0mg"},{"bike_id":"ef610315-26cf-4b1f-b486-3c11a40b6d97","system_id":"levelo_inurba_marseille","lat":43.249098,"lon":5.374935,"is_reserved":false,"is_disabled":false,"rental_uris":{"android":"levelo://app?vid=ef610315-26cf-4b1f-b486-3c11a40b6d97","ios":"levelo://app?vid=ef610315-26cf-4b1f-b486-3c11a40b6d97"},"vehicle_type_id":"4","last_reported":1747156180,"current_range_meters":9600,"station_id":"ce4bhgh2rcd13ifvqfb0","pricing_plan_id":"cebpf4jnsgd1na2vs0mg"},{"bike_id":"fe5af662-0723-402d-88ea-658951051a58","system_id":"levelo_inurba_marseille","lat":43.27813,"lon":5.40707,"is_reserved":false,"is_disabled":false,"rental_uris":{"android":"levelo://app?vid=fe5af662-0723-402d-88ea-658951051a58","ios":"levelo://app?vid=fe5af662-0723-402d-88ea-658951051a58"},"vehicle_type_id":"4","last_reported":1747156180,"current_range_meters":9600,"station_id":"ce4bhnh2rcd13ifvqgtg","pricing_plan_id":"cebpf4jnsgd1na2vs0mg"},{"bike_id":"3c256b04-7cbb-4ae7-af03-f772a0887795","system_id":"levelo_inurba_marseille","lat":43.28413,"lon":5.3749,"is_reserved":false,"is_disabled":false,"rental_uris":{"android":"levelo://app?vid=3c256b04-7cbb-4ae7-af03-f772a0887795","ios":"levelo://app?vid=3c256b04-7cbb-4ae7-af03-f772a0887795"},"vehicle_type_id":"4","last_reported":1747156180,"current_range_meters":10000,"station_id":"ce4bh412rcd13ifvqds0","pricing_plan_id":"cebpf4jnsgd1na2vs0mg"},{"bike_id":"7681d85c-5131-42f1-b19c-59b02cb7f61e","system_id":"levelo_inurba_marseille","lat":43.29009,"lon":5.35613,"is_reserved":false,"is_disabled":false,"rental_uris":{"android":"levelo://app?vid=7681d85c-5131-42f1-b19c-59b02cb7f61e","ios":"levelo://app?vid=7681d85c-5131-42f1-b19c-59b02cb7f61e"},"vehicle_type_id":"4","last_reported":1747156180,"current_range_meters":10000,"station_id":"ce4bhb92rcd13ifvqen0","pricing_plan_id":"cebpf4jnsgd1na2vs0mg"},{"bike_id":"5235509c-f714-4b01-a70c-32262077ea9f","system_id":"levelo_inurba_marseille","lat":43.28619,"lon":5.35105,"is_reserved":false,"is_disabled":false,"rental_uris":{"android":"levelo://app?vid=5235509c-f714-4b01-a70c-32262077ea9f","ios":"levelo://app?vid=5235509c-f714-4b01-a70c-32262077ea9f"},"vehicle_type_id":"4","last_reported":1747156180,"current_range_meters":10000,"station_id":"ce4bhch2rcd13ifvqeug","pricing_plan_id":"cebpf4jnsgd1na2vs0mg"},{"bike_id":"b1cee023-e9cf-4aba-976a-4a02f8b28048","system_id":"levelo_inurba_marseille","lat":43.25585,"lon":5.38234,"is_reserved":false,"is_disabled":false,"rental_uris":{"android":"levelo://app?vid=b1cee023-e9cf-4aba-976a-4a02f8b28048","ios":"levelo://app?vid=b1cee023-e9cf-4aba-976a-4a02f8b28048"},"vehicle_type_id":"4","last_reported":1747156180,"current_range_meters":10000,"station_id":"ce4bhih2rcd13ifvqfs0","pricing_plan_id":"cebpf4jnsgd1na2vs0mg"},{"bike_id":"3f9b7946-2b45-4f45-93c3-c0418b274e80","system_id":"levelo_inurba_marseille","lat":43.25824,"lon":5.39435,"is_reserved":false,"is_disabled":false,"rental_uris":{"android":"levelo://app?vid=3f9b7946-2b45-4f45-93c3-c0418b274e80","ios":"levelo://app?vid=3f9b7946-2b45-4f45-93c3-c0418b274e80"},"vehicle_type_id":"4","last_reported":1747156180,"current_range_meters":10000,"station_id":"ce4bhip2rcd13ifvqft0","pricing_plan_id":"cebpf4jnsgd1na2vs0mg"},{"bike_id":"bcaac091-86e5-4fb3-a772-51ab114a0aa0","system_id":"levelo_inurba_marseille","lat":43.274933,"lon":5.424501,"is_reserved":false,"is_disabled":false,"rental_uris":{"android":"levelo://app?vid=bcaac091-86e5-4fb3-a772-51ab114a0aa0","ios":"levelo://app?vid=bcaac091-86e5-4fb3-a772-51ab114a0aa0"},"vehicle_type_id":"4","last_reported":1747156180,"current_range_meters":10000,"station_id":"ce4bhn92rcd13ifvqgrg","pricing_plan_id":"cebpf4jnsgd1na2vs0mg"},{"bike_id":"071dc53a-16a8-4c0c-8202-fbac26fce4e7","system_id":"levelo_inurba_marseille","lat":43.31171,"lon":5.38722,"is_reserved":false,"is_disabled":false,"rental_uris":{"android":"levelo://app?vid=071dc53a-16a8-4c0c-8202-fbac26fce4e7","ios":"levelo://app?vid=071dc53a-16a8-4c0c-8202-fbac26fce4e7"},"vehicle_type_id":"4","last_reported":1747156180,"current_range_meters":10800,"station_id":"ce4bgv12rcd13ifvqcp0","pricing_plan_id":"cebpf4jnsgd1na2vs0mg"},{"bike_id":"29fefc1f-e02f-455b-b674-51fe7776e87d","system_id":"levelo_inurba_marseille","lat":43.3013,"lon":5.39851,"is_reserved":false,"is_disabled":false,"rental_uris":{"android":"levelo://app?vid=29fefc1f-e02f-455b-b674-51fe7776e87d","ios":"levelo://app?vid=29fefc1f-e02f-455b-b674-51fe7776e87d"},"vehicle_type_id":"4","last_reported":1747156180,"current_range_meters":10800,"station_id":"ce4bh0h2rcd13ifvqd40","pricing_plan_id":"cebpf4jnsgd1na2vs0mg"},{"bike_id":"eed85bc4-ce66-47a9-88b9-f71538bbd2ef","system_id":"levelo_inurba_marseille","lat":43.28415,"lon":5.37517,"is_reserved":false,"is_disabled":false,"rental_uris":{"android":"levelo://app?vid=eed85bc4-ce66-47a9-88b9-f71538bbd2ef","ios":"levelo://app?vid=eed85bc4-ce66-47a9-88b9-f71538bbd2ef"},"vehicle_type_id":"4","last_reported":1747156180,"current_range_meters":10800,"station_id":"ce4bh412rcd13ifvqds0","pricing_plan_id":"cebpf4jnsgd1na2vs0mg"},{"bike_id":"b9814f8d-6a14-4681-95d1-768dcccb54ee","system_id":"levelo_inurba_marseille","lat":43.25583,"lon":5.38229,"is_reserved":false,"is_disabled":false,"rental_uris":{"android":"levelo://app?vid=b9814f8d-6a14-4681-95d1-768dcccb54ee","ios":"levelo://app?vid=b9814f8d-6a14-4681-95d1-768dcccb54ee"},"vehicle_type_id":"4","last_reported":1747156180,"current_range_meters":10800,"station_id":"ce4bhih2rcd13ifvqfs0","pricing_plan_id":"cebpf4jnsgd1na2vs0mg"},{"bike_id":"c76520cd-c528-43a4-b26b-22812e34f6db","system_id":"levelo_inurba_marseille","lat":43.28141,"lon":5.42652,"is_reserved":false,"is_disabled":false,"rental_uris":{"android":"levelo://app?vid=c76520cd-c528-43a4-b26b-22812e34f6db","ios":"levelo://app?vid=c76520cd-c528-43a4-b26b-22812e34f6db"},"vehicle_type_id":"4","last_reported":1747156180,"current_range_meters":10800,"station_id":"ce4bhnh2rcd13ifvqgug","pricing_plan_id":"cebpf4jnsgd1na2vs0mg"},{"bike_id":"9c6415ed-b3e1-45d4-97ca-1675bbf7d1d7","system_id":"levelo_inurba_marseille","lat":43.32339,"lon":5.40633,"is_reserved":false,"is_disabled":false,"rental_uris":{"android":"levelo://app?vid=9c6415ed-b3e1-45d4-97ca-1675bbf7d1d7","ios":"levelo://app?vid=9c6415ed-b3e1-45d4-97ca-1675bbf7d1d7"},"vehicle_type_id":"4","last_reported":1747156180,"current_range_meters":10800,"station_id":"ce4bhq92rcd13ifvqhjg","pricing_plan_id":"cebpf4jnsgd1na2vs0mg"},{"bike_id":"a5dc2898-72e5-4fd9-a64a-9d5f5e2b4d03","system_id":"levelo_inurba_marseille","lat":43.26203,"lon":5.37447,"is_reserved":false,"is_disabled":false,"rental_uris":{"android":"levelo://app?vid=a5dc2898-72e5-4fd9-a64a-9d5f5e2b4d03","ios":"levelo://app?vid=a5dc2898-72e5-4fd9-a64a-9d5f5e2b4d03"},"vehicle_type_id":"4","last_reported":1747156180,"current_range_meters":11200,"station_id":"ce4bhgp2rcd13ifvqfc0","pricing_plan_id":"cebpf4jnsgd1na2vs0mg"},{"bike_id":"4dc78298-0f15-438d-bc87-d3baa98121ad","system_id":"levelo_inurba_marseille","lat":43.23194,"lon":5.3556,"is_reserved":false,"is_disabled":false,"rental_uris":{"android":"levelo://app?vid=4dc78298-0f15-438d-bc87-d3baa98121ad","ios":"levelo://app?vid=4dc78298-0f15-438d-bc87-d3baa98121ad"},"vehicle_type_id":"4","last_reported":1747156180,"current_range_meters":11200,"station_id":"ce4bhu92rcd13ifvqi70","pricing_plan_id":"cebpf4jnsgd1na2vs0mg"},{"bike_id":"d842b4d3-0a9b-4056-9366-feb3f0b7009c","system_id":"levelo_inurba_marseille","lat":43.32277,"lon":5.41236,"is_reserved":false,"is_disabled":false,"rental_uris":{"android":"levelo://app?vid=d842b4d3-0a9b-4056-9366-feb3f0b7009c","ios":"levelo://app?vid=d842b4d3-0a9b-4056-9366-feb3f0b7009c"},"vehicle_type_id":"4","last_reported":1747156180,"current_range_meters":11600,"station_id":"","pricing_plan_id":"cebpf4jnsgd1na2vs0mg"},{"bike_id":"b45ae392-b01f-47f3-af38-007bdc6bcdae","system_id":"levelo_inurba_marseille","lat":43.29196,"lon":5.35816,"is_reserved":false,"is_disabled":false,"rental_uris":{"android":"levelo://app?vid=b45ae392-b01f-47f3-af38-007bdc6bcdae","ios":"levelo://app?vid=b45ae392-b01f-47f3-af38-007bdc6bcdae"},"vehicle_type_id":"4","last_reported":1747156180,"current_range_meters":11600,"station_id":"ce4bhb12rcd13ifvqel0","pricing_plan_id":"cebpf4jnsgd1na2vs0mg"},{"bike_id":"bae0709b-c933-441a-ab47-3aad58f66d78","system_id":"levelo_inurba_marseille","lat":43.21755,"lon":5.34608,"is_reserved":false,"is_disabled":false,"rental_uris":{"android":"levelo://app?vid=bae0709b-c933-441a-ab47-3aad58f66d78","ios":"levelo://app?vid=bae0709b-c933-441a-ab47-3aad58f66d78"},"vehicle_type_id":"4","last_reported":1747156180,"current_range_meters":11600,"station_id":"st_cvj6r9ubvosntc0bgbag","pricing_plan_id":"cebpf4jnsgd1na2vs0mg"},{"bike_id":"443a1ffb-8a91-483b-a3c2-d2f7c531b35f","system_id":"levelo_inurba_marseille","lat":43.29003,"lon":5.3561,"is_reserved":false,"is_disabled":false,"rental_uris":{"android":"levelo://app?vid=443a1ffb-8a91-483b-a3c2-d2f7c531b35f","ios":"levelo://app?vid=443a1ffb-8a91-483b-a3c2-d2f7c531b35f"},"vehicle_type_id":"4","last_reported":1747156180,"current_range_meters":12000,"station_id":"ce4bhb92rcd13ifvqen0","pricing_plan_id":"cebpf4jnsgd1na2vs0mg"},{"bike_id":"4d6112e7-c309-4d08-907c-70d59c1fabed","system_id":"levelo_inurba_marseille","lat":43.32288,"lon":5.38269,"is_reserved":false,"is_disabled":false,"rental_uris":{"android":"levelo://app?vid=4d6112e7-c309-4d08-907c-70d59c1fabed","ios":"levelo://app?vid=4d6112e7-c309-4d08-907c-70d59c1fabed"},"vehicle_type_id":"4","last_reported":1747156180,"current_range_meters":12000,"station_id":"ce4bhr12rcd13ifvqhqg","pricing_plan_id":"cebpf4jnsgd1na2vs0mg"},{"bike_id":"945aa848-6344-40b0-b2a0-2f608280fbdf","system_id":"levelo_inurba_marseille","lat":43.30598,"lon":5.37228,"is_reserved":false,"is_disabled":false,"rental_uris":{"android":"levelo://app?vid=945aa848-6344-40b0-b2a0-2f608280fbdf","ios":"levelo://app?vid=945aa848-6344-40b0-b2a0-2f608280fbdf"},"vehicle_type_id":"4","last_reported":1747156180,"current_range_meters":12400,"station_id":"ce4bgqh2rcd13ifvqc4g","pricing_plan_id":"cebpf4jnsgd1na2vs0mg"},{"bike_id":"1a9fb3b9-f1ca-49c6-a624-eaa272e2425a","system_id":"levelo_inurba_marseille","lat":43.309953,"lon":5.390924,"is_reserved":false,"is_disabled":false,"rental_uris":{"android":"levelo://app?vid=1a9fb3b9-f1ca-49c6-a624-eaa272e2425a","ios":"levelo://app?vid=1a9fb3b9-f1ca-49c6-a624-eaa272e2425a"},"vehicle_type_id":"4","last_reported":1747156180,"current_range_meters":12400,"station_id":"ce4bgup2rcd13ifvqco0","pricing_plan_id":"cebpf4jnsgd1na2vs0mg"},{"bike_id":"50b54b0e-7c47-4178-96be-6535d59dafc6","system_id":"levelo_inurba_marseille","lat":43.29037,"lon":5.39957,"is_reserved":false,"is_disabled":false,"rental_uris":{"android":"levelo://app?vid=50b54b0e-7c47-4178-96be-6535d59dafc6","ios":"levelo://app?vid=50b54b0e-7c47-4178-96be-6535d59dafc6"},"vehicle_type_id":"4","last_reported":1747156180,"current_range_meters":12400,"station_id":"ce4bh392rcd13ifvqdm0","pricing_plan_id":"cebpf4jnsgd1na2vs0mg"},{"bike_id":"12935323-4570-496d-a1b9-c81f5ea53732","system_id":"levelo_inurba_marseille","lat":43.24669,"lon":5.38152,"is_reserved":false,"is_disabled":false,"rental_uris":{"android":"levelo://app?vid=12935323-4570-496d-a1b9-c81f5ea53732","ios":"levelo://app?vid=12935323-4570-496d-a1b9-c81f5ea53732"},"vehicle_type_id":"4","last_reported":1747156180,"current_range_meters":12400,"station_id":"ce4bhih2rcd13ifvqfr0","pricing_plan_id":"cebpf4jnsgd1na2vs0mg"},{"bike_id":"b0242bf4-b83b-4d62-aa3e-64266801fbe9","system_id":"levelo_inurba_marseille","lat":43.31086,"lon":5.42433,"is_reserved":false,"is_disabled":false,"rental_uris":{"android":"levelo://app?vid=b0242bf4-b83b-4d62-aa3e-64266801fbe9","ios":"levelo://app?vid=b0242bf4-b83b-4d62-aa3e-64266801fbe9"},"vehicle_type_id":"4","last_reported":1747156180,"current_range_meters":12400,"station_id":"ce4bhp92rcd13ifvqhag","pricing_plan_id":"cebpf4jnsgd1na2vs0mg"},{"bike_id":"3b95bce2-057f-4a39-95d2-75669eacf272","system_id":"levelo_inurba_marseille","lat":43.29308,"lon":5.37461,"is_reserved":false,"is_disabled":false,"rental_uris":{"android":"levelo://app?vid=3b95bce2-057f-4a39-95d2-75669eacf272","ios":"levelo://app?vid=3b95bce2-057f-4a39-95d2-75669eacf272"},"vehicle_type_id":"4","last_reported":1747156180,"current_range_meters":12800,"station_id":"ce4bgi12rcd13ifvqb70","pricing_plan_id":"cebpf4jnsgd1na2vs0mg"},{"bike_id":"2608a7c8-0fd7-43b0-a439-459129c7c655","system_id":"levelo_inurba_marseille","lat":43.25823,"lon":5.39437,"is_reserved":false,"is_disabled":false,"rental_uris":{"android":"levelo://app?vid=2608a7c8-0fd7-43b0-a439-459129c7c655","ios":"levelo://app?vid=2608a7c8-0fd7-43b0-a439-459129c7c655"},"vehicle_type_id":"4","last_reported":1747156180,"current_range_meters":12800,"station_id":"ce4bhip2rcd13ifvqft0","pricing_plan_id":"cebpf4jnsgd1na2vs0mg"},{"bike_id":"9707d057-042b-4b0f-97c7-74439c91b61f","system_id":"levelo_inurba_marseille","lat":43.31083,"lon":5.42421,"is_reserved":false,"is_disabled":false,"rental_uris":{"android":"levelo://app?vid=9707d057-042b-4b0f-97c7-74439c91b61f","ios":"levelo://app?vid=9707d057-042b-4b0f-97c7-74439c91b61f"},"vehicle_type_id":"4","last_reported":1747156180,"current_range_meters":12800,"station_id":"ce4bhp92rcd13ifvqhag","pricing_plan_id":"cebpf4jnsgd1na2vs0mg"},{"bike_id":"b02c1b95-60c7-4a19-8eb2-e9eef261ab5b","system_id":"levelo_inurba_marseille","lat":43.26941,"lon":5.40253,"is_reserved":false,"is_disabled":false,"rental_uris":{"android":"levelo://app?vid=b02c1b95-60c7-4a19-8eb2-e9eef261ab5b","ios":"levelo://app?vid=b02c1b95-60c7-4a19-8eb2-e9eef261ab5b"},"vehicle_type_id":"4","last_reported":1747156180,"current_range_meters":12800,"station_id":"cjm6bp8fraef2m0cb0m0","pricing_plan_id":"cebpf4jnsgd1na2vs0mg"},{"bike_id":"cae74d64-b109-4227-ac6b-b864d2620678","system_id":"levelo_inurba_marseille","lat":43.295383,"lon":5.393992,"is_reserved":false,"is_disabled":false,"rental_uris":{"android":"levelo://app?vid=cae74d64-b109-4227-ac6b-b864d2620678","ios":"levelo://app?vid=cae74d64-b109-4227-ac6b-b864d2620678"},"vehicle_type_id":"4","last_reported":1747156180,"current_range_meters":13600,"station_id":"","pricing_plan_id":"cebpf4jnsgd1na2vs0mg"},{"bike_id":"e2c031fc-3508-4cf2-858c-8eb3e231ddf0","system_id":"levelo_inurba_marseille","lat":43.29528,"lon":5.38541,"is_reserved":false,"is_disabled":false,"rental_uris":{"android":"levelo://app?vid=e2c031fc-3508-4cf2-858c-8eb3e231ddf0","ios":"levelo://app?vid=e2c031fc-3508-4cf2-858c-8eb3e231ddf0"},"vehicle_type_id":"4","last_reported":1747156180,"current_range_meters":13600,"station_id":"ce4bgih2rcd13ifvqba0","pricing_plan_id":"cebpf4jnsgd1na2vs0mg"},{"bike_id":"30a7833b-8763-4e13-8efa-7f2c3c10ca6c","system_id":"levelo_inurba_marseille","lat":43.31756,"lon":5.39018,"is_reserved":false,"is_disabled":false,"rental_uris":{"android":"levelo://app?vid=30a7833b-8763-4e13-8efa-7f2c3c10ca6c","ios":"levelo://app?vid=30a7833b-8763-4e13-8efa-7f2c3c10ca6c"},"vehicle_type_id":"4","last_reported":1747156180,"current_range_meters":13600,"station_id":"ce4bhqp2rcd13ifvqhng","pricing_plan_id":"cebpf4jnsgd1na2vs0mg"},{"bike_id":"2be2684a-ca45-458c-8165-0f00aaf1f7a8","system_id":"levelo_inurba_marseille","lat":43.3237,"lon":5.38884,"is_reserved":false,"is_disabled":false,"rental_uris":{"android":"levelo://app?vid=2be2684a-ca45-458c-8165-0f00aaf1f7a8","ios":"levelo://app?vid=2be2684a-ca45-458c-8165-0f00aaf1f7a8"},"vehicle_type_id":"4","last_reported":1747156180,"current_range_meters":13600,"station_id":"ce4bhqp2rcd13ifvqhog","pricing_plan_id":"cebpf4jnsgd1na2vs0mg"},{"bike_id":"382da604-28cd-407b-adb2-1bed2bb48c46","system_id":"levelo_inurba_marseille","lat":43.32275,"lon":5.38565,"is_reserved":false,"is_disabled":false,"rental_uris":{"android":"levelo://app?vid=382da604-28cd-407b-adb2-1bed2bb48c46","ios":"levelo://app?vid=382da604-28cd-407b-adb2-1bed2bb48c46"},"vehicle_type_id":"4","last_reported":1747156180,"current_range_meters":14000,"station_id":"","pricing_plan_id":"cebpf4jnsgd1na2vs0mg"},{"bike_id":"52912e76-3e32-4871-87a8-03ac0e2438fc","system_id":"levelo_inurba_marseille","lat":43.2963,"lon":5.37719,"is_reserved":false,"is_disabled":false,"rental_uris":{"android":"levelo://app?vid=52912e76-3e32-4871-87a8-03ac0e2438fc","ios":"levelo://app?vid=52912e76-3e32-4871-87a8-03ac0e2438fc"},"vehicle_type_id":"4","last_reported":1747156180,"current_range_meters":14000,"station_id":"ce4bgi92rcd13ifvqb90","pricing_plan_id":"cebpf4jnsgd1na2vs0mg"},{"bike_id":"76bcca4a-4878-4115-93f1-0b8e8ab33508","system_id":"levelo_inurba_marseille","lat":43.29197,"lon":5.35801,"is_reserved":false,"is_disabled":false,"rental_uris":{"android":"levelo://app?vid=76bcca4a-4878-4115-93f1-0b8e8ab33508","ios":"levelo://app?vid=76bcca4a-4878-4115-93f1-0b8e8ab33508"},"vehicle_type_id":"4","last_reported":1747156180,"current_range_meters":14000,"station_id":"ce4bhb12rcd13ifvqel0","pricing_plan_id":"cebpf4jnsgd1na2vs0mg"},{"bike_id":"0a937b37-2a73-4b79-bebe-c5952c78432f","system_id":"levelo_inurba_marseille","lat":43.286118,"lon":5.351008,"is_reserved":false,"is_disabled":false,"rental_uris":{"android":"levelo://app?vid=0a937b37-2a73-4b79-bebe-c5952c78432f","ios":"levelo://app?vid=0a937b37-2a73-4b79-bebe-c5952c78432f"},"vehicle_type_id":"4","last_reported":1747156180,"current_range_meters":14000,"station_id":"ce4bhch2rcd13ifvqeug","pricing_plan_id":"cebpf4jnsgd1na2vs0mg"},{"bike_id":"96421cc5-b448-40c0-8fb1-ed488012a127","system_id":"levelo_inurba_marseille","lat":43.2582,"lon":5.39436,"is_reserved":false,"is_disabled":false,"rental_uris":{"android":"levelo://app?vid=96421cc5-b448-40c0-8fb1-ed488012a127","ios":"levelo://app?vid=96421cc5-b448-40c0-8fb1-ed488012a127"},"vehicle_type_id":"4","last_reported":1747156180,"current_range_meters":14000,"station_id":"ce4bhip2rcd13ifvqft0","pricing_plan_id":"cebpf4jnsgd1na2vs0mg"},{"bike_id":"879a82ae-cfe1-42a4-939a-63364cdd6ed5","system_id":"levelo_inurba_marseille","lat":43.27053,"lon":5.40266,"is_reserved":false,"is_disabled":false,"rental_uris":{"android":"levelo://app?vid=879a82ae-cfe1-42a4-939a-63364cdd6ed5","ios":"levelo://app?vid=879a82ae-cfe1-42a4-939a-63364cdd6ed5"},"vehicle_type_id":"4","last_reported":1747156180,"current_range_meters":14000,"station_id":"ce4bhk92rcd13ifvqgc0","pricing_plan_id":"cebpf4jnsgd1na2vs0mg"},{"bike_id":"b016f336-8b62-45d2-9a00-2383d0aae169","system_id":"levelo_inurba_marseille","lat":43.29047,"lon":5.35915,"is_reserved":false,"is_disabled":false,"rental_uris":{"android":"levelo://app?vid=b016f336-8b62-45d2-9a00-2383d0aae169","ios":"levelo://app?vid=b016f336-8b62-45d2-9a00-2383d0aae169"},"vehicle_type_id":"4","last_reported":1747156180,"current_range_meters":14400,"station_id":"ce4bha92rcd13ifvqeg0","pricing_plan_id":"cebpf4jnsgd1na2vs0mg"},{"bike_id":"77e2b8e1-05b4-4697-98dd-7f301d0dfb33","system_id":"levelo_inurba_marseille","lat":43.2901,"lon":5.35619,"is_reserved":false,"is_disabled":false,"rental_uris":{"android":"levelo://app?vid=77e2b8e1-05b4-4697-98dd-7f301d0dfb33","ios":"levelo://app?vid=77e2b8e1-05b4-4697-98dd-7f301d0dfb33"},"vehicle_type_id":"4","last_reported":1747156180,"current_range_meters":14400,"station_id":"ce4bhb92rcd13ifvqen0","pricing_plan_id":"cebpf4jnsgd1na2vs0mg"},{"bike_id":"0be8824e-6cbf-4946-bc34-93017f69d1b7","system_id":"levelo_inurba_marseille","lat":43.24661,"lon":5.38165,"is_reserved":false,"is_disabled":false,"rental_uris":{"android":"levelo://app?vid=0be8824e-6cbf-4946-bc34-93017f69d1b7","ios":"levelo://app?vid=0be8824e-6cbf-4946-bc34-93017f69d1b7"},"vehicle_type_id":"4","last_reported":1747156180,"current_range_meters":14400,"station_id":"ce4bhih2rcd13ifvqfr0","pricing_plan_id":"cebpf4jnsgd1na2vs0mg"},{"bike_id":"3f5dbbca-6680-4ced-898e-bd8a09dc070f","system_id":"levelo_inurba_marseille","lat":43.298069,"lon":5.380964,"is_reserved":false,"is_disabled":false,"rental_uris":{"android":"levelo://app?vid=3f5dbbca-6680-4ced-898e-bd8a09dc070f","ios":"levelo://app?vid=3f5dbbca-6680-4ced-898e-bd8a09dc070f"},"vehicle_type_id":"4","last_reported":1747156180,"current_range_meters":14800,"station_id":"ce4bgip2rcd13ifvqbb0","pricing_plan_id":"cebpf4jnsgd1na2vs0mg"},{"bike_id":"30a7cb95-cef0-4a98-b330-d9bba06b5053","system_id":"levelo_inurba_marseille","lat":43.30429,"lon":5.39743,"is_reserved":false,"is_disabled":false,"rental_uris":{"android":"levelo://app?vid=30a7cb95-cef0-4a98-b330-d9bba06b5053","ios":"levelo://app?vid=30a7cb95-cef0-4a98-b330-d9bba06b5053"},"vehicle_type_id":"4","last_reported":1747156180,"current_range_meters":14800,"station_id":"ce4bh092rcd13ifvqd20","pricing_plan_id":"cebpf4jnsgd1na2vs0mg"},{"bike_id":"ee95d7b1-23aa-4ba2-8604-c3c7e16b2172","system_id":"levelo_inurba_marseille","lat":43.289493,"lon":5.366427,"is_reserved":false,"is_disabled":false,"rental_uris":{"android":"levelo://app?vid=ee95d7b1-23aa-4ba2-8604-c3c7e16b2172","ios":"levelo://app?vid=ee95d7b1-23aa-4ba2-8604-c3c7e16b2172"},"vehicle_type_id":"4","last_reported":1747156180,"current_range_meters":14800,"station_id":"ce4bhap2rcd13ifvqek0","pricing_plan_id":"cebpf4jnsgd1na2vs0mg"},{"bike_id":"4c9efc29-aaf8-4cf9-8666-6e7f3bbfe0a7","system_id":"levelo_inurba_marseille","lat":43.28621,"lon":5.35107,"is_reserved":false,"is_disabled":false,"rental_uris":{"android":"levelo://app?vid=4c9efc29-aaf8-4cf9-8666-6e7f3bbfe0a7","ios":"levelo://app?vid=4c9efc29-aaf8-4cf9-8666-6e7f3bbfe0a7"},"vehicle_type_id":"4","last_reported":1747156180,"current_range_meters":14800,"station_id":"ce4bhch2rcd13ifvqeug","pricing_plan_id":"cebpf4jnsgd1na2vs0mg"},{"bike_id":"113e1aef-5ba6-47e1-8e1d-4644048f97c1","system_id":"levelo_inurba_marseille","lat":43.26027,"lon":5.37549,"is_reserved":false,"is_disabled":false,"rental_uris":{"android":"levelo://app?vid=113e1aef-5ba6-47e1-8e1d-4644048f97c1","ios":"levelo://app?vid=113e1aef-5ba6-47e1-8e1d-4644048f97c1"},"vehicle_type_id":"4","last_reported":1747156180,"current_range_meters":14800,"station_id":"ce4bhgh2rcd13ifvqfa0","pricing_plan_id":"cebpf4jnsgd1na2vs0mg"},{"bike_id":"12431e31-acb3-445e-9c94-eaff9e4821a8","system_id":"levelo_inurba_marseille","lat":43.28156,"lon":5.42647,"is_reserved":false,"is_disabled":false,"rental_uris":{"android":"levelo://app?vid=12431e31-acb3-445e-9c94-eaff9e4821a8","ios":"levelo://app?vid=12431e31-acb3-445e-9c94-eaff9e4821a8"},"vehicle_type_id":"4","last_reported":1747156180,"current_range_meters":14800,"station_id":"ce4bhnh2rcd13ifvqgug","pricing_plan_id":"cebpf4jnsgd1na2vs0mg"},{"bike_id":"b12b9c72-1d54-40a4-841a-acc4db67a318","system_id":"levelo_inurba_marseille","lat":43.297869,"lon":5.393426,"is_reserved":false,"is_disabled":false,"rental_uris":{"android":"levelo://app?vid=b12b9c72-1d54-40a4-841a-acc4db67a318","ios":"levelo://app?vid=b12b9c72-1d54-40a4-841a-acc4db67a318"},"vehicle_type_id":"4","last_reported":1747156180,"current_range_meters":14800,"station_id":"chh1huq6cuj3fo74tm60","pricing_plan_id":"cebpf4jnsgd1na2vs0mg"},{"bike_id":"f2ac9e7e-8a5d-4f7a-8c94-01dfc41e4a70","system_id":"levelo_inurba_marseille","lat":43.29571,"lon":5.37528,"is_reserved":false,"is_disabled":false,"rental_uris":{"android":"levelo://app?vid=f2ac9e7e-8a5d-4f7a-8c94-01dfc41e4a70","ios":"levelo://app?vid=f2ac9e7e-8a5d-4f7a-8c94-01dfc41e4a70"},"vehicle_type_id":"4","last_reported":1747156180,"current_range_meters":15200,"station_id":"ce4bgh92rcd13ifvqb50","pricing_plan_id":"cebpf4jnsgd1na2vs0mg"},{"bike_id":"af7378f2-5574-4580-8919-9220d94ad1cc","system_id":"levelo_inurba_marseille","lat":43.23193,"lon":5.35561,"is_reserved":false,"is_disabled":false,"rental_uris":{"android":"levelo://app?vid=af7378f2-5574-4580-8919-9220d94ad1cc","ios":"levelo://app?vid=af7378f2-5574-4580-8919-9220d94ad1cc"},"vehicle_type_id":"4","last_reported":1747156180,"current_range_meters":15200,"station_id":"ce4bhu92rcd13ifvqi70","pricing_plan_id":"cebpf4jnsgd1na2vs0mg"},{"bike_id":"fcf0b2cd-a150-4510-ae17-a07ca9d6223c","system_id":"levelo_inurba_marseille","lat":43.31717,"lon":5.37741,"is_reserved":false,"is_disabled":false,"rental_uris":{"android":"levelo://app?vid=fcf0b2cd-a150-4510-ae17-a07ca9d6223c","ios":"levelo://app?vid=fcf0b2cd-a150-4510-ae17-a07ca9d6223c"},"vehicle_type_id":"4","last_reported":1747156180,"current_range_meters":16000,"station_id":"ce4bgth2rcd13ifvqch0","pricing_plan_id":"cebpf4jnsgd1na2vs0mg"},{"bike_id":"f003946e-3ef8-44f5-80b5-3948c29f4679","system_id":"levelo_inurba_marseille","lat":43.3013,"lon":5.39865,"is_reserved":false,"is_disabled":false,"rental_uris":{"android":"levelo://app?vid=f003946e-3ef8-44f5-80b5-3948c29f4679","ios":"levelo://app?vid=f003946e-3ef8-44f5-80b5-3948c29f4679"},"vehicle_type_id":"4","last_reported":1747156180,"current_range_meters":16000,"station_id":"ce4bh0h2rcd13ifvqd40","pricing_plan_id":"cebpf4jnsgd1na2vs0mg"},{"bike_id":"022dc5a3-2838-4bcb-9561-410ea35be7f2","system_id":"levelo_inurba_marseille","lat":43.29204,"lon":5.39333,"is_reserved":false,"is_disabled":false,"rental_uris":{"android":"levelo://app?vid=022dc5a3-2838-4bcb-9561-410ea35be7f2","ios":"levelo://app?vid=022dc5a3-2838-4bcb-9561-410ea35be7f2"},"vehicle_type_id":"4","last_reported":1747156180,"current_range_meters":16000,"station_id":"ce4bh192rcd13ifvqdd0","pricing_plan_id":"cebpf4jnsgd1na2vs0mg"},{"bike_id":"258e0742-a011-4316-af26-b3a388a84f7c","system_id":"levelo_inurba_marseille","lat":43.2886,"lon":5.35849,"is_reserved":false,"is_disabled":false,"rental_uris":{"android":"levelo://app?vid=258e0742-a011-4316-af26-b3a388a84f7c","ios":"levelo://app?vid=258e0742-a011-4316-af26-b3a388a84f7c"},"vehicle_type_id":"4","last_reported":1747156180,"current_range_meters":16000,"station_id":"ce4bhb12rcd13ifvqem0","pricing_plan_id":"cebpf4jnsgd1na2vs0mg"},{"bike_id":"f95230f4-f118-44ea-a918-399bb1458151","system_id":"levelo_inurba_marseille","lat":43.29004,"lon":5.35616,"is_reserved":false,"is_disabled":false,"rental_uris":{"android":"levelo://app?vid=f95230f4-f118-44ea-a918-399bb1458151","ios":"levelo://app?vid=f95230f4-f118-44ea-a918-399bb1458151"},"vehicle_type_id":"4","last_reported":1747156180,"current_range_meters":16000,"station_id":"ce4bhb92rcd13ifvqen0","pricing_plan_id":"cebpf4jnsgd1na2vs0mg"},{"bike_id":"83815269-ccc9-4ffd-9639-72783260975b","system_id":"levelo_inurba_marseille","lat":43.28619,"lon":5.35104,"is_reserved":false,"is_disabled":false,"rental_uris":{"android":"levelo://app?vid=83815269-ccc9-4ffd-9639-72783260975b","ios":"levelo://app?vid=83815269-ccc9-4ffd-9639-72783260975b"},"vehicle_type_id":"4","last_reported":1747156180,"current_range_meters":16000,"station_id":"ce4bhch2rcd13ifvqeug","pricing_plan_id":"cebpf4jnsgd1na2vs0mg"},{"bike_id":"09515db7-9738-4001-b87c-9371c34a4a1f","system_id":"levelo_inurba_marseille","lat":43.2782,"lon":5.39931,"is_reserved":false,"is_disabled":false,"rental_uris":{"android":"levelo://app?vid=09515db7-9738-4001-b87c-9371c34a4a1f","ios":"levelo://app?vid=09515db7-9738-4001-b87c-9371c34a4a1f"},"vehicle_type_id":"4","last_reported":1747156180,"current_range_meters":16400,"station_id":"","pricing_plan_id":"cebpf4jnsgd1na2vs0mg"},{"bike_id":"42cfaabc-d4d4-405c-ab84-52ce3ce3032a","system_id":"levelo_inurba_marseille","lat":43.31705,"lon":5.43614,"is_reserved":false,"is_disabled":false,"rental_uris":{"android":"levelo://app?vid=42cfaabc-d4d4-405c-ab84-52ce3ce3032a","ios":"levelo://app?vid=42cfaabc-d4d4-405c-ab84-52ce3ce3032a"},"vehicle_type_id":"4","last_reported":1747156180,"current_range_meters":16400,"station_id":"","pricing_plan_id":"cebpf4jnsgd1na2vs0mg"},{"bike_id":"801e2789-ff6d-45c5-b5a3-054a66e49daf","system_id":"levelo_inurba_marseille","lat":43.31331,"lon":5.39708,"is_reserved":false,"is_disabled":false,"rental_uris":{"android":"levelo://app?vid=801e2789-ff6d-45c5-b5a3-054a66e49daf","ios":"levelo://app?vid=801e2789-ff6d-45c5-b5a3-054a66e49daf"},"vehicle_type_id":"4","last_reported":1747156180,"current_range_meters":16400,"station_id":"ce4bgvp2rcd13ifvqcu0","pricing_plan_id":"cebpf4jnsgd1na2vs0mg"},{"bike_id":"6f9f77b9-8143-4bca-bf11-432e9dd9eec8","system_id":"levelo_inurba_marseille","lat":43.30211,"lon":5.39478,"is_reserved":false,"is_disabled":false,"rental_uris":{"android":"levelo://app?vid=6f9f77b9-8143-4bca-bf11-432e9dd9eec8","ios":"levelo://app?vid=6f9f77b9-8143-4bca-bf11-432e9dd9eec8"},"vehicle_type_id":"4","last_reported":1747156180,"current_range_meters":16400,"station_id":"ce4bh0p2rcd13ifvqd70","pricing_plan_id":"cebpf4jnsgd1na2vs0mg"},{"bike_id":"59609d05-15e0-4642-802e-797c1395d3d1","system_id":"levelo_inurba_marseille","lat":43.279878,"lon":5.400036,"is_reserved":false,"is_disabled":false,"rental_uris":{"android":"levelo://app?vid=59609d05-15e0-4642-802e-797c1395d3d1","ios":"levelo://app?vid=59609d05-15e0-4642-802e-797c1395d3d1"},"vehicle_type_id":"4","last_reported":1747156180,"current_range_meters":16400,"station_id":"ce4bho92rcd13ifvqh4g","pricing_plan_id":"cebpf4jnsgd1na2vs0mg"},{"bike_id":"9d76660f-c284-49a2-8765-48337aa51471","system_id":"levelo_inurba_marseille","lat":43.321077,"lon":5.367756,"is_reserved":false,"is_disabled":false,"rental_uris":{"android":"levelo://app?vid=9d76660f-c284-49a2-8765-48337aa51471","ios":"levelo://app?vid=9d76660f-c284-49a2-8765-48337aa51471"},"vehicle_type_id":"4","last_reported":1747156180,"current_range_meters":16400,"station_id":"ce4bhrh2rcd13ifvqhug","pricing_plan_id":"cebpf4jnsgd1na2vs0mg"},{"bike_id":"a3fd3e9f-7711-4890-bcf4-65117b504e6b","system_id":"levelo_inurba_marseille","lat":43.29325,"lon":5.41153,"is_reserved":false,"is_disabled":false,"rental_uris":{"android":"levelo://app?vid=a3fd3e9f-7711-4890-bcf4-65117b504e6b","ios":"levelo://app?vid=a3fd3e9f-7711-4890-bcf4-65117b504e6b"},"vehicle_type_id":"4","last_reported":1747156180,"current_range_meters":16800,"station_id":"","pricing_plan_id":"cebpf4jnsgd1na2vs0mg"},{"bike_id":"e29fe6b3-48d2-41a1-aa71-c6b196ca7da6","system_id":"levelo_inurba_marseille","lat":43.2738,"lon":5.36259,"is_reserved":false,"is_disabled":false,"rental_uris":{"android":"levelo://app?vid=e29fe6b3-48d2-41a1-aa71-c6b196ca7da6","ios":"levelo://app?vid=e29fe6b3-48d2-41a1-aa71-c6b196ca7da6"},"vehicle_type_id":"4","last_reported":1747156180,"current_range_meters":16800,"station_id":"ce4bhbh2rcd13ifvqeo0","pricing_plan_id":"cebpf4jnsgd1na2vs0mg"},{"bike_id":"e8f8ac4d-ba3e-4f06-9dc1-dfb3141a9751","system_id":"levelo_inurba_marseille","lat":43.28613,"lon":5.35096,"is_reserved":false,"is_disabled":false,"rental_uris":{"android":"levelo://app?vid=e8f8ac4d-ba3e-4f06-9dc1-dfb3141a9751","ios":"levelo://app?vid=e8f8ac4d-ba3e-4f06-9dc1-dfb3141a9751"},"vehicle_type_id":"4","last_reported":1747156180,"current_range_meters":16800,"station_id":"ce4bhch2rcd13ifvqeug","pricing_plan_id":"cebpf4jnsgd1na2vs0mg"},{"bike_id":"ebbb3db5-66b4-4907-9a7b-ed749cb4c62b","system_id":"levelo_inurba_marseille","lat":43.317547,"lon":5.390137,"is_reserved":false,"is_disabled":false,"rental_uris":{"android":"levelo://app?vid=ebbb3db5-66b4-4907-9a7b-ed749cb4c62b","ios":"levelo://app?vid=ebbb3db5-66b4-4907-9a7b-ed749cb4c62b"},"vehicle_type_id":"4","last_reported":1747156180,"current_range_meters":16800,"station_id":"ce4bhqp2rcd13ifvqhng","pricing_plan_id":"cebpf4jnsgd1na2vs0mg"},{"bike_id":"1e297e0e-a907-489c-9a22-1dfb89bfb64f","system_id":"levelo_inurba_marseille","lat":43.29277,"lon":5.36412,"is_reserved":false,"is_disabled":false,"rental_uris":{"android":"levelo://app?vid=1e297e0e-a907-489c-9a22-1dfb89bfb64f","ios":"levelo://app?vid=1e297e0e-a907-489c-9a22-1dfb89bfb64f"},"vehicle_type_id":"4","last_reported":1747156180,"current_range_meters":17200,"station_id":"","pricing_plan_id":"cebpf4jnsgd1na2vs0mg"},{"bike_id":"0c893fb7-8626-4706-85bf-f404b871dea5","system_id":"levelo_inurba_marseille","lat":43.281228,"lon":5.446007,"is_reserved":false,"is_disabled":false,"rental_uris":{"android":"levelo://app?vid=0c893fb7-8626-4706-85bf-f404b871dea5","ios":"levelo://app?vid=0c893fb7-8626-4706-85bf-f404b871dea5"},"vehicle_type_id":"4","last_reported":1747156180,"current_range_meters":17200,"station_id":"","pricing_plan_id":"cebpf4jnsgd1na2vs0mg"},{"bike_id":"46208bd9-0425-4a7a-b325-e7549a509617","system_id":"levelo_inurba_marseille","lat":43.2558,"lon":5.38218,"is_reserved":false,"is_disabled":false,"rental_uris":{"android":"levelo://app?vid=46208bd9-0425-4a7a-b325-e7549a509617","ios":"levelo://app?vid=46208bd9-0425-4a7a-b325-e7549a509617"},"vehicle_type_id":"4","last_reported":1747156180,"current_range_meters":17200,"station_id":"ce4bhih2rcd13ifvqfs0","pricing_plan_id":"cebpf4jnsgd1na2vs0mg"},{"bike_id":"427a58bb-2e01-4b4b-beba-f8a3c9527667","system_id":"levelo_inurba_marseille","lat":43.337272,"lon":5.391832,"is_reserved":false,"is_disabled":false,"rental_uris":{"android":"levelo://app?vid=427a58bb-2e01-4b4b-beba-f8a3c9527667","ios":"levelo://app?vid=427a58bb-2e01-4b4b-beba-f8a3c9527667"},"vehicle_type_id":"4","last_reported":1747156180,"current_range_meters":17200,"station_id":"ce4bhr92rcd13ifvqhsg","pricing_plan_id":"cebpf4jnsgd1na2vs0mg"},{"bike_id":"40fe0e6a-47b8-4212-8be5-9dc70cd1771a","system_id":"levelo_inurba_marseille","lat":43.28155,"lon":5.42635,"is_reserved":false,"is_disabled":false,"rental_uris":{"android":"levelo://app?vid=40fe0e6a-47b8-4212-8be5-9dc70cd1771a","ios":"levelo://app?vid=40fe0e6a-47b8-4212-8be5-9dc70cd1771a"},"vehicle_type_id":"4","last_reported":1747156180,"current_range_meters":17600,"station_id":"ce4bhnh2rcd13ifvqgug","pricing_plan_id":"cebpf4jnsgd1na2vs0mg"},{"bike_id":"002a6858-03dd-4af7-b1d4-cdd9eda6dfed","system_id":"levelo_inurba_marseille","lat":43.29002,"lon":5.35613,"is_reserved":false,"is_disabled":false,"rental_uris":{"android":"levelo://app?vid=002a6858-03dd-4af7-b1d4-cdd9eda6dfed","ios":"levelo://app?vid=002a6858-03dd-4af7-b1d4-cdd9eda6dfed"},"vehicle_type_id":"4","last_reported":1747156180,"current_range_meters":18000,"station_id":"ce4bhb92rcd13ifvqen0","pricing_plan_id":"cebpf4jnsgd1na2vs0mg"},{"bike_id":"6edce6c1-b094-4cda-abd7-fbff14de039d","system_id":"levelo_inurba_marseille","lat":43.25583,"lon":5.38228,"is_reserved":false,"is_disabled":false,"rental_uris":{"android":"levelo://app?vid=6edce6c1-b094-4cda-abd7-fbff14de039d","ios":"levelo://app?vid=6edce6c1-b094-4cda-abd7-fbff14de039d"},"vehicle_type_id":"4","last_reported":1747156180,"current_range_meters":18000,"station_id":"ce4bhih2rcd13ifvqfs0","pricing_plan_id":"cebpf4jnsgd1na2vs0mg"},{"bike_id":"08ac9e52-4f13-4132-85d3-6ac4722c4900","system_id":"levelo_inurba_marseille","lat":43.28002,"lon":5.40018,"is_reserved":false,"is_disabled":false,"rental_uris":{"android":"levelo://app?vid=08ac9e52-4f13-4132-85d3-6ac4722c4900","ios":"levelo://app?vid=08ac9e52-4f13-4132-85d3-6ac4722c4900"},"vehicle_type_id":"4","last_reported":1747156180,"current_range_meters":18000,"station_id":"ce4bho92rcd13ifvqh4g","pricing_plan_id":"cebpf4jnsgd1na2vs0mg"},{"bike_id":"92879b20-8acd-4a9b-b941-978e8fe7ab8b","system_id":"levelo_inurba_marseille","lat":43.29033,"lon":5.38658,"is_reserved":false,"is_disabled":false,"rental_uris":{"android":"levelo://app?vid=92879b20-8acd-4a9b-b941-978e8fe7ab8b","ios":"levelo://app?vid=92879b20-8acd-4a9b-b941-978e8fe7ab8b"},"vehicle_type_id":"4","last_reported":1747156180,"current_range_meters":18800,"station_id":"ce4bh4p2rcd13ifvqe0g","pricing_plan_id":"cebpf4jnsgd1na2vs0mg"},{"bike_id":"e1a3a85c-b010-4c4b-92fe-7e51f68e2c91","system_id":"levelo_inurba_marseille","lat":43.29028,"lon":5.38654,"is_reserved":false,"is_disabled":false,"rental_uris":{"android":"levelo://app?vid=e1a3a85c-b010-4c4b-92fe-7e51f68e2c91","ios":"levelo://app?vid=e1a3a85c-b010-4c4b-92fe-7e51f68e2c91"},"vehicle_type_id":"4","last_reported":1747156180,"current_range_meters":18800,"station_id":"ce4bh4p2rcd13ifvqe0g","pricing_plan_id":"cebpf4jnsgd1na2vs0mg"},{"bike_id":"ba055cb6-1ef7-4a2b-be84-71dab1c0ecfd","system_id":"levelo_inurba_marseille","lat":43.31755,"lon":5.39017,"is_reserved":false,"is_disabled":false,"rental_uris":{"android":"levelo://app?vid=ba055cb6-1ef7-4a2b-be84-71dab1c0ecfd","ios":"levelo://app?vid=ba055cb6-1ef7-4a2b-be84-71dab1c0ecfd"},"vehicle_type_id":"4","last_reported":1747156180,"current_range_meters":18800,"station_id":"ce4bhqp2rcd13ifvqhng","pricing_plan_id":"cebpf4jnsgd1na2vs0mg"},{"bike_id":"6e3094ae-584b-4b23-8747-809792d486b5","system_id":"levelo_inurba_marseille","lat":43.21198,"lon":5.35085,"is_reserved":false,"is_disabled":false,"rental_uris":{"android":"levelo://app?vid=6e3094ae-584b-4b23-8747-809792d486b5","ios":"levelo://app?vid=6e3094ae-584b-4b23-8747-809792d486b5"},"vehicle_type_id":"4","last_reported":1747156180,"current_range_meters":18800,"station_id":"st_cvj6sg6p6f1abm77japg","pricing_plan_id":"cebpf4jnsgd1na2vs0mg"},{"bike_id":"3666cc74-1030-4917-9087-ee3126bf2cbf","system_id":"levelo_inurba_marseille","lat":43.30212,"lon":5.3946,"is_reserved":false,"is_disabled":false,"rental_uris":{"android":"levelo://app?vid=3666cc74-1030-4917-9087-ee3126bf2cbf","ios":"levelo://app?vid=3666cc74-1030-4917-9087-ee3126bf2cbf"},"vehicle_type_id":"4","last_reported":1747156180,"current_range_meters":19200,"station_id":"ce4bh0p2rcd13ifvqd70","pricing_plan_id":"cebpf4jnsgd1na2vs0mg"},{"bike_id":"4b4595a8-2e6d-4d63-b6f7-a33b8fadf047","system_id":"levelo_inurba_marseille","lat":43.29228,"lon":5.36067,"is_reserved":false,"is_disabled":false,"rental_uris":{"android":"levelo://app?vid=4b4595a8-2e6d-4d63-b6f7-a33b8fadf047","ios":"levelo://app?vid=4b4595a8-2e6d-4d63-b6f7-a33b8fadf047"},"vehicle_type_id":"4","last_reported":1747156180,"current_range_meters":19200,"station_id":"ce4bhbh2rcd13ifvqeqg","pricing_plan_id":"cebpf4jnsgd1na2vs0mg"},{"bike_id":"dc1e0912-2271-4a63-911b-db9a55762b5c","system_id":"levelo_inurba_marseille","lat":43.26499,"lon":5.39536,"is_reserved":false,"is_disabled":false,"rental_uris":{"android":"levelo://app?vid=dc1e0912-2271-4a63-911b-db9a55762b5c","ios":"levelo://app?vid=dc1e0912-2271-4a63-911b-db9a55762b5c"},"vehicle_type_id":"4","last_reported":1747156180,"current_range_meters":19200,"station_id":"ce4bhi12rcd13ifvqfq0","pricing_plan_id":"cebpf4jnsgd1na2vs0mg"},{"bike_id":"e409cd08-b9c4-4d62-aefb-05d029e2c480","system_id":"levelo_inurba_marseille","lat":43.30638,"lon":5.42789,"is_reserved":false,"is_disabled":false,"rental_uris":{"android":"levelo://app?vid=e409cd08-b9c4-4d62-aefb-05d029e2c480","ios":"levelo://app?vid=e409cd08-b9c4-4d62-aefb-05d029e2c480"},"vehicle_type_id":"4","last_reported":1747156180,"current_range_meters":19600,"station_id":"","pricing_plan_id":"cebpf4jnsgd1na2vs0mg"},{"bike_id":"3cde4a93-ac35-4817-94c5-7cca790624bd","system_id":"levelo_inurba_marseille","lat":43.29794,"lon":5.38107,"is_reserved":false,"is_disabled":false,"rental_uris":{"android":"levelo://app?vid=3cde4a93-ac35-4817-94c5-7cca790624bd","ios":"levelo://app?vid=3cde4a93-ac35-4817-94c5-7cca790624bd"},"vehicle_type_id":"4","last_reported":1747156180,"current_range_meters":19600,"station_id":"ce4bgip2rcd13ifvqbb0","pricing_plan_id":"cebpf4jnsgd1na2vs0mg"},{"bike_id":"77d1fd30-5b4c-4cd3-a0bb-c1a04b451f2e","system_id":"levelo_inurba_marseille","lat":43.293005,"lon":5.37125,"is_reserved":false,"is_disabled":false,"rental_uris":{"android":"levelo://app?vid=77d1fd30-5b4c-4cd3-a0bb-c1a04b451f2e","ios":"levelo://app?vid=77d1fd30-5b4c-4cd3-a0bb-c1a04b451f2e"},"vehicle_type_id":"4","last_reported":1747156180,"current_range_meters":19600,"station_id":"ce4bhb12rcd13ifvqel0","pricing_plan_id":"cebpf4jnsgd1na2vs0mg"},{"bike_id":"2c31c81f-3688-4917-abc6-56119ffbc564","system_id":"levelo_inurba_marseille","lat":43.2679,"lon":5.39408,"is_reserved":false,"is_disabled":false,"rental_uris":{"android":"levelo://app?vid=2c31c81f-3688-4917-abc6-56119ffbc564","ios":"levelo://app?vid=2c31c81f-3688-4917-abc6-56119ffbc564"},"vehicle_type_id":"4","last_reported":1747156180,"current_range_meters":19600,"station_id":"ce4bhh12rcd13ifvqfg0","pricing_plan_id":"cebpf4jnsgd1na2vs0mg"},{"bike_id":"c5a6038e-e242-4c42-a6da-186787771b16","system_id":"levelo_inurba_marseille","lat":43.21791,"lon":5.34612,"is_reserved":false,"is_disabled":false,"rental_uris":{"android":"levelo://app?vid=c5a6038e-e242-4c42-a6da-186787771b16","ios":"levelo://app?vid=c5a6038e-e242-4c42-a6da-186787771b16"},"vehicle_type_id":"4","last_reported":1747156180,"current_range_meters":19600,"station_id":"st_cvj6r9ubvosntc0bgbag","pricing_plan_id":"cebpf4jnsgd1na2vs0mg"},{"bike_id":"eb4281e0-2ad3-4220-8214-9c1bb1e17ddd","system_id":"levelo_inurba_marseille","lat":43.2885,"lon":5.393,"is_reserved":false,"is_disabled":false,"rental_uris":{"android":"levelo://app?vid=eb4281e0-2ad3-4220-8214-9c1bb1e17ddd","ios":"levelo://app?vid=eb4281e0-2ad3-4220-8214-9c1bb1e17ddd"},"vehicle_type_id":"4","last_reported":1747156180,"current_range_meters":20000,"station_id":"ce4bh2p2rcd13ifvqdi0","pricing_plan_id":"cebpf4jnsgd1na2vs0mg"},{"bike_id":"b02ac70b-fc75-49ec-8752-2009df40924d","system_id":"levelo_inurba_marseille","lat":43.2902,"lon":5.38654,"is_reserved":false,"is_disabled":false,"rental_uris":{"android":"levelo://app?vid=b02ac70b-fc75-49ec-8752-2009df40924d","ios":"levelo://app?vid=b02ac70b-fc75-49ec-8752-2009df40924d"},"vehicle_type_id":"4","last_reported":1747156180,"current_range_meters":20000,"station_id":"ce4bh4p2rcd13ifvqe0g","pricing_plan_id":"cebpf4jnsgd1na2vs0mg"},{"bike_id":"e86f3f4e-207b-477e-bb58-b3a243429b26","system_id":"levelo_inurba_marseille","lat":43.27373,"lon":5.36257,"is_reserved":false,"is_disabled":false,"rental_uris":{"android":"levelo://app?vid=e86f3f4e-207b-477e-bb58-b3a243429b26","ios":"levelo://app?vid=e86f3f4e-207b-477e-bb58-b3a243429b26"},"vehicle_type_id":"4","last_reported":1747156180,"current_range_meters":20000,"station_id":"ce4bhbh2rcd13ifvqeo0","pricing_plan_id":"cebpf4jnsgd1na2vs0mg"},{"bike_id":"8e4435c1-885f-4f0a-9f4a-fe02b3a08c42","system_id":"levelo_inurba_marseille","lat":43.29229,"lon":5.36069,"is_reserved":false,"is_disabled":false,"rental_uris":{"android":"levelo://app?vid=8e4435c1-885f-4f0a-9f4a-fe02b3a08c42","ios":"levelo://app?vid=8e4435c1-885f-4f0a-9f4a-fe02b3a08c42"},"vehicle_type_id":"4","last_reported":1747156180,"current_range_meters":20000,"station_id":"ce4bhbh2rcd13ifvqeqg","pricing_plan_id":"cebpf4jnsgd1na2vs0mg"},{"bike_id":"5647a91f-31a6-41fb-82bb-83893a94fc73","system_id":"levelo_inurba_marseille","lat":43.21201,"lon":5.35074,"is_reserved":false,"is_disabled":false,"rental_uris":{"android":"levelo://app?vid=5647a91f-31a6-41fb-82bb-83893a94fc73","ios":"levelo://app?vid=5647a91f-31a6-41fb-82bb-83893a94fc73"},"vehicle_type_id":"4","last_reported":1747156180,"current_range_meters":20400,"station_id":"st_cvj6sg6p6f1abm77japg","pricing_plan_id":"cebpf4jnsgd1na2vs0mg"},{"bike_id":"ace0d45a-2df5-4b7a-8508-ee44b51f691a","system_id":"levelo_inurba_marseille","lat":43.297869,"lon":5.371046,"is_reserved":false,"is_disabled":false,"rental_uris":{"android":"levelo://app?vid=ace0d45a-2df5-4b7a-8508-ee44b51f691a","ios":"levelo://app?vid=ace0d45a-2df5-4b7a-8508-ee44b51f691a"},"vehicle_type_id":"4","last_reported":1747156180,"current_range_meters":20800,"station_id":"ce4bgop2rcd13ifvqc1g","pricing_plan_id":"cebpf4jnsgd1na2vs0mg"},{"bike_id":"d2012339-df61-47d7-901f-e46b8d1fd0b6","system_id":"levelo_inurba_marseille","lat":43.28462,"lon":5.35887,"is_reserved":false,"is_disabled":false,"rental_uris":{"android":"levelo://app?vid=d2012339-df61-47d7-901f-e46b8d1fd0b6","ios":"levelo://app?vid=d2012339-df61-47d7-901f-e46b8d1fd0b6"},"vehicle_type_id":"4","last_reported":1747156180,"current_range_meters":20800,"station_id":"ce4bhah2rcd13ifvqei0","pricing_plan_id":"cebpf4jnsgd1na2vs0mg"},{"bike_id":"f0649364-0107-4d97-ae7e-c2cb5ebd23f0","system_id":"levelo_inurba_marseille","lat":43.21756,"lon":5.34594,"is_reserved":false,"is_disabled":false,"rental_uris":{"android":"levelo://app?vid=f0649364-0107-4d97-ae7e-c2cb5ebd23f0","ios":"levelo://app?vid=f0649364-0107-4d97-ae7e-c2cb5ebd23f0"},"vehicle_type_id":"4","last_reported":1747156180,"current_range_meters":20800,"station_id":"st_cvj6r9ubvosntc0bgbag","pricing_plan_id":"cebpf4jnsgd1na2vs0mg"},{"bike_id":"01baee39-44ee-481e-bbc4-82cd7bcd6dbd","system_id":"levelo_inurba_marseille","lat":43.30423,"lon":5.38884,"is_reserved":false,"is_disabled":false,"rental_uris":{"android":"levelo://app?vid=01baee39-44ee-481e-bbc4-82cd7bcd6dbd","ios":"levelo://app?vid=01baee39-44ee-481e-bbc4-82cd7bcd6dbd"},"vehicle_type_id":"4","last_reported":1747156180,"current_range_meters":21600,"station_id":"ce4bgk12rcd13ifvqbi0","pricing_plan_id":"cebpf4jnsgd1na2vs0mg"},{"bike_id":"d38c7df3-6a60-49ec-8a51-afb5a9394241","system_id":"levelo_inurba_marseille","lat":43.30917,"lon":5.36837,"is_reserved":false,"is_disabled":false,"rental_uris":{"android":"levelo://app?vid=d38c7df3-6a60-49ec-8a51-afb5a9394241","ios":"levelo://app?vid=d38c7df3-6a60-49ec-8a51-afb5a9394241"},"vehicle_type_id":"4","last_reported":1747156180,"current_range_meters":21600,"station_id":"ce4bgn92rcd13ifvqbvg","pricing_plan_id":"cebpf4jnsgd1na2vs0mg"},{"bike_id":"9ed968a0-0052-4779-b7ee-ccc0e2d385da","system_id":"levelo_inurba_marseille","lat":43.30945,"lon":5.39039,"is_reserved":false,"is_disabled":false,"rental_uris":{"android":"levelo://app?vid=9ed968a0-0052-4779-b7ee-ccc0e2d385da","ios":"levelo://app?vid=9ed968a0-0052-4779-b7ee-ccc0e2d385da"},"vehicle_type_id":"4","last_reported":1747156180,"current_range_meters":21600,"station_id":"ce4bgup2rcd13ifvqco0","pricing_plan_id":"cebpf4jnsgd1na2vs0mg"},{"bike_id":"88e5653c-5694-4db1-943e-843cbc4f2809","system_id":"levelo_inurba_marseille","lat":43.29233,"lon":5.36083,"is_reserved":false,"is_disabled":false,"rental_uris":{"android":"levelo://app?vid=88e5653c-5694-4db1-943e-843cbc4f2809","ios":"levelo://app?vid=88e5653c-5694-4db1-943e-843cbc4f2809"},"vehicle_type_id":"4","last_reported":1747156180,"current_range_meters":21600,"station_id":"ce4bhbh2rcd13ifvqeqg","pricing_plan_id":"cebpf4jnsgd1na2vs0mg"},{"bike_id":"ac0112c9-313e-422c-910b-a3523b05b0c9","system_id":"levelo_inurba_marseille","lat":43.23055,"lon":5.35481,"is_reserved":false,"is_disabled":false,"rental_uris":{"android":"levelo://app?vid=ac0112c9-313e-422c-910b-a3523b05b0c9","ios":"levelo://app?vid=ac0112c9-313e-422c-910b-a3523b05b0c9"},"vehicle_type_id":"4","last_reported":1747156180,"current_range_meters":21600,"station_id":"cpo3342slgdg3j2ifvpg","pricing_plan_id":"cebpf4jnsgd1na2vs0mg"},{"bike_id":"8e279dca-9425-4bc2-b384-77b204171643","system_id":"levelo_inurba_marseille","lat":43.30881,"lon":5.37185,"is_reserved":false,"is_disabled":false,"rental_uris":{"android":"levelo://app?vid=8e279dca-9425-4bc2-b384-77b204171643","ios":"levelo://app?vid=8e279dca-9425-4bc2-b384-77b204171643"},"vehicle_type_id":"4","last_reported":1747156180,"current_range_meters":22000,"station_id":"","pricing_plan_id":"cebpf4jnsgd1na2vs0mg"},{"bike_id":"ab03e6fb-0a2e-4882-ab73-1b192ddc7207","system_id":"levelo_inurba_marseille","lat":43.28919,"lon":5.38405,"is_reserved":false,"is_disabled":false,"rental_uris":{"android":"levelo://app?vid=ab03e6fb-0a2e-4882-ab73-1b192ddc7207","ios":"levelo://app?vid=ab03e6fb-0a2e-4882-ab73-1b192ddc7207"},"vehicle_type_id":"4","last_reported":1747156180,"current_range_meters":22000,"station_id":"ce4bh612rcd13ifvqe6g","pricing_plan_id":"cebpf4jnsgd1na2vs0mg"},{"bike_id":"896abe95-30c8-4930-b1d2-77465c2f1093","system_id":"levelo_inurba_marseille","lat":43.321124,"lon":5.367416,"is_reserved":false,"is_disabled":false,"rental_uris":{"android":"levelo://app?vid=896abe95-30c8-4930-b1d2-77465c2f1093","ios":"levelo://app?vid=896abe95-30c8-4930-b1d2-77465c2f1093"},"vehicle_type_id":"4","last_reported":1747156180,"current_range_meters":22000,"station_id":"ce4bhrh2rcd13ifvqhug","pricing_plan_id":"cebpf4jnsgd1na2vs0mg"},{"bike_id":"32b0409e-5d3c-4135-a238-f714f9bca19f","system_id":"levelo_inurba_marseille","lat":43.296997,"lon":5.376808,"is_reserved":false,"is_disabled":false,"rental_uris":{"android":"levelo://app?vid=32b0409e-5d3c-4135-a238-f714f9bca19f","ios":"levelo://app?vid=32b0409e-5d3c-4135-a238-f714f9bca19f"},"vehicle_type_id":"4","last_reported":1747156180,"current_range_meters":22400,"station_id":"ce4bgkh2rcd13ifvqbl0","pricing_plan_id":"cebpf4jnsgd1na2vs0mg"},{"bike_id":"e0376327-9bd7-4834-92f9-ae1b65ad67bd","system_id":"levelo_inurba_marseille","lat":43.29533,"lon":5.39013,"is_reserved":false,"is_disabled":false,"rental_uris":{"android":"levelo://app?vid=e0376327-9bd7-4834-92f9-ae1b65ad67bd","ios":"levelo://app?vid=e0376327-9bd7-4834-92f9-ae1b65ad67bd"},"vehicle_type_id":"4","last_reported":1747156180,"current_range_meters":22400,"station_id":"ce4bh3p2rcd13ifvqdp0","pricing_plan_id":"cebpf4jnsgd1na2vs0mg"},{"bike_id":"e413baf9-3f6d-4c51-bc15-736e8982ec9d","system_id":"levelo_inurba_marseille","lat":43.27623,"lon":5.36138,"is_reserved":false,"is_disabled":false,"rental_uris":{"android":"levelo://app?vid=e413baf9-3f6d-4c51-bc15-736e8982ec9d","ios":"levelo://app?vid=e413baf9-3f6d-4c51-bc15-736e8982ec9d"},"vehicle_type_id":"4","last_reported":1747156180,"current_range_meters":22800,"station_id":"ce4bgj92rcd13ifvqbe0","pricing_plan_id":"cebpf4jnsgd1na2vs0mg"},{"bike_id":"497d9e0a-367b-4c28-b58b-111c18eaa130","system_id":"levelo_inurba_marseille","lat":43.29025,"lon":5.3865,"is_reserved":false,"is_disabled":false,"rental_uris":{"android":"levelo://app?vid=497d9e0a-367b-4c28-b58b-111c18eaa130","ios":"levelo://app?vid=497d9e0a-367b-4c28-b58b-111c18eaa130"},"vehicle_type_id":"4","last_reported":1747156180,"current_range_meters":22800,"station_id":"ce4bh4p2rcd13ifvqe0g","pricing_plan_id":"cebpf4jnsgd1na2vs0mg"},{"bike_id":"5e900a2d-df05-4b2d-8bad-f0d6899a627d","system_id":"levelo_inurba_marseille","lat":43.29017,"lon":5.38647,"is_reserved":false,"is_disabled":false,"rental_uris":{"android":"levelo://app?vid=5e900a2d-df05-4b2d-8bad-f0d6899a627d","ios":"levelo://app?vid=5e900a2d-df05-4b2d-8bad-f0d6899a627d"},"vehicle_type_id":"4","last_reported":1747156180,"current_range_meters":22800,"station_id":"ce4bh4p2rcd13ifvqe0g","pricing_plan_id":"cebpf4jnsgd1na2vs0mg"},{"bike_id":"8729a857-dda3-49e0-9d8b-3756a19b5949","system_id":"levelo_inurba_marseille","lat":43.26199,"lon":5.37468,"is_reserved":false,"is_disabled":false,"rental_uris":{"android":"levelo://app?vid=8729a857-dda3-49e0-9d8b-3756a19b5949","ios":"levelo://app?vid=8729a857-dda3-49e0-9d8b-3756a19b5949"},"vehicle_type_id":"4","last_reported":1747156180,"current_range_meters":22800,"station_id":"ce4bhgp2rcd13ifvqfc0","pricing_plan_id":"cebpf4jnsgd1na2vs0mg"},{"bike_id":"62f8d469-222d-4932-aef0-751164181912","system_id":"levelo_inurba_marseille","lat":43.29514,"lon":5.37502,"is_reserved":false,"is_disabled":false,"rental_uris":{"android":"levelo://app?vid=62f8d469-222d-4932-aef0-751164181912","ios":"levelo://app?vid=62f8d469-222d-4932-aef0-751164181912"},"vehicle_type_id":"4","last_reported":1747156180,"current_range_meters":23200,"station_id":"ce4bgkp2rcd13ifvqbmg","pricing_plan_id":"cebpf4jnsgd1na2vs0mg"},{"bike_id":"a4f96705-60c9-48d9-b125-556185b869e9","system_id":"levelo_inurba_marseille","lat":43.30944,"lon":5.3904,"is_reserved":false,"is_disabled":false,"rental_uris":{"android":"levelo://app?vid=a4f96705-60c9-48d9-b125-556185b869e9","ios":"levelo://app?vid=a4f96705-60c9-48d9-b125-556185b869e9"},"vehicle_type_id":"4","last_reported":1747156180,"current_range_meters":23200,"station_id":"ce4bgup2rcd13ifvqco0","pricing_plan_id":"cebpf4jnsgd1na2vs0mg"},{"bike_id":"28b305d4-f2b9-4bfe-a822-55f9f22ae083","system_id":"levelo_inurba_marseille","lat":43.28353,"lon":5.38105,"is_reserved":false,"is_disabled":false,"rental_uris":{"android":"levelo://app?vid=28b305d4-f2b9-4bfe-a822-55f9f22ae083","ios":"levelo://app?vid=28b305d4-f2b9-4bfe-a822-55f9f22ae083"},"vehicle_type_id":"4","last_reported":1747156180,"current_range_meters":23200,"station_id":"ce4bh412rcd13ifvqdr0","pricing_plan_id":"cebpf4jnsgd1na2vs0mg"},{"bike_id":"8fee2213-15fa-4e02-ae16-950b0abffce0","system_id":"levelo_inurba_marseille","lat":43.23192,"lon":5.35553,"is_reserved":false,"is_disabled":false,"rental_uris":{"android":"levelo://app?vid=8fee2213-15fa-4e02-ae16-950b0abffce0","ios":"levelo://app?vid=8fee2213-15fa-4e02-ae16-950b0abffce0"},"vehicle_type_id":"4","last_reported":1747156180,"current_range_meters":23200,"station_id":"ce4bhu92rcd13ifvqi70","pricing_plan_id":"cebpf4jnsgd1na2vs0mg"},{"bike_id":"08a93b84-f9e2-4480-b23a-2ee7a592645e","system_id":"levelo_inurba_marseille","lat":43.21754,"lon":5.34601,"is_reserved":false,"is_disabled":false,"rental_uris":{"android":"levelo://app?vid=08a93b84-f9e2-4480-b23a-2ee7a592645e","ios":"levelo://app?vid=08a93b84-f9e2-4480-b23a-2ee7a592645e"},"vehicle_type_id":"4","last_reported":1747156180,"current_range_meters":23200,"station_id":"st_cvj6r9ubvosntc0bgbag","pricing_plan_id":"cebpf4jnsgd1na2vs0mg"},{"bike_id":"64824209-6cba-4c12-875a-1502c403c27a","system_id":"levelo_inurba_marseille","lat":43.21222,"lon":5.35063,"is_reserved":false,"is_disabled":false,"rental_uris":{"android":"levelo://app?vid=64824209-6cba-4c12-875a-1502c403c27a","ios":"levelo://app?vid=64824209-6cba-4c12-875a-1502c403c27a"},"vehicle_type_id":"4","last_reported":1747156180,"current_range_meters":24000,"station_id":"","pricing_plan_id":"cebpf4jnsgd1na2vs0mg"},{"bike_id":"e7328c7b-9769-4bb7-97b6-fc5b0b81ceea","system_id":"levelo_inurba_marseille","lat":43.30326,"lon":5.40431,"is_reserved":false,"is_disabled":false,"rental_uris":{"android":"levelo://app?vid=e7328c7b-9769-4bb7-97b6-fc5b0b81ceea","ios":"levelo://app?vid=e7328c7b-9769-4bb7-97b6-fc5b0b81ceea"},"vehicle_type_id":"4","last_reported":1747156180,"current_range_meters":24000,"station_id":"ce4bh012rcd13ifvqd10","pricing_plan_id":"cebpf4jnsgd1na2vs0mg"},{"bike_id":"91e2a5b2-64e2-4d51-b12f-ec00966c29bc","system_id":"levelo_inurba_marseille","lat":43.28407,"lon":5.37514,"is_reserved":false,"is_disabled":false,"rental_uris":{"android":"levelo://app?vid=91e2a5b2-64e2-4d51-b12f-ec00966c29bc","ios":"levelo://app?vid=91e2a5b2-64e2-4d51-b12f-ec00966c29bc"},"vehicle_type_id":"4","last_reported":1747156180,"current_range_meters":24000,"station_id":"ce4bh412rcd13ifvqds0","pricing_plan_id":"cebpf4jnsgd1na2vs0mg"},{"bike_id":"03572475-d281-407a-90e3-6ded9c6896a3","system_id":"levelo_inurba_marseille","lat":43.29199,"lon":5.35798,"is_reserved":false,"is_disabled":false,"rental_uris":{"android":"levelo://app?vid=03572475-d281-407a-90e3-6ded9c6896a3","ios":"levelo://app?vid=03572475-d281-407a-90e3-6ded9c6896a3"},"vehicle_type_id":"4","last_reported":1747156180,"current_range_meters":24000,"station_id":"ce4bhb12rcd13ifvqel0","pricing_plan_id":"cebpf4jnsgd1na2vs0mg"},{"bike_id":"f2030457-f7b1-4d9f-b290-59e7bc49ca6d","system_id":"levelo_inurba_marseille","lat":43.24072,"lon":5.3776,"is_reserved":false,"is_disabled":false,"rental_uris":{"android":"levelo://app?vid=f2030457-f7b1-4d9f-b290-59e7bc49ca6d","ios":"levelo://app?vid=f2030457-f7b1-4d9f-b290-59e7bc49ca6d"},"vehicle_type_id":"4","last_reported":1747156180,"current_range_meters":24000,"station_id":"ce4bhnp2rcd13ifvqgvg","pricing_plan_id":"cebpf4jnsgd1na2vs0mg"},{"bike_id":"22fefe57-4a82-4576-aaab-7245ab2dd970","system_id":"levelo_inurba_marseille","lat":43.28705,"lon":5.39993,"is_reserved":false,"is_disabled":false,"rental_uris":{"android":"levelo://app?vid=22fefe57-4a82-4576-aaab-7245ab2dd970","ios":"levelo://app?vid=22fefe57-4a82-4576-aaab-7245ab2dd970"},"vehicle_type_id":"4","last_reported":1747156180,"current_range_meters":24000,"station_id":"ce4bho92rcd13ifvqh3g","pricing_plan_id":"cebpf4jnsgd1na2vs0mg"},