{"last_updated":1768897143,"ttl":60,"version":"2.2","data":{"bikes":[{"bike_id":"35df58ab-77a3-4070-9ec0-1c9995a3f5b6","system_id":"levelo_inurba_marseille","lat":43.25311,"lon":5.42175,"is_reserved":false,"is_disabled":false,"rental_uris":{"android":"levelo://app?vid=35df58ab-77a3-4070-9ec0-1c9995a3f5b6","ios":"levelo://app?vid=35df58ab-77a3-4070-9ec0-1c9995a3f5b6"},"vehicle_type_id":"4","last_reported":1768897144,"current_range_meters":2800,"station_id":"st_d2m65c5bi1j21697t3ng","pricing_plan_id":"cebpf4jnsgd1na2vs0mg"},{"bike_id":"5f120a86-cc0b-40c7-9c31-6878b214f823","system_id":"levelo_inurba_marseille","lat":43.24802,"lon":5.37461,"is_reserved":false,"is_disabled":false,"rental_uris":{"android":"levelo://app?vid=5f120a86-cc0b-40c7-9c31-6878b214f823","ios":"levelo://app?vid=5f120a86-cc0b-40c7-9c31-6878b214f823"},"vehicle_type_id":"4","last_reported":1768897144,"current_range_meters":2800,"station_id":"ce4bhgh2rcd13ifvqfb0","pricing_plan_id":"cebpf4jnsgd1na2vs0mg"},{"bike_id":"50c47a6e-8921-4008-8c5d-86f87ed06be3","system_id":"levelo_inurba_marseille","lat":43.27996,"lon":5.4001,"is_reserved":false,"is_disabled":false,"rental_uris":{"android":"levelo://app?vid=50c47a6e-8921-4008-8c5d-86f87ed06be3","ios":"levelo://app?vid=50c47a6e-8921-4008-8c5d-86f87ed06be3"},"vehicle_type_id":"4","last_reported":1768897144,"current_range_meters":2800,"station_id":"ce4bho92rcd13ifvqh4g","pricing_plan_id":"cebpf4jnsgd1na2vs0mg"},{"bike_id":"65d540a3-6b25-4335-8357-ca6e40a2c0bf","system_id":"levelo_inurba_marseille","lat":43.28485,"lon":5.38536,"is_reserved":false,"is_disabled":false,"rental_uris":{"android":"levelo://app?vid=65d540a3-6b25-4335-8357-ca6e40a2c0bf","ios":"levelo://app?vid=65d540a3-6b25-4335-8357-ca6e40a2c0bf"},"vehicle_type_id":"4","last_reported":1768897144,"current_range_meters":2800,"station_id":"ce4bh8p2rcd13ifvqeb0","pricing_plan_id":"cebpf4jnsgd1na2vs0mg"},{"bike_id":"07d71416-deb7-4cc7-9f86-0f69e2a32773","system_id":"levelo_inurba_marseille","lat":43.24177,"lon":5.39711,"is_reserved":false,"is_disabled":false,"rental_uris":{"android":"levelo://app?vid=07d71416-deb7-4cc7-9f86-0f69e2a32773","ios":"levelo://app?vid=07d71416-deb7-4cc7-9f86-0f69e2a32773"},"vehicle_type_id":"4","last_reported":1768897144,"current_range_meters":2800,"station_id":"ce4bhn12rcd13ifvqgpg","pricing_plan_id":"cebpf4jnsgd1na2vs0mg"},{"bike_id":"0be1b7c2-2a16-4cfb-b6c6-31dc9a4a8cf1","system_id":"levelo_inurba_marseille","lat":43.27818,"lon":5.40715,"is_reserved":false,"is_disabled":false,"rental_uris":{"android":"levelo://app?vid=0be1b7c2-2a16-4cfb-b6c6-31dc9a4a8cf1","ios":"levelo://app?vid=0be1b7c2-2a16-4cfb-b6c6-31dc9a4a8cf1"},"vehicle_type_id":"4","last_reported":1768897144,"current_range_meters":2800,"station_id":"ce4bhnh2rcd13ifvqgtg","pricing_plan_id":"cebpf4jnsgd1na2vs0mg"},{"bike_id":"07a6518f-efa5-4821-9d05-0afd57b79646","system_id":"levelo_inurba_marseille","lat":43.24074,"lon":5.3775,"is_reserved":false,"is_disabled":false,"rental_uris":{"android":"levelo://app?vid=07a6518f-efa5-4821-9d05-0afd57b79646","ios":"levelo://app?vid=07a6518f-efa5-4821-9d05-0afd57b79646"},"vehicle_type_id":"4","last_reported":1768897144,"current_range_meters":2800,"station_id":"ce4bhnp2rcd13ifvqgvg","pricing_plan_id":"cebpf4jnsgd1na2vs0mg"},{"bike_id":"5eaccc9d-2b69-4116-b8f4-6671095c29ff","system_id":"levelo_inurba_marseille","lat":43.28763,"lon":5.37171,"is_reserved":false,"is_disabled":false,"rental_uris":{"android":"levelo://app?vid=5eaccc9d-2b69-4116-b8f4-6671095c29ff","ios":"levelo://app?vid=5eaccc9d-2b69-4116-b8f4-6671095c29ff"},"vehicle_type_id":"4","last_reported":1768897144,"current_range_meters":2800,"station_id":"","pricing_plan_id":"cebpf4jnsgd1na2vs0mg"},{"bike_id":"0ffa3a37-1efe-4773-9c0c-0281daa15b60","system_id":"levelo_inurba_marseille","lat":43.25331,"lon":5.38039,"is_reserved":false,"is_disabled":false,"rental_uris":{"android":"levelo://app?vid=0ffa3a37-1efe-4773-9c0c-0281daa15b60","ios":"levelo://app?vid=0ffa3a37-1efe-4773-9c0c-0281daa15b60"},"vehicle_type_id":"4","last_reported":1768897144,"current_range_meters":2800,"station_id":"","pricing_plan_id":"cebpf4jnsgd1na2vs0mg"},{"bike_id":"4e7ee853-f890-47f7-9836-46ba8ce1c7bc","system_id":"levelo_inurba_marseille","lat":43.24081,"lon":5.37741,"is_reserved":false,"is_disabled":false,"rental_uris":{"android":"levelo://app?vid=4e7ee853-f890-47f7-9836-46ba8ce1c7bc","ios":"levelo://app?vid=4e7ee853-f890-47f7-9836-46ba8ce1c7bc"},"vehicle_type_id":"4","last_reported":1768897144,"current_range_meters":2800,"station_id":"ce4bhnp2rcd13ifvqgvg","pricing_plan_id":"cebpf4jnsgd1na2vs0mg"},{"bike_id":"dc834293-0369-40ef-a636-a79fe6ea905b","system_id":"levelo_inurba_marseille","lat":43.2656,"lon":5.39068,"is_reserved":false,"is_disabled":false,"rental_uris":{"android":"levelo://app?vid=dc834293-0369-40ef-a636-a79fe6ea905b","ios":"levelo://app?vid=dc834293-0369-40ef-a636-a79fe6ea905b"},"vehicle_type_id":"4","last_reported":1768897144,"current_range_meters":2800,"station_id":"","pricing_plan_id":"cebpf4jnsgd1na2vs0mg"},{"bike_id":"d414427d-b55d-4939-8f52-0e701669215a","system_id":"levelo_inurba_marseille","lat":43.30273,"lon":5.37712,"is_reserved":false,"is_disabled":false,"rental_uris":{"android":"levelo://app?vid=d414427d-b55d-4939-8f52-0e701669215a","ios":"levelo://app?vid=d414427d-b55d-4939-8f52-0e701669215a"},"vehicle_type_id":"4","last_reported":1768897144,"current_range_meters":2800,"station_id":"ce4bguh2rcd13ifvqcj0","pricing_plan_id":"cebpf4jnsgd1na2vs0mg"},{"bike_id":"f6598c52-43d2-4de0-9e73-1ab21c528e55","system_id":"levelo_inurba_marseille","lat":43.31224,"lon":5.36964,"is_reserved":false,"is_disabled":false,"rental_uris":{"android":"levelo://app?vid=f6598c52-43d2-4de0-9e73-1ab21c528e55","ios":"levelo://app?vid=f6598c52-43d2-4de0-9e73-1ab21c528e55"},"vehicle_type_id":"4","last_reported":1768897144,"current_range_meters":3200,"station_id":"ce4bgl92rcd13ifvqbq0","pricing_plan_id":"cebpf4jnsgd1na2vs0mg"},{"bike_id":"601c2709-22a4-464b-ac88-e378165071d7","system_id":"levelo_inurba_marseille","lat":43.25349,"lon":5.42172,"is_reserved":false,"is_disabled":false,"rental_uris":{"android":"levelo://app?vid=601c2709-22a4-464b-ac88-e378165071d7","ios":"levelo://app?vid=601c2709-22a4-464b-ac88-e378165071d7"},"vehicle_type_id":"4","last_reported":1768897144,"current_range_meters":3200,"station_id":"st_d2m65c5bi1j21697t3ng","pricing_plan_id":"cebpf4jnsgd1na2vs0mg"},{"bike_id":"12f0ab66-38be-42e0-a154-721b1ca1c569","system_id":"levelo_inurba_marseille","lat":43.280196,"lon":5.400241,"is_reserved":false,"is_disabled":false,"rental_uris":{"android":"levelo://app?vid=12f0ab66-38be-42e0-a154-721b1ca1c569","ios":"levelo://app?vid=12f0ab66-38be-42e0-a154-721b1ca1c569"},"vehicle_type_id":"4","last_reported":1768897144,"current_range_meters":3200,"station_id":"ce4bho92rcd13ifvqh4g","pricing_plan_id":"cebpf4jnsgd1na2vs0mg"},{"bike_id":"dbb135ba-2dbe-4117-9170-73de980a62f0","system_id":"levelo_inurba_marseille","lat":43.299115,"lon":5.38141,"is_reserved":false,"is_disabled":false,"rental_uris":{"android":"levelo://app?vid=dbb135ba-2dbe-4117-9170-73de980a62f0","ios":"levelo://app?vid=dbb135ba-2dbe-4117-9170-73de980a62f0"},"vehicle_type_id":"4","last_reported":1768897144,"current_range_meters":3200,"station_id":"","pricing_plan_id":"cebpf4jnsgd1na2vs0mg"},{"bike_id":"92030df9-3983-40dd-ae8e-c537cab0af80","system_id":"levelo_inurba_marseille","lat":43.26474,"lon":5.39527,"is_reserved":false,"is_disabled":false,"rental_uris":{"android":"levelo://app?vid=92030df9-3983-40dd-ae8e-c537cab0af80","ios":"levelo://app?vid=92030df9-3983-40dd-ae8e-c537cab0af80"},"vehicle_type_id":"4","last_reported":1768897144,"current_range_meters":3200,"station_id":"ce4bhi12rcd13ifvqfq0","pricing_plan_id":"cebpf4jnsgd1na2vs0mg"},{"bike_id":"f18bc030-feac-4290-98f5-ef3dbe2dffcf","system_id":"levelo_inurba_marseille","lat":43.26469,"lon":5.39543,"is_reserved":false,"is_disabled":false,"rental_uris":{"android":"levelo://app?vid=f18bc030-feac-4290-98f5-ef3dbe2dffcf","ios":"levelo://app?vid=f18bc030-feac-4290-98f5-ef3dbe2dffcf"},"vehicle_type_id":"4","last_reported":1768897144,"current_range_meters":3200,"station_id":"ce4bhi12rcd13ifvqfq0","pricing_plan_id":"cebpf4jnsgd1na2vs0mg"},{"bike_id":"53d7389e-67e7-4845-ae5c-1cd339660b50","system_id":"levelo_inurba_marseille","lat":43.26567,"lon":5.40336,"is_reserved":false,"is_disabled":false,"rental_uris":{"android":"levelo://app?vid=53d7389e-67e7-4845-ae5c-1cd339660b50","ios":"levelo://app?vid=53d7389e-67e7-4845-ae5c-1cd339660b50"},"vehicle_type_id":"4","last_reported":1768897144,"current_range_meters":3200,"station_id":"ce4bhmp2rcd13ifvqgng","pricing_plan_id":"cebpf4jnsgd1na2vs0mg"},{"bike_id":"7bc89e84-3129-45ef-9194-1584f107b38e","system_id":"levelo_inurba_marseille","lat":43.30598,"lon":5.39364,"is_reserved":false,"is_disabled":false,"rental_uris":{"android":"levelo://app?vid=7bc89e84-3129-45ef-9194-1584f107b38e","ios":"levelo://app?vid=7bc89e84-3129-45ef-9194-1584f107b38e"},"vehicle_type_id":"4","last_reported":1768897144,"current_range_meters":3200,"station_id":"ce4bh0p2rcd13ifvqd80","pricing_plan_id":"cebpf4jnsgd1na2vs0mg"},{"bike_id":"06e35bcb-b64c-4029-8fed-fa8c8b432deb","system_id":"levelo_inurba_marseille","lat":43.27964,"lon":5.38747,"is_reserved":false,"is_disabled":false,"rental_uris":{"android":"levelo://app?vid=06e35bcb-b64c-4029-8fed-fa8c8b432deb","ios":"levelo://app?vid=06e35bcb-b64c-4029-8fed-fa8c8b432deb"},"vehicle_type_id":"4","last_reported":1768897144,"current_range_meters":3200,"station_id":"ce4bhg12rcd13ifvqf80","pricing_plan_id":"cebpf4jnsgd1na2vs0mg"},{"bike_id":"4e0739a4-4774-4dab-a411-47a195fcb830","system_id":"levelo_inurba_marseille","lat":43.25857,"lon":5.39914,"is_reserved":false,"is_disabled":false,"rental_uris":{"android":"levelo://app?vid=4e0739a4-4774-4dab-a411-47a195fcb830","ios":"levelo://app?vid=4e0739a4-4774-4dab-a411-47a195fcb830"},"vehicle_type_id":"4","last_reported":1768897144,"current_range_meters":3200,"station_id":"ce4bhl92rcd13ifvqghg","pricing_plan_id":"cebpf4jnsgd1na2vs0mg"},{"bike_id":"248bcdb5-f7c1-4fed-9b5d-a7dbea185498","system_id":"levelo_inurba_marseille","lat":43.304639,"lon":5.379139,"is_reserved":false,"is_disabled":false,"rental_uris":{"android":"levelo://app?vid=248bcdb5-f7c1-4fed-9b5d-a7dbea185498","ios":"levelo://app?vid=248bcdb5-f7c1-4fed-9b5d-a7dbea185498"},"vehicle_type_id":"4","last_reported":1768897144,"current_range_meters":3600,"station_id":"ce4bgup2rcd13ifvqcn0","pricing_plan_id":"cebpf4jnsgd1na2vs0mg"},{"bike_id":"aa734ba7-ce92-4c1b-86f8-f1622bce223c","system_id":"levelo_inurba_marseille","lat":43.29817,"lon":5.44099,"is_reserved":false,"is_disabled":true,"rental_uris":{"android":"levelo://app?vid=aa734ba7-ce92-4c1b-86f8-f1622bce223c","ios":"levelo://app?vid=aa734ba7-ce92-4c1b-86f8-f1622bce223c"},"vehicle_type_id":"4","last_reported":1768897144,"current_range_meters":3600,"station_id":"","pricing_plan_id":"cebpf4jnsgd1na2vs0mg"},{"bike_id":"335e3733-536b-4c9f-a7cd-187b8278f9eb","system_id":"levelo_inurba_marseille","lat":43.30946,"lon":5.39029,"is_reserved":false,"is_disabled":false,"rental_uris":{"android":"levelo://app?vid=335e3733-536b-4c9f-a7cd-187b8278f9eb","ios":"levelo://app?vid=335e3733-536b-4c9f-a7cd-187b8278f9eb"},"vehicle_type_id":"4","last_reported":1768897144,"current_range_meters":3600,"station_id":"ce4bgup2rcd13ifvqco0","pricing_plan_id":"cebpf4jnsgd1na2vs0mg"},{"bike_id":"260ae972-ad3e-400d-8a93-1dda127747a8","system_id":"levelo_inurba_marseille","lat":43.30971,"lon":5.39063,"is_reserved":false,"is_disabled":false,"rental_uris":{"android":"levelo://app?vid=260ae972-ad3e-400d-8a93-1dda127747a8","ios":"levelo://app?vid=260ae972-ad3e-400d-8a93-1dda127747a8"},"vehicle_type_id":"4","last_reported":1768897144,"current_range_meters":3600,"station_id":"ce4bgup2rcd13ifvqco0","pricing_plan_id":"cebpf4jnsgd1na2vs0mg"},{"bike_id":"58922b42-b0dc-43fd-bf81-dd6ae427768e","system_id":"levelo_inurba_marseille","lat":43.25192,"lon":5.40084,"is_reserved":false,"is_disabled":false,"rental_uris":{"android":"levelo://app?vid=58922b42-b0dc-43fd-bf81-dd6ae427768e","ios":"levelo://app?vid=58922b42-b0dc-43fd-bf81-dd6ae427768e"},"vehicle_type_id":"4","last_reported":1768897144,"current_range_meters":3600,"station_id":"","pricing_plan_id":"cebpf4jnsgd1na2vs0mg"},{"bike_id":"1c263368-f912-49d2-b079-de25ff89f105","system_id":"levelo_inurba_marseille","lat":43.274919,"lon":5.424529,"is_reserved":false,"is_disabled":false,"rental_uris":{"android":"levelo://app?vid=1c263368-f912-49d2-b079-de25ff89f105","ios":"levelo://app?vid=1c263368-f912-49d2-b079-de25ff89f105"},"vehicle_type_id":"4","last_reported":1768897144,"current_range_meters":3600,"station_id":"ce4bhn92rcd13ifvqgrg","pricing_plan_id":"cebpf4jnsgd1na2vs0mg"},{"bike_id":"d94b0719-67c8-4a98-823a-17ee81ceae99","system_id":"levelo_inurba_marseille","lat":43.28001,"lon":5.3998,"is_reserved":false,"is_disabled":false,"rental_uris":{"android":"levelo://app?vid=d94b0719-67c8-4a98-823a-17ee81ceae99","ios":"levelo://app?vid=d94b0719-67c8-4a98-823a-17ee81ceae99"},"vehicle_type_id":"4","last_reported":1768897144,"current_range_meters":3600,"station_id":"ce4bho92rcd13ifvqh4g","pricing_plan_id":"cebpf4jnsgd1na2vs0mg"},{"bike_id":"53432e9c-b0e4-4fa0-bf81-9fd7576e7477","system_id":"levelo_inurba_marseille","lat":43.28345,"lon":5.38116,"is_reserved":false,"is_disabled":false,"rental_uris":{"android":"levelo://app?vid=53432e9c-b0e4-4fa0-bf81-9fd7576e7477","ios":"levelo://app?vid=53432e9c-b0e4-4fa0-bf81-9fd7576e7477"},"vehicle_type_id":"4","last_reported":1768897144,"current_range_meters":3600,"station_id":"ce4bh412rcd13ifvqdr0","pricing_plan_id":"cebpf4jnsgd1na2vs0mg"},{"bike_id":"7203e830-a3e8-48b3-874d-a33c2d2d3056","system_id":"levelo_inurba_marseille","lat":43.33753,"lon":5.37462,"is_reserved":false,"is_disabled":false,"rental_uris":{"android":"levelo://app?vid=7203e830-a3e8-48b3-874d-a33c2d2d3056","ios":"levelo://app?vid=7203e830-a3e8-48b3-874d-a33c2d2d3056"},"vehicle_type_id":"4","last_reported":1768897144,"current_range_meters":3600,"station_id":"","pricing_plan_id":"cebpf4jnsgd1na2vs0mg"},{"bike_id":"677a7507-9fa8-4b3b-bc9d-d833305c9270","system_id":"levelo_inurba_marseille","lat":43.30154,"lon":5.38089,"is_reserved":false,"is_disabled":false,"rental_uris":{"android":"levelo://app?vid=677a7507-9fa8-4b3b-bc9d-d833305c9270","ios":"levelo://app?vid=677a7507-9fa8-4b3b-bc9d-d833305c9270"},"vehicle_type_id":"4","last_reported":1768897144,"current_range_meters":3600,"station_id":"ce4bgjp2rcd13ifvqbh0","pricing_plan_id":"cebpf4jnsgd1na2vs0mg"},{"bike_id":"61cf1305-bfbc-4848-aaa1-833a7861a0c8","system_id":"levelo_inurba_marseille","lat":43.27372,"lon":5.36259,"is_reserved":false,"is_disabled":false,"rental_uris":{"android":"levelo://app?vid=61cf1305-bfbc-4848-aaa1-833a7861a0c8","ios":"levelo://app?vid=61cf1305-bfbc-4848-aaa1-833a7861a0c8"},"vehicle_type_id":"4","last_reported":1768897144,"current_range_meters":3600,"station_id":"ce4bhbh2rcd13ifvqeo0","pricing_plan_id":"cebpf4jnsgd1na2vs0mg"},{"bike_id":"ccdfa321-b29b-4f03-8ffd-b9cdafb007e6","system_id":"levelo_inurba_marseille","lat":43.30951,"lon":5.39033,"is_reserved":false,"is_disabled":false,"rental_uris":{"android":"levelo://app?vid=ccdfa321-b29b-4f03-8ffd-b9cdafb007e6","ios":"levelo://app?vid=ccdfa321-b29b-4f03-8ffd-b9cdafb007e6"},"vehicle_type_id":"4","last_reported":1768897144,"current_range_meters":4000,"station_id":"ce4bgup2rcd13ifvqco0","pricing_plan_id":"cebpf4jnsgd1na2vs0mg"},{"bike_id":"946882e2-1c7c-41d9-af64-47c95d7833f4","system_id":"levelo_inurba_marseille","lat":43.31759,"lon":5.3904,"is_reserved":false,"is_disabled":false,"rental_uris":{"android":"levelo://app?vid=946882e2-1c7c-41d9-af64-47c95d7833f4","ios":"levelo://app?vid=946882e2-1c7c-41d9-af64-47c95d7833f4"},"vehicle_type_id":"4","last_reported":1768897144,"current_range_meters":4000,"station_id":"ce4bhqp2rcd13ifvqhng","pricing_plan_id":"cebpf4jnsgd1na2vs0mg"},{"bike_id":"4b5aa404-a223-4202-a9b4-4364010f0fb4","system_id":"levelo_inurba_marseille","lat":43.33758,"lon":5.37493,"is_reserved":false,"is_disabled":false,"rental_uris":{"android":"levelo://app?vid=4b5aa404-a223-4202-a9b4-4364010f0fb4","ios":"levelo://app?vid=4b5aa404-a223-4202-a9b4-4364010f0fb4"},"vehicle_type_id":"4","last_reported":1768897144,"current_range_meters":4000,"station_id":"","pricing_plan_id":"cebpf4jnsgd1na2vs0mg"},{"bike_id":"55a93059-46da-4326-b3f6-eca54949cf8d","system_id":"levelo_inurba_marseille","lat":43.278,"lon":5.4076,"is_reserved":false,"is_disabled":false,"rental_uris":{"android":"levelo://app?vid=55a93059-46da-4326-b3f6-eca54949cf8d","ios":"levelo://app?vid=55a93059-46da-4326-b3f6-eca54949cf8d"},"vehicle_type_id":"4","last_reported":1768897144,"current_range_meters":4000,"station_id":"ce4bhnh2rcd13ifvqgtg","pricing_plan_id":"cebpf4jnsgd1na2vs0mg"},{"bike_id":"d16668c1-3494-42a0-89aa-a7fc6a4a19f9","system_id":"levelo_inurba_marseille","lat":43.22927,"lon":5.35379,"is_reserved":false,"is_disabled":false,"rental_uris":{"android":"levelo://app?vid=d16668c1-3494-42a0-89aa-a7fc6a4a19f9","ios":"levelo://app?vid=d16668c1-3494-42a0-89aa-a7fc6a4a19f9"},"vehicle_type_id":"4","last_reported":1768897144,"current_range_meters":4000,"station_id":"cpo3532slgdg3j2ikp40","pricing_plan_id":"cebpf4jnsgd1na2vs0mg"},{"bike_id":"24c89c87-4e34-4758-98ab-4279f78b4108","system_id":"levelo_inurba_marseille","lat":43.25839,"lon":5.39424,"is_reserved":false,"is_disabled":false,"rental_uris":{"android":"levelo://app?vid=24c89c87-4e34-4758-98ab-4279f78b4108","ios":"levelo://app?vid=24c89c87-4e34-4758-98ab-4279f78b4108"},"vehicle_type_id":"4","last_reported":1768897144,"current_range_meters":4000,"station_id":"ce4bhip2rcd13ifvqft0","pricing_plan_id":"cebpf4jnsgd1na2vs0mg"},{"bike_id":"24fcfcf2-dbb6-4a6c-babc-5fb9756599ea","system_id":"levelo_inurba_marseille","lat":43.27207,"lon":5.39186,"is_reserved":false,"is_disabled":false,"rental_uris":{"android":"levelo://app?vid=24fcfcf2-dbb6-4a6c-babc-5fb9756599ea","ios":"levelo://app?vid=24fcfcf2-dbb6-4a6c-babc-5fb9756599ea"},"vehicle_type_id":"4","last_reported":1768897144,"current_range_meters":4000,"station_id":"ce4bhhp2rcd13ifvqfm0","pricing_plan_id":"cebpf4jnsgd1na2vs0mg"},{"bike_id":"38992b65-200e-46e0-af7d-69d3313effee","system_id":"levelo_inurba_marseille","lat":43.32666,"lon":5.40969,"is_reserved":false,"is_disabled":false,"rental_uris":{"android":"levelo://app?vid=38992b65-200e-46e0-af7d-69d3313effee","ios":"levelo://app?vid=38992b65-200e-46e0-af7d-69d3313effee"},"vehicle_type_id":"4","last_reported":1768897144,"current_range_meters":4000,"station_id":"ce4bhpp2rcd13ifvqhgg","pricing_plan_id":"cebpf4jnsgd1na2vs0mg"},{"bike_id":"461e5358-0d0e-412f-9ecf-ed009fc461e5","system_id":"levelo_inurba_marseille","lat":43.29043,"lon":5.39969,"is_reserved":false,"is_disabled":false,"rental_uris":{"android":"levelo://app?vid=461e5358-0d0e-412f-9ecf-ed009fc461e5","ios":"levelo://app?vid=461e5358-0d0e-412f-9ecf-ed009fc461e5"},"vehicle_type_id":"4","last_reported":1768897144,"current_range_meters":4000,"station_id":"ce4bh392rcd13ifvqdm0","pricing_plan_id":"cebpf4jnsgd1na2vs0mg"},{"bike_id":"5a47b597-eb88-4d0f-a0cc-dc9cf6057637","system_id":"levelo_inurba_marseille","lat":43.246543,"lon":5.38893,"is_reserved":false,"is_disabled":false,"rental_uris":{"android":"levelo://app?vid=5a47b597-eb88-4d0f-a0cc-dc9cf6057637","ios":"levelo://app?vid=5a47b597-eb88-4d0f-a0cc-dc9cf6057637"},"vehicle_type_id":"4","last_reported":1768897144,"current_range_meters":4000,"station_id":"ce4bhg12rcd13ifvqf60","pricing_plan_id":"cebpf4jnsgd1na2vs0mg"},{"bike_id":"09d581e6-ee8f-4553-a495-40affb242c4d","system_id":"levelo_inurba_marseille","lat":43.30652,"lon":5.40075,"is_reserved":false,"is_disabled":false,"rental_uris":{"android":"levelo://app?vid=09d581e6-ee8f-4553-a495-40affb242c4d","ios":"levelo://app?vid=09d581e6-ee8f-4553-a495-40affb242c4d"},"vehicle_type_id":"4","last_reported":1768897144,"current_range_meters":4000,"station_id":"ce4bh112rcd13ifvqda0","pricing_plan_id":"cebpf4jnsgd1na2vs0mg"},{"bike_id":"d52747e8-8d11-49e5-85ba-c7fb86be12dd","system_id":"levelo_inurba_marseille","lat":43.27819,"lon":5.40726,"is_reserved":false,"is_disabled":false,"rental_uris":{"android":"levelo://app?vid=d52747e8-8d11-49e5-85ba-c7fb86be12dd","ios":"levelo://app?vid=d52747e8-8d11-49e5-85ba-c7fb86be12dd"},"vehicle_type_id":"4","last_reported":1768897144,"current_range_meters":4400,"station_id":"ce4bhnh2rcd13ifvqgtg","pricing_plan_id":"cebpf4jnsgd1na2vs0mg"},{"bike_id":"47b1845a-d423-4f08-aacb-a39093bdcd88","system_id":"levelo_inurba_marseille","lat":43.30264,"lon":5.3771,"is_reserved":false,"is_disabled":false,"rental_uris":{"android":"levelo://app?vid=47b1845a-d423-4f08-aacb-a39093bdcd88","ios":"levelo://app?vid=47b1845a-d423-4f08-aacb-a39093bdcd88"},"vehicle_type_id":"4","last_reported":1768897144,"current_range_meters":4400,"station_id":"ce4bguh2rcd13ifvqcj0","pricing_plan_id":"cebpf4jnsgd1na2vs0mg"},{"bike_id":"0352f83e-42c9-4b95-aab1-5eb895fe3a3d","system_id":"levelo_inurba_marseille","lat":43.22561,"lon":5.41626,"is_reserved":false,"is_disabled":false,"rental_uris":{"android":"levelo://app?vid=0352f83e-42c9-4b95-aab1-5eb895fe3a3d","ios":"levelo://app?vid=0352f83e-42c9-4b95-aab1-5eb895fe3a3d"},"vehicle_type_id":"4","last_reported":1768897144,"current_range_meters":4400,"station_id":"st_d2o4gvlbi1j2169b742g","pricing_plan_id":"cebpf4jnsgd1na2vs0mg"},{"bike_id":"01a9dfdc-fec3-4957-aa4e-69893e0976c5","system_id":"levelo_inurba_marseille","lat":43.30571,"lon":5.36719,"is_reserved":false,"is_disabled":false,"rental_uris":{"android":"levelo://app?vid=01a9dfdc-fec3-4957-aa4e-69893e0976c5","ios":"levelo://app?vid=01a9dfdc-fec3-4957-aa4e-69893e0976c5"},"vehicle_type_id":"4","last_reported":1768897144,"current_range_meters":4400,"station_id":"ce4bgrp2rcd13ifvqc9g","pricing_plan_id":"cebpf4jnsgd1na2vs0mg"},{"bike_id":"8624033a-b155-4dfa-942e-97fe7f0f8f0b","system_id":"levelo_inurba_marseille","lat":43.27881,"lon":5.38011,"is_reserved":false,"is_disabled":false,"rental_uris":{"android":"levelo://app?vid=8624033a-b155-4dfa-942e-97fe7f0f8f0b","ios":"levelo://app?vid=8624033a-b155-4dfa-942e-97fe7f0f8f0b"},"vehicle_type_id":"4","last_reported":1768897144,"current_range_meters":4400,"station_id":"ce4bhf92rcd13ifvqf50","pricing_plan_id":"cebpf4jnsgd1na2vs0mg"},{"bike_id":"46205775-a613-4ed5-afe6-bdae2b101019","system_id":"levelo_inurba_marseille","lat":43.26677,"lon":5.38275,"is_reserved":false,"is_disabled":false,"rental_uris":{"android":"levelo://app?vid=46205775-a613-4ed5-afe6-bdae2b101019","ios":"levelo://app?vid=46205775-a613-4ed5-afe6-bdae2b101019"},"vehicle_type_id":"4","last_reported":1768897144,"current_range_meters":4400,"station_id":"ce4bhg92rcd13ifvqf90","pricing_plan_id":"cebpf4jnsgd1na2vs0mg"},{"bike_id":"a18f976c-b421-42fa-adc5-e01a6874d476","system_id":"levelo_inurba_marseille","lat":43.31344,"lon":5.36735,"is_reserved":false,"is_disabled":false,"rental_uris":{"android":"levelo://app?vid=a18f976c-b421-42fa-adc5-e01a6874d476","ios":"levelo://app?vid=a18f976c-b421-42fa-adc5-e01a6874d476"},"vehicle_type_id":"4","last_reported":1768897144,"current_range_meters":4400,"station_id":"ce4bgr92rcd13ifvqc6g","pricing_plan_id":"cebpf4jnsgd1na2vs0mg"},{"bike_id":"ac9c01f6-251d-4102-b3ea-0bf6799fcc9a","system_id":"levelo_inurba_marseille","lat":43.25933,"lon":5.40912,"is_reserved":false,"is_disabled":false,"rental_uris":{"android":"levelo://app?vid=ac9c01f6-251d-4102-b3ea-0bf6799fcc9a","ios":"levelo://app?vid=ac9c01f6-251d-4102-b3ea-0bf6799fcc9a"},"vehicle_type_id":"4","last_reported":1768897144,"current_range_meters":4400,"station_id":"ce4bhm92rcd13ifvqglg","pricing_plan_id":"cebpf4jnsgd1na2vs0mg"},{"bike_id":"cb9adb5a-36d7-4f44-bf7f-f263ff40b9cf","system_id":"levelo_inurba_marseille","lat":43.3079,"lon":5.37664,"is_reserved":false,"is_disabled":false,"rental_uris":{"android":"levelo://app?vid=cb9adb5a-36d7-4f44-bf7f-f263ff40b9cf","ios":"levelo://app?vid=cb9adb5a-36d7-4f44-bf7f-f263ff40b9cf"},"vehicle_type_id":"4","last_reported":1768897144,"current_range_meters":4400,"station_id":"ce4bgv92rcd13ifvqcq0","pricing_plan_id":"cebpf4jnsgd1na2vs0mg"},{"bike_id":"e5afdae1-8536-48ae-affe-93a7f04d1b80","system_id":"levelo_inurba_marseille","lat":43.28365,"lon":5.39428,"is_reserved":false,"is_disabled":false,"rental_uris":{"android":"levelo://app?vid=e5afdae1-8536-48ae-affe-93a7f04d1b80","ios":"levelo://app?vid=e5afdae1-8536-48ae-affe-93a7f04d1b80"},"vehicle_type_id":"4","last_reported":1768897144,"current_range_meters":4400,"station_id":"","pricing_plan_id":"cebpf4jnsgd1na2vs0mg"},{"bike_id":"a058569a-2ec8-464b-92a5-7ae40b875cfd","system_id":"levelo_inurba_marseille","lat":43.30303,"lon":5.39226,"is_reserved":false,"is_disabled":false,"rental_uris":{"android":"levelo://app?vid=a058569a-2ec8-464b-92a5-7ae40b875cfd","ios":"levelo://app?vid=a058569a-2ec8-464b-92a5-7ae40b875cfd"},"vehicle_type_id":"4","last_reported":1768897144,"current_range_meters":4400,"station_id":"ce4bgkh2rcd13ifvqbk0","pricing_plan_id":"cebpf4jnsgd1na2vs0mg"},{"bike_id":"a7d68ec7-b7f4-4ec0-9d89-50b16bc15a43","system_id":"levelo_inurba_marseille","lat":43.26564,"lon":5.40328,"is_reserved":false,"is_disabled":false,"rental_uris":{"android":"levelo://app?vid=a7d68ec7-b7f4-4ec0-9d89-50b16bc15a43","ios":"levelo://app?vid=a7d68ec7-b7f4-4ec0-9d89-50b16bc15a43"},"vehicle_type_id":"4","last_reported":1768897144,"current_range_meters":4400,"station_id":"ce4bhmp2rcd13ifvqgng","pricing_plan_id":"cebpf4jnsgd1na2vs0mg"},{"bike_id":"72531f71-d042-483c-a024-3dc9ad4c3b33","system_id":"levelo_inurba_marseille","lat":43.27998,"lon":5.40008,"is_reserved":false,"is_disabled":false,"rental_uris":{"android":"levelo://app?vid=72531f71-d042-483c-a024-3dc9ad4c3b33","ios":"levelo://app?vid=72531f71-d042-483c-a024-3dc9ad4c3b33"},"vehicle_type_id":"4","last_reported":1768897144,"current_range_meters":4800,"station_id":"ce4bho92rcd13ifvqh4g","pricing_plan_id":"cebpf4jnsgd1na2vs0mg"},{"bike_id":"b8fcd8cb-0594-4218-bff2-939b2eaa3365","system_id":"levelo_inurba_marseille","lat":43.279612,"lon":5.410149,"is_reserved":false,"is_disabled":false,"rental_uris":{"android":"levelo://app?vid=b8fcd8cb-0594-4218-bff2-939b2eaa3365","ios":"levelo://app?vid=b8fcd8cb-0594-4218-bff2-939b2eaa3365"},"vehicle_type_id":"4","last_reported":1768897144,"current_range_meters":4800,"station_id":"ce4bhnp2rcd13ifvqh0g","pricing_plan_id":"cebpf4jnsgd1na2vs0mg"},{"bike_id":"7d57c2b3-697c-4b7f-83f1-caedf104c832","system_id":"levelo_inurba_marseille","lat":43.28489,"lon":5.3849,"is_reserved":false,"is_disabled":false,"rental_uris":{"android":"levelo://app?vid=7d57c2b3-697c-4b7f-83f1-caedf104c832","ios":"levelo://app?vid=7d57c2b3-697c-4b7f-83f1-caedf104c832"},"vehicle_type_id":"4","last_reported":1768897144,"current_range_meters":4800,"station_id":"ce4bh8p2rcd13ifvqeb0","pricing_plan_id":"cebpf4jnsgd1na2vs0mg"},{"bike_id":"4f2dd164-7013-43b2-a24e-bc13e5296f6a","system_id":"levelo_inurba_marseille","lat":43.241732,"lon":5.397258,"is_reserved":false,"is_disabled":false,"rental_uris":{"android":"levelo://app?vid=4f2dd164-7013-43b2-a24e-bc13e5296f6a","ios":"levelo://app?vid=4f2dd164-7013-43b2-a24e-bc13e5296f6a"},"vehicle_type_id":"4","last_reported":1768897144,"current_range_meters":4800,"station_id":"ce4bhn12rcd13ifvqgpg","pricing_plan_id":"cebpf4jnsgd1na2vs0mg"},{"bike_id":"ec94fe40-faf8-4393-aa9b-19221cfe6b58","system_id":"levelo_inurba_marseille","lat":43.307231,"lon":5.424507,"is_reserved":false,"is_disabled":false,"rental_uris":{"android":"levelo://app?vid=ec94fe40-faf8-4393-aa9b-19221cfe6b58","ios":"levelo://app?vid=ec94fe40-faf8-4393-aa9b-19221cfe6b58"},"vehicle_type_id":"4","last_reported":1768897144,"current_range_meters":4800,"station_id":"st_cvj6ca6bvosntc0bfgr0","pricing_plan_id":"cebpf4jnsgd1na2vs0mg"},{"bike_id":"56a37558-e777-4ba7-b51a-0378aafa4872","system_id":"levelo_inurba_marseille","lat":43.290344,"lon":5.399595,"is_reserved":false,"is_disabled":false,"rental_uris":{"android":"levelo://app?vid=56a37558-e777-4ba7-b51a-0378aafa4872","ios":"levelo://app?vid=56a37558-e777-4ba7-b51a-0378aafa4872"},"vehicle_type_id":"4","last_reported":1768897144,"current_range_meters":4800,"station_id":"ce4bh392rcd13ifvqdm0","pricing_plan_id":"cebpf4jnsgd1na2vs0mg"},{"bike_id":"39f1692e-e85b-4af8-beb7-46fcd2b200dd","system_id":"levelo_inurba_marseille","lat":43.29601,"lon":5.38102,"is_reserved":false,"is_disabled":false,"rental_uris":{"android":"levelo://app?vid=39f1692e-e85b-4af8-beb7-46fcd2b200dd","ios":"levelo://app?vid=39f1692e-e85b-4af8-beb7-46fcd2b200dd"},"vehicle_type_id":"4","last_reported":1768897144,"current_range_meters":4800,"station_id":"ce4bgl12rcd13ifvqbo0","pricing_plan_id":"cebpf4jnsgd1na2vs0mg"},{"bike_id":"5aa06d9d-1e83-44ce-ae58-4c93eb2b41fe","system_id":"levelo_inurba_marseille","lat":43.26027,"lon":5.3755,"is_reserved":false,"is_disabled":false,"rental_uris":{"android":"levelo://app?vid=5aa06d9d-1e83-44ce-ae58-4c93eb2b41fe","ios":"levelo://app?vid=5aa06d9d-1e83-44ce-ae58-4c93eb2b41fe"},"vehicle_type_id":"4","last_reported":1768897144,"current_range_meters":4800,"station_id":"ce4bhgh2rcd13ifvqfa0","pricing_plan_id":"cebpf4jnsgd1na2vs0mg"},{"bike_id":"88ef51e1-87e4-4bb1-80dc-52855432c5c9","system_id":"levelo_inurba_marseille","lat":43.302101,"lon":5.394551,"is_reserved":false,"is_disabled":false,"rental_uris":{"android":"levelo://app?vid=88ef51e1-87e4-4bb1-80dc-52855432c5c9","ios":"levelo://app?vid=88ef51e1-87e4-4bb1-80dc-52855432c5c9"},"vehicle_type_id":"4","last_reported":1768897144,"current_range_meters":4800,"station_id":"ce4bh0p2rcd13ifvqd70","pricing_plan_id":"cebpf4jnsgd1na2vs0mg"},{"bike_id":"5182a6df-87b2-4514-b894-4cb06e7d7722","system_id":"levelo_inurba_marseille","lat":43.29254,"lon":5.37642,"is_reserved":false,"is_disabled":false,"rental_uris":{"android":"levelo://app?vid=5182a6df-87b2-4514-b894-4cb06e7d7722","ios":"levelo://app?vid=5182a6df-87b2-4514-b894-4cb06e7d7722"},"vehicle_type_id":"4","last_reported":1768897144,"current_range_meters":4800,"station_id":"ce4bgi12rcd13ifvqb80","pricing_plan_id":"cebpf4jnsgd1na2vs0mg"},{"bike_id":"526b8503-7faf-448a-b0f6-00cc94ab5971","system_id":"levelo_inurba_marseille","lat":43.24481,"lon":5.42518,"is_reserved":false,"is_disabled":false,"rental_uris":{"android":"levelo://app?vid=526b8503-7faf-448a-b0f6-00cc94ab5971","ios":"levelo://app?vid=526b8503-7faf-448a-b0f6-00cc94ab5971"},"vehicle_type_id":"4","last_reported":1768897144,"current_range_meters":5600,"station_id":"st_d4a3vfp97mjs738cd8kg","pricing_plan_id":"cebpf4jnsgd1na2vs0mg"},{"bike_id":"65fa859c-fd52-4fc1-bf24-0348f651f61b","system_id":"levelo_inurba_marseille","lat":43.27983,"lon":5.40001,"is_reserved":false,"is_disabled":false,"rental_uris":{"android":"levelo://app?vid=65fa859c-fd52-4fc1-bf24-0348f651f61b","ios":"levelo://app?vid=65fa859c-fd52-4fc1-bf24-0348f651f61b"},"vehicle_type_id":"4","last_reported":1768897144,"current_range_meters":5600,"station_id":"ce4bho92rcd13ifvqh4g","pricing_plan_id":"cebpf4jnsgd1na2vs0mg"},{"bike_id":"c97fb824-00a3-4490-920b-04c35b80521d","system_id":"levelo_inurba_marseille","lat":43.26559,"lon":5.39014,"is_reserved":false,"is_disabled":false,"rental_uris":{"android":"levelo://app?vid=c97fb824-00a3-4490-920b-04c35b80521d","ios":"levelo://app?vid=c97fb824-00a3-4490-920b-04c35b80521d"},"vehicle_type_id":"4","last_reported":1768897144,"current_range_meters":5600,"station_id":"ce4bhe12rcd13ifvqf30","pricing_plan_id":"cebpf4jnsgd1na2vs0mg"},{"bike_id":"6f528fe6-9f08-454c-ae72-57fdaaaae63c","system_id":"levelo_inurba_marseille","lat":43.30593,"lon":5.39342,"is_reserved":false,"is_disabled":false,"rental_uris":{"android":"levelo://app?vid=6f528fe6-9f08-454c-ae72-57fdaaaae63c","ios":"levelo://app?vid=6f528fe6-9f08-454c-ae72-57fdaaaae63c"},"vehicle_type_id":"4","last_reported":1768897144,"current_range_meters":5600,"station_id":"ce4bh0p2rcd13ifvqd80","pricing_plan_id":"cebpf4jnsgd1na2vs0mg"},{"bike_id":"d8bfb2e5-5baa-4794-9f56-3108e552202f","system_id":"levelo_inurba_marseille","lat":43.27793,"lon":5.40738,"is_reserved":false,"is_disabled":false,"rental_uris":{"android":"levelo://app?vid=d8bfb2e5-5baa-4794-9f56-3108e552202f","ios":"levelo://app?vid=d8bfb2e5-5baa-4794-9f56-3108e552202f"},"vehicle_type_id":"4","last_reported":1768897144,"current_range_meters":5600,"station_id":"ce4bhnh2rcd13ifvqgtg","pricing_plan_id":"cebpf4jnsgd1na2vs0mg"},{"bike_id":"e696390d-8036-4f59-a8b6-4285efe55098","system_id":"levelo_inurba_marseille","lat":43.24666,"lon":5.3893,"is_reserved":false,"is_disabled":false,"rental_uris":{"android":"levelo://app?vid=e696390d-8036-4f59-a8b6-4285efe55098","ios":"levelo://app?vid=e696390d-8036-4f59-a8b6-4285efe55098"},"vehicle_type_id":"4","last_reported":1768897144,"current_range_meters":6000,"station_id":"ce4bhg12rcd13ifvqf60","pricing_plan_id":"cebpf4jnsgd1na2vs0mg"},{"bike_id":"2a7e72c7-7fdf-46b5-8e98-fbe8666dc7c0","system_id":"levelo_inurba_marseille","lat":43.24831,"lon":5.37461,"is_reserved":false,"is_disabled":false,"rental_uris":{"android":"levelo://app?vid=2a7e72c7-7fdf-46b5-8e98-fbe8666dc7c0","ios":"levelo://app?vid=2a7e72c7-7fdf-46b5-8e98-fbe8666dc7c0"},"vehicle_type_id":"4","last_reported":1768897144,"current_range_meters":6000,"station_id":"ce4bhgh2rcd13ifvqfb0","pricing_plan_id":"cebpf4jnsgd1na2vs0mg"},{"bike_id":"06bc447b-16e0-4732-afcc-36d4f751f25b","system_id":"levelo_inurba_marseille","lat":43.23153,"lon":5.43717,"is_reserved":false,"is_disabled":false,"rental_uris":{"android":"levelo://app?vid=06bc447b-16e0-4732-afcc-36d4f751f25b","ios":"levelo://app?vid=06bc447b-16e0-4732-afcc-36d4f751f25b"},"vehicle_type_id":"4","last_reported":1768897144,"current_range_meters":6000,"station_id":"ce4bhmp2rcd13ifvqgog","pricing_plan_id":"cebpf4jnsgd1na2vs0mg"},{"bike_id":"dc8c1109-459c-4368-859d-186168c2462d","system_id":"levelo_inurba_marseille","lat":43.24165,"lon":5.36416,"is_reserved":false,"is_disabled":false,"rental_uris":{"android":"levelo://app?vid=dc8c1109-459c-4368-859d-186168c2462d","ios":"levelo://app?vid=dc8c1109-459c-4368-859d-186168c2462d"},"vehicle_type_id":"4","last_reported":1768897144,"current_range_meters":6000,"station_id":"cpo36qri1sfpv3e86is0","pricing_plan_id":"cebpf4jnsgd1na2vs0mg"},{"bike_id":"4695d6ad-5989-432b-94ea-ac0150fad1f8","system_id":"levelo_inurba_marseille","lat":43.26951,"lon":5.38654,"is_reserved":false,"is_disabled":false,"rental_uris":{"android":"levelo://app?vid=4695d6ad-5989-432b-94ea-ac0150fad1f8","ios":"levelo://app?vid=4695d6ad-5989-432b-94ea-ac0150fad1f8"},"vehicle_type_id":"4","last_reported":1768897144,"current_range_meters":6000,"station_id":"ce4bhh92rcd13ifvqfh0","pricing_plan_id":"cebpf4jnsgd1na2vs0mg"},{"bike_id":"e30883dd-96d3-4b00-8b5d-c5c36c37f796","system_id":"levelo_inurba_marseille","lat":43.25571,"lon":5.38204,"is_reserved":false,"is_disabled":false,"rental_uris":{"android":"levelo://app?vid=e30883dd-96d3-4b00-8b5d-c5c36c37f796","ios":"levelo://app?vid=e30883dd-96d3-4b00-8b5d-c5c36c37f796"},"vehicle_type_id":"4","last_reported":1768897144,"current_range_meters":6000,"station_id":"ce4bhih2rcd13ifvqfs0","pricing_plan_id":"cebpf4jnsgd1na2vs0mg"},{"bike_id":"26fa87a8-64e8-4574-88ad-3ef617745c36","system_id":"levelo_inurba_marseille","lat":43.278056,"lon":5.406953,"is_reserved":false,"is_disabled":false,"rental_uris":{"android":"levelo://app?vid=26fa87a8-64e8-4574-88ad-3ef617745c36","ios":"levelo://app?vid=26fa87a8-64e8-4574-88ad-3ef617745c36"},"vehicle_type_id":"4","last_reported":1768897144,"current_range_meters":6000,"station_id":"ce4bhnh2rcd13ifvqgtg","pricing_plan_id":"cebpf4jnsgd1na2vs0mg"},{"bike_id":"b9127574-6b1e-4043-9224-ebb8aeabb571","system_id":"levelo_inurba_marseille","lat":43.30127,"lon":5.38798,"is_reserved":false,"is_disabled":true,"rental_uris":{"android":"levelo://app?vid=b9127574-6b1e-4043-9224-ebb8aeabb571","ios":"levelo://app?vid=b9127574-6b1e-4043-9224-ebb8aeabb571"},"vehicle_type_id":"4","last_reported":1768897144,"current_range_meters":6000,"station_id":"ce4bghh2rcd13ifvqb60","pricing_plan_id":"cebpf4jnsgd1na2vs0mg"},{"bike_id":"f949b1a8-0099-4897-af1c-b4c1c497f28f","system_id":"levelo_inurba_marseille","lat":43.25814,"lon":5.39431,"is_reserved":false,"is_disabled":false,"rental_uris":{"android":"levelo://app?vid=f949b1a8-0099-4897-af1c-b4c1c497f28f","ios":"levelo://app?vid=f949b1a8-0099-4897-af1c-b4c1c497f28f"},"vehicle_type_id":"4","last_reported":1768897144,"current_range_meters":6000,"station_id":"ce4bhip2rcd13ifvqft0","pricing_plan_id":"cebpf4jnsgd1na2vs0mg"},{"bike_id":"82bc016e-ea5f-4e74-95db-96f538282223","system_id":"levelo_inurba_marseille","lat":43.29858,"lon":5.36292,"is_reserved":false,"is_disabled":false,"rental_uris":{"android":"levelo://app?vid=82bc016e-ea5f-4e74-95db-96f538282223","ios":"levelo://app?vid=82bc016e-ea5f-4e74-95db-96f538282223"},"vehicle_type_id":"4","last_reported":1768897144,"current_range_meters":6000,"station_id":"ce4bgpp2rcd13ifvqc3g","pricing_plan_id":"cebpf4jnsgd1na2vs0mg"},{"bike_id":"d0a70439-b068-41ba-bc8d-4fbe10ec4141","system_id":"levelo_inurba_marseille","lat":43.28127,"lon":5.42645,"is_reserved":false,"is_disabled":false,"rental_uris":{"android":"levelo://app?vid=d0a70439-b068-41ba-bc8d-4fbe10ec4141","ios":"levelo://app?vid=d0a70439-b068-41ba-bc8d-4fbe10ec4141"},"vehicle_type_id":"4","last_reported":1768897144,"current_range_meters":6000,"station_id":"ce4bhnh2rcd13ifvqgug","pricing_plan_id":"cebpf4jnsgd1na2vs0mg"},{"bike_id":"90e30c61-c606-4ba6-adb5-183cc649b959","system_id":"levelo_inurba_marseille","lat":43.27943,"lon":5.41048,"is_reserved":false,"is_disabled":false,"rental_uris":{"android":"levelo://app?vid=90e30c61-c606-4ba6-adb5-183cc649b959","ios":"levelo://app?vid=90e30c61-c606-4ba6-adb5-183cc649b959"},"vehicle_type_id":"4","last_reported":1768897144,"current_range_meters":6000,"station_id":"ce4bhnp2rcd13ifvqh0g","pricing_plan_id":"cebpf4jnsgd1na2vs0mg"},{"bike_id":"317dea54-40fb-4f2d-aa87-3d2f63dbed1d","system_id":"levelo_inurba_marseille","lat":43.29052,"lon":5.39971,"is_reserved":false,"is_disabled":false,"rental_uris":{"android":"levelo://app?vid=317dea54-40fb-4f2d-aa87-3d2f63dbed1d","ios":"levelo://app?vid=317dea54-40fb-4f2d-aa87-3d2f63dbed1d"},"vehicle_type_id":"4","last_reported":1768897144,"current_range_meters":6000,"station_id":"ce4bh392rcd13ifvqdm0","pricing_plan_id":"cebpf4jnsgd1na2vs0mg"},{"bike_id":"ec7fe5e4-7baf-467a-a392-423971435bbb","system_id":"levelo_inurba_marseille","lat":43.31698,"lon":5.37776,"is_reserved":false,"is_disabled":false,"rental_uris":{"android":"levelo://app?vid=ec7fe5e4-7baf-467a-a392-423971435bbb","ios":"levelo://app?vid=ec7fe5e4-7baf-467a-a392-423971435bbb"},"vehicle_type_id":"4","last_reported":1768897144,"current_range_meters":6000,"station_id":"ce4bgth2rcd13ifvqch0","pricing_plan_id":"cebpf4jnsgd1na2vs0mg"},{"bike_id":"1d96bc89-a55a-4036-8519-21c71a49b3da","system_id":"levelo_inurba_marseille","lat":43.31134,"lon":5.37985,"is_reserved":false,"is_disabled":false,"rental_uris":{"android":"levelo://app?vid=1d96bc89-a55a-4036-8519-21c71a49b3da","ios":"levelo://app?vid=1d96bc89-a55a-4036-8519-21c71a49b3da"},"vehicle_type_id":"4","last_reported":1768897144,"current_range_meters":6000,"station_id":"","pricing_plan_id":"cebpf4jnsgd1na2vs0mg"},{"bike_id":"77a1140a-0d3b-41a6-b6b0-7d28a908c6be","system_id":"levelo_inurba_marseille","lat":43.24402,"lon":5.37064,"is_reserved":false,"is_disabled":false,"rental_uris":{"android":"levelo://app?vid=77a1140a-0d3b-41a6-b6b0-7d28a908c6be","ios":"levelo://app?vid=77a1140a-0d3b-41a6-b6b0-7d28a908c6be"},"vehicle_type_id":"4","last_reported":1768897144,"current_range_meters":6400,"station_id":"ce4bhhh2rcd13ifvqfk0","pricing_plan_id":"cebpf4jnsgd1na2vs0mg"},{"bike_id":"5c0b6085-ef5d-4ca2-80ac-5c60db0558a8","system_id":"levelo_inurba_marseille","lat":43.3121,"lon":5.3683,"is_reserved":false,"is_disabled":false,"rental_uris":{"android":"levelo://app?vid=5c0b6085-ef5d-4ca2-80ac-5c60db0558a8","ios":"levelo://app?vid=5c0b6085-ef5d-4ca2-80ac-5c60db0558a8"},"vehicle_type_id":"4","last_reported":1768897144,"current_range_meters":6400,"station_id":"ce4bgl92rcd13ifvqbq0","pricing_plan_id":"cebpf4jnsgd1na2vs0mg"},{"bike_id":"fa1138be-8281-443a-aa82-11bedfaaa43c","system_id":"levelo_inurba_marseille","lat":43.29602,"lon":5.38117,"is_reserved":false,"is_disabled":false,"rental_uris":{"android":"levelo://app?vid=fa1138be-8281-443a-aa82-11bedfaaa43c","ios":"levelo://app?vid=fa1138be-8281-443a-aa82-11bedfaaa43c"},"vehicle_type_id":"4","last_reported":1768897144,"current_range_meters":6400,"station_id":"ce4bgl12rcd13ifvqbo0","pricing_plan_id":"cebpf4jnsgd1na2vs0mg"},{"bike_id":"d98680e2-8519-4eb7-88a9-6aba4c293400","system_id":"levelo_inurba_marseille","lat":43.279868,"lon":5.400087,"is_reserved":false,"is_disabled":false,"rental_uris":{"android":"levelo://app?vid=d98680e2-8519-4eb7-88a9-6aba4c293400","ios":"levelo://app?vid=d98680e2-8519-4eb7-88a9-6aba4c293400"},"vehicle_type_id":"4","last_reported":1768897144,"current_range_meters":6400,"station_id":"ce4bho92rcd13ifvqh4g","pricing_plan_id":"cebpf4jnsgd1na2vs0mg"},{"bike_id":"0c4b813a-77f0-4fac-894f-177b1a0b6e9e","system_id":"levelo_inurba_marseille","lat":43.28209,"lon":5.39067,"is_reserved":false,"is_disabled":false,"rental_uris":{"android":"levelo://app?vid=0c4b813a-77f0-4fac-894f-177b1a0b6e9e","ios":"levelo://app?vid=0c4b813a-77f0-4fac-894f-177b1a0b6e9e"},"vehicle_type_id":"4","last_reported":1768897144,"current_range_meters":6400,"station_id":"ce4bhn92rcd13ifvqgsg","pricing_plan_id":"cebpf4jnsgd1na2vs0mg"},{"bike_id":"17afde82-1b49-42f3-8c35-6f5154e1d612","system_id":"levelo_inurba_marseille","lat":43.26513,"lon":5.3956,"is_reserved":false,"is_disabled":false,"rental_uris":{"android":"levelo://app?vid=17afde82-1b49-42f3-8c35-6f5154e1d612","ios":"levelo://app?vid=17afde82-1b49-42f3-8c35-6f5154e1d612"},"vehicle_type_id":"4","last_reported":1768897144,"current_range_meters":6400,"station_id":"ce4bhi12rcd13ifvqfq0","pricing_plan_id":"cebpf4jnsgd1na2vs0mg"},{"bike_id":"a49d6ea3-5841-41c0-b453-ab51566f3ce6","system_id":"levelo_inurba_marseille","lat":43.30459,"lon":5.37911,"is_reserved":false,"is_disabled":false,"rental_uris":{"android":"levelo://app?vid=a49d6ea3-5841-41c0-b453-ab51566f3ce6","ios":"levelo://app?vid=a49d6ea3-5841-41c0-b453-ab51566f3ce6"},"vehicle_type_id":"4","last_reported":1768897144,"current_range_meters":6400,"station_id":"ce4bgup2rcd13ifvqcn0","pricing_plan_id":"cebpf4jnsgd1na2vs0mg"},{"bike_id":"71f428f0-7078-4b8c-ac98-cf141cac017d","system_id":"levelo_inurba_marseille","lat":43.24993,"lon":5.38928,"is_reserved":false,"is_disabled":false,"rental_uris":{"android":"levelo://app?vid=71f428f0-7078-4b8c-ac98-cf141cac017d","ios":"levelo://app?vid=71f428f0-7078-4b8c-ac98-cf141cac017d"},"vehicle_type_id":"4","last_reported":1768897144,"current_range_meters":6400,"station_id":"ce4bhgp2rcd13ifvqfd0","pricing_plan_id":"cebpf4jnsgd1na2vs0mg"},{"bike_id":"f650aff8-e742-48ca-8e77-f4fd3b3eebb9","system_id":"levelo_inurba_marseille","lat":43.26838,"lon":5.39554,"is_reserved":false,"is_disabled":false,"rental_uris":{"android":"levelo://app?vid=f650aff8-e742-48ca-8e77-f4fd3b3eebb9","ios":"levelo://app?vid=f650aff8-e742-48ca-8e77-f4fd3b3eebb9"},"vehicle_type_id":"4","last_reported":1768897144,"current_range_meters":6400,"station_id":"","pricing_plan_id":"cebpf4jnsgd1na2vs0mg"},{"bike_id":"97096676-429c-4f07-9652-1523f48f5442","system_id":"levelo_inurba_marseille","lat":43.30266,"lon":5.43429,"is_reserved":false,"is_disabled":false,"rental_uris":{"android":"levelo://app?vid=97096676-429c-4f07-9652-1523f48f5442","ios":"levelo://app?vid=97096676-429c-4f07-9652-1523f48f5442"},"vehicle_type_id":"4","last_reported":1768897144,"current_range_meters":6400,"station_id":"","pricing_plan_id":"cebpf4jnsgd1na2vs0mg"},{"bike_id":"c945f0ba-a485-4dbc-9c7e-745da3aefd34","system_id":"levelo_inurba_marseille","lat":43.27817,"lon":5.40712,"is_reserved":false,"is_disabled":false,"rental_uris":{"android":"levelo://app?vid=c945f0ba-a485-4dbc-9c7e-745da3aefd34","ios":"levelo://app?vid=c945f0ba-a485-4dbc-9c7e-745da3aefd34"},"vehicle_type_id":"4","last_reported":1768897144,"current_range_meters":6400,"station_id":"ce4bhnh2rcd13ifvqgtg","pricing_plan_id":"cebpf4jnsgd1na2vs0mg"},{"bike_id":"f0a32c6c-7791-4be6-b181-8735c8379d83","system_id":"levelo_inurba_marseille","lat":43.28004,"lon":5.41694,"is_reserved":false,"is_disabled":false,"rental_uris":{"android":"levelo://app?vid=f0a32c6c-7791-4be6-b181-8735c8379d83","ios":"levelo://app?vid=f0a32c6c-7791-4be6-b181-8735c8379d83"},"vehicle_type_id":"4","last_reported":1768897144,"current_range_meters":6400,"station_id":"ce4bho12rcd13ifvqh1g","pricing_plan_id":"cebpf4jnsgd1na2vs0mg"},{"bike_id":"aaef3ec1-41c8-4c84-860e-bea41a8299bc","system_id":"levelo_inurba_marseille","lat":43.225614,"lon":5.416211,"is_reserved":false,"is_disabled":false,"rental_uris":{"android":"levelo://app?vid=aaef3ec1-41c8-4c84-860e-bea41a8299bc","ios":"levelo://app?vid=aaef3ec1-41c8-4c84-860e-bea41a8299bc"},"vehicle_type_id":"4","last_reported":1768897144,"current_range_meters":6400,"station_id":"st_d2o4gvlbi1j2169b742g","pricing_plan_id":"cebpf4jnsgd1na2vs0mg"},{"bike_id":"9e5998a3-e8ec-4ff6-bdc2-90c25f4c041f","system_id":"levelo_inurba_marseille","lat":43.25814,"lon":5.39437,"is_reserved":false,"is_disabled":false,"rental_uris":{"android":"levelo://app?vid=9e5998a3-e8ec-4ff6-bdc2-90c25f4c041f","ios":"levelo://app?vid=9e5998a3-e8ec-4ff6-bdc2-90c25f4c041f"},"vehicle_type_id":"4","last_reported":1768897144,"current_range_meters":6400,"station_id":"ce4bhip2rcd13ifvqft0","pricing_plan_id":"cebpf4jnsgd1na2vs0mg"},{"bike_id":"e2f253b5-562c-4c39-9a5b-8fa890638094","system_id":"levelo_inurba_marseille","lat":43.28083,"lon":5.39653,"is_reserved":false,"is_disabled":false,"rental_uris":{"android":"levelo://app?vid=e2f253b5-562c-4c39-9a5b-8fa890638094","ios":"levelo://app?vid=e2f253b5-562c-4c39-9a5b-8fa890638094"},"vehicle_type_id":"4","last_reported":1768897144,"current_range_meters":6400,"station_id":"ce4bho12rcd13ifvqh2g","pricing_plan_id":"cebpf4jnsgd1na2vs0mg"},{"bike_id":"daee6798-8857-4583-ac1c-a8da4c47a0f8","system_id":"levelo_inurba_marseille","lat":43.29595,"lon":5.38117,"is_reserved":false,"is_disabled":false,"rental_uris":{"android":"levelo://app?vid=daee6798-8857-4583-ac1c-a8da4c47a0f8","ios":"levelo://app?vid=daee6798-8857-4583-ac1c-a8da4c47a0f8"},"vehicle_type_id":"4","last_reported":1768897144,"current_range_meters":6400,"station_id":"ce4bgl12rcd13ifvqbo0","pricing_plan_id":"cebpf4jnsgd1na2vs0mg"},{"bike_id":"d1656b93-1b71-4e85-bf98-22a1e92bb468","system_id":"levelo_inurba_marseille","lat":43.28875,"lon":5.42513,"is_reserved":false,"is_disabled":false,"rental_uris":{"android":"levelo://app?vid=d1656b93-1b71-4e85-bf98-22a1e92bb468","ios":"levelo://app?vid=d1656b93-1b71-4e85-bf98-22a1e92bb468"},"vehicle_type_id":"4","last_reported":1768897144,"current_range_meters":6400,"station_id":"st_d3b462108ojc7389ooeg","pricing_plan_id":"cebpf4jnsgd1na2vs0mg"},{"bike_id":"c45641e0-b0e9-47ee-a276-5280373d04d5","system_id":"levelo_inurba_marseille","lat":43.309513,"lon":5.390357,"is_reserved":false,"is_disabled":false,"rental_uris":{"android":"levelo://app?vid=c45641e0-b0e9-47ee-a276-5280373d04d5","ios":"levelo://app?vid=c45641e0-b0e9-47ee-a276-5280373d04d5"},"vehicle_type_id":"4","last_reported":1768897144,"current_range_meters":6400,"station_id":"ce4bgup2rcd13ifvqco0","pricing_plan_id":"cebpf4jnsgd1na2vs0mg"},{"bike_id":"3c0bb7d7-7ea2-4502-a02e-c86beaa596bf","system_id":"levelo_inurba_marseille","lat":43.28926,"lon":5.38423,"is_reserved":false,"is_disabled":true,"rental_uris":{"android":"levelo://app?vid=3c0bb7d7-7ea2-4502-a02e-c86beaa596bf","ios":"levelo://app?vid=3c0bb7d7-7ea2-4502-a02e-c86beaa596bf"},"vehicle_type_id":"4","last_reported":1768897144,"current_range_meters":6400,"station_id":"ce4bh612rcd13ifvqe6g","pricing_plan_id":"cebpf4jnsgd1na2vs0mg"},{"bike_id":"db8f52a1-b0e7-49f6-b4c4-5c1eaaec43e5","system_id":"levelo_inurba_marseille","lat":43.25579,"lon":5.38248,"is_reserved":false,"is_disabled":false,"rental_uris":{"android":"levelo://app?vid=db8f52a1-b0e7-49f6-b4c4-5c1eaaec43e5","ios":"levelo://app?vid=db8f52a1-b0e7-49f6-b4c4-5c1eaaec43e5"},"vehicle_type_id":"4","last_reported":1768897144,"current_range_meters":6400,"station_id":"ce4bhih2rcd13ifvqfs0","pricing_plan_id":"cebpf4jnsgd1na2vs0mg"},{"bike_id":"a8d2063b-b136-4ccb-ad44-f4ea411c2cb1","system_id":"levelo_inurba_marseille","lat":43.24637,"lon":5.43148,"is_reserved":false,"is_disabled":false,"rental_uris":{"android":"levelo://app?vid=a8d2063b-b136-4ccb-ad44-f4ea411c2cb1","ios":"levelo://app?vid=a8d2063b-b136-4ccb-ad44-f4ea411c2cb1"},"vehicle_type_id":"4","last_reported":1768897144,"current_range_meters":6800,"station_id":"st_d2m6c4gdas8pm72e190g","pricing_plan_id":"cebpf4jnsgd1na2vs0mg"},{"bike_id":"9a6fa9d6-bd85-41a0-a1be-8f3bc0337c0a","system_id":"levelo_inurba_marseille","lat":43.2446,"lon":5.42543,"is_reserved":false,"is_disabled":false,"rental_uris":{"android":"levelo://app?vid=9a6fa9d6-bd85-41a0-a1be-8f3bc0337c0a","ios":"levelo://app?vid=9a6fa9d6-bd85-41a0-a1be-8f3bc0337c0a"},"vehicle_type_id":"4","last_reported":1768897144,"current_range_meters":6800,"station_id":"st_d4a3vfp97mjs738cd8kg","pricing_plan_id":"cebpf4jnsgd1na2vs0mg"},{"bike_id":"b4d4d78b-c7ae-46d1-84aa-0c58c638c8ea","system_id":"levelo_inurba_marseille","lat":43.27971,"lon":5.41686,"is_reserved":false,"is_disabled":false,"rental_uris":{"android":"levelo://app?vid=b4d4d78b-c7ae-46d1-84aa-0c58c638c8ea","ios":"levelo://app?vid=b4d4d78b-c7ae-46d1-84aa-0c58c638c8ea"},"vehicle_type_id":"4","last_reported":1768897144,"current_range_meters":6800,"station_id":"ce4bho12rcd13ifvqh1g","pricing_plan_id":"cebpf4jnsgd1na2vs0mg"},{"bike_id":"6e7007a4-50a4-410a-b7bd-d0ebb7830797","system_id":"levelo_inurba_marseille","lat":43.2417,"lon":5.39723,"is_reserved":false,"is_disabled":false,"rental_uris":{"android":"levelo://app?vid=6e7007a4-50a4-410a-b7bd-d0ebb7830797","ios":"levelo://app?vid=6e7007a4-50a4-410a-b7bd-d0ebb7830797"},"vehicle_type_id":"4","last_reported":1768897144,"current_range_meters":6800,"station_id":"ce4bhn12rcd13ifvqgpg","pricing_plan_id":"cebpf4jnsgd1na2vs0mg"},{"bike_id":"2665ab95-ad90-448b-bca5-990715f7bbed","system_id":"levelo_inurba_marseille","lat":43.2984,"lon":5.36269,"is_reserved":false,"is_disabled":false,"rental_uris":{"android":"levelo://app?vid=2665ab95-ad90-448b-bca5-990715f7bbed","ios":"levelo://app?vid=2665ab95-ad90-448b-bca5-990715f7bbed"},"vehicle_type_id":"4","last_reported":1768897144,"current_range_meters":6800,"station_id":"ce4bgpp2rcd13ifvqc3g","pricing_plan_id":"cebpf4jnsgd1na2vs0mg"},{"bike_id":"fc17e8b9-2adb-4e96-bbab-76941e2577c9","system_id":"levelo_inurba_marseille","lat":43.25736,"lon":5.38987,"is_reserved":false,"is_disabled":false,"rental_uris":{"android":"levelo://app?vid=fc17e8b9-2adb-4e96-bbab-76941e2577c9","ios":"levelo://app?vid=fc17e8b9-2adb-4e96-bbab-76941e2577c9"},"vehicle_type_id":"4","last_reported":1768897144,"current_range_meters":6800,"station_id":"","pricing_plan_id":"cebpf4jnsgd1na2vs0mg"},{"bike_id":"42b5ad2d-acd8-454f-95e3-acdb00543462","system_id":"levelo_inurba_marseille","lat":43.26054,"lon":5.39393,"is_reserved":false,"is_disabled":false,"rental_uris":{"android":"levelo://app?vid=42b5ad2d-acd8-454f-95e3-acdb00543462","ios":"levelo://app?vid=42b5ad2d-acd8-454f-95e3-acdb00543462"},"vehicle_type_id":"4","last_reported":1768897144,"current_range_meters":6800,"station_id":"ce4bhh92rcd13ifvqfj0","pricing_plan_id":"cebpf4jnsgd1na2vs0mg"},{"bike_id":"f9521f2f-ef1d-4474-82c2-4520713c5b63","system_id":"levelo_inurba_marseille","lat":43.27989,"lon":5.41668,"is_reserved":false,"is_disabled":false,"rental_uris":{"android":"levelo://app?vid=f9521f2f-ef1d-4474-82c2-4520713c5b63","ios":"levelo://app?vid=f9521f2f-ef1d-4474-82c2-4520713c5b63"},"vehicle_type_id":"4","last_reported":1768897144,"current_range_meters":6800,"station_id":"ce4bho12rcd13ifvqh1g","pricing_plan_id":"cebpf4jnsgd1na2vs0mg"},{"bike_id":"aaff8d94-1fa8-4cba-bdbc-2775e2b840f4","system_id":"levelo_inurba_marseille","lat":43.309249,"lon":5.380336,"is_reserved":false,"is_disabled":false,"rental_uris":{"android":"levelo://app?vid=aaff8d94-1fa8-4cba-bdbc-2775e2b840f4","ios":"levelo://app?vid=aaff8d94-1fa8-4cba-bdbc-2775e2b840f4"},"vehicle_type_id":"4","last_reported":1768897144,"current_range_meters":6800,"station_id":"","pricing_plan_id":"cebpf4jnsgd1na2vs0mg"},{"bike_id":"efa38cb7-a84d-49d1-a1ea-367fe8bf17b7","system_id":"levelo_inurba_marseille","lat":43.30318,"lon":5.36908,"is_reserved":false,"is_disabled":false,"rental_uris":{"android":"levelo://app?vid=efa38cb7-a84d-49d1-a1ea-367fe8bf17b7","ios":"levelo://app?vid=efa38cb7-a84d-49d1-a1ea-367fe8bf17b7"},"vehicle_type_id":"4","last_reported":1768897144,"current_range_meters":6800,"station_id":"ce4bgqh2rcd13ifvqc5g","pricing_plan_id":"cebpf4jnsgd1na2vs0mg"},{"bike_id":"6b270a13-432c-4423-9780-258cd5a71fec","system_id":"levelo_inurba_marseille","lat":43.25919,"lon":5.40907,"is_reserved":false,"is_disabled":false,"rental_uris":{"android":"levelo://app?vid=6b270a13-432c-4423-9780-258cd5a71fec","ios":"levelo://app?vid=6b270a13-432c-4423-9780-258cd5a71fec"},"vehicle_type_id":"4","last_reported":1768897144,"current_range_meters":6800,"station_id":"ce4bhm92rcd13ifvqglg","pricing_plan_id":"cebpf4jnsgd1na2vs0mg"},{"bike_id":"3864feb4-c679-4465-83fa-c397935811eb","system_id":"levelo_inurba_marseille","lat":43.31337,"lon":5.36734,"is_reserved":false,"is_disabled":false,"rental_uris":{"android":"levelo://app?vid=3864feb4-c679-4465-83fa-c397935811eb","ios":"levelo://app?vid=3864feb4-c679-4465-83fa-c397935811eb"},"vehicle_type_id":"4","last_reported":1768897144,"current_range_meters":6800,"station_id":"ce4bgr92rcd13ifvqc6g","pricing_plan_id":"cebpf4jnsgd1na2vs0mg"},{"bike_id":"2307914b-054b-4106-bb3b-0a9704bb5a67","system_id":"levelo_inurba_marseille","lat":43.26375,"lon":5.41082,"is_reserved":false,"is_disabled":false,"rental_uris":{"android":"levelo://app?vid=2307914b-054b-4106-bb3b-0a9704bb5a67","ios":"levelo://app?vid=2307914b-054b-4106-bb3b-0a9704bb5a67"},"vehicle_type_id":"4","last_reported":1768897144,"current_range_meters":6800,"station_id":"st_d4e5ca6na9uc73bfl5fg","pricing_plan_id":"cebpf4jnsgd1na2vs0mg"},{"bike_id":"dc7f2cde-f394-4ae1-b0e4-a51d66aa1255","system_id":"levelo_inurba_marseille","lat":43.28145,"lon":5.43158,"is_reserved":false,"is_disabled":false,"rental_uris":{"android":"levelo://app?vid=dc7f2cde-f394-4ae1-b0e4-a51d66aa1255","ios":"levelo://app?vid=dc7f2cde-f394-4ae1-b0e4-a51d66aa1255"},"vehicle_type_id":"4","last_reported":1768897144,"current_range_meters":6800,"station_id":"","pricing_plan_id":"cebpf4jnsgd1na2vs0mg"},{"bike_id":"cc08d2b6-69fb-4c32-9f0f-91f88c556b74","system_id":"levelo_inurba_marseille","lat":43.22927,"lon":5.35402,"is_reserved":false,"is_disabled":false,"rental_uris":{"android":"levelo://app?vid=cc08d2b6-69fb-4c32-9f0f-91f88c556b74","ios":"levelo://app?vid=cc08d2b6-69fb-4c32-9f0f-91f88c556b74"},"vehicle_type_id":"4","last_reported":1768897144,"current_range_meters":6800,"station_id":"cpo3532slgdg3j2ikp40","pricing_plan_id":"cebpf4jnsgd1na2vs0mg"},{"bike_id":"0295f9ba-4e73-430a-9e09-5c8e9c5ec835","system_id":"levelo_inurba_marseille","lat":43.27953,"lon":5.41048,"is_reserved":false,"is_disabled":false,"rental_uris":{"android":"levelo://app?vid=0295f9ba-4e73-430a-9e09-5c8e9c5ec835","ios":"levelo://app?vid=0295f9ba-4e73-430a-9e09-5c8e9c5ec835"},"vehicle_type_id":"4","last_reported":1768897144,"current_range_meters":7200,"station_id":"ce4bhnp2rcd13ifvqh0g","pricing_plan_id":"cebpf4jnsgd1na2vs0mg"},{"bike_id":"3a73d29d-19a3-4829-b646-774a893045f4","system_id":"levelo_inurba_marseille","lat":43.24467,"lon":5.42538,"is_reserved":false,"is_disabled":false,"rental_uris":{"android":"levelo://app?vid=3a73d29d-19a3-4829-b646-774a893045f4","ios":"levelo://app?vid=3a73d29d-19a3-4829-b646-774a893045f4"},"vehicle_type_id":"4","last_reported":1768897144,"current_range_meters":7200,"station_id":"st_d4a3vfp97mjs738cd8kg","pricing_plan_id":"cebpf4jnsgd1na2vs0mg"},{"bike_id":"826aeb2d-9384-4062-9da4-ff770f5b59dd","system_id":"levelo_inurba_marseille","lat":43.26065,"lon":5.39395,"is_reserved":false,"is_disabled":false,"rental_uris":{"android":"levelo://app?vid=826aeb2d-9384-4062-9da4-ff770f5b59dd","ios":"levelo://app?vid=826aeb2d-9384-4062-9da4-ff770f5b59dd"},"vehicle_type_id":"4","last_reported":1768897144,"current_range_meters":7200,"station_id":"ce4bhh92rcd13ifvqfj0","pricing_plan_id":"cebpf4jnsgd1na2vs0mg"},{"bike_id":"21af5764-4865-41d2-abcd-e9a740f91eb4","system_id":"levelo_inurba_marseille","lat":43.26583,"lon":5.40309,"is_reserved":false,"is_disabled":false,"rental_uris":{"android":"levelo://app?vid=21af5764-4865-41d2-abcd-e9a740f91eb4","ios":"levelo://app?vid=21af5764-4865-41d2-abcd-e9a740f91eb4"},"vehicle_type_id":"4","last_reported":1768897144,"current_range_meters":7200,"station_id":"ce4bhmp2rcd13ifvqgng","pricing_plan_id":"cebpf4jnsgd1na2vs0mg"},{"bike_id":"c7344772-1d82-45a6-8b80-bf254e451eef","system_id":"levelo_inurba_marseille","lat":43.31278,"lon":5.37743,"is_reserved":false,"is_disabled":true,"rental_uris":{"android":"levelo://app?vid=c7344772-1d82-45a6-8b80-bf254e451eef","ios":"levelo://app?vid=c7344772-1d82-45a6-8b80-bf254e451eef"},"vehicle_type_id":"4","last_reported":1768897144,"current_range_meters":7200,"station_id":"","pricing_plan_id":"cebpf4jnsgd1na2vs0mg"},{"bike_id":"73a4e6a5-0c0f-409b-a59b-671187d7eeb4","system_id":"levelo_inurba_marseille","lat":43.24167,"lon":5.3971,"is_reserved":false,"is_disabled":false,"rental_uris":{"android":"levelo://app?vid=73a4e6a5-0c0f-409b-a59b-671187d7eeb4","ios":"levelo://app?vid=73a4e6a5-0c0f-409b-a59b-671187d7eeb4"},"vehicle_type_id":"4","last_reported":1768897144,"current_range_meters":7200,"station_id":"ce4bhn12rcd13ifvqgpg","pricing_plan_id":"cebpf4jnsgd1na2vs0mg"},{"bike_id":"9cff5037-b95f-4160-aed4-0c6a74c5919b","system_id":"levelo_inurba_marseille","lat":43.28478,"lon":5.48442,"is_reserved":false,"is_disabled":false,"rental_uris":{"android":"levelo://app?vid=9cff5037-b95f-4160-aed4-0c6a74c5919b","ios":"levelo://app?vid=9cff5037-b95f-4160-aed4-0c6a74c5919b"},"vehicle_type_id":"4","last_reported":1768897144,"current_range_meters":7200,"station_id":"st_d3svhcjqgbts73a3dn0g","pricing_plan_id":"cebpf4jnsgd1na2vs0mg"},{"bike_id":"4a54421e-c705-4c8b-9b98-a1c176516748","system_id":"levelo_inurba_marseille","lat":43.30587,"lon":5.37217,"is_reserved":false,"is_disabled":false,"rental_uris":{"android":"levelo://app?vid=4a54421e-c705-4c8b-9b98-a1c176516748","ios":"levelo://app?vid=4a54421e-c705-4c8b-9b98-a1c176516748"},"vehicle_type_id":"4","last_reported":1768897144,"current_range_meters":7200,"station_id":"ce4bgqh2rcd13ifvqc4g","pricing_plan_id":"cebpf4jnsgd1na2vs0mg"},{"bike_id":"f1d4233d-2911-4edf-a268-ad1589486129","system_id":"levelo_inurba_marseille","lat":43.24165,"lon":5.39723,"is_reserved":false,"is_disabled":false,"rental_uris":{"android":"levelo://app?vid=f1d4233d-2911-4edf-a268-ad1589486129","ios":"levelo://app?vid=f1d4233d-2911-4edf-a268-ad1589486129"},"vehicle_type_id":"4","last_reported":1768897144,"current_range_meters":7200,"station_id":"ce4bhn12rcd13ifvqgpg","pricing_plan_id":"cebpf4jnsgd1na2vs0mg"},{"bike_id":"855173a0-3379-49a2-8d48-56dd2230240e","system_id":"levelo_inurba_marseille","lat":43.27488,"lon":5.42465,"is_reserved":false,"is_disabled":false,"rental_uris":{"android":"levelo://app?vid=855173a0-3379-49a2-8d48-56dd2230240e","ios":"levelo://app?vid=855173a0-3379-49a2-8d48-56dd2230240e"},"vehicle_type_id":"4","last_reported":1768897144,"current_range_meters":7200,"station_id":"ce4bhn92rcd13ifvqgrg","pricing_plan_id":"cebpf4jnsgd1na2vs0mg"},{"bike_id":"3cf4f121-47f1-4ab7-8209-fc71d72f0a66","system_id":"levelo_inurba_marseille","lat":43.31508,"lon":5.37966,"is_reserved":false,"is_disabled":false,"rental_uris":{"android":"levelo://app?vid=3cf4f121-47f1-4ab7-8209-fc71d72f0a66","ios":"levelo://app?vid=3cf4f121-47f1-4ab7-8209-fc71d72f0a66"},"vehicle_type_id":"4","last_reported":1768897144,"current_range_meters":7200,"station_id":"","pricing_plan_id":"cebpf4jnsgd1na2vs0mg"},{"bike_id":"176318cf-e028-4b60-b35f-943e1fc22a08","system_id":"levelo_inurba_marseille","lat":43.33719,"lon":5.39197,"is_reserved":false,"is_disabled":false,"rental_uris":{"android":"levelo://app?vid=176318cf-e028-4b60-b35f-943e1fc22a08","ios":"levelo://app?vid=176318cf-e028-4b60-b35f-943e1fc22a08"},"vehicle_type_id":"4","last_reported":1768897144,"current_range_meters":7200,"station_id":"ce4bhr92rcd13ifvqhsg","pricing_plan_id":"cebpf4jnsgd1na2vs0mg"},{"bike_id":"b005335c-6b18-438b-8b3c-63321309c058","system_id":"levelo_inurba_marseille","lat":43.31379,"lon":5.36745,"is_reserved":false,"is_disabled":false,"rental_uris":{"android":"levelo://app?vid=b005335c-6b18-438b-8b3c-63321309c058","ios":"levelo://app?vid=b005335c-6b18-438b-8b3c-63321309c058"},"vehicle_type_id":"4","last_reported":1768897144,"current_range_meters":7200,"station_id":"ce4bgr92rcd13ifvqc6g","pricing_plan_id":"cebpf4jnsgd1na2vs0mg"},{"bike_id":"ea1b6251-046e-45fa-99ed-c6d51993189a","system_id":"levelo_inurba_marseille","lat":43.23964,"lon":5.3663,"is_reserved":false,"is_disabled":false,"rental_uris":{"android":"levelo://app?vid=ea1b6251-046e-45fa-99ed-c6d51993189a","ios":"levelo://app?vid=ea1b6251-046e-45fa-99ed-c6d51993189a"},"vehicle_type_id":"4","last_reported":1768897144,"current_range_meters":7200,"station_id":"ce4bhi12rcd13ifvqfp0","pricing_plan_id":"cebpf4jnsgd1na2vs0mg"},{"bike_id":"705085e2-9b40-490f-8b97-ff135b7389a2","system_id":"levelo_inurba_marseille","lat":43.27491,"lon":5.42455,"is_reserved":false,"is_disabled":false,"rental_uris":{"android":"levelo://app?vid=705085e2-9b40-490f-8b97-ff135b7389a2","ios":"levelo://app?vid=705085e2-9b40-490f-8b97-ff135b7389a2"},"vehicle_type_id":"4","last_reported":1768897144,"current_range_meters":7200,"station_id":"ce4bhn92rcd13ifvqgrg","pricing_plan_id":"cebpf4jnsgd1na2vs0mg"},{"bike_id":"108b0029-d01a-4933-8e88-16292523c45d","system_id":"levelo_inurba_marseille","lat":43.24648,"lon":5.38897,"is_reserved":false,"is_disabled":false,"rental_uris":{"android":"levelo://app?vid=108b0029-d01a-4933-8e88-16292523c45d","ios":"levelo://app?vid=108b0029-d01a-4933-8e88-16292523c45d"},"vehicle_type_id":"4","last_reported":1768897144,"current_range_meters":7200,"station_id":"ce4bhg12rcd13ifvqf60","pricing_plan_id":"cebpf4jnsgd1na2vs0mg"},{"bike_id":"85c08aa5-29a6-4378-a34a-4b44d3f93913","system_id":"levelo_inurba_marseille","lat":43.31348,"lon":5.36727,"is_reserved":false,"is_disabled":false,"rental_uris":{"android":"levelo://app?vid=85c08aa5-29a6-4378-a34a-4b44d3f93913","ios":"levelo://app?vid=85c08aa5-29a6-4378-a34a-4b44d3f93913"},"vehicle_type_id":"4","last_reported":1768897144,"current_range_meters":8000,"station_id":"ce4bgr92rcd13ifvqc6g","pricing_plan_id":"cebpf4jnsgd1na2vs0mg"},{"bike_id":"2351e1c9-97c0-42ed-8ba7-93d168c64106","system_id":"levelo_inurba_marseille","lat":43.29773,"lon":5.42825,"is_reserved":false,"is_disabled":false,"rental_uris":{"android":"levelo://app?vid=2351e1c9-97c0-42ed-8ba7-93d168c64106","ios":"levelo://app?vid=2351e1c9-97c0-42ed-8ba7-93d168c64106"},"vehicle_type_id":"4","last_reported":1768897144,"current_range_meters":8000,"station_id":"st_d3md5207bmas73dh9klg","pricing_plan_id":"cebpf4jnsgd1na2vs0mg"},{"bike_id":"7a90f0b5-efb2-4f9b-b145-8cb8cb6e532b","system_id":"levelo_inurba_marseille","lat":43.31123,"lon":5.37777,"is_reserved":false,"is_disabled":false,"rental_uris":{"android":"levelo://app?vid=7a90f0b5-efb2-4f9b-b145-8cb8cb6e532b","ios":"levelo://app?vid=7a90f0b5-efb2-4f9b-b145-8cb8cb6e532b"},"vehicle_type_id":"4","last_reported":1768897144,"current_range_meters":8000,"station_id":"ce4bgt92rcd13ifvqcg0","pricing_plan_id":"cebpf4jnsgd1na2vs0mg"},{"bike_id":"fb399f5a-106d-4e4e-b0b6-eb700dad2449","system_id":"levelo_inurba_marseille","lat":43.28612,"lon":5.39889,"is_reserved":false,"is_disabled":true,"rental_uris":{"android":"levelo://app?vid=fb399f5a-106d-4e4e-b0b6-eb700dad2449","ios":"levelo://app?vid=fb399f5a-106d-4e4e-b0b6-eb700dad2449"},"vehicle_type_id":"4","last_reported":1768897144,"current_range_meters":8000,"station_id":"ce4bho92rcd13ifvqh3g","pricing_plan_id":"cebpf4jnsgd1na2vs0mg"},{"bike_id":"9cb27437-adfd-4bb4-84b2-c9248f55d1b3","system_id":"levelo_inurba_marseille","lat":43.30541,"lon":5.36701,"is_reserved":false,"is_disabled":false,"rental_uris":{"android":"levelo://app?vid=9cb27437-adfd-4bb4-84b2-c9248f55d1b3","ios":"levelo://app?vid=9cb27437-adfd-4bb4-84b2-c9248f55d1b3"},"vehicle_type_id":"4","last_reported":1768897144,"current_range_meters":8000,"station_id":"ce4bgrp2rcd13ifvqc9g","pricing_plan_id":"cebpf4jnsgd1na2vs0mg"},{"bike_id":"d6cd796c-ce30-4e18-a8ac-0259e62aaa47","system_id":"levelo_inurba_marseille","lat":43.25959,"lon":5.40883,"is_reserved":false,"is_disabled":false,"rental_uris":{"android":"levelo://app?vid=d6cd796c-ce30-4e18-a8ac-0259e62aaa47","ios":"levelo://app?vid=d6cd796c-ce30-4e18-a8ac-0259e62aaa47"},"vehicle_type_id":"4","last_reported":1768897144,"current_range_meters":8000,"station_id":"ce4bhm92rcd13ifvqglg","pricing_plan_id":"cebpf4jnsgd1na2vs0mg"},{"bike_id":"40e2667e-f23a-4ded-8ddb-fef4d5eb0dfe","system_id":"levelo_inurba_marseille","lat":43.25534,"lon":5.37684,"is_reserved":false,"is_disabled":false,"rental_uris":{"android":"levelo://app?vid=40e2667e-f23a-4ded-8ddb-fef4d5eb0dfe","ios":"levelo://app?vid=40e2667e-f23a-4ded-8ddb-fef4d5eb0dfe"},"vehicle_type_id":"4","last_reported":1768897144,"current_range_meters":8000,"station_id":"","pricing_plan_id":"cebpf4jnsgd1na2vs0mg"},{"bike_id":"4d9fb050-4361-4bab-ba3c-960b4264587c","system_id":"levelo_inurba_marseille","lat":43.33063,"lon":5.39073,"is_reserved":false,"is_disabled":false,"rental_uris":{"android":"levelo://app?vid=4d9fb050-4361-4bab-ba3c-960b4264587c","ios":"levelo://app?vid=4d9fb050-4361-4bab-ba3c-960b4264587c"},"vehicle_type_id":"4","last_reported":1768897144,"current_range_meters":8000,"station_id":"","pricing_plan_id":"cebpf4jnsgd1na2vs0mg"},{"bike_id":"801303f1-cf94-4013-b35a-0d38a90415b0","system_id":"levelo_inurba_marseille","lat":43.25814,"lon":5.39426,"is_reserved":false,"is_disabled":false,"rental_uris":{"android":"levelo://app?vid=801303f1-cf94-4013-b35a-0d38a90415b0","ios":"levelo://app?vid=801303f1-cf94-4013-b35a-0d38a90415b0"},"vehicle_type_id":"4","last_reported":1768897144,"current_range_meters":8000,"station_id":"ce4bhip2rcd13ifvqft0","pricing_plan_id":"cebpf4jnsgd1na2vs0mg"},{"bike_id":"1cd68235-0dd0-4a18-b47e-f8a039dc8288","system_id":"levelo_inurba_marseille","lat":43.26368,"lon":5.41092,"is_reserved":false,"is_disabled":false,"rental_uris":{"android":"levelo://app?vid=1cd68235-0dd0-4a18-b47e-f8a039dc8288","ios":"levelo://app?vid=1cd68235-0dd0-4a18-b47e-f8a039dc8288"},"vehicle_type_id":"4","last_reported":1768897144,"current_range_meters":8000,"station_id":"st_d4e5ca6na9uc73bfl5fg","pricing_plan_id":"cebpf4jnsgd1na2vs0mg"},{"bike_id":"e3caaaee-f8d9-44b6-b3d8-e04b5e8c88ba","system_id":"levelo_inurba_marseille","lat":43.27828,"lon":5.40743,"is_reserved":false,"is_disabled":false,"rental_uris":{"android":"levelo://app?vid=e3caaaee-f8d9-44b6-b3d8-e04b5e8c88ba","ios":"levelo://app?vid=e3caaaee-f8d9-44b6-b3d8-e04b5e8c88ba"},"vehicle_type_id":"4","last_reported":1768897144,"current_range_meters":8000,"station_id":"ce4bhnh2rcd13ifvqgtg","pricing_plan_id":"cebpf4jnsgd1na2vs0mg"},{"bike_id":"6c3a5c15-7423-4a25-87ba-05f3c8d2d87e","system_id":"levelo_inurba_marseille","lat":43.32359,"lon":5.3676,"is_reserved":false,"is_disabled":false,"rental_uris":{"android":"levelo://app?vid=6c3a5c15-7423-4a25-87ba-05f3c8d2d87e","ios":"levelo://app?vid=6c3a5c15-7423-4a25-87ba-05f3c8d2d87e"},"vehicle_type_id":"4","last_reported":1768897144,"current_range_meters":8000,"station_id":"ce4bhsh2rcd13ifvqi2g","pricing_plan_id":"cebpf4jnsgd1na2vs0mg"},{"bike_id":"9100f923-3f20-444b-a854-4815d4c3d764","system_id":"levelo_inurba_marseille","lat":43.23956,"lon":5.36654,"is_reserved":false,"is_disabled":false,"rental_uris":{"android":"levelo://app?vid=9100f923-3f20-444b-a854-4815d4c3d764","ios":"levelo://app?vid=9100f923-3f20-444b-a854-4815d4c3d764"},"vehicle_type_id":"4","last_reported":1768897144,"current_range_meters":8000,"station_id":"ce4bhi12rcd13ifvqfp0","pricing_plan_id":"cebpf4jnsgd1na2vs0mg"},{"bike_id":"a7b9b0ec-83f6-40df-aa25-854c700427e8","system_id":"levelo_inurba_marseille","lat":43.24806,"lon":5.37506,"is_reserved":false,"is_disabled":false,"rental_uris":{"android":"levelo://app?vid=a7b9b0ec-83f6-40df-aa25-854c700427e8","ios":"levelo://app?vid=a7b9b0ec-83f6-40df-aa25-854c700427e8"},"vehicle_type_id":"4","last_reported":1768897144,"current_range_meters":8000,"station_id":"","pricing_plan_id":"cebpf4jnsgd1na2vs0mg"},{"bike_id":"0634eda3-5170-4755-998a-c89a73b107a3","system_id":"levelo_inurba_marseille","lat":43.30127,"lon":5.38783,"is_reserved":false,"is_disabled":true,"rental_uris":{"android":"levelo://app?vid=0634eda3-5170-4755-998a-c89a73b107a3","ios":"levelo://app?vid=0634eda3-5170-4755-998a-c89a73b107a3"},"vehicle_type_id":"4","last_reported":1768897144,"current_range_meters":8000,"station_id":"ce4bghh2rcd13ifvqb60","pricing_plan_id":"cebpf4jnsgd1na2vs0mg"},{"bike_id":"16bdd1b6-65f4-4e8a-9452-5af781b80fc6","system_id":"levelo_inurba_marseille","lat":43.3135,"lon":5.36727,"is_reserved":false,"is_disabled":false,"rental_uris":{"android":"levelo://app?vid=16bdd1b6-65f4-4e8a-9452-5af781b80fc6","ios":"levelo://app?vid=16bdd1b6-65f4-4e8a-9452-5af781b80fc6"},"vehicle_type_id":"4","last_reported":1768897144,"current_range_meters":8000,"station_id":"ce4bgr92rcd13ifvqc6g","pricing_plan_id":"cebpf4jnsgd1na2vs0mg"},{"bike_id":"3f155f0c-a1bd-400f-8289-4fd480af1e73","system_id":"levelo_inurba_marseille","lat":43.29125,"lon":5.3828,"is_reserved":false,"is_disabled":false,"rental_uris":{"android":"levelo://app?vid=3f155f0c-a1bd-400f-8289-4fd480af1e73","ios":"levelo://app?vid=3f155f0c-a1bd-400f-8289-4fd480af1e73"},"vehicle_type_id":"4","last_reported":1768897144,"current_range_meters":8000,"station_id":"","pricing_plan_id":"cebpf4jnsgd1na2vs0mg"},{"bike_id":"5061baf0-9869-438a-938f-a0ff2b78a8d8","system_id":"levelo_inurba_marseille","lat":43.27977,"lon":5.41664,"is_reserved":false,"is_disabled":false,"rental_uris":{"android":"levelo://app?vid=5061baf0-9869-438a-938f-a0ff2b78a8d8","ios":"levelo://app?vid=5061baf0-9869-438a-938f-a0ff2b78a8d8"},"vehicle_type_id":"4","last_reported":1768897144,"current_range_meters":8000,"station_id":"ce4bho12rcd13ifvqh1g","pricing_plan_id":"cebpf4jnsgd1na2vs0mg"},{"bike_id":"5d6ec190-4e3f-4728-8145-239caf53150f","system_id":"levelo_inurba_marseille","lat":43.306798,"lon":5.402962,"is_reserved":false,"is_disabled":false,"rental_uris":{"android":"levelo://app?vid=5d6ec190-4e3f-4728-8145-239caf53150f","ios":"levelo://app?vid=5d6ec190-4e3f-4728-8145-239caf53150f"},"vehicle_type_id":"4","last_reported":1768897144,"current_range_meters":8000,"station_id":"","pricing_plan_id":"cebpf4jnsgd1na2vs0mg"},{"bike_id":"fdc6c686-a63e-42ac-8637-afd5d70ee598","system_id":"levelo_inurba_marseille","lat":43.29269,"lon":5.40111,"is_reserved":false,"is_disabled":false,"rental_uris":{"android":"levelo://app?vid=fdc6c686-a63e-42ac-8637-afd5d70ee598","ios":"levelo://app?vid=fdc6c686-a63e-42ac-8637-afd5d70ee598"},"vehicle_type_id":"4","last_reported":1768897144,"current_range_meters":8000,"station_id":"ce4bh312rcd13ifvqdk0","pricing_plan_id":"cebpf4jnsgd1na2vs0mg"},{"bike_id":"e99183d7-bd86-4a19-ab12-1473965ce1ad","system_id":"levelo_inurba_marseille","lat":43.29849,"lon":5.36287,"is_reserved":false,"is_disabled":false,"rental_uris":{"android":"levelo://app?vid=e99183d7-bd86-4a19-ab12-1473965ce1ad","ios":"levelo://app?vid=e99183d7-bd86-4a19-ab12-1473965ce1ad"},"vehicle_type_id":"4","last_reported":1768897144,"current_range_meters":8400,"station_id":"ce4bgpp2rcd13ifvqc3g","pricing_plan_id":"cebpf4jnsgd1na2vs0mg"},{"bike_id":"c90f8d49-c464-4abb-b50f-a6f2833250ba","system_id":"levelo_inurba_marseille","lat":43.2607,"lon":5.39384,"is_reserved":false,"is_disabled":false,"rental_uris":{"android":"levelo://app?vid=c90f8d49-c464-4abb-b50f-a6f2833250ba","ios":"levelo://app?vid=c90f8d49-c464-4abb-b50f-a6f2833250ba"},"vehicle_type_id":"4","last_reported":1768897144,"current_range_meters":8400,"station_id":"ce4bhh92rcd13ifvqfj0","pricing_plan_id":"cebpf4jnsgd1na2vs0mg"},{"bike_id":"de773d31-c0ae-4fe9-90d5-b0353b585a1e","system_id":"levelo_inurba_marseille","lat":43.26522,"lon":5.39591,"is_reserved":false,"is_disabled":false,"rental_uris":{"android":"levelo://app?vid=de773d31-c0ae-4fe9-90d5-b0353b585a1e","ios":"levelo://app?vid=de773d31-c0ae-4fe9-90d5-b0353b585a1e"},"vehicle_type_id":"4","last_reported":1768897144,"current_range_meters":8400,"station_id":"ce4bhi12rcd13ifvqfq0","pricing_plan_id":"cebpf4jnsgd1na2vs0mg"},{"bike_id":"19da54de-4602-49e5-a196-11068ea61238","system_id":"levelo_inurba_marseille","lat":43.30698,"lon":5.36594,"is_reserved":false,"is_disabled":false,"rental_uris":{"android":"levelo://app?vid=19da54de-4602-49e5-a196-11068ea61238","ios":"levelo://app?vid=19da54de-4602-49e5-a196-11068ea61238"},"vehicle_type_id":"4","last_reported":1768897144,"current_range_meters":8400,"station_id":"","pricing_plan_id":"cebpf4jnsgd1na2vs0mg"},{"bike_id":"0ce40182-34a8-409f-8d07-937ae3d5c788","system_id":"levelo_inurba_marseille","lat":43.292533,"lon":5.37627,"is_reserved":false,"is_disabled":true,"rental_uris":{"android":"levelo://app?vid=0ce40182-34a8-409f-8d07-937ae3d5c788","ios":"levelo://app?vid=0ce40182-34a8-409f-8d07-937ae3d5c788"},"vehicle_type_id":"4","last_reported":1768897144,"current_range_meters":8400,"station_id":"ce4bgi12rcd13ifvqb80","pricing_plan_id":"cebpf4jnsgd1na2vs0mg"},{"bike_id":"f362238a-5a52-4b28-a177-6029aab02cec","system_id":"levelo_inurba_marseille","lat":43.28349,"lon":5.38114,"is_reserved":false,"is_disabled":false,"rental_uris":{"android":"levelo://app?vid=f362238a-5a52-4b28-a177-6029aab02cec","ios":"levelo://app?vid=f362238a-5a52-4b28-a177-6029aab02cec"},"vehicle_type_id":"4","last_reported":1768897144,"current_range_meters":8400,"station_id":"ce4bh412rcd13ifvqdr0","pricing_plan_id":"cebpf4jnsgd1na2vs0mg"},{"bike_id":"3c05e630-d357-45dc-aca1-778ca0fc296f","system_id":"levelo_inurba_marseille","lat":43.30586,"lon":5.39359,"is_reserved":false,"is_disabled":false,"rental_uris":{"android":"levelo://app?vid=3c05e630-d357-45dc-aca1-778ca0fc296f","ios":"levelo://app?vid=3c05e630-d357-45dc-aca1-778ca0fc296f"},"vehicle_type_id":"4","last_reported":1768897144,"current_range_meters":8400,"station_id":"ce4bh0p2rcd13ifvqd80","pricing_plan_id":"cebpf4jnsgd1na2vs0mg"},{"bike_id":"4ca32394-f8f1-4623-8df9-31249aca63fc","system_id":"levelo_inurba_marseille","lat":43.2319,"lon":5.40004,"is_reserved":false,"is_disabled":false,"rental_uris":{"android":"levelo://app?vid=4ca32394-f8f1-4623-8df9-31249aca63fc","ios":"levelo://app?vid=4ca32394-f8f1-4623-8df9-31249aca63fc"},"vehicle_type_id":"4","last_reported":1768897144,"current_range_meters":8400,"station_id":"ce4bhn12rcd13ifvqgqg","pricing_plan_id":"cebpf4jnsgd1na2vs0mg"},{"bike_id":"bfe07a41-51d3-41d5-a367-38ffbd2f5a0b","system_id":"levelo_inurba_marseille","lat":43.26221,"lon":5.38848,"is_reserved":false,"is_disabled":false,"rental_uris":{"android":"levelo://app?vid=bfe07a41-51d3-41d5-a367-38ffbd2f5a0b","ios":"levelo://app?vid=bfe07a41-51d3-41d5-a367-38ffbd2f5a0b"},"vehicle_type_id":"4","last_reported":1768897144,"current_range_meters":8400,"station_id":"","pricing_plan_id":"cebpf4jnsgd1na2vs0mg"},{"bike_id":"fdab2ccd-9453-4a4b-8ab4-08aa7d166b03","system_id":"levelo_inurba_marseille","lat":43.24995,"lon":5.38932,"is_reserved":false,"is_disabled":false,"rental_uris":{"android":"levelo://app?vid=fdab2ccd-9453-4a4b-8ab4-08aa7d166b03","ios":"levelo://app?vid=fdab2ccd-9453-4a4b-8ab4-08aa7d166b03"},"vehicle_type_id":"4","last_reported":1768897144,"current_range_meters":8400,"station_id":"ce4bhgp2rcd13ifvqfd0","pricing_plan_id":"cebpf4jnsgd1na2vs0mg"},{"bike_id":"f58dc067-4dd9-4635-8ae5-365aced9c977","system_id":"levelo_inurba_marseille","lat":43.2621,"lon":5.40421,"is_reserved":false,"is_disabled":false,"rental_uris":{"android":"levelo://app?vid=f58dc067-4dd9-4635-8ae5-365aced9c977","ios":"levelo://app?vid=f58dc067-4dd9-4635-8ae5-365aced9c977"},"vehicle_type_id":"4","last_reported":1768897144,"current_range_meters":8400,"station_id":"ce4bhmh2rcd13ifvqgmg","pricing_plan_id":"cebpf4jnsgd1na2vs0mg"},{"bike_id":"3f2ae978-6d4a-4f24-84ad-6c63c5079754","system_id":"levelo_inurba_marseille","lat":43.24046,"lon":5.37769,"is_reserved":false,"is_disabled":false,"rental_uris":{"android":"levelo://app?vid=3f2ae978-6d4a-4f24-84ad-6c63c5079754","ios":"levelo://app?vid=3f2ae978-6d4a-4f24-84ad-6c63c5079754"},"vehicle_type_id":"4","last_reported":1768897144,"current_range_meters":8400,"station_id":"ce4bhnp2rcd13ifvqgvg","pricing_plan_id":"cebpf4jnsgd1na2vs0mg"},{"bike_id":"26c32585-1ce4-4f1a-b32e-1e0f0a70922d","system_id":"levelo_inurba_marseille","lat":43.30122,"lon":5.43125,"is_reserved":false,"is_disabled":false,"rental_uris":{"android":"levelo://app?vid=26c32585-1ce4-4f1a-b32e-1e0f0a70922d","ios":"levelo://app?vid=26c32585-1ce4-4f1a-b32e-1e0f0a70922d"},"vehicle_type_id":"4","last_reported":1768897144,"current_range_meters":8400,"station_id":"st_d3js3co5814s73ftftug","pricing_plan_id":"cebpf4jnsgd1na2vs0mg"},{"bike_id":"10483c0a-1726-407f-8492-2530493c0d67","system_id":"levelo_inurba_marseille","lat":43.250093,"lon":5.389223,"is_reserved":false,"is_disabled":false,"rental_uris":{"android":"levelo://app?vid=10483c0a-1726-407f-8492-2530493c0d67","ios":"levelo://app?vid=10483c0a-1726-407f-8492-2530493c0d67"},"vehicle_type_id":"4","last_reported":1768897144,"current_range_meters":8400,"station_id":"ce4bhgp2rcd13ifvqfd0","pricing_plan_id":"cebpf4jnsgd1na2vs0mg"},{"bike_id":"64564d81-7fa9-470c-84f7-e881a2d2d1a5","system_id":"levelo_inurba_marseille","lat":43.24467,"lon":5.42555,"is_reserved":false,"is_disabled":false,"rental_uris":{"android":"levelo://app?vid=64564d81-7fa9-470c-84f7-e881a2d2d1a5","ios":"levelo://app?vid=64564d81-7fa9-470c-84f7-e881a2d2d1a5"},"vehicle_type_id":"4","last_reported":1768897144,"current_range_meters":8400,"station_id":"st_d4a3vfp97mjs738cd8kg","pricing_plan_id":"cebpf4jnsgd1na2vs0mg"},{"bike_id":"4ac6d260-adf5-4cc8-bf82-3278667c2943","system_id":"levelo_inurba_marseille","lat":43.24545,"lon":5.39523,"is_reserved":false,"is_disabled":false,"rental_uris":{"android":"levelo://app?vid=4ac6d260-adf5-4cc8-bf82-3278667c2943","ios":"levelo://app?vid=4ac6d260-adf5-4cc8-bf82-3278667c2943"},"vehicle_type_id":"4","last_reported":1768897144,"current_range_meters":8400,"station_id":"ce4bhlp2rcd13ifvqgjg","pricing_plan_id":"cebpf4jnsgd1na2vs0mg"},{"bike_id":"3e7944d2-897d-4013-9196-cd48e205db05","system_id":"levelo_inurba_marseille","lat":43.30465,"lon":5.37912,"is_reserved":false,"is_disabled":false,"rental_uris":{"android":"levelo://app?vid=3e7944d2-897d-4013-9196-cd48e205db05","ios":"levelo://app?vid=3e7944d2-897d-4013-9196-cd48e205db05"},"vehicle_type_id":"4","last_reported":1768897144,"current_range_meters":8400,"station_id":"ce4bgup2rcd13ifvqcn0","pricing_plan_id":"cebpf4jnsgd1na2vs0mg"},{"bike_id":"facb9b9f-d024-45f5-ba3c-0ea07443eee4","system_id":"levelo_inurba_marseille","lat":43.29036,"lon":5.39976,"is_reserved":false,"is_disabled":false,"rental_uris":{"android":"levelo://app?vid=facb9b9f-d024-45f5-ba3c-0ea07443eee4","ios":"levelo://app?vid=facb9b9f-d024-45f5-ba3c-0ea07443eee4"},"vehicle_type_id":"4","last_reported":1768897144,"current_range_meters":8400,"station_id":"ce4bh392rcd13ifvqdm0","pricing_plan_id":"cebpf4jnsgd1na2vs0mg"},{"bike_id":"ef88f169-a4b8-438c-b9d4-f7fd905600d0","system_id":"levelo_inurba_marseille","lat":43.2407,"lon":5.37745,"is_reserved":false,"is_disabled":false,"rental_uris":{"android":"levelo://app?vid=ef88f169-a4b8-438c-b9d4-f7fd905600d0","ios":"levelo://app?vid=ef88f169-a4b8-438c-b9d4-f7fd905600d0"},"vehicle_type_id":"4","last_reported":1768897144,"current_range_meters":8400,"station_id":"ce4bhnp2rcd13ifvqgvg","pricing_plan_id":"cebpf4jnsgd1na2vs0mg"},{"bike_id":"544ad0c6-321a-4014-a5c3-ffb32ae71cca","system_id":"levelo_inurba_marseille","lat":43.28484,"lon":5.4839,"is_reserved":false,"is_disabled":false,"rental_uris":{"android":"levelo://app?vid=544ad0c6-321a-4014-a5c3-ffb32ae71cca","ios":"levelo://app?vid=544ad0c6-321a-4014-a5c3-ffb32ae71cca"},"vehicle_type_id":"4","last_reported":1768897144,"current_range_meters":8400,"station_id":"","pricing_plan_id":"cebpf4jnsgd1na2vs0mg"},{"bike_id":"37bce8ff-e978-41d9-b036-84ab06c9528c","system_id":"levelo_inurba_marseille","lat":43.26562,"lon":5.373,"is_reserved":false,"is_disabled":false,"rental_uris":{"android":"levelo://app?vid=37bce8ff-e978-41d9-b036-84ab06c9528c","ios":"levelo://app?vid=37bce8ff-e978-41d9-b036-84ab06c9528c"},"vehicle_type_id":"4","last_reported":1768897144,"current_range_meters":8400,"station_id":"ce4bhg12rcd13ifvqf70","pricing_plan_id":"cebpf4jnsgd1na2vs0mg"},{"bike_id":"00926366-40d2-4692-a7fe-1fb3b69e53b6","system_id":"levelo_inurba_marseille","lat":43.32469,"lon":5.36601,"is_reserved":false,"is_disabled":false,"rental_uris":{"android":"levelo://app?vid=00926366-40d2-4692-a7fe-1fb3b69e53b6","ios":"levelo://app?vid=00926366-40d2-4692-a7fe-1fb3b69e53b6"},"vehicle_type_id":"4","last_reported":1768897144,"current_range_meters":8800,"station_id":"ce4bhs12rcd13ifvqhvg","pricing_plan_id":"cebpf4jnsgd1na2vs0mg"},{"bike_id":"8841a65a-4107-48dd-b229-829282c54691","system_id":"levelo_inurba_marseille","lat":43.28204,"lon":5.38599,"is_reserved":false,"is_disabled":false,"rental_uris":{"android":"levelo://app?vid=8841a65a-4107-48dd-b229-829282c54691","ios":"levelo://app?vid=8841a65a-4107-48dd-b229-829282c54691"},"vehicle_type_id":"4","last_reported":1768897144,"current_range_meters":8800,"station_id":"","pricing_plan_id":"cebpf4jnsgd1na2vs0mg"},{"bike_id":"b7343a24-32ed-4961-866d-05110184ad77","system_id":"levelo_inurba_marseille","lat":43.30909,"lon":5.36843,"is_reserved":false,"is_disabled":false,"rental_uris":{"android":"levelo://app?vid=b7343a24-32ed-4961-866d-05110184ad77","ios":"levelo://app?vid=b7343a24-32ed-4961-866d-05110184ad77"},"vehicle_type_id":"4","last_reported":1768897144,"current_range_meters":8800,"station_id":"ce4bgn92rcd13ifvqbvg","pricing_plan_id":"cebpf4jnsgd1na2vs0mg"},{"bike_id":"c5cff66d-1005-4e9c-9f6b-33ff1fb72b4b","system_id":"levelo_inurba_marseille","lat":43.24996,"lon":5.38933,"is_reserved":false,"is_disabled":false,"rental_uris":{"android":"levelo://app?vid=c5cff66d-1005-4e9c-9f6b-33ff1fb72b4b","ios":"levelo://app?vid=c5cff66d-1005-4e9c-9f6b-33ff1fb72b4b"},"vehicle_type_id":"4","last_reported":1768897144,"current_range_meters":8800,"station_id":"ce4bhgp2rcd13ifvqfd0","pricing_plan_id":"cebpf4jnsgd1na2vs0mg"},{"bike_id":"65f2e28d-b6c3-4183-a528-4abf22dd5335","system_id":"levelo_inurba_marseille","lat":43.23964,"lon":5.36623,"is_reserved":false,"is_disabled":false,"rental_uris":{"android":"levelo://app?vid=65f2e28d-b6c3-4183-a528-4abf22dd5335","ios":"levelo://app?vid=65f2e28d-b6c3-4183-a528-4abf22dd5335"},"vehicle_type_id":"4","last_reported":1768897144,"current_range_meters":8800,"station_id":"ce4bhi12rcd13ifvqfp0","pricing_plan_id":"cebpf4jnsgd1na2vs0mg"},{"bike_id":"098f65cb-b9c1-4972-8862-bf5ddce230df","system_id":"levelo_inurba_marseille","lat":43.30302,"lon":5.36891,"is_reserved":false,"is_disabled":false,"rental_uris":{"android":"levelo://app?vid=098f65cb-b9c1-4972-8862-bf5ddce230df","ios":"levelo://app?vid=098f65cb-b9c1-4972-8862-bf5ddce230df"},"vehicle_type_id":"4","last_reported":1768897144,"current_range_meters":8800,"station_id":"ce4bgqh2rcd13ifvqc5g","pricing_plan_id":"cebpf4jnsgd1na2vs0mg"},{"bike_id":"b413f672-6f60-41b8-8f68-1814f77da456","system_id":"levelo_inurba_marseille","lat":43.24156,"lon":5.36412,"is_reserved":false,"is_disabled":false,"rental_uris":{"android":"levelo://app?vid=b413f672-6f60-41b8-8f68-1814f77da456","ios":"levelo://app?vid=b413f672-6f60-41b8-8f68-1814f77da456"},"vehicle_type_id":"4","last_reported":1768897144,"current_range_meters":8800,"station_id":"cpo36qri1sfpv3e86is0","pricing_plan_id":"cebpf4jnsgd1na2vs0mg"},{"bike_id":"7d2f250a-191b-441d-876b-7325dd6245a6","system_id":"levelo_inurba_marseille","lat":43.249984,"lon":5.389332,"is_reserved":false,"is_disabled":false,"rental_uris":{"android":"levelo://app?vid=7d2f250a-191b-441d-876b-7325dd6245a6","ios":"levelo://app?vid=7d2f250a-191b-441d-876b-7325dd6245a6"},"vehicle_type_id":"4","last_reported":1768897144,"current_range_meters":8800,"station_id":"ce4bhgp2rcd13ifvqfd0","pricing_plan_id":"cebpf4jnsgd1na2vs0mg"},{"bike_id":"8bb69712-1879-41a7-aa80-d93ff66f2773","system_id":"levelo_inurba_marseille","lat":43.302165,"lon":5.394673,"is_reserved":false,"is_disabled":false,"rental_uris":{"android":"levelo://app?vid=8bb69712-1879-41a7-aa80-d93ff66f2773","ios":"levelo://app?vid=8bb69712-1879-41a7-aa80-d93ff66f2773"},"vehicle_type_id":"4","last_reported":1768897144,"current_range_meters":8800,"station_id":"ce4bh0p2rcd13ifvqd70","pricing_plan_id":"cebpf4jnsgd1na2vs0mg"},{"bike_id":"d1b1cf6a-870f-4034-b895-5100ce4a3332","system_id":"levelo_inurba_marseille","lat":43.2955,"lon":5.42287,"is_reserved":false,"is_disabled":false,"rental_uris":{"android":"levelo://app?vid=d1b1cf6a-870f-4034-b895-5100ce4a3332","ios":"levelo://app?vid=d1b1cf6a-870f-4034-b895-5100ce4a3332"},"vehicle_type_id":"4","last_reported":1768897144,"current_range_meters":8800,"station_id":"ce4bhph2rcd13ifvqhdg","pricing_plan_id":"cebpf4jnsgd1na2vs0mg"},{"bike_id":"6fa6ab05-bd28-434d-853c-faf131a3aa22","system_id":"levelo_inurba_marseille","lat":43.23192,"lon":5.3999,"is_reserved":false,"is_disabled":false,"rental_uris":{"android":"levelo://app?vid=6fa6ab05-bd28-434d-853c-faf131a3aa22","ios":"levelo://app?vid=6fa6ab05-bd28-434d-853c-faf131a3aa22"},"vehicle_type_id":"4","last_reported":1768897144,"current_range_meters":8800,"station_id":"ce4bhn12rcd13ifvqgqg","pricing_plan_id":"cebpf4jnsgd1na2vs0mg"},{"bike_id":"8c00fd0b-966a-452e-a0dd-94cef06fe51c","system_id":"levelo_inurba_marseille","lat":43.29033,"lon":5.37567,"is_reserved":false,"is_disabled":false,"rental_uris":{"android":"levelo://app?vid=8c00fd0b-966a-452e-a0dd-94cef06fe51c","ios":"levelo://app?vid=8c00fd0b-966a-452e-a0dd-94cef06fe51c"},"vehicle_type_id":"4","last_reported":1768897144,"current_range_meters":8800,"station_id":"ce4bh692rcd13ifvqe90","pricing_plan_id":"cebpf4jnsgd1na2vs0mg"},{"bike_id":"350a79a1-2120-443a-849c-814a0e198d1b","system_id":"levelo_inurba_marseille","lat":43.2551,"lon":5.376618,"is_reserved":false,"is_disabled":false,"rental_uris":{"android":"levelo://app?vid=350a79a1-2120-443a-849c-814a0e198d1b","ios":"levelo://app?vid=350a79a1-2120-443a-849c-814a0e198d1b"},"vehicle_type_id":"4","last_reported":1768897144,"current_range_meters":8800,"station_id":"","pricing_plan_id":"cebpf4jnsgd1na2vs0mg"},{"bike_id":"c766203c-fe51-459b-bf74-dd6b3df74629","system_id":"levelo_inurba_marseille","lat":43.23181,"lon":5.40004,"is_reserved":false,"is_disabled":false,"rental_uris":{"android":"levelo://app?vid=c766203c-fe51-459b-bf74-dd6b3df74629","ios":"levelo://app?vid=c766203c-fe51-459b-bf74-dd6b3df74629"},"vehicle_type_id":"4","last_reported":1768897144,"current_range_meters":8800,"station_id":"ce4bhn12rcd13ifvqgqg","pricing_plan_id":"cebpf4jnsgd1na2vs0mg"},{"bike_id":"0e84440f-1425-4251-a28c-38177f781258","system_id":"levelo_inurba_marseille","lat":43.28479,"lon":5.48403,"is_reserved":false,"is_disabled":false,"rental_uris":{"android":"levelo://app?vid=0e84440f-1425-4251-a28c-38177f781258","ios":"levelo://app?vid=0e84440f-1425-4251-a28c-38177f781258"},"vehicle_type_id":"4","last_reported":1768897144,"current_range_meters":8800,"station_id":"","pricing_plan_id":"cebpf4jnsgd1na2vs0mg"},{"bike_id":"9913a754-8fd3-4b66-b5b9-8455897d76b8","system_id":"levelo_inurba_marseille","lat":43.30946,"lon":5.39028,"is_reserved":false,"is_disabled":false,"rental_uris":{"android":"levelo://app?vid=9913a754-8fd3-4b66-b5b9-8455897d76b8","ios":"levelo://app?vid=9913a754-8fd3-4b66-b5b9-8455897d76b8"},"vehicle_type_id":"4","last_reported":1768897144,"current_range_meters":8800,"station_id":"ce4bgup2rcd13ifvqco0","pricing_plan_id":"cebpf4jnsgd1na2vs0mg"},{"bike_id":"35eb0f0f-42a8-4fd5-956e-bec6aa3f7ee3","system_id":"levelo_inurba_marseille","lat":43.23189,"lon":5.39998,"is_reserved":false,"is_disabled":false,"rental_uris":{"android":"levelo://app?vid=35eb0f0f-42a8-4fd5-956e-bec6aa3f7ee3","ios":"levelo://app?vid=35eb0f0f-42a8-4fd5-956e-bec6aa3f7ee3"},"vehicle_type_id":"4","last_reported":1768897144,"current_range_meters":8800,"station_id":"ce4bhn12rcd13ifvqgqg","pricing_plan_id":"cebpf4jnsgd1na2vs0mg"},{"bike_id":"e775e37a-88b9-408c-8364-888bc63e91d3","system_id":"levelo_inurba_marseille","lat":43.243922,"lon":5.370726,"is_reserved":false,"is_disabled":false,"rental_uris":{"android":"levelo://app?vid=e775e37a-88b9-408c-8364-888bc63e91d3","ios":"levelo://app?vid=e775e37a-88b9-408c-8364-888bc63e91d3"},"vehicle_type_id":"4","last_reported":1768897144,"current_range_meters":8800,"station_id":"ce4bhhh2rcd13ifvqfk0","pricing_plan_id":"cebpf4jnsgd1na2vs0mg"},{"bike_id":"25d794a5-5a14-45c5-b587-89f3ec339e95","system_id":"levelo_inurba_marseille","lat":43.32104,"lon":5.36795,"is_reserved":false,"is_disabled":false,"rental_uris":{"android":"levelo://app?vid=25d794a5-5a14-45c5-b587-89f3ec339e95","ios":"levelo://app?vid=25d794a5-5a14-45c5-b587-89f3ec339e95"},"vehicle_type_id":"4","last_reported":1768897144,"current_range_meters":8800,"station_id":"ce4bhrh2rcd13ifvqhug","pricing_plan_id":"cebpf4jnsgd1na2vs0mg"},{"bike_id":"29bfec45-ad76-429c-882a-34b6f5ca4191","system_id":"levelo_inurba_marseille","lat":43.32106,"lon":5.3677,"is_reserved":false,"is_disabled":false,"rental_uris":{"android":"levelo://app?vid=29bfec45-ad76-429c-882a-34b6f5ca4191","ios":"levelo://app?vid=29bfec45-ad76-429c-882a-34b6f5ca4191"},"vehicle_type_id":"4","last_reported":1768897144,"current_range_meters":8800,"station_id":"ce4bhrh2rcd13ifvqhug","pricing_plan_id":"cebpf4jnsgd1na2vs0mg"},{"bike_id":"9190f51e-5f35-4c19-9a82-a0233227b7a8","system_id":"levelo_inurba_marseille","lat":43.29971,"lon":5.37171,"is_reserved":false,"is_disabled":false,"rental_uris":{"android":"levelo://app?vid=9190f51e-5f35-4c19-9a82-a0233227b7a8","ios":"levelo://app?vid=9190f51e-5f35-4c19-9a82-a0233227b7a8"},"vehicle_type_id":"4","last_reported":1768897144,"current_range_meters":8800,"station_id":"ce4bgr92rcd13ifvqc7g","pricing_plan_id":"cebpf4jnsgd1na2vs0mg"},{"bike_id":"ce65da15-5103-4c08-86e5-b4783ea2b238","system_id":"levelo_inurba_marseille","lat":43.29313,"lon":5.37181,"is_reserved":false,"is_disabled":false,"rental_uris":{"android":"levelo://app?vid=ce65da15-5103-4c08-86e5-b4783ea2b238","ios":"levelo://app?vid=ce65da15-5103-4c08-86e5-b4783ea2b238"},"vehicle_type_id":"4","last_reported":1768897144,"current_range_meters":8800,"station_id":"ce4bgh92rcd13ifvqb40","pricing_plan_id":"cebpf4jnsgd1na2vs0mg"},{"bike_id":"290c050b-3b33-4486-adf0-4f5aca9312b6","system_id":"levelo_inurba_marseille","lat":43.337444,"lon":5.374475,"is_reserved":false,"is_disabled":false,"rental_uris":{"android":"levelo://app?vid=290c050b-3b33-4486-adf0-4f5aca9312b6","ios":"levelo://app?vid=290c050b-3b33-4486-adf0-4f5aca9312b6"},"vehicle_type_id":"4","last_reported":1768897144,"current_range_meters":8800,"station_id":"","pricing_plan_id":"cebpf4jnsgd1na2vs0mg"},{"bike_id":"ffc4ec3f-5110-4821-a6f5-2f635e18d83d","system_id":"levelo_inurba_marseille","lat":43.261903,"lon":5.404917,"is_reserved":false,"is_disabled":false,"rental_uris":{"android":"levelo://app?vid=ffc4ec3f-5110-4821-a6f5-2f635e18d83d","ios":"levelo://app?vid=ffc4ec3f-5110-4821-a6f5-2f635e18d83d"},"vehicle_type_id":"4","last_reported":1768897144,"current_range_meters":8800,"station_id":"ce4bhm92rcd13ifvqglg","pricing_plan_id":"cebpf4jnsgd1na2vs0mg"},{"bike_id":"c9632c24-d4ba-453f-a643-952c5a012a8a","system_id":"levelo_inurba_marseille","lat":43.22564,"lon":5.41634,"is_reserved":false,"is_disabled":false,"rental_uris":{"android":"levelo://app?vid=c9632c24-d4ba-453f-a643-952c5a012a8a","ios":"levelo://app?vid=c9632c24-d4ba-453f-a643-952c5a012a8a"},"vehicle_type_id":"4","last_reported":1768897144,"current_range_meters":9200,"station_id":"st_d2o4gvlbi1j2169b742g","pricing_plan_id":"cebpf4jnsgd1na2vs0mg"},{"bike_id":"6e900072-d224-40b3-a534-c35f821a2dc2","system_id":"levelo_inurba_marseille","lat":43.29042,"lon":5.39971,"is_reserved":false,"is_disabled":false,"rental_uris":{"android":"levelo://app?vid=6e900072-d224-40b3-a534-c35f821a2dc2","ios":"levelo://app?vid=6e900072-d224-40b3-a534-c35f821a2dc2"},"vehicle_type_id":"4","last_reported":1768897144,"current_range_meters":9200,"station_id":"ce4bh392rcd13ifvqdm0","pricing_plan_id":"cebpf4jnsgd1na2vs0mg"},{"bike_id":"21463ebe-85fd-4ba6-a61f-3d41c75a1911","system_id":"levelo_inurba_marseille","lat":43.31123,"lon":5.37786,"is_reserved":false,"is_disabled":false,"rental_uris":{"android":"levelo://app?vid=21463ebe-85fd-4ba6-a61f-3d41c75a1911","ios":"levelo://app?vid=21463ebe-85fd-4ba6-a61f-3d41c75a1911"},"vehicle_type_id":"4","last_reported":1768897144,"current_range_meters":9200,"station_id":"ce4bgt92rcd13ifvqcg0","pricing_plan_id":"cebpf4jnsgd1na2vs0mg"},{"bike_id":"c648ce05-faa1-4b25-b283-bb371b3c83ac","system_id":"levelo_inurba_marseille","lat":43.2888,"lon":5.38218,"is_reserved":false,"is_disabled":false,"rental_uris":{"android":"levelo://app?vid=c648ce05-faa1-4b25-b283-bb371b3c83ac","ios":"levelo://app?vid=c648ce05-faa1-4b25-b283-bb371b3c83ac"},"vehicle_type_id":"4","last_reported":1768897144,"current_range_meters":9200,"station_id":"","pricing_plan_id":"cebpf4jnsgd1na2vs0mg"},{"bike_id":"03c8b8f6-26d6-43f0-b06e-1c354011d6d4","system_id":"levelo_inurba_marseille","lat":43.30541,"lon":5.36538,"is_reserved":false,"is_disabled":false,"rental_uris":{"android":"levelo://app?vid=03c8b8f6-26d6-43f0-b06e-1c354011d6d4","ios":"levelo://app?vid=03c8b8f6-26d6-43f0-b06e-1c354011d6d4"},"vehicle_type_id":"4","last_reported":1768897144,"current_range_meters":9200,"station_id":"ce4bgs12rcd13ifvqcag","pricing_plan_id":"cebpf4jnsgd1na2vs0mg"},{"bike_id":"ddc940e6-8976-48cb-b5fe-aaf170a35bda","system_id":"levelo_inurba_marseille","lat":43.27979,"lon":5.41663,"is_reserved":false,"is_disabled":false,"rental_uris":{"android":"levelo://app?vid=ddc940e6-8976-48cb-b5fe-aaf170a35bda","ios":"levelo://app?vid=ddc940e6-8976-48cb-b5fe-aaf170a35bda"},"vehicle_type_id":"4","last_reported":1768897144,"current_range_meters":9200,"station_id":"ce4bho12rcd13ifvqh1g","pricing_plan_id":"cebpf4jnsgd1na2vs0mg"},{"bike_id":"df1b9a7e-c928-473d-adba-e2b75f20c556","system_id":"levelo_inurba_marseille","lat":43.25489,"lon":5.37649,"is_reserved":false,"is_disabled":false,"rental_uris":{"android":"levelo://app?vid=df1b9a7e-c928-473d-adba-e2b75f20c556","ios":"levelo://app?vid=df1b9a7e-c928-473d-adba-e2b75f20c556"},"vehicle_type_id":"4","last_reported":1768897144,"current_range_meters":9200,"station_id":"ce4bhh12rcd13ifvqff0","pricing_plan_id":"cebpf4jnsgd1na2vs0mg"},{"bike_id":"5f65347f-3f32-4020-a719-79b95209ec08","system_id":"levelo_inurba_marseille","lat":43.28319,"lon":5.38098,"is_reserved":false,"is_disabled":false,"rental_uris":{"android":"levelo://app?vid=5f65347f-3f32-4020-a719-79b95209ec08","ios":"levelo://app?vid=5f65347f-3f32-4020-a719-79b95209ec08"},"vehicle_type_id":"4","last_reported":1768897144,"current_range_meters":9200,"station_id":"ce4bh412rcd13ifvqdr0","pricing_plan_id":"cebpf4jnsgd1na2vs0mg"},{"bike_id":"9f4cfbb1-7e6f-4677-b465-72e41d49f0af","system_id":"levelo_inurba_marseille","lat":43.2319,"lon":5.39993,"is_reserved":false,"is_disabled":false,"rental_uris":{"android":"levelo://app?vid=9f4cfbb1-7e6f-4677-b465-72e41d49f0af","ios":"levelo://app?vid=9f4cfbb1-7e6f-4677-b465-72e41d49f0af"},"vehicle_type_id":"4","last_reported":1768897144,"current_range_meters":9200,"station_id":"ce4bhn12rcd13ifvqgqg","pricing_plan_id":"cebpf4jnsgd1na2vs0mg"},{"bike_id":"bd47c088-7a9b-44ec-a68f-65b726393761","system_id":"levelo_inurba_marseille","lat":43.27959,"lon":5.4059,"is_reserved":false,"is_disabled":false,"rental_uris":{"android":"levelo://app?vid=bd47c088-7a9b-44ec-a68f-65b726393761","ios":"levelo://app?vid=bd47c088-7a9b-44ec-a68f-65b726393761"},"vehicle_type_id":"4","last_reported":1768897144,"current_range_meters":9200,"station_id":"","pricing_plan_id":"cebpf4jnsgd1na2vs0mg"},{"bike_id":"a5e5c619-8bc5-4328-9a09-ce54be33b975","system_id":"levelo_inurba_marseille","lat":43.24391,"lon":5.37055,"is_reserved":false,"is_disabled":false,"rental_uris":{"android":"levelo://app?vid=a5e5c619-8bc5-4328-9a09-ce54be33b975","ios":"levelo://app?vid=a5e5c619-8bc5-4328-9a09-ce54be33b975"},"vehicle_type_id":"4","last_reported":1768897144,"current_range_meters":9200,"station_id":"ce4bhhh2rcd13ifvqfk0","pricing_plan_id":"cebpf4jnsgd1na2vs0mg"},{"bike_id":"29b3fe27-3155-4bb1-9d12-be92f522d733","system_id":"levelo_inurba_marseille","lat":43.2975,"lon":5.42788,"is_reserved":false,"is_disabled":false,"rental_uris":{"android":"levelo://app?vid=29b3fe27-3155-4bb1-9d12-be92f522d733","ios":"levelo://app?vid=29b3fe27-3155-4bb1-9d12-be92f522d733"},"vehicle_type_id":"4","last_reported":1768897144,"current_range_meters":9200,"station_id":"st_d3md5207bmas73dh9klg","pricing_plan_id":"cebpf4jnsgd1na2vs0mg"},{"bike_id":"52c85b02-607c-4226-bd7b-fd246dd2dae8","system_id":"levelo_inurba_marseille","lat":43.22551,"lon":5.41631,"is_reserved":false,"is_disabled":false,"rental_uris":{"android":"levelo://app?vid=52c85b02-607c-4226-bd7b-fd246dd2dae8","ios":"levelo://app?vid=52c85b02-607c-4226-bd7b-fd246dd2dae8"},"vehicle_type_id":"4","last_reported":1768897144,"current_range_meters":9200,"station_id":"st_d2o4gvlbi1j2169b742g","pricing_plan_id":"cebpf4jnsgd1na2vs0mg"},{"bike_id":"777a4b2a-5035-45cb-98d6-6819d7ae847e","system_id":"levelo_inurba_marseille","lat":43.30088,"lon":5.39074,"is_reserved":false,"is_disabled":false,"rental_uris":{"android":"levelo://app?vid=777a4b2a-5035-45cb-98d6-6819d7ae847e","ios":"levelo://app?vid=777a4b2a-5035-45cb-98d6-6819d7ae847e"},"vehicle_type_id":"4","last_reported":1768897144,"current_range_meters":9200,"station_id":"ce4bh192rcd13ifvqdb0","pricing_plan_id":"cebpf4jnsgd1na2vs0mg"},{"bike_id":"a73160f3-b80d-45fe-9040-b5e4cc42983d","system_id":"levelo_inurba_marseille","lat":43.29062,"lon":5.39991,"is_reserved":false,"is_disabled":false,"rental_uris":{"android":"levelo://app?vid=a73160f3-b80d-45fe-9040-b5e4cc42983d","ios":"levelo://app?vid=a73160f3-b80d-45fe-9040-b5e4cc42983d"},"vehicle_type_id":"4","last_reported":1768897144,"current_range_meters":9200,"station_id":"ce4bh392rcd13ifvqdm0","pricing_plan_id":"cebpf4jnsgd1na2vs0mg"},{"bike_id":"88370ad9-ab44-4100-926e-d370419e92e8","system_id":"levelo_inurba_marseille","lat":43.25571,"lon":5.38244,"is_reserved":false,"is_disabled":false,"rental_uris":{"android":"levelo://app?vid=88370ad9-ab44-4100-926e-d370419e92e8","ios":"levelo://app?vid=88370ad9-ab44-4100-926e-d370419e92e8"},"vehicle_type_id":"4","last_reported":1768897144,"current_range_meters":9200,"station_id":"ce4bhih2rcd13ifvqfs0","pricing_plan_id":"cebpf4jnsgd1na2vs0mg"},{"bike_id":"3e57c784-076f-487c-b622-a075cc851190","system_id":"levelo_inurba_marseille","lat":43.26336,"lon":5.37803,"is_reserved":false,"is_disabled":false,"rental_uris":{"android":"levelo://app?vid=3e57c784-076f-487c-b622-a075cc851190","ios":"levelo://app?vid=3e57c784-076f-487c-b622-a075cc851190"},"vehicle_type_id":"4","last_reported":1768897144,"current_range_meters":9200,"station_id":"ce4bhjp2rcd13ifvqg90","pricing_plan_id":"cebpf4jnsgd1na2vs0mg"},{"bike_id":"2b716459-3106-4f68-b822-0cd699018e9b","system_id":"levelo_inurba_marseille","lat":43.31998,"lon":5.38162,"is_reserved":false,"is_disabled":false,"rental_uris":{"android":"levelo://app?vid=2b716459-3106-4f68-b822-0cd699018e9b","ios":"levelo://app?vid=2b716459-3106-4f68-b822-0cd699018e9b"},"vehicle_type_id":"4","last_reported":1768897144,"current_range_meters":9200,"station_id":"ce4bhr12rcd13ifvqhpg","pricing_plan_id":"cebpf4jnsgd1na2vs0mg"},