{"last_updated":1678306086,"ttl":30,"version":"2.2","data":{"bikes":[{"bike_id":"d4c78a1f-fa19-49b2-8a82-4574e523b5e8","system_id":"levelo_inurba_marseille","lat":43.31218,"lon":5.36834,"is_reserved":false,"is_disabled":false,"rental_uris":{"android":"levelo://app?vid=d4c78a1f-fa19-49b2-8a82-4574e523b5e8","ios":"levelo://app?vid=d4c78a1f-fa19-49b2-8a82-4574e523b5e8"},"vehicle_type_id":"4","last_reported":1678306087,"current_range_meters":2000,"station_id":"ce4bgl92rcd13ifvqbq0","pricing_plan_id":"free"},{"bike_id":"4ba2293f-f8e0-44a2-b86b-10f485af128a","system_id":"levelo_inurba_marseille","lat":43.314811,"lon":5.373103,"is_reserved":false,"is_disabled":false,"rental_uris":{"android":"levelo://app?vid=4ba2293f-f8e0-44a2-b86b-10f485af128a","ios":"levelo://app?vid=4ba2293f-f8e0-44a2-b86b-10f485af128a"},"vehicle_type_id":"4","last_reported":1678306087,"current_range_meters":19200,"station_id":"ce4bgt12rcd13ifvqcd0","pricing_plan_id":"free"},{"bike_id":"e0f6e509-fdb1-49c9-85b5-8cffc7aed23b","system_id":"levelo_inurba_marseille","lat":43.317075,"lon":5.377367,"is_reserved":false,"is_disabled":false,"rental_uris":{"android":"levelo://app?vid=e0f6e509-fdb1-49c9-85b5-8cffc7aed23b","ios":"levelo://app?vid=e0f6e509-fdb1-49c9-85b5-8cffc7aed23b"},"vehicle_type_id":"4","last_reported":1678306087,"current_range_meters":14400,"station_id":"ce4bgth2rcd13ifvqch0","pricing_plan_id":"free"},{"bike_id":"2fb0c6bd-a5bd-4ae0-a60b-07503bef7192","system_id":"levelo_inurba_marseille","lat":43.317075,"lon":5.377367,"is_reserved":false,"is_disabled":false,"rental_uris":{"android":"levelo://app?vid=2fb0c6bd-a5bd-4ae0-a60b-07503bef7192","ios":"levelo://app?vid=2fb0c6bd-a5bd-4ae0-a60b-07503bef7192"},"vehicle_type_id":"4","last_reported":1678306087,"current_range_meters":4000,"station_id":"ce4bgth2rcd13ifvqch0","pricing_plan_id":"free"},{"bike_id":"3035a2f1-5bc7-4668-8754-be998e5725ac","system_id":"levelo_inurba_marseille","lat":43.301939,"lon":5.366286,"is_reserved":false,"is_disabled":false,"rental_uris":{"android":"levelo://app?vid=3035a2f1-5bc7-4668-8754-be998e5725ac","ios":"levelo://app?vid=3035a2f1-5bc7-4668-8754-be998e5725ac"},"vehicle_type_id":"4","last_reported":1678306087,"current_range_meters":8000,"station_id":"ce4bgrh2rcd13ifvqc8g","pricing_plan_id":"free"},{"bike_id":"cea7af1e-58c1-4ac2-b8b2-a8f1e9679486","system_id":"levelo_inurba_marseille","lat":43.301939,"lon":5.366286,"is_reserved":false,"is_disabled":false,"rental_uris":{"android":"levelo://app?vid=cea7af1e-58c1-4ac2-b8b2-a8f1e9679486","ios":"levelo://app?vid=cea7af1e-58c1-4ac2-b8b2-a8f1e9679486"},"vehicle_type_id":"4","last_reported":1678306087,"current_range_meters":6000,"station_id":"ce4bgrh2rcd13ifvqc8g","pricing_plan_id":"free"},{"bike_id":"9c6e3dc9-a017-4da5-9340-fe99598dd525","system_id":"levelo_inurba_marseille","lat":43.308012,"lon":5.381511,"is_reserved":false,"is_disabled":false,"rental_uris":{"android":"levelo://app?vid=9c6e3dc9-a017-4da5-9340-fe99598dd525","ios":"levelo://app?vid=9c6e3dc9-a017-4da5-9340-fe99598dd525"},"vehicle_type_id":"4","last_reported":1678306087,"current_range_meters":4400,"station_id":"ce4bgt12rcd13ifvqce0","pricing_plan_id":"free"},{"bike_id":"cde5e9bd-983c-4b28-92e4-096d322e4999","system_id":"levelo_inurba_marseille","lat":43.313571,"lon":5.384829,"is_reserved":false,"is_disabled":false,"rental_uris":{"android":"levelo://app?vid=cde5e9bd-983c-4b28-92e4-096d322e4999","ios":"levelo://app?vid=cde5e9bd-983c-4b28-92e4-096d322e4999"},"vehicle_type_id":"4","last_reported":1678306087,"current_range_meters":800,"station_id":"ce4bgt92rcd13ifvqcf0","pricing_plan_id":"free"},{"bike_id":"f0386455-0eca-4931-9e22-ac999a862513","system_id":"levelo_inurba_marseille","lat":43.313571,"lon":5.384829,"is_reserved":false,"is_disabled":false,"rental_uris":{"android":"levelo://app?vid=f0386455-0eca-4931-9e22-ac999a862513","ios":"levelo://app?vid=f0386455-0eca-4931-9e22-ac999a862513"},"vehicle_type_id":"4","last_reported":1678306087,"current_range_meters":15200,"station_id":"ce4bgt92rcd13ifvqcf0","pricing_plan_id":"free"},{"bike_id":"8c1b888b-8d50-44ea-a418-63f2e0c6321f","system_id":"levelo_inurba_marseille","lat":43.311722,"lon":5.387247,"is_reserved":false,"is_disabled":false,"rental_uris":{"android":"levelo://app?vid=8c1b888b-8d50-44ea-a418-63f2e0c6321f","ios":"levelo://app?vid=8c1b888b-8d50-44ea-a418-63f2e0c6321f"},"vehicle_type_id":"4","last_reported":1678306087,"current_range_meters":12000,"station_id":"ce4bgv12rcd13ifvqcp0","pricing_plan_id":"free"},{"bike_id":"61c72841-236f-4a1a-801a-6411a976b6b8","system_id":"levelo_inurba_marseille","lat":43.311722,"lon":5.387247,"is_reserved":false,"is_disabled":false,"rental_uris":{"android":"levelo://app?vid=61c72841-236f-4a1a-801a-6411a976b6b8","ios":"levelo://app?vid=61c72841-236f-4a1a-801a-6411a976b6b8"},"vehicle_type_id":"4","last_reported":1678306087,"current_range_meters":0,"station_id":"ce4bgv12rcd13ifvqcp0","pricing_plan_id":"free"},{"bike_id":"c57fe0e9-bca4-4b39-869d-4759ddd7c9d1","system_id":"levelo_inurba_marseille","lat":43.32829,"lon":5.36686,"is_reserved":false,"is_disabled":false,"rental_uris":{"android":"levelo://app?vid=c57fe0e9-bca4-4b39-869d-4759ddd7c9d1","ios":"levelo://app?vid=c57fe0e9-bca4-4b39-869d-4759ddd7c9d1"},"vehicle_type_id":"4","last_reported":1678306087,"current_range_meters":8000,"station_id":"","pricing_plan_id":"free"},{"bike_id":"869de7f8-da98-43e5-b20a-6980b95ccafb","system_id":"levelo_inurba_marseille","lat":43.3283,"lon":5.366873,"is_reserved":false,"is_disabled":false,"rental_uris":{"android":"levelo://app?vid=869de7f8-da98-43e5-b20a-6980b95ccafb","ios":"levelo://app?vid=869de7f8-da98-43e5-b20a-6980b95ccafb"},"vehicle_type_id":"4","last_reported":1678306087,"current_range_meters":0,"station_id":"","pricing_plan_id":"free"},{"bike_id":"1edef743-b838-45dc-aee3-89ae0f51f96b","system_id":"levelo_inurba_marseille","lat":43.32831,"lon":5.36684,"is_reserved":false,"is_disabled":false,"rental_uris":{"android":"levelo://app?vid=1edef743-b838-45dc-aee3-89ae0f51f96b","ios":"levelo://app?vid=1edef743-b838-45dc-aee3-89ae0f51f96b"},"vehicle_type_id":"4","last_reported":1678306087,"current_range_meters":1600,"station_id":"ce4bhs92rcd13ifvqi0g","pricing_plan_id":"free"},{"bike_id":"637fb57d-dfa0-4a97-aa1c-9b8380007707","system_id":"levelo_inurba_marseille","lat":43.32832,"lon":5.36693,"is_reserved":false,"is_disabled":false,"rental_uris":{"android":"levelo://app?vid=637fb57d-dfa0-4a97-aa1c-9b8380007707","ios":"levelo://app?vid=637fb57d-dfa0-4a97-aa1c-9b8380007707"},"vehicle_type_id":"4","last_reported":1678306087,"current_range_meters":2400,"station_id":"ce4bhs92rcd13ifvqi0g","pricing_plan_id":"free"},{"bike_id":"61328a20-4686-45c2-a4bc-4c337edb95db","system_id":"levelo_inurba_marseille","lat":43.328371,"lon":5.366912,"is_reserved":false,"is_disabled":false,"rental_uris":{"android":"levelo://app?vid=61328a20-4686-45c2-a4bc-4c337edb95db","ios":"levelo://app?vid=61328a20-4686-45c2-a4bc-4c337edb95db"},"vehicle_type_id":"4","last_reported":1678306087,"current_range_meters":10000,"station_id":"ce4bhs92rcd13ifvqi0g","pricing_plan_id":"free"},{"bike_id":"d7491a5c-5030-41e3-a3d2-00b6bc6b52f2","system_id":"levelo_inurba_marseille","lat":43.32835,"lon":5.36695,"is_reserved":false,"is_disabled":false,"rental_uris":{"android":"levelo://app?vid=d7491a5c-5030-41e3-a3d2-00b6bc6b52f2","ios":"levelo://app?vid=d7491a5c-5030-41e3-a3d2-00b6bc6b52f2"},"vehicle_type_id":"4","last_reported":1678306087,"current_range_meters":10400,"station_id":"","pricing_plan_id":"free"},{"bike_id":"a2fd71dd-3297-4995-9228-805f748f0521","system_id":"levelo_inurba_marseille","lat":43.32835,"lon":5.366955,"is_reserved":false,"is_disabled":false,"rental_uris":{"android":"levelo://app?vid=a2fd71dd-3297-4995-9228-805f748f0521","ios":"levelo://app?vid=a2fd71dd-3297-4995-9228-805f748f0521"},"vehicle_type_id":"4","last_reported":1678306087,"current_range_meters":5200,"station_id":"ce4bhs92rcd13ifvqi0g","pricing_plan_id":"free"},{"bike_id":"e15587ab-b3c6-4403-959d-fcc14bf2ecbc","system_id":"levelo_inurba_marseille","lat":43.32835,"lon":5.36686,"is_reserved":false,"is_disabled":false,"rental_uris":{"android":"levelo://app?vid=e15587ab-b3c6-4403-959d-fcc14bf2ecbc","ios":"levelo://app?vid=e15587ab-b3c6-4403-959d-fcc14bf2ecbc"},"vehicle_type_id":"4","last_reported":1678306087,"current_range_meters":0,"station_id":"ce4bhs92rcd13ifvqi0g","pricing_plan_id":"free"},{"bike_id":"35e8c732-1a55-4419-b331-5cd1661c0b30","system_id":"levelo_inurba_marseille","lat":43.29965,"lon":5.38087,"is_reserved":false,"is_disabled":false,"rental_uris":{"android":"levelo://app?vid=35e8c732-1a55-4419-b331-5cd1661c0b30","ios":"levelo://app?vid=35e8c732-1a55-4419-b331-5cd1661c0b30"},"vehicle_type_id":"4","last_reported":1678306087,"current_range_meters":16800,"station_id":"ce4bgt12rcd13ifvqcd0","pricing_plan_id":"free"},{"bike_id":"ddf26907-2a89-40d6-95d5-cef89e9f3f21","system_id":"levelo_inurba_marseille","lat":43.317104,"lon":5.436818,"is_reserved":false,"is_disabled":false,"rental_uris":{"android":"levelo://app?vid=ddf26907-2a89-40d6-95d5-cef89e9f3f21","ios":"levelo://app?vid=ddf26907-2a89-40d6-95d5-cef89e9f3f21"},"vehicle_type_id":"4","last_reported":1678306087,"current_range_meters":26400,"station_id":"ce4bhp92rcd13ifvqhcg","pricing_plan_id":"free"},{"bike_id":"2a52e018-0de5-44bb-980a-3832ce357f46","system_id":"levelo_inurba_marseille","lat":43.299028,"lon":5.381509,"is_reserved":false,"is_disabled":false,"rental_uris":{"android":"levelo://app?vid=2a52e018-0de5-44bb-980a-3832ce357f46","ios":"levelo://app?vid=2a52e018-0de5-44bb-980a-3832ce357f46"},"vehicle_type_id":"4","last_reported":1678306087,"current_range_meters":0,"station_id":"ce4bgj12rcd13ifvqbc0","pricing_plan_id":"free"},{"bike_id":"2f460b7e-2359-40ec-a399-db3439384c5b","system_id":"levelo_inurba_marseille","lat":43.309589,"lon":5.390258,"is_reserved":false,"is_disabled":false,"rental_uris":{"android":"levelo://app?vid=2f460b7e-2359-40ec-a399-db3439384c5b","ios":"levelo://app?vid=2f460b7e-2359-40ec-a399-db3439384c5b"},"vehicle_type_id":"4","last_reported":1678306087,"current_range_meters":8800,"station_id":"ce4bgup2rcd13ifvqco0","pricing_plan_id":"free"},{"bike_id":"e1b7f924-9d71-417e-b66d-38e9b8ad8b5c","system_id":"levelo_inurba_marseille","lat":43.298037,"lon":5.381066,"is_reserved":false,"is_disabled":false,"rental_uris":{"android":"levelo://app?vid=e1b7f924-9d71-417e-b66d-38e9b8ad8b5c","ios":"levelo://app?vid=e1b7f924-9d71-417e-b66d-38e9b8ad8b5c"},"vehicle_type_id":"4","last_reported":1678306087,"current_range_meters":23200,"station_id":"ce4bgip2rcd13ifvqbb0","pricing_plan_id":"free"},{"bike_id":"fe2799e2-124e-494b-b5ee-66e20b7baa1c","system_id":"levelo_inurba_marseille","lat":43.295748,"lon":5.37522,"is_reserved":false,"is_disabled":false,"rental_uris":{"android":"levelo://app?vid=fe2799e2-124e-494b-b5ee-66e20b7baa1c","ios":"levelo://app?vid=fe2799e2-124e-494b-b5ee-66e20b7baa1c"},"vehicle_type_id":"4","last_reported":1678306087,"current_range_meters":28000,"station_id":"ce4bgh92rcd13ifvqb50","pricing_plan_id":"free"},{"bike_id":"1ea3b95a-287b-4bbc-a986-1a12e215a0a1","system_id":"levelo_inurba_marseille","lat":43.30434,"lon":5.38897,"is_reserved":false,"is_disabled":false,"rental_uris":{"android":"levelo://app?vid=1ea3b95a-287b-4bbc-a986-1a12e215a0a1","ios":"levelo://app?vid=1ea3b95a-287b-4bbc-a986-1a12e215a0a1"},"vehicle_type_id":"4","last_reported":1678306087,"current_range_meters":8800,"station_id":"","pricing_plan_id":"free"},{"bike_id":"ffe8cbef-cbf0-4ab7-85c8-89f2d42413ab","system_id":"levelo_inurba_marseille","lat":43.297419,"lon":5.38035,"is_reserved":false,"is_disabled":false,"rental_uris":{"android":"levelo://app?vid=ffe8cbef-cbf0-4ab7-85c8-89f2d42413ab","ios":"levelo://app?vid=ffe8cbef-cbf0-4ab7-85c8-89f2d42413ab"},"vehicle_type_id":"4","last_reported":1678306087,"current_range_meters":0,"station_id":"","pricing_plan_id":"free"},{"bike_id":"75107071-1505-4262-8dda-275a0262f734","system_id":"levelo_inurba_marseille","lat":43.295279,"lon":5.375048,"is_reserved":false,"is_disabled":false,"rental_uris":{"android":"levelo://app?vid=75107071-1505-4262-8dda-275a0262f734","ios":"levelo://app?vid=75107071-1505-4262-8dda-275a0262f734"},"vehicle_type_id":"4","last_reported":1678306087,"current_range_meters":30000,"station_id":"ce4bgkp2rcd13ifvqbmg","pricing_plan_id":"free"},{"bike_id":"7bb3c77c-c762-4316-b4c6-14fd8944809e","system_id":"levelo_inurba_marseille","lat":43.295271,"lon":5.374964,"is_reserved":false,"is_disabled":false,"rental_uris":{"android":"levelo://app?vid=7bb3c77c-c762-4316-b4c6-14fd8944809e","ios":"levelo://app?vid=7bb3c77c-c762-4316-b4c6-14fd8944809e"},"vehicle_type_id":"4","last_reported":1678306087,"current_range_meters":31600,"station_id":"","pricing_plan_id":"free"},{"bike_id":"b812a0cc-0976-4282-8ed6-741638137586","system_id":"levelo_inurba_marseille","lat":43.295279,"lon":5.375048,"is_reserved":false,"is_disabled":false,"rental_uris":{"android":"levelo://app?vid=b812a0cc-0976-4282-8ed6-741638137586","ios":"levelo://app?vid=b812a0cc-0976-4282-8ed6-741638137586"},"vehicle_type_id":"4","last_reported":1678306087,"current_range_meters":15200,"station_id":"ce4bgkp2rcd13ifvqbmg","pricing_plan_id":"free"},{"bike_id":"853dbf72-0bd0-4ad4-b93c-55034ccf2ea9","system_id":"levelo_inurba_marseille","lat":43.295279,"lon":5.375048,"is_reserved":false,"is_disabled":false,"rental_uris":{"android":"levelo://app?vid=853dbf72-0bd0-4ad4-b93c-55034ccf2ea9","ios":"levelo://app?vid=853dbf72-0bd0-4ad4-b93c-55034ccf2ea9"},"vehicle_type_id":"4","last_reported":1678306087,"current_range_meters":31200,"station_id":"ce4bgkp2rcd13ifvqbmg","pricing_plan_id":"free"},{"bike_id":"4f838453-aee3-41d8-ad64-f5aedeebadfc","system_id":"levelo_inurba_marseille","lat":43.295279,"lon":5.375048,"is_reserved":false,"is_disabled":false,"rental_uris":{"android":"levelo://app?vid=4f838453-aee3-41d8-ad64-f5aedeebadfc","ios":"levelo://app?vid=4f838453-aee3-41d8-ad64-f5aedeebadfc"},"vehicle_type_id":"4","last_reported":1678306087,"current_range_meters":31600,"station_id":"ce4bgkp2rcd13ifvqbmg","pricing_plan_id":"free"},{"bike_id":"74242a09-0f8b-474f-b230-a49aad9e30c7","system_id":"levelo_inurba_marseille","lat":43.295223,"lon":5.375009,"is_reserved":false,"is_disabled":false,"rental_uris":{"android":"levelo://app?vid=74242a09-0f8b-474f-b230-a49aad9e30c7","ios":"levelo://app?vid=74242a09-0f8b-474f-b230-a49aad9e30c7"},"vehicle_type_id":"4","last_reported":1678306087,"current_range_meters":29600,"station_id":"ce4bgkp2rcd13ifvqbmg","pricing_plan_id":"free"},{"bike_id":"e0d1f1d0-4ea8-4222-aa86-d6bf790db132","system_id":"levelo_inurba_marseille","lat":43.29968,"lon":5.38495,"is_reserved":false,"is_disabled":false,"rental_uris":{"android":"levelo://app?vid=e0d1f1d0-4ea8-4222-aa86-d6bf790db132","ios":"levelo://app?vid=e0d1f1d0-4ea8-4222-aa86-d6bf790db132"},"vehicle_type_id":"4","last_reported":1678306087,"current_range_meters":10400,"station_id":"","pricing_plan_id":"free"},{"bike_id":"025b9f50-48d9-4630-8305-cf0d4cde4152","system_id":"levelo_inurba_marseille","lat":43.29529,"lon":5.385581,"is_reserved":false,"is_disabled":false,"rental_uris":{"android":"levelo://app?vid=025b9f50-48d9-4630-8305-cf0d4cde4152","ios":"levelo://app?vid=025b9f50-48d9-4630-8305-cf0d4cde4152"},"vehicle_type_id":"4","last_reported":1678306087,"current_range_meters":30800,"station_id":"ce4bgih2rcd13ifvqba0","pricing_plan_id":"free"},{"bike_id":"72503104-0ba4-4a6f-8623-3a7844c02870","system_id":"levelo_inurba_marseille","lat":43.2943,"lon":5.37408,"is_reserved":false,"is_disabled":false,"rental_uris":{"android":"levelo://app?vid=72503104-0ba4-4a6f-8623-3a7844c02870","ios":"levelo://app?vid=72503104-0ba4-4a6f-8623-3a7844c02870"},"vehicle_type_id":"4","last_reported":1678306087,"current_range_meters":16800,"station_id":"","pricing_plan_id":"free"},{"bike_id":"52862384-8fea-442d-9a6f-5626cd8c3076","system_id":"levelo_inurba_marseille","lat":43.32367,"lon":5.388836,"is_reserved":false,"is_disabled":false,"rental_uris":{"android":"levelo://app?vid=52862384-8fea-442d-9a6f-5626cd8c3076","ios":"levelo://app?vid=52862384-8fea-442d-9a6f-5626cd8c3076"},"vehicle_type_id":"4","last_reported":1678306087,"current_range_meters":8400,"station_id":"ce4bhqp2rcd13ifvqhog","pricing_plan_id":"free"},{"bike_id":"7f2747ab-b938-4f55-addc-1c2e0cd54440","system_id":"levelo_inurba_marseille","lat":43.312901,"lon":5.394423,"is_reserved":false,"is_disabled":false,"rental_uris":{"android":"levelo://app?vid=7f2747ab-b938-4f55-addc-1c2e0cd54440","ios":"levelo://app?vid=7f2747ab-b938-4f55-addc-1c2e0cd54440"},"vehicle_type_id":"4","last_reported":1678306087,"current_range_meters":12800,"station_id":"","pricing_plan_id":"free"},{"bike_id":"b5bcef46-a884-4ec9-b4d9-b99158238dd5","system_id":"levelo_inurba_marseille","lat":43.305994,"lon":5.393687,"is_reserved":false,"is_disabled":false,"rental_uris":{"android":"levelo://app?vid=b5bcef46-a884-4ec9-b4d9-b99158238dd5","ios":"levelo://app?vid=b5bcef46-a884-4ec9-b4d9-b99158238dd5"},"vehicle_type_id":"4","last_reported":1678306087,"current_range_meters":0,"station_id":"ce4bh0p2rcd13ifvqd80","pricing_plan_id":"free"},{"bike_id":"81df093a-f4d1-48e4-b58d-77e90ad5db04","system_id":"levelo_inurba_marseille","lat":43.293009,"lon":5.374584,"is_reserved":false,"is_disabled":false,"rental_uris":{"android":"levelo://app?vid=81df093a-f4d1-48e4-b58d-77e90ad5db04","ios":"levelo://app?vid=81df093a-f4d1-48e4-b58d-77e90ad5db04"},"vehicle_type_id":"4","last_reported":1678306087,"current_range_meters":1600,"station_id":"ce4bgi12rcd13ifvqb70","pricing_plan_id":"free"},{"bike_id":"92faf728-bb76-41d0-93bc-1460db1d87b5","system_id":"levelo_inurba_marseille","lat":43.305994,"lon":5.393687,"is_reserved":false,"is_disabled":false,"rental_uris":{"android":"levelo://app?vid=92faf728-bb76-41d0-93bc-1460db1d87b5","ios":"levelo://app?vid=92faf728-bb76-41d0-93bc-1460db1d87b5"},"vehicle_type_id":"4","last_reported":1678306087,"current_range_meters":400,"station_id":"ce4bh0p2rcd13ifvqd80","pricing_plan_id":"free"},{"bike_id":"7f16f883-e52e-4991-a289-286e375b688e","system_id":"levelo_inurba_marseille","lat":43.293745,"lon":5.37839,"is_reserved":false,"is_disabled":false,"rental_uris":{"android":"levelo://app?vid=7f16f883-e52e-4991-a289-286e375b688e","ios":"levelo://app?vid=7f16f883-e52e-4991-a289-286e375b688e"},"vehicle_type_id":"4","last_reported":1678306087,"current_range_meters":0,"station_id":"ce4bgjh2rcd13ifvqbf0","pricing_plan_id":"free"},{"bike_id":"2d935dee-e3d6-4585-9d0b-b3f1b0d4e87a","system_id":"levelo_inurba_marseille","lat":43.292311,"lon":5.360731,"is_reserved":false,"is_disabled":false,"rental_uris":{"android":"levelo://app?vid=2d935dee-e3d6-4585-9d0b-b3f1b0d4e87a","ios":"levelo://app?vid=2d935dee-e3d6-4585-9d0b-b3f1b0d4e87a"},"vehicle_type_id":"4","last_reported":1678306087,"current_range_meters":7600,"station_id":"ce4bhbh2rcd13ifvqeqg","pricing_plan_id":"free"},{"bike_id":"ac39841c-1fdc-4963-b015-1e9c5a4fad70","system_id":"levelo_inurba_marseille","lat":43.300852,"lon":5.390859,"is_reserved":false,"is_disabled":false,"rental_uris":{"android":"levelo://app?vid=ac39841c-1fdc-4963-b015-1e9c5a4fad70","ios":"levelo://app?vid=ac39841c-1fdc-4963-b015-1e9c5a4fad70"},"vehicle_type_id":"4","last_reported":1678306087,"current_range_meters":4000,"station_id":"ce4bh192rcd13ifvqdb0","pricing_plan_id":"free"},{"bike_id":"ac9b1a51-73eb-43d8-a4fe-a5c6f3d7e99b","system_id":"levelo_inurba_marseille","lat":43.298764,"lon":5.388973,"is_reserved":false,"is_disabled":false,"rental_uris":{"android":"levelo://app?vid=ac9b1a51-73eb-43d8-a4fe-a5c6f3d7e99b","ios":"levelo://app?vid=ac9b1a51-73eb-43d8-a4fe-a5c6f3d7e99b"},"vehicle_type_id":"4","last_reported":1678306087,"current_range_meters":2000,"station_id":"ce4bh392rcd13ifvqdl0","pricing_plan_id":"free"},{"bike_id":"9ab9f1a4-de2d-4f5c-b7c6-5ec999e14143","system_id":"levelo_inurba_marseille","lat":43.298733,"lon":5.38905,"is_reserved":false,"is_disabled":false,"rental_uris":{"android":"levelo://app?vid=9ab9f1a4-de2d-4f5c-b7c6-5ec999e14143","ios":"levelo://app?vid=9ab9f1a4-de2d-4f5c-b7c6-5ec999e14143"},"vehicle_type_id":"4","last_reported":1678306087,"current_range_meters":1200,"station_id":"ce4bh392rcd13ifvqdl0","pricing_plan_id":"free"},{"bike_id":"cb6ef7b3-4875-4207-8135-1291e330ec17","system_id":"levelo_inurba_marseille","lat":43.313291,"lon":5.396838,"is_reserved":false,"is_disabled":false,"rental_uris":{"android":"levelo://app?vid=cb6ef7b3-4875-4207-8135-1291e330ec17","ios":"levelo://app?vid=cb6ef7b3-4875-4207-8135-1291e330ec17"},"vehicle_type_id":"4","last_reported":1678306087,"current_range_meters":1600,"station_id":"ce4bgvp2rcd13ifvqcu0","pricing_plan_id":"free"},{"bike_id":"63899ebf-c4df-4bb8-9c69-6bc393cfe85d","system_id":"levelo_inurba_marseille","lat":43.313348,"lon":5.396965,"is_reserved":false,"is_disabled":false,"rental_uris":{"android":"levelo://app?vid=63899ebf-c4df-4bb8-9c69-6bc393cfe85d","ios":"levelo://app?vid=63899ebf-c4df-4bb8-9c69-6bc393cfe85d"},"vehicle_type_id":"4","last_reported":1678306087,"current_range_meters":11600,"station_id":"ce4bgvp2rcd13ifvqcu0","pricing_plan_id":"free"},{"bike_id":"aad5026d-6e8e-4693-986f-942b7aff6b17","system_id":"levelo_inurba_marseille","lat":43.31331,"lon":5.39697,"is_reserved":false,"is_disabled":false,"rental_uris":{"android":"levelo://app?vid=aad5026d-6e8e-4693-986f-942b7aff6b17","ios":"levelo://app?vid=aad5026d-6e8e-4693-986f-942b7aff6b17"},"vehicle_type_id":"4","last_reported":1678306087,"current_range_meters":0,"station_id":"ce4bgvp2rcd13ifvqcu0","pricing_plan_id":"free"},{"bike_id":"60fb7b97-e255-441c-9425-f48cb30aea12","system_id":"levelo_inurba_marseille","lat":43.313291,"lon":5.396838,"is_reserved":false,"is_disabled":false,"rental_uris":{"android":"levelo://app?vid=60fb7b97-e255-441c-9425-f48cb30aea12","ios":"levelo://app?vid=60fb7b97-e255-441c-9425-f48cb30aea12"},"vehicle_type_id":"4","last_reported":1678306087,"current_range_meters":7600,"station_id":"ce4bgvp2rcd13ifvqcu0","pricing_plan_id":"free"},{"bike_id":"9f758278-b48b-457a-9ff9-6491e2cd001d","system_id":"levelo_inurba_marseille","lat":43.31329,"lon":5.39702,"is_reserved":false,"is_disabled":false,"rental_uris":{"android":"levelo://app?vid=9f758278-b48b-457a-9ff9-6491e2cd001d","ios":"levelo://app?vid=9f758278-b48b-457a-9ff9-6491e2cd001d"},"vehicle_type_id":"4","last_reported":1678306087,"current_range_meters":13200,"station_id":"","pricing_plan_id":"free"},{"bike_id":"4828a51b-d553-410d-b878-923b60b092eb","system_id":"levelo_inurba_marseille","lat":43.29529,"lon":5.385581,"is_reserved":false,"is_disabled":false,"rental_uris":{"android":"levelo://app?vid=4828a51b-d553-410d-b878-923b60b092eb","ios":"levelo://app?vid=4828a51b-d553-410d-b878-923b60b092eb"},"vehicle_type_id":"4","last_reported":1678306087,"current_range_meters":10800,"station_id":"ce4bgih2rcd13ifvqba0","pricing_plan_id":"free"},{"bike_id":"19be5dd2-ee04-4c8a-bf2b-2e6dd7f4d9f1","system_id":"levelo_inurba_marseille","lat":43.29073,"lon":5.37186,"is_reserved":false,"is_disabled":false,"rental_uris":{"android":"levelo://app?vid=19be5dd2-ee04-4c8a-bf2b-2e6dd7f4d9f1","ios":"levelo://app?vid=19be5dd2-ee04-4c8a-bf2b-2e6dd7f4d9f1"},"vehicle_type_id":"4","last_reported":1678306087,"current_range_meters":4800,"station_id":"","pricing_plan_id":"free"},{"bike_id":"5d60f2d7-a169-4622-9533-88622b08fae3","system_id":"levelo_inurba_marseille","lat":43.290779,"lon":5.371482,"is_reserved":false,"is_disabled":false,"rental_uris":{"android":"levelo://app?vid=5d60f2d7-a169-4622-9533-88622b08fae3","ios":"levelo://app?vid=5d60f2d7-a169-4622-9533-88622b08fae3"},"vehicle_type_id":"4","last_reported":1678306087,"current_range_meters":12400,"station_id":"ce4bh5p2rcd13ifvqe4g","pricing_plan_id":"free"},{"bike_id":"8e999ffd-93df-4961-b655-8fc3da5b5b38","system_id":"levelo_inurba_marseille","lat":43.2906,"lon":5.37154,"is_reserved":false,"is_disabled":false,"rental_uris":{"android":"levelo://app?vid=8e999ffd-93df-4961-b655-8fc3da5b5b38","ios":"levelo://app?vid=8e999ffd-93df-4961-b655-8fc3da5b5b38"},"vehicle_type_id":"4","last_reported":1678306087,"current_range_meters":21600,"station_id":"ce4bh5p2rcd13ifvqe4g","pricing_plan_id":"free"},{"bike_id":"5c21b8c6-df77-4cc8-bbcc-2875f2eb943e","system_id":"levelo_inurba_marseille","lat":43.29058,"lon":5.37159,"is_reserved":false,"is_disabled":false,"rental_uris":{"android":"levelo://app?vid=5c21b8c6-df77-4cc8-bbcc-2875f2eb943e","ios":"levelo://app?vid=5c21b8c6-df77-4cc8-bbcc-2875f2eb943e"},"vehicle_type_id":"4","last_reported":1678306087,"current_range_meters":0,"station_id":"ce4bh5p2rcd13ifvqe4g","pricing_plan_id":"free"},{"bike_id":"5f79066a-e0c6-4061-bd16-4dc6f550edad","system_id":"levelo_inurba_marseille","lat":43.302008,"lon":5.394694,"is_reserved":false,"is_disabled":false,"rental_uris":{"android":"levelo://app?vid=5f79066a-e0c6-4061-bd16-4dc6f550edad","ios":"levelo://app?vid=5f79066a-e0c6-4061-bd16-4dc6f550edad"},"vehicle_type_id":"4","last_reported":1678306087,"current_range_meters":0,"station_id":"ce4bh0p2rcd13ifvqd70","pricing_plan_id":"free"},{"bike_id":"946e42b4-e9c5-4689-a469-3cd66d6a42a8","system_id":"levelo_inurba_marseille","lat":43.290327,"lon":5.375711,"is_reserved":false,"is_disabled":false,"rental_uris":{"android":"levelo://app?vid=946e42b4-e9c5-4689-a469-3cd66d6a42a8","ios":"levelo://app?vid=946e42b4-e9c5-4689-a469-3cd66d6a42a8"},"vehicle_type_id":"4","last_reported":1678306087,"current_range_meters":1200,"station_id":"ce4bh692rcd13ifvqe90","pricing_plan_id":"free"},{"bike_id":"18d6d24c-d471-49af-a7ad-fe6b13b5700d","system_id":"levelo_inurba_marseille","lat":43.28937,"lon":5.36684,"is_reserved":false,"is_disabled":false,"rental_uris":{"android":"levelo://app?vid=18d6d24c-d471-49af-a7ad-fe6b13b5700d","ios":"levelo://app?vid=18d6d24c-d471-49af-a7ad-fe6b13b5700d"},"vehicle_type_id":"4","last_reported":1678306087,"current_range_meters":14000,"station_id":"ce4bhih2rcd13ifvqfs0","pricing_plan_id":"free"},{"bike_id":"dc3639e0-19c4-4bca-9424-24f595564a78","system_id":"levelo_inurba_marseille","lat":43.292644,"lon":5.384257,"is_reserved":false,"is_disabled":false,"rental_uris":{"android":"levelo://app?vid=dc3639e0-19c4-4bca-9424-24f595564a78","ios":"levelo://app?vid=dc3639e0-19c4-4bca-9424-24f595564a78"},"vehicle_type_id":"4","last_reported":1678306087,"current_range_meters":7600,"station_id":"ce4bh692rcd13ifvqea0","pricing_plan_id":"free"},{"bike_id":"1f336c1e-3173-41da-851f-b4c96d3d2ef5","system_id":"levelo_inurba_marseille","lat":43.292644,"lon":5.384257,"is_reserved":false,"is_disabled":false,"rental_uris":{"android":"levelo://app?vid=1f336c1e-3173-41da-851f-b4c96d3d2ef5","ios":"levelo://app?vid=1f336c1e-3173-41da-851f-b4c96d3d2ef5"},"vehicle_type_id":"4","last_reported":1678306087,"current_range_meters":0,"station_id":"ce4bh692rcd13ifvqea0","pricing_plan_id":"free"},{"bike_id":"96c71145-97dd-4d36-b15b-d99ec03d4fd9","system_id":"levelo_inurba_marseille","lat":43.292644,"lon":5.384257,"is_reserved":false,"is_disabled":false,"rental_uris":{"android":"levelo://app?vid=96c71145-97dd-4d36-b15b-d99ec03d4fd9","ios":"levelo://app?vid=96c71145-97dd-4d36-b15b-d99ec03d4fd9"},"vehicle_type_id":"4","last_reported":1678306087,"current_range_meters":23600,"station_id":"ce4bh692rcd13ifvqea0","pricing_plan_id":"free"},{"bike_id":"a19aa63e-fd4a-4a2c-bf56-7ace4a053567","system_id":"levelo_inurba_marseille","lat":43.292644,"lon":5.384257,"is_reserved":false,"is_disabled":false,"rental_uris":{"android":"levelo://app?vid=a19aa63e-fd4a-4a2c-bf56-7ace4a053567","ios":"levelo://app?vid=a19aa63e-fd4a-4a2c-bf56-7ace4a053567"},"vehicle_type_id":"4","last_reported":1678306087,"current_range_meters":1600,"station_id":"ce4bh692rcd13ifvqea0","pricing_plan_id":"free"},{"bike_id":"eaf8073f-6248-436d-8398-6f0ce6f963a4","system_id":"levelo_inurba_marseille","lat":43.292644,"lon":5.384257,"is_reserved":false,"is_disabled":false,"rental_uris":{"android":"levelo://app?vid=eaf8073f-6248-436d-8398-6f0ce6f963a4","ios":"levelo://app?vid=eaf8073f-6248-436d-8398-6f0ce6f963a4"},"vehicle_type_id":"4","last_reported":1678306087,"current_range_meters":24400,"station_id":"ce4bh692rcd13ifvqea0","pricing_plan_id":"free"},{"bike_id":"ba82c1cc-1214-4e48-8055-da2cd8cf730e","system_id":"levelo_inurba_marseille","lat":43.292644,"lon":5.384257,"is_reserved":false,"is_disabled":false,"rental_uris":{"android":"levelo://app?vid=ba82c1cc-1214-4e48-8055-da2cd8cf730e","ios":"levelo://app?vid=ba82c1cc-1214-4e48-8055-da2cd8cf730e"},"vehicle_type_id":"4","last_reported":1678306087,"current_range_meters":30400,"station_id":"ce4bh692rcd13ifvqea0","pricing_plan_id":"free"},{"bike_id":"5f7e9022-a7ad-4946-bb76-de8567b4f948","system_id":"levelo_inurba_marseille","lat":43.29257,"lon":5.38445,"is_reserved":false,"is_disabled":false,"rental_uris":{"android":"levelo://app?vid=5f7e9022-a7ad-4946-bb76-de8567b4f948","ios":"levelo://app?vid=5f7e9022-a7ad-4946-bb76-de8567b4f948"},"vehicle_type_id":"4","last_reported":1678306087,"current_range_meters":9600,"station_id":"","pricing_plan_id":"free"},{"bike_id":"22986d02-1fef-48d9-915f-c4ebb2364a01","system_id":"levelo_inurba_marseille","lat":43.330442,"lon":5.389148,"is_reserved":false,"is_disabled":false,"rental_uris":{"android":"levelo://app?vid=22986d02-1fef-48d9-915f-c4ebb2364a01","ios":"levelo://app?vid=22986d02-1fef-48d9-915f-c4ebb2364a01"},"vehicle_type_id":"4","last_reported":1678306087,"current_range_meters":14800,"station_id":"ce4bhr92rcd13ifvqhrg","pricing_plan_id":"free"},{"bike_id":"522f8a00-f0f2-4e8a-8d2f-12d7e90ad996","system_id":"levelo_inurba_marseille","lat":43.330442,"lon":5.389148,"is_reserved":false,"is_disabled":false,"rental_uris":{"android":"levelo://app?vid=522f8a00-f0f2-4e8a-8d2f-12d7e90ad996","ios":"levelo://app?vid=522f8a00-f0f2-4e8a-8d2f-12d7e90ad996"},"vehicle_type_id":"4","last_reported":1678306087,"current_range_meters":0,"station_id":"ce4bhr92rcd13ifvqhrg","pricing_plan_id":"free"},{"bike_id":"c1ed5adf-bc2e-4145-a102-b7c4f3d1f8dc","system_id":"levelo_inurba_marseille","lat":43.33042,"lon":5.38915,"is_reserved":false,"is_disabled":false,"rental_uris":{"android":"levelo://app?vid=c1ed5adf-bc2e-4145-a102-b7c4f3d1f8dc","ios":"levelo://app?vid=c1ed5adf-bc2e-4145-a102-b7c4f3d1f8dc"},"vehicle_type_id":"4","last_reported":1678306087,"current_range_meters":15600,"station_id":"","pricing_plan_id":"free"},{"bike_id":"72e51f02-e10f-4790-8561-071003aaeba5","system_id":"levelo_inurba_marseille","lat":43.33039,"lon":5.38922,"is_reserved":false,"is_disabled":false,"rental_uris":{"android":"levelo://app?vid=72e51f02-e10f-4790-8561-071003aaeba5","ios":"levelo://app?vid=72e51f02-e10f-4790-8561-071003aaeba5"},"vehicle_type_id":"4","last_reported":1678306087,"current_range_meters":21600,"station_id":"","pricing_plan_id":"free"},{"bike_id":"bfd1b443-1174-4098-8a52-5af953ad88f1","system_id":"levelo_inurba_marseille","lat":43.3304,"lon":5.38921,"is_reserved":false,"is_disabled":false,"rental_uris":{"android":"levelo://app?vid=bfd1b443-1174-4098-8a52-5af953ad88f1","ios":"levelo://app?vid=bfd1b443-1174-4098-8a52-5af953ad88f1"},"vehicle_type_id":"4","last_reported":1678306087,"current_range_meters":4000,"station_id":"","pricing_plan_id":"free"},{"bike_id":"84577aff-dc29-4431-8ce3-45c8ff6c0b27","system_id":"levelo_inurba_marseille","lat":43.290104,"lon":5.356111,"is_reserved":false,"is_disabled":false,"rental_uris":{"android":"levelo://app?vid=84577aff-dc29-4431-8ce3-45c8ff6c0b27","ios":"levelo://app?vid=84577aff-dc29-4431-8ce3-45c8ff6c0b27"},"vehicle_type_id":"4","last_reported":1678306087,"current_range_meters":18800,"station_id":"ce4bhb92rcd13ifvqen0","pricing_plan_id":"free"},{"bike_id":"ec6165a9-82a1-4845-b7d0-dfd443abdcae","system_id":"levelo_inurba_marseille","lat":43.330442,"lon":5.389148,"is_reserved":false,"is_disabled":false,"rental_uris":{"android":"levelo://app?vid=ec6165a9-82a1-4845-b7d0-dfd443abdcae","ios":"levelo://app?vid=ec6165a9-82a1-4845-b7d0-dfd443abdcae"},"vehicle_type_id":"4","last_reported":1678306087,"current_range_meters":3200,"station_id":"ce4bhr92rcd13ifvqhrg","pricing_plan_id":"free"},{"bike_id":"61e9cf9b-6d4b-40e3-bc89-0342d3f62ace","system_id":"levelo_inurba_marseille","lat":43.33044,"lon":5.38919,"is_reserved":false,"is_disabled":false,"rental_uris":{"android":"levelo://app?vid=61e9cf9b-6d4b-40e3-bc89-0342d3f62ace","ios":"levelo://app?vid=61e9cf9b-6d4b-40e3-bc89-0342d3f62ace"},"vehicle_type_id":"4","last_reported":1678306087,"current_range_meters":21600,"station_id":"","pricing_plan_id":"free"},{"bike_id":"3f2bb84f-3295-43c4-9ebf-5d02f10ef2d8","system_id":"levelo_inurba_marseille","lat":43.330442,"lon":5.389148,"is_reserved":false,"is_disabled":false,"rental_uris":{"android":"levelo://app?vid=3f2bb84f-3295-43c4-9ebf-5d02f10ef2d8","ios":"levelo://app?vid=3f2bb84f-3295-43c4-9ebf-5d02f10ef2d8"},"vehicle_type_id":"4","last_reported":1678306087,"current_range_meters":17600,"station_id":"ce4bhr92rcd13ifvqhrg","pricing_plan_id":"free"},{"bike_id":"6ad08cfd-b0bc-43b2-ba32-463927ed057e","system_id":"levelo_inurba_marseille","lat":43.330442,"lon":5.389148,"is_reserved":false,"is_disabled":false,"rental_uris":{"android":"levelo://app?vid=6ad08cfd-b0bc-43b2-ba32-463927ed057e","ios":"levelo://app?vid=6ad08cfd-b0bc-43b2-ba32-463927ed057e"},"vehicle_type_id":"4","last_reported":1678306087,"current_range_meters":5200,"station_id":"ce4bhr92rcd13ifvqhrg","pricing_plan_id":"free"},{"bike_id":"3998d3b8-2028-46ef-916e-3cd1c3759afe","system_id":"levelo_inurba_marseille","lat":43.33046,"lon":5.38922,"is_reserved":false,"is_disabled":false,"rental_uris":{"android":"levelo://app?vid=3998d3b8-2028-46ef-916e-3cd1c3759afe","ios":"levelo://app?vid=3998d3b8-2028-46ef-916e-3cd1c3759afe"},"vehicle_type_id":"4","last_reported":1678306087,"current_range_meters":1600,"station_id":"ce4bhr92rcd13ifvqhrg","pricing_plan_id":"free"},{"bike_id":"ad63d679-b44b-4417-a795-1215ed4126c2","system_id":"levelo_inurba_marseille","lat":43.330442,"lon":5.389148,"is_reserved":false,"is_disabled":false,"rental_uris":{"android":"levelo://app?vid=ad63d679-b44b-4417-a795-1215ed4126c2","ios":"levelo://app?vid=ad63d679-b44b-4417-a795-1215ed4126c2"},"vehicle_type_id":"4","last_reported":1678306087,"current_range_meters":2800,"station_id":"ce4bhr92rcd13ifvqhrg","pricing_plan_id":"free"},{"bike_id":"0c7c1b18-1dd8-4dae-b27f-3872ffc28303","system_id":"levelo_inurba_marseille","lat":43.29527,"lon":5.39026,"is_reserved":false,"is_disabled":false,"rental_uris":{"android":"levelo://app?vid=0c7c1b18-1dd8-4dae-b27f-3872ffc28303","ios":"levelo://app?vid=0c7c1b18-1dd8-4dae-b27f-3872ffc28303"},"vehicle_type_id":"4","last_reported":1678306087,"current_range_meters":22400,"station_id":"ce4bh3p2rcd13ifvqdp0","pricing_plan_id":"free"},{"bike_id":"8e03270b-b06f-441b-adbc-18a0e45af9d1","system_id":"levelo_inurba_marseille","lat":43.29524,"lon":5.3904,"is_reserved":false,"is_disabled":false,"rental_uris":{"android":"levelo://app?vid=8e03270b-b06f-441b-adbc-18a0e45af9d1","ios":"levelo://app?vid=8e03270b-b06f-441b-adbc-18a0e45af9d1"},"vehicle_type_id":"4","last_reported":1678306087,"current_range_meters":9600,"station_id":"","pricing_plan_id":"free"},{"bike_id":"0302020b-4923-4a96-8459-ace718fadd4e","system_id":"levelo_inurba_marseille","lat":43.289741,"lon":5.378306,"is_reserved":false,"is_disabled":false,"rental_uris":{"android":"levelo://app?vid=0302020b-4923-4a96-8459-ace718fadd4e","ios":"levelo://app?vid=0302020b-4923-4a96-8459-ace718fadd4e"},"vehicle_type_id":"4","last_reported":1678306087,"current_range_meters":2400,"station_id":"ce4bh9p2rcd13ifvqed0","pricing_plan_id":"free"},{"bike_id":"15d57cce-38c8-4564-92aa-8bc6874d42ea","system_id":"levelo_inurba_marseille","lat":43.28856,"lon":5.358371,"is_reserved":false,"is_disabled":false,"rental_uris":{"android":"levelo://app?vid=15d57cce-38c8-4564-92aa-8bc6874d42ea","ios":"levelo://app?vid=15d57cce-38c8-4564-92aa-8bc6874d42ea"},"vehicle_type_id":"4","last_reported":1678306087,"current_range_meters":26000,"station_id":"ce4bhb12rcd13ifvqem0","pricing_plan_id":"free"},{"bike_id":"2b0c38e9-483b-43bd-b652-4692a1d8d1d6","system_id":"levelo_inurba_marseille","lat":43.28856,"lon":5.358371,"is_reserved":false,"is_disabled":false,"rental_uris":{"android":"levelo://app?vid=2b0c38e9-483b-43bd-b652-4692a1d8d1d6","ios":"levelo://app?vid=2b0c38e9-483b-43bd-b652-4692a1d8d1d6"},"vehicle_type_id":"4","last_reported":1678306087,"current_range_meters":400,"station_id":"ce4bhb12rcd13ifvqem0","pricing_plan_id":"free"},{"bike_id":"4e5b7327-c34c-4aa2-b2ab-aa3f5405dcc9","system_id":"levelo_inurba_marseille","lat":43.306464,"lon":5.400703,"is_reserved":false,"is_disabled":false,"rental_uris":{"android":"levelo://app?vid=4e5b7327-c34c-4aa2-b2ab-aa3f5405dcc9","ios":"levelo://app?vid=4e5b7327-c34c-4aa2-b2ab-aa3f5405dcc9"},"vehicle_type_id":"4","last_reported":1678306087,"current_range_meters":21600,"station_id":"ce4bh112rcd13ifvqda0","pricing_plan_id":"free"},{"bike_id":"7c311423-d2bd-41cd-b0e6-e2afcb58b493","system_id":"levelo_inurba_marseille","lat":43.337534,"lon":5.37443,"is_reserved":false,"is_disabled":false,"rental_uris":{"android":"levelo://app?vid=7c311423-d2bd-41cd-b0e6-e2afcb58b493","ios":"levelo://app?vid=7c311423-d2bd-41cd-b0e6-e2afcb58b493"},"vehicle_type_id":"4","last_reported":1678306087,"current_range_meters":23200,"station_id":"","pricing_plan_id":"free"},{"bike_id":"fec1e2f5-d7f6-4078-baaa-77df3179cb54","system_id":"levelo_inurba_marseille","lat":43.30661,"lon":5.40084,"is_reserved":false,"is_disabled":false,"rental_uris":{"android":"levelo://app?vid=fec1e2f5-d7f6-4078-baaa-77df3179cb54","ios":"levelo://app?vid=fec1e2f5-d7f6-4078-baaa-77df3179cb54"},"vehicle_type_id":"4","last_reported":1678306087,"current_range_meters":0,"station_id":"","pricing_plan_id":"free"},{"bike_id":"fedfb348-fdea-4842-ae78-0736826c7ddc","system_id":"levelo_inurba_marseille","lat":43.30648,"lon":5.40081,"is_reserved":false,"is_disabled":false,"rental_uris":{"android":"levelo://app?vid=fedfb348-fdea-4842-ae78-0736826c7ddc","ios":"levelo://app?vid=fedfb348-fdea-4842-ae78-0736826c7ddc"},"vehicle_type_id":"4","last_reported":1678306087,"current_range_meters":1200,"station_id":"ce4bh112rcd13ifvqda0","pricing_plan_id":"free"},{"bike_id":"9f686b78-aa06-4dab-975b-23a7dda432c9","system_id":"levelo_inurba_marseille","lat":43.30642,"lon":5.401031,"is_reserved":false,"is_disabled":false,"rental_uris":{"android":"levelo://app?vid=9f686b78-aa06-4dab-975b-23a7dda432c9","ios":"levelo://app?vid=9f686b78-aa06-4dab-975b-23a7dda432c9"},"vehicle_type_id":"4","last_reported":1678306087,"current_range_meters":23200,"station_id":"ce4bh112rcd13ifvqda0","pricing_plan_id":"free"},{"bike_id":"0a5363b6-1933-4045-9153-46594c84c775","system_id":"levelo_inurba_marseille","lat":43.28671,"lon":5.363555,"is_reserved":false,"is_disabled":false,"rental_uris":{"android":"levelo://app?vid=0a5363b6-1933-4045-9153-46594c84c775","ios":"levelo://app?vid=0a5363b6-1933-4045-9153-46594c84c775"},"vehicle_type_id":"4","last_reported":1678306087,"current_range_meters":14400,"station_id":"ce4bhah2rcd13ifvqej0","pricing_plan_id":"free"},{"bike_id":"4a7daf25-baed-4faf-a6bd-f751301511e4","system_id":"levelo_inurba_marseille","lat":43.29529,"lon":5.39401,"is_reserved":false,"is_disabled":false,"rental_uris":{"android":"levelo://app?vid=4a7daf25-baed-4faf-a6bd-f751301511e4","ios":"levelo://app?vid=4a7daf25-baed-4faf-a6bd-f751301511e4"},"vehicle_type_id":"4","last_reported":1678306087,"current_range_meters":1600,"station_id":"ce4bh212rcd13ifvqde0","pricing_plan_id":"free"},{"bike_id":"8851e3f6-874d-4914-9bd1-c0e1db891b1f","system_id":"levelo_inurba_marseille","lat":43.295243,"lon":5.394063,"is_reserved":false,"is_disabled":false,"rental_uris":{"android":"levelo://app?vid=8851e3f6-874d-4914-9bd1-c0e1db891b1f","ios":"levelo://app?vid=8851e3f6-874d-4914-9bd1-c0e1db891b1f"},"vehicle_type_id":"4","last_reported":1678306087,"current_range_meters":16400,"station_id":"ce4bh212rcd13ifvqde0","pricing_plan_id":"free"},{"bike_id":"d74c892b-ad4f-414b-983c-4626d7a006dc","system_id":"levelo_inurba_marseille","lat":43.295237,"lon":5.394088,"is_reserved":false,"is_disabled":false,"rental_uris":{"android":"levelo://app?vid=d74c892b-ad4f-414b-983c-4626d7a006dc","ios":"levelo://app?vid=d74c892b-ad4f-414b-983c-4626d7a006dc"},"vehicle_type_id":"4","last_reported":1678306087,"current_range_meters":3200,"station_id":"ce4bh212rcd13ifvqde0","pricing_plan_id":"free"},{"bike_id":"9003b2a2-5f6b-458c-bf3e-3de9ff6e5fe1","system_id":"levelo_inurba_marseille","lat":43.295247,"lon":5.39414,"is_reserved":false,"is_disabled":false,"rental_uris":{"android":"levelo://app?vid=9003b2a2-5f6b-458c-bf3e-3de9ff6e5fe1","ios":"levelo://app?vid=9003b2a2-5f6b-458c-bf3e-3de9ff6e5fe1"},"vehicle_type_id":"4","last_reported":1678306087,"current_range_meters":10000,"station_id":"ce4bh212rcd13ifvqde0","pricing_plan_id":"free"},{"bike_id":"784d07c4-6d14-4e27-97d8-cae2793d860e","system_id":"levelo_inurba_marseille","lat":43.29518,"lon":5.39407,"is_reserved":false,"is_disabled":false,"rental_uris":{"android":"levelo://app?vid=784d07c4-6d14-4e27-97d8-cae2793d860e","ios":"levelo://app?vid=784d07c4-6d14-4e27-97d8-cae2793d860e"},"vehicle_type_id":"4","last_reported":1678306087,"current_range_meters":20000,"station_id":"ce4bh212rcd13ifvqde0","pricing_plan_id":"free"},{"bike_id":"aed8c9a9-bdd2-4fe0-bad1-7ae790af1e09","system_id":"levelo_inurba_marseille","lat":43.29518,"lon":5.394073,"is_reserved":false,"is_disabled":false,"rental_uris":{"android":"levelo://app?vid=aed8c9a9-bdd2-4fe0-bad1-7ae790af1e09","ios":"levelo://app?vid=aed8c9a9-bdd2-4fe0-bad1-7ae790af1e09"},"vehicle_type_id":"4","last_reported":1678306087,"current_range_meters":9200,"station_id":"ce4bh212rcd13ifvqde0","pricing_plan_id":"free"},{"bike_id":"b87476c9-1f80-474b-98d9-54d758c01a27","system_id":"levelo_inurba_marseille","lat":43.29522,"lon":5.39413,"is_reserved":false,"is_disabled":false,"rental_uris":{"android":"levelo://app?vid=b87476c9-1f80-474b-98d9-54d758c01a27","ios":"levelo://app?vid=b87476c9-1f80-474b-98d9-54d758c01a27"},"vehicle_type_id":"4","last_reported":1678306087,"current_range_meters":13600,"station_id":"ce4bh212rcd13ifvqde0","pricing_plan_id":"free"},{"bike_id":"6351c04a-1d9e-4ff4-8f23-8938ce951c82","system_id":"levelo_inurba_marseille","lat":43.2951,"lon":5.394,"is_reserved":false,"is_disabled":false,"rental_uris":{"android":"levelo://app?vid=6351c04a-1d9e-4ff4-8f23-8938ce951c82","ios":"levelo://app?vid=6351c04a-1d9e-4ff4-8f23-8938ce951c82"},"vehicle_type_id":"4","last_reported":1678306087,"current_range_meters":19600,"station_id":"ce4bh212rcd13ifvqde0","pricing_plan_id":"free"},{"bike_id":"3ad0fb0a-eeab-48bc-aace-b55bedb36779","system_id":"levelo_inurba_marseille","lat":43.29521,"lon":5.39417,"is_reserved":false,"is_disabled":false,"rental_uris":{"android":"levelo://app?vid=3ad0fb0a-eeab-48bc-aace-b55bedb36779","ios":"levelo://app?vid=3ad0fb0a-eeab-48bc-aace-b55bedb36779"},"vehicle_type_id":"4","last_reported":1678306087,"current_range_meters":20400,"station_id":"ce4bh212rcd13ifvqde0","pricing_plan_id":"free"},{"bike_id":"2865ae2a-c0f3-4a2b-8e3a-5c27ae13d248","system_id":"levelo_inurba_marseille","lat":43.30253,"lon":5.40073,"is_reserved":false,"is_disabled":false,"rental_uris":{"android":"levelo://app?vid=2865ae2a-c0f3-4a2b-8e3a-5c27ae13d248","ios":"levelo://app?vid=2865ae2a-c0f3-4a2b-8e3a-5c27ae13d248"},"vehicle_type_id":"4","last_reported":1678306087,"current_range_meters":3200,"station_id":"","pricing_plan_id":"free"},{"bike_id":"20f7cc43-6990-470b-9897-53429775f02c","system_id":"levelo_inurba_marseille","lat":43.286039,"lon":5.370679,"is_reserved":false,"is_disabled":false,"rental_uris":{"android":"levelo://app?vid=20f7cc43-6990-470b-9897-53429775f02c","ios":"levelo://app?vid=20f7cc43-6990-470b-9897-53429775f02c"},"vehicle_type_id":"4","last_reported":1678306087,"current_range_meters":16000,"station_id":"ce4bht12rcd13ifvqi60","pricing_plan_id":"free"},{"bike_id":"37271ca3-faa4-4b34-bcef-54b418b25195","system_id":"levelo_inurba_marseille","lat":43.286039,"lon":5.370679,"is_reserved":false,"is_disabled":false,"rental_uris":{"android":"levelo://app?vid=37271ca3-faa4-4b34-bcef-54b418b25195","ios":"levelo://app?vid=37271ca3-faa4-4b34-bcef-54b418b25195"},"vehicle_type_id":"4","last_reported":1678306087,"current_range_meters":22000,"station_id":"ce4bht12rcd13ifvqi60","pricing_plan_id":"free"},{"bike_id":"edab8ebc-4e4c-4b3f-a9c4-cdbf5ab02c15","system_id":"levelo_inurba_marseille","lat":43.28039,"lon":5.369297,"is_reserved":false,"is_disabled":false,"rental_uris":{"android":"levelo://app?vid=edab8ebc-4e4c-4b3f-a9c4-cdbf5ab02c15","ios":"levelo://app?vid=edab8ebc-4e4c-4b3f-a9c4-cdbf5ab02c15"},"vehicle_type_id":"4","last_reported":1678306087,"current_range_meters":9600,"station_id":"ce4bha12rcd13ifvqef0","pricing_plan_id":"free"},{"bike_id":"656b8a30-bc37-40ee-a879-2355f5037e1a","system_id":"levelo_inurba_marseille","lat":43.287184,"lon":5.37937,"is_reserved":false,"is_disabled":false,"rental_uris":{"android":"levelo://app?vid=656b8a30-bc37-40ee-a879-2355f5037e1a","ios":"levelo://app?vid=656b8a30-bc37-40ee-a879-2355f5037e1a"},"vehicle_type_id":"4","last_reported":1678306087,"current_range_meters":800,"station_id":"ce4bh9p2rcd13ifvqec0","pricing_plan_id":"free"},{"bike_id":"12cccd2f-5ebc-4b52-8725-85177f2b4958","system_id":"levelo_inurba_marseille","lat":43.287184,"lon":5.37937,"is_reserved":false,"is_disabled":false,"rental_uris":{"android":"levelo://app?vid=12cccd2f-5ebc-4b52-8725-85177f2b4958","ios":"levelo://app?vid=12cccd2f-5ebc-4b52-8725-85177f2b4958"},"vehicle_type_id":"4","last_reported":1678306087,"current_range_meters":1200,"station_id":"ce4bh9p2rcd13ifvqec0","pricing_plan_id":"free"},{"bike_id":"05916d79-ac59-4bcd-887e-a35b86dc9f9d","system_id":"levelo_inurba_marseille","lat":43.287184,"lon":5.37937,"is_reserved":false,"is_disabled":false,"rental_uris":{"android":"levelo://app?vid=05916d79-ac59-4bcd-887e-a35b86dc9f9d","ios":"levelo://app?vid=05916d79-ac59-4bcd-887e-a35b86dc9f9d"},"vehicle_type_id":"4","last_reported":1678306087,"current_range_meters":20000,"station_id":"ce4bh9p2rcd13ifvqec0","pricing_plan_id":"free"},{"bike_id":"41ce32ea-3338-48ab-a82a-a6926707e114","system_id":"levelo_inurba_marseille","lat":43.316517,"lon":5.404375,"is_reserved":false,"is_disabled":false,"rental_uris":{"android":"levelo://app?vid=41ce32ea-3338-48ab-a82a-a6926707e114","ios":"levelo://app?vid=41ce32ea-3338-48ab-a82a-a6926707e114"},"vehicle_type_id":"4","last_reported":1678306087,"current_range_meters":13200,"station_id":"ce4bh012rcd13ifvqd00","pricing_plan_id":"free"},{"bike_id":"94f86ffd-b02d-4cad-92f9-de5f18e7b95a","system_id":"levelo_inurba_marseille","lat":43.316517,"lon":5.404375,"is_reserved":false,"is_disabled":false,"rental_uris":{"android":"levelo://app?vid=94f86ffd-b02d-4cad-92f9-de5f18e7b95a","ios":"levelo://app?vid=94f86ffd-b02d-4cad-92f9-de5f18e7b95a"},"vehicle_type_id":"4","last_reported":1678306087,"current_range_meters":0,"station_id":"ce4bh012rcd13ifvqd00","pricing_plan_id":"free"},{"bike_id":"35f0a106-19f8-4992-8a20-9fdaf0ebcbef","system_id":"levelo_inurba_marseille","lat":43.3164,"lon":5.40439,"is_reserved":false,"is_disabled":false,"rental_uris":{"android":"levelo://app?vid=35f0a106-19f8-4992-8a20-9fdaf0ebcbef","ios":"levelo://app?vid=35f0a106-19f8-4992-8a20-9fdaf0ebcbef"},"vehicle_type_id":"4","last_reported":1678306087,"current_range_meters":13200,"station_id":"","pricing_plan_id":"free"},{"bike_id":"81d224a5-313b-4a0b-a0dd-a12cef810f00","system_id":"levelo_inurba_marseille","lat":43.31646,"lon":5.40439,"is_reserved":false,"is_disabled":false,"rental_uris":{"android":"levelo://app?vid=81d224a5-313b-4a0b-a0dd-a12cef810f00","ios":"levelo://app?vid=81d224a5-313b-4a0b-a0dd-a12cef810f00"},"vehicle_type_id":"4","last_reported":1678306087,"current_range_meters":28400,"station_id":"","pricing_plan_id":"free"},{"bike_id":"f835e606-b6d8-441d-9979-6500d3e14ad3","system_id":"levelo_inurba_marseille","lat":43.31643,"lon":5.4044,"is_reserved":false,"is_disabled":false,"rental_uris":{"android":"levelo://app?vid=f835e606-b6d8-441d-9979-6500d3e14ad3","ios":"levelo://app?vid=f835e606-b6d8-441d-9979-6500d3e14ad3"},"vehicle_type_id":"4","last_reported":1678306087,"current_range_meters":16400,"station_id":"","pricing_plan_id":"free"},{"bike_id":"6ced47ed-aa02-495c-b0aa-afa7d101c884","system_id":"levelo_inurba_marseille","lat":43.316517,"lon":5.404375,"is_reserved":false,"is_disabled":false,"rental_uris":{"android":"levelo://app?vid=6ced47ed-aa02-495c-b0aa-afa7d101c884","ios":"levelo://app?vid=6ced47ed-aa02-495c-b0aa-afa7d101c884"},"vehicle_type_id":"4","last_reported":1678306087,"current_range_meters":0,"station_id":"ce4bh012rcd13ifvqd00","pricing_plan_id":"free"},{"bike_id":"69c02bd4-14b7-4ea9-aeb7-c999650add69","system_id":"levelo_inurba_marseille","lat":43.316517,"lon":5.404375,"is_reserved":false,"is_disabled":false,"rental_uris":{"android":"levelo://app?vid=69c02bd4-14b7-4ea9-aeb7-c999650add69","ios":"levelo://app?vid=69c02bd4-14b7-4ea9-aeb7-c999650add69"},"vehicle_type_id":"4","last_reported":1678306087,"current_range_meters":0,"station_id":"ce4bh012rcd13ifvqd00","pricing_plan_id":"free"},{"bike_id":"69f6bd94-c607-4082-9f8e-c48e6ce0bdb7","system_id":"levelo_inurba_marseille","lat":43.3165,"lon":5.40441,"is_reserved":false,"is_disabled":false,"rental_uris":{"android":"levelo://app?vid=69f6bd94-c607-4082-9f8e-c48e6ce0bdb7","ios":"levelo://app?vid=69f6bd94-c607-4082-9f8e-c48e6ce0bdb7"},"vehicle_type_id":"4","last_reported":1678306087,"current_range_meters":8000,"station_id":"","pricing_plan_id":"free"},{"bike_id":"f0c74c4a-f51c-47c6-8598-97b136cd0967","system_id":"levelo_inurba_marseille","lat":43.31648,"lon":5.40444,"is_reserved":false,"is_disabled":false,"rental_uris":{"android":"levelo://app?vid=f0c74c4a-f51c-47c6-8598-97b136cd0967","ios":"levelo://app?vid=f0c74c4a-f51c-47c6-8598-97b136cd0967"},"vehicle_type_id":"4","last_reported":1678306087,"current_range_meters":4000,"station_id":"","pricing_plan_id":"free"},{"bike_id":"4c257a2a-9923-49c1-a23b-12d90b2d3941","system_id":"levelo_inurba_marseille","lat":43.286056,"lon":5.353415,"is_reserved":false,"is_disabled":false,"rental_uris":{"android":"levelo://app?vid=4c257a2a-9923-49c1-a23b-12d90b2d3941","ios":"levelo://app?vid=4c257a2a-9923-49c1-a23b-12d90b2d3941"},"vehicle_type_id":"4","last_reported":1678306087,"current_range_meters":3200,"station_id":"","pricing_plan_id":"free"},{"bike_id":"e1f542ee-d677-4cdb-ae98-631d46b40446","system_id":"levelo_inurba_marseille","lat":43.28467,"lon":5.35898,"is_reserved":false,"is_disabled":false,"rental_uris":{"android":"levelo://app?vid=e1f542ee-d677-4cdb-ae98-631d46b40446","ios":"levelo://app?vid=e1f542ee-d677-4cdb-ae98-631d46b40446"},"vehicle_type_id":"4","last_reported":1678306087,"current_range_meters":1200,"station_id":"","pricing_plan_id":"free"},{"bike_id":"2c4c5c8f-4e32-43b3-ae5d-a569a74395d8","system_id":"levelo_inurba_marseille","lat":43.28464,"lon":5.35897,"is_reserved":false,"is_disabled":false,"rental_uris":{"android":"levelo://app?vid=2c4c5c8f-4e32-43b3-ae5d-a569a74395d8","ios":"levelo://app?vid=2c4c5c8f-4e32-43b3-ae5d-a569a74395d8"},"vehicle_type_id":"4","last_reported":1678306087,"current_range_meters":8000,"station_id":"","pricing_plan_id":"free"},{"bike_id":"0996ad13-0dae-422d-8bc3-964fd936e679","system_id":"levelo_inurba_marseille","lat":43.284595,"lon":5.358882,"is_reserved":false,"is_disabled":false,"rental_uris":{"android":"levelo://app?vid=0996ad13-0dae-422d-8bc3-964fd936e679","ios":"levelo://app?vid=0996ad13-0dae-422d-8bc3-964fd936e679"},"vehicle_type_id":"4","last_reported":1678306087,"current_range_meters":2800,"station_id":"ce4bhah2rcd13ifvqei0","pricing_plan_id":"free"},{"bike_id":"04280444-69a7-479c-9c88-dfe5cbe43865","system_id":"levelo_inurba_marseille","lat":43.284582,"lon":5.358967,"is_reserved":false,"is_disabled":false,"rental_uris":{"android":"levelo://app?vid=04280444-69a7-479c-9c88-dfe5cbe43865","ios":"levelo://app?vid=04280444-69a7-479c-9c88-dfe5cbe43865"},"vehicle_type_id":"4","last_reported":1678306087,"current_range_meters":28400,"station_id":"","pricing_plan_id":"free"},{"bike_id":"654af73d-d30e-4ca2-809c-cc9151821bbe","system_id":"levelo_inurba_marseille","lat":43.284569,"lon":5.358974,"is_reserved":false,"is_disabled":false,"rental_uris":{"android":"levelo://app?vid=654af73d-d30e-4ca2-809c-cc9151821bbe","ios":"levelo://app?vid=654af73d-d30e-4ca2-809c-cc9151821bbe"},"vehicle_type_id":"4","last_reported":1678306087,"current_range_meters":25200,"station_id":"","pricing_plan_id":"free"},{"bike_id":"eb31696e-bba1-4986-b16b-84a825a499f5","system_id":"levelo_inurba_marseille","lat":43.28457,"lon":5.35894,"is_reserved":false,"is_disabled":false,"rental_uris":{"android":"levelo://app?vid=eb31696e-bba1-4986-b16b-84a825a499f5","ios":"levelo://app?vid=eb31696e-bba1-4986-b16b-84a825a499f5"},"vehicle_type_id":"4","last_reported":1678306087,"current_range_meters":14000,"station_id":"ce4bhah2rcd13ifvqei0","pricing_plan_id":"free"},{"bike_id":"6992ee83-dc47-4dd7-9011-bc293118ef92","system_id":"levelo_inurba_marseille","lat":43.28456,"lon":5.35898,"is_reserved":false,"is_disabled":false,"rental_uris":{"android":"levelo://app?vid=6992ee83-dc47-4dd7-9011-bc293118ef92","ios":"levelo://app?vid=6992ee83-dc47-4dd7-9011-bc293118ef92"},"vehicle_type_id":"4","last_reported":1678306087,"current_range_meters":0,"station_id":"ce4bhah2rcd13ifvqei0","pricing_plan_id":"free"},{"bike_id":"731c6d15-26bc-4415-a210-22ffbec530f9","system_id":"levelo_inurba_marseille","lat":43.284564,"lon":5.358924,"is_reserved":false,"is_disabled":false,"rental_uris":{"android":"levelo://app?vid=731c6d15-26bc-4415-a210-22ffbec530f9","ios":"levelo://app?vid=731c6d15-26bc-4415-a210-22ffbec530f9"},"vehicle_type_id":"4","last_reported":1678306087,"current_range_meters":4400,"station_id":"ce4bhah2rcd13ifvqei0","pricing_plan_id":"free"},{"bike_id":"cb5550d4-de07-4bcd-b52d-b9776f1cbfd5","system_id":"levelo_inurba_marseille","lat":43.28456,"lon":5.358947,"is_reserved":false,"is_disabled":false,"rental_uris":{"android":"levelo://app?vid=cb5550d4-de07-4bcd-b52d-b9776f1cbfd5","ios":"levelo://app?vid=cb5550d4-de07-4bcd-b52d-b9776f1cbfd5"},"vehicle_type_id":"4","last_reported":1678306087,"current_range_meters":8000,"station_id":"","pricing_plan_id":"free"},{"bike_id":"579699b5-a313-4e2d-a94f-79d576d13b9b","system_id":"levelo_inurba_marseille","lat":43.28456,"lon":5.35893,"is_reserved":false,"is_disabled":false,"rental_uris":{"android":"levelo://app?vid=579699b5-a313-4e2d-a94f-79d576d13b9b","ios":"levelo://app?vid=579699b5-a313-4e2d-a94f-79d576d13b9b"},"vehicle_type_id":"4","last_reported":1678306087,"current_range_meters":3600,"station_id":"ce4bhah2rcd13ifvqei0","pricing_plan_id":"free"},{"bike_id":"5cb6ea99-2baf-4483-87c3-931e50b46af8","system_id":"levelo_inurba_marseille","lat":43.28456,"lon":5.358854,"is_reserved":false,"is_disabled":false,"rental_uris":{"android":"levelo://app?vid=5cb6ea99-2baf-4483-87c3-931e50b46af8","ios":"levelo://app?vid=5cb6ea99-2baf-4483-87c3-931e50b46af8"},"vehicle_type_id":"4","last_reported":1678306087,"current_range_meters":10800,"station_id":"ce4bhah2rcd13ifvqei0","pricing_plan_id":"free"},{"bike_id":"f5a91fff-9cfe-44ac-9787-cf2cdf64bbb1","system_id":"levelo_inurba_marseille","lat":43.28455,"lon":5.35887,"is_reserved":false,"is_disabled":false,"rental_uris":{"android":"levelo://app?vid=f5a91fff-9cfe-44ac-9787-cf2cdf64bbb1","ios":"levelo://app?vid=f5a91fff-9cfe-44ac-9787-cf2cdf64bbb1"},"vehicle_type_id":"4","last_reported":1678306087,"current_range_meters":5200,"station_id":"ce4bhah2rcd13ifvqei0","pricing_plan_id":"free"},{"bike_id":"c185c316-b5f3-4c34-8f07-780f4bb016fa","system_id":"levelo_inurba_marseille","lat":43.28454,"lon":5.358827,"is_reserved":false,"is_disabled":false,"rental_uris":{"android":"levelo://app?vid=c185c316-b5f3-4c34-8f07-780f4bb016fa","ios":"levelo://app?vid=c185c316-b5f3-4c34-8f07-780f4bb016fa"},"vehicle_type_id":"4","last_reported":1678306087,"current_range_meters":8800,"station_id":"ce4bhah2rcd13ifvqei0","pricing_plan_id":"free"},{"bike_id":"04b587ca-908d-40ad-8b3c-26212008f288","system_id":"levelo_inurba_marseille","lat":43.28452,"lon":5.35893,"is_reserved":false,"is_disabled":false,"rental_uris":{"android":"levelo://app?vid=04b587ca-908d-40ad-8b3c-26212008f288","ios":"levelo://app?vid=04b587ca-908d-40ad-8b3c-26212008f288"},"vehicle_type_id":"4","last_reported":1678306087,"current_range_meters":3200,"station_id":"ce4bhah2rcd13ifvqei0","pricing_plan_id":"free"},{"bike_id":"6e09bfed-52d8-4294-831d-0ce99b998af0","system_id":"levelo_inurba_marseille","lat":43.284513,"lon":5.35893,"is_reserved":false,"is_disabled":false,"rental_uris":{"android":"levelo://app?vid=6e09bfed-52d8-4294-831d-0ce99b998af0","ios":"levelo://app?vid=6e09bfed-52d8-4294-831d-0ce99b998af0"},"vehicle_type_id":"4","last_reported":1678306087,"current_range_meters":8400,"station_id":"ce4bhah2rcd13ifvqei0","pricing_plan_id":"free"},{"bike_id":"c3a8b17e-0aea-434f-b1e4-0e5f4b08e005","system_id":"levelo_inurba_marseille","lat":43.286595,"lon":5.386795,"is_reserved":false,"is_disabled":false,"rental_uris":{"android":"levelo://app?vid=c3a8b17e-0aea-434f-b1e4-0e5f4b08e005","ios":"levelo://app?vid=c3a8b17e-0aea-434f-b1e4-0e5f4b08e005"},"vehicle_type_id":"4","last_reported":1678306087,"current_range_meters":0,"station_id":"ce4bh492rcd13ifvqdug","pricing_plan_id":"free"},{"bike_id":"193ed946-a588-4980-8fad-1a78381a9414","system_id":"levelo_inurba_marseille","lat":43.337168,"lon":5.391825,"is_reserved":false,"is_disabled":false,"rental_uris":{"android":"levelo://app?vid=193ed946-a588-4980-8fad-1a78381a9414","ios":"levelo://app?vid=193ed946-a588-4980-8fad-1a78381a9414"},"vehicle_type_id":"4","last_reported":1678306087,"current_range_meters":15600,"station_id":"ce4bhr92rcd13ifvqhsg","pricing_plan_id":"free"},{"bike_id":"61698476-fabf-45bd-b501-722c7f9e07bb","system_id":"levelo_inurba_marseille","lat":43.337168,"lon":5.391825,"is_reserved":false,"is_disabled":false,"rental_uris":{"android":"levelo://app?vid=61698476-fabf-45bd-b501-722c7f9e07bb","ios":"levelo://app?vid=61698476-fabf-45bd-b501-722c7f9e07bb"},"vehicle_type_id":"4","last_reported":1678306087,"current_range_meters":24400,"station_id":"ce4bhr92rcd13ifvqhsg","pricing_plan_id":"free"},{"bike_id":"049dad72-6330-444a-8c59-496aca383226","system_id":"levelo_inurba_marseille","lat":43.337168,"lon":5.391825,"is_reserved":false,"is_disabled":false,"rental_uris":{"android":"levelo://app?vid=049dad72-6330-444a-8c59-496aca383226","ios":"levelo://app?vid=049dad72-6330-444a-8c59-496aca383226"},"vehicle_type_id":"4","last_reported":1678306087,"current_range_meters":25600,"station_id":"ce4bhr92rcd13ifvqhsg","pricing_plan_id":"free"},{"bike_id":"3a42862b-5a42-4502-919b-414b215e6a96","system_id":"levelo_inurba_marseille","lat":43.337168,"lon":5.391825,"is_reserved":false,"is_disabled":false,"rental_uris":{"android":"levelo://app?vid=3a42862b-5a42-4502-919b-414b215e6a96","ios":"levelo://app?vid=3a42862b-5a42-4502-919b-414b215e6a96"},"vehicle_type_id":"4","last_reported":1678306087,"current_range_meters":0,"station_id":"ce4bhr92rcd13ifvqhsg","pricing_plan_id":"free"},{"bike_id":"b14477e0-be2d-4449-a042-a29e9f0b105c","system_id":"levelo_inurba_marseille","lat":43.337168,"lon":5.391825,"is_reserved":false,"is_disabled":false,"rental_uris":{"android":"levelo://app?vid=b14477e0-be2d-4449-a042-a29e9f0b105c","ios":"levelo://app?vid=b14477e0-be2d-4449-a042-a29e9f0b105c"},"vehicle_type_id":"4","last_reported":1678306087,"current_range_meters":22000,"station_id":"ce4bhr92rcd13ifvqhsg","pricing_plan_id":"free"},{"bike_id":"8af5e1b5-c6d7-42c7-b2e5-93d1697d7f23","system_id":"levelo_inurba_marseille","lat":43.337168,"lon":5.391825,"is_reserved":false,"is_disabled":false,"rental_uris":{"android":"levelo://app?vid=8af5e1b5-c6d7-42c7-b2e5-93d1697d7f23","ios":"levelo://app?vid=8af5e1b5-c6d7-42c7-b2e5-93d1697d7f23"},"vehicle_type_id":"4","last_reported":1678306087,"current_range_meters":20800,"station_id":"ce4bhr92rcd13ifvqhsg","pricing_plan_id":"free"},{"bike_id":"c6cc7444-9b55-4e24-aa8f-c99453113b11","system_id":"levelo_inurba_marseille","lat":43.337168,"lon":5.391825,"is_reserved":false,"is_disabled":false,"rental_uris":{"android":"levelo://app?vid=c6cc7444-9b55-4e24-aa8f-c99453113b11","ios":"levelo://app?vid=c6cc7444-9b55-4e24-aa8f-c99453113b11"},"vehicle_type_id":"4","last_reported":1678306087,"current_range_meters":9200,"station_id":"ce4bhr92rcd13ifvqhsg","pricing_plan_id":"free"},{"bike_id":"ab014c16-a9fb-4502-9f5f-90bef9b9521b","system_id":"levelo_inurba_marseille","lat":43.337168,"lon":5.391825,"is_reserved":false,"is_disabled":false,"rental_uris":{"android":"levelo://app?vid=ab014c16-a9fb-4502-9f5f-90bef9b9521b","ios":"levelo://app?vid=ab014c16-a9fb-4502-9f5f-90bef9b9521b"},"vehicle_type_id":"4","last_reported":1678306087,"current_range_meters":18400,"station_id":"ce4bhr92rcd13ifvqhsg","pricing_plan_id":"free"},{"bike_id":"1a0985e7-8012-4188-a1ab-5d2a657e6e8f","system_id":"levelo_inurba_marseille","lat":43.337168,"lon":5.391825,"is_reserved":false,"is_disabled":false,"rental_uris":{"android":"levelo://app?vid=1a0985e7-8012-4188-a1ab-5d2a657e6e8f","ios":"levelo://app?vid=1a0985e7-8012-4188-a1ab-5d2a657e6e8f"},"vehicle_type_id":"4","last_reported":1678306087,"current_range_meters":17200,"station_id":"ce4bhr92rcd13ifvqhsg","pricing_plan_id":"free"},{"bike_id":"3a23e8e6-3262-4e7b-8a0d-4fe3dfa7eb14","system_id":"levelo_inurba_marseille","lat":43.3234,"lon":5.40629,"is_reserved":false,"is_disabled":false,"rental_uris":{"android":"levelo://app?vid=3a23e8e6-3262-4e7b-8a0d-4fe3dfa7eb14","ios":"levelo://app?vid=3a23e8e6-3262-4e7b-8a0d-4fe3dfa7eb14"},"vehicle_type_id":"4","last_reported":1678306087,"current_range_meters":24800,"station_id":"","pricing_plan_id":"free"},{"bike_id":"c4dbf44f-b2f6-4712-bc48-ad2c8fae7753","system_id":"levelo_inurba_marseille","lat":43.337309,"lon":5.391931,"is_reserved":false,"is_disabled":false,"rental_uris":{"android":"levelo://app?vid=c4dbf44f-b2f6-4712-bc48-ad2c8fae7753","ios":"levelo://app?vid=c4dbf44f-b2f6-4712-bc48-ad2c8fae7753"},"vehicle_type_id":"4","last_reported":1678306087,"current_range_meters":16000,"station_id":"ce4bhr92rcd13ifvqhsg","pricing_plan_id":"free"},{"bike_id":"62715bb9-2cca-4bc4-8318-09fa2b7bd62d","system_id":"levelo_inurba_marseille","lat":43.337168,"lon":5.391825,"is_reserved":false,"is_disabled":false,"rental_uris":{"android":"levelo://app?vid=62715bb9-2cca-4bc4-8318-09fa2b7bd62d","ios":"levelo://app?vid=62715bb9-2cca-4bc4-8318-09fa2b7bd62d"},"vehicle_type_id":"4","last_reported":1678306087,"current_range_meters":0,"station_id":"ce4bhr92rcd13ifvqhsg","pricing_plan_id":"free"},{"bike_id":"987722c3-3b89-4dc0-8a10-2cab7ae0b0be","system_id":"levelo_inurba_marseille","lat":43.284787,"lon":5.384116,"is_reserved":false,"is_disabled":false,"rental_uris":{"android":"levelo://app?vid=987722c3-3b89-4dc0-8a10-2cab7ae0b0be","ios":"levelo://app?vid=987722c3-3b89-4dc0-8a10-2cab7ae0b0be"},"vehicle_type_id":"4","last_reported":1678306087,"current_range_meters":19200,"station_id":"ce4bh512rcd13ifvqe3g","pricing_plan_id":"free"},{"bike_id":"4c3966d0-f97c-4548-b4ea-69f9ba4b9fb1","system_id":"levelo_inurba_marseille","lat":43.288497,"lon":5.393089,"is_reserved":false,"is_disabled":false,"rental_uris":{"android":"levelo://app?vid=4c3966d0-f97c-4548-b4ea-69f9ba4b9fb1","ios":"levelo://app?vid=4c3966d0-f97c-4548-b4ea-69f9ba4b9fb1"},"vehicle_type_id":"4","last_reported":1678306087,"current_range_meters":8400,"station_id":"ce4bh2p2rcd13ifvqdi0","pricing_plan_id":"free"},{"bike_id":"9f1acebd-4ab0-48cb-9bff-190f857d611f","system_id":"levelo_inurba_marseille","lat":43.288497,"lon":5.393089,"is_reserved":false,"is_disabled":false,"rental_uris":{"android":"levelo://app?vid=9f1acebd-4ab0-48cb-9bff-190f857d611f","ios":"levelo://app?vid=9f1acebd-4ab0-48cb-9bff-190f857d611f"},"vehicle_type_id":"4","last_reported":1678306087,"current_range_meters":18800,"station_id":"ce4bh2p2rcd13ifvqdi0","pricing_plan_id":"free"},{"bike_id":"1dc118f2-d318-4d13-bf13-2ca778024ee7","system_id":"levelo_inurba_marseille","lat":43.288497,"lon":5.393089,"is_reserved":false,"is_disabled":false,"rental_uris":{"android":"levelo://app?vid=1dc118f2-d318-4d13-bf13-2ca778024ee7","ios":"levelo://app?vid=1dc118f2-d318-4d13-bf13-2ca778024ee7"},"vehicle_type_id":"4","last_reported":1678306087,"current_range_meters":6000,"station_id":"ce4bh2p2rcd13ifvqdi0","pricing_plan_id":"free"},{"bike_id":"f581c793-febd-4b36-be92-05e1b0d7e710","system_id":"levelo_inurba_marseille","lat":43.2842,"lon":5.34978,"is_reserved":false,"is_disabled":false,"rental_uris":{"android":"levelo://app?vid=f581c793-febd-4b36-be92-05e1b0d7e710","ios":"levelo://app?vid=f581c793-febd-4b36-be92-05e1b0d7e710"},"vehicle_type_id":"4","last_reported":1678306087,"current_range_meters":2000,"station_id":"ce4bhbh2rcd13ifvqepg","pricing_plan_id":"free"},{"bike_id":"9c51eac5-b4f6-4739-aeaa-c74f776efe63","system_id":"levelo_inurba_marseille","lat":43.284173,"lon":5.349857,"is_reserved":false,"is_disabled":false,"rental_uris":{"android":"levelo://app?vid=9c51eac5-b4f6-4739-aeaa-c74f776efe63","ios":"levelo://app?vid=9c51eac5-b4f6-4739-aeaa-c74f776efe63"},"vehicle_type_id":"4","last_reported":1678306087,"current_range_meters":6000,"station_id":"ce4bhbh2rcd13ifvqepg","pricing_plan_id":"free"},{"bike_id":"828967d8-f54d-4f84-9de9-2962ede75af1","system_id":"levelo_inurba_marseille","lat":43.28418,"lon":5.34982,"is_reserved":false,"is_disabled":false,"rental_uris":{"android":"levelo://app?vid=828967d8-f54d-4f84-9de9-2962ede75af1","ios":"levelo://app?vid=828967d8-f54d-4f84-9de9-2962ede75af1"},"vehicle_type_id":"4","last_reported":1678306087,"current_range_meters":6000,"station_id":"ce4bhbh2rcd13ifvqepg","pricing_plan_id":"free"},{"bike_id":"c3318907-1bed-4466-af48-0e914afb9d54","system_id":"levelo_inurba_marseille","lat":43.289363,"lon":5.396322,"is_reserved":false,"is_disabled":false,"rental_uris":{"android":"levelo://app?vid=c3318907-1bed-4466-af48-0e914afb9d54","ios":"levelo://app?vid=c3318907-1bed-4466-af48-0e914afb9d54"},"vehicle_type_id":"4","last_reported":1678306087,"current_range_meters":15600,"station_id":"ce4bh3h2rcd13ifvqdn0","pricing_plan_id":"free"},{"bike_id":"56961e3d-52c3-42d8-bec7-ebbc5c1730ab","system_id":"levelo_inurba_marseille","lat":43.282744,"lon":5.350533,"is_reserved":false,"is_disabled":false,"rental_uris":{"android":"levelo://app?vid=56961e3d-52c3-42d8-bec7-ebbc5c1730ab","ios":"levelo://app?vid=56961e3d-52c3-42d8-bec7-ebbc5c1730ab"},"vehicle_type_id":"4","last_reported":1678306087,"current_range_meters":0,"station_id":"ce4bhbp2rcd13ifvqerg","pricing_plan_id":"free"},{"bike_id":"29a7f88f-d951-45e1-8daf-28fb426f029d","system_id":"levelo_inurba_marseille","lat":43.324383,"lon":5.408303,"is_reserved":false,"is_disabled":false,"rental_uris":{"android":"levelo://app?vid=29a7f88f-d951-45e1-8daf-28fb426f029d","ios":"levelo://app?vid=29a7f88f-d951-45e1-8daf-28fb426f029d"},"vehicle_type_id":"4","last_reported":1678306087,"current_range_meters":17600,"station_id":"ce4bhq92rcd13ifvqhjg","pricing_plan_id":"free"},{"bike_id":"086d1d7f-ce30-47d9-b4cd-9890c5dee809","system_id":"levelo_inurba_marseille","lat":43.32436,"lon":5.40835,"is_reserved":false,"is_disabled":false,"rental_uris":{"android":"levelo://app?vid=086d1d7f-ce30-47d9-b4cd-9890c5dee809","ios":"levelo://app?vid=086d1d7f-ce30-47d9-b4cd-9890c5dee809"},"vehicle_type_id":"4","last_reported":1678306087,"current_range_meters":5600,"station_id":"","pricing_plan_id":"free"},{"bike_id":"0767f476-2700-45a4-86f7-1ce8adb24b65","system_id":"levelo_inurba_marseille","lat":43.282744,"lon":5.350533,"is_reserved":false,"is_disabled":false,"rental_uris":{"android":"levelo://app?vid=0767f476-2700-45a4-86f7-1ce8adb24b65","ios":"levelo://app?vid=0767f476-2700-45a4-86f7-1ce8adb24b65"},"vehicle_type_id":"4","last_reported":1678306087,"current_range_meters":7200,"station_id":"ce4bhbp2rcd13ifvqerg","pricing_plan_id":"free"},{"bike_id":"2fd7d0f2-e50c-467b-8d33-a69b5a60d2ff","system_id":"levelo_inurba_marseille","lat":43.282744,"lon":5.350533,"is_reserved":false,"is_disabled":false,"rental_uris":{"android":"levelo://app?vid=2fd7d0f2-e50c-467b-8d33-a69b5a60d2ff","ios":"levelo://app?vid=2fd7d0f2-e50c-467b-8d33-a69b5a60d2ff"},"vehicle_type_id":"4","last_reported":1678306087,"current_range_meters":20000,"station_id":"ce4bhbp2rcd13ifvqerg","pricing_plan_id":"free"},{"bike_id":"ef90b791-7611-4233-a14b-11b239e381f4","system_id":"levelo_inurba_marseille","lat":43.282744,"lon":5.350533,"is_reserved":false,"is_disabled":false,"rental_uris":{"android":"levelo://app?vid=ef90b791-7611-4233-a14b-11b239e381f4","ios":"levelo://app?vid=ef90b791-7611-4233-a14b-11b239e381f4"},"vehicle_type_id":"4","last_reported":1678306087,"current_range_meters":12800,"station_id":"ce4bhbp2rcd13ifvqerg","pricing_plan_id":"free"},{"bike_id":"e150df0e-c5b5-409e-acb2-6f95b40ebc98","system_id":"levelo_inurba_marseille","lat":43.282744,"lon":5.350533,"is_reserved":false,"is_disabled":false,"rental_uris":{"android":"levelo://app?vid=e150df0e-c5b5-409e-acb2-6f95b40ebc98","ios":"levelo://app?vid=e150df0e-c5b5-409e-acb2-6f95b40ebc98"},"vehicle_type_id":"4","last_reported":1678306087,"current_range_meters":10000,"station_id":"ce4bhbp2rcd13ifvqerg","pricing_plan_id":"free"},{"bike_id":"e6ed2e4b-972d-4e4c-9b6f-8d6e52adfc6e","system_id":"levelo_inurba_marseille","lat":43.28038,"lon":5.36944,"is_reserved":false,"is_disabled":false,"rental_uris":{"android":"levelo://app?vid=e6ed2e4b-972d-4e4c-9b6f-8d6e52adfc6e","ios":"levelo://app?vid=e6ed2e4b-972d-4e4c-9b6f-8d6e52adfc6e"},"vehicle_type_id":"4","last_reported":1678306087,"current_range_meters":13200,"station_id":"ce4bha12rcd13ifvqef0","pricing_plan_id":"free"},{"bike_id":"c00396af-4db8-4616-9698-65055f51998a","system_id":"levelo_inurba_marseille","lat":43.280382,"lon":5.369291,"is_reserved":false,"is_disabled":false,"rental_uris":{"android":"levelo://app?vid=c00396af-4db8-4616-9698-65055f51998a","ios":"levelo://app?vid=c00396af-4db8-4616-9698-65055f51998a"},"vehicle_type_id":"4","last_reported":1678306087,"current_range_meters":27200,"station_id":"ce4bha12rcd13ifvqef0","pricing_plan_id":"free"},{"bike_id":"ab493cd2-f341-4304-932c-dadd436736de","system_id":"levelo_inurba_marseille","lat":43.280315,"lon":5.369468,"is_reserved":false,"is_disabled":false,"rental_uris":{"android":"levelo://app?vid=ab493cd2-f341-4304-932c-dadd436736de","ios":"levelo://app?vid=ab493cd2-f341-4304-932c-dadd436736de"},"vehicle_type_id":"4","last_reported":1678306087,"current_range_meters":0,"station_id":"","pricing_plan_id":"free"},{"bike_id":"ac195b19-61f4-4f8d-93df-d196091f25d8","system_id":"levelo_inurba_marseille","lat":43.281044,"lon":5.378308,"is_reserved":false,"is_disabled":false,"rental_uris":{"android":"levelo://app?vid=ac195b19-61f4-4f8d-93df-d196091f25d8","ios":"levelo://app?vid=ac195b19-61f4-4f8d-93df-d196091f25d8"},"vehicle_type_id":"4","last_reported":1678306087,"current_range_meters":8000,"station_id":"ce4bha12rcd13ifvqee0","pricing_plan_id":"free"},{"bike_id":"864eece4-25db-4aff-b9b7-2999c47b26b6","system_id":"levelo_inurba_marseille","lat":43.281044,"lon":5.378308,"is_reserved":false,"is_disabled":false,"rental_uris":{"android":"levelo://app?vid=864eece4-25db-4aff-b9b7-2999c47b26b6","ios":"levelo://app?vid=864eece4-25db-4aff-b9b7-2999c47b26b6"},"vehicle_type_id":"4","last_reported":1678306087,"current_range_meters":30400,"station_id":"ce4bha12rcd13ifvqee0","pricing_plan_id":"free"},{"bike_id":"92cec391-9c35-4b34-a86d-0e9c75280acc","system_id":"levelo_inurba_marseille","lat":43.281044,"lon":5.378308,"is_reserved":false,"is_disabled":false,"rental_uris":{"android":"levelo://app?vid=92cec391-9c35-4b34-a86d-0e9c75280acc","ios":"levelo://app?vid=92cec391-9c35-4b34-a86d-0e9c75280acc"},"vehicle_type_id":"4","last_reported":1678306087,"current_range_meters":14400,"station_id":"ce4bha12rcd13ifvqee0","pricing_plan_id":"free"},{"bike_id":"4e8617d0-a182-40be-a114-21a42cea0633","system_id":"levelo_inurba_marseille","lat":43.281044,"lon":5.378308,"is_reserved":false,"is_disabled":false,"rental_uris":{"android":"levelo://app?vid=4e8617d0-a182-40be-a114-21a42cea0633","ios":"levelo://app?vid=4e8617d0-a182-40be-a114-21a42cea0633"},"vehicle_type_id":"4","last_reported":1678306087,"current_range_meters":8400,"station_id":"ce4bha12rcd13ifvqee0","pricing_plan_id":"free"},{"bike_id":"b7a595f7-e2e4-46c1-8a06-051219b71d2f","system_id":"levelo_inurba_marseille","lat":43.281044,"lon":5.378308,"is_reserved":false,"is_disabled":false,"rental_uris":{"android":"levelo://app?vid=b7a595f7-e2e4-46c1-8a06-051219b71d2f","ios":"levelo://app?vid=b7a595f7-e2e4-46c1-8a06-051219b71d2f"},"vehicle_type_id":"4","last_reported":1678306087,"current_range_meters":3600,"station_id":"ce4bha12rcd13ifvqee0","pricing_plan_id":"free"},{"bike_id":"d5609881-7651-4834-bc58-6ba3bcd82b45","system_id":"levelo_inurba_marseille","lat":43.296263,"lon":5.40601,"is_reserved":false,"is_disabled":false,"rental_uris":{"android":"levelo://app?vid=d5609881-7651-4834-bc58-6ba3bcd82b45","ios":"levelo://app?vid=d5609881-7651-4834-bc58-6ba3bcd82b45"},"vehicle_type_id":"4","last_reported":1678306087,"current_range_meters":2000,"station_id":"ce4bh0h2rcd13ifvqd60","pricing_plan_id":"free"},{"bike_id":"57ac7f3f-6c62-49c1-829e-0422f22f9677","system_id":"levelo_inurba_marseille","lat":43.296263,"lon":5.40601,"is_reserved":false,"is_disabled":false,"rental_uris":{"android":"levelo://app?vid=57ac7f3f-6c62-49c1-829e-0422f22f9677","ios":"levelo://app?vid=57ac7f3f-6c62-49c1-829e-0422f22f9677"},"vehicle_type_id":"4","last_reported":1678306087,"current_range_meters":12000,"station_id":"ce4bh0h2rcd13ifvqd60","pricing_plan_id":"free"},{"bike_id":"d3ff0ba1-19a1-4499-89d3-a90887f649e5","system_id":"levelo_inurba_marseille","lat":43.281044,"lon":5.378308,"is_reserved":false,"is_disabled":false,"rental_uris":{"android":"levelo://app?vid=d3ff0ba1-19a1-4499-89d3-a90887f649e5","ios":"levelo://app?vid=d3ff0ba1-19a1-4499-89d3-a90887f649e5"},"vehicle_type_id":"4","last_reported":1678306087,"current_range_meters":24000,"station_id":"ce4bha12rcd13ifvqee0","pricing_plan_id":"free"},{"bike_id":"80e8c173-de8d-44ae-8142-fc7a51a265dd","system_id":"levelo_inurba_marseille","lat":43.33081,"lon":5.40579,"is_reserved":false,"is_disabled":false,"rental_uris":{"android":"levelo://app?vid=80e8c173-de8d-44ae-8142-fc7a51a265dd","ios":"levelo://app?vid=80e8c173-de8d-44ae-8142-fc7a51a265dd"},"vehicle_type_id":"4","last_reported":1678306087,"current_range_meters":5600,"station_id":"","pricing_plan_id":"free"},{"bike_id":"33fc0392-053d-41b7-a03d-3b8ed4151802","system_id":"levelo_inurba_marseille","lat":43.304188,"lon":5.412904,"is_reserved":false,"is_disabled":false,"rental_uris":{"android":"levelo://app?vid=33fc0392-053d-41b7-a03d-3b8ed4151802","ios":"levelo://app?vid=33fc0392-053d-41b7-a03d-3b8ed4151802"},"vehicle_type_id":"4","last_reported":1678306087,"current_range_meters":20000,"station_id":"ce4bhop2rcd13ifvqh8g","pricing_plan_id":"free"},{"bike_id":"880ae537-b79a-4ecd-a22c-e4457a39ce8e","system_id":"levelo_inurba_marseille","lat":43.323839,"lon":5.411755,"is_reserved":false,"is_disabled":false,"rental_uris":{"android":"levelo://app?vid=880ae537-b79a-4ecd-a22c-e4457a39ce8e","ios":"levelo://app?vid=880ae537-b79a-4ecd-a22c-e4457a39ce8e"},"vehicle_type_id":"4","last_reported":1678306087,"current_range_meters":0,"station_id":"","pricing_plan_id":"free"},{"bike_id":"11014dfa-3a78-402e-ac8b-b2e1fc880a53","system_id":"levelo_inurba_marseille","lat":43.304188,"lon":5.412904,"is_reserved":false,"is_disabled":false,"rental_uris":{"android":"levelo://app?vid=11014dfa-3a78-402e-ac8b-b2e1fc880a53","ios":"levelo://app?vid=11014dfa-3a78-402e-ac8b-b2e1fc880a53"},"vehicle_type_id":"4","last_reported":1678306087,"current_range_meters":8400,"station_id":"ce4bhop2rcd13ifvqh8g","pricing_plan_id":"free"},{"bike_id":"b00fbbdc-0f77-4741-9eb4-aceb94f17a72","system_id":"levelo_inurba_marseille","lat":43.304188,"lon":5.412904,"is_reserved":false,"is_disabled":false,"rental_uris":{"android":"levelo://app?vid=b00fbbdc-0f77-4741-9eb4-aceb94f17a72","ios":"levelo://app?vid=b00fbbdc-0f77-4741-9eb4-aceb94f17a72"},"vehicle_type_id":"4","last_reported":1678306087,"current_range_meters":26800,"station_id":"ce4bhop2rcd13ifvqh8g","pricing_plan_id":"free"},{"bike_id":"69d7caeb-abc2-42c8-a1bd-7db5d9a3672a","system_id":"levelo_inurba_marseille","lat":43.304188,"lon":5.412904,"is_reserved":false,"is_disabled":false,"rental_uris":{"android":"levelo://app?vid=69d7caeb-abc2-42c8-a1bd-7db5d9a3672a","ios":"levelo://app?vid=69d7caeb-abc2-42c8-a1bd-7db5d9a3672a"},"vehicle_type_id":"4","last_reported":1678306087,"current_range_meters":26800,"station_id":"ce4bhop2rcd13ifvqh8g","pricing_plan_id":"free"},{"bike_id":"1482f7fe-d511-4807-925f-e6ecf3c96f92","system_id":"levelo_inurba_marseille","lat":43.304188,"lon":5.412904,"is_reserved":false,"is_disabled":false,"rental_uris":{"android":"levelo://app?vid=1482f7fe-d511-4807-925f-e6ecf3c96f92","ios":"levelo://app?vid=1482f7fe-d511-4807-925f-e6ecf3c96f92"},"vehicle_type_id":"4","last_reported":1678306087,"current_range_meters":28400,"station_id":"ce4bhop2rcd13ifvqh8g","pricing_plan_id":"free"},{"bike_id":"0206c36e-7e49-4d42-9023-04e70a713368","system_id":"levelo_inurba_marseille","lat":43.304188,"lon":5.412904,"is_reserved":false,"is_disabled":false,"rental_uris":{"android":"levelo://app?vid=0206c36e-7e49-4d42-9023-04e70a713368","ios":"levelo://app?vid=0206c36e-7e49-4d42-9023-04e70a713368"},"vehicle_type_id":"4","last_reported":1678306087,"current_range_meters":28000,"station_id":"ce4bhop2rcd13ifvqh8g","pricing_plan_id":"free"},{"bike_id":"1855964a-efc8-4b76-b6ad-bfef44c66844","system_id":"levelo_inurba_marseille","lat":43.287154,"lon":5.399979,"is_reserved":false,"is_disabled":false,"rental_uris":{"android":"levelo://app?vid=1855964a-efc8-4b76-b6ad-bfef44c66844","ios":"levelo://app?vid=1855964a-efc8-4b76-b6ad-bfef44c66844"},"vehicle_type_id":"4","last_reported":1678306087,"current_range_meters":7600,"station_id":"ce4bho92rcd13ifvqh3g","pricing_plan_id":"free"},{"bike_id":"b3f6c2f5-dcf2-4874-ba40-02654d4ddcb7","system_id":"levelo_inurba_marseille","lat":43.2871,"lon":5.39982,"is_reserved":false,"is_disabled":false,"rental_uris":{"android":"levelo://app?vid=b3f6c2f5-dcf2-4874-ba40-02654d4ddcb7","ios":"levelo://app?vid=b3f6c2f5-dcf2-4874-ba40-02654d4ddcb7"},"vehicle_type_id":"4","last_reported":1678306087,"current_range_meters":2800,"station_id":"","pricing_plan_id":"free"},{"bike_id":"74e2a3e5-6e80-4bfc-81db-cf867150c2cb","system_id":"levelo_inurba_marseille","lat":43.287154,"lon":5.399979,"is_reserved":false,"is_disabled":false,"rental_uris":{"android":"levelo://app?vid=74e2a3e5-6e80-4bfc-81db-cf867150c2cb","ios":"levelo://app?vid=74e2a3e5-6e80-4bfc-81db-cf867150c2cb"},"vehicle_type_id":"4","last_reported":1678306087,"current_range_meters":12800,"station_id":"ce4bho92rcd13ifvqh3g","pricing_plan_id":"free"},{"bike_id":"c6de4c93-dd59-4f7e-9fd3-1f5628451738","system_id":"levelo_inurba_marseille","lat":43.299579,"lon":5.413255,"is_reserved":false,"is_disabled":false,"rental_uris":{"android":"levelo://app?vid=c6de4c93-dd59-4f7e-9fd3-1f5628451738","ios":"levelo://app?vid=c6de4c93-dd59-4f7e-9fd3-1f5628451738"},"vehicle_type_id":"4","last_reported":1678306087,"current_range_meters":18400,"station_id":"ce4bhp12rcd13ifvqh9g","pricing_plan_id":"free"},{"bike_id":"77c11af0-c740-43bd-9139-ed92e91e102c","system_id":"levelo_inurba_marseille","lat":43.299579,"lon":5.413255,"is_reserved":false,"is_disabled":false,"rental_uris":{"android":"levelo://app?vid=77c11af0-c740-43bd-9139-ed92e91e102c","ios":"levelo://app?vid=77c11af0-c740-43bd-9139-ed92e91e102c"},"vehicle_type_id":"4","last_reported":1678306087,"current_range_meters":27600,"station_id":"ce4bhp12rcd13ifvqh9g","pricing_plan_id":"free"},{"bike_id":"f174d869-f5b2-4c40-9292-0ae341246b1e","system_id":"levelo_inurba_marseille","lat":43.299577,"lon":5.413277,"is_reserved":false,"is_disabled":false,"rental_uris":{"android":"levelo://app?vid=f174d869-f5b2-4c40-9292-0ae341246b1e","ios":"levelo://app?vid=f174d869-f5b2-4c40-9292-0ae341246b1e"},"vehicle_type_id":"4","last_reported":1678306087,"current_range_meters":23600,"station_id":"ce4bhp12rcd13ifvqh9g","pricing_plan_id":"free"},{"bike_id":"116c589e-9fff-446d-902d-1ed6bd2711a6","system_id":"levelo_inurba_marseille","lat":43.27969,"lon":5.3874,"is_reserved":false,"is_disabled":false,"rental_uris":{"android":"levelo://app?vid=116c589e-9fff-446d-902d-1ed6bd2711a6","ios":"levelo://app?vid=116c589e-9fff-446d-902d-1ed6bd2711a6"},"vehicle_type_id":"4","last_reported":1678306087,"current_range_meters":800,"station_id":"ce4bhg12rcd13ifvqf80","pricing_plan_id":"free"},{"bike_id":"082d0409-6933-49af-bb75-fb085bf01ded","system_id":"levelo_inurba_marseille","lat":43.325233,"lon":5.414318,"is_reserved":false,"is_disabled":false,"rental_uris":{"android":"levelo://app?vid=082d0409-6933-49af-bb75-fb085bf01ded","ios":"levelo://app?vid=082d0409-6933-49af-bb75-fb085bf01ded"},"vehicle_type_id":"4","last_reported":1678306087,"current_range_meters":28000,"station_id":"ce4bhq12rcd13ifvqhhg","pricing_plan_id":"free"},{"bike_id":"4ba20a21-4824-4ff7-8ca5-f4b6ca62eaf6","system_id":"levelo_inurba_marseille","lat":43.32547,"lon":5.414388,"is_reserved":false,"is_disabled":false,"rental_uris":{"android":"levelo://app?vid=4ba20a21-4824-4ff7-8ca5-f4b6ca62eaf6","ios":"levelo://app?vid=4ba20a21-4824-4ff7-8ca5-f4b6ca62eaf6"},"vehicle_type_id":"4","last_reported":1678306087,"current_range_meters":19200,"station_id":"ce4bhq12rcd13ifvqhhg","pricing_plan_id":"free"},{"bike_id":"642b269f-95ec-4a28-b4e4-de960e9a7a59","system_id":"levelo_inurba_marseille","lat":43.276179,"lon":5.361009,"is_reserved":false,"is_disabled":false,"rental_uris":{"android":"levelo://app?vid=642b269f-95ec-4a28-b4e4-de960e9a7a59","ios":"levelo://app?vid=642b269f-95ec-4a28-b4e4-de960e9a7a59"},"vehicle_type_id":"4","last_reported":1678306087,"current_range_meters":18800,"station_id":"ce4bgj92rcd13ifvqbe0","pricing_plan_id":"free"},{"bike_id":"dc4e674d-62f9-47bb-9b7e-651cf8c6dc1e","system_id":"levelo_inurba_marseille","lat":43.27618,"lon":5.361009,"is_reserved":false,"is_disabled":false,"rental_uris":{"android":"levelo://app?vid=dc4e674d-62f9-47bb-9b7e-651cf8c6dc1e","ios":"levelo://app?vid=dc4e674d-62f9-47bb-9b7e-651cf8c6dc1e"},"vehicle_type_id":"4","last_reported":1678306087,"current_range_meters":23600,"station_id":"ce4bgj92rcd13ifvqbe0","pricing_plan_id":"free"},{"bike_id":"90253cad-d08e-4e47-b30f-0e67bde524e7","system_id":"levelo_inurba_marseille","lat":43.280845,"lon":5.39676,"is_reserved":false,"is_disabled":false,"rental_uris":{"android":"levelo://app?vid=90253cad-d08e-4e47-b30f-0e67bde524e7","ios":"levelo://app?vid=90253cad-d08e-4e47-b30f-0e67bde524e7"},"vehicle_type_id":"4","last_reported":1678306087,"current_range_meters":20000,"station_id":"ce4bho12rcd13ifvqh2g","pricing_plan_id":"free"},{"bike_id":"9126455c-9ae8-4f79-982f-dec717025bb8","system_id":"levelo_inurba_marseille","lat":43.273613,"lon":5.362705,"is_reserved":false,"is_disabled":false,"rental_uris":{"android":"levelo://app?vid=9126455c-9ae8-4f79-982f-dec717025bb8","ios":"levelo://app?vid=9126455c-9ae8-4f79-982f-dec717025bb8"},"vehicle_type_id":"4","last_reported":1678306087,"current_range_meters":4000,"station_id":"ce4bhbh2rcd13ifvqeo0","pricing_plan_id":"free"},{"bike_id":"6452d508-b0c6-43bd-8d0a-397a8aca44bc","system_id":"levelo_inurba_marseille","lat":43.273613,"lon":5.362705,"is_reserved":false,"is_disabled":false,"rental_uris":{"android":"levelo://app?vid=6452d508-b0c6-43bd-8d0a-397a8aca44bc","ios":"levelo://app?vid=6452d508-b0c6-43bd-8d0a-397a8aca44bc"},"vehicle_type_id":"4","last_reported":1678306087,"current_range_meters":800,"station_id":"ce4bhbh2rcd13ifvqeo0","pricing_plan_id":"free"},{"bike_id":"ed6a79a1-ff9b-4233-b6c6-f56076bf7f3c","system_id":"levelo_inurba_marseille","lat":43.336029,"lon":5.41026,"is_reserved":false,"is_disabled":false,"rental_uris":{"android":"levelo://app?vid=ed6a79a1-ff9b-4233-b6c6-f56076bf7f3c","ios":"levelo://app?vid=ed6a79a1-ff9b-4233-b6c6-f56076bf7f3c"},"vehicle_type_id":"4","last_reported":1678306087,"current_range_meters":0,"station_id":"ce4bhqh2rcd13ifvqhmg","pricing_plan_id":"free"},{"bike_id":"43a0a285-31a7-47c5-8ee5-928867583427","system_id":"levelo_inurba_marseille","lat":43.33612,"lon":5.410321,"is_reserved":false,"is_disabled":false,"rental_uris":{"android":"levelo://app?vid=43a0a285-31a7-47c5-8ee5-928867583427","ios":"levelo://app?vid=43a0a285-31a7-47c5-8ee5-928867583427"},"vehicle_type_id":"4","last_reported":1678306087,"current_range_meters":10400,"station_id":"ce4bhqh2rcd13ifvqhmg","pricing_plan_id":"free"},{"bike_id":"3bbd2021-d659-41d6-9992-8d2a2fc3aead","system_id":"levelo_inurba_marseille","lat":43.33611,"lon":5.41033,"is_reserved":false,"is_disabled":false,"rental_uris":{"android":"levelo://app?vid=3bbd2021-d659-41d6-9992-8d2a2fc3aead","ios":"levelo://app?vid=3bbd2021-d659-41d6-9992-8d2a2fc3aead"},"vehicle_type_id":"4","last_reported":1678306087,"current_range_meters":26400,"station_id":"ce4bhqh2rcd13ifvqhmg","pricing_plan_id":"free"},{"bike_id":"dcd2c132-e57f-4060-9c2c-d1e2c95db8a0","system_id":"levelo_inurba_marseille","lat":43.33613,"lon":5.41036,"is_reserved":false,"is_disabled":false,"rental_uris":{"android":"levelo://app?vid=dcd2c132-e57f-4060-9c2c-d1e2c95db8a0","ios":"levelo://app?vid=dcd2c132-e57f-4060-9c2c-d1e2c95db8a0"},"vehicle_type_id":"4","last_reported":1678306087,"current_range_meters":2400,"station_id":"","pricing_plan_id":"free"},{"bike_id":"762d1745-ebb5-485c-a1c2-b42b06168383","system_id":"levelo_inurba_marseille","lat":43.276769,"lon":5.388787,"is_reserved":false,"is_disabled":false,"rental_uris":{"android":"levelo://app?vid=762d1745-ebb5-485c-a1c2-b42b06168383","ios":"levelo://app?vid=762d1745-ebb5-485c-a1c2-b42b06168383"},"vehicle_type_id":"4","last_reported":1678306087,"current_range_meters":0,"station_id":"ce4bhi12rcd13ifvqfo0","pricing_plan_id":"free"},{"bike_id":"8e119521-6acf-47f5-b582-74be75cf42f7","system_id":"levelo_inurba_marseille","lat":43.314693,"lon":5.423143,"is_reserved":false,"is_disabled":false,"rental_uris":{"android":"levelo://app?vid=8e119521-6acf-47f5-b582-74be75cf42f7","ios":"levelo://app?vid=8e119521-6acf-47f5-b582-74be75cf42f7"},"vehicle_type_id":"4","last_reported":1678306087,"current_range_meters":3600,"station_id":"","pricing_plan_id":"free"},{"bike_id":"9ff67976-5b99-4a54-bde7-37017a555003","system_id":"levelo_inurba_marseille","lat":43.27427,"lon":5.39417,"is_reserved":false,"is_disabled":false,"rental_uris":{"android":"levelo://app?vid=9ff67976-5b99-4a54-bde7-37017a555003","ios":"levelo://app?vid=9ff67976-5b99-4a54-bde7-37017a555003"},"vehicle_type_id":"4","last_reported":1678306087,"current_range_meters":12000,"station_id":"ce4bhdp2rcd13ifvqf20","pricing_plan_id":"free"},{"bike_id":"6abc5dc1-62f1-4178-bcff-06f2ba752a42","system_id":"levelo_inurba_marseille","lat":43.27426,"lon":5.39416,"is_reserved":false,"is_disabled":false,"rental_uris":{"android":"levelo://app?vid=6abc5dc1-62f1-4178-bcff-06f2ba752a42","ios":"levelo://app?vid=6abc5dc1-62f1-4178-bcff-06f2ba752a42"},"vehicle_type_id":"4","last_reported":1678306087,"current_range_meters":2000,"station_id":"","pricing_plan_id":"free"},{"bike_id":"c8a9dce3-6ed8-4d7b-8a13-b583145c6c90","system_id":"levelo_inurba_marseille","lat":43.304088,"lon":5.425388,"is_reserved":false,"is_disabled":false,"rental_uris":{"android":"levelo://app?vid=c8a9dce3-6ed8-4d7b-8a13-b583145c6c90","ios":"levelo://app?vid=c8a9dce3-6ed8-4d7b-8a13-b583145c6c90"},"vehicle_type_id":"4","last_reported":1678306087,"current_range_meters":13600,"station_id":"ce4bhoh2rcd13ifvqh6g","pricing_plan_id":"free"},{"bike_id":"8a425cbe-988d-499e-bee1-dca62b13dc0e","system_id":"levelo_inurba_marseille","lat":43.304212,"lon":5.425682,"is_reserved":false,"is_disabled":false,"rental_uris":{"android":"levelo://app?vid=8a425cbe-988d-499e-bee1-dca62b13dc0e","ios":"levelo://app?vid=8a425cbe-988d-499e-bee1-dca62b13dc0e"},"vehicle_type_id":"4","last_reported":1678306087,"current_range_meters":13600,"station_id":"","pricing_plan_id":"free"},{"bike_id":"0efe499e-1772-44ce-b6ab-7f3550b19064","system_id":"levelo_inurba_marseille","lat":43.29563,"lon":5.4228,"is_reserved":false,"is_disabled":false,"rental_uris":{"android":"levelo://app?vid=0efe499e-1772-44ce-b6ab-7f3550b19064","ios":"levelo://app?vid=0efe499e-1772-44ce-b6ab-7f3550b19064"},"vehicle_type_id":"4","last_reported":1678306087,"current_range_meters":5200,"station_id":"ce4bhph2rcd13ifvqhdg","pricing_plan_id":"free"},{"bike_id":"0d8e4ed2-0cd2-4428-a744-d5c93623ce5e","system_id":"levelo_inurba_marseille","lat":43.295645,"lon":5.42292,"is_reserved":false,"is_disabled":false,"rental_uris":{"android":"levelo://app?vid=0d8e4ed2-0cd2-4428-a744-d5c93623ce5e","ios":"levelo://app?vid=0d8e4ed2-0cd2-4428-a744-d5c93623ce5e"},"vehicle_type_id":"4","last_reported":1678306087,"current_range_meters":29600,"station_id":"ce4bhph2rcd13ifvqhdg","pricing_plan_id":"free"},{"bike_id":"f6f5fc7a-0bff-40ed-9343-9e6182bda0aa","system_id":"levelo_inurba_marseille","lat":43.295523,"lon":5.422926,"is_reserved":false,"is_disabled":false,"rental_uris":{"android":"levelo://app?vid=f6f5fc7a-0bff-40ed-9343-9e6182bda0aa","ios":"levelo://app?vid=f6f5fc7a-0bff-40ed-9343-9e6182bda0aa"},"vehicle_type_id":"4","last_reported":1678306087,"current_range_meters":25200,"station_id":"ce4bhph2rcd13ifvqhdg","pricing_plan_id":"free"},{"bike_id":"7991c0ec-30df-4f21-9e32-3613794942e8","system_id":"levelo_inurba_marseille","lat":43.27814,"lon":5.40716,"is_reserved":false,"is_disabled":false,"rental_uris":{"android":"levelo://app?vid=7991c0ec-30df-4f21-9e32-3613794942e8","ios":"levelo://app?vid=7991c0ec-30df-4f21-9e32-3613794942e8"},"vehicle_type_id":"4","last_reported":1678306087,"current_range_meters":22400,"station_id":"","pricing_plan_id":"free"},{"bike_id":"51d50d76-e771-4c0e-9fee-cdbf327ef1b2","system_id":"levelo_inurba_marseille","lat":43.27812,"lon":5.40714,"is_reserved":false,"is_disabled":false,"rental_uris":{"android":"levelo://app?vid=51d50d76-e771-4c0e-9fee-cdbf327ef1b2","ios":"levelo://app?vid=51d50d76-e771-4c0e-9fee-cdbf327ef1b2"},"vehicle_type_id":"4","last_reported":1678306087,"current_range_meters":16400,"station_id":"","pricing_plan_id":"free"},{"bike_id":"e426c432-06d8-4127-9e8e-605087cc51cd","system_id":"levelo_inurba_marseille","lat":43.27814,"lon":5.40718,"is_reserved":false,"is_disabled":false,"rental_uris":{"android":"levelo://app?vid=e426c432-06d8-4127-9e8e-605087cc51cd","ios":"levelo://app?vid=e426c432-06d8-4127-9e8e-605087cc51cd"},"vehicle_type_id":"4","last_reported":1678306087,"current_range_meters":8800,"station_id":"ce4bhnh2rcd13ifvqgtg","pricing_plan_id":"free"},{"bike_id":"155b9fd7-e52c-4811-ad4c-891560621344","system_id":"levelo_inurba_marseille","lat":43.278112,"lon":5.407136,"is_reserved":false,"is_disabled":false,"rental_uris":{"android":"levelo://app?vid=155b9fd7-e52c-4811-ad4c-891560621344","ios":"levelo://app?vid=155b9fd7-e52c-4811-ad4c-891560621344"},"vehicle_type_id":"4","last_reported":1678306087,"current_range_meters":9200,"station_id":"ce4bhnh2rcd13ifvqgtg","pricing_plan_id":"free"},{"bike_id":"c347daae-216f-448b-bb5c-f076d8c8b843","system_id":"levelo_inurba_marseille","lat":43.2781,"lon":5.40712,"is_reserved":false,"is_disabled":false,"rental_uris":{"android":"levelo://app?vid=c347daae-216f-448b-bb5c-f076d8c8b843","ios":"levelo://app?vid=c347daae-216f-448b-bb5c-f076d8c8b843"},"vehicle_type_id":"4","last_reported":1678306087,"current_range_meters":12000,"station_id":"ce4bhnh2rcd13ifvqgtg","pricing_plan_id":"free"},{"bike_id":"db0993e9-34b0-4940-986d-86a9144ee5ae","system_id":"levelo_inurba_marseille","lat":43.2781,"lon":5.40714,"is_reserved":false,"is_disabled":false,"rental_uris":{"android":"levelo://app?vid=db0993e9-34b0-4940-986d-86a9144ee5ae","ios":"levelo://app?vid=db0993e9-34b0-4940-986d-86a9144ee5ae"},"vehicle_type_id":"4","last_reported":1678306087,"current_range_meters":20400,"station_id":"ce4bhnh2rcd13ifvqgtg","pricing_plan_id":"free"},{"bike_id":"7df56354-f211-4469-a10b-5bf057827d0c","system_id":"levelo_inurba_marseille","lat":43.269467,"lon":5.386439,"is_reserved":false,"is_disabled":false,"rental_uris":{"android":"levelo://app?vid=7df56354-f211-4469-a10b-5bf057827d0c","ios":"levelo://app?vid=7df56354-f211-4469-a10b-5bf057827d0c"},"vehicle_type_id":"4","last_reported":1678306087,"current_range_meters":7200,"station_id":"ce4bhh92rcd13ifvqfh0","pricing_plan_id":"free"},{"bike_id":"8b15de79-f92c-4b6a-8710-dfa3c69c1507","system_id":"levelo_inurba_marseille","lat":43.269319,"lon":5.389397,"is_reserved":false,"is_disabled":false,"rental_uris":{"android":"levelo://app?vid=8b15de79-f92c-4b6a-8710-dfa3c69c1507","ios":"levelo://app?vid=8b15de79-f92c-4b6a-8710-dfa3c69c1507"},"vehicle_type_id":"4","last_reported":1678306087,"current_range_meters":400,"station_id":"ce4bhhh2rcd13ifvqfl0","pricing_plan_id":"free"},{"bike_id":"da175842-6524-46d0-9a38-0f1fae86e463","system_id":"levelo_inurba_marseille","lat":43.27998,"lon":5.41645,"is_reserved":false,"is_disabled":false,"rental_uris":{"android":"levelo://app?vid=da175842-6524-46d0-9a38-0f1fae86e463","ios":"levelo://app?vid=da175842-6524-46d0-9a38-0f1fae86e463"},"vehicle_type_id":"4","last_reported":1678306087,"current_range_meters":9600,"station_id":"","pricing_plan_id":"free"},{"bike_id":"cb26d559-1edd-4e14-a563-4c1c68971fcc","system_id":"levelo_inurba_marseille","lat":43.280031,"lon":5.416613,"is_reserved":false,"is_disabled":false,"rental_uris":{"android":"levelo://app?vid=cb26d559-1edd-4e14-a563-4c1c68971fcc","ios":"levelo://app?vid=cb26d559-1edd-4e14-a563-4c1c68971fcc"},"vehicle_type_id":"4","last_reported":1678306087,"current_range_meters":31200,"station_id":"ce4bho12rcd13ifvqh1g","pricing_plan_id":"free"},{"bike_id":"b3d44cea-947b-42ad-8821-bf0555cd36f0","system_id":"levelo_inurba_marseille","lat":43.280023,"lon":5.416614,"is_reserved":false,"is_disabled":false,"rental_uris":{"android":"levelo://app?vid=b3d44cea-947b-42ad-8821-bf0555cd36f0","ios":"levelo://app?vid=b3d44cea-947b-42ad-8821-bf0555cd36f0"},"vehicle_type_id":"4","last_reported":1678306087,"current_range_meters":31600,"station_id":"ce4bho12rcd13ifvqh1g","pricing_plan_id":"free"},{"bike_id":"d733c33d-2843-4e81-985a-fe41bc5019d6","system_id":"levelo_inurba_marseille","lat":43.280009,"lon":5.416601,"is_reserved":false,"is_disabled":false,"rental_uris":{"android":"levelo://app?vid=d733c33d-2843-4e81-985a-fe41bc5019d6","ios":"levelo://app?vid=d733c33d-2843-4e81-985a-fe41bc5019d6"},"vehicle_type_id":"4","last_reported":1678306087,"current_range_meters":28800,"station_id":"ce4bho12rcd13ifvqh1g","pricing_plan_id":"free"},{"bike_id":"f6230fa1-0300-4a1f-a2bd-6a4f1fbff119","system_id":"levelo_inurba_marseille","lat":43.279994,"lon":5.416602,"is_reserved":false,"is_disabled":false,"rental_uris":{"android":"levelo://app?vid=f6230fa1-0300-4a1f-a2bd-6a4f1fbff119","ios":"levelo://app?vid=f6230fa1-0300-4a1f-a2bd-6a4f1fbff119"},"vehicle_type_id":"4","last_reported":1678306087,"current_range_meters":31600,"station_id":"","pricing_plan_id":"free"},{"bike_id":"d8ba45c7-1d7c-468c-9aa9-86a9672de1ab","system_id":"levelo_inurba_marseille","lat":43.280012,"lon":5.416651,"is_reserved":false,"is_disabled":false,"rental_uris":{"android":"levelo://app?vid=d8ba45c7-1d7c-468c-9aa9-86a9672de1ab","ios":"levelo://app?vid=d8ba45c7-1d7c-468c-9aa9-86a9672de1ab"},"vehicle_type_id":"4","last_reported":1678306087,"current_range_meters":31600,"station_id":"ce4bho12rcd13ifvqh1g","pricing_plan_id":"free"},{"bike_id":"4a72ca55-3633-4499-864c-605b95369dd2","system_id":"levelo_inurba_marseille","lat":43.280001,"lon":5.41664,"is_reserved":false,"is_disabled":false,"rental_uris":{"android":"levelo://app?vid=4a72ca55-3633-4499-864c-605b95369dd2","ios":"levelo://app?vid=4a72ca55-3633-4499-864c-605b95369dd2"},"vehicle_type_id":"4","last_reported":1678306087,"current_range_meters":31600,"station_id":"ce4bho12rcd13ifvqh1g","pricing_plan_id":"free"},{"bike_id":"e0cea779-0b34-4f1a-a301-97d8562a8d59","system_id":"levelo_inurba_marseille","lat":43.28,"lon":5.416647,"is_reserved":false,"is_disabled":false,"rental_uris":{"android":"levelo://app?vid=e0cea779-0b34-4f1a-a301-97d8562a8d59","ios":"levelo://app?vid=e0cea779-0b34-4f1a-a301-97d8562a8d59"},"vehicle_type_id":"4","last_reported":1678306087,"current_range_meters":14000,"station_id":"ce4bho12rcd13ifvqh1g","pricing_plan_id":"free"},{"bike_id":"001e5945-d646-461d-b456-5bde9c57459c","system_id":"levelo_inurba_marseille","lat":43.279971,"lon":5.416613,"is_reserved":false,"is_disabled":false,"rental_uris":{"android":"levelo://app?vid=001e5945-d646-461d-b456-5bde9c57459c","ios":"levelo://app?vid=001e5945-d646-461d-b456-5bde9c57459c"},"vehicle_type_id":"4","last_reported":1678306087,"current_range_meters":31200,"station_id":"ce4bho12rcd13ifvqh1g","pricing_plan_id":"free"},{"bike_id":"0794db5e-68b8-4751-b853-654684de9298","system_id":"levelo_inurba_marseille","lat":43.279989,"lon":5.416639,"is_reserved":false,"is_disabled":false,"rental_uris":{"android":"levelo://app?vid=0794db5e-68b8-4751-b853-654684de9298","ios":"levelo://app?vid=0794db5e-68b8-4751-b853-654684de9298"},"vehicle_type_id":"4","last_reported":1678306087,"current_range_meters":31200,"station_id":"ce4bho12rcd13ifvqh1g","pricing_plan_id":"free"},{"bike_id":"084d0076-ae80-4dc6-9314-1751ef3bda2b","system_id":"levelo_inurba_marseille","lat":43.279968,"lon":5.416623,"is_reserved":false,"is_disabled":false,"rental_uris":{"android":"levelo://app?vid=084d0076-ae80-4dc6-9314-1751ef3bda2b","ios":"levelo://app?vid=084d0076-ae80-4dc6-9314-1751ef3bda2b"},"vehicle_type_id":"4","last_reported":1678306087,"current_range_meters":30400,"station_id":"ce4bho12rcd13ifvqh1g","pricing_plan_id":"free"},{"bike_id":"b75cf3a8-76c0-4ba4-ba88-9297008b11d3","system_id":"levelo_inurba_marseille","lat":43.279931,"lon":5.416584,"is_reserved":false,"is_disabled":false,"rental_uris":{"android":"levelo://app?vid=b75cf3a8-76c0-4ba4-ba88-9297008b11d3","ios":"levelo://app?vid=b75cf3a8-76c0-4ba4-ba88-9297008b11d3"},"vehicle_type_id":"4","last_reported":1678306087,"current_range_meters":28400,"station_id":"ce4bho12rcd13ifvqh1g","pricing_plan_id":"free"},{"bike_id":"9eb39106-3361-45d1-86c4-94a07f7a537c","system_id":"levelo_inurba_marseille","lat":43.279993,"lon":5.416665,"is_reserved":false,"is_disabled":false,"rental_uris":{"android":"levelo://app?vid=9eb39106-3361-45d1-86c4-94a07f7a537c","ios":"levelo://app?vid=9eb39106-3361-45d1-86c4-94a07f7a537c"},"vehicle_type_id":"4","last_reported":1678306087,"current_range_meters":30000,"station_id":"ce4bho12rcd13ifvqh1g","pricing_plan_id":"free"},{"bike_id":"85e81229-c8db-4776-8c91-d853d30898eb","system_id":"levelo_inurba_marseille","lat":43.279948,"lon":5.416625,"is_reserved":false,"is_disabled":false,"rental_uris":{"android":"levelo://app?vid=85e81229-c8db-4776-8c91-d853d30898eb","ios":"levelo://app?vid=85e81229-c8db-4776-8c91-d853d30898eb"},"vehicle_type_id":"4","last_reported":1678306087,"current_range_meters":31600,"station_id":"ce4bho12rcd13ifvqh1g","pricing_plan_id":"free"},{"bike_id":"5bc4a5f9-fde7-4bf3-b788-a3ee135eb8e5","system_id":"levelo_inurba_marseille","lat":43.27995,"lon":5.416628,"is_reserved":false,"is_disabled":false,"rental_uris":{"android":"levelo://app?vid=5bc4a5f9-fde7-4bf3-b788-a3ee135eb8e5","ios":"levelo://app?vid=5bc4a5f9-fde7-4bf3-b788-a3ee135eb8e5"},"vehicle_type_id":"4","last_reported":1678306087,"current_range_meters":16400,"station_id":"ce4bho12rcd13ifvqh1g","pricing_plan_id":"free"},{"bike_id":"89c89e7c-ece5-472e-bbd1-63c85b8daa70","system_id":"levelo_inurba_marseille","lat":43.27991,"lon":5.4166,"is_reserved":false,"is_disabled":false,"rental_uris":{"android":"levelo://app?vid=89c89e7c-ece5-472e-bbd1-63c85b8daa70","ios":"levelo://app?vid=89c89e7c-ece5-472e-bbd1-63c85b8daa70"},"vehicle_type_id":"4","last_reported":1678306087,"current_range_meters":31600,"station_id":"ce4bho12rcd13ifvqh1g","pricing_plan_id":"free"},