{"last_updated":1734433667,"ttl":60,"version":"2.2","data":{"bikes":[{"bike_id":"55259469-20b7-4df7-bc06-2aaa3f400ee2","system_id":"levelo_inurba_marseille","lat":43.27065,"lon":5.40263,"is_reserved":false,"is_disabled":false,"rental_uris":{"android":"levelo://app?vid=55259469-20b7-4df7-bc06-2aaa3f400ee2","ios":"levelo://app?vid=55259469-20b7-4df7-bc06-2aaa3f400ee2"},"vehicle_type_id":"4","last_reported":1734433667,"current_range_meters":38800,"station_id":"ce4bhk92rcd13ifvqgc0","pricing_plan_id":"cebpf4jnsgd1na2vs0mg"},{"bike_id":"68f979a6-aebf-4faf-871c-8935429cd407","system_id":"levelo_inurba_marseille","lat":43.30141,"lon":5.37419,"is_reserved":false,"is_disabled":false,"rental_uris":{"android":"levelo://app?vid=68f979a6-aebf-4faf-871c-8935429cd407","ios":"levelo://app?vid=68f979a6-aebf-4faf-871c-8935429cd407"},"vehicle_type_id":"4","last_reported":1734433667,"current_range_meters":15200,"station_id":"ce4bgs92rcd13ifvqcc0","pricing_plan_id":"cebpf4jnsgd1na2vs0mg"},{"bike_id":"cba81d63-11b8-432b-b2e7-b74b6d8e5a97","system_id":"levelo_inurba_marseille","lat":43.30346,"lon":5.41875,"is_reserved":false,"is_disabled":true,"rental_uris":{"android":"levelo://app?vid=cba81d63-11b8-432b-b2e7-b74b6d8e5a97","ios":"levelo://app?vid=cba81d63-11b8-432b-b2e7-b74b6d8e5a97"},"vehicle_type_id":"4","last_reported":1734433667,"current_range_meters":0,"station_id":"ce4bhop2rcd13ifvqh7g","pricing_plan_id":"cebpf4jnsgd1na2vs0mg"},{"bike_id":"c8e9abad-8a0c-4b67-aadf-1da4ae8bf89e","system_id":"levelo_inurba_marseille","lat":43.31526,"lon":5.36783,"is_reserved":false,"is_disabled":false,"rental_uris":{"android":"levelo://app?vid=c8e9abad-8a0c-4b67-aadf-1da4ae8bf89e","ios":"levelo://app?vid=c8e9abad-8a0c-4b67-aadf-1da4ae8bf89e"},"vehicle_type_id":"4","last_reported":1734433667,"current_range_meters":39200,"station_id":"ce4bgr92rcd13ifvqc6g","pricing_plan_id":"cebpf4jnsgd1na2vs0mg"},{"bike_id":"eee77d90-3808-4d78-a14f-c07954719075","system_id":"levelo_inurba_marseille","lat":43.30303,"lon":5.37001,"is_reserved":false,"is_disabled":false,"rental_uris":{"android":"levelo://app?vid=eee77d90-3808-4d78-a14f-c07954719075","ios":"levelo://app?vid=eee77d90-3808-4d78-a14f-c07954719075"},"vehicle_type_id":"4","last_reported":1734433667,"current_range_meters":22000,"station_id":"","pricing_plan_id":"cebpf4jnsgd1na2vs0mg"},{"bike_id":"37048610-0aea-4ee8-88b6-948fe69bca7c","system_id":"levelo_inurba_marseille","lat":43.33736,"lon":5.37458,"is_reserved":false,"is_disabled":true,"rental_uris":{"android":"levelo://app?vid=37048610-0aea-4ee8-88b6-948fe69bca7c","ios":"levelo://app?vid=37048610-0aea-4ee8-88b6-948fe69bca7c"},"vehicle_type_id":"4","last_reported":1734433667,"current_range_meters":4800,"station_id":"","pricing_plan_id":"cebpf4jnsgd1na2vs0mg"},{"bike_id":"b2fae302-f5eb-4bc2-b462-662e3f43cfa7","system_id":"levelo_inurba_marseille","lat":43.26944,"lon":5.40257,"is_reserved":false,"is_disabled":false,"rental_uris":{"android":"levelo://app?vid=b2fae302-f5eb-4bc2-b462-662e3f43cfa7","ios":"levelo://app?vid=b2fae302-f5eb-4bc2-b462-662e3f43cfa7"},"vehicle_type_id":"4","last_reported":1734433667,"current_range_meters":38800,"station_id":"cjm6bp8fraef2m0cb0m0","pricing_plan_id":"cebpf4jnsgd1na2vs0mg"},{"bike_id":"23acbc02-64e1-4de2-997f-200de044b21e","system_id":"levelo_inurba_marseille","lat":43.27328,"lon":5.39109,"is_reserved":false,"is_disabled":false,"rental_uris":{"android":"levelo://app?vid=23acbc02-64e1-4de2-997f-200de044b21e","ios":"levelo://app?vid=23acbc02-64e1-4de2-997f-200de044b21e"},"vehicle_type_id":"4","last_reported":1734433667,"current_range_meters":27200,"station_id":"ce4bhgp2rcd13ifvqfe0","pricing_plan_id":"cebpf4jnsgd1na2vs0mg"},{"bike_id":"1e552aad-9f85-47bb-af83-d9d0da697dbe","system_id":"levelo_inurba_marseille","lat":43.31315,"lon":5.36746,"is_reserved":false,"is_disabled":false,"rental_uris":{"android":"levelo://app?vid=1e552aad-9f85-47bb-af83-d9d0da697dbe","ios":"levelo://app?vid=1e552aad-9f85-47bb-af83-d9d0da697dbe"},"vehicle_type_id":"4","last_reported":1734433667,"current_range_meters":37600,"station_id":"ce4bgr92rcd13ifvqc6g","pricing_plan_id":"cebpf4jnsgd1na2vs0mg"},{"bike_id":"a3628e7f-34e6-487b-bf65-3b8010500349","system_id":"levelo_inurba_marseille","lat":43.27051,"lon":5.40257,"is_reserved":false,"is_disabled":false,"rental_uris":{"android":"levelo://app?vid=a3628e7f-34e6-487b-bf65-3b8010500349","ios":"levelo://app?vid=a3628e7f-34e6-487b-bf65-3b8010500349"},"vehicle_type_id":"4","last_reported":1734433667,"current_range_meters":38800,"station_id":"ce4bhk92rcd13ifvqgc0","pricing_plan_id":"cebpf4jnsgd1na2vs0mg"},{"bike_id":"37d7adf1-667b-4281-8a8e-4648237fdcf8","system_id":"levelo_inurba_marseille","lat":43.25487,"lon":5.37655,"is_reserved":false,"is_disabled":false,"rental_uris":{"android":"levelo://app?vid=37d7adf1-667b-4281-8a8e-4648237fdcf8","ios":"levelo://app?vid=37d7adf1-667b-4281-8a8e-4648237fdcf8"},"vehicle_type_id":"4","last_reported":1734433667,"current_range_meters":36800,"station_id":"ce4bhh12rcd13ifvqff0","pricing_plan_id":"cebpf4jnsgd1na2vs0mg"},{"bike_id":"20358b83-225d-4ff6-8386-f5d7e4ace024","system_id":"levelo_inurba_marseille","lat":43.30018,"lon":5.37733,"is_reserved":false,"is_disabled":true,"rental_uris":{"android":"levelo://app?vid=20358b83-225d-4ff6-8386-f5d7e4ace024","ios":"levelo://app?vid=20358b83-225d-4ff6-8386-f5d7e4ace024"},"vehicle_type_id":"4","last_reported":1734433667,"current_range_meters":7200,"station_id":"","pricing_plan_id":"cebpf4jnsgd1na2vs0mg"},{"bike_id":"e875744d-92e2-401f-9abb-d96354e7a4a5","system_id":"levelo_inurba_marseille","lat":43.30133,"lon":5.37416,"is_reserved":false,"is_disabled":false,"rental_uris":{"android":"levelo://app?vid=e875744d-92e2-401f-9abb-d96354e7a4a5","ios":"levelo://app?vid=e875744d-92e2-401f-9abb-d96354e7a4a5"},"vehicle_type_id":"4","last_reported":1734433667,"current_range_meters":38000,"station_id":"ce4bgs92rcd13ifvqcc0","pricing_plan_id":"cebpf4jnsgd1na2vs0mg"},{"bike_id":"31ff14a8-42cf-4195-9f69-ad8e0a51b343","system_id":"levelo_inurba_marseille","lat":43.29848,"lon":5.3628,"is_reserved":false,"is_disabled":false,"rental_uris":{"android":"levelo://app?vid=31ff14a8-42cf-4195-9f69-ad8e0a51b343","ios":"levelo://app?vid=31ff14a8-42cf-4195-9f69-ad8e0a51b343"},"vehicle_type_id":"4","last_reported":1734433667,"current_range_meters":38800,"station_id":"ce4bgpp2rcd13ifvqc3g","pricing_plan_id":"cebpf4jnsgd1na2vs0mg"},{"bike_id":"2c31a8db-b2e8-4068-865a-ba376c5f2045","system_id":"levelo_inurba_marseille","lat":43.30101,"lon":5.39072,"is_reserved":false,"is_disabled":false,"rental_uris":{"android":"levelo://app?vid=2c31a8db-b2e8-4068-865a-ba376c5f2045","ios":"levelo://app?vid=2c31a8db-b2e8-4068-865a-ba376c5f2045"},"vehicle_type_id":"4","last_reported":1734433667,"current_range_meters":39200,"station_id":"ce4bh192rcd13ifvqdb0","pricing_plan_id":"cebpf4jnsgd1na2vs0mg"},{"bike_id":"97c72130-fbd7-4b03-80f2-44ecd5df2702","system_id":"levelo_inurba_marseille","lat":43.28501,"lon":5.35063,"is_reserved":false,"is_disabled":false,"rental_uris":{"android":"levelo://app?vid=97c72130-fbd7-4b03-80f2-44ecd5df2702","ios":"levelo://app?vid=97c72130-fbd7-4b03-80f2-44ecd5df2702"},"vehicle_type_id":"4","last_reported":1734433667,"current_range_meters":28800,"station_id":"","pricing_plan_id":"cebpf4jnsgd1na2vs0mg"},{"bike_id":"4ef58d0d-8e30-4280-aa40-6d3ae5111f3b","system_id":"levelo_inurba_marseille","lat":43.30893,"lon":5.36874,"is_reserved":false,"is_disabled":false,"rental_uris":{"android":"levelo://app?vid=4ef58d0d-8e30-4280-aa40-6d3ae5111f3b","ios":"levelo://app?vid=4ef58d0d-8e30-4280-aa40-6d3ae5111f3b"},"vehicle_type_id":"4","last_reported":1734433667,"current_range_meters":38800,"station_id":"ce4bgn92rcd13ifvqbvg","pricing_plan_id":"cebpf4jnsgd1na2vs0mg"},{"bike_id":"afb8faed-965b-412e-a506-02decfaceca9","system_id":"levelo_inurba_marseille","lat":43.30537,"lon":5.36699,"is_reserved":false,"is_disabled":false,"rental_uris":{"android":"levelo://app?vid=afb8faed-965b-412e-a506-02decfaceca9","ios":"levelo://app?vid=afb8faed-965b-412e-a506-02decfaceca9"},"vehicle_type_id":"4","last_reported":1734433667,"current_range_meters":31200,"station_id":"ce4bgrp2rcd13ifvqc9g","pricing_plan_id":"cebpf4jnsgd1na2vs0mg"},{"bike_id":"f6778b56-99bf-4ca2-a30e-158618b8425d","system_id":"levelo_inurba_marseille","lat":43.262,"lon":5.37935,"is_reserved":false,"is_disabled":false,"rental_uris":{"android":"levelo://app?vid=f6778b56-99bf-4ca2-a30e-158618b8425d","ios":"levelo://app?vid=f6778b56-99bf-4ca2-a30e-158618b8425d"},"vehicle_type_id":"4","last_reported":1734433667,"current_range_meters":24800,"station_id":"ce4bhjp2rcd13ifvqg90","pricing_plan_id":"cebpf4jnsgd1na2vs0mg"},{"bike_id":"f23a4f58-bb93-4a86-bc3b-8d227c44781c","system_id":"levelo_inurba_marseille","lat":43.28847,"lon":5.39323,"is_reserved":false,"is_disabled":false,"rental_uris":{"android":"levelo://app?vid=f23a4f58-bb93-4a86-bc3b-8d227c44781c","ios":"levelo://app?vid=f23a4f58-bb93-4a86-bc3b-8d227c44781c"},"vehicle_type_id":"4","last_reported":1734433667,"current_range_meters":28400,"station_id":"ce4bh2p2rcd13ifvqdi0","pricing_plan_id":"cebpf4jnsgd1na2vs0mg"},{"bike_id":"c06c9edd-8b71-41ba-8f18-7e57aeedbda4","system_id":"levelo_inurba_marseille","lat":43.2749,"lon":5.4247,"is_reserved":false,"is_disabled":false,"rental_uris":{"android":"levelo://app?vid=c06c9edd-8b71-41ba-8f18-7e57aeedbda4","ios":"levelo://app?vid=c06c9edd-8b71-41ba-8f18-7e57aeedbda4"},"vehicle_type_id":"4","last_reported":1734433667,"current_range_meters":25200,"station_id":"ce4bhn92rcd13ifvqgrg","pricing_plan_id":"cebpf4jnsgd1na2vs0mg"},{"bike_id":"aacc7da2-1446-4d2a-aa32-e804470fc32d","system_id":"levelo_inurba_marseille","lat":43.29258,"lon":5.40914,"is_reserved":false,"is_disabled":true,"rental_uris":{"android":"levelo://app?vid=aacc7da2-1446-4d2a-aa32-e804470fc32d","ios":"levelo://app?vid=aacc7da2-1446-4d2a-aa32-e804470fc32d"},"vehicle_type_id":"4","last_reported":1734433667,"current_range_meters":35600,"station_id":"ce4bh192rcd13ifvqdc0","pricing_plan_id":"cebpf4jnsgd1na2vs0mg"},{"bike_id":"937c90ec-cf04-465b-97b2-ee54435829e8","system_id":"levelo_inurba_marseille","lat":43.301974,"lon":5.366212,"is_reserved":false,"is_disabled":true,"rental_uris":{"android":"levelo://app?vid=937c90ec-cf04-465b-97b2-ee54435829e8","ios":"levelo://app?vid=937c90ec-cf04-465b-97b2-ee54435829e8"},"vehicle_type_id":"4","last_reported":1734433667,"current_range_meters":32000,"station_id":"","pricing_plan_id":"cebpf4jnsgd1na2vs0mg"},{"bike_id":"d663afee-b13c-40f4-881c-b7873bf86cad","system_id":"levelo_inurba_marseille","lat":43.30902,"lon":5.36854,"is_reserved":false,"is_disabled":false,"rental_uris":{"android":"levelo://app?vid=d663afee-b13c-40f4-881c-b7873bf86cad","ios":"levelo://app?vid=d663afee-b13c-40f4-881c-b7873bf86cad"},"vehicle_type_id":"4","last_reported":1734433667,"current_range_meters":28400,"station_id":"ce4bgn92rcd13ifvqbvg","pricing_plan_id":"cebpf4jnsgd1na2vs0mg"},{"bike_id":"85e6d22a-686d-40fe-a122-ac012b69ef9d","system_id":"levelo_inurba_marseille","lat":43.27492,"lon":5.42444,"is_reserved":false,"is_disabled":false,"rental_uris":{"android":"levelo://app?vid=85e6d22a-686d-40fe-a122-ac012b69ef9d","ios":"levelo://app?vid=85e6d22a-686d-40fe-a122-ac012b69ef9d"},"vehicle_type_id":"4","last_reported":1734433667,"current_range_meters":38400,"station_id":"ce4bhn92rcd13ifvqgrg","pricing_plan_id":"cebpf4jnsgd1na2vs0mg"},{"bike_id":"080495a1-ca68-4628-9066-e9a1ac24fa0f","system_id":"levelo_inurba_marseille","lat":43.30556,"lon":5.36531,"is_reserved":false,"is_disabled":false,"rental_uris":{"android":"levelo://app?vid=080495a1-ca68-4628-9066-e9a1ac24fa0f","ios":"levelo://app?vid=080495a1-ca68-4628-9066-e9a1ac24fa0f"},"vehicle_type_id":"4","last_reported":1734433667,"current_range_meters":12400,"station_id":"ce4bgs12rcd13ifvqcag","pricing_plan_id":"cebpf4jnsgd1na2vs0mg"},{"bike_id":"af50809c-c0a7-46cc-a973-e44dee78efd4","system_id":"levelo_inurba_marseille","lat":43.24169,"lon":5.39745,"is_reserved":false,"is_disabled":false,"rental_uris":{"android":"levelo://app?vid=af50809c-c0a7-46cc-a973-e44dee78efd4","ios":"levelo://app?vid=af50809c-c0a7-46cc-a973-e44dee78efd4"},"vehicle_type_id":"4","last_reported":1734433667,"current_range_meters":38800,"station_id":"ce4bhn12rcd13ifvqgpg","pricing_plan_id":"cebpf4jnsgd1na2vs0mg"},{"bike_id":"830ae577-db22-4392-b087-d8b661113e29","system_id":"levelo_inurba_marseille","lat":43.29524,"lon":5.39047,"is_reserved":false,"is_disabled":false,"rental_uris":{"android":"levelo://app?vid=830ae577-db22-4392-b087-d8b661113e29","ios":"levelo://app?vid=830ae577-db22-4392-b087-d8b661113e29"},"vehicle_type_id":"4","last_reported":1734433667,"current_range_meters":32000,"station_id":"ce4bh3p2rcd13ifvqdp0","pricing_plan_id":"cebpf4jnsgd1na2vs0mg"},{"bike_id":"eac4768b-3585-47d4-a655-f381d0b05b28","system_id":"levelo_inurba_marseille","lat":43.31171,"lon":5.38728,"is_reserved":false,"is_disabled":false,"rental_uris":{"android":"levelo://app?vid=eac4768b-3585-47d4-a655-f381d0b05b28","ios":"levelo://app?vid=eac4768b-3585-47d4-a655-f381d0b05b28"},"vehicle_type_id":"4","last_reported":1734433667,"current_range_meters":24000,"station_id":"ce4bgv12rcd13ifvqcp0","pricing_plan_id":"cebpf4jnsgd1na2vs0mg"},{"bike_id":"dc0e6df7-295d-4e62-8939-9c7a9d49b036","system_id":"levelo_inurba_marseille","lat":43.29957,"lon":5.41324,"is_reserved":false,"is_disabled":true,"rental_uris":{"android":"levelo://app?vid=dc0e6df7-295d-4e62-8939-9c7a9d49b036","ios":"levelo://app?vid=dc0e6df7-295d-4e62-8939-9c7a9d49b036"},"vehicle_type_id":"4","last_reported":1734433667,"current_range_meters":30400,"station_id":"ce4bhp12rcd13ifvqh9g","pricing_plan_id":"cebpf4jnsgd1na2vs0mg"},{"bike_id":"7a5ffb90-db1f-4139-bce2-4f1860ad3559","system_id":"levelo_inurba_marseille","lat":43.30505,"lon":5.36721,"is_reserved":false,"is_disabled":false,"rental_uris":{"android":"levelo://app?vid=7a5ffb90-db1f-4139-bce2-4f1860ad3559","ios":"levelo://app?vid=7a5ffb90-db1f-4139-bce2-4f1860ad3559"},"vehicle_type_id":"4","last_reported":1734433667,"current_range_meters":38800,"station_id":"ce4bgrp2rcd13ifvqc9g","pricing_plan_id":"cebpf4jnsgd1na2vs0mg"},{"bike_id":"0dba4919-5f90-4467-a457-68db4473569c","system_id":"levelo_inurba_marseille","lat":43.32539,"lon":5.41439,"is_reserved":false,"is_disabled":true,"rental_uris":{"android":"levelo://app?vid=0dba4919-5f90-4467-a457-68db4473569c","ios":"levelo://app?vid=0dba4919-5f90-4467-a457-68db4473569c"},"vehicle_type_id":"4","last_reported":1734433667,"current_range_meters":33600,"station_id":"ce4bhq12rcd13ifvqhhg","pricing_plan_id":"cebpf4jnsgd1na2vs0mg"},{"bike_id":"d2d0ef7a-738a-4025-b86d-99f472add6b4","system_id":"levelo_inurba_marseille","lat":43.24651,"lon":5.38898,"is_reserved":false,"is_disabled":false,"rental_uris":{"android":"levelo://app?vid=d2d0ef7a-738a-4025-b86d-99f472add6b4","ios":"levelo://app?vid=d2d0ef7a-738a-4025-b86d-99f472add6b4"},"vehicle_type_id":"4","last_reported":1734433667,"current_range_meters":39200,"station_id":"ce4bhg12rcd13ifvqf60","pricing_plan_id":"cebpf4jnsgd1na2vs0mg"},{"bike_id":"d159f797-9811-4fb4-a3e8-37da34d17c4b","system_id":"levelo_inurba_marseille","lat":43.3053,"lon":5.36545,"is_reserved":false,"is_disabled":false,"rental_uris":{"android":"levelo://app?vid=d159f797-9811-4fb4-a3e8-37da34d17c4b","ios":"levelo://app?vid=d159f797-9811-4fb4-a3e8-37da34d17c4b"},"vehicle_type_id":"4","last_reported":1734433667,"current_range_meters":39200,"station_id":"ce4bgs12rcd13ifvqcag","pricing_plan_id":"cebpf4jnsgd1na2vs0mg"},{"bike_id":"162477b8-da33-4d9d-be45-0af1a3229da1","system_id":"levelo_inurba_marseille","lat":43.29678,"lon":5.37286,"is_reserved":false,"is_disabled":false,"rental_uris":{"android":"levelo://app?vid=162477b8-da33-4d9d-be45-0af1a3229da1","ios":"levelo://app?vid=162477b8-da33-4d9d-be45-0af1a3229da1"},"vehicle_type_id":"4","last_reported":1734433667,"current_range_meters":38000,"station_id":"ce4bgk12rcd13ifvqbj0","pricing_plan_id":"cebpf4jnsgd1na2vs0mg"},{"bike_id":"ea1ee0a0-f240-4d25-84d9-e6fb6fc7a18c","system_id":"levelo_inurba_marseille","lat":43.33787,"lon":5.42096,"is_reserved":false,"is_disabled":true,"rental_uris":{"android":"levelo://app?vid=ea1ee0a0-f240-4d25-84d9-e6fb6fc7a18c","ios":"levelo://app?vid=ea1ee0a0-f240-4d25-84d9-e6fb6fc7a18c"},"vehicle_type_id":"4","last_reported":1734433667,"current_range_meters":0,"station_id":"","pricing_plan_id":"cebpf4jnsgd1na2vs0mg"},{"bike_id":"146a42e3-1081-443f-8946-09f94a81a402","system_id":"levelo_inurba_marseille","lat":43.26161,"lon":5.37462,"is_reserved":false,"is_disabled":false,"rental_uris":{"android":"levelo://app?vid=146a42e3-1081-443f-8946-09f94a81a402","ios":"levelo://app?vid=146a42e3-1081-443f-8946-09f94a81a402"},"vehicle_type_id":"4","last_reported":1734433667,"current_range_meters":38000,"station_id":"ce4bhgp2rcd13ifvqfc0","pricing_plan_id":"cebpf4jnsgd1na2vs0mg"},{"bike_id":"01cbc605-bac0-4657-80b3-483498d41154","system_id":"levelo_inurba_marseille","lat":43.30145,"lon":5.38076,"is_reserved":false,"is_disabled":false,"rental_uris":{"android":"levelo://app?vid=01cbc605-bac0-4657-80b3-483498d41154","ios":"levelo://app?vid=01cbc605-bac0-4657-80b3-483498d41154"},"vehicle_type_id":"4","last_reported":1734433667,"current_range_meters":19600,"station_id":"ce4bgjp2rcd13ifvqbh0","pricing_plan_id":"cebpf4jnsgd1na2vs0mg"},{"bike_id":"a2f60cbb-aa02-4530-92a3-7597251e95e4","system_id":"levelo_inurba_marseille","lat":43.2668,"lon":5.38257,"is_reserved":false,"is_disabled":false,"rental_uris":{"android":"levelo://app?vid=a2f60cbb-aa02-4530-92a3-7597251e95e4","ios":"levelo://app?vid=a2f60cbb-aa02-4530-92a3-7597251e95e4"},"vehicle_type_id":"4","last_reported":1734433667,"current_range_meters":35600,"station_id":"ce4bhg92rcd13ifvqf90","pricing_plan_id":"cebpf4jnsgd1na2vs0mg"},{"bike_id":"e7becae5-0627-48b3-ac55-6cab7d8b24dc","system_id":"levelo_inurba_marseille","lat":43.2732,"lon":5.3909,"is_reserved":false,"is_disabled":false,"rental_uris":{"android":"levelo://app?vid=e7becae5-0627-48b3-ac55-6cab7d8b24dc","ios":"levelo://app?vid=e7becae5-0627-48b3-ac55-6cab7d8b24dc"},"vehicle_type_id":"4","last_reported":1734433667,"current_range_meters":28800,"station_id":"ce4bhgp2rcd13ifvqfe0","pricing_plan_id":"cebpf4jnsgd1na2vs0mg"},{"bike_id":"f7e69d34-8828-4052-8df7-8abcee80b6b2","system_id":"levelo_inurba_marseille","lat":43.2407,"lon":5.37728,"is_reserved":false,"is_disabled":false,"rental_uris":{"android":"levelo://app?vid=f7e69d34-8828-4052-8df7-8abcee80b6b2","ios":"levelo://app?vid=f7e69d34-8828-4052-8df7-8abcee80b6b2"},"vehicle_type_id":"4","last_reported":1734433667,"current_range_meters":38800,"station_id":"ce4bhnp2rcd13ifvqgvg","pricing_plan_id":"cebpf4jnsgd1na2vs0mg"},{"bike_id":"00f694cf-3a25-43bc-a129-dfeee772a105","system_id":"levelo_inurba_marseille","lat":43.27052,"lon":5.40261,"is_reserved":false,"is_disabled":false,"rental_uris":{"android":"levelo://app?vid=00f694cf-3a25-43bc-a129-dfeee772a105","ios":"levelo://app?vid=00f694cf-3a25-43bc-a129-dfeee772a105"},"vehicle_type_id":"4","last_reported":1734433667,"current_range_meters":25600,"station_id":"ce4bhk92rcd13ifvqgc0","pricing_plan_id":"cebpf4jnsgd1na2vs0mg"},{"bike_id":"fec44f43-c388-4de9-96f2-4289a3cc705a","system_id":"levelo_inurba_marseille","lat":43.29676,"lon":5.37207,"is_reserved":false,"is_disabled":true,"rental_uris":{"android":"levelo://app?vid=fec44f43-c388-4de9-96f2-4289a3cc705a","ios":"levelo://app?vid=fec44f43-c388-4de9-96f2-4289a3cc705a"},"vehicle_type_id":"4","last_reported":1734433667,"current_range_meters":38800,"station_id":"ce4bh0p2rcd13ifvqd70","pricing_plan_id":"cebpf4jnsgd1na2vs0mg"},{"bike_id":"80ca011d-d32d-497e-852b-b59a8111cbf4","system_id":"levelo_inurba_marseille","lat":43.26686,"lon":5.38268,"is_reserved":false,"is_disabled":false,"rental_uris":{"android":"levelo://app?vid=80ca011d-d32d-497e-852b-b59a8111cbf4","ios":"levelo://app?vid=80ca011d-d32d-497e-852b-b59a8111cbf4"},"vehicle_type_id":"4","last_reported":1734433667,"current_range_meters":28000,"station_id":"ce4bhg92rcd13ifvqf90","pricing_plan_id":"cebpf4jnsgd1na2vs0mg"},{"bike_id":"cd9c4237-357e-43dd-87ea-b819a10fbb0e","system_id":"levelo_inurba_marseille","lat":43.30467,"lon":5.37906,"is_reserved":false,"is_disabled":true,"rental_uris":{"android":"levelo://app?vid=cd9c4237-357e-43dd-87ea-b819a10fbb0e","ios":"levelo://app?vid=cd9c4237-357e-43dd-87ea-b819a10fbb0e"},"vehicle_type_id":"4","last_reported":1734433667,"current_range_meters":0,"station_id":"ce4bgup2rcd13ifvqcn0","pricing_plan_id":"cebpf4jnsgd1na2vs0mg"},{"bike_id":"33f85b2c-94af-459b-8409-cc8cf3a6d228","system_id":"levelo_inurba_marseille","lat":43.26692,"lon":5.3828,"is_reserved":false,"is_disabled":false,"rental_uris":{"android":"levelo://app?vid=33f85b2c-94af-459b-8409-cc8cf3a6d228","ios":"levelo://app?vid=33f85b2c-94af-459b-8409-cc8cf3a6d228"},"vehicle_type_id":"4","last_reported":1734433667,"current_range_meters":19200,"station_id":"ce4bhg92rcd13ifvqf90","pricing_plan_id":"cebpf4jnsgd1na2vs0mg"},{"bike_id":"c4f1da37-0960-4a66-af96-9019e459648e","system_id":"levelo_inurba_marseille","lat":43.26553,"lon":5.37298,"is_reserved":false,"is_disabled":false,"rental_uris":{"android":"levelo://app?vid=c4f1da37-0960-4a66-af96-9019e459648e","ios":"levelo://app?vid=c4f1da37-0960-4a66-af96-9019e459648e"},"vehicle_type_id":"4","last_reported":1734433667,"current_range_meters":36800,"station_id":"ce4bhg12rcd13ifvqf70","pricing_plan_id":"cebpf4jnsgd1na2vs0mg"},{"bike_id":"df678a7c-a22c-4e29-90d3-36b134a63cbd","system_id":"levelo_inurba_marseille","lat":43.323625,"lon":5.38889,"is_reserved":false,"is_disabled":false,"rental_uris":{"android":"levelo://app?vid=df678a7c-a22c-4e29-90d3-36b134a63cbd","ios":"levelo://app?vid=df678a7c-a22c-4e29-90d3-36b134a63cbd"},"vehicle_type_id":"4","last_reported":1734433667,"current_range_meters":14000,"station_id":"ce4bhqp2rcd13ifvqhog","pricing_plan_id":"cebpf4jnsgd1na2vs0mg"},{"bike_id":"2b109fc5-2ad5-44d6-994f-55e37d7d8b89","system_id":"levelo_inurba_marseille","lat":43.32097,"lon":5.36779,"is_reserved":false,"is_disabled":false,"rental_uris":{"android":"levelo://app?vid=2b109fc5-2ad5-44d6-994f-55e37d7d8b89","ios":"levelo://app?vid=2b109fc5-2ad5-44d6-994f-55e37d7d8b89"},"vehicle_type_id":"4","last_reported":1734433667,"current_range_meters":32400,"station_id":"ce4bhrh2rcd13ifvqhug","pricing_plan_id":"cebpf4jnsgd1na2vs0mg"},{"bike_id":"d95b5929-d9bd-4e45-8d48-6054291d86a5","system_id":"levelo_inurba_marseille","lat":43.231551,"lon":5.43717,"is_reserved":false,"is_disabled":false,"rental_uris":{"android":"levelo://app?vid=d95b5929-d9bd-4e45-8d48-6054291d86a5","ios":"levelo://app?vid=d95b5929-d9bd-4e45-8d48-6054291d86a5"},"vehicle_type_id":"4","last_reported":1734433667,"current_range_meters":38800,"station_id":"ce4bhmp2rcd13ifvqgog","pricing_plan_id":"cebpf4jnsgd1na2vs0mg"},{"bike_id":"71906343-7ee5-4cae-976c-f08f5d7c08cf","system_id":"levelo_inurba_marseille","lat":43.28349,"lon":5.38115,"is_reserved":false,"is_disabled":false,"rental_uris":{"android":"levelo://app?vid=71906343-7ee5-4cae-976c-f08f5d7c08cf","ios":"levelo://app?vid=71906343-7ee5-4cae-976c-f08f5d7c08cf"},"vehicle_type_id":"4","last_reported":1734433667,"current_range_meters":35200,"station_id":"ce4bh412rcd13ifvqdr0","pricing_plan_id":"cebpf4jnsgd1na2vs0mg"},{"bike_id":"18cb3e79-9874-4dfd-8dcf-20f9175efa1f","system_id":"levelo_inurba_marseille","lat":43.26027,"lon":5.37548,"is_reserved":false,"is_disabled":false,"rental_uris":{"android":"levelo://app?vid=18cb3e79-9874-4dfd-8dcf-20f9175efa1f","ios":"levelo://app?vid=18cb3e79-9874-4dfd-8dcf-20f9175efa1f"},"vehicle_type_id":"4","last_reported":1734433667,"current_range_meters":38400,"station_id":"ce4bhgh2rcd13ifvqfa0","pricing_plan_id":"cebpf4jnsgd1na2vs0mg"},{"bike_id":"382bfc4e-8106-42e8-9236-354181fb5cad","system_id":"levelo_inurba_marseille","lat":43.31362,"lon":5.38493,"is_reserved":false,"is_disabled":false,"rental_uris":{"android":"levelo://app?vid=382bfc4e-8106-42e8-9236-354181fb5cad","ios":"levelo://app?vid=382bfc4e-8106-42e8-9236-354181fb5cad"},"vehicle_type_id":"4","last_reported":1734433667,"current_range_meters":38800,"station_id":"ce4bgt92rcd13ifvqcf0","pricing_plan_id":"cebpf4jnsgd1na2vs0mg"},{"bike_id":"f915847a-b356-4fda-be81-23662db39dce","system_id":"levelo_inurba_marseille","lat":43.29036,"lon":5.37569,"is_reserved":false,"is_disabled":false,"rental_uris":{"android":"levelo://app?vid=f915847a-b356-4fda-be81-23662db39dce","ios":"levelo://app?vid=f915847a-b356-4fda-be81-23662db39dce"},"vehicle_type_id":"4","last_reported":1734433667,"current_range_meters":25200,"station_id":"ce4bh692rcd13ifvqe90","pricing_plan_id":"cebpf4jnsgd1na2vs0mg"},{"bike_id":"2efe5cd0-3061-4c4f-877d-3ab1d5f8411e","system_id":"levelo_inurba_marseille","lat":43.30528,"lon":5.3652,"is_reserved":false,"is_disabled":false,"rental_uris":{"android":"levelo://app?vid=2efe5cd0-3061-4c4f-877d-3ab1d5f8411e","ios":"levelo://app?vid=2efe5cd0-3061-4c4f-877d-3ab1d5f8411e"},"vehicle_type_id":"4","last_reported":1734433667,"current_range_meters":38800,"station_id":"","pricing_plan_id":"cebpf4jnsgd1na2vs0mg"},{"bike_id":"4f720f2b-c111-4327-aa85-323f2f97bdbe","system_id":"levelo_inurba_marseille","lat":43.27813,"lon":5.40722,"is_reserved":false,"is_disabled":false,"rental_uris":{"android":"levelo://app?vid=4f720f2b-c111-4327-aa85-323f2f97bdbe","ios":"levelo://app?vid=4f720f2b-c111-4327-aa85-323f2f97bdbe"},"vehicle_type_id":"4","last_reported":1734433667,"current_range_meters":19200,"station_id":"ce4bhnh2rcd13ifvqgtg","pricing_plan_id":"cebpf4jnsgd1na2vs0mg"},{"bike_id":"684deaa6-2ae3-4c5d-8c2a-b6b20b7130e4","system_id":"levelo_inurba_marseille","lat":43.29315,"lon":5.37183,"is_reserved":false,"is_disabled":false,"rental_uris":{"android":"levelo://app?vid=684deaa6-2ae3-4c5d-8c2a-b6b20b7130e4","ios":"levelo://app?vid=684deaa6-2ae3-4c5d-8c2a-b6b20b7130e4"},"vehicle_type_id":"4","last_reported":1734433667,"current_range_meters":25200,"station_id":"ce4bgh92rcd13ifvqb40","pricing_plan_id":"cebpf4jnsgd1na2vs0mg"},{"bike_id":"fa03d48d-3db3-45a7-b66e-dbba31beeacc","system_id":"levelo_inurba_marseille","lat":43.28419,"lon":5.34979,"is_reserved":false,"is_disabled":false,"rental_uris":{"android":"levelo://app?vid=fa03d48d-3db3-45a7-b66e-dbba31beeacc","ios":"levelo://app?vid=fa03d48d-3db3-45a7-b66e-dbba31beeacc"},"vehicle_type_id":"4","last_reported":1734433667,"current_range_meters":5600,"station_id":"ce4bhbh2rcd13ifvqepg","pricing_plan_id":"cebpf4jnsgd1na2vs0mg"},{"bike_id":"6d5d4483-1d56-424f-a960-f8190e42890c","system_id":"levelo_inurba_marseille","lat":43.27184,"lon":5.40992,"is_reserved":false,"is_disabled":true,"rental_uris":{"android":"levelo://app?vid=6d5d4483-1d56-424f-a960-f8190e42890c","ios":"levelo://app?vid=6d5d4483-1d56-424f-a960-f8190e42890c"},"vehicle_type_id":"4","last_reported":1734433667,"current_range_meters":11200,"station_id":"ce4bhl12rcd13ifvqgf0","pricing_plan_id":"cebpf4jnsgd1na2vs0mg"},{"bike_id":"b7c596fb-38fa-435a-af69-eef720c12c63","system_id":"levelo_inurba_marseille","lat":43.27209,"lon":5.39182,"is_reserved":false,"is_disabled":false,"rental_uris":{"android":"levelo://app?vid=b7c596fb-38fa-435a-af69-eef720c12c63","ios":"levelo://app?vid=b7c596fb-38fa-435a-af69-eef720c12c63"},"vehicle_type_id":"4","last_reported":1734433667,"current_range_meters":22800,"station_id":"ce4bhhp2rcd13ifvqfm0","pricing_plan_id":"cebpf4jnsgd1na2vs0mg"},{"bike_id":"a74e2f2e-5305-46cf-a4a9-9eb5976ad548","system_id":"levelo_inurba_marseille","lat":43.27921,"lon":5.39613,"is_reserved":false,"is_disabled":false,"rental_uris":{"android":"levelo://app?vid=a74e2f2e-5305-46cf-a4a9-9eb5976ad548","ios":"levelo://app?vid=a74e2f2e-5305-46cf-a4a9-9eb5976ad548"},"vehicle_type_id":"4","last_reported":1734433667,"current_range_meters":5600,"station_id":"ce4bhf92rcd13ifvqf40","pricing_plan_id":"cebpf4jnsgd1na2vs0mg"},{"bike_id":"67b8fb37-58ea-498b-8732-22a3a491a250","system_id":"levelo_inurba_marseille","lat":43.24396,"lon":5.37048,"is_reserved":false,"is_disabled":false,"rental_uris":{"android":"levelo://app?vid=67b8fb37-58ea-498b-8732-22a3a491a250","ios":"levelo://app?vid=67b8fb37-58ea-498b-8732-22a3a491a250"},"vehicle_type_id":"4","last_reported":1734433667,"current_range_meters":38800,"station_id":"ce4bhhh2rcd13ifvqfk0","pricing_plan_id":"cebpf4jnsgd1na2vs0mg"},{"bike_id":"94486c75-00f7-41da-8797-6de13a7bb0fc","system_id":"levelo_inurba_marseille","lat":43.304461,"lon":5.388848,"is_reserved":false,"is_disabled":true,"rental_uris":{"android":"levelo://app?vid=94486c75-00f7-41da-8797-6de13a7bb0fc","ios":"levelo://app?vid=94486c75-00f7-41da-8797-6de13a7bb0fc"},"vehicle_type_id":"4","last_reported":1734433667,"current_range_meters":23200,"station_id":"ce4bgk12rcd13ifvqbi0","pricing_plan_id":"cebpf4jnsgd1na2vs0mg"},{"bike_id":"ca15d5c7-c86b-4f93-82a5-8c6edfe3f73d","system_id":"levelo_inurba_marseille","lat":43.29553,"lon":5.42284,"is_reserved":false,"is_disabled":false,"rental_uris":{"android":"levelo://app?vid=ca15d5c7-c86b-4f93-82a5-8c6edfe3f73d","ios":"levelo://app?vid=ca15d5c7-c86b-4f93-82a5-8c6edfe3f73d"},"vehicle_type_id":"4","last_reported":1734433667,"current_range_meters":24400,"station_id":"ce4bhph2rcd13ifvqhdg","pricing_plan_id":"cebpf4jnsgd1na2vs0mg"},{"bike_id":"6444e206-5a70-4cd1-9a9b-72a924e8d656","system_id":"levelo_inurba_marseille","lat":43.27965,"lon":5.38749,"is_reserved":false,"is_disabled":false,"rental_uris":{"android":"levelo://app?vid=6444e206-5a70-4cd1-9a9b-72a924e8d656","ios":"levelo://app?vid=6444e206-5a70-4cd1-9a9b-72a924e8d656"},"vehicle_type_id":"4","last_reported":1734433667,"current_range_meters":38800,"station_id":"ce4bhg12rcd13ifvqf80","pricing_plan_id":"cebpf4jnsgd1na2vs0mg"},{"bike_id":"e4792bb6-9e6d-483a-a5ae-2b1904da6da2","system_id":"levelo_inurba_marseille","lat":43.30536,"lon":5.36702,"is_reserved":false,"is_disabled":false,"rental_uris":{"android":"levelo://app?vid=e4792bb6-9e6d-483a-a5ae-2b1904da6da2","ios":"levelo://app?vid=e4792bb6-9e6d-483a-a5ae-2b1904da6da2"},"vehicle_type_id":"4","last_reported":1734433667,"current_range_meters":36400,"station_id":"ce4bgrp2rcd13ifvqc9g","pricing_plan_id":"cebpf4jnsgd1na2vs0mg"},{"bike_id":"3e27340d-7a1c-477c-8eda-88685f154b3a","system_id":"levelo_inurba_marseille","lat":43.29614,"lon":5.38111,"is_reserved":false,"is_disabled":false,"rental_uris":{"android":"levelo://app?vid=3e27340d-7a1c-477c-8eda-88685f154b3a","ios":"levelo://app?vid=3e27340d-7a1c-477c-8eda-88685f154b3a"},"vehicle_type_id":"4","last_reported":1734433667,"current_range_meters":31200,"station_id":"ce4bgl12rcd13ifvqbo0","pricing_plan_id":"cebpf4jnsgd1na2vs0mg"},{"bike_id":"782bcbf2-b7de-4b04-bebc-aaa0329dd90c","system_id":"levelo_inurba_marseille","lat":43.23192,"lon":5.35557,"is_reserved":false,"is_disabled":false,"rental_uris":{"android":"levelo://app?vid=782bcbf2-b7de-4b04-bebc-aaa0329dd90c","ios":"levelo://app?vid=782bcbf2-b7de-4b04-bebc-aaa0329dd90c"},"vehicle_type_id":"4","last_reported":1734433667,"current_range_meters":39200,"station_id":"ce4bhu92rcd13ifvqi70","pricing_plan_id":"cebpf4jnsgd1na2vs0mg"},{"bike_id":"a925316d-9d31-43b0-a430-5cb1bef87372","system_id":"levelo_inurba_marseille","lat":43.2718,"lon":5.40992,"is_reserved":false,"is_disabled":false,"rental_uris":{"android":"levelo://app?vid=a925316d-9d31-43b0-a430-5cb1bef87372","ios":"levelo://app?vid=a925316d-9d31-43b0-a430-5cb1bef87372"},"vehicle_type_id":"4","last_reported":1734433667,"current_range_meters":25600,"station_id":"ce4bhl12rcd13ifvqgf0","pricing_plan_id":"cebpf4jnsgd1na2vs0mg"},{"bike_id":"540c19ab-e8ac-4092-909b-c3e5069b6978","system_id":"levelo_inurba_marseille","lat":43.337444,"lon":5.374475,"is_reserved":false,"is_disabled":true,"rental_uris":{"android":"levelo://app?vid=540c19ab-e8ac-4092-909b-c3e5069b6978","ios":"levelo://app?vid=540c19ab-e8ac-4092-909b-c3e5069b6978"},"vehicle_type_id":"4","last_reported":1734433667,"current_range_meters":0,"station_id":"","pricing_plan_id":"cebpf4jnsgd1na2vs0mg"},{"bike_id":"4367cffc-9d61-4319-a00c-226aa870af96","system_id":"levelo_inurba_marseille","lat":43.29689,"lon":5.36596,"is_reserved":false,"is_disabled":false,"rental_uris":{"android":"levelo://app?vid=4367cffc-9d61-4319-a00c-226aa870af96","ios":"levelo://app?vid=4367cffc-9d61-4319-a00c-226aa870af96"},"vehicle_type_id":"4","last_reported":1734433667,"current_range_meters":25600,"station_id":"ce4bgn12rcd13ifvqbt0","pricing_plan_id":"cebpf4jnsgd1na2vs0mg"},{"bike_id":"5b9dadf4-f3ef-496a-933f-556a1442196c","system_id":"levelo_inurba_marseille","lat":43.27934,"lon":5.41043,"is_reserved":false,"is_disabled":false,"rental_uris":{"android":"levelo://app?vid=5b9dadf4-f3ef-496a-933f-556a1442196c","ios":"levelo://app?vid=5b9dadf4-f3ef-496a-933f-556a1442196c"},"vehicle_type_id":"4","last_reported":1734433667,"current_range_meters":11200,"station_id":"ce4bhnp2rcd13ifvqh0g","pricing_plan_id":"cebpf4jnsgd1na2vs0mg"},{"bike_id":"6440d92a-2c08-4c14-a219-1c528079799e","system_id":"levelo_inurba_marseille","lat":43.29003,"lon":5.35613,"is_reserved":false,"is_disabled":false,"rental_uris":{"android":"levelo://app?vid=6440d92a-2c08-4c14-a219-1c528079799e","ios":"levelo://app?vid=6440d92a-2c08-4c14-a219-1c528079799e"},"vehicle_type_id":"4","last_reported":1734433667,"current_range_meters":38000,"station_id":"ce4bhb92rcd13ifvqen0","pricing_plan_id":"cebpf4jnsgd1na2vs0mg"},{"bike_id":"d4b8fd6a-8db4-4412-b950-920b26686b75","system_id":"levelo_inurba_marseille","lat":43.25717,"lon":5.41114,"is_reserved":false,"is_disabled":false,"rental_uris":{"android":"levelo://app?vid=d4b8fd6a-8db4-4412-b950-920b26686b75","ios":"levelo://app?vid=d4b8fd6a-8db4-4412-b950-920b26686b75"},"vehicle_type_id":"4","last_reported":1734433667,"current_range_meters":38800,"station_id":"ce4bhkp2rcd13ifvqgd0","pricing_plan_id":"cebpf4jnsgd1na2vs0mg"},{"bike_id":"0343d85b-f78b-4acb-b1a9-67fd95fde36e","system_id":"levelo_inurba_marseille","lat":43.30928,"lon":5.40153,"is_reserved":false,"is_disabled":false,"rental_uris":{"android":"levelo://app?vid=0343d85b-f78b-4acb-b1a9-67fd95fde36e","ios":"levelo://app?vid=0343d85b-f78b-4acb-b1a9-67fd95fde36e"},"vehicle_type_id":"4","last_reported":1734433667,"current_range_meters":37600,"station_id":"ce4bgvp2rcd13ifvqct0","pricing_plan_id":"cebpf4jnsgd1na2vs0mg"},{"bike_id":"e82f4bcc-e8c7-45fb-935b-84f0ae3e27c2","system_id":"levelo_inurba_marseille","lat":43.24543,"lon":5.3953,"is_reserved":false,"is_disabled":false,"rental_uris":{"android":"levelo://app?vid=e82f4bcc-e8c7-45fb-935b-84f0ae3e27c2","ios":"levelo://app?vid=e82f4bcc-e8c7-45fb-935b-84f0ae3e27c2"},"vehicle_type_id":"4","last_reported":1734433667,"current_range_meters":31200,"station_id":"ce4bhlp2rcd13ifvqgjg","pricing_plan_id":"cebpf4jnsgd1na2vs0mg"},{"bike_id":"ddbbfe5d-94ec-4ed2-8677-23a6e78f43c1","system_id":"levelo_inurba_marseille","lat":43.25577,"lon":5.38243,"is_reserved":false,"is_disabled":false,"rental_uris":{"android":"levelo://app?vid=ddbbfe5d-94ec-4ed2-8677-23a6e78f43c1","ios":"levelo://app?vid=ddbbfe5d-94ec-4ed2-8677-23a6e78f43c1"},"vehicle_type_id":"4","last_reported":1734433667,"current_range_meters":30800,"station_id":"ce4bhih2rcd13ifvqfs0","pricing_plan_id":"cebpf4jnsgd1na2vs0mg"},{"bike_id":"0759478d-8962-4d43-8206-3454e81b4bc5","system_id":"levelo_inurba_marseille","lat":43.29932,"lon":5.36545,"is_reserved":false,"is_disabled":false,"rental_uris":{"android":"levelo://app?vid=0759478d-8962-4d43-8206-3454e81b4bc5","ios":"levelo://app?vid=0759478d-8962-4d43-8206-3454e81b4bc5"},"vehicle_type_id":"4","last_reported":1734433667,"current_range_meters":10800,"station_id":"ce4bgm92rcd13ifvqbr0","pricing_plan_id":"cebpf4jnsgd1na2vs0mg"},{"bike_id":"2fb756ce-2e49-4f8c-a203-f7605ef4b232","system_id":"levelo_inurba_marseille","lat":43.24646,"lon":5.38899,"is_reserved":false,"is_disabled":false,"rental_uris":{"android":"levelo://app?vid=2fb756ce-2e49-4f8c-a203-f7605ef4b232","ios":"levelo://app?vid=2fb756ce-2e49-4f8c-a203-f7605ef4b232"},"vehicle_type_id":"4","last_reported":1734433667,"current_range_meters":33200,"station_id":"ce4bhg12rcd13ifvqf60","pricing_plan_id":"cebpf4jnsgd1na2vs0mg"},{"bike_id":"c096fd4b-e881-4158-a46f-38ce1c416d1d","system_id":"levelo_inurba_marseille","lat":43.32454,"lon":5.36584,"is_reserved":false,"is_disabled":true,"rental_uris":{"android":"levelo://app?vid=c096fd4b-e881-4158-a46f-38ce1c416d1d","ios":"levelo://app?vid=c096fd4b-e881-4158-a46f-38ce1c416d1d"},"vehicle_type_id":"4","last_reported":1734433667,"current_range_meters":38800,"station_id":"ce4bhs12rcd13ifvqhvg","pricing_plan_id":"cebpf4jnsgd1na2vs0mg"},{"bike_id":"e570e38a-85d6-4b1d-89e9-03facfda4fdf","system_id":"levelo_inurba_marseille","lat":43.3053,"lon":5.36693,"is_reserved":false,"is_disabled":false,"rental_uris":{"android":"levelo://app?vid=e570e38a-85d6-4b1d-89e9-03facfda4fdf","ios":"levelo://app?vid=e570e38a-85d6-4b1d-89e9-03facfda4fdf"},"vehicle_type_id":"4","last_reported":1734433667,"current_range_meters":28000,"station_id":"ce4bgrp2rcd13ifvqc9g","pricing_plan_id":"cebpf4jnsgd1na2vs0mg"},{"bike_id":"7e1ea073-627a-434f-baa4-9373e72dcd62","system_id":"levelo_inurba_marseille","lat":43.31366,"lon":5.38501,"is_reserved":false,"is_disabled":false,"rental_uris":{"android":"levelo://app?vid=7e1ea073-627a-434f-baa4-9373e72dcd62","ios":"levelo://app?vid=7e1ea073-627a-434f-baa4-9373e72dcd62"},"vehicle_type_id":"4","last_reported":1734433667,"current_range_meters":37600,"station_id":"ce4bgt92rcd13ifvqcf0","pricing_plan_id":"cebpf4jnsgd1na2vs0mg"},{"bike_id":"63b972ac-79d3-401e-a211-4de6f7ea11b5","system_id":"levelo_inurba_marseille","lat":43.31343,"lon":5.36715,"is_reserved":false,"is_disabled":false,"rental_uris":{"android":"levelo://app?vid=63b972ac-79d3-401e-a211-4de6f7ea11b5","ios":"levelo://app?vid=63b972ac-79d3-401e-a211-4de6f7ea11b5"},"vehicle_type_id":"4","last_reported":1734433667,"current_range_meters":16000,"station_id":"ce4bgr92rcd13ifvqc6g","pricing_plan_id":"cebpf4jnsgd1na2vs0mg"},{"bike_id":"5fe14412-faaf-4e83-aead-96c99ecb8636","system_id":"levelo_inurba_marseille","lat":43.30801,"lon":5.37656,"is_reserved":false,"is_disabled":false,"rental_uris":{"android":"levelo://app?vid=5fe14412-faaf-4e83-aead-96c99ecb8636","ios":"levelo://app?vid=5fe14412-faaf-4e83-aead-96c99ecb8636"},"vehicle_type_id":"4","last_reported":1734433667,"current_range_meters":32000,"station_id":"ce4bgv92rcd13ifvqcq0","pricing_plan_id":"cebpf4jnsgd1na2vs0mg"},{"bike_id":"ca1cea99-57b3-4dac-a5bc-b5ca0136e7aa","system_id":"levelo_inurba_marseille","lat":43.30518,"lon":5.36514,"is_reserved":false,"is_disabled":false,"rental_uris":{"android":"levelo://app?vid=ca1cea99-57b3-4dac-a5bc-b5ca0136e7aa","ios":"levelo://app?vid=ca1cea99-57b3-4dac-a5bc-b5ca0136e7aa"},"vehicle_type_id":"4","last_reported":1734433667,"current_range_meters":38800,"station_id":"","pricing_plan_id":"cebpf4jnsgd1na2vs0mg"},{"bike_id":"94fa7a48-d01a-4c85-8ce8-5db4c055f1c9","system_id":"levelo_inurba_marseille","lat":43.29224,"lon":5.39949,"is_reserved":false,"is_disabled":false,"rental_uris":{"android":"levelo://app?vid=94fa7a48-d01a-4c85-8ce8-5db4c055f1c9","ios":"levelo://app?vid=94fa7a48-d01a-4c85-8ce8-5db4c055f1c9"},"vehicle_type_id":"4","last_reported":1734433667,"current_range_meters":12400,"station_id":"","pricing_plan_id":"cebpf4jnsgd1na2vs0mg"},{"bike_id":"140b7c77-450d-4ce4-8982-6cc405fe0924","system_id":"levelo_inurba_marseille","lat":43.27989,"lon":5.41665,"is_reserved":false,"is_disabled":false,"rental_uris":{"android":"levelo://app?vid=140b7c77-450d-4ce4-8982-6cc405fe0924","ios":"levelo://app?vid=140b7c77-450d-4ce4-8982-6cc405fe0924"},"vehicle_type_id":"4","last_reported":1734433667,"current_range_meters":26000,"station_id":"ce4bho12rcd13ifvqh1g","pricing_plan_id":"cebpf4jnsgd1na2vs0mg"},{"bike_id":"215c2ee6-5c55-4293-823f-ab36743cf925","system_id":"levelo_inurba_marseille","lat":43.26566,"lon":5.37323,"is_reserved":false,"is_disabled":false,"rental_uris":{"android":"levelo://app?vid=215c2ee6-5c55-4293-823f-ab36743cf925","ios":"levelo://app?vid=215c2ee6-5c55-4293-823f-ab36743cf925"},"vehicle_type_id":"4","last_reported":1734433667,"current_range_meters":27600,"station_id":"ce4bhg12rcd13ifvqf70","pricing_plan_id":"cebpf4jnsgd1na2vs0mg"},{"bike_id":"cdb0b79b-c747-49ec-9c4e-a338d34cf2bb","system_id":"levelo_inurba_marseille","lat":43.26198,"lon":5.37934,"is_reserved":false,"is_disabled":false,"rental_uris":{"android":"levelo://app?vid=cdb0b79b-c747-49ec-9c4e-a338d34cf2bb","ios":"levelo://app?vid=cdb0b79b-c747-49ec-9c4e-a338d34cf2bb"},"vehicle_type_id":"4","last_reported":1734433667,"current_range_meters":36000,"station_id":"ce4bhjp2rcd13ifvqg90","pricing_plan_id":"cebpf4jnsgd1na2vs0mg"},{"bike_id":"e7003594-66f3-4f16-8a8f-22796d18fc63","system_id":"levelo_inurba_marseille","lat":43.30528,"lon":5.36537,"is_reserved":false,"is_disabled":false,"rental_uris":{"android":"levelo://app?vid=e7003594-66f3-4f16-8a8f-22796d18fc63","ios":"levelo://app?vid=e7003594-66f3-4f16-8a8f-22796d18fc63"},"vehicle_type_id":"4","last_reported":1734433667,"current_range_meters":38800,"station_id":"ce4bgs12rcd13ifvqcag","pricing_plan_id":"cebpf4jnsgd1na2vs0mg"},{"bike_id":"6cdb4950-1b7e-4415-abc4-2362b7e51082","system_id":"levelo_inurba_marseille","lat":43.324826,"lon":5.365608,"is_reserved":false,"is_disabled":false,"rental_uris":{"android":"levelo://app?vid=6cdb4950-1b7e-4415-abc4-2362b7e51082","ios":"levelo://app?vid=6cdb4950-1b7e-4415-abc4-2362b7e51082"},"vehicle_type_id":"4","last_reported":1734433667,"current_range_meters":38800,"station_id":"ce4bhs12rcd13ifvqhvg","pricing_plan_id":"cebpf4jnsgd1na2vs0mg"},{"bike_id":"0b3b9222-07b8-447e-9c22-23221cec3e45","system_id":"levelo_inurba_marseille","lat":43.30309,"lon":5.36882,"is_reserved":false,"is_disabled":false,"rental_uris":{"android":"levelo://app?vid=0b3b9222-07b8-447e-9c22-23221cec3e45","ios":"levelo://app?vid=0b3b9222-07b8-447e-9c22-23221cec3e45"},"vehicle_type_id":"4","last_reported":1734433667,"current_range_meters":34800,"station_id":"ce4bgqh2rcd13ifvqc5g","pricing_plan_id":"cebpf4jnsgd1na2vs0mg"},{"bike_id":"4b6e1560-ae0a-4c4e-adbf-8263ae29060d","system_id":"levelo_inurba_marseille","lat":43.27051,"lon":5.40278,"is_reserved":false,"is_disabled":false,"rental_uris":{"android":"levelo://app?vid=4b6e1560-ae0a-4c4e-adbf-8263ae29060d","ios":"levelo://app?vid=4b6e1560-ae0a-4c4e-adbf-8263ae29060d"},"vehicle_type_id":"4","last_reported":1734433667,"current_range_meters":12800,"station_id":"ce4bhk92rcd13ifvqgc0","pricing_plan_id":"cebpf4jnsgd1na2vs0mg"},{"bike_id":"20ea503d-5e12-4fb4-af5c-d40361cb7a04","system_id":"levelo_inurba_marseille","lat":43.24548,"lon":5.39525,"is_reserved":false,"is_disabled":false,"rental_uris":{"android":"levelo://app?vid=20ea503d-5e12-4fb4-af5c-d40361cb7a04","ios":"levelo://app?vid=20ea503d-5e12-4fb4-af5c-d40361cb7a04"},"vehicle_type_id":"4","last_reported":1734433667,"current_range_meters":22800,"station_id":"ce4bhlp2rcd13ifvqgjg","pricing_plan_id":"cebpf4jnsgd1na2vs0mg"},{"bike_id":"c0b5d730-c744-4e5e-a973-029c3f58da20","system_id":"levelo_inurba_marseille","lat":43.23962,"lon":5.36635,"is_reserved":false,"is_disabled":false,"rental_uris":{"android":"levelo://app?vid=c0b5d730-c744-4e5e-a973-029c3f58da20","ios":"levelo://app?vid=c0b5d730-c744-4e5e-a973-029c3f58da20"},"vehicle_type_id":"4","last_reported":1734433667,"current_range_meters":37600,"station_id":"ce4bhi12rcd13ifvqfp0","pricing_plan_id":"cebpf4jnsgd1na2vs0mg"},{"bike_id":"645c7daf-6ef1-4c01-8904-078f4b7bafd4","system_id":"levelo_inurba_marseille","lat":43.2961,"lon":5.37732,"is_reserved":false,"is_disabled":true,"rental_uris":{"android":"levelo://app?vid=645c7daf-6ef1-4c01-8904-078f4b7bafd4","ios":"levelo://app?vid=645c7daf-6ef1-4c01-8904-078f4b7bafd4"},"vehicle_type_id":"4","last_reported":1734433667,"current_range_meters":0,"station_id":"ce4bgi92rcd13ifvqb90","pricing_plan_id":"cebpf4jnsgd1na2vs0mg"},{"bike_id":"ecc92a4b-6d16-4860-bc04-550f608dd01d","system_id":"levelo_inurba_marseille","lat":43.30276,"lon":5.36906,"is_reserved":false,"is_disabled":false,"rental_uris":{"android":"levelo://app?vid=ecc92a4b-6d16-4860-bc04-550f608dd01d","ios":"levelo://app?vid=ecc92a4b-6d16-4860-bc04-550f608dd01d"},"vehicle_type_id":"4","last_reported":1734433667,"current_range_meters":31200,"station_id":"ce4bgqh2rcd13ifvqc5g","pricing_plan_id":"cebpf4jnsgd1na2vs0mg"},{"bike_id":"1c2b0305-34c7-42b4-9192-82f5fbe4668a","system_id":"levelo_inurba_marseille","lat":43.30194,"lon":5.39474,"is_reserved":false,"is_disabled":false,"rental_uris":{"android":"levelo://app?vid=1c2b0305-34c7-42b4-9192-82f5fbe4668a","ios":"levelo://app?vid=1c2b0305-34c7-42b4-9192-82f5fbe4668a"},"vehicle_type_id":"4","last_reported":1734433667,"current_range_meters":36800,"station_id":"ce4bh0p2rcd13ifvqd70","pricing_plan_id":"cebpf4jnsgd1na2vs0mg"},{"bike_id":"cb71125f-f15f-4cf9-9db3-a382db86e685","system_id":"levelo_inurba_marseille","lat":43.29776,"lon":5.37121,"is_reserved":false,"is_disabled":true,"rental_uris":{"android":"levelo://app?vid=cb71125f-f15f-4cf9-9db3-a382db86e685","ios":"levelo://app?vid=cb71125f-f15f-4cf9-9db3-a382db86e685"},"vehicle_type_id":"4","last_reported":1734433667,"current_range_meters":35200,"station_id":"ce4bgop2rcd13ifvqc1g","pricing_plan_id":"cebpf4jnsgd1na2vs0mg"},{"bike_id":"7e23e9cb-b6ee-4233-9e4a-321349524cc3","system_id":"levelo_inurba_marseille","lat":43.3248,"lon":5.36566,"is_reserved":false,"is_disabled":false,"rental_uris":{"android":"levelo://app?vid=7e23e9cb-b6ee-4233-9e4a-321349524cc3","ios":"levelo://app?vid=7e23e9cb-b6ee-4233-9e4a-321349524cc3"},"vehicle_type_id":"4","last_reported":1734433667,"current_range_meters":33600,"station_id":"ce4bhs12rcd13ifvqhvg","pricing_plan_id":"cebpf4jnsgd1na2vs0mg"},{"bike_id":"8d75bee7-b5cd-4a79-9029-cbc9cb1e0eb4","system_id":"levelo_inurba_marseille","lat":43.32488,"lon":5.36578,"is_reserved":false,"is_disabled":false,"rental_uris":{"android":"levelo://app?vid=8d75bee7-b5cd-4a79-9029-cbc9cb1e0eb4","ios":"levelo://app?vid=8d75bee7-b5cd-4a79-9029-cbc9cb1e0eb4"},"vehicle_type_id":"4","last_reported":1734433667,"current_range_meters":35600,"station_id":"ce4bhs12rcd13ifvqhvg","pricing_plan_id":"cebpf4jnsgd1na2vs0mg"},{"bike_id":"bb337245-7c41-4671-900b-a4d92ae562c6","system_id":"levelo_inurba_marseille","lat":43.29513,"lon":5.39031,"is_reserved":false,"is_disabled":true,"rental_uris":{"android":"levelo://app?vid=bb337245-7c41-4671-900b-a4d92ae562c6","ios":"levelo://app?vid=bb337245-7c41-4671-900b-a4d92ae562c6"},"vehicle_type_id":"4","last_reported":1734433667,"current_range_meters":6400,"station_id":"ce4bh3p2rcd13ifvqdp0","pricing_plan_id":"cebpf4jnsgd1na2vs0mg"},{"bike_id":"5a1ccfa8-0852-4ba1-a859-7ecb0bb82a2b","system_id":"levelo_inurba_marseille","lat":43.29629,"lon":5.37173,"is_reserved":false,"is_disabled":false,"rental_uris":{"android":"levelo://app?vid=5a1ccfa8-0852-4ba1-a859-7ecb0bb82a2b","ios":"levelo://app?vid=5a1ccfa8-0852-4ba1-a859-7ecb0bb82a2b"},"vehicle_type_id":"4","last_reported":1734433667,"current_range_meters":39200,"station_id":"ce4bgnh2rcd13ifvqc0g","pricing_plan_id":"cebpf4jnsgd1na2vs0mg"},{"bike_id":"34a93641-f0ab-4ea5-b67b-960437b79d73","system_id":"levelo_inurba_marseille","lat":43.33604,"lon":5.41034,"is_reserved":false,"is_disabled":false,"rental_uris":{"android":"levelo://app?vid=34a93641-f0ab-4ea5-b67b-960437b79d73","ios":"levelo://app?vid=34a93641-f0ab-4ea5-b67b-960437b79d73"},"vehicle_type_id":"4","last_reported":1734433667,"current_range_meters":33200,"station_id":"ce4bhqh2rcd13ifvqhmg","pricing_plan_id":"cebpf4jnsgd1na2vs0mg"},{"bike_id":"8581049f-4c13-4689-a676-8eee36d3fcce","system_id":"levelo_inurba_marseille","lat":43.27307,"lon":5.39108,"is_reserved":false,"is_disabled":false,"rental_uris":{"android":"levelo://app?vid=8581049f-4c13-4689-a676-8eee36d3fcce","ios":"levelo://app?vid=8581049f-4c13-4689-a676-8eee36d3fcce"},"vehicle_type_id":"4","last_reported":1734433667,"current_range_meters":38000,"station_id":"ce4bhgp2rcd13ifvqfe0","pricing_plan_id":"cebpf4jnsgd1na2vs0mg"},{"bike_id":"2e469e73-745b-4893-a940-781055c5a91d","system_id":"levelo_inurba_marseille","lat":43.27944,"lon":5.41056,"is_reserved":false,"is_disabled":false,"rental_uris":{"android":"levelo://app?vid=2e469e73-745b-4893-a940-781055c5a91d","ios":"levelo://app?vid=2e469e73-745b-4893-a940-781055c5a91d"},"vehicle_type_id":"4","last_reported":1734433667,"current_range_meters":8000,"station_id":"ce4bhnp2rcd13ifvqh0g","pricing_plan_id":"cebpf4jnsgd1na2vs0mg"},{"bike_id":"44ff8e7d-1339-43c2-b508-1f594ee49259","system_id":"levelo_inurba_marseille","lat":43.27928,"lon":5.39593,"is_reserved":false,"is_disabled":false,"rental_uris":{"android":"levelo://app?vid=44ff8e7d-1339-43c2-b508-1f594ee49259","ios":"levelo://app?vid=44ff8e7d-1339-43c2-b508-1f594ee49259"},"vehicle_type_id":"4","last_reported":1734433667,"current_range_meters":38400,"station_id":"ce4bhf92rcd13ifvqf40","pricing_plan_id":"cebpf4jnsgd1na2vs0mg"},{"bike_id":"efad3903-21ac-4cd9-ba9c-bf70bc007e1e","system_id":"levelo_inurba_marseille","lat":43.30249,"lon":5.400773,"is_reserved":false,"is_disabled":true,"rental_uris":{"android":"levelo://app?vid=efad3903-21ac-4cd9-ba9c-bf70bc007e1e","ios":"levelo://app?vid=efad3903-21ac-4cd9-ba9c-bf70bc007e1e"},"vehicle_type_id":"4","last_reported":1734433667,"current_range_meters":33600,"station_id":"ce4bgvh2rcd13ifvqcs0","pricing_plan_id":"cebpf4jnsgd1na2vs0mg"},{"bike_id":"ff52c0f9-5bc3-4147-97cc-1c9a6030d599","system_id":"levelo_inurba_marseille","lat":43.27065,"lon":5.40258,"is_reserved":false,"is_disabled":false,"rental_uris":{"android":"levelo://app?vid=ff52c0f9-5bc3-4147-97cc-1c9a6030d599","ios":"levelo://app?vid=ff52c0f9-5bc3-4147-97cc-1c9a6030d599"},"vehicle_type_id":"4","last_reported":1734433667,"current_range_meters":38000,"station_id":"ce4bhk92rcd13ifvqgc0","pricing_plan_id":"cebpf4jnsgd1na2vs0mg"},{"bike_id":"eba901e5-0847-4fc0-b2b6-9eb1834c3e7a","system_id":"levelo_inurba_marseille","lat":43.2954,"lon":5.42283,"is_reserved":false,"is_disabled":true,"rental_uris":{"android":"levelo://app?vid=eba901e5-0847-4fc0-b2b6-9eb1834c3e7a","ios":"levelo://app?vid=eba901e5-0847-4fc0-b2b6-9eb1834c3e7a"},"vehicle_type_id":"4","last_reported":1734433667,"current_range_meters":0,"station_id":"ce4bhph2rcd13ifvqhdg","pricing_plan_id":"cebpf4jnsgd1na2vs0mg"},{"bike_id":"cb72b0e9-af1b-421e-a83d-520db76f99cc","system_id":"levelo_inurba_marseille","lat":43.30911,"lon":5.36855,"is_reserved":false,"is_disabled":false,"rental_uris":{"android":"levelo://app?vid=cb72b0e9-af1b-421e-a83d-520db76f99cc","ios":"levelo://app?vid=cb72b0e9-af1b-421e-a83d-520db76f99cc"},"vehicle_type_id":"4","last_reported":1734433667,"current_range_meters":24400,"station_id":"ce4bgn92rcd13ifvqbvg","pricing_plan_id":"cebpf4jnsgd1na2vs0mg"},{"bike_id":"8f06c920-b8c4-47ab-8b2e-d4d5d8666a6d","system_id":"levelo_inurba_marseille","lat":43.3054,"lon":5.36699,"is_reserved":false,"is_disabled":false,"rental_uris":{"android":"levelo://app?vid=8f06c920-b8c4-47ab-8b2e-d4d5d8666a6d","ios":"levelo://app?vid=8f06c920-b8c4-47ab-8b2e-d4d5d8666a6d"},"vehicle_type_id":"4","last_reported":1734433667,"current_range_meters":21600,"station_id":"ce4bgrp2rcd13ifvqc9g","pricing_plan_id":"cebpf4jnsgd1na2vs0mg"},{"bike_id":"f00a63f1-ffba-457a-93eb-7ff0315f6052","system_id":"levelo_inurba_marseille","lat":43.24667,"lon":5.38166,"is_reserved":false,"is_disabled":false,"rental_uris":{"android":"levelo://app?vid=f00a63f1-ffba-457a-93eb-7ff0315f6052","ios":"levelo://app?vid=f00a63f1-ffba-457a-93eb-7ff0315f6052"},"vehicle_type_id":"4","last_reported":1734433667,"current_range_meters":37600,"station_id":"ce4bhih2rcd13ifvqfr0","pricing_plan_id":"cebpf4jnsgd1na2vs0mg"},{"bike_id":"1b35c38b-b763-472e-ab0e-c507ff9dd034","system_id":"levelo_inurba_marseille","lat":43.26193,"lon":5.37444,"is_reserved":false,"is_disabled":false,"rental_uris":{"android":"levelo://app?vid=1b35c38b-b763-472e-ab0e-c507ff9dd034","ios":"levelo://app?vid=1b35c38b-b763-472e-ab0e-c507ff9dd034"},"vehicle_type_id":"4","last_reported":1734433667,"current_range_meters":36000,"station_id":"ce4bhgp2rcd13ifvqfc0","pricing_plan_id":"cebpf4jnsgd1na2vs0mg"},{"bike_id":"357496ad-ca9a-4100-b6b8-6905a2d42768","system_id":"levelo_inurba_marseille","lat":43.28997,"lon":5.35611,"is_reserved":false,"is_disabled":false,"rental_uris":{"android":"levelo://app?vid=357496ad-ca9a-4100-b6b8-6905a2d42768","ios":"levelo://app?vid=357496ad-ca9a-4100-b6b8-6905a2d42768"},"vehicle_type_id":"4","last_reported":1734433667,"current_range_meters":38000,"station_id":"ce4bhb92rcd13ifvqen0","pricing_plan_id":"cebpf4jnsgd1na2vs0mg"},{"bike_id":"5a2daf4b-5018-4575-b909-272bf976b2a3","system_id":"levelo_inurba_marseille","lat":43.30308,"lon":5.36907,"is_reserved":false,"is_disabled":false,"rental_uris":{"android":"levelo://app?vid=5a2daf4b-5018-4575-b909-272bf976b2a3","ios":"levelo://app?vid=5a2daf4b-5018-4575-b909-272bf976b2a3"},"vehicle_type_id":"4","last_reported":1734433667,"current_range_meters":27200,"station_id":"ce4bgqh2rcd13ifvqc5g","pricing_plan_id":"cebpf4jnsgd1na2vs0mg"},{"bike_id":"491c9d1e-d534-4418-8bdc-23649286cf0b","system_id":"levelo_inurba_marseille","lat":43.24395,"lon":5.37059,"is_reserved":false,"is_disabled":false,"rental_uris":{"android":"levelo://app?vid=491c9d1e-d534-4418-8bdc-23649286cf0b","ios":"levelo://app?vid=491c9d1e-d534-4418-8bdc-23649286cf0b"},"vehicle_type_id":"4","last_reported":1734433667,"current_range_meters":29600,"station_id":"ce4bhhh2rcd13ifvqfk0","pricing_plan_id":"cebpf4jnsgd1na2vs0mg"},{"bike_id":"a1c1fbba-9f8b-4e55-a7e6-e3031108193b","system_id":"levelo_inurba_marseille","lat":43.29841,"lon":5.36264,"is_reserved":false,"is_disabled":false,"rental_uris":{"android":"levelo://app?vid=a1c1fbba-9f8b-4e55-a7e6-e3031108193b","ios":"levelo://app?vid=a1c1fbba-9f8b-4e55-a7e6-e3031108193b"},"vehicle_type_id":"4","last_reported":1734433667,"current_range_meters":38800,"station_id":"ce4bgpp2rcd13ifvqc3g","pricing_plan_id":"cebpf4jnsgd1na2vs0mg"},{"bike_id":"628ebc57-49da-4537-b862-e631ecd1aef0","system_id":"levelo_inurba_marseille","lat":43.2842,"lon":5.35002,"is_reserved":false,"is_disabled":false,"rental_uris":{"android":"levelo://app?vid=628ebc57-49da-4537-b862-e631ecd1aef0","ios":"levelo://app?vid=628ebc57-49da-4537-b862-e631ecd1aef0"},"vehicle_type_id":"4","last_reported":1734433667,"current_range_meters":36400,"station_id":"ce4bhbh2rcd13ifvqepg","pricing_plan_id":"cebpf4jnsgd1na2vs0mg"},{"bike_id":"76b85fd9-94a8-4d27-9836-3b405519d0c6","system_id":"levelo_inurba_marseille","lat":43.269415,"lon":5.38648,"is_reserved":false,"is_disabled":false,"rental_uris":{"android":"levelo://app?vid=76b85fd9-94a8-4d27-9836-3b405519d0c6","ios":"levelo://app?vid=76b85fd9-94a8-4d27-9836-3b405519d0c6"},"vehicle_type_id":"4","last_reported":1734433667,"current_range_meters":36800,"station_id":"ce4bhh92rcd13ifvqfh0","pricing_plan_id":"cebpf4jnsgd1na2vs0mg"},{"bike_id":"d7555f75-e3a4-4132-831d-4d469450cbaf","system_id":"levelo_inurba_marseille","lat":43.30186,"lon":5.36622,"is_reserved":false,"is_disabled":false,"rental_uris":{"android":"levelo://app?vid=d7555f75-e3a4-4132-831d-4d469450cbaf","ios":"levelo://app?vid=d7555f75-e3a4-4132-831d-4d469450cbaf"},"vehicle_type_id":"4","last_reported":1734433667,"current_range_meters":22400,"station_id":"ce4bgrh2rcd13ifvqc8g","pricing_plan_id":"cebpf4jnsgd1na2vs0mg"},{"bike_id":"1656f9ab-fd26-4a85-868e-4a7e014a2c11","system_id":"levelo_inurba_marseille","lat":43.30274,"lon":5.37697,"is_reserved":false,"is_disabled":false,"rental_uris":{"android":"levelo://app?vid=1656f9ab-fd26-4a85-868e-4a7e014a2c11","ios":"levelo://app?vid=1656f9ab-fd26-4a85-868e-4a7e014a2c11"},"vehicle_type_id":"4","last_reported":1734433667,"current_range_meters":36800,"station_id":"ce4bguh2rcd13ifvqcj0","pricing_plan_id":"cebpf4jnsgd1na2vs0mg"},{"bike_id":"76cd01b6-e882-46bc-bc57-b1b40fc28a5e","system_id":"levelo_inurba_marseille","lat":43.2509,"lon":5.39486,"is_reserved":false,"is_disabled":false,"rental_uris":{"android":"levelo://app?vid=76cd01b6-e882-46bc-bc57-b1b40fc28a5e","ios":"levelo://app?vid=76cd01b6-e882-46bc-bc57-b1b40fc28a5e"},"vehicle_type_id":"4","last_reported":1734433667,"current_range_meters":33200,"station_id":"ce4bhm12rcd13ifvqgkg","pricing_plan_id":"cebpf4jnsgd1na2vs0mg"},{"bike_id":"d283b9e9-469d-4791-9530-ca9134c5a01e","system_id":"levelo_inurba_marseille","lat":43.27045,"lon":5.40284,"is_reserved":false,"is_disabled":false,"rental_uris":{"android":"levelo://app?vid=d283b9e9-469d-4791-9530-ca9134c5a01e","ios":"levelo://app?vid=d283b9e9-469d-4791-9530-ca9134c5a01e"},"vehicle_type_id":"4","last_reported":1734433667,"current_range_meters":27200,"station_id":"ce4bhk92rcd13ifvqgc0","pricing_plan_id":"cebpf4jnsgd1na2vs0mg"},{"bike_id":"8260ede8-ac66-4a56-bba5-bb99589211b3","system_id":"levelo_inurba_marseille","lat":43.30321,"lon":5.40435,"is_reserved":false,"is_disabled":false,"rental_uris":{"android":"levelo://app?vid=8260ede8-ac66-4a56-bba5-bb99589211b3","ios":"levelo://app?vid=8260ede8-ac66-4a56-bba5-bb99589211b3"},"vehicle_type_id":"4","last_reported":1734433667,"current_range_meters":38800,"station_id":"ce4bh012rcd13ifvqd10","pricing_plan_id":"cebpf4jnsgd1na2vs0mg"},{"bike_id":"3efdec17-64da-40d2-8462-4d5ce1797b2e","system_id":"levelo_inurba_marseille","lat":43.26938,"lon":5.38641,"is_reserved":false,"is_disabled":false,"rental_uris":{"android":"levelo://app?vid=3efdec17-64da-40d2-8462-4d5ce1797b2e","ios":"levelo://app?vid=3efdec17-64da-40d2-8462-4d5ce1797b2e"},"vehicle_type_id":"4","last_reported":1734433667,"current_range_meters":20800,"station_id":"ce4bhh92rcd13ifvqfh0","pricing_plan_id":"cebpf4jnsgd1na2vs0mg"},{"bike_id":"6f8392b8-dc79-45d6-a5f6-87062623c3af","system_id":"levelo_inurba_marseille","lat":43.24805,"lon":5.37475,"is_reserved":false,"is_disabled":false,"rental_uris":{"android":"levelo://app?vid=6f8392b8-dc79-45d6-a5f6-87062623c3af","ios":"levelo://app?vid=6f8392b8-dc79-45d6-a5f6-87062623c3af"},"vehicle_type_id":"4","last_reported":1734433667,"current_range_meters":38800,"station_id":"ce4bhgh2rcd13ifvqfb0","pricing_plan_id":"cebpf4jnsgd1na2vs0mg"},{"bike_id":"dcba9df6-8a09-4fc3-a4aa-382137817fb0","system_id":"levelo_inurba_marseille","lat":43.26955,"lon":5.38634,"is_reserved":false,"is_disabled":false,"rental_uris":{"android":"levelo://app?vid=dcba9df6-8a09-4fc3-a4aa-382137817fb0","ios":"levelo://app?vid=dcba9df6-8a09-4fc3-a4aa-382137817fb0"},"vehicle_type_id":"4","last_reported":1734433667,"current_range_meters":13600,"station_id":"ce4bhh92rcd13ifvqfh0","pricing_plan_id":"cebpf4jnsgd1na2vs0mg"},{"bike_id":"b3c803b8-48d9-435d-9a51-01ddee3fbce2","system_id":"levelo_inurba_marseille","lat":43.28863,"lon":5.35862,"is_reserved":false,"is_disabled":false,"rental_uris":{"android":"levelo://app?vid=b3c803b8-48d9-435d-9a51-01ddee3fbce2","ios":"levelo://app?vid=b3c803b8-48d9-435d-9a51-01ddee3fbce2"},"vehicle_type_id":"4","last_reported":1734433667,"current_range_meters":38800,"station_id":"ce4bhb12rcd13ifvqem0","pricing_plan_id":"cebpf4jnsgd1na2vs0mg"},{"bike_id":"a02e3538-cd33-4834-9071-2cc96fbcf2d7","system_id":"levelo_inurba_marseille","lat":43.28435,"lon":5.39207,"is_reserved":false,"is_disabled":false,"rental_uris":{"android":"levelo://app?vid=a02e3538-cd33-4834-9071-2cc96fbcf2d7","ios":"levelo://app?vid=a02e3538-cd33-4834-9071-2cc96fbcf2d7"},"vehicle_type_id":"4","last_reported":1734433667,"current_range_meters":38000,"station_id":"ce4bhoh2rcd13ifvqh5g","pricing_plan_id":"cebpf4jnsgd1na2vs0mg"},{"bike_id":"0ab4862f-a456-484f-a4d6-3cb41f0d5582","system_id":"levelo_inurba_marseille","lat":43.28036,"lon":5.36941,"is_reserved":false,"is_disabled":false,"rental_uris":{"android":"levelo://app?vid=0ab4862f-a456-484f-a4d6-3cb41f0d5582","ios":"levelo://app?vid=0ab4862f-a456-484f-a4d6-3cb41f0d5582"},"vehicle_type_id":"4","last_reported":1734433667,"current_range_meters":10000,"station_id":"ce4bha12rcd13ifvqef0","pricing_plan_id":"cebpf4jnsgd1na2vs0mg"},{"bike_id":"5ddaa923-2930-4172-a73b-d154671112ec","system_id":"levelo_inurba_marseille","lat":43.30105,"lon":5.39084,"is_reserved":false,"is_disabled":false,"rental_uris":{"android":"levelo://app?vid=5ddaa923-2930-4172-a73b-d154671112ec","ios":"levelo://app?vid=5ddaa923-2930-4172-a73b-d154671112ec"},"vehicle_type_id":"4","last_reported":1734433667,"current_range_meters":38400,"station_id":"ce4bh192rcd13ifvqdb0","pricing_plan_id":"cebpf4jnsgd1na2vs0mg"},{"bike_id":"69de75c4-2e55-4faf-8b20-446ae17d2968","system_id":"levelo_inurba_marseille","lat":43.28356,"lon":5.38106,"is_reserved":false,"is_disabled":false,"rental_uris":{"android":"levelo://app?vid=69de75c4-2e55-4faf-8b20-446ae17d2968","ios":"levelo://app?vid=69de75c4-2e55-4faf-8b20-446ae17d2968"},"vehicle_type_id":"4","last_reported":1734433667,"current_range_meters":24800,"station_id":"ce4bh412rcd13ifvqdr0","pricing_plan_id":"cebpf4jnsgd1na2vs0mg"},{"bike_id":"ebef13cd-16d0-4396-9ebc-078adb879fe9","system_id":"levelo_inurba_marseille","lat":43.29844,"lon":5.3629,"is_reserved":false,"is_disabled":false,"rental_uris":{"android":"levelo://app?vid=ebef13cd-16d0-4396-9ebc-078adb879fe9","ios":"levelo://app?vid=ebef13cd-16d0-4396-9ebc-078adb879fe9"},"vehicle_type_id":"4","last_reported":1734433667,"current_range_meters":38000,"station_id":"ce4bgpp2rcd13ifvqc3g","pricing_plan_id":"cebpf4jnsgd1na2vs0mg"},{"bike_id":"49576a8e-1c5a-4635-86b7-1f78190e351d","system_id":"levelo_inurba_marseille","lat":43.29903,"lon":5.3655,"is_reserved":false,"is_disabled":true,"rental_uris":{"android":"levelo://app?vid=49576a8e-1c5a-4635-86b7-1f78190e351d","ios":"levelo://app?vid=49576a8e-1c5a-4635-86b7-1f78190e351d"},"vehicle_type_id":"4","last_reported":1734433667,"current_range_meters":33600,"station_id":"ce4bgm92rcd13ifvqbr0","pricing_plan_id":"cebpf4jnsgd1na2vs0mg"},{"bike_id":"2145d229-7839-4ece-b3f9-3d679533add2","system_id":"levelo_inurba_marseille","lat":43.33746,"lon":5.374741,"is_reserved":false,"is_disabled":true,"rental_uris":{"android":"levelo://app?vid=2145d229-7839-4ece-b3f9-3d679533add2","ios":"levelo://app?vid=2145d229-7839-4ece-b3f9-3d679533add2"},"vehicle_type_id":"4","last_reported":1734433667,"current_range_meters":30000,"station_id":"","pricing_plan_id":"cebpf4jnsgd1na2vs0mg"},{"bike_id":"f0648bce-be14-4a18-bfde-65f1ef8de5f1","system_id":"levelo_inurba_marseille","lat":43.26915,"lon":5.38636,"is_reserved":false,"is_disabled":false,"rental_uris":{"android":"levelo://app?vid=f0648bce-be14-4a18-bfde-65f1ef8de5f1","ios":"levelo://app?vid=f0648bce-be14-4a18-bfde-65f1ef8de5f1"},"vehicle_type_id":"4","last_reported":1734433667,"current_range_meters":38800,"station_id":"ce4bhh92rcd13ifvqfh0","pricing_plan_id":"cebpf4jnsgd1na2vs0mg"},{"bike_id":"3f388572-c982-4c5c-abb7-511560647ed0","system_id":"levelo_inurba_marseille","lat":43.30884,"lon":5.3966,"is_reserved":false,"is_disabled":false,"rental_uris":{"android":"levelo://app?vid=3f388572-c982-4c5c-abb7-511560647ed0","ios":"levelo://app?vid=3f388572-c982-4c5c-abb7-511560647ed0"},"vehicle_type_id":"4","last_reported":1734433667,"current_range_meters":2000,"station_id":"ce4bh012rcd13ifvqcv0","pricing_plan_id":"cebpf4jnsgd1na2vs0mg"},{"bike_id":"8544c0a0-3510-415b-b7f1-615184cba56f","system_id":"levelo_inurba_marseille","lat":43.29471,"lon":5.36234,"is_reserved":false,"is_disabled":false,"rental_uris":{"android":"levelo://app?vid=8544c0a0-3510-415b-b7f1-615184cba56f","ios":"levelo://app?vid=8544c0a0-3510-415b-b7f1-615184cba56f"},"vehicle_type_id":"4","last_reported":1734433667,"current_range_meters":4400,"station_id":"","pricing_plan_id":"cebpf4jnsgd1na2vs0mg"},{"bike_id":"d3fe7bd0-1bc4-43e4-a8ec-bdc7d47efcac","system_id":"levelo_inurba_marseille","lat":43.29592,"lon":5.38109,"is_reserved":false,"is_disabled":false,"rental_uris":{"android":"levelo://app?vid=d3fe7bd0-1bc4-43e4-a8ec-bdc7d47efcac","ios":"levelo://app?vid=d3fe7bd0-1bc4-43e4-a8ec-bdc7d47efcac"},"vehicle_type_id":"4","last_reported":1734433667,"current_range_meters":28800,"station_id":"ce4bgl12rcd13ifvqbo0","pricing_plan_id":"cebpf4jnsgd1na2vs0mg"},{"bike_id":"bbfef658-8ce2-4da4-b2f8-354d76f3cf2f","system_id":"levelo_inurba_marseille","lat":43.309463,"lon":5.39038,"is_reserved":false,"is_disabled":false,"rental_uris":{"android":"levelo://app?vid=bbfef658-8ce2-4da4-b2f8-354d76f3cf2f","ios":"levelo://app?vid=bbfef658-8ce2-4da4-b2f8-354d76f3cf2f"},"vehicle_type_id":"4","last_reported":1734433667,"current_range_meters":38800,"station_id":"ce4bgup2rcd13ifvqco0","pricing_plan_id":"cebpf4jnsgd1na2vs0mg"},{"bike_id":"a05fac21-a78b-4e1b-9e08-ed1afb81896d","system_id":"levelo_inurba_marseille","lat":43.30151,"lon":5.37417,"is_reserved":false,"is_disabled":false,"rental_uris":{"android":"levelo://app?vid=a05fac21-a78b-4e1b-9e08-ed1afb81896d","ios":"levelo://app?vid=a05fac21-a78b-4e1b-9e08-ed1afb81896d"},"vehicle_type_id":"4","last_reported":1734433667,"current_range_meters":5600,"station_id":"ce4bgs92rcd13ifvqcc0","pricing_plan_id":"cebpf4jnsgd1na2vs0mg"},{"bike_id":"59f3f0ba-2ef1-403f-885d-6f5b1ea4c104","system_id":"levelo_inurba_marseille","lat":43.29064,"lon":5.35914,"is_reserved":false,"is_disabled":false,"rental_uris":{"android":"levelo://app?vid=59f3f0ba-2ef1-403f-885d-6f5b1ea4c104","ios":"levelo://app?vid=59f3f0ba-2ef1-403f-885d-6f5b1ea4c104"},"vehicle_type_id":"4","last_reported":1734433667,"current_range_meters":35200,"station_id":"ce4bha92rcd13ifvqeg0","pricing_plan_id":"cebpf4jnsgd1na2vs0mg"},{"bike_id":"78f5dcee-b6ca-4cfa-ae6f-ebcf64be1236","system_id":"levelo_inurba_marseille","lat":43.323431,"lon":5.406204,"is_reserved":false,"is_disabled":true,"rental_uris":{"android":"levelo://app?vid=78f5dcee-b6ca-4cfa-ae6f-ebcf64be1236","ios":"levelo://app?vid=78f5dcee-b6ca-4cfa-ae6f-ebcf64be1236"},"vehicle_type_id":"4","last_reported":1734433667,"current_range_meters":0,"station_id":"ce4bhq92rcd13ifvqhjg","pricing_plan_id":"cebpf4jnsgd1na2vs0mg"},{"bike_id":"d1adb045-11f4-4330-9d2b-f77d89c262d4","system_id":"levelo_inurba_marseille","lat":43.29309,"lon":5.37185,"is_reserved":false,"is_disabled":true,"rental_uris":{"android":"levelo://app?vid=d1adb045-11f4-4330-9d2b-f77d89c262d4","ios":"levelo://app?vid=d1adb045-11f4-4330-9d2b-f77d89c262d4"},"vehicle_type_id":"4","last_reported":1734433667,"current_range_meters":37600,"station_id":"ce4bgh92rcd13ifvqb40","pricing_plan_id":"cebpf4jnsgd1na2vs0mg"},{"bike_id":"44db48ef-81f5-4bd4-b576-ffe92dc77ac1","system_id":"levelo_inurba_marseille","lat":43.27078,"lon":5.42284,"is_reserved":false,"is_disabled":false,"rental_uris":{"android":"levelo://app?vid=44db48ef-81f5-4bd4-b576-ffe92dc77ac1","ios":"levelo://app?vid=44db48ef-81f5-4bd4-b576-ffe92dc77ac1"},"vehicle_type_id":"4","last_reported":1734433667,"current_range_meters":20800,"station_id":"ce4bhk92rcd13ifvqgb0","pricing_plan_id":"cebpf4jnsgd1na2vs0mg"},{"bike_id":"465d9142-d766-4100-b771-8274207478b5","system_id":"levelo_inurba_marseille","lat":43.25862,"lon":5.39913,"is_reserved":false,"is_disabled":false,"rental_uris":{"android":"levelo://app?vid=465d9142-d766-4100-b771-8274207478b5","ios":"levelo://app?vid=465d9142-d766-4100-b771-8274207478b5"},"vehicle_type_id":"4","last_reported":1734433667,"current_range_meters":38800,"station_id":"ce4bhl92rcd13ifvqghg","pricing_plan_id":"cebpf4jnsgd1na2vs0mg"},{"bike_id":"bfbabb6f-cbcf-4a00-ac65-d6345a496269","system_id":"levelo_inurba_marseille","lat":43.30545,"lon":5.36527,"is_reserved":false,"is_disabled":false,"rental_uris":{"android":"levelo://app?vid=bfbabb6f-cbcf-4a00-ac65-d6345a496269","ios":"levelo://app?vid=bfbabb6f-cbcf-4a00-ac65-d6345a496269"},"vehicle_type_id":"4","last_reported":1734433667,"current_range_meters":19600,"station_id":"ce4bgs12rcd13ifvqcag","pricing_plan_id":"cebpf4jnsgd1na2vs0mg"},{"bike_id":"55e10bfc-798b-48b7-9661-2ee0b769abeb","system_id":"levelo_inurba_marseille","lat":43.30534,"lon":5.38436,"is_reserved":false,"is_disabled":false,"rental_uris":{"android":"levelo://app?vid=55e10bfc-798b-48b7-9661-2ee0b769abeb","ios":"levelo://app?vid=55e10bfc-798b-48b7-9661-2ee0b769abeb"},"vehicle_type_id":"4","last_reported":1734433667,"current_range_meters":38800,"station_id":"ce4bgg92rcd13ifvqb30","pricing_plan_id":"cebpf4jnsgd1na2vs0mg"},{"bike_id":"d43b2b09-48e9-4243-afe9-f671a1060a3a","system_id":"levelo_inurba_marseille","lat":43.29313,"lon":5.37176,"is_reserved":false,"is_disabled":false,"rental_uris":{"android":"levelo://app?vid=d43b2b09-48e9-4243-afe9-f671a1060a3a","ios":"levelo://app?vid=d43b2b09-48e9-4243-afe9-f671a1060a3a"},"vehicle_type_id":"4","last_reported":1734433667,"current_range_meters":38800,"station_id":"ce4bgh92rcd13ifvqb40","pricing_plan_id":"cebpf4jnsgd1na2vs0mg"},{"bike_id":"6b8141dc-ae1c-4820-be3f-de92d472a83f","system_id":"levelo_inurba_marseille","lat":43.26944,"lon":5.38639,"is_reserved":false,"is_disabled":false,"rental_uris":{"android":"levelo://app?vid=6b8141dc-ae1c-4820-be3f-de92d472a83f","ios":"levelo://app?vid=6b8141dc-ae1c-4820-be3f-de92d472a83f"},"vehicle_type_id":"4","last_reported":1734433667,"current_range_meters":38800,"station_id":"ce4bhh92rcd13ifvqfh0","pricing_plan_id":"cebpf4jnsgd1na2vs0mg"},{"bike_id":"9a9ca54f-8f83-4db0-b780-a7eb0fa7f88d","system_id":"levelo_inurba_marseille","lat":43.26027,"lon":5.37551,"is_reserved":false,"is_disabled":false,"rental_uris":{"android":"levelo://app?vid=9a9ca54f-8f83-4db0-b780-a7eb0fa7f88d","ios":"levelo://app?vid=9a9ca54f-8f83-4db0-b780-a7eb0fa7f88d"},"vehicle_type_id":"4","last_reported":1734433667,"current_range_meters":37600,"station_id":"ce4bhgh2rcd13ifvqfa0","pricing_plan_id":"cebpf4jnsgd1na2vs0mg"},{"bike_id":"c95988c2-c8eb-41d0-876d-7ef83f3c500e","system_id":"levelo_inurba_marseille","lat":43.24385,"lon":5.37065,"is_reserved":false,"is_disabled":false,"rental_uris":{"android":"levelo://app?vid=c95988c2-c8eb-41d0-876d-7ef83f3c500e","ios":"levelo://app?vid=c95988c2-c8eb-41d0-876d-7ef83f3c500e"},"vehicle_type_id":"4","last_reported":1734433667,"current_range_meters":38800,"station_id":"ce4bhhh2rcd13ifvqfk0","pricing_plan_id":"cebpf4jnsgd1na2vs0mg"},{"bike_id":"d0ca391f-2284-4a21-9f70-07a8c21ff454","system_id":"levelo_inurba_marseille","lat":43.29559,"lon":5.4227,"is_reserved":false,"is_disabled":true,"rental_uris":{"android":"levelo://app?vid=d0ca391f-2284-4a21-9f70-07a8c21ff454","ios":"levelo://app?vid=d0ca391f-2284-4a21-9f70-07a8c21ff454"},"vehicle_type_id":"4","last_reported":1734433667,"current_range_meters":35600,"station_id":"ce4bhph2rcd13ifvqhdg","pricing_plan_id":"cebpf4jnsgd1na2vs0mg"},{"bike_id":"94266e61-9934-4ba0-84c4-e6f06169c812","system_id":"levelo_inurba_marseille","lat":43.30133,"lon":5.37413,"is_reserved":false,"is_disabled":false,"rental_uris":{"android":"levelo://app?vid=94266e61-9934-4ba0-84c4-e6f06169c812","ios":"levelo://app?vid=94266e61-9934-4ba0-84c4-e6f06169c812"},"vehicle_type_id":"4","last_reported":1734433667,"current_range_meters":19200,"station_id":"ce4bgs92rcd13ifvqcc0","pricing_plan_id":"cebpf4jnsgd1na2vs0mg"},{"bike_id":"2fb89adf-305b-43ac-b40a-b2c625a19cf4","system_id":"levelo_inurba_marseille","lat":43.24656,"lon":5.38898,"is_reserved":false,"is_disabled":false,"rental_uris":{"android":"levelo://app?vid=2fb89adf-305b-43ac-b40a-b2c625a19cf4","ios":"levelo://app?vid=2fb89adf-305b-43ac-b40a-b2c625a19cf4"},"vehicle_type_id":"4","last_reported":1734433667,"current_range_meters":20800,"station_id":"ce4bhg12rcd13ifvqf60","pricing_plan_id":"cebpf4jnsgd1na2vs0mg"},{"bike_id":"c219a7df-ad09-4d1f-888c-f951431d2cc1","system_id":"levelo_inurba_marseille","lat":43.28277,"lon":5.35073,"is_reserved":false,"is_disabled":false,"rental_uris":{"android":"levelo://app?vid=c219a7df-ad09-4d1f-888c-f951431d2cc1","ios":"levelo://app?vid=c219a7df-ad09-4d1f-888c-f951431d2cc1"},"vehicle_type_id":"4","last_reported":1734433667,"current_range_meters":36400,"station_id":"ce4bhbp2rcd13ifvqerg","pricing_plan_id":"cebpf4jnsgd1na2vs0mg"},{"bike_id":"bdf3034e-62b9-4ee0-8cec-ae18930d0c4b","system_id":"levelo_inurba_marseille","lat":43.26667,"lon":5.3828,"is_reserved":false,"is_disabled":false,"rental_uris":{"android":"levelo://app?vid=bdf3034e-62b9-4ee0-8cec-ae18930d0c4b","ios":"levelo://app?vid=bdf3034e-62b9-4ee0-8cec-ae18930d0c4b"},"vehicle_type_id":"4","last_reported":1734433667,"current_range_meters":33200,"station_id":"ce4bhg92rcd13ifvqf90","pricing_plan_id":"cebpf4jnsgd1na2vs0mg"},{"bike_id":"4282f469-67ae-42e2-a1c8-b52bfdc89412","system_id":"levelo_inurba_marseille","lat":43.28153,"lon":5.4265,"is_reserved":false,"is_disabled":false,"rental_uris":{"android":"levelo://app?vid=4282f469-67ae-42e2-a1c8-b52bfdc89412","ios":"levelo://app?vid=4282f469-67ae-42e2-a1c8-b52bfdc89412"},"vehicle_type_id":"4","last_reported":1734433667,"current_range_meters":30400,"station_id":"ce4bhnh2rcd13ifvqgug","pricing_plan_id":"cebpf4jnsgd1na2vs0mg"},{"bike_id":"0f90b2d8-6060-4a63-9e02-9f32c1e1e379","system_id":"levelo_inurba_marseille","lat":43.30204,"lon":5.39471,"is_reserved":false,"is_disabled":false,"rental_uris":{"android":"levelo://app?vid=0f90b2d8-6060-4a63-9e02-9f32c1e1e379","ios":"levelo://app?vid=0f90b2d8-6060-4a63-9e02-9f32c1e1e379"},"vehicle_type_id":"4","last_reported":1734433667,"current_range_meters":38800,"station_id":"ce4bh0p2rcd13ifvqd70","pricing_plan_id":"cebpf4jnsgd1na2vs0mg"},{"bike_id":"d3e743ee-8c3f-4efd-b466-f9c21ea0dbee","system_id":"levelo_inurba_marseille","lat":43.32358,"lon":5.41453,"is_reserved":false,"is_disabled":false,"rental_uris":{"android":"levelo://app?vid=d3e743ee-8c3f-4efd-b466-f9c21ea0dbee","ios":"levelo://app?vid=d3e743ee-8c3f-4efd-b466-f9c21ea0dbee"},"vehicle_type_id":"4","last_reported":1734433667,"current_range_meters":34000,"station_id":"","pricing_plan_id":"cebpf4jnsgd1na2vs0mg"},{"bike_id":"55eea66e-096e-4f60-aa22-9af0806b204b","system_id":"levelo_inurba_marseille","lat":43.26492,"lon":5.39566,"is_reserved":false,"is_disabled":false,"rental_uris":{"android":"levelo://app?vid=55eea66e-096e-4f60-aa22-9af0806b204b","ios":"levelo://app?vid=55eea66e-096e-4f60-aa22-9af0806b204b"},"vehicle_type_id":"4","last_reported":1734433667,"current_range_meters":24800,"station_id":"ce4bhi12rcd13ifvqfq0","pricing_plan_id":"cebpf4jnsgd1na2vs0mg"},{"bike_id":"1c06df37-cafa-447f-bba3-6451f09547fe","system_id":"levelo_inurba_marseille","lat":43.30547,"lon":5.36512,"is_reserved":false,"is_disabled":false,"rental_uris":{"android":"levelo://app?vid=1c06df37-cafa-447f-bba3-6451f09547fe","ios":"levelo://app?vid=1c06df37-cafa-447f-bba3-6451f09547fe"},"vehicle_type_id":"4","last_reported":1734433667,"current_range_meters":38800,"station_id":"ce4bgs12rcd13ifvqcag","pricing_plan_id":"cebpf4jnsgd1na2vs0mg"},{"bike_id":"6160836a-3486-4d8f-a717-72d2b5b8e084","system_id":"levelo_inurba_marseille","lat":43.30154,"lon":5.38077,"is_reserved":false,"is_disabled":false,"rental_uris":{"android":"levelo://app?vid=6160836a-3486-4d8f-a717-72d2b5b8e084","ios":"levelo://app?vid=6160836a-3486-4d8f-a717-72d2b5b8e084"},"vehicle_type_id":"4","last_reported":1734433667,"current_range_meters":33200,"station_id":"ce4bgjp2rcd13ifvqbh0","pricing_plan_id":"cebpf4jnsgd1na2vs0mg"},{"bike_id":"32b37b82-b300-4d71-b41a-0fea80e1e694","system_id":"levelo_inurba_marseille","lat":43.27945,"lon":5.41055,"is_reserved":false,"is_disabled":false,"rental_uris":{"android":"levelo://app?vid=32b37b82-b300-4d71-b41a-0fea80e1e694","ios":"levelo://app?vid=32b37b82-b300-4d71-b41a-0fea80e1e694"},"vehicle_type_id":"4","last_reported":1734433667,"current_range_meters":17200,"station_id":"ce4bhnp2rcd13ifvqh0g","pricing_plan_id":"cebpf4jnsgd1na2vs0mg"},{"bike_id":"c8399855-72d4-4f25-aa5a-52a18924a7b8","system_id":"levelo_inurba_marseille","lat":43.24164,"lon":5.36383,"is_reserved":false,"is_disabled":false,"rental_uris":{"android":"levelo://app?vid=c8399855-72d4-4f25-aa5a-52a18924a7b8","ios":"levelo://app?vid=c8399855-72d4-4f25-aa5a-52a18924a7b8"},"vehicle_type_id":"4","last_reported":1734433667,"current_range_meters":11200,"station_id":"cpo36qri1sfpv3e86is0","pricing_plan_id":"cebpf4jnsgd1na2vs0mg"},{"bike_id":"e5405d64-38de-4a5c-99ce-858cf83d090f","system_id":"levelo_inurba_marseille","lat":43.290704,"lon":5.371703,"is_reserved":false,"is_disabled":false,"rental_uris":{"android":"levelo://app?vid=e5405d64-38de-4a5c-99ce-858cf83d090f","ios":"levelo://app?vid=e5405d64-38de-4a5c-99ce-858cf83d090f"},"vehicle_type_id":"4","last_reported":1734433667,"current_range_meters":38800,"station_id":"ce4bh5p2rcd13ifvqe4g","pricing_plan_id":"cebpf4jnsgd1na2vs0mg"},{"bike_id":"227dfb1a-bed9-474c-a4ab-2e6a7d817a6d","system_id":"levelo_inurba_marseille","lat":43.30959,"lon":5.39039,"is_reserved":false,"is_disabled":true,"rental_uris":{"android":"levelo://app?vid=227dfb1a-bed9-474c-a4ab-2e6a7d817a6d","ios":"levelo://app?vid=227dfb1a-bed9-474c-a4ab-2e6a7d817a6d"},"vehicle_type_id":"4","last_reported":1734433667,"current_range_meters":28400,"station_id":"ce4bgup2rcd13ifvqco0","pricing_plan_id":"cebpf4jnsgd1na2vs0mg"},{"bike_id":"856a6bd1-4357-4db7-a4e2-9aef5a52b6e3","system_id":"levelo_inurba_marseille","lat":43.30633,"lon":5.40071,"is_reserved":false,"is_disabled":false,"rental_uris":{"android":"levelo://app?vid=856a6bd1-4357-4db7-a4e2-9aef5a52b6e3","ios":"levelo://app?vid=856a6bd1-4357-4db7-a4e2-9aef5a52b6e3"},"vehicle_type_id":"4","last_reported":1734433667,"current_range_meters":39200,"station_id":"ce4bh112rcd13ifvqda0","pricing_plan_id":"cebpf4jnsgd1na2vs0mg"},{"bike_id":"aa8ad162-0fab-44f2-a72b-c4c6288ec375","system_id":"levelo_inurba_marseille","lat":43.24547,"lon":5.39534,"is_reserved":false,"is_disabled":false,"rental_uris":{"android":"levelo://app?vid=aa8ad162-0fab-44f2-a72b-c4c6288ec375","ios":"levelo://app?vid=aa8ad162-0fab-44f2-a72b-c4c6288ec375"},"vehicle_type_id":"4","last_reported":1734433667,"current_range_meters":9200,"station_id":"ce4bhlp2rcd13ifvqgjg","pricing_plan_id":"cebpf4jnsgd1na2vs0mg"},{"bike_id":"5314aefe-f931-4c7d-8b9e-4f6e48fd0640","system_id":"levelo_inurba_marseille","lat":43.30345,"lon":5.4189,"is_reserved":false,"is_disabled":false,"rental_uris":{"android":"levelo://app?vid=5314aefe-f931-4c7d-8b9e-4f6e48fd0640","ios":"levelo://app?vid=5314aefe-f931-4c7d-8b9e-4f6e48fd0640"},"vehicle_type_id":"4","last_reported":1734433667,"current_range_meters":37600,"station_id":"ce4bhop2rcd13ifvqh7g","pricing_plan_id":"cebpf4jnsgd1na2vs0mg"},{"bike_id":"f4c3e2df-21f9-4b94-b06b-917856d2e9e5","system_id":"levelo_inurba_marseille","lat":43.23148,"lon":5.43717,"is_reserved":false,"is_disabled":false,"rental_uris":{"android":"levelo://app?vid=f4c3e2df-21f9-4b94-b06b-917856d2e9e5","ios":"levelo://app?vid=f4c3e2df-21f9-4b94-b06b-917856d2e9e5"},"vehicle_type_id":"4","last_reported":1734433667,"current_range_meters":30400,"station_id":"ce4bhmp2rcd13ifvqgog","pricing_plan_id":"cebpf4jnsgd1na2vs0mg"},{"bike_id":"b3437820-fff1-40e3-8bc3-3a2cab1bc520","system_id":"levelo_inurba_marseille","lat":43.29511,"lon":5.37496,"is_reserved":false,"is_disabled":false,"rental_uris":{"android":"levelo://app?vid=b3437820-fff1-40e3-8bc3-3a2cab1bc520","ios":"levelo://app?vid=b3437820-fff1-40e3-8bc3-3a2cab1bc520"},"vehicle_type_id":"4","last_reported":1734433667,"current_range_meters":36800,"station_id":"ce4bgkp2rcd13ifvqbmg","pricing_plan_id":"cebpf4jnsgd1na2vs0mg"},{"bike_id":"baa64ce6-a47c-4237-a875-11258c853f53","system_id":"levelo_inurba_marseille","lat":43.33718,"lon":5.39202,"is_reserved":false,"is_disabled":false,"rental_uris":{"android":"levelo://app?vid=baa64ce6-a47c-4237-a875-11258c853f53","ios":"levelo://app?vid=baa64ce6-a47c-4237-a875-11258c853f53"},"vehicle_type_id":"4","last_reported":1734433667,"current_range_meters":37600,"station_id":"ce4bhr92rcd13ifvqhsg","pricing_plan_id":"cebpf4jnsgd1na2vs0mg"},{"bike_id":"45eed315-4e7b-405c-a074-46441b8dab52","system_id":"levelo_inurba_marseille","lat":43.324617,"lon":5.36586,"is_reserved":false,"is_disabled":false,"rental_uris":{"android":"levelo://app?vid=45eed315-4e7b-405c-a074-46441b8dab52","ios":"levelo://app?vid=45eed315-4e7b-405c-a074-46441b8dab52"},"vehicle_type_id":"4","last_reported":1734433667,"current_range_meters":26800,"station_id":"ce4bhs12rcd13ifvqhvg","pricing_plan_id":"cebpf4jnsgd1na2vs0mg"},{"bike_id":"f1372b2a-55ee-4765-82c4-db590ee444a2","system_id":"levelo_inurba_marseille","lat":43.26803,"lon":5.40265,"is_reserved":false,"is_disabled":false,"rental_uris":{"android":"levelo://app?vid=f1372b2a-55ee-4765-82c4-db590ee444a2","ios":"levelo://app?vid=f1372b2a-55ee-4765-82c4-db590ee444a2"},"vehicle_type_id":"4","last_reported":1734433667,"current_range_meters":38000,"station_id":"ce501612rcd8frsf0b60","pricing_plan_id":"cebpf4jnsgd1na2vs0mg"},{"bike_id":"9c9a0b44-44bc-4963-9814-573d6fe0f10e","system_id":"levelo_inurba_marseille","lat":43.29359,"lon":5.37868,"is_reserved":false,"is_disabled":true,"rental_uris":{"android":"levelo://app?vid=9c9a0b44-44bc-4963-9814-573d6fe0f10e","ios":"levelo://app?vid=9c9a0b44-44bc-4963-9814-573d6fe0f10e"},"vehicle_type_id":"4","last_reported":1734433667,"current_range_meters":31200,"station_id":"ce4bgjh2rcd13ifvqbf0","pricing_plan_id":"cebpf4jnsgd1na2vs0mg"},{"bike_id":"062265ca-bf84-43c1-b6f6-09fd2914a38a","system_id":"levelo_inurba_marseille","lat":43.26783,"lon":5.39418,"is_reserved":false,"is_disabled":false,"rental_uris":{"android":"levelo://app?vid=062265ca-bf84-43c1-b6f6-09fd2914a38a","ios":"levelo://app?vid=062265ca-bf84-43c1-b6f6-09fd2914a38a"},"vehicle_type_id":"4","last_reported":1734433667,"current_range_meters":35200,"station_id":"ce4bhh12rcd13ifvqfg0","pricing_plan_id":"cebpf4jnsgd1na2vs0mg"},{"bike_id":"356b5095-ec83-44d2-99d0-4caa99cd6bd5","system_id":"levelo_inurba_marseille","lat":43.259322,"lon":5.409124,"is_reserved":false,"is_disabled":false,"rental_uris":{"android":"levelo://app?vid=356b5095-ec83-44d2-99d0-4caa99cd6bd5","ios":"levelo://app?vid=356b5095-ec83-44d2-99d0-4caa99cd6bd5"},"vehicle_type_id":"4","last_reported":1734433667,"current_range_meters":28400,"station_id":"ce4bhm92rcd13ifvqglg","pricing_plan_id":"cebpf4jnsgd1na2vs0mg"},{"bike_id":"2437685b-f252-4e0b-a763-aa9525792b61","system_id":"levelo_inurba_marseille","lat":43.29195,"lon":5.35809,"is_reserved":false,"is_disabled":false,"rental_uris":{"android":"levelo://app?vid=2437685b-f252-4e0b-a763-aa9525792b61","ios":"levelo://app?vid=2437685b-f252-4e0b-a763-aa9525792b61"},"vehicle_type_id":"4","last_reported":1734433667,"current_range_meters":37600,"station_id":"","pricing_plan_id":"cebpf4jnsgd1na2vs0mg"},{"bike_id":"fafd257e-d2d3-46c7-8b43-5caae1f12554","system_id":"levelo_inurba_marseille","lat":43.2952,"lon":5.39041,"is_reserved":false,"is_disabled":false,"rental_uris":{"android":"levelo://app?vid=fafd257e-d2d3-46c7-8b43-5caae1f12554","ios":"levelo://app?vid=fafd257e-d2d3-46c7-8b43-5caae1f12554"},"vehicle_type_id":"4","last_reported":1734433667,"current_range_meters":36400,"station_id":"ce4bh3p2rcd13ifvqdp0","pricing_plan_id":"cebpf4jnsgd1na2vs0mg"},{"bike_id":"a8f22455-98d4-4c95-b28d-f657875e5dc5","system_id":"levelo_inurba_marseille","lat":43.26679,"lon":5.38281,"is_reserved":false,"is_disabled":false,"rental_uris":{"android":"levelo://app?vid=a8f22455-98d4-4c95-b28d-f657875e5dc5","ios":"levelo://app?vid=a8f22455-98d4-4c95-b28d-f657875e5dc5"},"vehicle_type_id":"4","last_reported":1734433667,"current_range_meters":18000,"station_id":"ce4bhg92rcd13ifvqf90","pricing_plan_id":"cebpf4jnsgd1na2vs0mg"},{"bike_id":"56f64e70-7e0d-47b6-af09-ff1550842e38","system_id":"levelo_inurba_marseille","lat":43.28658,"lon":5.36357,"is_reserved":false,"is_disabled":false,"rental_uris":{"android":"levelo://app?vid=56f64e70-7e0d-47b6-af09-ff1550842e38","ios":"levelo://app?vid=56f64e70-7e0d-47b6-af09-ff1550842e38"},"vehicle_type_id":"4","last_reported":1734433667,"current_range_meters":20400,"station_id":"ce4bhah2rcd13ifvqej0","pricing_plan_id":"cebpf4jnsgd1na2vs0mg"},{"bike_id":"b2d380e8-08ed-495f-a052-5d7dfa068f5b","system_id":"levelo_inurba_marseille","lat":43.26949,"lon":5.3863,"is_reserved":false,"is_disabled":true,"rental_uris":{"android":"levelo://app?vid=b2d380e8-08ed-495f-a052-5d7dfa068f5b","ios":"levelo://app?vid=b2d380e8-08ed-495f-a052-5d7dfa068f5b"},"vehicle_type_id":"4","last_reported":1734433667,"current_range_meters":0,"station_id":"ce4bhh92rcd13ifvqfh0","pricing_plan_id":"cebpf4jnsgd1na2vs0mg"},{"bike_id":"e8d2f030-03ed-4e57-bb11-98232d104bfa","system_id":"levelo_inurba_marseille","lat":43.278129,"lon":5.407046,"is_reserved":false,"is_disabled":false,"rental_uris":{"android":"levelo://app?vid=e8d2f030-03ed-4e57-bb11-98232d104bfa","ios":"levelo://app?vid=e8d2f030-03ed-4e57-bb11-98232d104bfa"},"vehicle_type_id":"4","last_reported":1734433667,"current_range_meters":20000,"station_id":"ce4bhnh2rcd13ifvqgtg","pricing_plan_id":"cebpf4jnsgd1na2vs0mg"},{"bike_id":"19fc6bf2-d5a1-43c9-b912-c79a7692f6ac","system_id":"levelo_inurba_marseille","lat":43.26676,"lon":5.38263,"is_reserved":false,"is_disabled":false,"rental_uris":{"android":"levelo://app?vid=19fc6bf2-d5a1-43c9-b912-c79a7692f6ac","ios":"levelo://app?vid=19fc6bf2-d5a1-43c9-b912-c79a7692f6ac"},"vehicle_type_id":"4","last_reported":1734433667,"current_range_meters":38800,"station_id":"ce4bhg92rcd13ifvqf90","pricing_plan_id":"cebpf4jnsgd1na2vs0mg"},{"bike_id":"f64ba8ba-600f-46fb-ba95-0ac8bd29392f","system_id":"levelo_inurba_marseille","lat":43.26199,"lon":5.37942,"is_reserved":false,"is_disabled":false,"rental_uris":{"android":"levelo://app?vid=f64ba8ba-600f-46fb-ba95-0ac8bd29392f","ios":"levelo://app?vid=f64ba8ba-600f-46fb-ba95-0ac8bd29392f"},"vehicle_type_id":"4","last_reported":1734433667,"current_range_meters":38000,"station_id":"ce4bhjp2rcd13ifvqg90","pricing_plan_id":"cebpf4jnsgd1na2vs0mg"},{"bike_id":"82f7f145-591c-4ce0-8f76-660882a2845e","system_id":"levelo_inurba_marseille","lat":43.3361,"lon":5.41002,"is_reserved":false,"is_disabled":true,"rental_uris":{"android":"levelo://app?vid=82f7f145-591c-4ce0-8f76-660882a2845e","ios":"levelo://app?vid=82f7f145-591c-4ce0-8f76-660882a2845e"},"vehicle_type_id":"4","last_reported":1734433667,"current_range_meters":35600,"station_id":"ce4bhqh2rcd13ifvqhmg","pricing_plan_id":"cebpf4jnsgd1na2vs0mg"},{"bike_id":"3cbd3730-c384-4a6b-9719-fc4f0183bbff","system_id":"levelo_inurba_marseille","lat":43.27832,"lon":5.40682,"is_reserved":false,"is_disabled":false,"rental_uris":{"android":"levelo://app?vid=3cbd3730-c384-4a6b-9719-fc4f0183bbff","ios":"levelo://app?vid=3cbd3730-c384-4a6b-9719-fc4f0183bbff"},"vehicle_type_id":"4","last_reported":1734433667,"current_range_meters":30800,"station_id":"ce4bhnh2rcd13ifvqgtg","pricing_plan_id":"cebpf4jnsgd1na2vs0mg"},{"bike_id":"c757f111-d315-45e8-863c-b9672e84c339","system_id":"levelo_inurba_marseille","lat":43.29812,"lon":5.38096,"is_reserved":false,"is_disabled":false,"rental_uris":{"android":"levelo://app?vid=c757f111-d315-45e8-863c-b9672e84c339","ios":"levelo://app?vid=c757f111-d315-45e8-863c-b9672e84c339"},"vehicle_type_id":"4","last_reported":1734433667,"current_range_meters":31200,"station_id":"ce4bgip2rcd13ifvqbb0","pricing_plan_id":"cebpf4jnsgd1na2vs0mg"},{"bike_id":"ac7c5f56-daad-496c-965f-9103737000e8","system_id":"levelo_inurba_marseille","lat":43.23933,"lon":5.36668,"is_reserved":false,"is_disabled":false,"rental_uris":{"android":"levelo://app?vid=ac7c5f56-daad-496c-965f-9103737000e8","ios":"levelo://app?vid=ac7c5f56-daad-496c-965f-9103737000e8"},"vehicle_type_id":"4","last_reported":1734433667,"current_range_meters":38800,"station_id":"ce4bhi12rcd13ifvqfp0","pricing_plan_id":"cebpf4jnsgd1na2vs0mg"},{"bike_id":"30943ecb-ecb0-4ac9-9219-dc3c35f2f4ec","system_id":"levelo_inurba_marseille","lat":43.27988,"lon":5.41664,"is_reserved":false,"is_disabled":false,"rental_uris":{"android":"levelo://app?vid=30943ecb-ecb0-4ac9-9219-dc3c35f2f4ec","ios":"levelo://app?vid=30943ecb-ecb0-4ac9-9219-dc3c35f2f4ec"},"vehicle_type_id":"4","last_reported":1734433667,"current_range_meters":26000,"station_id":"ce4bho12rcd13ifvqh1g","pricing_plan_id":"cebpf4jnsgd1na2vs0mg"},{"bike_id":"677f2f20-67b1-43ae-ab0d-c86c94aad358","system_id":"levelo_inurba_marseille","lat":43.33016,"lon":5.39046,"is_reserved":false,"is_disabled":false,"rental_uris":{"android":"levelo://app?vid=677f2f20-67b1-43ae-ab0d-c86c94aad358","ios":"levelo://app?vid=677f2f20-67b1-43ae-ab0d-c86c94aad358"},"vehicle_type_id":"4","last_reported":1734433667,"current_range_meters":17200,"station_id":"ce4bhr92rcd13ifvqhrg","pricing_plan_id":"cebpf4jnsgd1na2vs0mg"},{"bike_id":"c36bdd7d-50b7-411d-93ce-da825cc15c4e","system_id":"levelo_inurba_marseille","lat":43.27913,"lon":5.3958,"is_reserved":false,"is_disabled":false,"rental_uris":{"android":"levelo://app?vid=c36bdd7d-50b7-411d-93ce-da825cc15c4e","ios":"levelo://app?vid=c36bdd7d-50b7-411d-93ce-da825cc15c4e"},"vehicle_type_id":"4","last_reported":1734433667,"current_range_meters":13600,"station_id":"ce4bhf92rcd13ifvqf40","pricing_plan_id":"cebpf4jnsgd1na2vs0mg"},{"bike_id":"eb4fbc72-772b-46f6-8868-aa017a64e2d8","system_id":"levelo_inurba_marseille","lat":43.2996,"lon":5.37196,"is_reserved":false,"is_disabled":true,"rental_uris":{"android":"levelo://app?vid=eb4fbc72-772b-46f6-8868-aa017a64e2d8","ios":"levelo://app?vid=eb4fbc72-772b-46f6-8868-aa017a64e2d8"},"vehicle_type_id":"4","last_reported":1734433667,"current_range_meters":38800,"station_id":"ce4bgr92rcd13ifvqc7g","pricing_plan_id":"cebpf4jnsgd1na2vs0mg"},{"bike_id":"3a732610-d683-458f-8820-d54dbfe49ec6","system_id":"levelo_inurba_marseille","lat":43.25929,"lon":5.40908,"is_reserved":false,"is_disabled":false,"rental_uris":{"android":"levelo://app?vid=3a732610-d683-458f-8820-d54dbfe49ec6","ios":"levelo://app?vid=3a732610-d683-458f-8820-d54dbfe49ec6"},"vehicle_type_id":"4","last_reported":1734433667,"current_range_meters":36400,"station_id":"ce4bhm92rcd13ifvqglg","pricing_plan_id":"cebpf4jnsgd1na2vs0mg"},{"bike_id":"ad1b4809-98f4-4501-8bab-68d78d13c446","system_id":"levelo_inurba_marseille","lat":43.30948,"lon":5.39058,"is_reserved":false,"is_disabled":false,"rental_uris":{"android":"levelo://app?vid=ad1b4809-98f4-4501-8bab-68d78d13c446","ios":"levelo://app?vid=ad1b4809-98f4-4501-8bab-68d78d13c446"},"vehicle_type_id":"4","last_reported":1734433667,"current_range_meters":31200,"station_id":"ce4bgup2rcd13ifvqco0","pricing_plan_id":"cebpf4jnsgd1na2vs0mg"},{"bike_id":"2a144a06-4798-4396-9eed-2dd78de4b32c","system_id":"levelo_inurba_marseille","lat":43.31743,"lon":5.42437,"is_reserved":false,"is_disabled":false,"rental_uris":{"android":"levelo://app?vid=2a144a06-4798-4396-9eed-2dd78de4b32c","ios":"levelo://app?vid=2a144a06-4798-4396-9eed-2dd78de4b32c"},"vehicle_type_id":"4","last_reported":1734433667,"current_range_meters":38000,"station_id":"ce4bhp92rcd13ifvqhbg","pricing_plan_id":"cebpf4jnsgd1na2vs0mg"},{"bike_id":"3b67904f-73f7-490c-be60-426233897789","system_id":"levelo_inurba_marseille","lat":43.30534,"lon":5.36547,"is_reserved":false,"is_disabled":false,"rental_uris":{"android":"levelo://app?vid=3b67904f-73f7-490c-be60-426233897789","ios":"levelo://app?vid=3b67904f-73f7-490c-be60-426233897789"},"vehicle_type_id":"4","last_reported":1734433667,"current_range_meters":36800,"station_id":"ce4bgs12rcd13ifvqcag","pricing_plan_id":"cebpf4jnsgd1na2vs0mg"},{"bike_id":"9baba8e5-182e-46b6-a710-73ee9b0f3024","system_id":"levelo_inurba_marseille","lat":43.24997,"lon":5.38917,"is_reserved":false,"is_disabled":false,"rental_uris":{"android":"levelo://app?vid=9baba8e5-182e-46b6-a710-73ee9b0f3024","ios":"levelo://app?vid=9baba8e5-182e-46b6-a710-73ee9b0f3024"},"vehicle_type_id":"4","last_reported":1734433667,"current_range_meters":39200,"station_id":"ce4bhgp2rcd13ifvqfd0","pricing_plan_id":"cebpf4jnsgd1na2vs0mg"},{"bike_id":"3ba7ba38-dcd5-40ce-b3cf-4e03194104e8","system_id":"levelo_inurba_marseille","lat":43.30153,"lon":5.38096,"is_reserved":false,"is_disabled":false,"rental_uris":{"android":"levelo://app?vid=3ba7ba38-dcd5-40ce-b3cf-4e03194104e8","ios":"levelo://app?vid=3ba7ba38-dcd5-40ce-b3cf-4e03194104e8"},"vehicle_type_id":"4","last_reported":1734433667,"current_range_meters":24800,"station_id":"ce4bgjp2rcd13ifvqbh0","pricing_plan_id":"cebpf4jnsgd1na2vs0mg"},{"bike_id":"a05b841c-cbd3-4219-aa4f-920594972101","system_id":"levelo_inurba_marseille","lat":43.30498,"lon":5.36564,"is_reserved":false,"is_disabled":false,"rental_uris":{"android":"levelo://app?vid=a05b841c-cbd3-4219-aa4f-920594972101","ios":"levelo://app?vid=a05b841c-cbd3-4219-aa4f-920594972101"},"vehicle_type_id":"4","last_reported":1734433667,"current_range_meters":38800,"station_id":"ce4bgs12rcd13ifvqcag","pricing_plan_id":"cebpf4jnsgd1na2vs0mg"},{"bike_id":"26f048eb-25c8-4c58-be97-08915deb9561","system_id":"levelo_inurba_marseille","lat":43.30095,"lon":5.39078,"is_reserved":false,"is_disabled":false,"rental_uris":{"android":"levelo://app?vid=26f048eb-25c8-4c58-be97-08915deb9561","ios":"levelo://app?vid=26f048eb-25c8-4c58-be97-08915deb9561"},"vehicle_type_id":"4","last_reported":1734433667,"current_range_meters":32000,"station_id":"ce4bh192rcd13ifvqdb0","pricing_plan_id":"cebpf4jnsgd1na2vs0mg"},{"bike_id":"c82682e7-537e-448b-8452-2828e09b31d8","system_id":"levelo_inurba_marseille","lat":43.31529,"lon":5.38042,"is_reserved":false,"is_disabled":false,"rental_uris":{"android":"levelo://app?vid=c82682e7-537e-448b-8452-2828e09b31d8","ios":"levelo://app?vid=c82682e7-537e-448b-8452-2828e09b31d8"},"vehicle_type_id":"4","last_reported":1734433667,"current_range_meters":37600,"station_id":"ce4bhsp2rcd13ifvqi50","pricing_plan_id":"cebpf4jnsgd1na2vs0mg"},{"bike_id":"b3a108c8-12f3-49d8-a89a-f5dfcdedbb6e","system_id":"levelo_inurba_marseille","lat":43.27066,"lon":5.4027,"is_reserved":false,"is_disabled":false,"rental_uris":{"android":"levelo://app?vid=b3a108c8-12f3-49d8-a89a-f5dfcdedbb6e","ios":"levelo://app?vid=b3a108c8-12f3-49d8-a89a-f5dfcdedbb6e"},"vehicle_type_id":"4","last_reported":1734433667,"current_range_meters":34800,"station_id":"ce4bhk92rcd13ifvqgc0","pricing_plan_id":"cebpf4jnsgd1na2vs0mg"},{"bike_id":"525d55ae-bf3c-4557-8b37-12236b10d9f0","system_id":"levelo_inurba_marseille","lat":43.31481,"lon":5.37309,"is_reserved":false,"is_disabled":false,"rental_uris":{"android":"levelo://app?vid=525d55ae-bf3c-4557-8b37-12236b10d9f0","ios":"levelo://app?vid=525d55ae-bf3c-4557-8b37-12236b10d9f0"},"vehicle_type_id":"4","last_reported":1734433667,"current_range_meters":38400,"station_id":"ce4bgt12rcd13ifvqcd0","pricing_plan_id":"cebpf4jnsgd1na2vs0mg"},{"bike_id":"72d069e2-6835-4223-a4e2-92ac413efb06","system_id":"levelo_inurba_marseille","lat":43.28702,"lon":5.39988,"is_reserved":false,"is_disabled":false,"rental_uris":{"android":"levelo://app?vid=72d069e2-6835-4223-a4e2-92ac413efb06","ios":"levelo://app?vid=72d069e2-6835-4223-a4e2-92ac413efb06"},"vehicle_type_id":"4","last_reported":1734433667,"current_range_meters":34000,"station_id":"ce4bho92rcd13ifvqh3g","pricing_plan_id":"cebpf4jnsgd1na2vs0mg"},{"bike_id":"b2317ee3-5803-4af9-b9b3-4aa01cd8f4ee","system_id":"levelo_inurba_marseille","lat":43.30141,"lon":5.37401,"is_reserved":false,"is_disabled":false,"rental_uris":{"android":"levelo://app?vid=b2317ee3-5803-4af9-b9b3-4aa01cd8f4ee","ios":"levelo://app?vid=b2317ee3-5803-4af9-b9b3-4aa01cd8f4ee"},"vehicle_type_id":"4","last_reported":1734433667,"current_range_meters":11200,"station_id":"ce4bgs92rcd13ifvqcc0","pricing_plan_id":"cebpf4jnsgd1na2vs0mg"},{"bike_id":"619caaeb-c787-4a08-82fd-b37aa60cd3c9","system_id":"levelo_inurba_marseille","lat":43.29102,"lon":5.38133,"is_reserved":false,"is_disabled":false,"rental_uris":{"android":"levelo://app?vid=619caaeb-c787-4a08-82fd-b37aa60cd3c9","ios":"levelo://app?vid=619caaeb-c787-4a08-82fd-b37aa60cd3c9"},"vehicle_type_id":"4","last_reported":1734433667,"current_range_meters":15200,"station_id":"ce4bh512rcd13ifvqe2g","pricing_plan_id":"cebpf4jnsgd1na2vs0mg"},{"bike_id":"08e01d12-cef5-44d1-8b51-7bf204e6e4aa","system_id":"levelo_inurba_marseille","lat":43.24994,"lon":5.38941,"is_reserved":false,"is_disabled":false,"rental_uris":{"android":"levelo://app?vid=08e01d12-cef5-44d1-8b51-7bf204e6e4aa","ios":"levelo://app?vid=08e01d12-cef5-44d1-8b51-7bf204e6e4aa"},"vehicle_type_id":"4","last_reported":1734433667,"current_range_meters":14400,"station_id":"ce4bhgp2rcd13ifvqfd0","pricing_plan_id":"cebpf4jnsgd1na2vs0mg"},{"bike_id":"b600e401-dd09-4bc4-9356-0e85b47e9cf8","system_id":"levelo_inurba_marseille","lat":43.26562,"lon":5.39006,"is_reserved":false,"is_disabled":true,"rental_uris":{"android":"levelo://app?vid=b600e401-dd09-4bc4-9356-0e85b47e9cf8","ios":"levelo://app?vid=b600e401-dd09-4bc4-9356-0e85b47e9cf8"},"vehicle_type_id":"4","last_reported":1734433667,"current_range_meters":0,"station_id":"ce4bhe12rcd13ifvqf30","pricing_plan_id":"cebpf4jnsgd1na2vs0mg"},{"bike_id":"6fb19e0b-4e83-45e0-b098-fc29a78ec1d2","system_id":"levelo_inurba_marseille","lat":43.32523,"lon":5.41441,"is_reserved":false,"is_disabled":false,"rental_uris":{"android":"levelo://app?vid=6fb19e0b-4e83-45e0-b098-fc29a78ec1d2","ios":"levelo://app?vid=6fb19e0b-4e83-45e0-b098-fc29a78ec1d2"},"vehicle_type_id":"4","last_reported":1734433667,"current_range_meters":25600,"station_id":"ce4bhq12rcd13ifvqhhg","pricing_plan_id":"cebpf4jnsgd1na2vs0mg"},{"bike_id":"62fa7f89-6de2-4bc8-8eb6-09e44ff16e37","system_id":"levelo_inurba_marseille","lat":43.23193,"lon":5.35539,"is_reserved":false,"is_disabled":false,"rental_uris":{"android":"levelo://app?vid=62fa7f89-6de2-4bc8-8eb6-09e44ff16e37","ios":"levelo://app?vid=62fa7f89-6de2-4bc8-8eb6-09e44ff16e37"},"vehicle_type_id":"4","last_reported":1734433667,"current_range_meters":38800,"station_id":"ce4bhu92rcd13ifvqi70","pricing_plan_id":"cebpf4jnsgd1na2vs0mg"},{"bike_id":"ac7df3e9-5b25-46cd-b0d1-03a36c8626c7","system_id":"levelo_inurba_marseille","lat":43.27485,"lon":5.42467,"is_reserved":false,"is_disabled":false,"rental_uris":{"android":"levelo://app?vid=ac7df3e9-5b25-46cd-b0d1-03a36c8626c7","ios":"levelo://app?vid=ac7df3e9-5b25-46cd-b0d1-03a36c8626c7"},"vehicle_type_id":"4","last_reported":1734433667,"current_range_meters":24800,"station_id":"ce4bhn92rcd13ifvqgrg","pricing_plan_id":"cebpf4jnsgd1na2vs0mg"},{"bike_id":"6abeb911-da8f-463d-b95b-b9b8b99b12b9","system_id":"levelo_inurba_marseille","lat":43.26021,"lon":5.37561,"is_reserved":false,"is_disabled":false,"rental_uris":{"android":"levelo://app?vid=6abeb911-da8f-463d-b95b-b9b8b99b12b9","ios":"levelo://app?vid=6abeb911-da8f-463d-b95b-b9b8b99b12b9"},"vehicle_type_id":"4","last_reported":1734433667,"current_range_meters":36000,"station_id":"ce4bhgh2rcd13ifvqfa0","pricing_plan_id":"cebpf4jnsgd1na2vs0mg"},{"bike_id":"1543f4bb-ffd5-451d-837b-75cce4148c96","system_id":"levelo_inurba_marseille","lat":43.337444,"lon":5.374475,"is_reserved":false,"is_disabled":true,"rental_uris":{"android":"levelo://app?vid=1543f4bb-ffd5-451d-837b-75cce4148c96","ios":"levelo://app?vid=1543f4bb-ffd5-451d-837b-75cce4148c96"},"vehicle_type_id":"4","last_reported":1734433667,"current_range_meters":0,"station_id":"","pricing_plan_id":"cebpf4jnsgd1na2vs0mg"},{"bike_id":"7fa8e328-5593-4381-bad7-15554e5cc18c","system_id":"levelo_inurba_marseille","lat":43.27183,"lon":5.40996,"is_reserved":false,"is_disabled":false,"rental_uris":{"android":"levelo://app?vid=7fa8e328-5593-4381-bad7-15554e5cc18c","ios":"levelo://app?vid=7fa8e328-5593-4381-bad7-15554e5cc18c"},"vehicle_type_id":"4","last_reported":1734433667,"current_range_meters":10000,"station_id":"ce4bhl12rcd13ifvqgf0","pricing_plan_id":"cebpf4jnsgd1na2vs0mg"},{"bike_id":"6c7b8923-b813-41ee-a5f9-db806a12dc03","system_id":"levelo_inurba_marseille","lat":43.27056,"lon":5.4027,"is_reserved":false,"is_disabled":false,"rental_uris":{"android":"levelo://app?vid=6c7b8923-b813-41ee-a5f9-db806a12dc03","ios":"levelo://app?vid=6c7b8923-b813-41ee-a5f9-db806a12dc03"},"vehicle_type_id":"4","last_reported":1734433667,"current_range_meters":13600,"station_id":"ce4bhk92rcd13ifvqgc0","pricing_plan_id":"cebpf4jnsgd1na2vs0mg"},{"bike_id":"15b06ab3-5941-43b5-a9a5-ceb90aabbb54","system_id":"levelo_inurba_marseille","lat":43.22919,"lon":5.35417,"is_reserved":false,"is_disabled":false,"rental_uris":{"android":"levelo://app?vid=15b06ab3-5941-43b5-a9a5-ceb90aabbb54","ios":"levelo://app?vid=15b06ab3-5941-43b5-a9a5-ceb90aabbb54"},"vehicle_type_id":"4","last_reported":1734433667,"current_range_meters":38400,"station_id":"cpo3532slgdg3j2ikp40","pricing_plan_id":"cebpf4jnsgd1na2vs0mg"},