{"last_updated":1739470366,"ttl":60,"version":"2.2","data":{"bikes":[{"bike_id":"3ed730c2-397a-426d-88d2-4a02ddf21f42","system_id":"levelo_inurba_marseille","lat":43.28967,"lon":5.37817,"is_reserved":false,"is_disabled":false,"rental_uris":{"android":"levelo://app?vid=3ed730c2-397a-426d-88d2-4a02ddf21f42","ios":"levelo://app?vid=3ed730c2-397a-426d-88d2-4a02ddf21f42"},"vehicle_type_id":"4","last_reported":1739470367,"current_range_meters":36800,"station_id":"ce4bh9p2rcd13ifvqed0","pricing_plan_id":"cebpf4jnsgd1na2vs0mg"},{"bike_id":"fabe0dc0-e9b8-4510-811e-856b5cccb082","system_id":"levelo_inurba_marseille","lat":43.25499,"lon":5.37625,"is_reserved":false,"is_disabled":true,"rental_uris":{"android":"levelo://app?vid=fabe0dc0-e9b8-4510-811e-856b5cccb082","ios":"levelo://app?vid=fabe0dc0-e9b8-4510-811e-856b5cccb082"},"vehicle_type_id":"4","last_reported":1739470367,"current_range_meters":10000,"station_id":"ce4bhh12rcd13ifvqff0","pricing_plan_id":"cebpf4jnsgd1na2vs0mg"},{"bike_id":"8de44643-9c65-479b-92b5-27d16e23072f","system_id":"levelo_inurba_marseille","lat":43.22929,"lon":5.35378,"is_reserved":false,"is_disabled":false,"rental_uris":{"android":"levelo://app?vid=8de44643-9c65-479b-92b5-27d16e23072f","ios":"levelo://app?vid=8de44643-9c65-479b-92b5-27d16e23072f"},"vehicle_type_id":"4","last_reported":1739470367,"current_range_meters":37600,"station_id":"cpo3532slgdg3j2ikp40","pricing_plan_id":"cebpf4jnsgd1na2vs0mg"},{"bike_id":"8efbdd3a-44e0-40ff-ac55-5774b5a6332c","system_id":"levelo_inurba_marseille","lat":43.29876,"lon":5.38898,"is_reserved":false,"is_disabled":false,"rental_uris":{"android":"levelo://app?vid=8efbdd3a-44e0-40ff-ac55-5774b5a6332c","ios":"levelo://app?vid=8efbdd3a-44e0-40ff-ac55-5774b5a6332c"},"vehicle_type_id":"4","last_reported":1739470367,"current_range_meters":30000,"station_id":"ce4bh392rcd13ifvqdl0","pricing_plan_id":"cebpf4jnsgd1na2vs0mg"},{"bike_id":"5bb93883-746a-4657-831b-dceff88c8915","system_id":"levelo_inurba_marseille","lat":43.26198,"lon":5.3792,"is_reserved":false,"is_disabled":false,"rental_uris":{"android":"levelo://app?vid=5bb93883-746a-4657-831b-dceff88c8915","ios":"levelo://app?vid=5bb93883-746a-4657-831b-dceff88c8915"},"vehicle_type_id":"4","last_reported":1739470367,"current_range_meters":22800,"station_id":"ce4bhjp2rcd13ifvqg90","pricing_plan_id":"cebpf4jnsgd1na2vs0mg"},{"bike_id":"02412afb-bb32-4ac8-9897-3d2009d41c0f","system_id":"levelo_inurba_marseille","lat":43.28923,"lon":5.38405,"is_reserved":false,"is_disabled":false,"rental_uris":{"android":"levelo://app?vid=02412afb-bb32-4ac8-9897-3d2009d41c0f","ios":"levelo://app?vid=02412afb-bb32-4ac8-9897-3d2009d41c0f"},"vehicle_type_id":"4","last_reported":1739470367,"current_range_meters":24000,"station_id":"ce4bh612rcd13ifvqe6g","pricing_plan_id":"cebpf4jnsgd1na2vs0mg"},{"bike_id":"35c96b0b-eb3c-4787-a379-c8c27196e8bc","system_id":"levelo_inurba_marseille","lat":43.325,"lon":5.36567,"is_reserved":false,"is_disabled":false,"rental_uris":{"android":"levelo://app?vid=35c96b0b-eb3c-4787-a379-c8c27196e8bc","ios":"levelo://app?vid=35c96b0b-eb3c-4787-a379-c8c27196e8bc"},"vehicle_type_id":"4","last_reported":1739470367,"current_range_meters":38800,"station_id":"ce4bhs12rcd13ifvqhvg","pricing_plan_id":"cebpf4jnsgd1na2vs0mg"},{"bike_id":"1d4165b9-e8af-42e7-8e88-54a0f84b4f26","system_id":"levelo_inurba_marseille","lat":43.23185,"lon":5.3998,"is_reserved":false,"is_disabled":false,"rental_uris":{"android":"levelo://app?vid=1d4165b9-e8af-42e7-8e88-54a0f84b4f26","ios":"levelo://app?vid=1d4165b9-e8af-42e7-8e88-54a0f84b4f26"},"vehicle_type_id":"4","last_reported":1739470367,"current_range_meters":34000,"station_id":"ce4bhn12rcd13ifvqgqg","pricing_plan_id":"cebpf4jnsgd1na2vs0mg"},{"bike_id":"f6ef4f9a-c914-4d4b-a06e-00485b64285e","system_id":"levelo_inurba_marseille","lat":43.32522,"lon":5.36486,"is_reserved":false,"is_disabled":false,"rental_uris":{"android":"levelo://app?vid=f6ef4f9a-c914-4d4b-a06e-00485b64285e","ios":"levelo://app?vid=f6ef4f9a-c914-4d4b-a06e-00485b64285e"},"vehicle_type_id":"4","last_reported":1739470367,"current_range_meters":38800,"station_id":"ce4bhs12rcd13ifvqhvg","pricing_plan_id":"cebpf4jnsgd1na2vs0mg"},{"bike_id":"e8887aed-fddd-4b96-bc9f-849d198fae08","system_id":"levelo_inurba_marseille","lat":43.25584,"lon":5.3823,"is_reserved":false,"is_disabled":false,"rental_uris":{"android":"levelo://app?vid=e8887aed-fddd-4b96-bc9f-849d198fae08","ios":"levelo://app?vid=e8887aed-fddd-4b96-bc9f-849d198fae08"},"vehicle_type_id":"4","last_reported":1739470367,"current_range_meters":14800,"station_id":"ce4bhih2rcd13ifvqfs0","pricing_plan_id":"cebpf4jnsgd1na2vs0mg"},{"bike_id":"e238aec4-306f-4def-b044-a0dc1f67d10d","system_id":"levelo_inurba_marseille","lat":43.30108,"lon":5.3907,"is_reserved":false,"is_disabled":false,"rental_uris":{"android":"levelo://app?vid=e238aec4-306f-4def-b044-a0dc1f67d10d","ios":"levelo://app?vid=e238aec4-306f-4def-b044-a0dc1f67d10d"},"vehicle_type_id":"4","last_reported":1739470367,"current_range_meters":39200,"station_id":"ce4bh192rcd13ifvqdb0","pricing_plan_id":"cebpf4jnsgd1na2vs0mg"},{"bike_id":"62aac317-f915-46fa-90db-406ba1672752","system_id":"levelo_inurba_marseille","lat":43.294193,"lon":5.386293,"is_reserved":false,"is_disabled":false,"rental_uris":{"android":"levelo://app?vid=62aac317-f915-46fa-90db-406ba1672752","ios":"levelo://app?vid=62aac317-f915-46fa-90db-406ba1672752"},"vehicle_type_id":"4","last_reported":1739470367,"current_range_meters":23200,"station_id":"ce4bh2h2rcd13ifvqdh0","pricing_plan_id":"cebpf4jnsgd1na2vs0mg"},{"bike_id":"bbb2097f-1c15-4581-beb5-ee0c580691bf","system_id":"levelo_inurba_marseille","lat":43.27365,"lon":5.36251,"is_reserved":false,"is_disabled":false,"rental_uris":{"android":"levelo://app?vid=bbb2097f-1c15-4581-beb5-ee0c580691bf","ios":"levelo://app?vid=bbb2097f-1c15-4581-beb5-ee0c580691bf"},"vehicle_type_id":"4","last_reported":1739470367,"current_range_meters":10800,"station_id":"ce4bhbh2rcd13ifvqeo0","pricing_plan_id":"cebpf4jnsgd1na2vs0mg"},{"bike_id":"8390feee-0735-4b8f-90c8-f81c741ca7d5","system_id":"levelo_inurba_marseille","lat":43.2481,"lon":5.37468,"is_reserved":false,"is_disabled":false,"rental_uris":{"android":"levelo://app?vid=8390feee-0735-4b8f-90c8-f81c741ca7d5","ios":"levelo://app?vid=8390feee-0735-4b8f-90c8-f81c741ca7d5"},"vehicle_type_id":"4","last_reported":1739470367,"current_range_meters":37600,"station_id":"ce4bhgh2rcd13ifvqfb0","pricing_plan_id":"cebpf4jnsgd1na2vs0mg"},{"bike_id":"a3e78f7a-9878-4f36-8667-c46d063c3718","system_id":"levelo_inurba_marseille","lat":43.29567,"lon":5.39946,"is_reserved":false,"is_disabled":false,"rental_uris":{"android":"levelo://app?vid=a3e78f7a-9878-4f36-8667-c46d063c3718","ios":"levelo://app?vid=a3e78f7a-9878-4f36-8667-c46d063c3718"},"vehicle_type_id":"4","last_reported":1739470367,"current_range_meters":30000,"station_id":"ce4bh312rcd13ifvqdj0","pricing_plan_id":"cebpf4jnsgd1na2vs0mg"},{"bike_id":"1ea7208c-07b6-4dfb-8fc0-88f7c7b57346","system_id":"levelo_inurba_marseille","lat":43.28841,"lon":5.35832,"is_reserved":false,"is_disabled":false,"rental_uris":{"android":"levelo://app?vid=1ea7208c-07b6-4dfb-8fc0-88f7c7b57346","ios":"levelo://app?vid=1ea7208c-07b6-4dfb-8fc0-88f7c7b57346"},"vehicle_type_id":"4","last_reported":1739470367,"current_range_meters":38800,"station_id":"ce4bhb12rcd13ifvqem0","pricing_plan_id":"cebpf4jnsgd1na2vs0mg"},{"bike_id":"3978400e-dc40-48da-93af-d286b1eaeaf6","system_id":"levelo_inurba_marseille","lat":43.25502,"lon":5.37655,"is_reserved":false,"is_disabled":false,"rental_uris":{"android":"levelo://app?vid=3978400e-dc40-48da-93af-d286b1eaeaf6","ios":"levelo://app?vid=3978400e-dc40-48da-93af-d286b1eaeaf6"},"vehicle_type_id":"4","last_reported":1739470367,"current_range_meters":29600,"station_id":"ce4bhh12rcd13ifvqff0","pricing_plan_id":"cebpf4jnsgd1na2vs0mg"},{"bike_id":"c5d83290-7e41-4747-be49-5a88384d605e","system_id":"levelo_inurba_marseille","lat":43.28483,"lon":5.38542,"is_reserved":false,"is_disabled":true,"rental_uris":{"android":"levelo://app?vid=c5d83290-7e41-4747-be49-5a88384d605e","ios":"levelo://app?vid=c5d83290-7e41-4747-be49-5a88384d605e"},"vehicle_type_id":"4","last_reported":1739470367,"current_range_meters":23200,"station_id":"ce4bh8p2rcd13ifvqeb0","pricing_plan_id":"cebpf4jnsgd1na2vs0mg"},{"bike_id":"1facaff9-cd9d-44f8-8411-f7de3bfc2a18","system_id":"levelo_inurba_marseille","lat":43.31718,"lon":5.42391,"is_reserved":false,"is_disabled":false,"rental_uris":{"android":"levelo://app?vid=1facaff9-cd9d-44f8-8411-f7de3bfc2a18","ios":"levelo://app?vid=1facaff9-cd9d-44f8-8411-f7de3bfc2a18"},"vehicle_type_id":"4","last_reported":1739470367,"current_range_meters":38800,"station_id":"ce4bhp92rcd13ifvqhbg","pricing_plan_id":"cebpf4jnsgd1na2vs0mg"},{"bike_id":"f301528a-8d01-48df-93ab-840c74a746cb","system_id":"levelo_inurba_marseille","lat":43.30226,"lon":5.39473,"is_reserved":false,"is_disabled":false,"rental_uris":{"android":"levelo://app?vid=f301528a-8d01-48df-93ab-840c74a746cb","ios":"levelo://app?vid=f301528a-8d01-48df-93ab-840c74a746cb"},"vehicle_type_id":"4","last_reported":1739470367,"current_range_meters":28400,"station_id":"ce4bh0p2rcd13ifvqd70","pricing_plan_id":"cebpf4jnsgd1na2vs0mg"},{"bike_id":"b34c6303-752a-46a1-93ad-ddbc991e20b6","system_id":"levelo_inurba_marseille","lat":43.230627,"lon":5.354943,"is_reserved":false,"is_disabled":false,"rental_uris":{"android":"levelo://app?vid=b34c6303-752a-46a1-93ad-ddbc991e20b6","ios":"levelo://app?vid=b34c6303-752a-46a1-93ad-ddbc991e20b6"},"vehicle_type_id":"4","last_reported":1739470367,"current_range_meters":8400,"station_id":"cpo3342slgdg3j2ifvpg","pricing_plan_id":"cebpf4jnsgd1na2vs0mg"},{"bike_id":"f4297ec3-a745-470f-8379-4a2b1e421801","system_id":"levelo_inurba_marseille","lat":43.2904,"lon":5.35891,"is_reserved":false,"is_disabled":true,"rental_uris":{"android":"levelo://app?vid=f4297ec3-a745-470f-8379-4a2b1e421801","ios":"levelo://app?vid=f4297ec3-a745-470f-8379-4a2b1e421801"},"vehicle_type_id":"4","last_reported":1739470367,"current_range_meters":39200,"station_id":"ce4bha92rcd13ifvqeg0","pricing_plan_id":"cebpf4jnsgd1na2vs0mg"},{"bike_id":"8c374a3e-81ff-4106-824a-b7ec81281e02","system_id":"levelo_inurba_marseille","lat":43.29292,"lon":5.37168,"is_reserved":false,"is_disabled":false,"rental_uris":{"android":"levelo://app?vid=8c374a3e-81ff-4106-824a-b7ec81281e02","ios":"levelo://app?vid=8c374a3e-81ff-4106-824a-b7ec81281e02"},"vehicle_type_id":"4","last_reported":1739470367,"current_range_meters":22800,"station_id":"ce4bgh92rcd13ifvqb40","pricing_plan_id":"cebpf4jnsgd1na2vs0mg"},{"bike_id":"1008caae-4554-45a8-be4b-7a22becb98fe","system_id":"levelo_inurba_marseille","lat":43.30294,"lon":5.39212,"is_reserved":false,"is_disabled":false,"rental_uris":{"android":"levelo://app?vid=1008caae-4554-45a8-be4b-7a22becb98fe","ios":"levelo://app?vid=1008caae-4554-45a8-be4b-7a22becb98fe"},"vehicle_type_id":"4","last_reported":1739470367,"current_range_meters":38800,"station_id":"ce4bgkh2rcd13ifvqbk0","pricing_plan_id":"cebpf4jnsgd1na2vs0mg"},{"bike_id":"1c4e2f59-1159-4a12-b83e-d5b2deeaa32f","system_id":"levelo_inurba_marseille","lat":43.33741,"lon":5.39185,"is_reserved":false,"is_disabled":false,"rental_uris":{"android":"levelo://app?vid=1c4e2f59-1159-4a12-b83e-d5b2deeaa32f","ios":"levelo://app?vid=1c4e2f59-1159-4a12-b83e-d5b2deeaa32f"},"vehicle_type_id":"4","last_reported":1739470367,"current_range_meters":38000,"station_id":"ce4bhr92rcd13ifvqhsg","pricing_plan_id":"cebpf4jnsgd1na2vs0mg"},{"bike_id":"51990b29-3bb4-4fa1-b182-c20b57a35fbd","system_id":"levelo_inurba_marseille","lat":43.27499,"lon":5.4245,"is_reserved":false,"is_disabled":false,"rental_uris":{"android":"levelo://app?vid=51990b29-3bb4-4fa1-b182-c20b57a35fbd","ios":"levelo://app?vid=51990b29-3bb4-4fa1-b182-c20b57a35fbd"},"vehicle_type_id":"4","last_reported":1739470367,"current_range_meters":38800,"station_id":"ce4bhn92rcd13ifvqgrg","pricing_plan_id":"cebpf4jnsgd1na2vs0mg"},{"bike_id":"7b830c89-3a1c-4014-a605-109efca81479","system_id":"levelo_inurba_marseille","lat":43.27676,"lon":5.38872,"is_reserved":false,"is_disabled":false,"rental_uris":{"android":"levelo://app?vid=7b830c89-3a1c-4014-a605-109efca81479","ios":"levelo://app?vid=7b830c89-3a1c-4014-a605-109efca81479"},"vehicle_type_id":"4","last_reported":1739470367,"current_range_meters":38800,"station_id":"ce4bhi12rcd13ifvqfo0","pricing_plan_id":"cebpf4jnsgd1na2vs0mg"},{"bike_id":"4771bdc5-5a9a-4126-baef-ad23555935fc","system_id":"levelo_inurba_marseille","lat":43.29529,"lon":5.3939,"is_reserved":false,"is_disabled":false,"rental_uris":{"android":"levelo://app?vid=4771bdc5-5a9a-4126-baef-ad23555935fc","ios":"levelo://app?vid=4771bdc5-5a9a-4126-baef-ad23555935fc"},"vehicle_type_id":"4","last_reported":1739470367,"current_range_meters":28800,"station_id":"ce4bh292rcd13ifvqdf0","pricing_plan_id":"cebpf4jnsgd1na2vs0mg"},{"bike_id":"ae9ac42c-c442-4a42-a6d9-83f1be830871","system_id":"levelo_inurba_marseille","lat":43.29924,"lon":5.36571,"is_reserved":false,"is_disabled":false,"rental_uris":{"android":"levelo://app?vid=ae9ac42c-c442-4a42-a6d9-83f1be830871","ios":"levelo://app?vid=ae9ac42c-c442-4a42-a6d9-83f1be830871"},"vehicle_type_id":"4","last_reported":1739470367,"current_range_meters":10000,"station_id":"ce4bgm92rcd13ifvqbr0","pricing_plan_id":"cebpf4jnsgd1na2vs0mg"},{"bike_id":"2dfd07b4-aec1-4162-bd20-345c96ed41e8","system_id":"levelo_inurba_marseille","lat":43.29279,"lon":5.37195,"is_reserved":false,"is_disabled":false,"rental_uris":{"android":"levelo://app?vid=2dfd07b4-aec1-4162-bd20-345c96ed41e8","ios":"levelo://app?vid=2dfd07b4-aec1-4162-bd20-345c96ed41e8"},"vehicle_type_id":"4","last_reported":1739470367,"current_range_meters":38000,"station_id":"ce4bgh92rcd13ifvqb40","pricing_plan_id":"cebpf4jnsgd1na2vs0mg"},{"bike_id":"2a7fbfda-36d8-455b-955d-63e67c8c1e23","system_id":"levelo_inurba_marseille","lat":43.30913,"lon":5.44005,"is_reserved":false,"is_disabled":false,"rental_uris":{"android":"levelo://app?vid=2a7fbfda-36d8-455b-955d-63e67c8c1e23","ios":"levelo://app?vid=2a7fbfda-36d8-455b-955d-63e67c8c1e23"},"vehicle_type_id":"4","last_reported":1739470367,"current_range_meters":28000,"station_id":"","pricing_plan_id":"cebpf4jnsgd1na2vs0mg"},{"bike_id":"0806deb7-288d-46f9-a267-9d6d6605d61a","system_id":"levelo_inurba_marseille","lat":43.3153,"lon":5.3803,"is_reserved":false,"is_disabled":false,"rental_uris":{"android":"levelo://app?vid=0806deb7-288d-46f9-a267-9d6d6605d61a","ios":"levelo://app?vid=0806deb7-288d-46f9-a267-9d6d6605d61a"},"vehicle_type_id":"4","last_reported":1739470367,"current_range_meters":28400,"station_id":"ce4bhsp2rcd13ifvqi50","pricing_plan_id":"cebpf4jnsgd1na2vs0mg"},{"bike_id":"cd2ade96-d83c-484d-ad63-31dd855266a0","system_id":"levelo_inurba_marseille","lat":43.29871,"lon":5.39727,"is_reserved":false,"is_disabled":true,"rental_uris":{"android":"levelo://app?vid=cd2ade96-d83c-484d-ad63-31dd855266a0","ios":"levelo://app?vid=cd2ade96-d83c-484d-ad63-31dd855266a0"},"vehicle_type_id":"4","last_reported":1739470367,"current_range_meters":800,"station_id":"ce4bh0h2rcd13ifvqd50","pricing_plan_id":"cebpf4jnsgd1na2vs0mg"},{"bike_id":"670d8b79-cf37-4bf6-9297-ca0919e71705","system_id":"levelo_inurba_marseille","lat":43.30536,"lon":5.38419,"is_reserved":false,"is_disabled":true,"rental_uris":{"android":"levelo://app?vid=670d8b79-cf37-4bf6-9297-ca0919e71705","ios":"levelo://app?vid=670d8b79-cf37-4bf6-9297-ca0919e71705"},"vehicle_type_id":"4","last_reported":1739470367,"current_range_meters":35200,"station_id":"ce4bgg92rcd13ifvqb30","pricing_plan_id":"cebpf4jnsgd1na2vs0mg"},{"bike_id":"4004e863-e0ca-4122-9424-ab9f70e142e6","system_id":"levelo_inurba_marseille","lat":43.31657,"lon":5.39634,"is_reserved":false,"is_disabled":false,"rental_uris":{"android":"levelo://app?vid=4004e863-e0ca-4122-9424-ab9f70e142e6","ios":"levelo://app?vid=4004e863-e0ca-4122-9424-ab9f70e142e6"},"vehicle_type_id":"4","last_reported":1739470367,"current_range_meters":26000,"station_id":"","pricing_plan_id":"cebpf4jnsgd1na2vs0mg"},{"bike_id":"ac078663-d34f-4018-8c72-a6abd0d5dae4","system_id":"levelo_inurba_marseille","lat":43.29926,"lon":5.36551,"is_reserved":false,"is_disabled":false,"rental_uris":{"android":"levelo://app?vid=ac078663-d34f-4018-8c72-a6abd0d5dae4","ios":"levelo://app?vid=ac078663-d34f-4018-8c72-a6abd0d5dae4"},"vehicle_type_id":"4","last_reported":1739470367,"current_range_meters":28400,"station_id":"ce4bgm92rcd13ifvqbr0","pricing_plan_id":"cebpf4jnsgd1na2vs0mg"},{"bike_id":"90e60eba-ea5a-48b6-b611-b06e0ea8c53e","system_id":"levelo_inurba_marseille","lat":43.29423,"lon":5.38627,"is_reserved":false,"is_disabled":false,"rental_uris":{"android":"levelo://app?vid=90e60eba-ea5a-48b6-b611-b06e0ea8c53e","ios":"levelo://app?vid=90e60eba-ea5a-48b6-b611-b06e0ea8c53e"},"vehicle_type_id":"4","last_reported":1739470367,"current_range_meters":24800,"station_id":"ce4bh2h2rcd13ifvqdh0","pricing_plan_id":"cebpf4jnsgd1na2vs0mg"},{"bike_id":"ad1f229f-7a9e-4b6a-832d-091721bd907d","system_id":"levelo_inurba_marseille","lat":43.26195,"lon":5.37449,"is_reserved":false,"is_disabled":true,"rental_uris":{"android":"levelo://app?vid=ad1f229f-7a9e-4b6a-832d-091721bd907d","ios":"levelo://app?vid=ad1f229f-7a9e-4b6a-832d-091721bd907d"},"vehicle_type_id":"4","last_reported":1739470367,"current_range_meters":0,"station_id":"ce4bhgp2rcd13ifvqfc0","pricing_plan_id":"cebpf4jnsgd1na2vs0mg"},{"bike_id":"e4d14330-222d-46d5-8f26-efec567da29c","system_id":"levelo_inurba_marseille","lat":43.286158,"lon":5.35101,"is_reserved":false,"is_disabled":false,"rental_uris":{"android":"levelo://app?vid=e4d14330-222d-46d5-8f26-efec567da29c","ios":"levelo://app?vid=e4d14330-222d-46d5-8f26-efec567da29c"},"vehicle_type_id":"4","last_reported":1739470367,"current_range_meters":38800,"station_id":"ce4bhch2rcd13ifvqeug","pricing_plan_id":"cebpf4jnsgd1na2vs0mg"},{"bike_id":"e82045b1-b0ae-4e9d-938f-b19ea01bc447","system_id":"levelo_inurba_marseille","lat":43.28357,"lon":5.38102,"is_reserved":false,"is_disabled":false,"rental_uris":{"android":"levelo://app?vid=e82045b1-b0ae-4e9d-938f-b19ea01bc447","ios":"levelo://app?vid=e82045b1-b0ae-4e9d-938f-b19ea01bc447"},"vehicle_type_id":"4","last_reported":1739470367,"current_range_meters":26800,"station_id":"ce4bh412rcd13ifvqdr0","pricing_plan_id":"cebpf4jnsgd1na2vs0mg"},{"bike_id":"03f1ee11-be7f-45e6-a171-a893130e88b6","system_id":"levelo_inurba_marseille","lat":43.290037,"lon":5.355973,"is_reserved":false,"is_disabled":true,"rental_uris":{"android":"levelo://app?vid=03f1ee11-be7f-45e6-a171-a893130e88b6","ios":"levelo://app?vid=03f1ee11-be7f-45e6-a171-a893130e88b6"},"vehicle_type_id":"4","last_reported":1739470367,"current_range_meters":38800,"station_id":"ce4bhb92rcd13ifvqen0","pricing_plan_id":"cebpf4jnsgd1na2vs0mg"},{"bike_id":"704ec19d-e7c0-4858-a423-dcfa560220a5","system_id":"levelo_inurba_marseille","lat":43.23153,"lon":5.40003,"is_reserved":false,"is_disabled":false,"rental_uris":{"android":"levelo://app?vid=704ec19d-e7c0-4858-a423-dcfa560220a5","ios":"levelo://app?vid=704ec19d-e7c0-4858-a423-dcfa560220a5"},"vehicle_type_id":"4","last_reported":1739470367,"current_range_meters":36400,"station_id":"ce4bhn12rcd13ifvqgqg","pricing_plan_id":"cebpf4jnsgd1na2vs0mg"},{"bike_id":"f7eb39de-6060-4a94-b27f-01b3fe3d95d7","system_id":"levelo_inurba_marseille","lat":43.29794,"lon":5.38091,"is_reserved":false,"is_disabled":false,"rental_uris":{"android":"levelo://app?vid=f7eb39de-6060-4a94-b27f-01b3fe3d95d7","ios":"levelo://app?vid=f7eb39de-6060-4a94-b27f-01b3fe3d95d7"},"vehicle_type_id":"4","last_reported":1739470367,"current_range_meters":37600,"station_id":"ce4bgip2rcd13ifvqbb0","pricing_plan_id":"cebpf4jnsgd1na2vs0mg"},{"bike_id":"81e8b687-b7dc-4f3b-902f-34681737fb40","system_id":"levelo_inurba_marseille","lat":43.301,"lon":5.39075,"is_reserved":false,"is_disabled":false,"rental_uris":{"android":"levelo://app?vid=81e8b687-b7dc-4f3b-902f-34681737fb40","ios":"levelo://app?vid=81e8b687-b7dc-4f3b-902f-34681737fb40"},"vehicle_type_id":"4","last_reported":1739470367,"current_range_meters":35200,"station_id":"ce4bh192rcd13ifvqdb0","pricing_plan_id":"cebpf4jnsgd1na2vs0mg"},{"bike_id":"ff7717a2-1bda-44f0-be3b-adcd8ec742a4","system_id":"levelo_inurba_marseille","lat":43.3011,"lon":5.39076,"is_reserved":false,"is_disabled":false,"rental_uris":{"android":"levelo://app?vid=ff7717a2-1bda-44f0-be3b-adcd8ec742a4","ios":"levelo://app?vid=ff7717a2-1bda-44f0-be3b-adcd8ec742a4"},"vehicle_type_id":"4","last_reported":1739470367,"current_range_meters":26800,"station_id":"ce4bh192rcd13ifvqdb0","pricing_plan_id":"cebpf4jnsgd1na2vs0mg"},{"bike_id":"abf3fb5f-bc08-467e-b969-d83a7827f39e","system_id":"levelo_inurba_marseille","lat":43.30094,"lon":5.39086,"is_reserved":false,"is_disabled":false,"rental_uris":{"android":"levelo://app?vid=abf3fb5f-bc08-467e-b969-d83a7827f39e","ios":"levelo://app?vid=abf3fb5f-bc08-467e-b969-d83a7827f39e"},"vehicle_type_id":"4","last_reported":1739470367,"current_range_meters":7200,"station_id":"ce4bh192rcd13ifvqdb0","pricing_plan_id":"cebpf4jnsgd1na2vs0mg"},{"bike_id":"6e79fee3-d43f-4b38-9347-60eb150ccde4","system_id":"levelo_inurba_marseille","lat":43.29303,"lon":5.37162,"is_reserved":false,"is_disabled":false,"rental_uris":{"android":"levelo://app?vid=6e79fee3-d43f-4b38-9347-60eb150ccde4","ios":"levelo://app?vid=6e79fee3-d43f-4b38-9347-60eb150ccde4"},"vehicle_type_id":"4","last_reported":1739470367,"current_range_meters":38400,"station_id":"ce4bgh92rcd13ifvqb40","pricing_plan_id":"cebpf4jnsgd1na2vs0mg"},{"bike_id":"9cf8e6d9-67b8-441b-8ab4-08ef8560d2b0","system_id":"levelo_inurba_marseille","lat":43.33514,"lon":5.35588,"is_reserved":false,"is_disabled":true,"rental_uris":{"android":"levelo://app?vid=9cf8e6d9-67b8-441b-8ab4-08ef8560d2b0","ios":"levelo://app?vid=9cf8e6d9-67b8-441b-8ab4-08ef8560d2b0"},"vehicle_type_id":"4","last_reported":1739470367,"current_range_meters":0,"station_id":"","pricing_plan_id":"cebpf4jnsgd1na2vs0mg"},{"bike_id":"7a3720dd-298c-4d87-91ef-5d83e7db7658","system_id":"levelo_inurba_marseille","lat":43.24082,"lon":5.37752,"is_reserved":false,"is_disabled":false,"rental_uris":{"android":"levelo://app?vid=7a3720dd-298c-4d87-91ef-5d83e7db7658","ios":"levelo://app?vid=7a3720dd-298c-4d87-91ef-5d83e7db7658"},"vehicle_type_id":"4","last_reported":1739470367,"current_range_meters":27200,"station_id":"ce4bhnp2rcd13ifvqgvg","pricing_plan_id":"cebpf4jnsgd1na2vs0mg"},{"bike_id":"b5d00035-c614-4238-b0c9-e135c004f63e","system_id":"levelo_inurba_marseille","lat":43.29265,"lon":5.38426,"is_reserved":false,"is_disabled":false,"rental_uris":{"android":"levelo://app?vid=b5d00035-c614-4238-b0c9-e135c004f63e","ios":"levelo://app?vid=b5d00035-c614-4238-b0c9-e135c004f63e"},"vehicle_type_id":"4","last_reported":1739470367,"current_range_meters":18800,"station_id":"ce4bh692rcd13ifvqea0","pricing_plan_id":"cebpf4jnsgd1na2vs0mg"},{"bike_id":"fbaae327-f14d-4f5a-a39f-66a501580349","system_id":"levelo_inurba_marseille","lat":43.23944,"lon":5.3663,"is_reserved":false,"is_disabled":false,"rental_uris":{"android":"levelo://app?vid=fbaae327-f14d-4f5a-a39f-66a501580349","ios":"levelo://app?vid=fbaae327-f14d-4f5a-a39f-66a501580349"},"vehicle_type_id":"4","last_reported":1739470367,"current_range_meters":32000,"station_id":"ce4bhi12rcd13ifvqfp0","pricing_plan_id":"cebpf4jnsgd1na2vs0mg"},{"bike_id":"3dac6192-3123-4c95-afea-ba492f5c9f4e","system_id":"levelo_inurba_marseille","lat":43.31712,"lon":5.42427,"is_reserved":false,"is_disabled":false,"rental_uris":{"android":"levelo://app?vid=3dac6192-3123-4c95-afea-ba492f5c9f4e","ios":"levelo://app?vid=3dac6192-3123-4c95-afea-ba492f5c9f4e"},"vehicle_type_id":"4","last_reported":1739470367,"current_range_meters":37600,"station_id":"ce4bhp92rcd13ifvqhbg","pricing_plan_id":"cebpf4jnsgd1na2vs0mg"},{"bike_id":"0b45d7a3-9efc-43f7-a192-d7ce615f16a8","system_id":"levelo_inurba_marseille","lat":43.29574,"lon":5.39983,"is_reserved":false,"is_disabled":false,"rental_uris":{"android":"levelo://app?vid=0b45d7a3-9efc-43f7-a192-d7ce615f16a8","ios":"levelo://app?vid=0b45d7a3-9efc-43f7-a192-d7ce615f16a8"},"vehicle_type_id":"4","last_reported":1739470367,"current_range_meters":9200,"station_id":"ce4bh312rcd13ifvqdj0","pricing_plan_id":"cebpf4jnsgd1na2vs0mg"},{"bike_id":"67766a96-03cc-4255-8887-b67f694b59ac","system_id":"levelo_inurba_marseille","lat":43.29199,"lon":5.39318,"is_reserved":false,"is_disabled":false,"rental_uris":{"android":"levelo://app?vid=67766a96-03cc-4255-8887-b67f694b59ac","ios":"levelo://app?vid=67766a96-03cc-4255-8887-b67f694b59ac"},"vehicle_type_id":"4","last_reported":1739470367,"current_range_meters":24000,"station_id":"ce4bh192rcd13ifvqdd0","pricing_plan_id":"cebpf4jnsgd1na2vs0mg"},{"bike_id":"e26e4d9a-d17a-4e05-a615-8cb1580b2ec8","system_id":"levelo_inurba_marseille","lat":43.25871,"lon":5.39895,"is_reserved":false,"is_disabled":false,"rental_uris":{"android":"levelo://app?vid=e26e4d9a-d17a-4e05-a615-8cb1580b2ec8","ios":"levelo://app?vid=e26e4d9a-d17a-4e05-a615-8cb1580b2ec8"},"vehicle_type_id":"4","last_reported":1739470367,"current_range_meters":38800,"station_id":"ce4bhl92rcd13ifvqghg","pricing_plan_id":"cebpf4jnsgd1na2vs0mg"},{"bike_id":"8734aaee-8988-4d2e-b685-82736b8a71bd","system_id":"levelo_inurba_marseille","lat":43.27428,"lon":5.39415,"is_reserved":false,"is_disabled":true,"rental_uris":{"android":"levelo://app?vid=8734aaee-8988-4d2e-b685-82736b8a71bd","ios":"levelo://app?vid=8734aaee-8988-4d2e-b685-82736b8a71bd"},"vehicle_type_id":"4","last_reported":1739470367,"current_range_meters":400,"station_id":"ce4bhdp2rcd13ifvqf20","pricing_plan_id":"cebpf4jnsgd1na2vs0mg"},{"bike_id":"51ab7186-5043-4bed-baca-73708608a302","system_id":"levelo_inurba_marseille","lat":43.29584,"lon":5.37026,"is_reserved":false,"is_disabled":true,"rental_uris":{"android":"levelo://app?vid=51ab7186-5043-4bed-baca-73708608a302","ios":"levelo://app?vid=51ab7186-5043-4bed-baca-73708608a302"},"vehicle_type_id":"4","last_reported":1739470367,"current_range_meters":0,"station_id":"","pricing_plan_id":"cebpf4jnsgd1na2vs0mg"},{"bike_id":"dc9dd226-b4f2-48ca-b118-7d9163f255ed","system_id":"levelo_inurba_marseille","lat":43.28927,"lon":5.38402,"is_reserved":false,"is_disabled":false,"rental_uris":{"android":"levelo://app?vid=dc9dd226-b4f2-48ca-b118-7d9163f255ed","ios":"levelo://app?vid=dc9dd226-b4f2-48ca-b118-7d9163f255ed"},"vehicle_type_id":"4","last_reported":1739470367,"current_range_meters":28800,"station_id":"ce4bh612rcd13ifvqe6g","pricing_plan_id":"cebpf4jnsgd1na2vs0mg"},{"bike_id":"d3fc5f7e-9983-4343-a9af-f36df7d45f29","system_id":"levelo_inurba_marseille","lat":43.23179,"lon":5.39972,"is_reserved":false,"is_disabled":false,"rental_uris":{"android":"levelo://app?vid=d3fc5f7e-9983-4343-a9af-f36df7d45f29","ios":"levelo://app?vid=d3fc5f7e-9983-4343-a9af-f36df7d45f29"},"vehicle_type_id":"4","last_reported":1739470367,"current_range_meters":24000,"station_id":"ce4bhn12rcd13ifvqgqg","pricing_plan_id":"cebpf4jnsgd1na2vs0mg"},{"bike_id":"d01cfddf-7881-4b7c-815e-f570bddc475f","system_id":"levelo_inurba_marseille","lat":43.27919,"lon":5.41056,"is_reserved":false,"is_disabled":true,"rental_uris":{"android":"levelo://app?vid=d01cfddf-7881-4b7c-815e-f570bddc475f","ios":"levelo://app?vid=d01cfddf-7881-4b7c-815e-f570bddc475f"},"vehicle_type_id":"4","last_reported":1739470367,"current_range_meters":1200,"station_id":"ce4bhnp2rcd13ifvqh0g","pricing_plan_id":"cebpf4jnsgd1na2vs0mg"},{"bike_id":"bf7e6c94-7041-483f-8c46-d5d153ea82ac","system_id":"levelo_inurba_marseille","lat":43.28856,"lon":5.3587,"is_reserved":false,"is_disabled":false,"rental_uris":{"android":"levelo://app?vid=bf7e6c94-7041-483f-8c46-d5d153ea82ac","ios":"levelo://app?vid=bf7e6c94-7041-483f-8c46-d5d153ea82ac"},"vehicle_type_id":"4","last_reported":1739470367,"current_range_meters":27600,"station_id":"ce4bhb12rcd13ifvqem0","pricing_plan_id":"cebpf4jnsgd1na2vs0mg"},{"bike_id":"401ea814-ea85-480c-aaa8-c59f8e9e2884","system_id":"levelo_inurba_marseille","lat":43.29708,"lon":5.36622,"is_reserved":false,"is_disabled":true,"rental_uris":{"android":"levelo://app?vid=401ea814-ea85-480c-aaa8-c59f8e9e2884","ios":"levelo://app?vid=401ea814-ea85-480c-aaa8-c59f8e9e2884"},"vehicle_type_id":"4","last_reported":1739470367,"current_range_meters":1600,"station_id":"ce4bgn12rcd13ifvqbt0","pricing_plan_id":"cebpf4jnsgd1na2vs0mg"},{"bike_id":"9564afad-fbfb-48de-9a99-2683a138b1aa","system_id":"levelo_inurba_marseille","lat":43.24549,"lon":5.39527,"is_reserved":false,"is_disabled":false,"rental_uris":{"android":"levelo://app?vid=9564afad-fbfb-48de-9a99-2683a138b1aa","ios":"levelo://app?vid=9564afad-fbfb-48de-9a99-2683a138b1aa"},"vehicle_type_id":"4","last_reported":1739470367,"current_range_meters":38800,"station_id":"ce4bhlp2rcd13ifvqgjg","pricing_plan_id":"cebpf4jnsgd1na2vs0mg"},{"bike_id":"533e6cd1-6e14-49bd-bce6-9bad7d0e5064","system_id":"levelo_inurba_marseille","lat":43.29522,"lon":5.3904,"is_reserved":false,"is_disabled":false,"rental_uris":{"android":"levelo://app?vid=533e6cd1-6e14-49bd-bce6-9bad7d0e5064","ios":"levelo://app?vid=533e6cd1-6e14-49bd-bce6-9bad7d0e5064"},"vehicle_type_id":"4","last_reported":1739470367,"current_range_meters":38800,"station_id":"ce4bh3p2rcd13ifvqdp0","pricing_plan_id":"cebpf4jnsgd1na2vs0mg"},{"bike_id":"5ebd5db9-a566-4a1d-9883-36559b682201","system_id":"levelo_inurba_marseille","lat":43.24808,"lon":5.37446,"is_reserved":false,"is_disabled":false,"rental_uris":{"android":"levelo://app?vid=5ebd5db9-a566-4a1d-9883-36559b682201","ios":"levelo://app?vid=5ebd5db9-a566-4a1d-9883-36559b682201"},"vehicle_type_id":"4","last_reported":1739470367,"current_range_meters":23200,"station_id":"ce4bhgh2rcd13ifvqfb0","pricing_plan_id":"cebpf4jnsgd1na2vs0mg"},{"bike_id":"84226af5-4580-41c6-a213-edd71e22dc08","system_id":"levelo_inurba_marseille","lat":43.28932,"lon":5.38393,"is_reserved":false,"is_disabled":false,"rental_uris":{"android":"levelo://app?vid=84226af5-4580-41c6-a213-edd71e22dc08","ios":"levelo://app?vid=84226af5-4580-41c6-a213-edd71e22dc08"},"vehicle_type_id":"4","last_reported":1739470367,"current_range_meters":21600,"station_id":"ce4bh612rcd13ifvqe6g","pricing_plan_id":"cebpf4jnsgd1na2vs0mg"},{"bike_id":"d94ad0a4-4209-47fc-bb1e-86a94e106366","system_id":"levelo_inurba_marseille","lat":43.28854,"lon":5.35864,"is_reserved":false,"is_disabled":false,"rental_uris":{"android":"levelo://app?vid=d94ad0a4-4209-47fc-bb1e-86a94e106366","ios":"levelo://app?vid=d94ad0a4-4209-47fc-bb1e-86a94e106366"},"vehicle_type_id":"4","last_reported":1739470367,"current_range_meters":11200,"station_id":"ce4bhb12rcd13ifvqem0","pricing_plan_id":"cebpf4jnsgd1na2vs0mg"},{"bike_id":"ee079ffa-4416-4a91-bc98-3bd665acea3b","system_id":"levelo_inurba_marseille","lat":43.33775,"lon":5.39143,"is_reserved":false,"is_disabled":false,"rental_uris":{"android":"levelo://app?vid=ee079ffa-4416-4a91-bc98-3bd665acea3b","ios":"levelo://app?vid=ee079ffa-4416-4a91-bc98-3bd665acea3b"},"vehicle_type_id":"4","last_reported":1739470367,"current_range_meters":38800,"station_id":"ce4bhr92rcd13ifvqhsg","pricing_plan_id":"cebpf4jnsgd1na2vs0mg"},{"bike_id":"1fa82dc6-47d4-4356-bbca-393bf4461726","system_id":"levelo_inurba_marseille","lat":43.23958,"lon":5.36627,"is_reserved":false,"is_disabled":false,"rental_uris":{"android":"levelo://app?vid=1fa82dc6-47d4-4356-bbca-393bf4461726","ios":"levelo://app?vid=1fa82dc6-47d4-4356-bbca-393bf4461726"},"vehicle_type_id":"4","last_reported":1739470367,"current_range_meters":38800,"station_id":"ce4bhi12rcd13ifvqfp0","pricing_plan_id":"cebpf4jnsgd1na2vs0mg"},{"bike_id":"2355c6e5-09c3-4950-a7a8-dbebf456e6b5","system_id":"levelo_inurba_marseille","lat":43.30797,"lon":5.36612,"is_reserved":false,"is_disabled":false,"rental_uris":{"android":"levelo://app?vid=2355c6e5-09c3-4950-a7a8-dbebf456e6b5","ios":"levelo://app?vid=2355c6e5-09c3-4950-a7a8-dbebf456e6b5"},"vehicle_type_id":"4","last_reported":1739470367,"current_range_meters":21600,"station_id":"","pricing_plan_id":"cebpf4jnsgd1na2vs0mg"},{"bike_id":"819e7e79-051d-499c-bca3-f9fd284048ad","system_id":"levelo_inurba_marseille","lat":43.25015,"lon":5.38944,"is_reserved":false,"is_disabled":false,"rental_uris":{"android":"levelo://app?vid=819e7e79-051d-499c-bca3-f9fd284048ad","ios":"levelo://app?vid=819e7e79-051d-499c-bca3-f9fd284048ad"},"vehicle_type_id":"4","last_reported":1739470367,"current_range_meters":33600,"station_id":"ce4bhgp2rcd13ifvqfd0","pricing_plan_id":"cebpf4jnsgd1na2vs0mg"},{"bike_id":"2a4b9998-a405-4a0e-9257-7329c18e12ae","system_id":"levelo_inurba_marseille","lat":43.24071,"lon":5.37757,"is_reserved":false,"is_disabled":false,"rental_uris":{"android":"levelo://app?vid=2a4b9998-a405-4a0e-9257-7329c18e12ae","ios":"levelo://app?vid=2a4b9998-a405-4a0e-9257-7329c18e12ae"},"vehicle_type_id":"4","last_reported":1739470367,"current_range_meters":19200,"station_id":"ce4bhnp2rcd13ifvqgvg","pricing_plan_id":"cebpf4jnsgd1na2vs0mg"},{"bike_id":"c97f57a6-0da5-48c5-87d2-c58bfcc7a8fb","system_id":"levelo_inurba_marseille","lat":43.29532,"lon":5.38544,"is_reserved":false,"is_disabled":false,"rental_uris":{"android":"levelo://app?vid=c97f57a6-0da5-48c5-87d2-c58bfcc7a8fb","ios":"levelo://app?vid=c97f57a6-0da5-48c5-87d2-c58bfcc7a8fb"},"vehicle_type_id":"4","last_reported":1739470367,"current_range_meters":19200,"station_id":"ce4bgih2rcd13ifvqba0","pricing_plan_id":"cebpf4jnsgd1na2vs0mg"},{"bike_id":"54af1910-a870-4a3d-b6f2-4913e60c3757","system_id":"levelo_inurba_marseille","lat":43.3127,"lon":5.40169,"is_reserved":false,"is_disabled":false,"rental_uris":{"android":"levelo://app?vid=54af1910-a870-4a3d-b6f2-4913e60c3757","ios":"levelo://app?vid=54af1910-a870-4a3d-b6f2-4913e60c3757"},"vehicle_type_id":"4","last_reported":1739470367,"current_range_meters":36400,"station_id":"ce4bh092rcd13ifvqd30","pricing_plan_id":"cebpf4jnsgd1na2vs0mg"},{"bike_id":"b2c2d795-8fcd-4b62-8101-8fe31e15144e","system_id":"levelo_inurba_marseille","lat":43.29838,"lon":5.36379,"is_reserved":false,"is_disabled":false,"rental_uris":{"android":"levelo://app?vid=b2c2d795-8fcd-4b62-8101-8fe31e15144e","ios":"levelo://app?vid=b2c2d795-8fcd-4b62-8101-8fe31e15144e"},"vehicle_type_id":"4","last_reported":1739470367,"current_range_meters":17200,"station_id":"","pricing_plan_id":"cebpf4jnsgd1na2vs0mg"},{"bike_id":"a3c1a4ab-82f6-4315-9ed6-5bac6bafe89a","system_id":"levelo_inurba_marseille","lat":43.28721,"lon":5.36083,"is_reserved":false,"is_disabled":false,"rental_uris":{"android":"levelo://app?vid=a3c1a4ab-82f6-4315-9ed6-5bac6bafe89a","ios":"levelo://app?vid=a3c1a4ab-82f6-4315-9ed6-5bac6bafe89a"},"vehicle_type_id":"4","last_reported":1739470367,"current_range_meters":22400,"station_id":"cki0cbj6b192h4jlfktg","pricing_plan_id":"cebpf4jnsgd1na2vs0mg"},{"bike_id":"d67aad59-4a02-4d1a-b67f-1695a41106f2","system_id":"levelo_inurba_marseille","lat":43.30353,"lon":5.41885,"is_reserved":false,"is_disabled":false,"rental_uris":{"android":"levelo://app?vid=d67aad59-4a02-4d1a-b67f-1695a41106f2","ios":"levelo://app?vid=d67aad59-4a02-4d1a-b67f-1695a41106f2"},"vehicle_type_id":"4","last_reported":1739470367,"current_range_meters":38400,"station_id":"ce4bhop2rcd13ifvqh7g","pricing_plan_id":"cebpf4jnsgd1na2vs0mg"},{"bike_id":"0f2de5cd-c636-4001-ab39-c26b347a3fee","system_id":"levelo_inurba_marseille","lat":43.26064,"lon":5.39398,"is_reserved":false,"is_disabled":false,"rental_uris":{"android":"levelo://app?vid=0f2de5cd-c636-4001-ab39-c26b347a3fee","ios":"levelo://app?vid=0f2de5cd-c636-4001-ab39-c26b347a3fee"},"vehicle_type_id":"4","last_reported":1739470367,"current_range_meters":11600,"station_id":"ce4bhh92rcd13ifvqfj0","pricing_plan_id":"cebpf4jnsgd1na2vs0mg"},{"bike_id":"0130699f-32f3-4b3d-b84a-f038ad5035d9","system_id":"levelo_inurba_marseille","lat":43.24805,"lon":5.3745,"is_reserved":false,"is_disabled":false,"rental_uris":{"android":"levelo://app?vid=0130699f-32f3-4b3d-b84a-f038ad5035d9","ios":"levelo://app?vid=0130699f-32f3-4b3d-b84a-f038ad5035d9"},"vehicle_type_id":"4","last_reported":1739470367,"current_range_meters":22800,"station_id":"ce4bhgh2rcd13ifvqfb0","pricing_plan_id":"cebpf4jnsgd1na2vs0mg"},{"bike_id":"64c6b46b-656d-4ea4-b38b-769c889a07b3","system_id":"levelo_inurba_marseille","lat":43.26544,"lon":5.39055,"is_reserved":false,"is_disabled":false,"rental_uris":{"android":"levelo://app?vid=64c6b46b-656d-4ea4-b38b-769c889a07b3","ios":"levelo://app?vid=64c6b46b-656d-4ea4-b38b-769c889a07b3"},"vehicle_type_id":"4","last_reported":1739470367,"current_range_meters":800,"station_id":"ce4bhe12rcd13ifvqf30","pricing_plan_id":"cebpf4jnsgd1na2vs0mg"},{"bike_id":"39aaa5d4-2a53-47c2-883c-03455c231e64","system_id":"levelo_inurba_marseille","lat":43.28717,"lon":5.36082,"is_reserved":false,"is_disabled":false,"rental_uris":{"android":"levelo://app?vid=39aaa5d4-2a53-47c2-883c-03455c231e64","ios":"levelo://app?vid=39aaa5d4-2a53-47c2-883c-03455c231e64"},"vehicle_type_id":"4","last_reported":1739470367,"current_range_meters":37600,"station_id":"cki0cbj6b192h4jlfktg","pricing_plan_id":"cebpf4jnsgd1na2vs0mg"},{"bike_id":"37377cda-0e4f-4665-9765-a0444952209e","system_id":"levelo_inurba_marseille","lat":43.286692,"lon":5.386667,"is_reserved":false,"is_disabled":false,"rental_uris":{"android":"levelo://app?vid=37377cda-0e4f-4665-9765-a0444952209e","ios":"levelo://app?vid=37377cda-0e4f-4665-9765-a0444952209e"},"vehicle_type_id":"4","last_reported":1739470367,"current_range_meters":38800,"station_id":"ce4bh492rcd13ifvqdug","pricing_plan_id":"cebpf4jnsgd1na2vs0mg"},{"bike_id":"05bc212d-c2c7-46d5-8cdf-b4ccb1c165a0","system_id":"levelo_inurba_marseille","lat":43.30527,"lon":5.36711,"is_reserved":false,"is_disabled":false,"rental_uris":{"android":"levelo://app?vid=05bc212d-c2c7-46d5-8cdf-b4ccb1c165a0","ios":"levelo://app?vid=05bc212d-c2c7-46d5-8cdf-b4ccb1c165a0"},"vehicle_type_id":"4","last_reported":1739470367,"current_range_meters":37600,"station_id":"ce4bgrp2rcd13ifvqc9g","pricing_plan_id":"cebpf4jnsgd1na2vs0mg"},{"bike_id":"85299ea2-1a1b-41d4-8ee9-43325dd8e003","system_id":"levelo_inurba_marseille","lat":43.29221,"lon":5.36044,"is_reserved":false,"is_disabled":false,"rental_uris":{"android":"levelo://app?vid=85299ea2-1a1b-41d4-8ee9-43325dd8e003","ios":"levelo://app?vid=85299ea2-1a1b-41d4-8ee9-43325dd8e003"},"vehicle_type_id":"4","last_reported":1739470367,"current_range_meters":38800,"station_id":"ce4bhbh2rcd13ifvqeqg","pricing_plan_id":"cebpf4jnsgd1na2vs0mg"},{"bike_id":"08a86ebb-b290-4f14-9520-6a5a716f26bd","system_id":"levelo_inurba_marseille","lat":43.23965,"lon":5.36619,"is_reserved":false,"is_disabled":false,"rental_uris":{"android":"levelo://app?vid=08a86ebb-b290-4f14-9520-6a5a716f26bd","ios":"levelo://app?vid=08a86ebb-b290-4f14-9520-6a5a716f26bd"},"vehicle_type_id":"4","last_reported":1739470367,"current_range_meters":38800,"station_id":"ce4bhi12rcd13ifvqfp0","pricing_plan_id":"cebpf4jnsgd1na2vs0mg"},{"bike_id":"d753550e-af52-4c00-85c2-fcac321162e5","system_id":"levelo_inurba_marseille","lat":43.28348,"lon":5.38122,"is_reserved":false,"is_disabled":false,"rental_uris":{"android":"levelo://app?vid=d753550e-af52-4c00-85c2-fcac321162e5","ios":"levelo://app?vid=d753550e-af52-4c00-85c2-fcac321162e5"},"vehicle_type_id":"4","last_reported":1739470367,"current_range_meters":36400,"station_id":"ce4bh412rcd13ifvqdr0","pricing_plan_id":"cebpf4jnsgd1na2vs0mg"},{"bike_id":"4ed64f54-aa07-4e00-a896-aaa9628bfbc7","system_id":"levelo_inurba_marseille","lat":43.30099,"lon":5.3908,"is_reserved":false,"is_disabled":false,"rental_uris":{"android":"levelo://app?vid=4ed64f54-aa07-4e00-a896-aaa9628bfbc7","ios":"levelo://app?vid=4ed64f54-aa07-4e00-a896-aaa9628bfbc7"},"vehicle_type_id":"4","last_reported":1739470367,"current_range_meters":17200,"station_id":"ce4bh192rcd13ifvqdb0","pricing_plan_id":"cebpf4jnsgd1na2vs0mg"},{"bike_id":"b0e41783-fdea-44bc-8bdb-e91e16025fcd","system_id":"levelo_inurba_marseille","lat":43.29029,"lon":5.38646,"is_reserved":false,"is_disabled":false,"rental_uris":{"android":"levelo://app?vid=b0e41783-fdea-44bc-8bdb-e91e16025fcd","ios":"levelo://app?vid=b0e41783-fdea-44bc-8bdb-e91e16025fcd"},"vehicle_type_id":"4","last_reported":1739470367,"current_range_meters":5600,"station_id":"ce4bh4p2rcd13ifvqe0g","pricing_plan_id":"cebpf4jnsgd1na2vs0mg"},{"bike_id":"23849fcd-4bc4-44f6-8337-e9a9a16fe0e7","system_id":"levelo_inurba_marseille","lat":43.29742,"lon":5.47958,"is_reserved":false,"is_disabled":false,"rental_uris":{"android":"levelo://app?vid=23849fcd-4bc4-44f6-8337-e9a9a16fe0e7","ios":"levelo://app?vid=23849fcd-4bc4-44f6-8337-e9a9a16fe0e7"},"vehicle_type_id":"4","last_reported":1739470367,"current_range_meters":7200,"station_id":"","pricing_plan_id":"cebpf4jnsgd1na2vs0mg"},{"bike_id":"fe02ae05-699c-4f05-a53d-04396c4b1391","system_id":"levelo_inurba_marseille","lat":43.29426,"lon":5.38642,"is_reserved":false,"is_disabled":false,"rental_uris":{"android":"levelo://app?vid=fe02ae05-699c-4f05-a53d-04396c4b1391","ios":"levelo://app?vid=fe02ae05-699c-4f05-a53d-04396c4b1391"},"vehicle_type_id":"4","last_reported":1739470367,"current_range_meters":38800,"station_id":"ce4bh2h2rcd13ifvqdh0","pricing_plan_id":"cebpf4jnsgd1na2vs0mg"},{"bike_id":"b0cae8d3-198e-407c-b6c1-39aa79afc637","system_id":"levelo_inurba_marseille","lat":43.30309,"lon":5.39219,"is_reserved":false,"is_disabled":false,"rental_uris":{"android":"levelo://app?vid=b0cae8d3-198e-407c-b6c1-39aa79afc637","ios":"levelo://app?vid=b0cae8d3-198e-407c-b6c1-39aa79afc637"},"vehicle_type_id":"4","last_reported":1739470367,"current_range_meters":20400,"station_id":"ce4bgkh2rcd13ifvqbk0","pricing_plan_id":"cebpf4jnsgd1na2vs0mg"},{"bike_id":"9e1b4f1a-9453-4547-8dc5-ef181d8eb72c","system_id":"levelo_inurba_marseille","lat":43.29584,"lon":5.37495,"is_reserved":false,"is_disabled":false,"rental_uris":{"android":"levelo://app?vid=9e1b4f1a-9453-4547-8dc5-ef181d8eb72c","ios":"levelo://app?vid=9e1b4f1a-9453-4547-8dc5-ef181d8eb72c"},"vehicle_type_id":"4","last_reported":1739470367,"current_range_meters":28000,"station_id":"ce4bgh92rcd13ifvqb50","pricing_plan_id":"cebpf4jnsgd1na2vs0mg"},{"bike_id":"77f98c33-0467-4500-8d8f-262907ee4a9e","system_id":"levelo_inurba_marseille","lat":43.28479,"lon":5.38426,"is_reserved":false,"is_disabled":true,"rental_uris":{"android":"levelo://app?vid=77f98c33-0467-4500-8d8f-262907ee4a9e","ios":"levelo://app?vid=77f98c33-0467-4500-8d8f-262907ee4a9e"},"vehicle_type_id":"4","last_reported":1739470367,"current_range_meters":0,"station_id":"ce4bh512rcd13ifvqe3g","pricing_plan_id":"cebpf4jnsgd1na2vs0mg"},{"bike_id":"6564df71-c499-4b26-84fe-5d87f8450a62","system_id":"levelo_inurba_marseille","lat":43.30247,"lon":5.4007,"is_reserved":false,"is_disabled":false,"rental_uris":{"android":"levelo://app?vid=6564df71-c499-4b26-84fe-5d87f8450a62","ios":"levelo://app?vid=6564df71-c499-4b26-84fe-5d87f8450a62"},"vehicle_type_id":"4","last_reported":1739470367,"current_range_meters":10800,"station_id":"ce4bgvh2rcd13ifvqcs0","pricing_plan_id":"cebpf4jnsgd1na2vs0mg"},{"bike_id":"1f84712b-5242-428d-8c9a-77198073a7b1","system_id":"levelo_inurba_marseille","lat":43.28818,"lon":5.359,"is_reserved":false,"is_disabled":false,"rental_uris":{"android":"levelo://app?vid=1f84712b-5242-428d-8c9a-77198073a7b1","ios":"levelo://app?vid=1f84712b-5242-428d-8c9a-77198073a7b1"},"vehicle_type_id":"4","last_reported":1739470367,"current_range_meters":21600,"station_id":"","pricing_plan_id":"cebpf4jnsgd1na2vs0mg"},{"bike_id":"6cfbf51a-4ec4-4b50-afa2-a58eb7355bc4","system_id":"levelo_inurba_marseille","lat":43.327235,"lon":5.3917,"is_reserved":false,"is_disabled":false,"rental_uris":{"android":"levelo://app?vid=6cfbf51a-4ec4-4b50-afa2-a58eb7355bc4","ios":"levelo://app?vid=6cfbf51a-4ec4-4b50-afa2-a58eb7355bc4"},"vehicle_type_id":"4","last_reported":1739470367,"current_range_meters":26000,"station_id":"","pricing_plan_id":"cebpf4jnsgd1na2vs0mg"},{"bike_id":"2ffed822-7174-41f8-ad36-b592fa66c5a6","system_id":"levelo_inurba_marseille","lat":43.23063,"lon":5.35493,"is_reserved":false,"is_disabled":false,"rental_uris":{"android":"levelo://app?vid=2ffed822-7174-41f8-ad36-b592fa66c5a6","ios":"levelo://app?vid=2ffed822-7174-41f8-ad36-b592fa66c5a6"},"vehicle_type_id":"4","last_reported":1739470367,"current_range_meters":8000,"station_id":"cpo3342slgdg3j2ifvpg","pricing_plan_id":"cebpf4jnsgd1na2vs0mg"},{"bike_id":"39caa847-b837-4440-a510-689edd01525f","system_id":"levelo_inurba_marseille","lat":43.23962,"lon":5.36622,"is_reserved":false,"is_disabled":false,"rental_uris":{"android":"levelo://app?vid=39caa847-b837-4440-a510-689edd01525f","ios":"levelo://app?vid=39caa847-b837-4440-a510-689edd01525f"},"vehicle_type_id":"4","last_reported":1739470367,"current_range_meters":24400,"station_id":"ce4bhi12rcd13ifvqfp0","pricing_plan_id":"cebpf4jnsgd1na2vs0mg"},{"bike_id":"90069231-8d02-46fd-ba3f-d8e7e83900ee","system_id":"levelo_inurba_marseille","lat":43.28835,"lon":5.43805,"is_reserved":false,"is_disabled":true,"rental_uris":{"android":"levelo://app?vid=90069231-8d02-46fd-ba3f-d8e7e83900ee","ios":"levelo://app?vid=90069231-8d02-46fd-ba3f-d8e7e83900ee"},"vehicle_type_id":"4","last_reported":1739470367,"current_range_meters":0,"station_id":"","pricing_plan_id":"cebpf4jnsgd1na2vs0mg"},{"bike_id":"9d249881-5a15-4231-8a5b-9e0b021f19d2","system_id":"levelo_inurba_marseille","lat":43.27938,"lon":5.38726,"is_reserved":false,"is_disabled":true,"rental_uris":{"android":"levelo://app?vid=9d249881-5a15-4231-8a5b-9e0b021f19d2","ios":"levelo://app?vid=9d249881-5a15-4231-8a5b-9e0b021f19d2"},"vehicle_type_id":"4","last_reported":1739470367,"current_range_meters":35200,"station_id":"ce4bhg12rcd13ifvqf80","pricing_plan_id":"cebpf4jnsgd1na2vs0mg"},{"bike_id":"350ff188-93d8-4bc6-9b08-539cc0c0339f","system_id":"levelo_inurba_marseille","lat":43.289757,"lon":5.382258,"is_reserved":false,"is_disabled":false,"rental_uris":{"android":"levelo://app?vid=350ff188-93d8-4bc6-9b08-539cc0c0339f","ios":"levelo://app?vid=350ff188-93d8-4bc6-9b08-539cc0c0339f"},"vehicle_type_id":"4","last_reported":1739470367,"current_range_meters":4800,"station_id":"ce4bh512rcd13ifvqe2g","pricing_plan_id":"cebpf4jnsgd1na2vs0mg"},{"bike_id":"1197363b-8b66-4a7f-a57b-5c2dad4c9493","system_id":"levelo_inurba_marseille","lat":43.29648,"lon":5.37143,"is_reserved":false,"is_disabled":false,"rental_uris":{"android":"levelo://app?vid=1197363b-8b66-4a7f-a57b-5c2dad4c9493","ios":"levelo://app?vid=1197363b-8b66-4a7f-a57b-5c2dad4c9493"},"vehicle_type_id":"4","last_reported":1739470367,"current_range_meters":27200,"station_id":"ce4bgnh2rcd13ifvqc0g","pricing_plan_id":"cebpf4jnsgd1na2vs0mg"},{"bike_id":"1739bcfd-3cfe-46fa-bed1-d5d83b6ff884","system_id":"levelo_inurba_marseille","lat":43.30426,"lon":5.38875,"is_reserved":false,"is_disabled":false,"rental_uris":{"android":"levelo://app?vid=1739bcfd-3cfe-46fa-bed1-d5d83b6ff884","ios":"levelo://app?vid=1739bcfd-3cfe-46fa-bed1-d5d83b6ff884"},"vehicle_type_id":"4","last_reported":1739470367,"current_range_meters":16000,"station_id":"ce4bgk12rcd13ifvqbi0","pricing_plan_id":"cebpf4jnsgd1na2vs0mg"},{"bike_id":"3e70e7f5-7399-450e-abe2-2d9863982e06","system_id":"levelo_inurba_marseille","lat":43.30797,"lon":5.38173,"is_reserved":false,"is_disabled":false,"rental_uris":{"android":"levelo://app?vid=3e70e7f5-7399-450e-abe2-2d9863982e06","ios":"levelo://app?vid=3e70e7f5-7399-450e-abe2-2d9863982e06"},"vehicle_type_id":"4","last_reported":1739470367,"current_range_meters":2000,"station_id":"ce4bgt12rcd13ifvqce0","pricing_plan_id":"cebpf4jnsgd1na2vs0mg"},{"bike_id":"76c1b6f4-a8f2-41c4-a5d3-46affc7e3b84","system_id":"levelo_inurba_marseille","lat":43.28619,"lon":5.3509,"is_reserved":false,"is_disabled":false,"rental_uris":{"android":"levelo://app?vid=76c1b6f4-a8f2-41c4-a5d3-46affc7e3b84","ios":"levelo://app?vid=76c1b6f4-a8f2-41c4-a5d3-46affc7e3b84"},"vehicle_type_id":"4","last_reported":1739470367,"current_range_meters":19600,"station_id":"ce4bhch2rcd13ifvqeug","pricing_plan_id":"cebpf4jnsgd1na2vs0mg"},{"bike_id":"93b3ab4b-25bb-4455-9a6e-aaf7d3bdc357","system_id":"levelo_inurba_marseille","lat":43.284,"lon":5.37495,"is_reserved":false,"is_disabled":false,"rental_uris":{"android":"levelo://app?vid=93b3ab4b-25bb-4455-9a6e-aaf7d3bdc357","ios":"levelo://app?vid=93b3ab4b-25bb-4455-9a6e-aaf7d3bdc357"},"vehicle_type_id":"4","last_reported":1739470367,"current_range_meters":38800,"station_id":"ce4bh412rcd13ifvqds0","pricing_plan_id":"cebpf4jnsgd1na2vs0mg"},{"bike_id":"53f8705c-fe16-48e7-b434-264de6ead598","system_id":"levelo_inurba_marseille","lat":43.24804,"lon":5.37452,"is_reserved":false,"is_disabled":false,"rental_uris":{"android":"levelo://app?vid=53f8705c-fe16-48e7-b434-264de6ead598","ios":"levelo://app?vid=53f8705c-fe16-48e7-b434-264de6ead598"},"vehicle_type_id":"4","last_reported":1739470367,"current_range_meters":38000,"station_id":"ce4bhgh2rcd13ifvqfb0","pricing_plan_id":"cebpf4jnsgd1na2vs0mg"},{"bike_id":"60b4b24c-997c-42e2-b2f9-ef7d673c1e51","system_id":"levelo_inurba_marseille","lat":43.28461,"lon":5.35896,"is_reserved":false,"is_disabled":false,"rental_uris":{"android":"levelo://app?vid=60b4b24c-997c-42e2-b2f9-ef7d673c1e51","ios":"levelo://app?vid=60b4b24c-997c-42e2-b2f9-ef7d673c1e51"},"vehicle_type_id":"4","last_reported":1739470367,"current_range_meters":27600,"station_id":"ce4bhah2rcd13ifvqei0","pricing_plan_id":"cebpf4jnsgd1na2vs0mg"},{"bike_id":"aa2db575-a64b-4195-9268-c6aea641e962","system_id":"levelo_inurba_marseille","lat":43.29713,"lon":5.36614,"is_reserved":false,"is_disabled":false,"rental_uris":{"android":"levelo://app?vid=aa2db575-a64b-4195-9268-c6aea641e962","ios":"levelo://app?vid=aa2db575-a64b-4195-9268-c6aea641e962"},"vehicle_type_id":"4","last_reported":1739470367,"current_range_meters":25200,"station_id":"ce4bgn12rcd13ifvqbt0","pricing_plan_id":"cebpf4jnsgd1na2vs0mg"},{"bike_id":"0c528773-2c23-43bd-a0fb-dcb7fb6e358e","system_id":"levelo_inurba_marseille","lat":43.26575,"lon":5.39013,"is_reserved":false,"is_disabled":false,"rental_uris":{"android":"levelo://app?vid=0c528773-2c23-43bd-a0fb-dcb7fb6e358e","ios":"levelo://app?vid=0c528773-2c23-43bd-a0fb-dcb7fb6e358e"},"vehicle_type_id":"4","last_reported":1739470367,"current_range_meters":28800,"station_id":"ce4bhe12rcd13ifvqf30","pricing_plan_id":"cebpf4jnsgd1na2vs0mg"},{"bike_id":"c2250f20-2283-4e17-b7ce-382f2f740aa1","system_id":"levelo_inurba_marseille","lat":43.24808,"lon":5.37454,"is_reserved":false,"is_disabled":false,"rental_uris":{"android":"levelo://app?vid=c2250f20-2283-4e17-b7ce-382f2f740aa1","ios":"levelo://app?vid=c2250f20-2283-4e17-b7ce-382f2f740aa1"},"vehicle_type_id":"4","last_reported":1739470367,"current_range_meters":38800,"station_id":"ce4bhgh2rcd13ifvqfb0","pricing_plan_id":"cebpf4jnsgd1na2vs0mg"},{"bike_id":"4d77db09-905c-49b4-96d1-a6c7bd4303b6","system_id":"levelo_inurba_marseille","lat":43.27381,"lon":5.3625,"is_reserved":false,"is_disabled":false,"rental_uris":{"android":"levelo://app?vid=4d77db09-905c-49b4-96d1-a6c7bd4303b6","ios":"levelo://app?vid=4d77db09-905c-49b4-96d1-a6c7bd4303b6"},"vehicle_type_id":"4","last_reported":1739470367,"current_range_meters":33200,"station_id":"ce4bhbh2rcd13ifvqeo0","pricing_plan_id":"cebpf4jnsgd1na2vs0mg"},{"bike_id":"79e5ad63-abd5-4d07-9e51-60dc9e7253cd","system_id":"levelo_inurba_marseille","lat":43.23188,"lon":5.39999,"is_reserved":false,"is_disabled":true,"rental_uris":{"android":"levelo://app?vid=79e5ad63-abd5-4d07-9e51-60dc9e7253cd","ios":"levelo://app?vid=79e5ad63-abd5-4d07-9e51-60dc9e7253cd"},"vehicle_type_id":"4","last_reported":1739470367,"current_range_meters":0,"station_id":"ce4bhn12rcd13ifvqgqg","pricing_plan_id":"cebpf4jnsgd1na2vs0mg"},{"bike_id":"492e558b-0ce5-4984-b6b1-1d33f225a96b","system_id":"levelo_inurba_marseille","lat":43.2417,"lon":5.36397,"is_reserved":false,"is_disabled":false,"rental_uris":{"android":"levelo://app?vid=492e558b-0ce5-4984-b6b1-1d33f225a96b","ios":"levelo://app?vid=492e558b-0ce5-4984-b6b1-1d33f225a96b"},"vehicle_type_id":"4","last_reported":1739470367,"current_range_meters":38800,"station_id":"cpo36qri1sfpv3e86is0","pricing_plan_id":"cebpf4jnsgd1na2vs0mg"},{"bike_id":"6bf99e3e-9f10-4617-93f9-2e16108e33a0","system_id":"levelo_inurba_marseille","lat":43.231583,"lon":5.437083,"is_reserved":false,"is_disabled":true,"rental_uris":{"android":"levelo://app?vid=6bf99e3e-9f10-4617-93f9-2e16108e33a0","ios":"levelo://app?vid=6bf99e3e-9f10-4617-93f9-2e16108e33a0"},"vehicle_type_id":"4","last_reported":1739470367,"current_range_meters":0,"station_id":"ce4bhmp2rcd13ifvqgog","pricing_plan_id":"cebpf4jnsgd1na2vs0mg"},{"bike_id":"43146bd0-7d82-4db1-9c4a-4a3ff130e8e3","system_id":"levelo_inurba_marseille","lat":43.28465,"lon":5.35869,"is_reserved":false,"is_disabled":false,"rental_uris":{"android":"levelo://app?vid=43146bd0-7d82-4db1-9c4a-4a3ff130e8e3","ios":"levelo://app?vid=43146bd0-7d82-4db1-9c4a-4a3ff130e8e3"},"vehicle_type_id":"4","last_reported":1739470367,"current_range_meters":21600,"station_id":"ce4bhah2rcd13ifvqei0","pricing_plan_id":"cebpf4jnsgd1na2vs0mg"},{"bike_id":"069b441a-3fd9-4959-8a02-ec410f21c709","system_id":"levelo_inurba_marseille","lat":43.28933,"lon":5.36633,"is_reserved":false,"is_disabled":false,"rental_uris":{"android":"levelo://app?vid=069b441a-3fd9-4959-8a02-ec410f21c709","ios":"levelo://app?vid=069b441a-3fd9-4959-8a02-ec410f21c709"},"vehicle_type_id":"4","last_reported":1739470367,"current_range_meters":16400,"station_id":"ce4bhap2rcd13ifvqek0","pricing_plan_id":"cebpf4jnsgd1na2vs0mg"},{"bike_id":"088ec6cb-2b1e-43ff-bc9d-5684b9acea4b","system_id":"levelo_inurba_marseille","lat":43.29521,"lon":5.38543,"is_reserved":false,"is_disabled":false,"rental_uris":{"android":"levelo://app?vid=088ec6cb-2b1e-43ff-bc9d-5684b9acea4b","ios":"levelo://app?vid=088ec6cb-2b1e-43ff-bc9d-5684b9acea4b"},"vehicle_type_id":"4","last_reported":1739470367,"current_range_meters":38800,"station_id":"ce4bgih2rcd13ifvqba0","pricing_plan_id":"cebpf4jnsgd1na2vs0mg"},{"bike_id":"be71207e-7f95-4256-a81e-0a79070a45b7","system_id":"levelo_inurba_marseille","lat":43.24387,"lon":5.37061,"is_reserved":false,"is_disabled":false,"rental_uris":{"android":"levelo://app?vid=be71207e-7f95-4256-a81e-0a79070a45b7","ios":"levelo://app?vid=be71207e-7f95-4256-a81e-0a79070a45b7"},"vehicle_type_id":"4","last_reported":1739470367,"current_range_meters":12400,"station_id":"ce4bhhh2rcd13ifvqfk0","pricing_plan_id":"cebpf4jnsgd1na2vs0mg"},{"bike_id":"ff489825-db76-49d3-aa98-c1c0aaa6bdad","system_id":"levelo_inurba_marseille","lat":43.2922,"lon":5.36661,"is_reserved":false,"is_disabled":false,"rental_uris":{"android":"levelo://app?vid=ff489825-db76-49d3-aa98-c1c0aaa6bdad","ios":"levelo://app?vid=ff489825-db76-49d3-aa98-c1c0aaa6bdad"},"vehicle_type_id":"4","last_reported":1739470367,"current_range_meters":8800,"station_id":"","pricing_plan_id":"cebpf4jnsgd1na2vs0mg"},{"bike_id":"b05188c1-c27a-4360-a55b-799ca6e034cf","system_id":"levelo_inurba_marseille","lat":43.28026,"lon":5.36941,"is_reserved":false,"is_disabled":false,"rental_uris":{"android":"levelo://app?vid=b05188c1-c27a-4360-a55b-799ca6e034cf","ios":"levelo://app?vid=b05188c1-c27a-4360-a55b-799ca6e034cf"},"vehicle_type_id":"4","last_reported":1739470367,"current_range_meters":14000,"station_id":"ce4bha12rcd13ifvqef0","pricing_plan_id":"cebpf4jnsgd1na2vs0mg"},{"bike_id":"bace8bf9-f802-4769-a1ab-149feec80afe","system_id":"levelo_inurba_marseille","lat":43.28857,"lon":5.35845,"is_reserved":false,"is_disabled":false,"rental_uris":{"android":"levelo://app?vid=bace8bf9-f802-4769-a1ab-149feec80afe","ios":"levelo://app?vid=bace8bf9-f802-4769-a1ab-149feec80afe"},"vehicle_type_id":"4","last_reported":1739470367,"current_range_meters":12400,"station_id":"ce4bhb12rcd13ifvqem0","pricing_plan_id":"cebpf4jnsgd1na2vs0mg"},{"bike_id":"4d3f5a70-1dce-4d1c-a295-aedf62d40057","system_id":"levelo_inurba_marseille","lat":43.28347,"lon":5.38115,"is_reserved":false,"is_disabled":false,"rental_uris":{"android":"levelo://app?vid=4d3f5a70-1dce-4d1c-a295-aedf62d40057","ios":"levelo://app?vid=4d3f5a70-1dce-4d1c-a295-aedf62d40057"},"vehicle_type_id":"4","last_reported":1739470367,"current_range_meters":8800,"station_id":"ce4bh412rcd13ifvqdr0","pricing_plan_id":"cebpf4jnsgd1na2vs0mg"},{"bike_id":"89f55c3f-887e-45d5-8035-c989ef5a5457","system_id":"levelo_inurba_marseille","lat":43.26194,"lon":5.37921,"is_reserved":false,"is_disabled":false,"rental_uris":{"android":"levelo://app?vid=89f55c3f-887e-45d5-8035-c989ef5a5457","ios":"levelo://app?vid=89f55c3f-887e-45d5-8035-c989ef5a5457"},"vehicle_type_id":"4","last_reported":1739470367,"current_range_meters":38800,"station_id":"ce4bhjp2rcd13ifvqg90","pricing_plan_id":"cebpf4jnsgd1na2vs0mg"},{"bike_id":"af7ae1e3-87b2-4cd3-9b8f-a973c351af89","system_id":"levelo_inurba_marseille","lat":43.23183,"lon":5.39988,"is_reserved":false,"is_disabled":false,"rental_uris":{"android":"levelo://app?vid=af7ae1e3-87b2-4cd3-9b8f-a973c351af89","ios":"levelo://app?vid=af7ae1e3-87b2-4cd3-9b8f-a973c351af89"},"vehicle_type_id":"4","last_reported":1739470367,"current_range_meters":36000,"station_id":"ce4bhn12rcd13ifvqgqg","pricing_plan_id":"cebpf4jnsgd1na2vs0mg"},{"bike_id":"004dcd9f-fe33-47bd-93fa-19bdccc4b89f","system_id":"levelo_inurba_marseille","lat":43.251181,"lon":5.403092,"is_reserved":false,"is_disabled":false,"rental_uris":{"android":"levelo://app?vid=004dcd9f-fe33-47bd-93fa-19bdccc4b89f","ios":"levelo://app?vid=004dcd9f-fe33-47bd-93fa-19bdccc4b89f"},"vehicle_type_id":"4","last_reported":1739470367,"current_range_meters":39200,"station_id":"ce4bhm12rcd13ifvqgkg","pricing_plan_id":"cebpf4jnsgd1na2vs0mg"},{"bike_id":"4dbc26c6-2a15-45e7-b1cd-4e0586d88b2f","system_id":"levelo_inurba_marseille","lat":43.2738,"lon":5.3625,"is_reserved":false,"is_disabled":true,"rental_uris":{"android":"levelo://app?vid=4dbc26c6-2a15-45e7-b1cd-4e0586d88b2f","ios":"levelo://app?vid=4dbc26c6-2a15-45e7-b1cd-4e0586d88b2f"},"vehicle_type_id":"4","last_reported":1739470367,"current_range_meters":37600,"station_id":"ce4bhbh2rcd13ifvqeo0","pricing_plan_id":"cebpf4jnsgd1na2vs0mg"},{"bike_id":"2a8d5b38-12c7-43ca-969a-fe7b4ef5b359","system_id":"levelo_inurba_marseille","lat":43.31676,"lon":5.37739,"is_reserved":false,"is_disabled":true,"rental_uris":{"android":"levelo://app?vid=2a8d5b38-12c7-43ca-969a-fe7b4ef5b359","ios":"levelo://app?vid=2a8d5b38-12c7-43ca-969a-fe7b4ef5b359"},"vehicle_type_id":"4","last_reported":1739470367,"current_range_meters":1600,"station_id":"ce4bgth2rcd13ifvqch0","pricing_plan_id":"cebpf4jnsgd1na2vs0mg"},{"bike_id":"724c9143-d440-4dd2-9a58-24dd6a5aaa92","system_id":"levelo_inurba_marseille","lat":43.28342,"lon":5.38094,"is_reserved":false,"is_disabled":false,"rental_uris":{"android":"levelo://app?vid=724c9143-d440-4dd2-9a58-24dd6a5aaa92","ios":"levelo://app?vid=724c9143-d440-4dd2-9a58-24dd6a5aaa92"},"vehicle_type_id":"4","last_reported":1739470367,"current_range_meters":26000,"station_id":"ce4bh412rcd13ifvqdr0","pricing_plan_id":"cebpf4jnsgd1na2vs0mg"},{"bike_id":"00f8a0ff-c4e3-42da-8103-f17cc4b1ba0d","system_id":"levelo_inurba_marseille","lat":43.28157,"lon":5.42635,"is_reserved":false,"is_disabled":false,"rental_uris":{"android":"levelo://app?vid=00f8a0ff-c4e3-42da-8103-f17cc4b1ba0d","ios":"levelo://app?vid=00f8a0ff-c4e3-42da-8103-f17cc4b1ba0d"},"vehicle_type_id":"4","last_reported":1739470367,"current_range_meters":22000,"station_id":"ce4bhnh2rcd13ifvqgug","pricing_plan_id":"cebpf4jnsgd1na2vs0mg"},{"bike_id":"a32498e7-aad4-49ad-999d-df8659505f53","system_id":"levelo_inurba_marseille","lat":43.30138,"lon":5.38786,"is_reserved":false,"is_disabled":false,"rental_uris":{"android":"levelo://app?vid=a32498e7-aad4-49ad-999d-df8659505f53","ios":"levelo://app?vid=a32498e7-aad4-49ad-999d-df8659505f53"},"vehicle_type_id":"4","last_reported":1739470367,"current_range_meters":10000,"station_id":"ce4bghh2rcd13ifvqb60","pricing_plan_id":"cebpf4jnsgd1na2vs0mg"},{"bike_id":"d7211194-703e-4d7b-b1fc-6a1467a41aa6","system_id":"levelo_inurba_marseille","lat":43.2803,"lon":5.36938,"is_reserved":false,"is_disabled":false,"rental_uris":{"android":"levelo://app?vid=d7211194-703e-4d7b-b1fc-6a1467a41aa6","ios":"levelo://app?vid=d7211194-703e-4d7b-b1fc-6a1467a41aa6"},"vehicle_type_id":"4","last_reported":1739470367,"current_range_meters":38800,"station_id":"ce4bha12rcd13ifvqef0","pricing_plan_id":"cebpf4jnsgd1na2vs0mg"},{"bike_id":"5429a055-5c17-4863-ac08-ee7234bc7af8","system_id":"levelo_inurba_marseille","lat":43.3228,"lon":5.36851,"is_reserved":false,"is_disabled":false,"rental_uris":{"android":"levelo://app?vid=5429a055-5c17-4863-ac08-ee7234bc7af8","ios":"levelo://app?vid=5429a055-5c17-4863-ac08-ee7234bc7af8"},"vehicle_type_id":"4","last_reported":1739470367,"current_range_meters":38800,"station_id":"","pricing_plan_id":"cebpf4jnsgd1na2vs0mg"},{"bike_id":"21fa004d-d00f-4273-8617-e259079a21f8","system_id":"levelo_inurba_marseille","lat":43.29177,"lon":5.37148,"is_reserved":false,"is_disabled":false,"rental_uris":{"android":"levelo://app?vid=21fa004d-d00f-4273-8617-e259079a21f8","ios":"levelo://app?vid=21fa004d-d00f-4273-8617-e259079a21f8"},"vehicle_type_id":"4","last_reported":1739470367,"current_range_meters":38800,"station_id":"ce4bha92rcd13ifvqeh0","pricing_plan_id":"cebpf4jnsgd1na2vs0mg"},{"bike_id":"442ec52e-0300-4b86-9a75-0c2085be4a2b","system_id":"levelo_inurba_marseille","lat":43.28932,"lon":5.36329,"is_reserved":false,"is_disabled":false,"rental_uris":{"android":"levelo://app?vid=442ec52e-0300-4b86-9a75-0c2085be4a2b","ios":"levelo://app?vid=442ec52e-0300-4b86-9a75-0c2085be4a2b"},"vehicle_type_id":"4","last_reported":1739470367,"current_range_meters":18800,"station_id":"ce4bhc92rcd13ifvqetg","pricing_plan_id":"cebpf4jnsgd1na2vs0mg"},{"bike_id":"acc39daa-3a4d-4c95-b5a8-16360a611402","system_id":"levelo_inurba_marseille","lat":43.29647,"lon":5.37139,"is_reserved":false,"is_disabled":true,"rental_uris":{"android":"levelo://app?vid=acc39daa-3a4d-4c95-b5a8-16360a611402","ios":"levelo://app?vid=acc39daa-3a4d-4c95-b5a8-16360a611402"},"vehicle_type_id":"4","last_reported":1739470367,"current_range_meters":38000,"station_id":"ce4bgnh2rcd13ifvqc0g","pricing_plan_id":"cebpf4jnsgd1na2vs0mg"},{"bike_id":"1373cbf5-5d03-4dd7-8a69-20c783fb20bf","system_id":"levelo_inurba_marseille","lat":43.24391,"lon":5.37054,"is_reserved":false,"is_disabled":false,"rental_uris":{"android":"levelo://app?vid=1373cbf5-5d03-4dd7-8a69-20c783fb20bf","ios":"levelo://app?vid=1373cbf5-5d03-4dd7-8a69-20c783fb20bf"},"vehicle_type_id":"4","last_reported":1739470367,"current_range_meters":16400,"station_id":"ce4bhhh2rcd13ifvqfk0","pricing_plan_id":"cebpf4jnsgd1na2vs0mg"},{"bike_id":"eea1a41f-cd18-4010-a314-2502ac665690","system_id":"levelo_inurba_marseille","lat":43.23191,"lon":5.35557,"is_reserved":false,"is_disabled":false,"rental_uris":{"android":"levelo://app?vid=eea1a41f-cd18-4010-a314-2502ac665690","ios":"levelo://app?vid=eea1a41f-cd18-4010-a314-2502ac665690"},"vehicle_type_id":"4","last_reported":1739470367,"current_range_meters":38800,"station_id":"ce4bhu92rcd13ifvqi70","pricing_plan_id":"cebpf4jnsgd1na2vs0mg"},{"bike_id":"4fdf2913-f0f2-4177-be02-fff98f5bbef4","system_id":"levelo_inurba_marseille","lat":43.28461,"lon":5.35886,"is_reserved":false,"is_disabled":false,"rental_uris":{"android":"levelo://app?vid=4fdf2913-f0f2-4177-be02-fff98f5bbef4","ios":"levelo://app?vid=4fdf2913-f0f2-4177-be02-fff98f5bbef4"},"vehicle_type_id":"4","last_reported":1739470367,"current_range_meters":28800,"station_id":"ce4bhah2rcd13ifvqei0","pricing_plan_id":"cebpf4jnsgd1na2vs0mg"},{"bike_id":"312d53cd-06dc-40a7-b840-3d8b08df7ccd","system_id":"levelo_inurba_marseille","lat":43.2885,"lon":5.35861,"is_reserved":false,"is_disabled":false,"rental_uris":{"android":"levelo://app?vid=312d53cd-06dc-40a7-b840-3d8b08df7ccd","ios":"levelo://app?vid=312d53cd-06dc-40a7-b840-3d8b08df7ccd"},"vehicle_type_id":"4","last_reported":1739470367,"current_range_meters":12400,"station_id":"ce4bhb12rcd13ifvqem0","pricing_plan_id":"cebpf4jnsgd1na2vs0mg"},{"bike_id":"653e4a99-f461-4685-ab51-3c2bb7d5c39d","system_id":"levelo_inurba_marseille","lat":43.31683,"lon":5.40469,"is_reserved":false,"is_disabled":false,"rental_uris":{"android":"levelo://app?vid=653e4a99-f461-4685-ab51-3c2bb7d5c39d","ios":"levelo://app?vid=653e4a99-f461-4685-ab51-3c2bb7d5c39d"},"vehicle_type_id":"4","last_reported":1739470367,"current_range_meters":21600,"station_id":"ce4bh012rcd13ifvqd00","pricing_plan_id":"cebpf4jnsgd1na2vs0mg"},{"bike_id":"2013cac2-eba1-4d23-a520-58986dfc296d","system_id":"levelo_inurba_marseille","lat":43.29418,"lon":5.38624,"is_reserved":false,"is_disabled":false,"rental_uris":{"android":"levelo://app?vid=2013cac2-eba1-4d23-a520-58986dfc296d","ios":"levelo://app?vid=2013cac2-eba1-4d23-a520-58986dfc296d"},"vehicle_type_id":"4","last_reported":1739470367,"current_range_meters":16800,"station_id":"ce4bh2h2rcd13ifvqdh0","pricing_plan_id":"cebpf4jnsgd1na2vs0mg"},{"bike_id":"a40e6477-f581-46a3-9649-1a7492848197","system_id":"levelo_inurba_marseille","lat":43.31903,"lon":5.40721,"is_reserved":false,"is_disabled":false,"rental_uris":{"android":"levelo://app?vid=a40e6477-f581-46a3-9649-1a7492848197","ios":"levelo://app?vid=a40e6477-f581-46a3-9649-1a7492848197"},"vehicle_type_id":"4","last_reported":1739470367,"current_range_meters":16000,"station_id":"ce4bhq12rcd13ifvqhig","pricing_plan_id":"cebpf4jnsgd1na2vs0mg"},{"bike_id":"4187b006-8b88-4bb2-81f8-cc75afcf34d2","system_id":"levelo_inurba_marseille","lat":43.26208,"lon":5.37923,"is_reserved":false,"is_disabled":false,"rental_uris":{"android":"levelo://app?vid=4187b006-8b88-4bb2-81f8-cc75afcf34d2","ios":"levelo://app?vid=4187b006-8b88-4bb2-81f8-cc75afcf34d2"},"vehicle_type_id":"4","last_reported":1739470367,"current_range_meters":22000,"station_id":"ce4bhjp2rcd13ifvqg90","pricing_plan_id":"cebpf4jnsgd1na2vs0mg"},{"bike_id":"eb74081f-8035-495f-a073-abb8444b5eb2","system_id":"levelo_inurba_marseille","lat":43.23958,"lon":5.36631,"is_reserved":false,"is_disabled":false,"rental_uris":{"android":"levelo://app?vid=eb74081f-8035-495f-a073-abb8444b5eb2","ios":"levelo://app?vid=eb74081f-8035-495f-a073-abb8444b5eb2"},"vehicle_type_id":"4","last_reported":1739470367,"current_range_meters":38400,"station_id":"ce4bhi12rcd13ifvqfp0","pricing_plan_id":"cebpf4jnsgd1na2vs0mg"},{"bike_id":"213e7ed3-b6c6-470c-8e37-ca6ffb58bff8","system_id":"levelo_inurba_marseille","lat":43.274907,"lon":5.424561,"is_reserved":false,"is_disabled":true,"rental_uris":{"android":"levelo://app?vid=213e7ed3-b6c6-470c-8e37-ca6ffb58bff8","ios":"levelo://app?vid=213e7ed3-b6c6-470c-8e37-ca6ffb58bff8"},"vehicle_type_id":"4","last_reported":1739470367,"current_range_meters":27200,"station_id":"ce4bhn92rcd13ifvqgrg","pricing_plan_id":"cebpf4jnsgd1na2vs0mg"},{"bike_id":"b0c294e2-53ff-4e2e-8031-0040bb07b330","system_id":"levelo_inurba_marseille","lat":43.2694,"lon":5.40251,"is_reserved":false,"is_disabled":false,"rental_uris":{"android":"levelo://app?vid=b0c294e2-53ff-4e2e-8031-0040bb07b330","ios":"levelo://app?vid=b0c294e2-53ff-4e2e-8031-0040bb07b330"},"vehicle_type_id":"4","last_reported":1739470367,"current_range_meters":30400,"station_id":"cjm6bp8fraef2m0cb0m0","pricing_plan_id":"cebpf4jnsgd1na2vs0mg"},{"bike_id":"d79ae842-77a2-425d-a851-257db926e8e3","system_id":"levelo_inurba_marseille","lat":43.29591,"lon":5.38112,"is_reserved":false,"is_disabled":false,"rental_uris":{"android":"levelo://app?vid=d79ae842-77a2-425d-a851-257db926e8e3","ios":"levelo://app?vid=d79ae842-77a2-425d-a851-257db926e8e3"},"vehicle_type_id":"4","last_reported":1739470367,"current_range_meters":21600,"station_id":"ce4bgl12rcd13ifvqbo0","pricing_plan_id":"cebpf4jnsgd1na2vs0mg"},{"bike_id":"3b92acd6-3254-4254-8822-55a356dbb932","system_id":"levelo_inurba_marseille","lat":43.29534,"lon":5.38537,"is_reserved":false,"is_disabled":false,"rental_uris":{"android":"levelo://app?vid=3b92acd6-3254-4254-8822-55a356dbb932","ios":"levelo://app?vid=3b92acd6-3254-4254-8822-55a356dbb932"},"vehicle_type_id":"4","last_reported":1739470367,"current_range_meters":27200,"station_id":"ce4bgih2rcd13ifvqba0","pricing_plan_id":"cebpf4jnsgd1na2vs0mg"},{"bike_id":"1ec14052-2d33-4aa1-9ab8-58cc71db74d1","system_id":"levelo_inurba_marseille","lat":43.2417,"lon":5.36395,"is_reserved":false,"is_disabled":true,"rental_uris":{"android":"levelo://app?vid=1ec14052-2d33-4aa1-9ab8-58cc71db74d1","ios":"levelo://app?vid=1ec14052-2d33-4aa1-9ab8-58cc71db74d1"},"vehicle_type_id":"4","last_reported":1739470367,"current_range_meters":5600,"station_id":"cpo36qri1sfpv3e86is0","pricing_plan_id":"cebpf4jnsgd1na2vs0mg"},{"bike_id":"6e58a69c-2a4e-4c49-840d-6e728a603acb","system_id":"levelo_inurba_marseille","lat":43.23069,"lon":5.35482,"is_reserved":false,"is_disabled":false,"rental_uris":{"android":"levelo://app?vid=6e58a69c-2a4e-4c49-840d-6e728a603acb","ios":"levelo://app?vid=6e58a69c-2a4e-4c49-840d-6e728a603acb"},"vehicle_type_id":"4","last_reported":1739470367,"current_range_meters":38800,"station_id":"cpo3342slgdg3j2ifvpg","pricing_plan_id":"cebpf4jnsgd1na2vs0mg"},{"bike_id":"4e01ce0b-738c-4105-bce0-e6deef90d0d4","system_id":"levelo_inurba_marseille","lat":43.28171,"lon":5.4264,"is_reserved":false,"is_disabled":false,"rental_uris":{"android":"levelo://app?vid=4e01ce0b-738c-4105-bce0-e6deef90d0d4","ios":"levelo://app?vid=4e01ce0b-738c-4105-bce0-e6deef90d0d4"},"vehicle_type_id":"4","last_reported":1739470367,"current_range_meters":4400,"station_id":"ce4bhnh2rcd13ifvqgug","pricing_plan_id":"cebpf4jnsgd1na2vs0mg"},{"bike_id":"cdd384b0-278a-4f91-b9e6-35c402322f3a","system_id":"levelo_inurba_marseille","lat":43.2951,"lon":5.39398,"is_reserved":false,"is_disabled":false,"rental_uris":{"android":"levelo://app?vid=cdd384b0-278a-4f91-b9e6-35c402322f3a","ios":"levelo://app?vid=cdd384b0-278a-4f91-b9e6-35c402322f3a"},"vehicle_type_id":"4","last_reported":1739470367,"current_range_meters":28800,"station_id":"ce4bh292rcd13ifvqdf0","pricing_plan_id":"cebpf4jnsgd1na2vs0mg"},{"bike_id":"ad8f6ef4-cc35-4977-9039-32a61f9200e5","system_id":"levelo_inurba_marseille","lat":43.28614,"lon":5.35108,"is_reserved":false,"is_disabled":true,"rental_uris":{"android":"levelo://app?vid=ad8f6ef4-cc35-4977-9039-32a61f9200e5","ios":"levelo://app?vid=ad8f6ef4-cc35-4977-9039-32a61f9200e5"},"vehicle_type_id":"4","last_reported":1739470367,"current_range_meters":0,"station_id":"ce4bhch2rcd13ifvqeug","pricing_plan_id":"cebpf4jnsgd1na2vs0mg"},{"bike_id":"b8fd4424-87fa-4c36-8f07-401f72ba1c65","system_id":"levelo_inurba_marseille","lat":43.30209,"lon":5.36603,"is_reserved":false,"is_disabled":false,"rental_uris":{"android":"levelo://app?vid=b8fd4424-87fa-4c36-8f07-401f72ba1c65","ios":"levelo://app?vid=b8fd4424-87fa-4c36-8f07-401f72ba1c65"},"vehicle_type_id":"4","last_reported":1739470367,"current_range_meters":32400,"station_id":"ce4bgrh2rcd13ifvqc8g","pricing_plan_id":"cebpf4jnsgd1na2vs0mg"},{"bike_id":"6f08f919-86a5-485c-b0c3-bb16495ff6df","system_id":"levelo_inurba_marseille","lat":43.29932,"lon":5.36539,"is_reserved":false,"is_disabled":false,"rental_uris":{"android":"levelo://app?vid=6f08f919-86a5-485c-b0c3-bb16495ff6df","ios":"levelo://app?vid=6f08f919-86a5-485c-b0c3-bb16495ff6df"},"vehicle_type_id":"4","last_reported":1739470367,"current_range_meters":20000,"station_id":"ce4bgm92rcd13ifvqbr0","pricing_plan_id":"cebpf4jnsgd1na2vs0mg"},{"bike_id":"4450d397-c7c4-4c68-aed9-fa811598c082","system_id":"levelo_inurba_marseille","lat":43.32556,"lon":5.36505,"is_reserved":false,"is_disabled":false,"rental_uris":{"android":"levelo://app?vid=4450d397-c7c4-4c68-aed9-fa811598c082","ios":"levelo://app?vid=4450d397-c7c4-4c68-aed9-fa811598c082"},"vehicle_type_id":"4","last_reported":1739470367,"current_range_meters":36000,"station_id":"","pricing_plan_id":"cebpf4jnsgd1na2vs0mg"},{"bike_id":"902f2498-cc15-4d36-8778-6ae92a7e7078","system_id":"levelo_inurba_marseille","lat":43.29871,"lon":5.3973,"is_reserved":false,"is_disabled":false,"rental_uris":{"android":"levelo://app?vid=902f2498-cc15-4d36-8778-6ae92a7e7078","ios":"levelo://app?vid=902f2498-cc15-4d36-8778-6ae92a7e7078"},"vehicle_type_id":"4","last_reported":1739470367,"current_range_meters":16800,"station_id":"ce4bh0h2rcd13ifvqd50","pricing_plan_id":"cebpf4jnsgd1na2vs0mg"},{"bike_id":"04e79b02-26b7-408e-8d07-a04361b8a27a","system_id":"levelo_inurba_marseille","lat":43.23197,"lon":5.3997,"is_reserved":false,"is_disabled":false,"rental_uris":{"android":"levelo://app?vid=04e79b02-26b7-408e-8d07-a04361b8a27a","ios":"levelo://app?vid=04e79b02-26b7-408e-8d07-a04361b8a27a"},"vehicle_type_id":"4","last_reported":1739470367,"current_range_meters":39200,"station_id":"ce4bhn12rcd13ifvqgqg","pricing_plan_id":"cebpf4jnsgd1na2vs0mg"},{"bike_id":"76bd42f4-428c-4be3-93a2-1cc43cdcdc59","system_id":"levelo_inurba_marseille","lat":43.27159,"lon":5.39145,"is_reserved":false,"is_disabled":false,"rental_uris":{"android":"levelo://app?vid=76bd42f4-428c-4be3-93a2-1cc43cdcdc59","ios":"levelo://app?vid=76bd42f4-428c-4be3-93a2-1cc43cdcdc59"},"vehicle_type_id":"4","last_reported":1739470367,"current_range_meters":12400,"station_id":"ce4bhhp2rcd13ifvqfm0","pricing_plan_id":"cebpf4jnsgd1na2vs0mg"},{"bike_id":"acf0f551-2763-4eb0-9eaa-9b01c7a25aba","system_id":"levelo_inurba_marseille","lat":43.29308,"lon":5.37188,"is_reserved":false,"is_disabled":false,"rental_uris":{"android":"levelo://app?vid=acf0f551-2763-4eb0-9eaa-9b01c7a25aba","ios":"levelo://app?vid=acf0f551-2763-4eb0-9eaa-9b01c7a25aba"},"vehicle_type_id":"4","last_reported":1739470367,"current_range_meters":13600,"station_id":"ce4bgh92rcd13ifvqb40","pricing_plan_id":"cebpf4jnsgd1na2vs0mg"},{"bike_id":"b64cb318-9a9d-45df-b9e1-d16ce258851f","system_id":"levelo_inurba_marseille","lat":43.28159,"lon":5.42634,"is_reserved":false,"is_disabled":false,"rental_uris":{"android":"levelo://app?vid=b64cb318-9a9d-45df-b9e1-d16ce258851f","ios":"levelo://app?vid=b64cb318-9a9d-45df-b9e1-d16ce258851f"},"vehicle_type_id":"4","last_reported":1739470367,"current_range_meters":6000,"station_id":"ce4bhnh2rcd13ifvqgug","pricing_plan_id":"cebpf4jnsgd1na2vs0mg"},{"bike_id":"152fd37b-faf3-480e-a36f-94e6a745b61a","system_id":"levelo_inurba_marseille","lat":43.29299,"lon":5.37178,"is_reserved":false,"is_disabled":true,"rental_uris":{"android":"levelo://app?vid=152fd37b-faf3-480e-a36f-94e6a745b61a","ios":"levelo://app?vid=152fd37b-faf3-480e-a36f-94e6a745b61a"},"vehicle_type_id":"4","last_reported":1739470367,"current_range_meters":38800,"station_id":"ce4bgh92rcd13ifvqb40","pricing_plan_id":"cebpf4jnsgd1na2vs0mg"},{"bike_id":"cdacc5a7-75d8-41b3-b6fe-5c39a0e17503","system_id":"levelo_inurba_marseille","lat":43.29257,"lon":5.38427,"is_reserved":false,"is_disabled":false,"rental_uris":{"android":"levelo://app?vid=cdacc5a7-75d8-41b3-b6fe-5c39a0e17503","ios":"levelo://app?vid=cdacc5a7-75d8-41b3-b6fe-5c39a0e17503"},"vehicle_type_id":"4","last_reported":1739470367,"current_range_meters":33200,"station_id":"ce4bh692rcd13ifvqea0","pricing_plan_id":"cebpf4jnsgd1na2vs0mg"},{"bike_id":"646614c7-aaa2-40e1-88b1-f64007ff6f88","system_id":"levelo_inurba_marseille","lat":43.2794,"lon":5.4105,"is_reserved":false,"is_disabled":false,"rental_uris":{"android":"levelo://app?vid=646614c7-aaa2-40e1-88b1-f64007ff6f88","ios":"levelo://app?vid=646614c7-aaa2-40e1-88b1-f64007ff6f88"},"vehicle_type_id":"4","last_reported":1739470367,"current_range_meters":8400,"station_id":"ce4bhnp2rcd13ifvqh0g","pricing_plan_id":"cebpf4jnsgd1na2vs0mg"},{"bike_id":"6e7046d2-52f9-4771-af49-4971c969d59a","system_id":"levelo_inurba_marseille","lat":43.312205,"lon":5.368523,"is_reserved":false,"is_disabled":false,"rental_uris":{"android":"levelo://app?vid=6e7046d2-52f9-4771-af49-4971c969d59a","ios":"levelo://app?vid=6e7046d2-52f9-4771-af49-4971c969d59a"},"vehicle_type_id":"4","last_reported":1739470367,"current_range_meters":12800,"station_id":"ce4bgl92rcd13ifvqbq0","pricing_plan_id":"cebpf4jnsgd1na2vs0mg"},{"bike_id":"54eab6cc-402a-4e5e-b7d4-16ee4e321f81","system_id":"levelo_inurba_marseille","lat":43.30093,"lon":5.39083,"is_reserved":false,"is_disabled":false,"rental_uris":{"android":"levelo://app?vid=54eab6cc-402a-4e5e-b7d4-16ee4e321f81","ios":"levelo://app?vid=54eab6cc-402a-4e5e-b7d4-16ee4e321f81"},"vehicle_type_id":"4","last_reported":1739470367,"current_range_meters":26800,"station_id":"ce4bh192rcd13ifvqdb0","pricing_plan_id":"cebpf4jnsgd1na2vs0mg"},{"bike_id":"bbb6f758-ef12-4737-861c-2da510dfe0ae","system_id":"levelo_inurba_marseille","lat":43.29021,"lon":5.36975,"is_reserved":false,"is_disabled":false,"rental_uris":{"android":"levelo://app?vid=bbb6f758-ef12-4737-861c-2da510dfe0ae","ios":"levelo://app?vid=bbb6f758-ef12-4737-861c-2da510dfe0ae"},"vehicle_type_id":"4","last_reported":1739470367,"current_range_meters":35200,"station_id":"","pricing_plan_id":"cebpf4jnsgd1na2vs0mg"},{"bike_id":"910c7e63-6884-48b4-bd57-db8c46d4ac6e","system_id":"levelo_inurba_marseille","lat":43.29525,"lon":5.39046,"is_reserved":false,"is_disabled":false,"rental_uris":{"android":"levelo://app?vid=910c7e63-6884-48b4-bd57-db8c46d4ac6e","ios":"levelo://app?vid=910c7e63-6884-48b4-bd57-db8c46d4ac6e"},"vehicle_type_id":"4","last_reported":1739470367,"current_range_meters":4400,"station_id":"ce4bh3p2rcd13ifvqdp0","pricing_plan_id":"cebpf4jnsgd1na2vs0mg"},{"bike_id":"52591901-7075-4154-8ec9-0dfca05a1446","system_id":"levelo_inurba_marseille","lat":43.32476,"lon":5.36575,"is_reserved":false,"is_disabled":false,"rental_uris":{"android":"levelo://app?vid=52591901-7075-4154-8ec9-0dfca05a1446","ios":"levelo://app?vid=52591901-7075-4154-8ec9-0dfca05a1446"},"vehicle_type_id":"4","last_reported":1739470367,"current_range_meters":38800,"station_id":"ce4bhs12rcd13ifvqhvg","pricing_plan_id":"cebpf4jnsgd1na2vs0mg"},{"bike_id":"9466e642-a9d1-4651-b4aa-27f6edbee7a4","system_id":"levelo_inurba_marseille","lat":43.30446,"lon":5.38864,"is_reserved":false,"is_disabled":false,"rental_uris":{"android":"levelo://app?vid=9466e642-a9d1-4651-b4aa-27f6edbee7a4","ios":"levelo://app?vid=9466e642-a9d1-4651-b4aa-27f6edbee7a4"},"vehicle_type_id":"4","last_reported":1739470367,"current_range_meters":3600,"station_id":"ce4bgk12rcd13ifvqbi0","pricing_plan_id":"cebpf4jnsgd1na2vs0mg"},{"bike_id":"6ca5390c-c295-4a83-ba0a-b6b1999bc35f","system_id":"levelo_inurba_marseille","lat":43.32046,"lon":5.41528,"is_reserved":false,"is_disabled":false,"rental_uris":{"android":"levelo://app?vid=6ca5390c-c295-4a83-ba0a-b6b1999bc35f","ios":"levelo://app?vid=6ca5390c-c295-4a83-ba0a-b6b1999bc35f"},"vehicle_type_id":"4","last_reported":1739470367,"current_range_meters":17200,"station_id":"ce4bhq92rcd13ifvqhkg","pricing_plan_id":"cebpf4jnsgd1na2vs0mg"},{"bike_id":"eb42dc37-4051-4d72-9629-4b8fef3e118b","system_id":"levelo_inurba_marseille","lat":43.29305,"lon":5.37454,"is_reserved":false,"is_disabled":false,"rental_uris":{"android":"levelo://app?vid=eb42dc37-4051-4d72-9629-4b8fef3e118b","ios":"levelo://app?vid=eb42dc37-4051-4d72-9629-4b8fef3e118b"},"vehicle_type_id":"4","last_reported":1739470367,"current_range_meters":6400,"station_id":"ce4bgi12rcd13ifvqb70","pricing_plan_id":"cebpf4jnsgd1na2vs0mg"},{"bike_id":"259c009c-3c83-4ff5-a62b-43abc035ef94","system_id":"levelo_inurba_marseille","lat":43.29425,"lon":5.38623,"is_reserved":false,"is_disabled":false,"rental_uris":{"android":"levelo://app?vid=259c009c-3c83-4ff5-a62b-43abc035ef94","ios":"levelo://app?vid=259c009c-3c83-4ff5-a62b-43abc035ef94"},"vehicle_type_id":"4","last_reported":1739470367,"current_range_meters":11200,"station_id":"ce4bh2h2rcd13ifvqdh0","pricing_plan_id":"cebpf4jnsgd1na2vs0mg"},{"bike_id":"ee566f3d-0e78-4ced-ac1b-e3b33c18e89e","system_id":"levelo_inurba_marseille","lat":43.24387,"lon":5.37053,"is_reserved":false,"is_disabled":false,"rental_uris":{"android":"levelo://app?vid=ee566f3d-0e78-4ced-ac1b-e3b33c18e89e","ios":"levelo://app?vid=ee566f3d-0e78-4ced-ac1b-e3b33c18e89e"},"vehicle_type_id":"4","last_reported":1739470367,"current_range_meters":20000,"station_id":"ce4bhhh2rcd13ifvqfk0","pricing_plan_id":"cebpf4jnsgd1na2vs0mg"},{"bike_id":"6078af5b-90c4-4707-8a91-a7e0efb98397","system_id":"levelo_inurba_marseille","lat":43.293,"lon":5.37459,"is_reserved":false,"is_disabled":false,"rental_uris":{"android":"levelo://app?vid=6078af5b-90c4-4707-8a91-a7e0efb98397","ios":"levelo://app?vid=6078af5b-90c4-4707-8a91-a7e0efb98397"},"vehicle_type_id":"4","last_reported":1739470367,"current_range_meters":24800,"station_id":"ce4bgi12rcd13ifvqb70","pricing_plan_id":"cebpf4jnsgd1na2vs0mg"},{"bike_id":"15fdffcf-418e-415b-be87-a99e570eb199","system_id":"levelo_inurba_marseille","lat":43.23156,"lon":5.437,"is_reserved":false,"is_disabled":false,"rental_uris":{"android":"levelo://app?vid=15fdffcf-418e-415b-be87-a99e570eb199","ios":"levelo://app?vid=15fdffcf-418e-415b-be87-a99e570eb199"},"vehicle_type_id":"4","last_reported":1739470367,"current_range_meters":6000,"station_id":"ce4bhmp2rcd13ifvqgog","pricing_plan_id":"cebpf4jnsgd1na2vs0mg"},{"bike_id":"d1a3f192-2f1f-4284-8d95-131192e2ac94","system_id":"levelo_inurba_marseille","lat":43.28704,"lon":5.37885,"is_reserved":false,"is_disabled":false,"rental_uris":{"android":"levelo://app?vid=d1a3f192-2f1f-4284-8d95-131192e2ac94","ios":"levelo://app?vid=d1a3f192-2f1f-4284-8d95-131192e2ac94"},"vehicle_type_id":"4","last_reported":1739470367,"current_range_meters":6400,"station_id":"ce4bh9p2rcd13ifvqec0","pricing_plan_id":"cebpf4jnsgd1na2vs0mg"},{"bike_id":"7af63898-7452-47b8-8901-39831c6d129c","system_id":"levelo_inurba_marseille","lat":43.2696,"lon":5.40214,"is_reserved":false,"is_disabled":false,"rental_uris":{"android":"levelo://app?vid=7af63898-7452-47b8-8901-39831c6d129c","ios":"levelo://app?vid=7af63898-7452-47b8-8901-39831c6d129c"},"vehicle_type_id":"4","last_reported":1739470367,"current_range_meters":16400,"station_id":"cjm6bp8fraef2m0cb0m0","pricing_plan_id":"cebpf4jnsgd1na2vs0mg"},{"bike_id":"54ce597b-1ca1-4d62-923d-d4b29eec04b3","system_id":"levelo_inurba_marseille","lat":43.31131,"lon":5.38261,"is_reserved":false,"is_disabled":false,"rental_uris":{"android":"levelo://app?vid=54ce597b-1ca1-4d62-923d-d4b29eec04b3","ios":"levelo://app?vid=54ce597b-1ca1-4d62-923d-d4b29eec04b3"},"vehicle_type_id":"4","last_reported":1739470367,"current_range_meters":9200,"station_id":"","pricing_plan_id":"cebpf4jnsgd1na2vs0mg"},{"bike_id":"5900da6e-6ade-4e81-b9ef-ce2685f5a5b4","system_id":"levelo_inurba_marseille","lat":43.28858,"lon":5.39319,"is_reserved":false,"is_disabled":true,"rental_uris":{"android":"levelo://app?vid=5900da6e-6ade-4e81-b9ef-ce2685f5a5b4","ios":"levelo://app?vid=5900da6e-6ade-4e81-b9ef-ce2685f5a5b4"},"vehicle_type_id":"4","last_reported":1739470367,"current_range_meters":8400,"station_id":"ce4bh2p2rcd13ifvqdi0","pricing_plan_id":"cebpf4jnsgd1na2vs0mg"},{"bike_id":"402369da-661e-404a-928c-d7b4f9814877","system_id":"levelo_inurba_marseille","lat":43.31526,"lon":5.38032,"is_reserved":false,"is_disabled":false,"rental_uris":{"android":"levelo://app?vid=402369da-661e-404a-928c-d7b4f9814877","ios":"levelo://app?vid=402369da-661e-404a-928c-d7b4f9814877"},"vehicle_type_id":"4","last_reported":1739470367,"current_range_meters":28400,"station_id":"ce4bhsp2rcd13ifvqi50","pricing_plan_id":"cebpf4jnsgd1na2vs0mg"},{"bike_id":"82cc7838-4b5a-40fa-9f35-ce1cd1ae67e1","system_id":"levelo_inurba_marseille","lat":43.30105,"lon":5.37144,"is_reserved":false,"is_disabled":true,"rental_uris":{"android":"levelo://app?vid=82cc7838-4b5a-40fa-9f35-ce1cd1ae67e1","ios":"levelo://app?vid=82cc7838-4b5a-40fa-9f35-ce1cd1ae67e1"},"vehicle_type_id":"4","last_reported":1739470367,"current_range_meters":0,"station_id":"","pricing_plan_id":"cebpf4jnsgd1na2vs0mg"},{"bike_id":"3976f6fd-b1cd-4431-a4fb-873d67a7a0f6","system_id":"levelo_inurba_marseille","lat":43.25712,"lon":5.41117,"is_reserved":false,"is_disabled":false,"rental_uris":{"android":"levelo://app?vid=3976f6fd-b1cd-4431-a4fb-873d67a7a0f6","ios":"levelo://app?vid=3976f6fd-b1cd-4431-a4fb-873d67a7a0f6"},"vehicle_type_id":"4","last_reported":1739470367,"current_range_meters":6800,"station_id":"ce4bhkp2rcd13ifvqgd0","pricing_plan_id":"cebpf4jnsgd1na2vs0mg"},{"bike_id":"cb267340-d6a0-4426-bb26-598902b336cd","system_id":"levelo_inurba_marseille","lat":43.29915,"lon":5.38142,"is_reserved":false,"is_disabled":false,"rental_uris":{"android":"levelo://app?vid=cb267340-d6a0-4426-bb26-598902b336cd","ios":"levelo://app?vid=cb267340-d6a0-4426-bb26-598902b336cd"},"vehicle_type_id":"4","last_reported":1739470367,"current_range_meters":32400,"station_id":"ce4bgj12rcd13ifvqbc0","pricing_plan_id":"cebpf4jnsgd1na2vs0mg"},{"bike_id":"cb036aa9-fa3d-47c7-88ca-ac411cf8f324","system_id":"levelo_inurba_marseille","lat":43.294174,"lon":5.386242,"is_reserved":false,"is_disabled":false,"rental_uris":{"android":"levelo://app?vid=cb036aa9-fa3d-47c7-88ca-ac411cf8f324","ios":"levelo://app?vid=cb036aa9-fa3d-47c7-88ca-ac411cf8f324"},"vehicle_type_id":"4","last_reported":1739470367,"current_range_meters":28400,"station_id":"ce4bh2h2rcd13ifvqdh0","pricing_plan_id":"cebpf4jnsgd1na2vs0mg"},{"bike_id":"d63c2273-cc1e-4781-8548-ed6d7cf06580","system_id":"levelo_inurba_marseille","lat":43.28618,"lon":5.35092,"is_reserved":false,"is_disabled":true,"rental_uris":{"android":"levelo://app?vid=d63c2273-cc1e-4781-8548-ed6d7cf06580","ios":"levelo://app?vid=d63c2273-cc1e-4781-8548-ed6d7cf06580"},"vehicle_type_id":"4","last_reported":1739470367,"current_range_meters":0,"station_id":"ce4bhch2rcd13ifvqeug","pricing_plan_id":"cebpf4jnsgd1na2vs0mg"},{"bike_id":"d04ea55d-3abe-48ab-917d-382c6bc19b33","system_id":"levelo_inurba_marseille","lat":43.2438,"lon":5.37061,"is_reserved":false,"is_disabled":false,"rental_uris":{"android":"levelo://app?vid=d04ea55d-3abe-48ab-917d-382c6bc19b33","ios":"levelo://app?vid=d04ea55d-3abe-48ab-917d-382c6bc19b33"},"vehicle_type_id":"4","last_reported":1739470367,"current_range_meters":25200,"station_id":"ce4bhhh2rcd13ifvqfk0","pricing_plan_id":"cebpf4jnsgd1na2vs0mg"},{"bike_id":"faf59989-013c-413a-a6c2-a0f97331ab18","system_id":"levelo_inurba_marseille","lat":43.29605,"lon":5.38108,"is_reserved":false,"is_disabled":false,"rental_uris":{"android":"levelo://app?vid=faf59989-013c-413a-a6c2-a0f97331ab18","ios":"levelo://app?vid=faf59989-013c-413a-a6c2-a0f97331ab18"},"vehicle_type_id":"4","last_reported":1739470367,"current_range_meters":10000,"station_id":"ce4bgl12rcd13ifvqbo0","pricing_plan_id":"cebpf4jnsgd1na2vs0mg"},{"bike_id":"e5ef80dd-4702-46bb-bfde-5dd61590a716","system_id":"levelo_inurba_marseille","lat":43.29259,"lon":5.40909,"is_reserved":false,"is_disabled":true,"rental_uris":{"android":"levelo://app?vid=e5ef80dd-4702-46bb-bfde-5dd61590a716","ios":"levelo://app?vid=e5ef80dd-4702-46bb-bfde-5dd61590a716"},"vehicle_type_id":"4","last_reported":1739470367,"current_range_meters":0,"station_id":"ce4bh192rcd13ifvqdc0","pricing_plan_id":"cebpf4jnsgd1na2vs0mg"},{"bike_id":"361fea1a-79c4-4b2e-be06-3b5599c0e8c6","system_id":"levelo_inurba_marseille","lat":43.29543,"lon":5.37506,"is_reserved":false,"is_disabled":false,"rental_uris":{"android":"levelo://app?vid=361fea1a-79c4-4b2e-be06-3b5599c0e8c6","ios":"levelo://app?vid=361fea1a-79c4-4b2e-be06-3b5599c0e8c6"},"vehicle_type_id":"4","last_reported":1739470367,"current_range_meters":27600,"station_id":"ce4bgkp2rcd13ifvqbmg","pricing_plan_id":"cebpf4jnsgd1na2vs0mg"},{"bike_id":"84c4300f-db69-4fd2-a3ff-26850b366add","system_id":"levelo_inurba_marseille","lat":43.28854,"lon":5.39322,"is_reserved":false,"is_disabled":false,"rental_uris":{"android":"levelo://app?vid=84c4300f-db69-4fd2-a3ff-26850b366add","ios":"levelo://app?vid=84c4300f-db69-4fd2-a3ff-26850b366add"},"vehicle_type_id":"4","last_reported":1739470367,"current_range_meters":23200,"station_id":"ce4bh2p2rcd13ifvqdi0","pricing_plan_id":"cebpf4jnsgd1na2vs0mg"},{"bike_id":"95987965-84f6-4298-8b94-8011beaf9493","system_id":"levelo_inurba_marseille","lat":43.28977,"lon":5.37827,"is_reserved":false,"is_disabled":false,"rental_uris":{"android":"levelo://app?vid=95987965-84f6-4298-8b94-8011beaf9493","ios":"levelo://app?vid=95987965-84f6-4298-8b94-8011beaf9493"},"vehicle_type_id":"4","last_reported":1739470367,"current_range_meters":4800,"station_id":"ce4bh9p2rcd13ifvqed0","pricing_plan_id":"cebpf4jnsgd1na2vs0mg"},{"bike_id":"d594772c-f06c-42db-b4eb-8c17a4b3b2bd","system_id":"levelo_inurba_marseille","lat":43.29654,"lon":5.37159,"is_reserved":false,"is_disabled":false,"rental_uris":{"android":"levelo://app?vid=d594772c-f06c-42db-b4eb-8c17a4b3b2bd","ios":"levelo://app?vid=d594772c-f06c-42db-b4eb-8c17a4b3b2bd"},"vehicle_type_id":"4","last_reported":1739470367,"current_range_meters":30400,"station_id":"ce4bgnh2rcd13ifvqc0g","pricing_plan_id":"cebpf4jnsgd1na2vs0mg"},{"bike_id":"89377e84-1dda-4c3b-82e0-c2b14e2bca09","system_id":"levelo_inurba_marseille","lat":43.25105,"lon":5.40336,"is_reserved":false,"is_disabled":false,"rental_uris":{"android":"levelo://app?vid=89377e84-1dda-4c3b-82e0-c2b14e2bca09","ios":"levelo://app?vid=89377e84-1dda-4c3b-82e0-c2b14e2bca09"},"vehicle_type_id":"4","last_reported":1739470367,"current_range_meters":27600,"station_id":"ce4bhlh2rcd13ifvqgig","pricing_plan_id":"cebpf4jnsgd1na2vs0mg"},{"bike_id":"b8a4c6fb-5aef-4871-8769-f0f985186c26","system_id":"levelo_inurba_marseille","lat":43.29531,"lon":5.38532,"is_reserved":false,"is_disabled":false,"rental_uris":{"android":"levelo://app?vid=b8a4c6fb-5aef-4871-8769-f0f985186c26","ios":"levelo://app?vid=b8a4c6fb-5aef-4871-8769-f0f985186c26"},"vehicle_type_id":"4","last_reported":1739470367,"current_range_meters":36000,"station_id":"ce4bgih2rcd13ifvqba0","pricing_plan_id":"cebpf4jnsgd1na2vs0mg"},{"bike_id":"e885fe05-d8c1-4506-a31d-ee7aecc616de","system_id":"levelo_inurba_marseille","lat":43.30932,"lon":5.40147,"is_reserved":false,"is_disabled":false,"rental_uris":{"android":"levelo://app?vid=e885fe05-d8c1-4506-a31d-ee7aecc616de","ios":"levelo://app?vid=e885fe05-d8c1-4506-a31d-ee7aecc616de"},"vehicle_type_id":"4","last_reported":1739470367,"current_range_meters":37600,"station_id":"ce4bgvp2rcd13ifvqct0","pricing_plan_id":"cebpf4jnsgd1na2vs0mg"},{"bike_id":"eed51985-6abc-4136-9c70-f0994b322ee2","system_id":"levelo_inurba_marseille","lat":43.29415,"lon":5.38611,"is_reserved":false,"is_disabled":true,"rental_uris":{"android":"levelo://app?vid=eed51985-6abc-4136-9c70-f0994b322ee2","ios":"levelo://app?vid=eed51985-6abc-4136-9c70-f0994b322ee2"},"vehicle_type_id":"4","last_reported":1739470367,"current_range_meters":0,"station_id":"ce4bh2h2rcd13ifvqdh0","pricing_plan_id":"cebpf4jnsgd1na2vs0mg"},{"bike_id":"58ca8d36-3abf-4f9b-bf3f-e62ed0e7a978","system_id":"levelo_inurba_marseille","lat":43.2396,"lon":5.36619,"is_reserved":false,"is_disabled":false,"rental_uris":{"android":"levelo://app?vid=58ca8d36-3abf-4f9b-bf3f-e62ed0e7a978","ios":"levelo://app?vid=58ca8d36-3abf-4f9b-bf3f-e62ed0e7a978"},"vehicle_type_id":"4","last_reported":1739470367,"current_range_meters":28800,"station_id":"ce4bhi12rcd13ifvqfp0","pricing_plan_id":"cebpf4jnsgd1na2vs0mg"},{"bike_id":"6ff74b17-ea1d-4138-baf2-7e9db71877eb","system_id":"levelo_inurba_marseille","lat":43.26926,"lon":5.38908,"is_reserved":false,"is_disabled":false,"rental_uris":{"android":"levelo://app?vid=6ff74b17-ea1d-4138-baf2-7e9db71877eb","ios":"levelo://app?vid=6ff74b17-ea1d-4138-baf2-7e9db71877eb"},"vehicle_type_id":"4","last_reported":1739470367,"current_range_meters":19600,"station_id":"ce4bhhh2rcd13ifvqfl0","pricing_plan_id":"cebpf4jnsgd1na2vs0mg"},{"bike_id":"05753aab-2a5e-492a-80c0-4434a5f0cd7d","system_id":"levelo_inurba_marseille","lat":43.299366,"lon":5.365558,"is_reserved":false,"is_disabled":false,"rental_uris":{"android":"levelo://app?vid=05753aab-2a5e-492a-80c0-4434a5f0cd7d","ios":"levelo://app?vid=05753aab-2a5e-492a-80c0-4434a5f0cd7d"},"vehicle_type_id":"4","last_reported":1739470367,"current_range_meters":38800,"station_id":"ce4bgm92rcd13ifvqbr0","pricing_plan_id":"cebpf4jnsgd1na2vs0mg"},{"bike_id":"d157203c-3a5b-4bbc-9638-6eefce740d5e","system_id":"levelo_inurba_marseille","lat":43.23188,"lon":5.3556,"is_reserved":false,"is_disabled":false,"rental_uris":{"android":"levelo://app?vid=d157203c-3a5b-4bbc-9638-6eefce740d5e","ios":"levelo://app?vid=d157203c-3a5b-4bbc-9638-6eefce740d5e"},"vehicle_type_id":"4","last_reported":1739470367,"current_range_meters":30400,"station_id":"ce4bhu92rcd13ifvqi70","pricing_plan_id":"cebpf4jnsgd1na2vs0mg"},{"bike_id":"a453d6ee-8cc3-41ec-911c-affe06d91d78","system_id":"levelo_inurba_marseille","lat":43.33717,"lon":5.39186,"is_reserved":false,"is_disabled":false,"rental_uris":{"android":"levelo://app?vid=a453d6ee-8cc3-41ec-911c-affe06d91d78","ios":"levelo://app?vid=a453d6ee-8cc3-41ec-911c-affe06d91d78"},"vehicle_type_id":"4","last_reported":1739470367,"current_range_meters":28800,"station_id":"ce4bhr92rcd13ifvqhsg","pricing_plan_id":"cebpf4jnsgd1na2vs0mg"},{"bike_id":"a19427af-ecee-44d2-82c0-ff0376cf2bda","system_id":"levelo_inurba_marseille","lat":43.23964,"lon":5.3663,"is_reserved":false,"is_disabled":false,"rental_uris":{"android":"levelo://app?vid=a19427af-ecee-44d2-82c0-ff0376cf2bda","ios":"levelo://app?vid=a19427af-ecee-44d2-82c0-ff0376cf2bda"},"vehicle_type_id":"4","last_reported":1739470367,"current_range_meters":38400,"station_id":"ce4bhi12rcd13ifvqfp0","pricing_plan_id":"cebpf4jnsgd1na2vs0mg"},{"bike_id":"62f29fea-d49b-4181-b26e-097f5d77dec4","system_id":"levelo_inurba_marseille","lat":43.289235,"lon":5.378509,"is_reserved":false,"is_disabled":false,"rental_uris":{"android":"levelo://app?vid=62f29fea-d49b-4181-b26e-097f5d77dec4","ios":"levelo://app?vid=62f29fea-d49b-4181-b26e-097f5d77dec4"},"vehicle_type_id":"4","last_reported":1739470367,"current_range_meters":10800,"station_id":"ce4bh9p2rcd13ifvqed0","pricing_plan_id":"cebpf4jnsgd1na2vs0mg"},{"bike_id":"2eb379fe-4482-4d6f-addb-665254f54ba0","system_id":"levelo_inurba_marseille","lat":43.29418,"lon":5.38625,"is_reserved":false,"is_disabled":false,"rental_uris":{"android":"levelo://app?vid=2eb379fe-4482-4d6f-addb-665254f54ba0","ios":"levelo://app?vid=2eb379fe-4482-4d6f-addb-665254f54ba0"},"vehicle_type_id":"4","last_reported":1739470367,"current_range_meters":16000,"station_id":"ce4bh2h2rcd13ifvqdh0","pricing_plan_id":"cebpf4jnsgd1na2vs0mg"},{"bike_id":"22357605-22f9-4c7f-a011-3059b1fea57b","system_id":"levelo_inurba_marseille","lat":43.24653,"lon":5.38885,"is_reserved":false,"is_disabled":false,"rental_uris":{"android":"levelo://app?vid=22357605-22f9-4c7f-a011-3059b1fea57b","ios":"levelo://app?vid=22357605-22f9-4c7f-a011-3059b1fea57b"},"vehicle_type_id":"4","last_reported":1739470367,"current_range_meters":39200,"station_id":"ce4bhg12rcd13ifvqf60","pricing_plan_id":"cebpf4jnsgd1na2vs0mg"},{"bike_id":"d80860fa-7cf7-4ae7-befb-26e8065381a1","system_id":"levelo_inurba_marseille","lat":43.23195,"lon":5.3555,"is_reserved":false,"is_disabled":false,"rental_uris":{"android":"levelo://app?vid=d80860fa-7cf7-4ae7-befb-26e8065381a1","ios":"levelo://app?vid=d80860fa-7cf7-4ae7-befb-26e8065381a1"},"vehicle_type_id":"4","last_reported":1739470367,"current_range_meters":30000,"station_id":"ce4bhu92rcd13ifvqi70","pricing_plan_id":"cebpf4jnsgd1na2vs0mg"},{"bike_id":"31f84ddc-bf3b-4d1c-9d83-4ffb586bc67a","system_id":"levelo_inurba_marseille","lat":43.32121,"lon":5.36755,"is_reserved":false,"is_disabled":false,"rental_uris":{"android":"levelo://app?vid=31f84ddc-bf3b-4d1c-9d83-4ffb586bc67a","ios":"levelo://app?vid=31f84ddc-bf3b-4d1c-9d83-4ffb586bc67a"},"vehicle_type_id":"4","last_reported":1739470367,"current_range_meters":36400,"station_id":"ce4bhrh2rcd13ifvqhug","pricing_plan_id":"cebpf4jnsgd1na2vs0mg"},{"bike_id":"95bea59d-9508-4e5c-9462-a6eb2b05c299","system_id":"levelo_inurba_marseille","lat":43.328,"lon":5.43371,"is_reserved":false,"is_disabled":false,"rental_uris":{"android":"levelo://app?vid=95bea59d-9508-4e5c-9462-a6eb2b05c299","ios":"levelo://app?vid=95bea59d-9508-4e5c-9462-a6eb2b05c299"},"vehicle_type_id":"4","last_reported":1739470367,"current_range_meters":35600,"station_id":"","pricing_plan_id":"cebpf4jnsgd1na2vs0mg"},{"bike_id":"23f3144a-383e-4d47-86a3-bc71caed0e46","system_id":"levelo_inurba_marseille","lat":43.25495,"lon":5.37649,"is_reserved":false,"is_disabled":false,"rental_uris":{"android":"levelo://app?vid=23f3144a-383e-4d47-86a3-bc71caed0e46","ios":"levelo://app?vid=23f3144a-383e-4d47-86a3-bc71caed0e46"},"vehicle_type_id":"4","last_reported":1739470367,"current_range_meters":35600,"station_id":"ce4bhh12rcd13ifvqff0","pricing_plan_id":"cebpf4jnsgd1na2vs0mg"},{"bike_id":"548c3aee-ce1d-490d-bf0a-045737bf2f18","system_id":"levelo_inurba_marseille","lat":43.30129,"lon":5.39875,"is_reserved":false,"is_disabled":false,"rental_uris":{"android":"levelo://app?vid=548c3aee-ce1d-490d-bf0a-045737bf2f18","ios":"levelo://app?vid=548c3aee-ce1d-490d-bf0a-045737bf2f18"},"vehicle_type_id":"4","last_reported":1739470367,"current_range_meters":36800,"station_id":"ce4bh0h2rcd13ifvqd40","pricing_plan_id":"cebpf4jnsgd1na2vs0mg"},{"bike_id":"ead45314-8828-4090-a270-257c0472e0b6","system_id":"levelo_inurba_marseille","lat":43.3014,"lon":5.37419,"is_reserved":false,"is_disabled":false,"rental_uris":{"android":"levelo://app?vid=ead45314-8828-4090-a270-257c0472e0b6","ios":"levelo://app?vid=ead45314-8828-4090-a270-257c0472e0b6"},"vehicle_type_id":"4","last_reported":1739470367,"current_range_meters":30000,"station_id":"ce4bgs92rcd13ifvqcc0","pricing_plan_id":"cebpf4jnsgd1na2vs0mg"},{"bike_id":"c78501ca-7dfb-4cf7-b4a0-458f72b8657b","system_id":"levelo_inurba_marseille","lat":43.317369,"lon":5.424022,"is_reserved":false,"is_disabled":false,"rental_uris":{"android":"levelo://app?vid=c78501ca-7dfb-4cf7-b4a0-458f72b8657b","ios":"levelo://app?vid=c78501ca-7dfb-4cf7-b4a0-458f72b8657b"},"vehicle_type_id":"4","last_reported":1739470367,"current_range_meters":8800,"station_id":"ce4bhp92rcd13ifvqhbg","pricing_plan_id":"cebpf4jnsgd1na2vs0mg"},{"bike_id":"b539a748-8199-43e7-83f3-9ebe36862717","system_id":"levelo_inurba_marseille","lat":43.27361,"lon":5.3625,"is_reserved":false,"is_disabled":false,"rental_uris":{"android":"levelo://app?vid=b539a748-8199-43e7-83f3-9ebe36862717","ios":"levelo://app?vid=b539a748-8199-43e7-83f3-9ebe36862717"},"vehicle_type_id":"4","last_reported":1739470367,"current_range_meters":38800,"station_id":"ce4bhbh2rcd13ifvqeo0","pricing_plan_id":"cebpf4jnsgd1na2vs0mg"},{"bike_id":"b927d3b6-dab4-4b7f-ba24-f89832514483","system_id":"levelo_inurba_marseille","lat":43.31728,"lon":5.42389,"is_reserved":false,"is_disabled":false,"rental_uris":{"android":"levelo://app?vid=b927d3b6-dab4-4b7f-ba24-f89832514483","ios":"levelo://app?vid=b927d3b6-dab4-4b7f-ba24-f89832514483"},"vehicle_type_id":"4","last_reported":1739470367,"current_range_meters":39200,"station_id":"ce4bhp92rcd13ifvqhbg","pricing_plan_id":"cebpf4jnsgd1na2vs0mg"},{"bike_id":"211363a9-081b-401f-b0c6-364ac6457ebd","system_id":"levelo_inurba_marseille","lat":43.24394,"lon":5.37055,"is_reserved":false,"is_disabled":false,"rental_uris":{"android":"levelo://app?vid=211363a9-081b-401f-b0c6-364ac6457ebd","ios":"levelo://app?vid=211363a9-081b-401f-b0c6-364ac6457ebd"},"vehicle_type_id":"4","last_reported":1739470367,"current_range_meters":39200,"station_id":"ce4bhhh2rcd13ifvqfk0","pricing_plan_id":"cebpf4jnsgd1na2vs0mg"},{"bike_id":"bb0d5cf6-60cf-46cc-b86d-d14e9fdd894d","system_id":"levelo_inurba_marseille","lat":43.295243,"lon":5.3853,"is_reserved":false,"is_disabled":false,"rental_uris":{"android":"levelo://app?vid=bb0d5cf6-60cf-46cc-b86d-d14e9fdd894d","ios":"levelo://app?vid=bb0d5cf6-60cf-46cc-b86d-d14e9fdd894d"},"vehicle_type_id":"4","last_reported":1739470367,"current_range_meters":10800,"station_id":"ce4bgih2rcd13ifvqba0","pricing_plan_id":"cebpf4jnsgd1na2vs0mg"},{"bike_id":"838ff8ed-e40f-45f3-a9d7-5da2a0ed6770","system_id":"levelo_inurba_marseille","lat":43.30421,"lon":5.39746,"is_reserved":false,"is_disabled":false,"rental_uris":{"android":"levelo://app?vid=838ff8ed-e40f-45f3-a9d7-5da2a0ed6770","ios":"levelo://app?vid=838ff8ed-e40f-45f3-a9d7-5da2a0ed6770"},"vehicle_type_id":"4","last_reported":1739470367,"current_range_meters":30800,"station_id":"ce4bh092rcd13ifvqd20","pricing_plan_id":"cebpf4jnsgd1na2vs0mg"},{"bike_id":"bfa4e1d3-43c5-4ac9-a2e0-126839ffb2b1","system_id":"levelo_inurba_marseille","lat":43.270571,"lon":5.388098,"is_reserved":false,"is_disabled":false,"rental_uris":{"android":"levelo://app?vid=bfa4e1d3-43c5-4ac9-a2e0-126839ffb2b1","ios":"levelo://app?vid=bfa4e1d3-43c5-4ac9-a2e0-126839ffb2b1"},