{"last_updated":1687486980,"ttl":30,"version":"2.2","data":{"bikes":[{"bike_id":"442277db-a1b1-404f-99ca-4e553a79746d","system_id":"levelo_inurba_marseille","lat":43.31341,"lon":5.367098,"is_reserved":false,"is_disabled":false,"rental_uris":{"android":"levelo://app?vid=442277db-a1b1-404f-99ca-4e553a79746d","ios":"levelo://app?vid=442277db-a1b1-404f-99ca-4e553a79746d"},"vehicle_type_id":"4","last_reported":1687486981,"current_range_meters":31200,"station_id":"ce4bgr92rcd13ifvqc6g","pricing_plan_id":"free"},{"bike_id":"0550341a-124c-4d98-bbe2-ecab3fc28f99","system_id":"levelo_inurba_marseille","lat":43.313391,"lon":5.36706,"is_reserved":false,"is_disabled":false,"rental_uris":{"android":"levelo://app?vid=0550341a-124c-4d98-bbe2-ecab3fc28f99","ios":"levelo://app?vid=0550341a-124c-4d98-bbe2-ecab3fc28f99"},"vehicle_type_id":"4","last_reported":1687486981,"current_range_meters":32000,"station_id":"ce4bgr92rcd13ifvqc6g","pricing_plan_id":"free"},{"bike_id":"561dae15-b950-41f4-8280-62512ee198df","system_id":"levelo_inurba_marseille","lat":43.313391,"lon":5.36706,"is_reserved":false,"is_disabled":false,"rental_uris":{"android":"levelo://app?vid=561dae15-b950-41f4-8280-62512ee198df","ios":"levelo://app?vid=561dae15-b950-41f4-8280-62512ee198df"},"vehicle_type_id":"4","last_reported":1687486981,"current_range_meters":31600,"station_id":"ce4bgr92rcd13ifvqc6g","pricing_plan_id":"free"},{"bike_id":"6af3ddd3-abe5-4014-930d-8bc2eb738f55","system_id":"levelo_inurba_marseille","lat":43.31341,"lon":5.367098,"is_reserved":false,"is_disabled":false,"rental_uris":{"android":"levelo://app?vid=6af3ddd3-abe5-4014-930d-8bc2eb738f55","ios":"levelo://app?vid=6af3ddd3-abe5-4014-930d-8bc2eb738f55"},"vehicle_type_id":"4","last_reported":1687486981,"current_range_meters":31600,"station_id":"ce4bgr92rcd13ifvqc6g","pricing_plan_id":"free"},{"bike_id":"5dc666bf-f148-4c4d-ae39-69fe1328a441","system_id":"levelo_inurba_marseille","lat":43.31341,"lon":5.367098,"is_reserved":false,"is_disabled":false,"rental_uris":{"android":"levelo://app?vid=5dc666bf-f148-4c4d-ae39-69fe1328a441","ios":"levelo://app?vid=5dc666bf-f148-4c4d-ae39-69fe1328a441"},"vehicle_type_id":"4","last_reported":1687486981,"current_range_meters":30000,"station_id":"ce4bgr92rcd13ifvqc6g","pricing_plan_id":"free"},{"bike_id":"d4332dc1-ca7f-47c1-8251-6fc28249a3b4","system_id":"levelo_inurba_marseille","lat":43.313391,"lon":5.36706,"is_reserved":false,"is_disabled":false,"rental_uris":{"android":"levelo://app?vid=d4332dc1-ca7f-47c1-8251-6fc28249a3b4","ios":"levelo://app?vid=d4332dc1-ca7f-47c1-8251-6fc28249a3b4"},"vehicle_type_id":"4","last_reported":1687486981,"current_range_meters":32000,"station_id":"ce4bgr92rcd13ifvqc6g","pricing_plan_id":"free"},{"bike_id":"464982d1-4c96-4ed2-b193-2eeee0b16880","system_id":"levelo_inurba_marseille","lat":43.31341,"lon":5.367098,"is_reserved":false,"is_disabled":false,"rental_uris":{"android":"levelo://app?vid=464982d1-4c96-4ed2-b193-2eeee0b16880","ios":"levelo://app?vid=464982d1-4c96-4ed2-b193-2eeee0b16880"},"vehicle_type_id":"4","last_reported":1687486981,"current_range_meters":0,"station_id":"ce4bgr92rcd13ifvqc6g","pricing_plan_id":"free"},{"bike_id":"4953f328-3844-4770-9687-adbaf569325c","system_id":"levelo_inurba_marseille","lat":43.31341,"lon":5.367098,"is_reserved":false,"is_disabled":false,"rental_uris":{"android":"levelo://app?vid=4953f328-3844-4770-9687-adbaf569325c","ios":"levelo://app?vid=4953f328-3844-4770-9687-adbaf569325c"},"vehicle_type_id":"4","last_reported":1687486981,"current_range_meters":31600,"station_id":"ce4bgr92rcd13ifvqc6g","pricing_plan_id":"free"},{"bike_id":"15c62054-955a-4820-982e-5c2322ea45bf","system_id":"levelo_inurba_marseille","lat":43.313391,"lon":5.36706,"is_reserved":false,"is_disabled":false,"rental_uris":{"android":"levelo://app?vid=15c62054-955a-4820-982e-5c2322ea45bf","ios":"levelo://app?vid=15c62054-955a-4820-982e-5c2322ea45bf"},"vehicle_type_id":"4","last_reported":1687486981,"current_range_meters":31600,"station_id":"ce4bgr92rcd13ifvqc6g","pricing_plan_id":"free"},{"bike_id":"59b3de83-71c2-4e5b-8049-67e7ba32c62e","system_id":"levelo_inurba_marseille","lat":43.313391,"lon":5.36706,"is_reserved":false,"is_disabled":false,"rental_uris":{"android":"levelo://app?vid=59b3de83-71c2-4e5b-8049-67e7ba32c62e","ios":"levelo://app?vid=59b3de83-71c2-4e5b-8049-67e7ba32c62e"},"vehicle_type_id":"4","last_reported":1687486981,"current_range_meters":28400,"station_id":"ce4bgr92rcd13ifvqc6g","pricing_plan_id":"free"},{"bike_id":"e174d5f0-b6c8-4dda-a820-d2e61e69de13","system_id":"levelo_inurba_marseille","lat":43.31341,"lon":5.367098,"is_reserved":false,"is_disabled":false,"rental_uris":{"android":"levelo://app?vid=e174d5f0-b6c8-4dda-a820-d2e61e69de13","ios":"levelo://app?vid=e174d5f0-b6c8-4dda-a820-d2e61e69de13"},"vehicle_type_id":"4","last_reported":1687486981,"current_range_meters":31600,"station_id":"ce4bgr92rcd13ifvqc6g","pricing_plan_id":"free"},{"bike_id":"6077385d-d5e9-40fb-b969-818a094a8c18","system_id":"levelo_inurba_marseille","lat":43.312239,"lon":5.368562,"is_reserved":false,"is_disabled":false,"rental_uris":{"android":"levelo://app?vid=6077385d-d5e9-40fb-b969-818a094a8c18","ios":"levelo://app?vid=6077385d-d5e9-40fb-b969-818a094a8c18"},"vehicle_type_id":"4","last_reported":1687486981,"current_range_meters":31200,"station_id":"ce4bgl92rcd13ifvqbq0","pricing_plan_id":"free"},{"bike_id":"f0eec080-d9d7-470c-8e7c-4a8b016fa3a2","system_id":"levelo_inurba_marseille","lat":43.312239,"lon":5.368562,"is_reserved":false,"is_disabled":false,"rental_uris":{"android":"levelo://app?vid=f0eec080-d9d7-470c-8e7c-4a8b016fa3a2","ios":"levelo://app?vid=f0eec080-d9d7-470c-8e7c-4a8b016fa3a2"},"vehicle_type_id":"4","last_reported":1687486981,"current_range_meters":28000,"station_id":"ce4bgl92rcd13ifvqbq0","pricing_plan_id":"free"},{"bike_id":"d6b03611-9e86-42ac-962a-8be4c87738a0","system_id":"levelo_inurba_marseille","lat":43.314811,"lon":5.373103,"is_reserved":false,"is_disabled":false,"rental_uris":{"android":"levelo://app?vid=d6b03611-9e86-42ac-962a-8be4c87738a0","ios":"levelo://app?vid=d6b03611-9e86-42ac-962a-8be4c87738a0"},"vehicle_type_id":"4","last_reported":1687486981,"current_range_meters":23600,"station_id":"ce4bgt12rcd13ifvqcd0","pricing_plan_id":"free"},{"bike_id":"268e6c5f-a51e-4653-9dd6-175f0fb59056","system_id":"levelo_inurba_marseille","lat":43.314811,"lon":5.373104,"is_reserved":false,"is_disabled":false,"rental_uris":{"android":"levelo://app?vid=268e6c5f-a51e-4653-9dd6-175f0fb59056","ios":"levelo://app?vid=268e6c5f-a51e-4653-9dd6-175f0fb59056"},"vehicle_type_id":"4","last_reported":1687486981,"current_range_meters":19600,"station_id":"ce4bgt12rcd13ifvqcd0","pricing_plan_id":"free"},{"bike_id":"9174dbf7-ae34-41ab-9dd9-dc259622b9ba","system_id":"levelo_inurba_marseille","lat":43.314811,"lon":5.373104,"is_reserved":false,"is_disabled":false,"rental_uris":{"android":"levelo://app?vid=9174dbf7-ae34-41ab-9dd9-dc259622b9ba","ios":"levelo://app?vid=9174dbf7-ae34-41ab-9dd9-dc259622b9ba"},"vehicle_type_id":"4","last_reported":1687486981,"current_range_meters":4000,"station_id":"ce4bgt12rcd13ifvqcd0","pricing_plan_id":"free"},{"bike_id":"4c49f83e-daca-406f-9ead-989fcd7d8d23","system_id":"levelo_inurba_marseille","lat":43.314811,"lon":5.373103,"is_reserved":false,"is_disabled":false,"rental_uris":{"android":"levelo://app?vid=4c49f83e-daca-406f-9ead-989fcd7d8d23","ios":"levelo://app?vid=4c49f83e-daca-406f-9ead-989fcd7d8d23"},"vehicle_type_id":"4","last_reported":1687486981,"current_range_meters":31600,"station_id":"ce4bgt12rcd13ifvqcd0","pricing_plan_id":"free"},{"bike_id":"1031ff69-939d-4e07-bcd5-7ad6809c69ec","system_id":"levelo_inurba_marseille","lat":43.314811,"lon":5.373103,"is_reserved":false,"is_disabled":false,"rental_uris":{"android":"levelo://app?vid=1031ff69-939d-4e07-bcd5-7ad6809c69ec","ios":"levelo://app?vid=1031ff69-939d-4e07-bcd5-7ad6809c69ec"},"vehicle_type_id":"4","last_reported":1687486981,"current_range_meters":29200,"station_id":"ce4bgt12rcd13ifvqcd0","pricing_plan_id":"free"},{"bike_id":"bf5e2e61-6eb6-4b20-af42-e284a7be0669","system_id":"levelo_inurba_marseille","lat":43.314811,"lon":5.373103,"is_reserved":false,"is_disabled":false,"rental_uris":{"android":"levelo://app?vid=bf5e2e61-6eb6-4b20-af42-e284a7be0669","ios":"levelo://app?vid=bf5e2e61-6eb6-4b20-af42-e284a7be0669"},"vehicle_type_id":"4","last_reported":1687486981,"current_range_meters":25600,"station_id":"ce4bgt12rcd13ifvqcd0","pricing_plan_id":"free"},{"bike_id":"562849a2-3a1d-4231-8ef3-2b11b4ab8202","system_id":"levelo_inurba_marseille","lat":43.314811,"lon":5.373104,"is_reserved":false,"is_disabled":false,"rental_uris":{"android":"levelo://app?vid=562849a2-3a1d-4231-8ef3-2b11b4ab8202","ios":"levelo://app?vid=562849a2-3a1d-4231-8ef3-2b11b4ab8202"},"vehicle_type_id":"4","last_reported":1687486981,"current_range_meters":31600,"station_id":"ce4bgt12rcd13ifvqcd0","pricing_plan_id":"free"},{"bike_id":"96895d04-17a6-4556-95a9-baa83c8b4d10","system_id":"levelo_inurba_marseille","lat":43.308606,"lon":5.372099,"is_reserved":false,"is_disabled":false,"rental_uris":{"android":"levelo://app?vid=96895d04-17a6-4556-95a9-baa83c8b4d10","ios":"levelo://app?vid=96895d04-17a6-4556-95a9-baa83c8b4d10"},"vehicle_type_id":"4","last_reported":1687486981,"current_range_meters":28000,"station_id":"ce4bguh2rcd13ifvqckg","pricing_plan_id":"free"},{"bike_id":"ab32dd18-283b-4cae-8e2d-e2ced9b6f62c","system_id":"levelo_inurba_marseille","lat":43.308606,"lon":5.372099,"is_reserved":false,"is_disabled":false,"rental_uris":{"android":"levelo://app?vid=ab32dd18-283b-4cae-8e2d-e2ced9b6f62c","ios":"levelo://app?vid=ab32dd18-283b-4cae-8e2d-e2ced9b6f62c"},"vehicle_type_id":"4","last_reported":1687486981,"current_range_meters":31200,"station_id":"ce4bguh2rcd13ifvqckg","pricing_plan_id":"free"},{"bike_id":"e9c4accd-8d38-4929-8890-93bc25cdc726","system_id":"levelo_inurba_marseille","lat":43.308606,"lon":5.372099,"is_reserved":false,"is_disabled":false,"rental_uris":{"android":"levelo://app?vid=e9c4accd-8d38-4929-8890-93bc25cdc726","ios":"levelo://app?vid=e9c4accd-8d38-4929-8890-93bc25cdc726"},"vehicle_type_id":"4","last_reported":1687486981,"current_range_meters":26400,"station_id":"ce4bguh2rcd13ifvqckg","pricing_plan_id":"free"},{"bike_id":"077012c0-327a-41b7-a149-1df98069d09b","system_id":"levelo_inurba_marseille","lat":43.31545,"lon":5.37324,"is_reserved":false,"is_disabled":false,"rental_uris":{"android":"levelo://app?vid=077012c0-327a-41b7-a149-1df98069d09b","ios":"levelo://app?vid=077012c0-327a-41b7-a149-1df98069d09b"},"vehicle_type_id":"4","last_reported":1687486981,"current_range_meters":29200,"station_id":"","pricing_plan_id":"free"},{"bike_id":"af02ffe4-83be-4055-b1c3-8ac53b1a8109","system_id":"levelo_inurba_marseille","lat":43.308606,"lon":5.372099,"is_reserved":false,"is_disabled":false,"rental_uris":{"android":"levelo://app?vid=af02ffe4-83be-4055-b1c3-8ac53b1a8109","ios":"levelo://app?vid=af02ffe4-83be-4055-b1c3-8ac53b1a8109"},"vehicle_type_id":"4","last_reported":1687486981,"current_range_meters":31600,"station_id":"ce4bguh2rcd13ifvqckg","pricing_plan_id":"free"},{"bike_id":"794c4c7a-1e2c-4328-8422-2d8fd2b43b75","system_id":"levelo_inurba_marseille","lat":43.308606,"lon":5.372099,"is_reserved":false,"is_disabled":false,"rental_uris":{"android":"levelo://app?vid=794c4c7a-1e2c-4328-8422-2d8fd2b43b75","ios":"levelo://app?vid=794c4c7a-1e2c-4328-8422-2d8fd2b43b75"},"vehicle_type_id":"4","last_reported":1687486981,"current_range_meters":30800,"station_id":"ce4bguh2rcd13ifvqckg","pricing_plan_id":"free"},{"bike_id":"fdfb4452-1a79-4ea2-b2a9-f1943a38854d","system_id":"levelo_inurba_marseille","lat":43.3089,"lon":5.37213,"is_reserved":false,"is_disabled":false,"rental_uris":{"android":"levelo://app?vid=fdfb4452-1a79-4ea2-b2a9-f1943a38854d","ios":"levelo://app?vid=fdfb4452-1a79-4ea2-b2a9-f1943a38854d"},"vehicle_type_id":"4","last_reported":1687486981,"current_range_meters":25600,"station_id":"ce4bguh2rcd13ifvqckg","pricing_plan_id":"free"},{"bike_id":"f13bdbc9-0952-40e9-9c5c-df95de4d8643","system_id":"levelo_inurba_marseille","lat":43.30604,"lon":5.37229,"is_reserved":false,"is_disabled":false,"rental_uris":{"android":"levelo://app?vid=f13bdbc9-0952-40e9-9c5c-df95de4d8643","ios":"levelo://app?vid=f13bdbc9-0952-40e9-9c5c-df95de4d8643"},"vehicle_type_id":"4","last_reported":1687486981,"current_range_meters":13600,"station_id":"ce4bgqh2rcd13ifvqc4g","pricing_plan_id":"free"},{"bike_id":"2fec8dab-bb3e-4ac7-8b3c-4025e1ebff09","system_id":"levelo_inurba_marseille","lat":43.305989,"lon":5.37225,"is_reserved":false,"is_disabled":false,"rental_uris":{"android":"levelo://app?vid=2fec8dab-bb3e-4ac7-8b3c-4025e1ebff09","ios":"levelo://app?vid=2fec8dab-bb3e-4ac7-8b3c-4025e1ebff09"},"vehicle_type_id":"4","last_reported":1687486981,"current_range_meters":31200,"station_id":"ce4bgqh2rcd13ifvqc4g","pricing_plan_id":"free"},{"bike_id":"aa30e27d-3ee7-427b-91d5-1258887ef154","system_id":"levelo_inurba_marseille","lat":43.305989,"lon":5.37225,"is_reserved":false,"is_disabled":false,"rental_uris":{"android":"levelo://app?vid=aa30e27d-3ee7-427b-91d5-1258887ef154","ios":"levelo://app?vid=aa30e27d-3ee7-427b-91d5-1258887ef154"},"vehicle_type_id":"4","last_reported":1687486981,"current_range_meters":15600,"station_id":"ce4bgqh2rcd13ifvqc4g","pricing_plan_id":"free"},{"bike_id":"8f8f25e5-3616-46c3-a680-2caa8dd36ece","system_id":"levelo_inurba_marseille","lat":43.305989,"lon":5.37225,"is_reserved":false,"is_disabled":false,"rental_uris":{"android":"levelo://app?vid=8f8f25e5-3616-46c3-a680-2caa8dd36ece","ios":"levelo://app?vid=8f8f25e5-3616-46c3-a680-2caa8dd36ece"},"vehicle_type_id":"4","last_reported":1687486981,"current_range_meters":31200,"station_id":"ce4bgqh2rcd13ifvqc4g","pricing_plan_id":"free"},{"bike_id":"dacd09ba-bfc8-4199-9dd8-1d0bc0d56fb6","system_id":"levelo_inurba_marseille","lat":43.305989,"lon":5.37225,"is_reserved":false,"is_disabled":false,"rental_uris":{"android":"levelo://app?vid=dacd09ba-bfc8-4199-9dd8-1d0bc0d56fb6","ios":"levelo://app?vid=dacd09ba-bfc8-4199-9dd8-1d0bc0d56fb6"},"vehicle_type_id":"4","last_reported":1687486981,"current_range_meters":31600,"station_id":"ce4bgqh2rcd13ifvqc4g","pricing_plan_id":"free"},{"bike_id":"7596fd07-0cb4-4683-b464-7845ba70d383","system_id":"levelo_inurba_marseille","lat":43.305989,"lon":5.37225,"is_reserved":false,"is_disabled":false,"rental_uris":{"android":"levelo://app?vid=7596fd07-0cb4-4683-b464-7845ba70d383","ios":"levelo://app?vid=7596fd07-0cb4-4683-b464-7845ba70d383"},"vehicle_type_id":"4","last_reported":1687486981,"current_range_meters":31200,"station_id":"ce4bgqh2rcd13ifvqc4g","pricing_plan_id":"free"},{"bike_id":"183e9158-1c73-46f6-a3ae-7b0e28dfc5e9","system_id":"levelo_inurba_marseille","lat":43.305989,"lon":5.37225,"is_reserved":false,"is_disabled":false,"rental_uris":{"android":"levelo://app?vid=183e9158-1c73-46f6-a3ae-7b0e28dfc5e9","ios":"levelo://app?vid=183e9158-1c73-46f6-a3ae-7b0e28dfc5e9"},"vehicle_type_id":"4","last_reported":1687486981,"current_range_meters":4000,"station_id":"ce4bgqh2rcd13ifvqc4g","pricing_plan_id":"free"},{"bike_id":"afa7e078-0434-4921-8119-206a4f656a19","system_id":"levelo_inurba_marseille","lat":43.305989,"lon":5.37225,"is_reserved":false,"is_disabled":false,"rental_uris":{"android":"levelo://app?vid=afa7e078-0434-4921-8119-206a4f656a19","ios":"levelo://app?vid=afa7e078-0434-4921-8119-206a4f656a19"},"vehicle_type_id":"4","last_reported":1687486981,"current_range_meters":32000,"station_id":"ce4bgqh2rcd13ifvqc4g","pricing_plan_id":"free"},{"bike_id":"819a209d-9422-467b-9c78-f4d3dd027db9","system_id":"levelo_inurba_marseille","lat":43.305989,"lon":5.37225,"is_reserved":false,"is_disabled":false,"rental_uris":{"android":"levelo://app?vid=819a209d-9422-467b-9c78-f4d3dd027db9","ios":"levelo://app?vid=819a209d-9422-467b-9c78-f4d3dd027db9"},"vehicle_type_id":"4","last_reported":1687486981,"current_range_meters":31200,"station_id":"ce4bgqh2rcd13ifvqc4g","pricing_plan_id":"free"},{"bike_id":"65ad55ff-f341-4a01-adb0-5a3db0e7822b","system_id":"levelo_inurba_marseille","lat":43.311131,"lon":5.377651,"is_reserved":false,"is_disabled":false,"rental_uris":{"android":"levelo://app?vid=65ad55ff-f341-4a01-adb0-5a3db0e7822b","ios":"levelo://app?vid=65ad55ff-f341-4a01-adb0-5a3db0e7822b"},"vehicle_type_id":"4","last_reported":1687486981,"current_range_meters":30400,"station_id":"ce4bgt92rcd13ifvqcg0","pricing_plan_id":"free"},{"bike_id":"4fd85b1a-352d-4783-9331-4da0887623d8","system_id":"levelo_inurba_marseille","lat":43.311125,"lon":5.377624,"is_reserved":false,"is_disabled":false,"rental_uris":{"android":"levelo://app?vid=4fd85b1a-352d-4783-9331-4da0887623d8","ios":"levelo://app?vid=4fd85b1a-352d-4783-9331-4da0887623d8"},"vehicle_type_id":"4","last_reported":1687486981,"current_range_meters":30800,"station_id":"ce4bgt92rcd13ifvqcg0","pricing_plan_id":"free"},{"bike_id":"6cddf9a2-bd4c-43dd-a138-c09817e0d006","system_id":"levelo_inurba_marseille","lat":43.311125,"lon":5.377624,"is_reserved":false,"is_disabled":false,"rental_uris":{"android":"levelo://app?vid=6cddf9a2-bd4c-43dd-a138-c09817e0d006","ios":"levelo://app?vid=6cddf9a2-bd4c-43dd-a138-c09817e0d006"},"vehicle_type_id":"4","last_reported":1687486981,"current_range_meters":30400,"station_id":"ce4bgt92rcd13ifvqcg0","pricing_plan_id":"free"},{"bike_id":"752fe1b5-4bef-439c-8f17-39b8b6a82fb4","system_id":"levelo_inurba_marseille","lat":43.317075,"lon":5.377367,"is_reserved":false,"is_disabled":false,"rental_uris":{"android":"levelo://app?vid=752fe1b5-4bef-439c-8f17-39b8b6a82fb4","ios":"levelo://app?vid=752fe1b5-4bef-439c-8f17-39b8b6a82fb4"},"vehicle_type_id":"4","last_reported":1687486981,"current_range_meters":29600,"station_id":"ce4bgth2rcd13ifvqch0","pricing_plan_id":"free"},{"bike_id":"ff10af4e-ed79-41b9-a171-372351c144ba","system_id":"levelo_inurba_marseille","lat":43.317075,"lon":5.377367,"is_reserved":false,"is_disabled":false,"rental_uris":{"android":"levelo://app?vid=ff10af4e-ed79-41b9-a171-372351c144ba","ios":"levelo://app?vid=ff10af4e-ed79-41b9-a171-372351c144ba"},"vehicle_type_id":"4","last_reported":1687486981,"current_range_meters":31600,"station_id":"ce4bgth2rcd13ifvqch0","pricing_plan_id":"free"},{"bike_id":"2cebafeb-12a0-4cb6-83ce-4e34dcefc158","system_id":"levelo_inurba_marseille","lat":43.317075,"lon":5.377367,"is_reserved":false,"is_disabled":false,"rental_uris":{"android":"levelo://app?vid=2cebafeb-12a0-4cb6-83ce-4e34dcefc158","ios":"levelo://app?vid=2cebafeb-12a0-4cb6-83ce-4e34dcefc158"},"vehicle_type_id":"4","last_reported":1687486981,"current_range_meters":32000,"station_id":"ce4bgth2rcd13ifvqch0","pricing_plan_id":"free"},{"bike_id":"11129ca9-b324-4685-97a9-836ab53c709a","system_id":"levelo_inurba_marseille","lat":43.303046,"lon":5.368981,"is_reserved":false,"is_disabled":false,"rental_uris":{"android":"levelo://app?vid=11129ca9-b324-4685-97a9-836ab53c709a","ios":"levelo://app?vid=11129ca9-b324-4685-97a9-836ab53c709a"},"vehicle_type_id":"4","last_reported":1687486981,"current_range_meters":28000,"station_id":"ce4bgqh2rcd13ifvqc5g","pricing_plan_id":"free"},{"bike_id":"c79ca6bb-5e3d-4834-a51b-cc1107092de4","system_id":"levelo_inurba_marseille","lat":43.303046,"lon":5.368981,"is_reserved":false,"is_disabled":false,"rental_uris":{"android":"levelo://app?vid=c79ca6bb-5e3d-4834-a51b-cc1107092de4","ios":"levelo://app?vid=c79ca6bb-5e3d-4834-a51b-cc1107092de4"},"vehicle_type_id":"4","last_reported":1687486981,"current_range_meters":0,"station_id":"ce4bgqh2rcd13ifvqc5g","pricing_plan_id":"free"},{"bike_id":"ad74f00f-759a-4fc6-916c-b1eb45485146","system_id":"levelo_inurba_marseille","lat":43.30962,"lon":5.37971,"is_reserved":false,"is_disabled":false,"rental_uris":{"android":"levelo://app?vid=ad74f00f-759a-4fc6-916c-b1eb45485146","ios":"levelo://app?vid=ad74f00f-759a-4fc6-916c-b1eb45485146"},"vehicle_type_id":"4","last_reported":1687486981,"current_range_meters":20000,"station_id":"","pricing_plan_id":"free"},{"bike_id":"81b88133-480d-41c0-a6bd-4d98733e5f32","system_id":"levelo_inurba_marseille","lat":43.31527,"lon":5.3803,"is_reserved":false,"is_disabled":false,"rental_uris":{"android":"levelo://app?vid=81b88133-480d-41c0-a6bd-4d98733e5f32","ios":"levelo://app?vid=81b88133-480d-41c0-a6bd-4d98733e5f32"},"vehicle_type_id":"4","last_reported":1687486981,"current_range_meters":20000,"station_id":"ce4bhsp2rcd13ifvqi50","pricing_plan_id":"free"},{"bike_id":"676544c1-d089-4ff3-ac82-440502e7e765","system_id":"levelo_inurba_marseille","lat":43.31531,"lon":5.3803,"is_reserved":false,"is_disabled":false,"rental_uris":{"android":"levelo://app?vid=676544c1-d089-4ff3-ac82-440502e7e765","ios":"levelo://app?vid=676544c1-d089-4ff3-ac82-440502e7e765"},"vehicle_type_id":"4","last_reported":1687486981,"current_range_meters":26400,"station_id":"ce4bhsp2rcd13ifvqi50","pricing_plan_id":"free"},{"bike_id":"52dc773e-7544-4093-a872-825c7271cf6f","system_id":"levelo_inurba_marseille","lat":43.31534,"lon":5.38031,"is_reserved":false,"is_disabled":false,"rental_uris":{"android":"levelo://app?vid=52dc773e-7544-4093-a872-825c7271cf6f","ios":"levelo://app?vid=52dc773e-7544-4093-a872-825c7271cf6f"},"vehicle_type_id":"4","last_reported":1687486981,"current_range_meters":4000,"station_id":"ce4bhsp2rcd13ifvqi50","pricing_plan_id":"free"},{"bike_id":"fc041bb5-1bb7-4b33-a020-fcd3557ab067","system_id":"levelo_inurba_marseille","lat":43.31523,"lon":5.38035,"is_reserved":false,"is_disabled":false,"rental_uris":{"android":"levelo://app?vid=fc041bb5-1bb7-4b33-a020-fcd3557ab067","ios":"levelo://app?vid=fc041bb5-1bb7-4b33-a020-fcd3557ab067"},"vehicle_type_id":"4","last_reported":1687486981,"current_range_meters":26000,"station_id":"ce4bhsp2rcd13ifvqi50","pricing_plan_id":"free"},{"bike_id":"416b18cc-631a-48ee-97e4-78518d241dcb","system_id":"levelo_inurba_marseille","lat":43.31524,"lon":5.3804,"is_reserved":false,"is_disabled":false,"rental_uris":{"android":"levelo://app?vid=416b18cc-631a-48ee-97e4-78518d241dcb","ios":"levelo://app?vid=416b18cc-631a-48ee-97e4-78518d241dcb"},"vehicle_type_id":"4","last_reported":1687486981,"current_range_meters":5600,"station_id":"ce4bhsp2rcd13ifvqi50","pricing_plan_id":"free"},{"bike_id":"cb35ca57-9113-4d87-879a-5a532fea8ffd","system_id":"levelo_inurba_marseille","lat":43.30828,"lon":5.38116,"is_reserved":false,"is_disabled":false,"rental_uris":{"android":"levelo://app?vid=cb35ca57-9113-4d87-879a-5a532fea8ffd","ios":"levelo://app?vid=cb35ca57-9113-4d87-879a-5a532fea8ffd"},"vehicle_type_id":"4","last_reported":1687486981,"current_range_meters":8000,"station_id":"","pricing_plan_id":"free"},{"bike_id":"c98c824a-5a21-41d7-a2b3-cfad705b7985","system_id":"levelo_inurba_marseille","lat":43.292642,"lon":5.384254,"is_reserved":false,"is_disabled":false,"rental_uris":{"android":"levelo://app?vid=c98c824a-5a21-41d7-a2b3-cfad705b7985","ios":"levelo://app?vid=c98c824a-5a21-41d7-a2b3-cfad705b7985"},"vehicle_type_id":"4","last_reported":1687486981,"current_range_meters":400,"station_id":"ce4bh692rcd13ifvqea0","pricing_plan_id":"free"},{"bike_id":"cd639034-6c54-4e79-98cb-c9aa9112afa1","system_id":"levelo_inurba_marseille","lat":43.308012,"lon":5.381511,"is_reserved":false,"is_disabled":false,"rental_uris":{"android":"levelo://app?vid=cd639034-6c54-4e79-98cb-c9aa9112afa1","ios":"levelo://app?vid=cd639034-6c54-4e79-98cb-c9aa9112afa1"},"vehicle_type_id":"4","last_reported":1687486981,"current_range_meters":9200,"station_id":"ce4bgt12rcd13ifvqce0","pricing_plan_id":"free"},{"bike_id":"769d8b99-eb74-458c-b604-0a5f57e627be","system_id":"levelo_inurba_marseille","lat":43.308012,"lon":5.381511,"is_reserved":false,"is_disabled":false,"rental_uris":{"android":"levelo://app?vid=769d8b99-eb74-458c-b604-0a5f57e627be","ios":"levelo://app?vid=769d8b99-eb74-458c-b604-0a5f57e627be"},"vehicle_type_id":"4","last_reported":1687486981,"current_range_meters":26400,"station_id":"ce4bgt12rcd13ifvqce0","pricing_plan_id":"free"},{"bike_id":"cc89cf4a-1020-4c37-b8df-7a044c546535","system_id":"levelo_inurba_marseille","lat":43.308012,"lon":5.381511,"is_reserved":false,"is_disabled":false,"rental_uris":{"android":"levelo://app?vid=cc89cf4a-1020-4c37-b8df-7a044c546535","ios":"levelo://app?vid=cc89cf4a-1020-4c37-b8df-7a044c546535"},"vehicle_type_id":"4","last_reported":1687486981,"current_range_meters":4000,"station_id":"ce4bgt12rcd13ifvqce0","pricing_plan_id":"free"},{"bike_id":"f8dbd215-619f-4c8d-b960-221b48228a69","system_id":"levelo_inurba_marseille","lat":43.308012,"lon":5.381511,"is_reserved":false,"is_disabled":false,"rental_uris":{"android":"levelo://app?vid=f8dbd215-619f-4c8d-b960-221b48228a69","ios":"levelo://app?vid=f8dbd215-619f-4c8d-b960-221b48228a69"},"vehicle_type_id":"4","last_reported":1687486981,"current_range_meters":0,"station_id":"ce4bgt12rcd13ifvqce0","pricing_plan_id":"free"},{"bike_id":"26ce8121-f992-40e2-9d05-685e5df6c7c8","system_id":"levelo_inurba_marseille","lat":43.308012,"lon":5.381511,"is_reserved":false,"is_disabled":false,"rental_uris":{"android":"levelo://app?vid=26ce8121-f992-40e2-9d05-685e5df6c7c8","ios":"levelo://app?vid=26ce8121-f992-40e2-9d05-685e5df6c7c8"},"vehicle_type_id":"4","last_reported":1687486981,"current_range_meters":26000,"station_id":"ce4bgt12rcd13ifvqce0","pricing_plan_id":"free"},{"bike_id":"08778001-02a4-47f8-82a8-7f7ea343a1f8","system_id":"levelo_inurba_marseille","lat":43.308012,"lon":5.381511,"is_reserved":false,"is_disabled":false,"rental_uris":{"android":"levelo://app?vid=08778001-02a4-47f8-82a8-7f7ea343a1f8","ios":"levelo://app?vid=08778001-02a4-47f8-82a8-7f7ea343a1f8"},"vehicle_type_id":"4","last_reported":1687486981,"current_range_meters":16800,"station_id":"ce4bgt12rcd13ifvqce0","pricing_plan_id":"free"},{"bike_id":"dda91a29-d185-469e-b54b-dbcd41aa89d2","system_id":"levelo_inurba_marseille","lat":43.304606,"lon":5.379026,"is_reserved":false,"is_disabled":false,"rental_uris":{"android":"levelo://app?vid=dda91a29-d185-469e-b54b-dbcd41aa89d2","ios":"levelo://app?vid=dda91a29-d185-469e-b54b-dbcd41aa89d2"},"vehicle_type_id":"4","last_reported":1687486981,"current_range_meters":30000,"station_id":"ce4bgup2rcd13ifvqcn0","pricing_plan_id":"free"},{"bike_id":"43fc693e-f2a9-4aec-8fd9-d094bb02cb70","system_id":"levelo_inurba_marseille","lat":43.304606,"lon":5.379026,"is_reserved":false,"is_disabled":false,"rental_uris":{"android":"levelo://app?vid=43fc693e-f2a9-4aec-8fd9-d094bb02cb70","ios":"levelo://app?vid=43fc693e-f2a9-4aec-8fd9-d094bb02cb70"},"vehicle_type_id":"4","last_reported":1687486981,"current_range_meters":0,"station_id":"ce4bgup2rcd13ifvqcn0","pricing_plan_id":"free"},{"bike_id":"caa0df7a-3469-4982-a402-c82d8e49ac69","system_id":"levelo_inurba_marseille","lat":43.302784,"lon":5.377158,"is_reserved":false,"is_disabled":false,"rental_uris":{"android":"levelo://app?vid=caa0df7a-3469-4982-a402-c82d8e49ac69","ios":"levelo://app?vid=caa0df7a-3469-4982-a402-c82d8e49ac69"},"vehicle_type_id":"4","last_reported":1687486981,"current_range_meters":26000,"station_id":"ce4bguh2rcd13ifvqcj0","pricing_plan_id":"free"},{"bike_id":"4459e13d-8da4-4fca-aa1b-5694361e1fcf","system_id":"levelo_inurba_marseille","lat":43.302784,"lon":5.377158,"is_reserved":false,"is_disabled":false,"rental_uris":{"android":"levelo://app?vid=4459e13d-8da4-4fca-aa1b-5694361e1fcf","ios":"levelo://app?vid=4459e13d-8da4-4fca-aa1b-5694361e1fcf"},"vehicle_type_id":"4","last_reported":1687486981,"current_range_meters":0,"station_id":"ce4bguh2rcd13ifvqcj0","pricing_plan_id":"free"},{"bike_id":"8bdc3002-dcbd-400e-b672-fbc455efd9c5","system_id":"levelo_inurba_marseille","lat":43.302784,"lon":5.377158,"is_reserved":false,"is_disabled":false,"rental_uris":{"android":"levelo://app?vid=8bdc3002-dcbd-400e-b672-fbc455efd9c5","ios":"levelo://app?vid=8bdc3002-dcbd-400e-b672-fbc455efd9c5"},"vehicle_type_id":"4","last_reported":1687486981,"current_range_meters":28800,"station_id":"ce4bguh2rcd13ifvqcj0","pricing_plan_id":"free"},{"bike_id":"a0bfd6b7-c91c-4aec-ae80-1ff9c8c6ec18","system_id":"levelo_inurba_marseille","lat":43.302784,"lon":5.377158,"is_reserved":false,"is_disabled":false,"rental_uris":{"android":"levelo://app?vid=a0bfd6b7-c91c-4aec-ae80-1ff9c8c6ec18","ios":"levelo://app?vid=a0bfd6b7-c91c-4aec-ae80-1ff9c8c6ec18"},"vehicle_type_id":"4","last_reported":1687486981,"current_range_meters":9200,"station_id":"ce4bguh2rcd13ifvqcj0","pricing_plan_id":"free"},{"bike_id":"c6962907-c52e-4b25-a6d6-6607eb67d520","system_id":"levelo_inurba_marseille","lat":43.302784,"lon":5.377158,"is_reserved":false,"is_disabled":false,"rental_uris":{"android":"levelo://app?vid=c6962907-c52e-4b25-a6d6-6607eb67d520","ios":"levelo://app?vid=c6962907-c52e-4b25-a6d6-6607eb67d520"},"vehicle_type_id":"4","last_reported":1687486981,"current_range_meters":23200,"station_id":"ce4bguh2rcd13ifvqcj0","pricing_plan_id":"free"},{"bike_id":"c83f0f10-70c9-4129-b5c7-0a5d1bf5c323","system_id":"levelo_inurba_marseille","lat":43.30139,"lon":5.37421,"is_reserved":false,"is_disabled":false,"rental_uris":{"android":"levelo://app?vid=c83f0f10-70c9-4129-b5c7-0a5d1bf5c323","ios":"levelo://app?vid=c83f0f10-70c9-4129-b5c7-0a5d1bf5c323"},"vehicle_type_id":"4","last_reported":1687486981,"current_range_meters":24400,"station_id":"ce4bgs92rcd13ifvqcc0","pricing_plan_id":"free"},{"bike_id":"dd0223fc-e3b2-4277-9a36-68031be99e8b","system_id":"levelo_inurba_marseille","lat":43.319935,"lon":5.381699,"is_reserved":false,"is_disabled":false,"rental_uris":{"android":"levelo://app?vid=dd0223fc-e3b2-4277-9a36-68031be99e8b","ios":"levelo://app?vid=dd0223fc-e3b2-4277-9a36-68031be99e8b"},"vehicle_type_id":"4","last_reported":1687486981,"current_range_meters":11200,"station_id":"ce4bhr12rcd13ifvqhpg","pricing_plan_id":"free"},{"bike_id":"0b03bed2-85b6-43ba-8a36-33c78d25df6b","system_id":"levelo_inurba_marseille","lat":43.30693,"lon":5.38263,"is_reserved":false,"is_disabled":false,"rental_uris":{"android":"levelo://app?vid=0b03bed2-85b6-43ba-8a36-33c78d25df6b","ios":"levelo://app?vid=0b03bed2-85b6-43ba-8a36-33c78d25df6b"},"vehicle_type_id":"4","last_reported":1687486981,"current_range_meters":31200,"station_id":"","pricing_plan_id":"free"},{"bike_id":"7deee56c-9315-446d-9bb0-655b3a7b2977","system_id":"levelo_inurba_marseille","lat":43.319935,"lon":5.381699,"is_reserved":false,"is_disabled":false,"rental_uris":{"android":"levelo://app?vid=7deee56c-9315-446d-9bb0-655b3a7b2977","ios":"levelo://app?vid=7deee56c-9315-446d-9bb0-655b3a7b2977"},"vehicle_type_id":"4","last_reported":1687486981,"current_range_meters":30400,"station_id":"ce4bhr12rcd13ifvqhpg","pricing_plan_id":"free"},{"bike_id":"b6ec6e00-31ec-471f-ae4a-d9f92b742295","system_id":"levelo_inurba_marseille","lat":43.319935,"lon":5.381699,"is_reserved":false,"is_disabled":false,"rental_uris":{"android":"levelo://app?vid=b6ec6e00-31ec-471f-ae4a-d9f92b742295","ios":"levelo://app?vid=b6ec6e00-31ec-471f-ae4a-d9f92b742295"},"vehicle_type_id":"4","last_reported":1687486981,"current_range_meters":31200,"station_id":"ce4bhr12rcd13ifvqhpg","pricing_plan_id":"free"},{"bike_id":"fc36b020-a0fa-4ea1-b73a-1b3b927113fc","system_id":"levelo_inurba_marseille","lat":43.319935,"lon":5.381699,"is_reserved":false,"is_disabled":false,"rental_uris":{"android":"levelo://app?vid=fc36b020-a0fa-4ea1-b73a-1b3b927113fc","ios":"levelo://app?vid=fc36b020-a0fa-4ea1-b73a-1b3b927113fc"},"vehicle_type_id":"4","last_reported":1687486981,"current_range_meters":21600,"station_id":"ce4bhr12rcd13ifvqhpg","pricing_plan_id":"free"},{"bike_id":"dd707d1b-6225-4661-996c-70284ecdf521","system_id":"levelo_inurba_marseille","lat":43.319935,"lon":5.381699,"is_reserved":false,"is_disabled":false,"rental_uris":{"android":"levelo://app?vid=dd707d1b-6225-4661-996c-70284ecdf521","ios":"levelo://app?vid=dd707d1b-6225-4661-996c-70284ecdf521"},"vehicle_type_id":"4","last_reported":1687486981,"current_range_meters":31200,"station_id":"ce4bhr12rcd13ifvqhpg","pricing_plan_id":"free"},{"bike_id":"2b477804-59d6-4ed2-b858-3f9e3c0f0764","system_id":"levelo_inurba_marseille","lat":43.319935,"lon":5.381699,"is_reserved":false,"is_disabled":false,"rental_uris":{"android":"levelo://app?vid=2b477804-59d6-4ed2-b858-3f9e3c0f0764","ios":"levelo://app?vid=2b477804-59d6-4ed2-b858-3f9e3c0f0764"},"vehicle_type_id":"4","last_reported":1687486981,"current_range_meters":25600,"station_id":"ce4bhr12rcd13ifvqhpg","pricing_plan_id":"free"},{"bike_id":"cc7ccaed-aeac-4fb6-a249-e3eec1cb8751","system_id":"levelo_inurba_marseille","lat":43.32226,"lon":5.37911,"is_reserved":false,"is_disabled":false,"rental_uris":{"android":"levelo://app?vid=cc7ccaed-aeac-4fb6-a249-e3eec1cb8751","ios":"levelo://app?vid=cc7ccaed-aeac-4fb6-a249-e3eec1cb8751"},"vehicle_type_id":"4","last_reported":1687486981,"current_range_meters":29200,"station_id":"","pricing_plan_id":"free"},{"bike_id":"794954bb-28e2-445c-a16d-3d663661fbd7","system_id":"levelo_inurba_marseille","lat":43.313571,"lon":5.384829,"is_reserved":false,"is_disabled":false,"rental_uris":{"android":"levelo://app?vid=794954bb-28e2-445c-a16d-3d663661fbd7","ios":"levelo://app?vid=794954bb-28e2-445c-a16d-3d663661fbd7"},"vehicle_type_id":"4","last_reported":1687486981,"current_range_meters":30800,"station_id":"ce4bgt92rcd13ifvqcf0","pricing_plan_id":"free"},{"bike_id":"cdcf2c67-35c4-4727-bedc-0b4ed1fb29c3","system_id":"levelo_inurba_marseille","lat":43.313571,"lon":5.384829,"is_reserved":false,"is_disabled":false,"rental_uris":{"android":"levelo://app?vid=cdcf2c67-35c4-4727-bedc-0b4ed1fb29c3","ios":"levelo://app?vid=cdcf2c67-35c4-4727-bedc-0b4ed1fb29c3"},"vehicle_type_id":"4","last_reported":1687486981,"current_range_meters":30000,"station_id":"ce4bgt92rcd13ifvqcf0","pricing_plan_id":"free"},{"bike_id":"e317eca7-f2ac-441b-9988-0c6854f7cbb8","system_id":"levelo_inurba_marseille","lat":43.313571,"lon":5.384829,"is_reserved":false,"is_disabled":false,"rental_uris":{"android":"levelo://app?vid=e317eca7-f2ac-441b-9988-0c6854f7cbb8","ios":"levelo://app?vid=e317eca7-f2ac-441b-9988-0c6854f7cbb8"},"vehicle_type_id":"4","last_reported":1687486981,"current_range_meters":30400,"station_id":"ce4bgt92rcd13ifvqcf0","pricing_plan_id":"free"},{"bike_id":"14e905b5-e829-4a5f-8a04-a41dec12ed7b","system_id":"levelo_inurba_marseille","lat":43.29942,"lon":5.36562,"is_reserved":false,"is_disabled":false,"rental_uris":{"android":"levelo://app?vid=14e905b5-e829-4a5f-8a04-a41dec12ed7b","ios":"levelo://app?vid=14e905b5-e829-4a5f-8a04-a41dec12ed7b"},"vehicle_type_id":"4","last_reported":1687486981,"current_range_meters":0,"station_id":"ce4bgm92rcd13ifvqbr0","pricing_plan_id":"free"},{"bike_id":"53339ef0-f454-467f-8db6-76538555b40a","system_id":"levelo_inurba_marseille","lat":43.31241,"lon":5.38666,"is_reserved":false,"is_disabled":false,"rental_uris":{"android":"levelo://app?vid=53339ef0-f454-467f-8db6-76538555b40a","ios":"levelo://app?vid=53339ef0-f454-467f-8db6-76538555b40a"},"vehicle_type_id":"4","last_reported":1687486981,"current_range_meters":11600,"station_id":"","pricing_plan_id":"free"},{"bike_id":"680a587f-a582-4a84-aa52-5f6cdfeea3da","system_id":"levelo_inurba_marseille","lat":43.31165,"lon":5.38713,"is_reserved":false,"is_disabled":false,"rental_uris":{"android":"levelo://app?vid=680a587f-a582-4a84-aa52-5f6cdfeea3da","ios":"levelo://app?vid=680a587f-a582-4a84-aa52-5f6cdfeea3da"},"vehicle_type_id":"4","last_reported":1687486981,"current_range_meters":30400,"station_id":"ce4bgv12rcd13ifvqcp0","pricing_plan_id":"free"},{"bike_id":"cd87ed38-83cb-45e1-805f-3b897bb5194e","system_id":"levelo_inurba_marseille","lat":43.311722,"lon":5.387247,"is_reserved":false,"is_disabled":false,"rental_uris":{"android":"levelo://app?vid=cd87ed38-83cb-45e1-805f-3b897bb5194e","ios":"levelo://app?vid=cd87ed38-83cb-45e1-805f-3b897bb5194e"},"vehicle_type_id":"4","last_reported":1687486981,"current_range_meters":3600,"station_id":"ce4bgv12rcd13ifvqcp0","pricing_plan_id":"free"},{"bike_id":"0561a7df-a130-4a80-a922-5ceeac9f19d8","system_id":"levelo_inurba_marseille","lat":43.311722,"lon":5.387247,"is_reserved":false,"is_disabled":false,"rental_uris":{"android":"levelo://app?vid=0561a7df-a130-4a80-a922-5ceeac9f19d8","ios":"levelo://app?vid=0561a7df-a130-4a80-a922-5ceeac9f19d8"},"vehicle_type_id":"4","last_reported":1687486981,"current_range_meters":19200,"station_id":"ce4bgv12rcd13ifvqcp0","pricing_plan_id":"free"},{"bike_id":"1c14f884-ffbd-4c87-9fd3-0ab8b668cfe7","system_id":"levelo_inurba_marseille","lat":43.311722,"lon":5.387247,"is_reserved":false,"is_disabled":false,"rental_uris":{"android":"levelo://app?vid=1c14f884-ffbd-4c87-9fd3-0ab8b668cfe7","ios":"levelo://app?vid=1c14f884-ffbd-4c87-9fd3-0ab8b668cfe7"},"vehicle_type_id":"4","last_reported":1687486981,"current_range_meters":28800,"station_id":"ce4bgv12rcd13ifvqcp0","pricing_plan_id":"free"},{"bike_id":"668cf921-bc13-4110-8e8b-9f157e072ecf","system_id":"levelo_inurba_marseille","lat":43.311722,"lon":5.387247,"is_reserved":false,"is_disabled":false,"rental_uris":{"android":"levelo://app?vid=668cf921-bc13-4110-8e8b-9f157e072ecf","ios":"levelo://app?vid=668cf921-bc13-4110-8e8b-9f157e072ecf"},"vehicle_type_id":"4","last_reported":1687486981,"current_range_meters":5600,"station_id":"ce4bgv12rcd13ifvqcp0","pricing_plan_id":"free"},{"bike_id":"59671e05-1547-4ad1-b769-eafdc0594cc2","system_id":"levelo_inurba_marseille","lat":43.311722,"lon":5.387247,"is_reserved":false,"is_disabled":false,"rental_uris":{"android":"levelo://app?vid=59671e05-1547-4ad1-b769-eafdc0594cc2","ios":"levelo://app?vid=59671e05-1547-4ad1-b769-eafdc0594cc2"},"vehicle_type_id":"4","last_reported":1687486981,"current_range_meters":30400,"station_id":"ce4bgv12rcd13ifvqcp0","pricing_plan_id":"free"},{"bike_id":"f900b13a-3879-46c9-8bcf-58354a1b7527","system_id":"levelo_inurba_marseille","lat":43.311722,"lon":5.387247,"is_reserved":false,"is_disabled":false,"rental_uris":{"android":"levelo://app?vid=f900b13a-3879-46c9-8bcf-58354a1b7527","ios":"levelo://app?vid=f900b13a-3879-46c9-8bcf-58354a1b7527"},"vehicle_type_id":"4","last_reported":1687486981,"current_range_meters":5200,"station_id":"ce4bgv12rcd13ifvqcp0","pricing_plan_id":"free"},{"bike_id":"d5f32ebe-b91f-4261-a4f5-b32cedc02b36","system_id":"levelo_inurba_marseille","lat":43.311722,"lon":5.387247,"is_reserved":false,"is_disabled":false,"rental_uris":{"android":"levelo://app?vid=d5f32ebe-b91f-4261-a4f5-b32cedc02b36","ios":"levelo://app?vid=d5f32ebe-b91f-4261-a4f5-b32cedc02b36"},"vehicle_type_id":"4","last_reported":1687486981,"current_range_meters":31600,"station_id":"ce4bgv12rcd13ifvqcp0","pricing_plan_id":"free"},{"bike_id":"a73ba982-b9a4-4629-8656-46245f9d10c7","system_id":"levelo_inurba_marseille","lat":43.29779,"lon":5.37099,"is_reserved":false,"is_disabled":false,"rental_uris":{"android":"levelo://app?vid=a73ba982-b9a4-4629-8656-46245f9d10c7","ios":"levelo://app?vid=a73ba982-b9a4-4629-8656-46245f9d10c7"},"vehicle_type_id":"4","last_reported":1687486981,"current_range_meters":0,"station_id":"ce4bgop2rcd13ifvqc1g","pricing_plan_id":"free"},{"bike_id":"31ddad60-d4bd-4b75-a02e-e3bbf11065ed","system_id":"levelo_inurba_marseille","lat":43.328371,"lon":5.366909,"is_reserved":false,"is_disabled":false,"rental_uris":{"android":"levelo://app?vid=31ddad60-d4bd-4b75-a02e-e3bbf11065ed","ios":"levelo://app?vid=31ddad60-d4bd-4b75-a02e-e3bbf11065ed"},"vehicle_type_id":"4","last_reported":1687486981,"current_range_meters":24800,"station_id":"ce4bhs92rcd13ifvqi0g","pricing_plan_id":"free"},{"bike_id":"f29725c6-87c0-4998-96d6-7b7afbecb764","system_id":"levelo_inurba_marseille","lat":43.328371,"lon":5.366909,"is_reserved":false,"is_disabled":false,"rental_uris":{"android":"levelo://app?vid=f29725c6-87c0-4998-96d6-7b7afbecb764","ios":"levelo://app?vid=f29725c6-87c0-4998-96d6-7b7afbecb764"},"vehicle_type_id":"4","last_reported":1687486981,"current_range_meters":3200,"station_id":"ce4bhs92rcd13ifvqi0g","pricing_plan_id":"free"},{"bike_id":"41235149-f42e-4673-9d1a-055ac92c3df6","system_id":"levelo_inurba_marseille","lat":43.32828,"lon":5.36679,"is_reserved":false,"is_disabled":false,"rental_uris":{"android":"levelo://app?vid=41235149-f42e-4673-9d1a-055ac92c3df6","ios":"levelo://app?vid=41235149-f42e-4673-9d1a-055ac92c3df6"},"vehicle_type_id":"4","last_reported":1687486981,"current_range_meters":27200,"station_id":"","pricing_plan_id":"free"},{"bike_id":"ea3889ea-5ce7-493a-b3af-4d209779d2a3","system_id":"levelo_inurba_marseille","lat":43.32831,"lon":5.36681,"is_reserved":false,"is_disabled":false,"rental_uris":{"android":"levelo://app?vid=ea3889ea-5ce7-493a-b3af-4d209779d2a3","ios":"levelo://app?vid=ea3889ea-5ce7-493a-b3af-4d209779d2a3"},"vehicle_type_id":"4","last_reported":1687486981,"current_range_meters":0,"station_id":"ce4bhs92rcd13ifvqi0g","pricing_plan_id":"free"},{"bike_id":"a7609b82-0005-4e13-b94d-903dd279316f","system_id":"levelo_inurba_marseille","lat":43.297163,"lon":5.365866,"is_reserved":false,"is_disabled":false,"rental_uris":{"android":"levelo://app?vid=a7609b82-0005-4e13-b94d-903dd279316f","ios":"levelo://app?vid=a7609b82-0005-4e13-b94d-903dd279316f"},"vehicle_type_id":"4","last_reported":1687486981,"current_range_meters":25200,"station_id":"ce4bgn12rcd13ifvqbt0","pricing_plan_id":"free"},{"bike_id":"d6aa4b8f-0fbd-492f-a726-f1b64033634e","system_id":"levelo_inurba_marseille","lat":43.29706,"lon":5.36435,"is_reserved":false,"is_disabled":false,"rental_uris":{"android":"levelo://app?vid=d6aa4b8f-0fbd-492f-a726-f1b64033634e","ios":"levelo://app?vid=d6aa4b8f-0fbd-492f-a726-f1b64033634e"},"vehicle_type_id":"4","last_reported":1687486981,"current_range_meters":12800,"station_id":"","pricing_plan_id":"free"},{"bike_id":"041bc147-ef2f-419b-bb81-deca3bdf89e2","system_id":"levelo_inurba_marseille","lat":43.29611,"lon":5.36046,"is_reserved":false,"is_disabled":false,"rental_uris":{"android":"levelo://app?vid=041bc147-ef2f-419b-bb81-deca3bdf89e2","ios":"levelo://app?vid=041bc147-ef2f-419b-bb81-deca3bdf89e2"},"vehicle_type_id":"4","last_reported":1687486981,"current_range_meters":12400,"station_id":"","pricing_plan_id":"free"},{"bike_id":"a9a2f185-74ab-40dd-85d2-c9b91cd0ec95","system_id":"levelo_inurba_marseille","lat":43.317557,"lon":5.390173,"is_reserved":false,"is_disabled":false,"rental_uris":{"android":"levelo://app?vid=a9a2f185-74ab-40dd-85d2-c9b91cd0ec95","ios":"levelo://app?vid=a9a2f185-74ab-40dd-85d2-c9b91cd0ec95"},"vehicle_type_id":"4","last_reported":1687486981,"current_range_meters":30400,"station_id":"ce4bhqp2rcd13ifvqhng","pricing_plan_id":"free"},{"bike_id":"c371fbb5-2063-4eac-a8ee-0d1442b1cefa","system_id":"levelo_inurba_marseille","lat":43.317557,"lon":5.390173,"is_reserved":false,"is_disabled":false,"rental_uris":{"android":"levelo://app?vid=c371fbb5-2063-4eac-a8ee-0d1442b1cefa","ios":"levelo://app?vid=c371fbb5-2063-4eac-a8ee-0d1442b1cefa"},"vehicle_type_id":"4","last_reported":1687486981,"current_range_meters":26800,"station_id":"ce4bhqp2rcd13ifvqhng","pricing_plan_id":"free"},{"bike_id":"d2ab0546-1c04-436f-8a98-8b650091c075","system_id":"levelo_inurba_marseille","lat":43.295748,"lon":5.37522,"is_reserved":false,"is_disabled":false,"rental_uris":{"android":"levelo://app?vid=d2ab0546-1c04-436f-8a98-8b650091c075","ios":"levelo://app?vid=d2ab0546-1c04-436f-8a98-8b650091c075"},"vehicle_type_id":"4","last_reported":1687486981,"current_range_meters":12000,"station_id":"ce4bgh92rcd13ifvqb50","pricing_plan_id":"free"},{"bike_id":"fd1c370a-02c8-4777-97ce-3c1bdb882120","system_id":"levelo_inurba_marseille","lat":43.296263,"lon":5.377094,"is_reserved":false,"is_disabled":false,"rental_uris":{"android":"levelo://app?vid=fd1c370a-02c8-4777-97ce-3c1bdb882120","ios":"levelo://app?vid=fd1c370a-02c8-4777-97ce-3c1bdb882120"},"vehicle_type_id":"4","last_reported":1687486981,"current_range_meters":21600,"station_id":"ce4bgi92rcd13ifvqb90","pricing_plan_id":"free"},{"bike_id":"137d1e30-4597-453e-a994-85ab7e21c0ba","system_id":"levelo_inurba_marseille","lat":43.295748,"lon":5.37522,"is_reserved":false,"is_disabled":false,"rental_uris":{"android":"levelo://app?vid=137d1e30-4597-453e-a994-85ab7e21c0ba","ios":"levelo://app?vid=137d1e30-4597-453e-a994-85ab7e21c0ba"},"vehicle_type_id":"4","last_reported":1687486981,"current_range_meters":29200,"station_id":"ce4bgh92rcd13ifvqb50","pricing_plan_id":"free"},{"bike_id":"681d22cc-078d-43a2-af9f-0bccbe9fc706","system_id":"levelo_inurba_marseille","lat":43.30242,"lon":5.38723,"is_reserved":false,"is_disabled":false,"rental_uris":{"android":"levelo://app?vid=681d22cc-078d-43a2-af9f-0bccbe9fc706","ios":"levelo://app?vid=681d22cc-078d-43a2-af9f-0bccbe9fc706"},"vehicle_type_id":"4","last_reported":1687486981,"current_range_meters":0,"station_id":"","pricing_plan_id":"free"},{"bike_id":"2fc09c5b-54a9-46f0-afd7-b33f63f61a60","system_id":"levelo_inurba_marseille","lat":43.296263,"lon":5.377094,"is_reserved":false,"is_disabled":false,"rental_uris":{"android":"levelo://app?vid=2fc09c5b-54a9-46f0-afd7-b33f63f61a60","ios":"levelo://app?vid=2fc09c5b-54a9-46f0-afd7-b33f63f61a60"},"vehicle_type_id":"4","last_reported":1687486981,"current_range_meters":31200,"station_id":"ce4bgi92rcd13ifvqb90","pricing_plan_id":"free"},{"bike_id":"5df42c1a-ed2b-492e-8f85-33aa2d0ed3a0","system_id":"levelo_inurba_marseille","lat":43.295748,"lon":5.37522,"is_reserved":false,"is_disabled":false,"rental_uris":{"android":"levelo://app?vid=5df42c1a-ed2b-492e-8f85-33aa2d0ed3a0","ios":"levelo://app?vid=5df42c1a-ed2b-492e-8f85-33aa2d0ed3a0"},"vehicle_type_id":"4","last_reported":1687486981,"current_range_meters":13200,"station_id":"ce4bgh92rcd13ifvqb50","pricing_plan_id":"free"},{"bike_id":"b772e8e5-cc55-48b8-9c27-13ade4ceba1f","system_id":"levelo_inurba_marseille","lat":43.295748,"lon":5.37522,"is_reserved":false,"is_disabled":false,"rental_uris":{"android":"levelo://app?vid=b772e8e5-cc55-48b8-9c27-13ade4ceba1f","ios":"levelo://app?vid=b772e8e5-cc55-48b8-9c27-13ade4ceba1f"},"vehicle_type_id":"4","last_reported":1687486981,"current_range_meters":20000,"station_id":"ce4bgh92rcd13ifvqb50","pricing_plan_id":"free"},{"bike_id":"469ef8fc-5f87-49c1-9829-13454b04bc83","system_id":"levelo_inurba_marseille","lat":43.299707,"lon":5.384859,"is_reserved":false,"is_disabled":false,"rental_uris":{"android":"levelo://app?vid=469ef8fc-5f87-49c1-9829-13454b04bc83","ios":"levelo://app?vid=469ef8fc-5f87-49c1-9829-13454b04bc83"},"vehicle_type_id":"4","last_reported":1687486981,"current_range_meters":28000,"station_id":"ce4bgj92rcd13ifvqbd0","pricing_plan_id":"free"},{"bike_id":"4401a204-66a6-48a9-8495-139d90c233c9","system_id":"levelo_inurba_marseille","lat":43.295279,"lon":5.375048,"is_reserved":false,"is_disabled":false,"rental_uris":{"android":"levelo://app?vid=4401a204-66a6-48a9-8495-139d90c233c9","ios":"levelo://app?vid=4401a204-66a6-48a9-8495-139d90c233c9"},"vehicle_type_id":"4","last_reported":1687486981,"current_range_meters":31200,"station_id":"ce4bgkp2rcd13ifvqbmg","pricing_plan_id":"free"},{"bike_id":"c982d2d4-f203-4fd5-a87b-eeba8d70ebaa","system_id":"levelo_inurba_marseille","lat":43.299707,"lon":5.384859,"is_reserved":false,"is_disabled":false,"rental_uris":{"android":"levelo://app?vid=c982d2d4-f203-4fd5-a87b-eeba8d70ebaa","ios":"levelo://app?vid=c982d2d4-f203-4fd5-a87b-eeba8d70ebaa"},"vehicle_type_id":"4","last_reported":1687486981,"current_range_meters":9200,"station_id":"ce4bgj92rcd13ifvqbd0","pricing_plan_id":"free"},{"bike_id":"4fc4f194-e67a-4037-be4b-dd931ac50050","system_id":"levelo_inurba_marseille","lat":43.29958,"lon":5.38522,"is_reserved":false,"is_disabled":false,"rental_uris":{"android":"levelo://app?vid=4fc4f194-e67a-4037-be4b-dd931ac50050","ios":"levelo://app?vid=4fc4f194-e67a-4037-be4b-dd931ac50050"},"vehicle_type_id":"4","last_reported":1687486981,"current_range_meters":25200,"station_id":"","pricing_plan_id":"free"},{"bike_id":"64662981-7513-476f-94ac-37e143c3fe68","system_id":"levelo_inurba_marseille","lat":43.32359,"lon":5.3888,"is_reserved":false,"is_disabled":false,"rental_uris":{"android":"levelo://app?vid=64662981-7513-476f-94ac-37e143c3fe68","ios":"levelo://app?vid=64662981-7513-476f-94ac-37e143c3fe68"},"vehicle_type_id":"4","last_reported":1687486981,"current_range_meters":28800,"station_id":"ce4bhqp2rcd13ifvqhog","pricing_plan_id":"free"},{"bike_id":"a4982143-2425-407a-81e3-fbbbd5897622","system_id":"levelo_inurba_marseille","lat":43.32366,"lon":5.3888,"is_reserved":false,"is_disabled":false,"rental_uris":{"android":"levelo://app?vid=a4982143-2425-407a-81e3-fbbbd5897622","ios":"levelo://app?vid=a4982143-2425-407a-81e3-fbbbd5897622"},"vehicle_type_id":"4","last_reported":1687486981,"current_range_meters":1600,"station_id":"ce4bhqp2rcd13ifvqhog","pricing_plan_id":"free"},{"bike_id":"97d9eccf-9d27-41a8-93bc-138ca7899aeb","system_id":"levelo_inurba_marseille","lat":43.32365,"lon":5.38881,"is_reserved":false,"is_disabled":false,"rental_uris":{"android":"levelo://app?vid=97d9eccf-9d27-41a8-93bc-138ca7899aeb","ios":"levelo://app?vid=97d9eccf-9d27-41a8-93bc-138ca7899aeb"},"vehicle_type_id":"4","last_reported":1687486981,"current_range_meters":30400,"station_id":"ce4bhqp2rcd13ifvqhog","pricing_plan_id":"free"},{"bike_id":"ba9bcc13-30a6-41ee-ab87-c9d21de1e9f5","system_id":"levelo_inurba_marseille","lat":43.32367,"lon":5.388836,"is_reserved":false,"is_disabled":false,"rental_uris":{"android":"levelo://app?vid=ba9bcc13-30a6-41ee-ab87-c9d21de1e9f5","ios":"levelo://app?vid=ba9bcc13-30a6-41ee-ab87-c9d21de1e9f5"},"vehicle_type_id":"4","last_reported":1687486981,"current_range_meters":19600,"station_id":"ce4bhqp2rcd13ifvqhog","pricing_plan_id":"free"},{"bike_id":"537904b6-81e9-4163-ada3-bc304b2c5b19","system_id":"levelo_inurba_marseille","lat":43.32364,"lon":5.38885,"is_reserved":false,"is_disabled":false,"rental_uris":{"android":"levelo://app?vid=537904b6-81e9-4163-ada3-bc304b2c5b19","ios":"levelo://app?vid=537904b6-81e9-4163-ada3-bc304b2c5b19"},"vehicle_type_id":"4","last_reported":1687486981,"current_range_meters":13200,"station_id":"ce4bhqp2rcd13ifvqhog","pricing_plan_id":"free"},{"bike_id":"6b240958-c6ee-4137-b7eb-f90da79bb462","system_id":"levelo_inurba_marseille","lat":43.32367,"lon":5.388836,"is_reserved":false,"is_disabled":false,"rental_uris":{"android":"levelo://app?vid=6b240958-c6ee-4137-b7eb-f90da79bb462","ios":"levelo://app?vid=6b240958-c6ee-4137-b7eb-f90da79bb462"},"vehicle_type_id":"4","last_reported":1687486981,"current_range_meters":19600,"station_id":"ce4bhqp2rcd13ifvqhog","pricing_plan_id":"free"},{"bike_id":"10fe77c1-5e15-42b2-9115-e66cf6b1c4f4","system_id":"levelo_inurba_marseille","lat":43.32367,"lon":5.388836,"is_reserved":false,"is_disabled":false,"rental_uris":{"android":"levelo://app?vid=10fe77c1-5e15-42b2-9115-e66cf6b1c4f4","ios":"levelo://app?vid=10fe77c1-5e15-42b2-9115-e66cf6b1c4f4"},"vehicle_type_id":"4","last_reported":1687486981,"current_range_meters":400,"station_id":"ce4bhqp2rcd13ifvqhog","pricing_plan_id":"free"},{"bike_id":"9eb6839e-6824-4f74-a71e-6f1996b3ff40","system_id":"levelo_inurba_marseille","lat":43.32367,"lon":5.388836,"is_reserved":false,"is_disabled":false,"rental_uris":{"android":"levelo://app?vid=9eb6839e-6824-4f74-a71e-6f1996b3ff40","ios":"levelo://app?vid=9eb6839e-6824-4f74-a71e-6f1996b3ff40"},"vehicle_type_id":"4","last_reported":1687486981,"current_range_meters":23600,"station_id":"ce4bhqp2rcd13ifvqhog","pricing_plan_id":"free"},{"bike_id":"76d32c13-29a6-4f86-8ef8-3c4796243362","system_id":"levelo_inurba_marseille","lat":43.30593,"lon":5.39355,"is_reserved":false,"is_disabled":false,"rental_uris":{"android":"levelo://app?vid=76d32c13-29a6-4f86-8ef8-3c4796243362","ios":"levelo://app?vid=76d32c13-29a6-4f86-8ef8-3c4796243362"},"vehicle_type_id":"4","last_reported":1687486981,"current_range_meters":20800,"station_id":"","pricing_plan_id":"free"},{"bike_id":"06c12b5b-4dae-4a74-8f74-870fddd5005a","system_id":"levelo_inurba_marseille","lat":43.30591,"lon":5.39357,"is_reserved":false,"is_disabled":false,"rental_uris":{"android":"levelo://app?vid=06c12b5b-4dae-4a74-8f74-870fddd5005a","ios":"levelo://app?vid=06c12b5b-4dae-4a74-8f74-870fddd5005a"},"vehicle_type_id":"4","last_reported":1687486981,"current_range_meters":30400,"station_id":"ce4bh0p2rcd13ifvqd80","pricing_plan_id":"free"},{"bike_id":"0003540a-7003-4f9d-93cf-ee0643a910ac","system_id":"levelo_inurba_marseille","lat":43.30594,"lon":5.3936,"is_reserved":false,"is_disabled":false,"rental_uris":{"android":"levelo://app?vid=0003540a-7003-4f9d-93cf-ee0643a910ac","ios":"levelo://app?vid=0003540a-7003-4f9d-93cf-ee0643a910ac"},"vehicle_type_id":"4","last_reported":1687486981,"current_range_meters":22000,"station_id":"ce4bh0p2rcd13ifvqd80","pricing_plan_id":"free"},{"bike_id":"d4bead1d-c0c4-4ba5-8c69-42b53e1a3c50","system_id":"levelo_inurba_marseille","lat":43.302992,"lon":5.392136,"is_reserved":false,"is_disabled":false,"rental_uris":{"android":"levelo://app?vid=d4bead1d-c0c4-4ba5-8c69-42b53e1a3c50","ios":"levelo://app?vid=d4bead1d-c0c4-4ba5-8c69-42b53e1a3c50"},"vehicle_type_id":"4","last_reported":1687486981,"current_range_meters":13200,"station_id":"ce4bgkh2rcd13ifvqbk0","pricing_plan_id":"free"},{"bike_id":"29631889-3077-493f-82f2-c0fa3a053c54","system_id":"levelo_inurba_marseille","lat":43.30301,"lon":5.39221,"is_reserved":false,"is_disabled":false,"rental_uris":{"android":"levelo://app?vid=29631889-3077-493f-82f2-c0fa3a053c54","ios":"levelo://app?vid=29631889-3077-493f-82f2-c0fa3a053c54"},"vehicle_type_id":"4","last_reported":1687486981,"current_range_meters":31600,"station_id":"ce4bgkh2rcd13ifvqbk0","pricing_plan_id":"free"},{"bike_id":"c8cf5963-56d2-4caa-a03b-7ed7eb6b52ec","system_id":"levelo_inurba_marseille","lat":43.30299,"lon":5.39222,"is_reserved":false,"is_disabled":false,"rental_uris":{"android":"levelo://app?vid=c8cf5963-56d2-4caa-a03b-7ed7eb6b52ec","ios":"levelo://app?vid=c8cf5963-56d2-4caa-a03b-7ed7eb6b52ec"},"vehicle_type_id":"4","last_reported":1687486981,"current_range_meters":31200,"station_id":"ce4bgkh2rcd13ifvqbk0","pricing_plan_id":"free"},{"bike_id":"5f8a67d7-2f18-4582-85a4-3d57f5695628","system_id":"levelo_inurba_marseille","lat":43.30304,"lon":5.39226,"is_reserved":false,"is_disabled":false,"rental_uris":{"android":"levelo://app?vid=5f8a67d7-2f18-4582-85a4-3d57f5695628","ios":"levelo://app?vid=5f8a67d7-2f18-4582-85a4-3d57f5695628"},"vehicle_type_id":"4","last_reported":1687486981,"current_range_meters":12000,"station_id":"ce4bgkh2rcd13ifvqbk0","pricing_plan_id":"free"},{"bike_id":"479aa7a5-8ee8-4d97-8cef-80f8c5b9097c","system_id":"levelo_inurba_marseille","lat":43.302992,"lon":5.392136,"is_reserved":false,"is_disabled":false,"rental_uris":{"android":"levelo://app?vid=479aa7a5-8ee8-4d97-8cef-80f8c5b9097c","ios":"levelo://app?vid=479aa7a5-8ee8-4d97-8cef-80f8c5b9097c"},"vehicle_type_id":"4","last_reported":1687486981,"current_range_meters":1600,"station_id":"ce4bgkh2rcd13ifvqbk0","pricing_plan_id":"free"},{"bike_id":"c0c06248-472c-4437-a153-9bf01b39c0db","system_id":"levelo_inurba_marseille","lat":43.30304,"lon":5.39235,"is_reserved":false,"is_disabled":false,"rental_uris":{"android":"levelo://app?vid=c0c06248-472c-4437-a153-9bf01b39c0db","ios":"levelo://app?vid=c0c06248-472c-4437-a153-9bf01b39c0db"},"vehicle_type_id":"4","last_reported":1687486981,"current_range_meters":28800,"station_id":"ce4bgkh2rcd13ifvqbk0","pricing_plan_id":"free"},{"bike_id":"2a1031d3-6a10-4d77-9d10-498719f54073","system_id":"levelo_inurba_marseille","lat":43.30299,"lon":5.39234,"is_reserved":false,"is_disabled":false,"rental_uris":{"android":"levelo://app?vid=2a1031d3-6a10-4d77-9d10-498719f54073","ios":"levelo://app?vid=2a1031d3-6a10-4d77-9d10-498719f54073"},"vehicle_type_id":"4","last_reported":1687486981,"current_range_meters":16000,"station_id":"ce4bgkh2rcd13ifvqbk0","pricing_plan_id":"free"},{"bike_id":"9eb34ee2-5d27-4d26-b391-5fd2df57f472","system_id":"levelo_inurba_marseille","lat":43.302992,"lon":5.392136,"is_reserved":false,"is_disabled":false,"rental_uris":{"android":"levelo://app?vid=9eb34ee2-5d27-4d26-b391-5fd2df57f472","ios":"levelo://app?vid=9eb34ee2-5d27-4d26-b391-5fd2df57f472"},"vehicle_type_id":"4","last_reported":1687486981,"current_range_meters":31600,"station_id":"ce4bgkh2rcd13ifvqbk0","pricing_plan_id":"free"},{"bike_id":"4d7bb623-71b5-4384-8531-68bd0ae4ca46","system_id":"levelo_inurba_marseille","lat":43.292311,"lon":5.360731,"is_reserved":false,"is_disabled":false,"rental_uris":{"android":"levelo://app?vid=4d7bb623-71b5-4384-8531-68bd0ae4ca46","ios":"levelo://app?vid=4d7bb623-71b5-4384-8531-68bd0ae4ca46"},"vehicle_type_id":"4","last_reported":1687486981,"current_range_meters":28800,"station_id":"ce4bhbh2rcd13ifvqeqg","pricing_plan_id":"free"},{"bike_id":"67bb84e1-e75f-46f1-9e18-cec908e53d6c","system_id":"levelo_inurba_marseille","lat":43.30085,"lon":5.390856,"is_reserved":false,"is_disabled":false,"rental_uris":{"android":"levelo://app?vid=67bb84e1-e75f-46f1-9e18-cec908e53d6c","ios":"levelo://app?vid=67bb84e1-e75f-46f1-9e18-cec908e53d6c"},"vehicle_type_id":"4","last_reported":1687486981,"current_range_meters":30000,"station_id":"ce4bh192rcd13ifvqdb0","pricing_plan_id":"free"},{"bike_id":"65079182-a41d-465e-957b-94fdd8d8ef52","system_id":"levelo_inurba_marseille","lat":43.30085,"lon":5.390856,"is_reserved":false,"is_disabled":false,"rental_uris":{"android":"levelo://app?vid=65079182-a41d-465e-957b-94fdd8d8ef52","ios":"levelo://app?vid=65079182-a41d-465e-957b-94fdd8d8ef52"},"vehicle_type_id":"4","last_reported":1687486981,"current_range_meters":21600,"station_id":"ce4bh192rcd13ifvqdb0","pricing_plan_id":"free"},{"bike_id":"97d38a77-0477-432d-9182-884574d45011","system_id":"levelo_inurba_marseille","lat":43.298764,"lon":5.388973,"is_reserved":false,"is_disabled":false,"rental_uris":{"android":"levelo://app?vid=97d38a77-0477-432d-9182-884574d45011","ios":"levelo://app?vid=97d38a77-0477-432d-9182-884574d45011"},"vehicle_type_id":"4","last_reported":1687486981,"current_range_meters":0,"station_id":"ce4bh392rcd13ifvqdl0","pricing_plan_id":"free"},{"bike_id":"cbdbf9ef-2595-4607-8372-4dbf7b49bf9a","system_id":"levelo_inurba_marseille","lat":43.29873,"lon":5.38908,"is_reserved":false,"is_disabled":false,"rental_uris":{"android":"levelo://app?vid=cbdbf9ef-2595-4607-8372-4dbf7b49bf9a","ios":"levelo://app?vid=cbdbf9ef-2595-4607-8372-4dbf7b49bf9a"},"vehicle_type_id":"4","last_reported":1687486981,"current_range_meters":0,"station_id":"ce4bh392rcd13ifvqdl0","pricing_plan_id":"free"},{"bike_id":"5f4d6d09-ff78-4c12-bee9-b60bcab38ff2","system_id":"levelo_inurba_marseille","lat":43.298764,"lon":5.388973,"is_reserved":false,"is_disabled":false,"rental_uris":{"android":"levelo://app?vid=5f4d6d09-ff78-4c12-bee9-b60bcab38ff2","ios":"levelo://app?vid=5f4d6d09-ff78-4c12-bee9-b60bcab38ff2"},"vehicle_type_id":"4","last_reported":1687486981,"current_range_meters":11600,"station_id":"ce4bh392rcd13ifvqdl0","pricing_plan_id":"free"},{"bike_id":"224f023c-93a6-4aa2-a12a-27bd62d74cbc","system_id":"levelo_inurba_marseille","lat":43.29874,"lon":5.38915,"is_reserved":false,"is_disabled":false,"rental_uris":{"android":"levelo://app?vid=224f023c-93a6-4aa2-a12a-27bd62d74cbc","ios":"levelo://app?vid=224f023c-93a6-4aa2-a12a-27bd62d74cbc"},"vehicle_type_id":"4","last_reported":1687486981,"current_range_meters":0,"station_id":"ce4bh392rcd13ifvqdl0","pricing_plan_id":"free"},{"bike_id":"efdd9ee3-98a6-4730-858b-c69650cf54b6","system_id":"levelo_inurba_marseille","lat":43.298764,"lon":5.388973,"is_reserved":false,"is_disabled":false,"rental_uris":{"android":"levelo://app?vid=efdd9ee3-98a6-4730-858b-c69650cf54b6","ios":"levelo://app?vid=efdd9ee3-98a6-4730-858b-c69650cf54b6"},"vehicle_type_id":"4","last_reported":1687486981,"current_range_meters":3600,"station_id":"ce4bh392rcd13ifvqdl0","pricing_plan_id":"free"},{"bike_id":"54fda2f9-7b1a-4838-9b70-087d4101d0ae","system_id":"levelo_inurba_marseille","lat":43.33242,"lon":5.37944,"is_reserved":false,"is_disabled":false,"rental_uris":{"android":"levelo://app?vid=54fda2f9-7b1a-4838-9b70-087d4101d0ae","ios":"levelo://app?vid=54fda2f9-7b1a-4838-9b70-087d4101d0ae"},"vehicle_type_id":"4","last_reported":1687486981,"current_range_meters":4800,"station_id":"","pricing_plan_id":"free"},{"bike_id":"864e9523-74e2-41e9-92f8-3363dd706035","system_id":"levelo_inurba_marseille","lat":43.309038,"lon":5.396546,"is_reserved":false,"is_disabled":false,"rental_uris":{"android":"levelo://app?vid=864e9523-74e2-41e9-92f8-3363dd706035","ios":"levelo://app?vid=864e9523-74e2-41e9-92f8-3363dd706035"},"vehicle_type_id":"4","last_reported":1687486981,"current_range_meters":31200,"station_id":"ce4bh012rcd13ifvqcv0","pricing_plan_id":"free"},{"bike_id":"e0ba6429-9f12-41cc-9e71-6cf6f57a38ac","system_id":"levelo_inurba_marseille","lat":43.30886,"lon":5.39639,"is_reserved":false,"is_disabled":false,"rental_uris":{"android":"levelo://app?vid=e0ba6429-9f12-41cc-9e71-6cf6f57a38ac","ios":"levelo://app?vid=e0ba6429-9f12-41cc-9e71-6cf6f57a38ac"},"vehicle_type_id":"4","last_reported":1687486981,"current_range_meters":31200,"station_id":"ce4bh012rcd13ifvqcv0","pricing_plan_id":"free"},{"bike_id":"1b0115bd-f8d5-4a8c-b949-1c4fbf08d487","system_id":"levelo_inurba_marseille","lat":43.313291,"lon":5.396838,"is_reserved":false,"is_disabled":false,"rental_uris":{"android":"levelo://app?vid=1b0115bd-f8d5-4a8c-b949-1c4fbf08d487","ios":"levelo://app?vid=1b0115bd-f8d5-4a8c-b949-1c4fbf08d487"},"vehicle_type_id":"4","last_reported":1687486981,"current_range_meters":18800,"station_id":"ce4bgvp2rcd13ifvqcu0","pricing_plan_id":"free"},{"bike_id":"fc007bee-75e7-4563-897d-7b84c2c1a061","system_id":"levelo_inurba_marseille","lat":43.309038,"lon":5.396546,"is_reserved":false,"is_disabled":false,"rental_uris":{"android":"levelo://app?vid=fc007bee-75e7-4563-897d-7b84c2c1a061","ios":"levelo://app?vid=fc007bee-75e7-4563-897d-7b84c2c1a061"},"vehicle_type_id":"4","last_reported":1687486981,"current_range_meters":17600,"station_id":"ce4bh012rcd13ifvqcv0","pricing_plan_id":"free"},{"bike_id":"de4bd374-f226-46b0-8c8a-67c5a33cb7bf","system_id":"levelo_inurba_marseille","lat":43.309038,"lon":5.396546,"is_reserved":false,"is_disabled":false,"rental_uris":{"android":"levelo://app?vid=de4bd374-f226-46b0-8c8a-67c5a33cb7bf","ios":"levelo://app?vid=de4bd374-f226-46b0-8c8a-67c5a33cb7bf"},"vehicle_type_id":"4","last_reported":1687486981,"current_range_meters":30400,"station_id":"ce4bh012rcd13ifvqcv0","pricing_plan_id":"free"},{"bike_id":"fed04270-d0d5-4055-818d-08b18666f7c4","system_id":"levelo_inurba_marseille","lat":43.309038,"lon":5.396546,"is_reserved":false,"is_disabled":false,"rental_uris":{"android":"levelo://app?vid=fed04270-d0d5-4055-818d-08b18666f7c4","ios":"levelo://app?vid=fed04270-d0d5-4055-818d-08b18666f7c4"},"vehicle_type_id":"4","last_reported":1687486981,"current_range_meters":25200,"station_id":"ce4bh012rcd13ifvqcv0","pricing_plan_id":"free"},{"bike_id":"1d082cc5-b66e-4a94-ba63-c95ea667242a","system_id":"levelo_inurba_marseille","lat":43.313291,"lon":5.396838,"is_reserved":false,"is_disabled":false,"rental_uris":{"android":"levelo://app?vid=1d082cc5-b66e-4a94-ba63-c95ea667242a","ios":"levelo://app?vid=1d082cc5-b66e-4a94-ba63-c95ea667242a"},"vehicle_type_id":"4","last_reported":1687486981,"current_range_meters":9200,"station_id":"ce4bgvp2rcd13ifvqcu0","pricing_plan_id":"free"},{"bike_id":"80ba6f7b-2b06-4ece-a55a-059497cf5eb9","system_id":"levelo_inurba_marseille","lat":43.313291,"lon":5.396838,"is_reserved":false,"is_disabled":false,"rental_uris":{"android":"levelo://app?vid=80ba6f7b-2b06-4ece-a55a-059497cf5eb9","ios":"levelo://app?vid=80ba6f7b-2b06-4ece-a55a-059497cf5eb9"},"vehicle_type_id":"4","last_reported":1687486981,"current_range_meters":22800,"station_id":"ce4bgvp2rcd13ifvqcu0","pricing_plan_id":"free"},{"bike_id":"05e55cf0-5d25-467d-bc4f-680753b93701","system_id":"levelo_inurba_marseille","lat":43.313291,"lon":5.396838,"is_reserved":false,"is_disabled":false,"rental_uris":{"android":"levelo://app?vid=05e55cf0-5d25-467d-bc4f-680753b93701","ios":"levelo://app?vid=05e55cf0-5d25-467d-bc4f-680753b93701"},"vehicle_type_id":"4","last_reported":1687486981,"current_range_meters":20800,"station_id":"ce4bgvp2rcd13ifvqcu0","pricing_plan_id":"free"},{"bike_id":"f29a7205-f2cc-4d14-9e6e-ba20e6495f15","system_id":"levelo_inurba_marseille","lat":43.313291,"lon":5.396838,"is_reserved":false,"is_disabled":false,"rental_uris":{"android":"levelo://app?vid=f29a7205-f2cc-4d14-9e6e-ba20e6495f15","ios":"levelo://app?vid=f29a7205-f2cc-4d14-9e6e-ba20e6495f15"},"vehicle_type_id":"4","last_reported":1687486981,"current_range_meters":31200,"station_id":"ce4bgvp2rcd13ifvqcu0","pricing_plan_id":"free"},{"bike_id":"7f264bf8-fe33-48c3-adcc-a5a159801ef7","system_id":"levelo_inurba_marseille","lat":43.309038,"lon":5.396546,"is_reserved":false,"is_disabled":false,"rental_uris":{"android":"levelo://app?vid=7f264bf8-fe33-48c3-adcc-a5a159801ef7","ios":"levelo://app?vid=7f264bf8-fe33-48c3-adcc-a5a159801ef7"},"vehicle_type_id":"4","last_reported":1687486981,"current_range_meters":20800,"station_id":"ce4bh012rcd13ifvqcv0","pricing_plan_id":"free"},{"bike_id":"559db029-0fb2-4567-ada8-55820940cc07","system_id":"levelo_inurba_marseille","lat":43.313291,"lon":5.396838,"is_reserved":false,"is_disabled":false,"rental_uris":{"android":"levelo://app?vid=559db029-0fb2-4567-ada8-55820940cc07","ios":"levelo://app?vid=559db029-0fb2-4567-ada8-55820940cc07"},"vehicle_type_id":"4","last_reported":1687486981,"current_range_meters":19200,"station_id":"ce4bgvp2rcd13ifvqcu0","pricing_plan_id":"free"},{"bike_id":"db403ef9-e91d-4667-95c3-556ef4f3274b","system_id":"levelo_inurba_marseille","lat":43.29534,"lon":5.3854,"is_reserved":false,"is_disabled":false,"rental_uris":{"android":"levelo://app?vid=db403ef9-e91d-4667-95c3-556ef4f3274b","ios":"levelo://app?vid=db403ef9-e91d-4667-95c3-556ef4f3274b"},"vehicle_type_id":"4","last_reported":1687486981,"current_range_meters":0,"station_id":"ce4bgih2rcd13ifvqba0","pricing_plan_id":"free"},{"bike_id":"f6b1ee60-11f2-4cf9-a89e-f6fa9e3bcf6a","system_id":"levelo_inurba_marseille","lat":43.302008,"lon":5.394694,"is_reserved":false,"is_disabled":false,"rental_uris":{"android":"levelo://app?vid=f6b1ee60-11f2-4cf9-a89e-f6fa9e3bcf6a","ios":"levelo://app?vid=f6b1ee60-11f2-4cf9-a89e-f6fa9e3bcf6a"},"vehicle_type_id":"4","last_reported":1687486981,"current_range_meters":30400,"station_id":"ce4bh0p2rcd13ifvqd70","pricing_plan_id":"free"},{"bike_id":"f7f0a8e2-7c6c-4b58-a947-497a11aea52e","system_id":"levelo_inurba_marseille","lat":43.302008,"lon":5.394694,"is_reserved":false,"is_disabled":false,"rental_uris":{"android":"levelo://app?vid=f7f0a8e2-7c6c-4b58-a947-497a11aea52e","ios":"levelo://app?vid=f7f0a8e2-7c6c-4b58-a947-497a11aea52e"},"vehicle_type_id":"4","last_reported":1687486981,"current_range_meters":31200,"station_id":"ce4bh0p2rcd13ifvqd70","pricing_plan_id":"free"},{"bike_id":"7517e9c5-0f18-4a61-b792-a04f92ce79f2","system_id":"levelo_inurba_marseille","lat":43.290624,"lon":5.359245,"is_reserved":false,"is_disabled":false,"rental_uris":{"android":"levelo://app?vid=7517e9c5-0f18-4a61-b792-a04f92ce79f2","ios":"levelo://app?vid=7517e9c5-0f18-4a61-b792-a04f92ce79f2"},"vehicle_type_id":"4","last_reported":1687486981,"current_range_meters":30400,"station_id":"ce4bha92rcd13ifvqeg0","pricing_plan_id":"free"},{"bike_id":"20b2702a-2cf1-439f-b7da-41f192fa1a0a","system_id":"levelo_inurba_marseille","lat":43.29411,"lon":5.38614,"is_reserved":false,"is_disabled":false,"rental_uris":{"android":"levelo://app?vid=20b2702a-2cf1-439f-b7da-41f192fa1a0a","ios":"levelo://app?vid=20b2702a-2cf1-439f-b7da-41f192fa1a0a"},"vehicle_type_id":"4","last_reported":1687486981,"current_range_meters":24800,"station_id":"","pricing_plan_id":"free"},{"bike_id":"de4a6415-7cce-4656-89ac-d7d4eaa645b3","system_id":"levelo_inurba_marseille","lat":43.33001,"lon":5.38871,"is_reserved":false,"is_disabled":false,"rental_uris":{"android":"levelo://app?vid=de4a6415-7cce-4656-89ac-d7d4eaa645b3","ios":"levelo://app?vid=de4a6415-7cce-4656-89ac-d7d4eaa645b3"},"vehicle_type_id":"4","last_reported":1687486981,"current_range_meters":17200,"station_id":"","pricing_plan_id":"free"},{"bike_id":"ae92e679-7466-456a-be2f-0aa22027c3cf","system_id":"levelo_inurba_marseille","lat":43.289468,"lon":5.363719,"is_reserved":false,"is_disabled":false,"rental_uris":{"android":"levelo://app?vid=ae92e679-7466-456a-be2f-0aa22027c3cf","ios":"levelo://app?vid=ae92e679-7466-456a-be2f-0aa22027c3cf"},"vehicle_type_id":"4","last_reported":1687486981,"current_range_meters":21600,"station_id":"ce4bhc92rcd13ifvqetg","pricing_plan_id":"free"},{"bike_id":"da7d1859-f71c-4d2e-8be3-90e7d65749fd","system_id":"levelo_inurba_marseille","lat":43.28935,"lon":5.364,"is_reserved":false,"is_disabled":false,"rental_uris":{"android":"levelo://app?vid=da7d1859-f71c-4d2e-8be3-90e7d65749fd","ios":"levelo://app?vid=da7d1859-f71c-4d2e-8be3-90e7d65749fd"},"vehicle_type_id":"4","last_reported":1687486981,"current_range_meters":16400,"station_id":"","pricing_plan_id":"free"},{"bike_id":"fbcaa795-2598-41bc-9e71-0e9b719762eb","system_id":"levelo_inurba_marseille","lat":43.289468,"lon":5.363719,"is_reserved":false,"is_disabled":false,"rental_uris":{"android":"levelo://app?vid=fbcaa795-2598-41bc-9e71-0e9b719762eb","ios":"levelo://app?vid=fbcaa795-2598-41bc-9e71-0e9b719762eb"},"vehicle_type_id":"4","last_reported":1687486981,"current_range_meters":29600,"station_id":"ce4bhc92rcd13ifvqetg","pricing_plan_id":"free"},{"bike_id":"0df8f1c3-103e-40f5-9a37-041c08fd58d1","system_id":"levelo_inurba_marseille","lat":43.289468,"lon":5.363719,"is_reserved":false,"is_disabled":false,"rental_uris":{"android":"levelo://app?vid=0df8f1c3-103e-40f5-9a37-041c08fd58d1","ios":"levelo://app?vid=0df8f1c3-103e-40f5-9a37-041c08fd58d1"},"vehicle_type_id":"4","last_reported":1687486981,"current_range_meters":30000,"station_id":"ce4bhc92rcd13ifvqetg","pricing_plan_id":"free"},{"bike_id":"30a6e1d4-ae1d-4951-ba3c-44c3155f554e","system_id":"levelo_inurba_marseille","lat":43.29262,"lon":5.38449,"is_reserved":false,"is_disabled":false,"rental_uris":{"android":"levelo://app?vid=30a6e1d4-ae1d-4951-ba3c-44c3155f554e","ios":"levelo://app?vid=30a6e1d4-ae1d-4951-ba3c-44c3155f554e"},"vehicle_type_id":"4","last_reported":1687486981,"current_range_meters":0,"station_id":"ce4bh692rcd13ifvqea0","pricing_plan_id":"free"},{"bike_id":"28c7dbbb-539c-4e0f-ae61-04dda52f6d09","system_id":"levelo_inurba_marseille","lat":43.33026,"lon":5.38916,"is_reserved":false,"is_disabled":false,"rental_uris":{"android":"levelo://app?vid=28c7dbbb-539c-4e0f-ae61-04dda52f6d09","ios":"levelo://app?vid=28c7dbbb-539c-4e0f-ae61-04dda52f6d09"},"vehicle_type_id":"4","last_reported":1687486981,"current_range_meters":23200,"station_id":"ce4bhr92rcd13ifvqhrg","pricing_plan_id":"free"},{"bike_id":"85014f3c-72ed-4330-97d1-c24450407470","system_id":"levelo_inurba_marseille","lat":43.304296,"lon":5.397513,"is_reserved":false,"is_disabled":false,"rental_uris":{"android":"levelo://app?vid=85014f3c-72ed-4330-97d1-c24450407470","ios":"levelo://app?vid=85014f3c-72ed-4330-97d1-c24450407470"},"vehicle_type_id":"4","last_reported":1687486981,"current_range_meters":26800,"station_id":"ce4bh092rcd13ifvqd20","pricing_plan_id":"free"},{"bike_id":"e4f4d0dc-ede6-4dbb-9ce1-15ec8d5215f4","system_id":"levelo_inurba_marseille","lat":43.33044,"lon":5.38916,"is_reserved":false,"is_disabled":false,"rental_uris":{"android":"levelo://app?vid=e4f4d0dc-ede6-4dbb-9ce1-15ec8d5215f4","ios":"levelo://app?vid=e4f4d0dc-ede6-4dbb-9ce1-15ec8d5215f4"},"vehicle_type_id":"4","last_reported":1687486981,"current_range_meters":16400,"station_id":"ce4bhr92rcd13ifvqhrg","pricing_plan_id":"free"},{"bike_id":"dcbeae36-e893-4c53-834e-933ca5889d3f","system_id":"levelo_inurba_marseille","lat":43.33045,"lon":5.38915,"is_reserved":false,"is_disabled":false,"rental_uris":{"android":"levelo://app?vid=dcbeae36-e893-4c53-834e-933ca5889d3f","ios":"levelo://app?vid=dcbeae36-e893-4c53-834e-933ca5889d3f"},"vehicle_type_id":"4","last_reported":1687486981,"current_range_meters":4800,"station_id":"ce4bhr92rcd13ifvqhrg","pricing_plan_id":"free"},{"bike_id":"b8d8195b-96f3-4a90-ac56-fcb41dc7c3cb","system_id":"levelo_inurba_marseille","lat":43.33041,"lon":5.38923,"is_reserved":false,"is_disabled":false,"rental_uris":{"android":"levelo://app?vid=b8d8195b-96f3-4a90-ac56-fcb41dc7c3cb","ios":"levelo://app?vid=b8d8195b-96f3-4a90-ac56-fcb41dc7c3cb"},"vehicle_type_id":"4","last_reported":1687486981,"current_range_meters":5600,"station_id":"ce4bhr92rcd13ifvqhrg","pricing_plan_id":"free"},{"bike_id":"ca8b6563-c141-4ca3-90d4-3e1b96c30af0","system_id":"levelo_inurba_marseille","lat":43.33043,"lon":5.38921,"is_reserved":false,"is_disabled":false,"rental_uris":{"android":"levelo://app?vid=ca8b6563-c141-4ca3-90d4-3e1b96c30af0","ios":"levelo://app?vid=ca8b6563-c141-4ca3-90d4-3e1b96c30af0"},"vehicle_type_id":"4","last_reported":1687486981,"current_range_meters":0,"station_id":"ce4bhr92rcd13ifvqhrg","pricing_plan_id":"free"},{"bike_id":"593e86a8-fc99-4449-9edd-dcb6e6d72cc5","system_id":"levelo_inurba_marseille","lat":43.33043,"lon":5.38921,"is_reserved":false,"is_disabled":false,"rental_uris":{"android":"levelo://app?vid=593e86a8-fc99-4449-9edd-dcb6e6d72cc5","ios":"levelo://app?vid=593e86a8-fc99-4449-9edd-dcb6e6d72cc5"},"vehicle_type_id":"4","last_reported":1687486981,"current_range_meters":24400,"station_id":"ce4bhr92rcd13ifvqhrg","pricing_plan_id":"free"},{"bike_id":"c73d2cc7-61ec-4fd2-a002-ffa050603a67","system_id":"levelo_inurba_marseille","lat":43.33045,"lon":5.38924,"is_reserved":false,"is_disabled":false,"rental_uris":{"android":"levelo://app?vid=c73d2cc7-61ec-4fd2-a002-ffa050603a67","ios":"levelo://app?vid=c73d2cc7-61ec-4fd2-a002-ffa050603a67"},"vehicle_type_id":"4","last_reported":1687486981,"current_range_meters":30800,"station_id":"ce4bhr92rcd13ifvqhrg","pricing_plan_id":"free"},{"bike_id":"01e7fc35-edf7-4916-8e57-3b3cd9add74b","system_id":"levelo_inurba_marseille","lat":43.295169,"lon":5.390426,"is_reserved":false,"is_disabled":false,"rental_uris":{"android":"levelo://app?vid=01e7fc35-edf7-4916-8e57-3b3cd9add74b","ios":"levelo://app?vid=01e7fc35-edf7-4916-8e57-3b3cd9add74b"},"vehicle_type_id":"4","last_reported":1687486981,"current_range_meters":30400,"station_id":"ce4bh3p2rcd13ifvqdp0","pricing_plan_id":"free"},{"bike_id":"467853b8-5dcd-4f8e-9088-320317719545","system_id":"levelo_inurba_marseille","lat":43.29099,"lon":5.38163,"is_reserved":false,"is_disabled":false,"rental_uris":{"android":"levelo://app?vid=467853b8-5dcd-4f8e-9088-320317719545","ios":"levelo://app?vid=467853b8-5dcd-4f8e-9088-320317719545"},"vehicle_type_id":"4","last_reported":1687486981,"current_range_meters":0,"station_id":"ce4bh512rcd13ifvqe2g","pricing_plan_id":"free"},{"bike_id":"68fc071d-2907-4219-8ed7-fd3fb1349a1f","system_id":"levelo_inurba_marseille","lat":43.297815,"lon":5.393548,"is_reserved":false,"is_disabled":false,"rental_uris":{"android":"levelo://app?vid=68fc071d-2907-4219-8ed7-fd3fb1349a1f","ios":"levelo://app?vid=68fc071d-2907-4219-8ed7-fd3fb1349a1f"},"vehicle_type_id":"4","last_reported":1687486981,"current_range_meters":15200,"station_id":"chh1huq6cuj3fo74tm60","pricing_plan_id":"free"},{"bike_id":"8f7c164b-bb50-446d-99d6-c94c448e1490","system_id":"levelo_inurba_marseille","lat":43.2979,"lon":5.39359,"is_reserved":false,"is_disabled":false,"rental_uris":{"android":"levelo://app?vid=8f7c164b-bb50-446d-99d6-c94c448e1490","ios":"levelo://app?vid=8f7c164b-bb50-446d-99d6-c94c448e1490"},"vehicle_type_id":"4","last_reported":1687486981,"current_range_meters":27200,"station_id":"chh1huq6cuj3fo74tm60","pricing_plan_id":"free"},{"bike_id":"5741cb6c-db81-48fa-be32-57f6ad7915cc","system_id":"levelo_inurba_marseille","lat":43.28975,"lon":5.37832,"is_reserved":false,"is_disabled":false,"rental_uris":{"android":"levelo://app?vid=5741cb6c-db81-48fa-be32-57f6ad7915cc","ios":"levelo://app?vid=5741cb6c-db81-48fa-be32-57f6ad7915cc"},"vehicle_type_id":"4","last_reported":1687486981,"current_range_meters":0,"station_id":"","pricing_plan_id":"free"},{"bike_id":"777cf6da-1b09-47dd-bbc3-8d54dc0a98c8","system_id":"levelo_inurba_marseille","lat":43.28856,"lon":5.358371,"is_reserved":false,"is_disabled":false,"rental_uris":{"android":"levelo://app?vid=777cf6da-1b09-47dd-bbc3-8d54dc0a98c8","ios":"levelo://app?vid=777cf6da-1b09-47dd-bbc3-8d54dc0a98c8"},"vehicle_type_id":"4","last_reported":1687486981,"current_range_meters":26800,"station_id":"ce4bhb12rcd13ifvqem0","pricing_plan_id":"free"},{"bike_id":"1b953c1a-0b9a-4142-898f-5c84dfc10477","system_id":"levelo_inurba_marseille","lat":43.28856,"lon":5.358371,"is_reserved":false,"is_disabled":false,"rental_uris":{"android":"levelo://app?vid=1b953c1a-0b9a-4142-898f-5c84dfc10477","ios":"levelo://app?vid=1b953c1a-0b9a-4142-898f-5c84dfc10477"},"vehicle_type_id":"4","last_reported":1687486981,"current_range_meters":800,"station_id":"ce4bhb12rcd13ifvqem0","pricing_plan_id":"free"},{"bike_id":"c57d22af-5a96-4ed4-8f7b-aa5c73ccd857","system_id":"levelo_inurba_marseille","lat":43.28856,"lon":5.358371,"is_reserved":false,"is_disabled":false,"rental_uris":{"android":"levelo://app?vid=c57d22af-5a96-4ed4-8f7b-aa5c73ccd857","ios":"levelo://app?vid=c57d22af-5a96-4ed4-8f7b-aa5c73ccd857"},"vehicle_type_id":"4","last_reported":1687486981,"current_range_meters":6000,"station_id":"ce4bhb12rcd13ifvqem0","pricing_plan_id":"free"},{"bike_id":"7be2dcc4-b0e8-4052-803f-11d9d4534e80","system_id":"levelo_inurba_marseille","lat":43.288553,"lon":5.358467,"is_reserved":false,"is_disabled":false,"rental_uris":{"android":"levelo://app?vid=7be2dcc4-b0e8-4052-803f-11d9d4534e80","ios":"levelo://app?vid=7be2dcc4-b0e8-4052-803f-11d9d4534e80"},"vehicle_type_id":"4","last_reported":1687486981,"current_range_meters":10800,"station_id":"","pricing_plan_id":"free"},{"bike_id":"0847460f-34e1-4a80-a18a-cad3dde97f6b","system_id":"levelo_inurba_marseille","lat":43.28851,"lon":5.35854,"is_reserved":false,"is_disabled":false,"rental_uris":{"android":"levelo://app?vid=0847460f-34e1-4a80-a18a-cad3dde97f6b","ios":"levelo://app?vid=0847460f-34e1-4a80-a18a-cad3dde97f6b"},"vehicle_type_id":"4","last_reported":1687486981,"current_range_meters":4000,"station_id":"ce4bhb12rcd13ifvqem0","pricing_plan_id":"free"},{"bike_id":"3b31e7b9-0902-40f1-87cb-e6378d6be46c","system_id":"levelo_inurba_marseille","lat":43.28849,"lon":5.35847,"is_reserved":false,"is_disabled":false,"rental_uris":{"android":"levelo://app?vid=3b31e7b9-0902-40f1-87cb-e6378d6be46c","ios":"levelo://app?vid=3b31e7b9-0902-40f1-87cb-e6378d6be46c"},"vehicle_type_id":"4","last_reported":1687486981,"current_range_meters":31200,"station_id":"ce4bhb12rcd13ifvqem0","pricing_plan_id":"free"},{"bike_id":"5b390d09-b2a8-4c87-9a95-8331329e9fbf","system_id":"levelo_inurba_marseille","lat":43.28849,"lon":5.35838,"is_reserved":false,"is_disabled":false,"rental_uris":{"android":"levelo://app?vid=5b390d09-b2a8-4c87-9a95-8331329e9fbf","ios":"levelo://app?vid=5b390d09-b2a8-4c87-9a95-8331329e9fbf"},"vehicle_type_id":"4","last_reported":1687486981,"current_range_meters":31200,"station_id":"","pricing_plan_id":"free"},{"bike_id":"3f8a925a-6a54-4259-a38f-9cf091aab246","system_id":"levelo_inurba_marseille","lat":43.29263,"lon":5.38754,"is_reserved":false,"is_disabled":false,"rental_uris":{"android":"levelo://app?vid=3f8a925a-6a54-4259-a38f-9cf091aab246","ios":"levelo://app?vid=3f8a925a-6a54-4259-a38f-9cf091aab246"},"vehicle_type_id":"4","last_reported":1687486981,"current_range_meters":27200,"station_id":"","pricing_plan_id":"free"},{"bike_id":"3469adbd-4f93-4b31-9b3f-5633c2ef2034","system_id":"levelo_inurba_marseille","lat":43.28856,"lon":5.358371,"is_reserved":false,"is_disabled":false,"rental_uris":{"android":"levelo://app?vid=3469adbd-4f93-4b31-9b3f-5633c2ef2034","ios":"levelo://app?vid=3469adbd-4f93-4b31-9b3f-5633c2ef2034"},"vehicle_type_id":"4","last_reported":1687486981,"current_range_meters":20000,"station_id":"ce4bhb12rcd13ifvqem0","pricing_plan_id":"free"},{"bike_id":"7afa4ded-642d-4610-ad68-f1ed24d9f183","system_id":"levelo_inurba_marseille","lat":43.309371,"lon":5.401449,"is_reserved":false,"is_disabled":false,"rental_uris":{"android":"levelo://app?vid=7afa4ded-642d-4610-ad68-f1ed24d9f183","ios":"levelo://app?vid=7afa4ded-642d-4610-ad68-f1ed24d9f183"},"vehicle_type_id":"4","last_reported":1687486981,"current_range_meters":19600,"station_id":"ce4bgvp2rcd13ifvqct0","pricing_plan_id":"free"},{"bike_id":"a339dc85-f4be-42f7-94da-838d3c3c1703","system_id":"levelo_inurba_marseille","lat":43.309371,"lon":5.401449,"is_reserved":false,"is_disabled":false,"rental_uris":{"android":"levelo://app?vid=a339dc85-f4be-42f7-94da-838d3c3c1703","ios":"levelo://app?vid=a339dc85-f4be-42f7-94da-838d3c3c1703"},"vehicle_type_id":"4","last_reported":1687486981,"current_range_meters":27600,"station_id":"ce4bgvp2rcd13ifvqct0","pricing_plan_id":"free"},{"bike_id":"a462fe71-f0d8-4849-a95c-a322d9f8aa2b","system_id":"levelo_inurba_marseille","lat":43.309371,"lon":5.401449,"is_reserved":false,"is_disabled":false,"rental_uris":{"android":"levelo://app?vid=a462fe71-f0d8-4849-a95c-a322d9f8aa2b","ios":"levelo://app?vid=a462fe71-f0d8-4849-a95c-a322d9f8aa2b"},"vehicle_type_id":"4","last_reported":1687486981,"current_range_meters":29600,"station_id":"ce4bgvp2rcd13ifvqct0","pricing_plan_id":"free"},{"bike_id":"fc0738ad-f4d1-4d02-bf08-bfd0fcb3fe29","system_id":"levelo_inurba_marseille","lat":43.309371,"lon":5.401449,"is_reserved":false,"is_disabled":false,"rental_uris":{"android":"levelo://app?vid=fc0738ad-f4d1-4d02-bf08-bfd0fcb3fe29","ios":"levelo://app?vid=fc0738ad-f4d1-4d02-bf08-bfd0fcb3fe29"},"vehicle_type_id":"4","last_reported":1687486981,"current_range_meters":12400,"station_id":"ce4bgvp2rcd13ifvqct0","pricing_plan_id":"free"},{"bike_id":"c180ae38-f769-441f-8a55-5a6e4930e6ad","system_id":"levelo_inurba_marseille","lat":43.3375,"lon":5.37447,"is_reserved":false,"is_disabled":false,"rental_uris":{"android":"levelo://app?vid=c180ae38-f769-441f-8a55-5a6e4930e6ad","ios":"levelo://app?vid=c180ae38-f769-441f-8a55-5a6e4930e6ad"},"vehicle_type_id":"4","last_reported":1687486981,"current_range_meters":28000,"station_id":"","pricing_plan_id":"free"},{"bike_id":"e61b61d7-3668-435b-90ae-a2cade7b84eb","system_id":"levelo_inurba_marseille","lat":43.309371,"lon":5.401449,"is_reserved":false,"is_disabled":false,"rental_uris":{"android":"levelo://app?vid=e61b61d7-3668-435b-90ae-a2cade7b84eb","ios":"levelo://app?vid=e61b61d7-3668-435b-90ae-a2cade7b84eb"},"vehicle_type_id":"4","last_reported":1687486981,"current_range_meters":8400,"station_id":"ce4bgvp2rcd13ifvqct0","pricing_plan_id":"free"},{"bike_id":"e782fda8-f65d-4066-94ce-ec82665df08e","system_id":"levelo_inurba_marseille","lat":43.309371,"lon":5.401449,"is_reserved":false,"is_disabled":false,"rental_uris":{"android":"levelo://app?vid=e782fda8-f65d-4066-94ce-ec82665df08e","ios":"levelo://app?vid=e782fda8-f65d-4066-94ce-ec82665df08e"},"vehicle_type_id":"4","last_reported":1687486981,"current_range_meters":31200,"station_id":"ce4bgvp2rcd13ifvqct0","pricing_plan_id":"free"},{"bike_id":"d74474a7-d1ea-4940-94c7-db1e07163ef0","system_id":"levelo_inurba_marseille","lat":43.337482,"lon":5.374726,"is_reserved":false,"is_disabled":false,"rental_uris":{"android":"levelo://app?vid=d74474a7-d1ea-4940-94c7-db1e07163ef0","ios":"levelo://app?vid=d74474a7-d1ea-4940-94c7-db1e07163ef0"},"vehicle_type_id":"4","last_reported":1687486981,"current_range_meters":10400,"station_id":"","pricing_plan_id":"free"},{"bike_id":"cd5d7261-da6e-47fa-a309-6e93b348d679","system_id":"levelo_inurba_marseille","lat":43.309371,"lon":5.401449,"is_reserved":false,"is_disabled":false,"rental_uris":{"android":"levelo://app?vid=cd5d7261-da6e-47fa-a309-6e93b348d679","ios":"levelo://app?vid=cd5d7261-da6e-47fa-a309-6e93b348d679"},"vehicle_type_id":"4","last_reported":1687486981,"current_range_meters":24400,"station_id":"ce4bgvp2rcd13ifvqct0","pricing_plan_id":"free"},{"bike_id":"e02cd65e-e1e7-48a9-a70f-9ef1b29dd797","system_id":"levelo_inurba_marseille","lat":43.30642,"lon":5.401031,"is_reserved":false,"is_disabled":false,"rental_uris":{"android":"levelo://app?vid=e02cd65e-e1e7-48a9-a70f-9ef1b29dd797","ios":"levelo://app?vid=e02cd65e-e1e7-48a9-a70f-9ef1b29dd797"},"vehicle_type_id":"4","last_reported":1687486981,"current_range_meters":31200,"station_id":"ce4bh112rcd13ifvqda0","pricing_plan_id":"free"},{"bike_id":"0f1dd5d4-0798-4f2d-bb93-f5da20e4483b","system_id":"levelo_inurba_marseille","lat":43.30642,"lon":5.401031,"is_reserved":false,"is_disabled":false,"rental_uris":{"android":"levelo://app?vid=0f1dd5d4-0798-4f2d-bb93-f5da20e4483b","ios":"levelo://app?vid=0f1dd5d4-0798-4f2d-bb93-f5da20e4483b"},"vehicle_type_id":"4","last_reported":1687486981,"current_range_meters":30400,"station_id":"ce4bh112rcd13ifvqda0","pricing_plan_id":"free"},{"bike_id":"71a50c1f-09f0-47f2-bd28-cfcd0711a6bd","system_id":"levelo_inurba_marseille","lat":43.33755,"lon":5.3745,"is_reserved":false,"is_disabled":false,"rental_uris":{"android":"levelo://app?vid=71a50c1f-09f0-47f2-bd28-cfcd0711a6bd","ios":"levelo://app?vid=71a50c1f-09f0-47f2-bd28-cfcd0711a6bd"},"vehicle_type_id":"4","last_reported":1687486981,"current_range_meters":28400,"station_id":"","pricing_plan_id":"free"},{"bike_id":"2cb5841e-cfd4-4329-9d4d-e35d1c08e5e2","system_id":"levelo_inurba_marseille","lat":43.33757,"lon":5.37442,"is_reserved":false,"is_disabled":false,"rental_uris":{"android":"levelo://app?vid=2cb5841e-cfd4-4329-9d4d-e35d1c08e5e2","ios":"levelo://app?vid=2cb5841e-cfd4-4329-9d4d-e35d1c08e5e2"},"vehicle_type_id":"4","last_reported":1687486981,"current_range_meters":26000,"station_id":"","pricing_plan_id":"free"},{"bike_id":"c5ead361-3c89-43e3-9508-2ca596aafcb8","system_id":"levelo_inurba_marseille","lat":43.30647,"lon":5.40079,"is_reserved":false,"is_disabled":false,"rental_uris":{"android":"levelo://app?vid=c5ead361-3c89-43e3-9508-2ca596aafcb8","ios":"levelo://app?vid=c5ead361-3c89-43e3-9508-2ca596aafcb8"},"vehicle_type_id":"4","last_reported":1687486981,"current_range_meters":28400,"station_id":"ce4bh112rcd13ifvqda0","pricing_plan_id":"free"},{"bike_id":"b0bd3bcb-bd35-4f75-8285-8f528f09b8d5","system_id":"levelo_inurba_marseille","lat":43.337575,"lon":5.374489,"is_reserved":false,"is_disabled":false,"rental_uris":{"android":"levelo://app?vid=b0bd3bcb-bd35-4f75-8285-8f528f09b8d5","ios":"levelo://app?vid=b0bd3bcb-bd35-4f75-8285-8f528f09b8d5"},"vehicle_type_id":"4","last_reported":1687486981,"current_range_meters":14000,"station_id":"","pricing_plan_id":"free"},{"bike_id":"98bb595b-e2be-42d5-9b4c-0d18527ce9ed","system_id":"levelo_inurba_marseille","lat":43.30642,"lon":5.401031,"is_reserved":false,"is_disabled":false,"rental_uris":{"android":"levelo://app?vid=98bb595b-e2be-42d5-9b4c-0d18527ce9ed","ios":"levelo://app?vid=98bb595b-e2be-42d5-9b4c-0d18527ce9ed"},"vehicle_type_id":"4","last_reported":1687486981,"current_range_meters":24800,"station_id":"ce4bh112rcd13ifvqda0","pricing_plan_id":"free"},{"bike_id":"20a23733-f9f7-4c56-9065-5296fb421e14","system_id":"levelo_inurba_marseille","lat":43.3064,"lon":5.40083,"is_reserved":false,"is_disabled":false,"rental_uris":{"android":"levelo://app?vid=20a23733-f9f7-4c56-9065-5296fb421e14","ios":"levelo://app?vid=20a23733-f9f7-4c56-9065-5296fb421e14"},"vehicle_type_id":"4","last_reported":1687486981,"current_range_meters":13200,"station_id":"ce4bh112rcd13ifvqda0","pricing_plan_id":"free"},{"bike_id":"273b9994-e164-4221-ab69-7a5534a15d8f","system_id":"levelo_inurba_marseille","lat":43.30638,"lon":5.40083,"is_reserved":false,"is_disabled":false,"rental_uris":{"android":"levelo://app?vid=273b9994-e164-4221-ab69-7a5534a15d8f","ios":"levelo://app?vid=273b9994-e164-4221-ab69-7a5534a15d8f"},"vehicle_type_id":"4","last_reported":1687486981,"current_range_meters":22800,"station_id":"ce4bh112rcd13ifvqda0","pricing_plan_id":"free"},{"bike_id":"23d867b1-db18-4b6c-b30f-abbc006f6c29","system_id":"levelo_inurba_marseille","lat":43.3064,"lon":5.40085,"is_reserved":false,"is_disabled":false,"rental_uris":{"android":"levelo://app?vid=23d867b1-db18-4b6c-b30f-abbc006f6c29","ios":"levelo://app?vid=23d867b1-db18-4b6c-b30f-abbc006f6c29"},"vehicle_type_id":"4","last_reported":1687486981,"current_range_meters":26000,"station_id":"ce4bh112rcd13ifvqda0","pricing_plan_id":"free"},{"bike_id":"c0d04987-c474-4242-bc5e-f8ee1228f07f","system_id":"levelo_inurba_marseille","lat":43.309371,"lon":5.401449,"is_reserved":false,"is_disabled":false,"rental_uris":{"android":"levelo://app?vid=c0d04987-c474-4242-bc5e-f8ee1228f07f","ios":"levelo://app?vid=c0d04987-c474-4242-bc5e-f8ee1228f07f"},"vehicle_type_id":"4","last_reported":1687486981,"current_range_meters":31200,"station_id":"ce4bgvp2rcd13ifvqct0","pricing_plan_id":"free"},{"bike_id":"75beba07-c037-4bb5-9928-8bd8e3ccd825","system_id":"levelo_inurba_marseille","lat":43.3064,"lon":5.4009,"is_reserved":false,"is_disabled":false,"rental_uris":{"android":"levelo://app?vid=75beba07-c037-4bb5-9928-8bd8e3ccd825","ios":"levelo://app?vid=75beba07-c037-4bb5-9928-8bd8e3ccd825"},"vehicle_type_id":"4","last_reported":1687486981,"current_range_meters":18400,"station_id":"","pricing_plan_id":"free"},{"bike_id":"b6f3c2c9-ed59-4f47-9064-42e0f659e057","system_id":"levelo_inurba_marseille","lat":43.30654,"lon":5.40101,"is_reserved":false,"is_disabled":false,"rental_uris":{"android":"levelo://app?vid=b6f3c2c9-ed59-4f47-9064-42e0f659e057","ios":"levelo://app?vid=b6f3c2c9-ed59-4f47-9064-42e0f659e057"},"vehicle_type_id":"4","last_reported":1687486981,"current_range_meters":31200,"station_id":"ce4bh112rcd13ifvqda0","pricing_plan_id":"free"},{"bike_id":"7df3376a-a47c-4484-a7c0-cb9799469218","system_id":"levelo_inurba_marseille","lat":43.301117,"lon":5.398795,"is_reserved":false,"is_disabled":false,"rental_uris":{"android":"levelo://app?vid=7df3376a-a47c-4484-a7c0-cb9799469218","ios":"levelo://app?vid=7df3376a-a47c-4484-a7c0-cb9799469218"},"vehicle_type_id":"4","last_reported":1687486981,"current_range_meters":24800,"station_id":"ce4bh0h2rcd13ifvqd40","pricing_plan_id":"free"},{"bike_id":"8a870c11-ef3c-4a4d-aac6-d307f1955993","system_id":"levelo_inurba_marseille","lat":43.30338,"lon":5.39988,"is_reserved":false,"is_disabled":false,"rental_uris":{"android":"levelo://app?vid=8a870c11-ef3c-4a4d-aac6-d307f1955993","ios":"levelo://app?vid=8a870c11-ef3c-4a4d-aac6-d307f1955993"},"vehicle_type_id":"4","last_reported":1687486981,"current_range_meters":28000,"station_id":"","pricing_plan_id":"free"},{"bike_id":"a221af4e-d740-4e5a-b083-bf981d27d508","system_id":"levelo_inurba_marseille","lat":43.301117,"lon":5.398795,"is_reserved":false,"is_disabled":false,"rental_uris":{"android":"levelo://app?vid=a221af4e-d740-4e5a-b083-bf981d27d508","ios":"levelo://app?vid=a221af4e-d740-4e5a-b083-bf981d27d508"},"vehicle_type_id":"4","last_reported":1687486981,"current_range_meters":0,"station_id":"ce4bh0h2rcd13ifvqd40","pricing_plan_id":"free"},{"bike_id":"b5c653c2-255c-4b7f-b19a-cce93eb9e4e8","system_id":"levelo_inurba_marseille","lat":43.301117,"lon":5.398795,"is_reserved":false,"is_disabled":false,"rental_uris":{"android":"levelo://app?vid=b5c653c2-255c-4b7f-b19a-cce93eb9e4e8","ios":"levelo://app?vid=b5c653c2-255c-4b7f-b19a-cce93eb9e4e8"},"vehicle_type_id":"4","last_reported":1687486981,"current_range_meters":15600,"station_id":"ce4bh0h2rcd13ifvqd40","pricing_plan_id":"free"},{"bike_id":"445bf960-20f0-43f9-b7b1-7cad98d531c8","system_id":"levelo_inurba_marseille","lat":43.301117,"lon":5.398795,"is_reserved":false,"is_disabled":false,"rental_uris":{"android":"levelo://app?vid=445bf960-20f0-43f9-b7b1-7cad98d531c8","ios":"levelo://app?vid=445bf960-20f0-43f9-b7b1-7cad98d531c8"},"vehicle_type_id":"4","last_reported":1687486981,"current_range_meters":0,"station_id":"ce4bh0h2rcd13ifvqd40","pricing_plan_id":"free"},{"bike_id":"5f98b8f7-0acb-4d08-a540-7684dc4ad40a","system_id":"levelo_inurba_marseille","lat":43.301117,"lon":5.398795,"is_reserved":false,"is_disabled":false,"rental_uris":{"android":"levelo://app?vid=5f98b8f7-0acb-4d08-a540-7684dc4ad40a","ios":"levelo://app?vid=5f98b8f7-0acb-4d08-a540-7684dc4ad40a"},"vehicle_type_id":"4","last_reported":1687486981,"current_range_meters":8400,"station_id":"ce4bh0h2rcd13ifvqd40","pricing_plan_id":"free"},{"bike_id":"e178673e-cab5-47d8-ae54-41ca051511f4","system_id":"levelo_inurba_marseille","lat":43.301117,"lon":5.398795,"is_reserved":false,"is_disabled":false,"rental_uris":{"android":"levelo://app?vid=e178673e-cab5-47d8-ae54-41ca051511f4","ios":"levelo://app?vid=e178673e-cab5-47d8-ae54-41ca051511f4"},"vehicle_type_id":"4","last_reported":1687486981,"current_range_meters":24800,"station_id":"ce4bh0h2rcd13ifvqd40","pricing_plan_id":"free"},{"bike_id":"44cb7c78-af51-4dc0-8b59-946c9895f8d6","system_id":"levelo_inurba_marseille","lat":43.301117,"lon":5.398795,"is_reserved":false,"is_disabled":false,"rental_uris":{"android":"levelo://app?vid=44cb7c78-af51-4dc0-8b59-946c9895f8d6","ios":"levelo://app?vid=44cb7c78-af51-4dc0-8b59-946c9895f8d6"},"vehicle_type_id":"4","last_reported":1687486981,"current_range_meters":28800,"station_id":"ce4bh0h2rcd13ifvqd40","pricing_plan_id":"free"},{"bike_id":"45e19ec6-db52-46d4-a717-89e32ecdef5d","system_id":"levelo_inurba_marseille","lat":43.286591,"lon":5.363346,"is_reserved":false,"is_disabled":false,"rental_uris":{"android":"levelo://app?vid=45e19ec6-db52-46d4-a717-89e32ecdef5d","ios":"levelo://app?vid=45e19ec6-db52-46d4-a717-89e32ecdef5d"},"vehicle_type_id":"4","last_reported":1687486981,"current_range_meters":28000,"station_id":"ce4bhah2rcd13ifvqej0","pricing_plan_id":"free"},{"bike_id":"da85598f-63d9-4cc2-998a-281fe01409a3","system_id":"levelo_inurba_marseille","lat":43.286591,"lon":5.363346,"is_reserved":false,"is_disabled":false,"rental_uris":{"android":"levelo://app?vid=da85598f-63d9-4cc2-998a-281fe01409a3","ios":"levelo://app?vid=da85598f-63d9-4cc2-998a-281fe01409a3"},"vehicle_type_id":"4","last_reported":1687486981,"current_range_meters":32000,"station_id":"ce4bhah2rcd13ifvqej0","pricing_plan_id":"free"},{"bike_id":"2df6c87c-a57c-4162-9d17-51a76f53ea20","system_id":"levelo_inurba_marseille","lat":43.286591,"lon":5.363346,"is_reserved":false,"is_disabled":false,"rental_uris":{"android":"levelo://app?vid=2df6c87c-a57c-4162-9d17-51a76f53ea20","ios":"levelo://app?vid=2df6c87c-a57c-4162-9d17-51a76f53ea20"},"vehicle_type_id":"4","last_reported":1687486981,"current_range_meters":30400,"station_id":"ce4bhah2rcd13ifvqej0","pricing_plan_id":"free"},{"bike_id":"c5dcd557-a14c-432c-9f27-4a4b96656dff","system_id":"levelo_inurba_marseille","lat":43.286961,"lon":5.373785,"is_reserved":false,"is_disabled":false,"rental_uris":{"android":"levelo://app?vid=c5dcd557-a14c-432c-9f27-4a4b96656dff","ios":"levelo://app?vid=c5dcd557-a14c-432c-9f27-4a4b96656dff"},"vehicle_type_id":"4","last_reported":1687486981,"current_range_meters":30400,"station_id":"ce4bh3p2rcd13ifvqdq0","pricing_plan_id":"free"},{"bike_id":"d9345d4a-3c78-47e2-9420-0f7a7aa654b5","system_id":"levelo_inurba_marseille","lat":43.298681,"lon":5.397225,"is_reserved":false,"is_disabled":false,"rental_uris":{"android":"levelo://app?vid=d9345d4a-3c78-47e2-9420-0f7a7aa654b5","ios":"levelo://app?vid=d9345d4a-3c78-47e2-9420-0f7a7aa654b5"},"vehicle_type_id":"4","last_reported":1687486981,"current_range_meters":27200,"station_id":"ce4bh0h2rcd13ifvqd50","pricing_plan_id":"free"},{"bike_id":"1551b5c4-e60b-4119-a95d-5210ae8ffc9a","system_id":"levelo_inurba_marseille","lat":43.29868,"lon":5.3974,"is_reserved":false,"is_disabled":false,"rental_uris":{"android":"levelo://app?vid=1551b5c4-e60b-4119-a95d-5210ae8ffc9a","ios":"levelo://app?vid=1551b5c4-e60b-4119-a95d-5210ae8ffc9a"},"vehicle_type_id":"4","last_reported":1687486981,"current_range_meters":26000,"station_id":"","pricing_plan_id":"free"},{"bike_id":"73bb4652-6e61-4b3e-bd83-ee6f01647d93","system_id":"levelo_inurba_marseille","lat":43.286591,"lon":5.363346,"is_reserved":false,"is_disabled":false,"rental_uris":{"android":"levelo://app?vid=73bb4652-6e61-4b3e-bd83-ee6f01647d93","ios":"levelo://app?vid=73bb4652-6e61-4b3e-bd83-ee6f01647d93"},"vehicle_type_id":"4","last_reported":1687486981,"current_range_meters":32000,"station_id":"ce4bhah2rcd13ifvqej0","pricing_plan_id":"free"},{"bike_id":"a21b181b-4bd2-44cc-87e5-eebe31cd7362","system_id":"levelo_inurba_marseille","lat":43.29863,"lon":5.39737,"is_reserved":false,"is_disabled":false,"rental_uris":{"android":"levelo://app?vid=a21b181b-4bd2-44cc-87e5-eebe31cd7362","ios":"levelo://app?vid=a21b181b-4bd2-44cc-87e5-eebe31cd7362"},"vehicle_type_id":"4","last_reported":1687486981,"current_range_meters":23200,"station_id":"ce4bh0h2rcd13ifvqd50","pricing_plan_id":"free"},{"bike_id":"73d3073b-7852-4f56-8039-58778d66a581","system_id":"levelo_inurba_marseille","lat":43.286961,"lon":5.373785,"is_reserved":false,"is_disabled":false,"rental_uris":{"android":"levelo://app?vid=73d3073b-7852-4f56-8039-58778d66a581","ios":"levelo://app?vid=73d3073b-7852-4f56-8039-58778d66a581"},"vehicle_type_id":"4","last_reported":1687486981,"current_range_meters":28400,"station_id":"ce4bh3p2rcd13ifvqdq0","pricing_plan_id":"free"},{"bike_id":"bc8f220d-6d80-4d44-b6ee-db5b39267222","system_id":"levelo_inurba_marseille","lat":43.2869,"lon":5.37397,"is_reserved":false,"is_disabled":false,"rental_uris":{"android":"levelo://app?vid=bc8f220d-6d80-4d44-b6ee-db5b39267222","ios":"levelo://app?vid=bc8f220d-6d80-4d44-b6ee-db5b39267222"},"vehicle_type_id":"4","last_reported":1687486981,"current_range_meters":0,"station_id":"ce4bh3p2rcd13ifvqdq0","pricing_plan_id":"free"},{"bike_id":"3a437e5a-0dfb-4ea1-b7ae-010e4f70a1fd","system_id":"levelo_inurba_marseille","lat":43.302759,"lon":5.400793,"is_reserved":false,"is_disabled":false,"rental_uris":{"android":"levelo://app?vid=3a437e5a-0dfb-4ea1-b7ae-010e4f70a1fd","ios":"levelo://app?vid=3a437e5a-0dfb-4ea1-b7ae-010e4f70a1fd"},"vehicle_type_id":"4","last_reported":1687486981,"current_range_meters":20400,"station_id":"ce4bgvh2rcd13ifvqcs0","pricing_plan_id":"free"},{"bike_id":"3cf44964-6f26-46d7-9bfa-d2bcfd36be4d","system_id":"levelo_inurba_marseille","lat":43.302759,"lon":5.400793,"is_reserved":false,"is_disabled":false,"rental_uris":{"android":"levelo://app?vid=3cf44964-6f26-46d7-9bfa-d2bcfd36be4d","ios":"levelo://app?vid=3cf44964-6f26-46d7-9bfa-d2bcfd36be4d"},"vehicle_type_id":"4","last_reported":1687486981,"current_range_meters":31600,"station_id":"ce4bgvh2rcd13ifvqcs0","pricing_plan_id":"free"},{"bike_id":"8cf42f7e-7fbd-49a0-b00a-016dc14a53bb","system_id":"levelo_inurba_marseille","lat":43.302759,"lon":5.400793,"is_reserved":false,"is_disabled":false,"rental_uris":{"android":"levelo://app?vid=8cf42f7e-7fbd-49a0-b00a-016dc14a53bb","ios":"levelo://app?vid=8cf42f7e-7fbd-49a0-b00a-016dc14a53bb"},"vehicle_type_id":"4","last_reported":1687486981,"current_range_meters":0,"station_id":"ce4bgvh2rcd13ifvqcs0","pricing_plan_id":"free"},{"bike_id":"edc01bbc-f998-4a22-a6f2-42d1a7664f8c","system_id":"levelo_inurba_marseille","lat":43.302759,"lon":5.400793,"is_reserved":false,"is_disabled":false,"rental_uris":{"android":"levelo://app?vid=edc01bbc-f998-4a22-a6f2-42d1a7664f8c","ios":"levelo://app?vid=edc01bbc-f998-4a22-a6f2-42d1a7664f8c"},"vehicle_type_id":"4","last_reported":1687486981,"current_range_meters":16000,"station_id":"ce4bgvh2rcd13ifvqcs0","pricing_plan_id":"free"},{"bike_id":"31f2e443-b129-4c8b-86ac-1726888adeb4","system_id":"levelo_inurba_marseille","lat":43.302759,"lon":5.400793,"is_reserved":false,"is_disabled":false,"rental_uris":{"android":"levelo://app?vid=31f2e443-b129-4c8b-86ac-1726888adeb4","ios":"levelo://app?vid=31f2e443-b129-4c8b-86ac-1726888adeb4"},"vehicle_type_id":"4","last_reported":1687486981,"current_range_meters":26800,"station_id":"ce4bgvh2rcd13ifvqcs0","pricing_plan_id":"free"},{"bike_id":"3693e4d2-0af4-43ec-a839-2814d989c80f","system_id":"levelo_inurba_marseille","lat":43.302759,"lon":5.400793,"is_reserved":false,"is_disabled":false,"rental_uris":{"android":"levelo://app?vid=3693e4d2-0af4-43ec-a839-2814d989c80f","ios":"levelo://app?vid=3693e4d2-0af4-43ec-a839-2814d989c80f"},"vehicle_type_id":"4","last_reported":1687486981,"current_range_meters":29200,"station_id":"ce4bgvh2rcd13ifvqcs0","pricing_plan_id":"free"},