{"last_updated":1752311428,"ttl":60,"version":"2.2","data":{"bikes":[{"bike_id":"61d857a4-2fac-4114-a6a9-8a5e49a3ee89","system_id":"levelo_inurba_marseille","lat":43.26059,"lon":5.39394,"is_reserved":false,"is_disabled":false,"rental_uris":{"android":"levelo://app?vid=61d857a4-2fac-4114-a6a9-8a5e49a3ee89","ios":"levelo://app?vid=61d857a4-2fac-4114-a6a9-8a5e49a3ee89"},"vehicle_type_id":"4","last_reported":1752311428,"current_range_meters":4800,"station_id":"ce4bhh92rcd13ifvqfj0","pricing_plan_id":"cebpf4jnsgd1na2vs0mg"},{"bike_id":"4807356c-9359-477f-9e8b-c50294961557","system_id":"levelo_inurba_marseille","lat":43.3188,"lon":5.4074,"is_reserved":false,"is_disabled":false,"rental_uris":{"android":"levelo://app?vid=4807356c-9359-477f-9e8b-c50294961557","ios":"levelo://app?vid=4807356c-9359-477f-9e8b-c50294961557"},"vehicle_type_id":"4","last_reported":1752311428,"current_range_meters":5600,"station_id":"ce4bhq12rcd13ifvqhig","pricing_plan_id":"cebpf4jnsgd1na2vs0mg"},{"bike_id":"1e154fe8-2116-484e-9976-d1c04cc9e38a","system_id":"levelo_inurba_marseille","lat":43.301483,"lon":5.380762,"is_reserved":false,"is_disabled":false,"rental_uris":{"android":"levelo://app?vid=1e154fe8-2116-484e-9976-d1c04cc9e38a","ios":"levelo://app?vid=1e154fe8-2116-484e-9976-d1c04cc9e38a"},"vehicle_type_id":"4","last_reported":1752311428,"current_range_meters":6000,"station_id":"ce4bgjp2rcd13ifvqbh0","pricing_plan_id":"cebpf4jnsgd1na2vs0mg"},{"bike_id":"d8f33195-93cb-4919-8fab-bd796498b905","system_id":"levelo_inurba_marseille","lat":43.265689,"lon":5.390104,"is_reserved":false,"is_disabled":true,"rental_uris":{"android":"levelo://app?vid=d8f33195-93cb-4919-8fab-bd796498b905","ios":"levelo://app?vid=d8f33195-93cb-4919-8fab-bd796498b905"},"vehicle_type_id":"4","last_reported":1752311428,"current_range_meters":6400,"station_id":"ce4bhe12rcd13ifvqf30","pricing_plan_id":"cebpf4jnsgd1na2vs0mg"},{"bike_id":"a2339d9d-6be4-415d-a160-f9b9822722fc","system_id":"levelo_inurba_marseille","lat":43.31062,"lon":5.38337,"is_reserved":false,"is_disabled":true,"rental_uris":{"android":"levelo://app?vid=a2339d9d-6be4-415d-a160-f9b9822722fc","ios":"levelo://app?vid=a2339d9d-6be4-415d-a160-f9b9822722fc"},"vehicle_type_id":"4","last_reported":1752311428,"current_range_meters":6400,"station_id":"ce4bgv92rcd13ifvqcr0","pricing_plan_id":"cebpf4jnsgd1na2vs0mg"},{"bike_id":"b4544312-64e4-4dd2-bd6d-e1d3f6243b40","system_id":"levelo_inurba_marseille","lat":43.28865,"lon":5.384449,"is_reserved":false,"is_disabled":false,"rental_uris":{"android":"levelo://app?vid=b4544312-64e4-4dd2-bd6d-e1d3f6243b40","ios":"levelo://app?vid=b4544312-64e4-4dd2-bd6d-e1d3f6243b40"},"vehicle_type_id":"4","last_reported":1752311428,"current_range_meters":6800,"station_id":"","pricing_plan_id":"cebpf4jnsgd1na2vs0mg"},{"bike_id":"015d9eea-6d05-4445-8295-5a91f9bea9d9","system_id":"levelo_inurba_marseille","lat":43.30947,"lon":5.3903,"is_reserved":false,"is_disabled":false,"rental_uris":{"android":"levelo://app?vid=015d9eea-6d05-4445-8295-5a91f9bea9d9","ios":"levelo://app?vid=015d9eea-6d05-4445-8295-5a91f9bea9d9"},"vehicle_type_id":"4","last_reported":1752311428,"current_range_meters":7200,"station_id":"ce4bgup2rcd13ifvqco0","pricing_plan_id":"cebpf4jnsgd1na2vs0mg"},{"bike_id":"eea44b83-c165-49dd-a23a-29cb59d8d866","system_id":"levelo_inurba_marseille","lat":43.30868,"lon":5.37429,"is_reserved":false,"is_disabled":false,"rental_uris":{"android":"levelo://app?vid=eea44b83-c165-49dd-a23a-29cb59d8d866","ios":"levelo://app?vid=eea44b83-c165-49dd-a23a-29cb59d8d866"},"vehicle_type_id":"4","last_reported":1752311428,"current_range_meters":8000,"station_id":"","pricing_plan_id":"cebpf4jnsgd1na2vs0mg"},{"bike_id":"534ed68d-5ceb-43a8-968b-be30f01dfa74","system_id":"levelo_inurba_marseille","lat":43.282055,"lon":5.39059,"is_reserved":false,"is_disabled":false,"rental_uris":{"android":"levelo://app?vid=534ed68d-5ceb-43a8-968b-be30f01dfa74","ios":"levelo://app?vid=534ed68d-5ceb-43a8-968b-be30f01dfa74"},"vehicle_type_id":"4","last_reported":1752311428,"current_range_meters":8800,"station_id":"","pricing_plan_id":"cebpf4jnsgd1na2vs0mg"},{"bike_id":"b07f6cb2-01c0-4fd1-a1db-e8ce98951909","system_id":"levelo_inurba_marseille","lat":43.29264,"lon":5.38429,"is_reserved":false,"is_disabled":false,"rental_uris":{"android":"levelo://app?vid=b07f6cb2-01c0-4fd1-a1db-e8ce98951909","ios":"levelo://app?vid=b07f6cb2-01c0-4fd1-a1db-e8ce98951909"},"vehicle_type_id":"4","last_reported":1752311428,"current_range_meters":8800,"station_id":"ce4bh692rcd13ifvqea0","pricing_plan_id":"cebpf4jnsgd1na2vs0mg"},{"bike_id":"e83614b7-1234-4bc3-b14a-b5635492649e","system_id":"levelo_inurba_marseille","lat":43.286545,"lon":5.38504,"is_reserved":false,"is_disabled":false,"rental_uris":{"android":"levelo://app?vid=e83614b7-1234-4bc3-b14a-b5635492649e","ios":"levelo://app?vid=e83614b7-1234-4bc3-b14a-b5635492649e"},"vehicle_type_id":"4","last_reported":1752311428,"current_range_meters":8800,"station_id":"","pricing_plan_id":"cebpf4jnsgd1na2vs0mg"},{"bike_id":"d849a247-c2c0-4619-bac8-f5a6994e0014","system_id":"levelo_inurba_marseille","lat":43.32056,"lon":5.41573,"is_reserved":false,"is_disabled":false,"rental_uris":{"android":"levelo://app?vid=d849a247-c2c0-4619-bac8-f5a6994e0014","ios":"levelo://app?vid=d849a247-c2c0-4619-bac8-f5a6994e0014"},"vehicle_type_id":"4","last_reported":1752311428,"current_range_meters":9200,"station_id":"ce4bhq92rcd13ifvqhkg","pricing_plan_id":"cebpf4jnsgd1na2vs0mg"},{"bike_id":"bba90d95-5f89-4669-abbc-69958e9ffd5f","system_id":"levelo_inurba_marseille","lat":43.274076,"lon":5.362101,"is_reserved":false,"is_disabled":false,"rental_uris":{"android":"levelo://app?vid=bba90d95-5f89-4669-abbc-69958e9ffd5f","ios":"levelo://app?vid=bba90d95-5f89-4669-abbc-69958e9ffd5f"},"vehicle_type_id":"4","last_reported":1752311428,"current_range_meters":9200,"station_id":"ce4bhbh2rcd13ifvqeo0","pricing_plan_id":"cebpf4jnsgd1na2vs0mg"},{"bike_id":"ce066ea2-ea76-4149-86a5-1115e0d602ad","system_id":"levelo_inurba_marseille","lat":43.24076,"lon":5.37758,"is_reserved":false,"is_disabled":false,"rental_uris":{"android":"levelo://app?vid=ce066ea2-ea76-4149-86a5-1115e0d602ad","ios":"levelo://app?vid=ce066ea2-ea76-4149-86a5-1115e0d602ad"},"vehicle_type_id":"4","last_reported":1752311428,"current_range_meters":9600,"station_id":"ce4bhnp2rcd13ifvqgvg","pricing_plan_id":"cebpf4jnsgd1na2vs0mg"},{"bike_id":"24408ebf-8612-4df2-b491-b3f77a991042","system_id":"levelo_inurba_marseille","lat":43.31753,"lon":5.39019,"is_reserved":false,"is_disabled":false,"rental_uris":{"android":"levelo://app?vid=24408ebf-8612-4df2-b491-b3f77a991042","ios":"levelo://app?vid=24408ebf-8612-4df2-b491-b3f77a991042"},"vehicle_type_id":"4","last_reported":1752311428,"current_range_meters":10000,"station_id":"ce4bhqp2rcd13ifvqhng","pricing_plan_id":"cebpf4jnsgd1na2vs0mg"},{"bike_id":"6e44525d-ed45-445a-a877-081b94eb5813","system_id":"levelo_inurba_marseille","lat":43.30355,"lon":5.41879,"is_reserved":false,"is_disabled":true,"rental_uris":{"android":"levelo://app?vid=6e44525d-ed45-445a-a877-081b94eb5813","ios":"levelo://app?vid=6e44525d-ed45-445a-a877-081b94eb5813"},"vehicle_type_id":"4","last_reported":1752311428,"current_range_meters":10000,"station_id":"ce4bhop2rcd13ifvqh7g","pricing_plan_id":"cebpf4jnsgd1na2vs0mg"},{"bike_id":"01a56c28-b964-4b7a-bf5e-79b3f0debff4","system_id":"levelo_inurba_marseille","lat":43.303094,"lon":5.369017,"is_reserved":false,"is_disabled":true,"rental_uris":{"android":"levelo://app?vid=01a56c28-b964-4b7a-bf5e-79b3f0debff4","ios":"levelo://app?vid=01a56c28-b964-4b7a-bf5e-79b3f0debff4"},"vehicle_type_id":"4","last_reported":1752311428,"current_range_meters":10800,"station_id":"ce4bh312rcd13ifvqdj0","pricing_plan_id":"cebpf4jnsgd1na2vs0mg"},{"bike_id":"fd9f5c27-5d58-42e5-badc-a12a0344229e","system_id":"levelo_inurba_marseille","lat":43.289107,"lon":5.36061,"is_reserved":false,"is_disabled":false,"rental_uris":{"android":"levelo://app?vid=fd9f5c27-5d58-42e5-badc-a12a0344229e","ios":"levelo://app?vid=fd9f5c27-5d58-42e5-badc-a12a0344229e"},"vehicle_type_id":"4","last_reported":1752311428,"current_range_meters":10800,"station_id":"","pricing_plan_id":"cebpf4jnsgd1na2vs0mg"},{"bike_id":"4d4b9e28-a4f6-4d45-ac6b-64a63a768bd8","system_id":"levelo_inurba_marseille","lat":43.31483,"lon":5.3739,"is_reserved":false,"is_disabled":false,"rental_uris":{"android":"levelo://app?vid=4d4b9e28-a4f6-4d45-ac6b-64a63a768bd8","ios":"levelo://app?vid=4d4b9e28-a4f6-4d45-ac6b-64a63a768bd8"},"vehicle_type_id":"4","last_reported":1752311428,"current_range_meters":10800,"station_id":"","pricing_plan_id":"cebpf4jnsgd1na2vs0mg"},{"bike_id":"595e9351-a7ce-45de-8995-771f7d9fe86e","system_id":"levelo_inurba_marseille","lat":43.309243,"lon":5.378088,"is_reserved":false,"is_disabled":false,"rental_uris":{"android":"levelo://app?vid=595e9351-a7ce-45de-8995-771f7d9fe86e","ios":"levelo://app?vid=595e9351-a7ce-45de-8995-771f7d9fe86e"},"vehicle_type_id":"4","last_reported":1752311428,"current_range_meters":10800,"station_id":"","pricing_plan_id":"cebpf4jnsgd1na2vs0mg"},{"bike_id":"e3a75ee9-c614-467b-8cc2-f813bcef2ab1","system_id":"levelo_inurba_marseille","lat":43.33743,"lon":5.3919,"is_reserved":false,"is_disabled":false,"rental_uris":{"android":"levelo://app?vid=e3a75ee9-c614-467b-8cc2-f813bcef2ab1","ios":"levelo://app?vid=e3a75ee9-c614-467b-8cc2-f813bcef2ab1"},"vehicle_type_id":"4","last_reported":1752311428,"current_range_meters":10800,"station_id":"ce4bhr92rcd13ifvqhsg","pricing_plan_id":"cebpf4jnsgd1na2vs0mg"},{"bike_id":"215d3c4b-a294-456c-8008-b5e0650482fc","system_id":"levelo_inurba_marseille","lat":43.30189,"lon":5.36602,"is_reserved":false,"is_disabled":false,"rental_uris":{"android":"levelo://app?vid=215d3c4b-a294-456c-8008-b5e0650482fc","ios":"levelo://app?vid=215d3c4b-a294-456c-8008-b5e0650482fc"},"vehicle_type_id":"4","last_reported":1752311428,"current_range_meters":10800,"station_id":"ce4bgrh2rcd13ifvqc8g","pricing_plan_id":"cebpf4jnsgd1na2vs0mg"},{"bike_id":"eda0ea69-6404-43e6-9ede-2655d170d444","system_id":"levelo_inurba_marseille","lat":43.288468,"lon":5.358282,"is_reserved":false,"is_disabled":true,"rental_uris":{"android":"levelo://app?vid=eda0ea69-6404-43e6-9ede-2655d170d444","ios":"levelo://app?vid=eda0ea69-6404-43e6-9ede-2655d170d444"},"vehicle_type_id":"4","last_reported":1752311428,"current_range_meters":10800,"station_id":"ce4bhb12rcd13ifvqem0","pricing_plan_id":"cebpf4jnsgd1na2vs0mg"},{"bike_id":"080f57f3-a8d5-4466-97ef-f4f40d547d09","system_id":"levelo_inurba_marseille","lat":43.31368,"lon":5.3851,"is_reserved":false,"is_disabled":false,"rental_uris":{"android":"levelo://app?vid=080f57f3-a8d5-4466-97ef-f4f40d547d09","ios":"levelo://app?vid=080f57f3-a8d5-4466-97ef-f4f40d547d09"},"vehicle_type_id":"4","last_reported":1752311428,"current_range_meters":11200,"station_id":"ce4bgt92rcd13ifvqcf0","pricing_plan_id":"cebpf4jnsgd1na2vs0mg"},{"bike_id":"807fb127-6a47-4730-a4ef-cf92c90480d9","system_id":"levelo_inurba_marseille","lat":43.32034,"lon":5.41577,"is_reserved":false,"is_disabled":false,"rental_uris":{"android":"levelo://app?vid=807fb127-6a47-4730-a4ef-cf92c90480d9","ios":"levelo://app?vid=807fb127-6a47-4730-a4ef-cf92c90480d9"},"vehicle_type_id":"4","last_reported":1752311428,"current_range_meters":11200,"station_id":"ce4bhq92rcd13ifvqhkg","pricing_plan_id":"cebpf4jnsgd1na2vs0mg"},{"bike_id":"ef698040-cffd-4a0c-9a91-bf557274de35","system_id":"levelo_inurba_marseille","lat":43.317146,"lon":5.377729,"is_reserved":false,"is_disabled":false,"rental_uris":{"android":"levelo://app?vid=ef698040-cffd-4a0c-9a91-bf557274de35","ios":"levelo://app?vid=ef698040-cffd-4a0c-9a91-bf557274de35"},"vehicle_type_id":"4","last_reported":1752311428,"current_range_meters":11200,"station_id":"ce4bgth2rcd13ifvqch0","pricing_plan_id":"cebpf4jnsgd1na2vs0mg"},{"bike_id":"2711aaaf-3805-4804-9329-3207cf061148","system_id":"levelo_inurba_marseille","lat":43.28422,"lon":5.34978,"is_reserved":false,"is_disabled":false,"rental_uris":{"android":"levelo://app?vid=2711aaaf-3805-4804-9329-3207cf061148","ios":"levelo://app?vid=2711aaaf-3805-4804-9329-3207cf061148"},"vehicle_type_id":"4","last_reported":1752311428,"current_range_meters":11200,"station_id":"ce4bhbh2rcd13ifvqepg","pricing_plan_id":"cebpf4jnsgd1na2vs0mg"},{"bike_id":"ceb8bcf8-9e11-4102-bd78-9a687c0c96d2","system_id":"levelo_inurba_marseille","lat":43.289276,"lon":5.383993,"is_reserved":false,"is_disabled":false,"rental_uris":{"android":"levelo://app?vid=ceb8bcf8-9e11-4102-bd78-9a687c0c96d2","ios":"levelo://app?vid=ceb8bcf8-9e11-4102-bd78-9a687c0c96d2"},"vehicle_type_id":"4","last_reported":1752311428,"current_range_meters":11600,"station_id":"ce4bh612rcd13ifvqe6g","pricing_plan_id":"cebpf4jnsgd1na2vs0mg"},{"bike_id":"8929c1bf-fd4d-44e4-aa66-b3eb6538c998","system_id":"levelo_inurba_marseille","lat":43.28577,"lon":5.42975,"is_reserved":false,"is_disabled":false,"rental_uris":{"android":"levelo://app?vid=8929c1bf-fd4d-44e4-aa66-b3eb6538c998","ios":"levelo://app?vid=8929c1bf-fd4d-44e4-aa66-b3eb6538c998"},"vehicle_type_id":"4","last_reported":1752311428,"current_range_meters":11600,"station_id":"","pricing_plan_id":"cebpf4jnsgd1na2vs0mg"},{"bike_id":"97d4bafb-1703-482a-9af9-9c0328bf232e","system_id":"levelo_inurba_marseille","lat":43.29549,"lon":5.37486,"is_reserved":false,"is_disabled":false,"rental_uris":{"android":"levelo://app?vid=97d4bafb-1703-482a-9af9-9c0328bf232e","ios":"levelo://app?vid=97d4bafb-1703-482a-9af9-9c0328bf232e"},"vehicle_type_id":"4","last_reported":1752311428,"current_range_meters":11600,"station_id":"ce4bgkp2rcd13ifvqbmg","pricing_plan_id":"cebpf4jnsgd1na2vs0mg"},{"bike_id":"dafa5a87-b26d-4379-9a6b-1f02133b78a6","system_id":"levelo_inurba_marseille","lat":43.211954,"lon":5.350612,"is_reserved":false,"is_disabled":false,"rental_uris":{"android":"levelo://app?vid=dafa5a87-b26d-4379-9a6b-1f02133b78a6","ios":"levelo://app?vid=dafa5a87-b26d-4379-9a6b-1f02133b78a6"},"vehicle_type_id":"4","last_reported":1752311428,"current_range_meters":11600,"station_id":"","pricing_plan_id":"cebpf4jnsgd1na2vs0mg"},{"bike_id":"f4957b37-0d3f-433a-8d2b-c7660c147df3","system_id":"levelo_inurba_marseille","lat":43.2904,"lon":5.39932,"is_reserved":false,"is_disabled":false,"rental_uris":{"android":"levelo://app?vid=f4957b37-0d3f-433a-8d2b-c7660c147df3","ios":"levelo://app?vid=f4957b37-0d3f-433a-8d2b-c7660c147df3"},"vehicle_type_id":"4","last_reported":1752311428,"current_range_meters":12000,"station_id":"ce4bh392rcd13ifvqdm0","pricing_plan_id":"cebpf4jnsgd1na2vs0mg"},{"bike_id":"32d8f275-a6bd-43c4-b8c4-4382a2769717","system_id":"levelo_inurba_marseille","lat":43.2721,"lon":5.39179,"is_reserved":false,"is_disabled":false,"rental_uris":{"android":"levelo://app?vid=32d8f275-a6bd-43c4-b8c4-4382a2769717","ios":"levelo://app?vid=32d8f275-a6bd-43c4-b8c4-4382a2769717"},"vehicle_type_id":"4","last_reported":1752311428,"current_range_meters":12000,"station_id":"ce4bhhp2rcd13ifvqfm0","pricing_plan_id":"cebpf4jnsgd1na2vs0mg"},{"bike_id":"4a92b34b-1d43-4830-8a92-a24d5fc4e5ca","system_id":"levelo_inurba_marseille","lat":43.29566,"lon":5.37502,"is_reserved":false,"is_disabled":false,"rental_uris":{"android":"levelo://app?vid=4a92b34b-1d43-4830-8a92-a24d5fc4e5ca","ios":"levelo://app?vid=4a92b34b-1d43-4830-8a92-a24d5fc4e5ca"},"vehicle_type_id":"4","last_reported":1752311428,"current_range_meters":12000,"station_id":"ce4bgh92rcd13ifvqb50","pricing_plan_id":"cebpf4jnsgd1na2vs0mg"},{"bike_id":"74139e65-e856-4fd8-9153-33cdb55f9d49","system_id":"levelo_inurba_marseille","lat":43.28942,"lon":5.36635,"is_reserved":false,"is_disabled":false,"rental_uris":{"android":"levelo://app?vid=74139e65-e856-4fd8-9153-33cdb55f9d49","ios":"levelo://app?vid=74139e65-e856-4fd8-9153-33cdb55f9d49"},"vehicle_type_id":"4","last_reported":1752311428,"current_range_meters":12000,"station_id":"ce4bhap2rcd13ifvqek0","pricing_plan_id":"cebpf4jnsgd1na2vs0mg"},{"bike_id":"8fccf46e-4269-459a-bd9a-cdd93f6b32bc","system_id":"levelo_inurba_marseille","lat":43.30345,"lon":5.41887,"is_reserved":false,"is_disabled":false,"rental_uris":{"android":"levelo://app?vid=8fccf46e-4269-459a-bd9a-cdd93f6b32bc","ios":"levelo://app?vid=8fccf46e-4269-459a-bd9a-cdd93f6b32bc"},"vehicle_type_id":"4","last_reported":1752311428,"current_range_meters":12000,"station_id":"ce4bhop2rcd13ifvqh7g","pricing_plan_id":"cebpf4jnsgd1na2vs0mg"},{"bike_id":"65715245-ae22-4c14-a440-90c4c1db5a80","system_id":"levelo_inurba_marseille","lat":43.29301,"lon":5.37162,"is_reserved":false,"is_disabled":false,"rental_uris":{"android":"levelo://app?vid=65715245-ae22-4c14-a440-90c4c1db5a80","ios":"levelo://app?vid=65715245-ae22-4c14-a440-90c4c1db5a80"},"vehicle_type_id":"4","last_reported":1752311428,"current_range_meters":12400,"station_id":"ce4bgh92rcd13ifvqb40","pricing_plan_id":"cebpf4jnsgd1na2vs0mg"},{"bike_id":"43b90c82-97e0-4fa7-8b67-2448f07d529e","system_id":"levelo_inurba_marseille","lat":43.21191,"lon":5.350724,"is_reserved":false,"is_disabled":false,"rental_uris":{"android":"levelo://app?vid=43b90c82-97e0-4fa7-8b67-2448f07d529e","ios":"levelo://app?vid=43b90c82-97e0-4fa7-8b67-2448f07d529e"},"vehicle_type_id":"4","last_reported":1752311428,"current_range_meters":12400,"station_id":"","pricing_plan_id":"cebpf4jnsgd1na2vs0mg"},{"bike_id":"268003ee-cd1a-4936-8ec6-74ec3b1dda1d","system_id":"levelo_inurba_marseille","lat":43.24194,"lon":5.3973,"is_reserved":false,"is_disabled":false,"rental_uris":{"android":"levelo://app?vid=268003ee-cd1a-4936-8ec6-74ec3b1dda1d","ios":"levelo://app?vid=268003ee-cd1a-4936-8ec6-74ec3b1dda1d"},"vehicle_type_id":"4","last_reported":1752311428,"current_range_meters":12800,"station_id":"ce4bhn12rcd13ifvqgpg","pricing_plan_id":"cebpf4jnsgd1na2vs0mg"},{"bike_id":"e9fd0cf8-573b-4177-88a6-f1faf33e8aca","system_id":"levelo_inurba_marseille","lat":43.289784,"lon":5.35591,"is_reserved":false,"is_disabled":false,"rental_uris":{"android":"levelo://app?vid=e9fd0cf8-573b-4177-88a6-f1faf33e8aca","ios":"levelo://app?vid=e9fd0cf8-573b-4177-88a6-f1faf33e8aca"},"vehicle_type_id":"4","last_reported":1752311428,"current_range_meters":12800,"station_id":"ce4bhb92rcd13ifvqen0","pricing_plan_id":"cebpf4jnsgd1na2vs0mg"},{"bike_id":"61198919-e72c-4fce-bc96-126627987dc0","system_id":"levelo_inurba_marseille","lat":43.29585,"lon":5.37872,"is_reserved":false,"is_disabled":false,"rental_uris":{"android":"levelo://app?vid=61198919-e72c-4fce-bc96-126627987dc0","ios":"levelo://app?vid=61198919-e72c-4fce-bc96-126627987dc0"},"vehicle_type_id":"4","last_reported":1752311428,"current_range_meters":12800,"station_id":"","pricing_plan_id":"cebpf4jnsgd1na2vs0mg"},{"bike_id":"37b84a38-055a-4a6e-a56a-8ff3d0c1b2ec","system_id":"levelo_inurba_marseille","lat":43.21189,"lon":5.35072,"is_reserved":false,"is_disabled":false,"rental_uris":{"android":"levelo://app?vid=37b84a38-055a-4a6e-a56a-8ff3d0c1b2ec","ios":"levelo://app?vid=37b84a38-055a-4a6e-a56a-8ff3d0c1b2ec"},"vehicle_type_id":"4","last_reported":1752311428,"current_range_meters":12800,"station_id":"st_cvj6sg6p6f1abm77japg","pricing_plan_id":"cebpf4jnsgd1na2vs0mg"},{"bike_id":"dbba3321-20c7-4989-a7b5-ea9ab2c4b3e8","system_id":"levelo_inurba_marseille","lat":43.261935,"lon":5.374477,"is_reserved":false,"is_disabled":false,"rental_uris":{"android":"levelo://app?vid=dbba3321-20c7-4989-a7b5-ea9ab2c4b3e8","ios":"levelo://app?vid=dbba3321-20c7-4989-a7b5-ea9ab2c4b3e8"},"vehicle_type_id":"4","last_reported":1752311428,"current_range_meters":12800,"station_id":"ce4bhgp2rcd13ifvqfc0","pricing_plan_id":"cebpf4jnsgd1na2vs0mg"},{"bike_id":"e86ba8c9-208d-482c-a826-4c100938472a","system_id":"levelo_inurba_marseille","lat":43.21202,"lon":5.35071,"is_reserved":false,"is_disabled":false,"rental_uris":{"android":"levelo://app?vid=e86ba8c9-208d-482c-a826-4c100938472a","ios":"levelo://app?vid=e86ba8c9-208d-482c-a826-4c100938472a"},"vehicle_type_id":"4","last_reported":1752311428,"current_range_meters":12800,"station_id":"st_cvj6sg6p6f1abm77japg","pricing_plan_id":"cebpf4jnsgd1na2vs0mg"},{"bike_id":"c453155a-5220-48fc-922b-600ca54f8ab5","system_id":"levelo_inurba_marseille","lat":43.286599,"lon":5.363515,"is_reserved":false,"is_disabled":true,"rental_uris":{"android":"levelo://app?vid=c453155a-5220-48fc-922b-600ca54f8ab5","ios":"levelo://app?vid=c453155a-5220-48fc-922b-600ca54f8ab5"},"vehicle_type_id":"4","last_reported":1752311428,"current_range_meters":12800,"station_id":"ce4bhah2rcd13ifvqej0","pricing_plan_id":"cebpf4jnsgd1na2vs0mg"},{"bike_id":"5b9b2fff-22f8-4ffc-b7a0-27211dfdc2e0","system_id":"levelo_inurba_marseille","lat":43.257192,"lon":5.411227,"is_reserved":false,"is_disabled":false,"rental_uris":{"android":"levelo://app?vid=5b9b2fff-22f8-4ffc-b7a0-27211dfdc2e0","ios":"levelo://app?vid=5b9b2fff-22f8-4ffc-b7a0-27211dfdc2e0"},"vehicle_type_id":"4","last_reported":1752311428,"current_range_meters":13600,"station_id":"ce4bhkp2rcd13ifvqgd0","pricing_plan_id":"cebpf4jnsgd1na2vs0mg"},{"bike_id":"59abd4c4-8a4d-4cab-8aea-7cfc8564355e","system_id":"levelo_inurba_marseille","lat":43.21188,"lon":5.3507,"is_reserved":false,"is_disabled":false,"rental_uris":{"android":"levelo://app?vid=59abd4c4-8a4d-4cab-8aea-7cfc8564355e","ios":"levelo://app?vid=59abd4c4-8a4d-4cab-8aea-7cfc8564355e"},"vehicle_type_id":"4","last_reported":1752311428,"current_range_meters":13600,"station_id":"st_cvj6sg6p6f1abm77japg","pricing_plan_id":"cebpf4jnsgd1na2vs0mg"},{"bike_id":"4edff1c0-26ae-4c39-9bc5-1e6f32f2d248","system_id":"levelo_inurba_marseille","lat":43.27968,"lon":5.38684,"is_reserved":false,"is_disabled":false,"rental_uris":{"android":"levelo://app?vid=4edff1c0-26ae-4c39-9bc5-1e6f32f2d248","ios":"levelo://app?vid=4edff1c0-26ae-4c39-9bc5-1e6f32f2d248"},"vehicle_type_id":"4","last_reported":1752311428,"current_range_meters":13600,"station_id":"ce4bhg12rcd13ifvqf80","pricing_plan_id":"cebpf4jnsgd1na2vs0mg"},{"bike_id":"452e8211-4f44-45d0-814a-3e9e25b8c44e","system_id":"levelo_inurba_marseille","lat":43.21187,"lon":5.35078,"is_reserved":false,"is_disabled":false,"rental_uris":{"android":"levelo://app?vid=452e8211-4f44-45d0-814a-3e9e25b8c44e","ios":"levelo://app?vid=452e8211-4f44-45d0-814a-3e9e25b8c44e"},"vehicle_type_id":"4","last_reported":1752311428,"current_range_meters":13600,"station_id":"st_cvj6sg6p6f1abm77japg","pricing_plan_id":"cebpf4jnsgd1na2vs0mg"},{"bike_id":"9ebca4be-7c13-46b2-85ed-fd57a4cd9c32","system_id":"levelo_inurba_marseille","lat":43.308906,"lon":5.396181,"is_reserved":false,"is_disabled":false,"rental_uris":{"android":"levelo://app?vid=9ebca4be-7c13-46b2-85ed-fd57a4cd9c32","ios":"levelo://app?vid=9ebca4be-7c13-46b2-85ed-fd57a4cd9c32"},"vehicle_type_id":"4","last_reported":1752311428,"current_range_meters":14000,"station_id":"ce4bh012rcd13ifvqcv0","pricing_plan_id":"cebpf4jnsgd1na2vs0mg"},{"bike_id":"042461e1-66c6-43d1-9f02-79b7d6b213c2","system_id":"levelo_inurba_marseille","lat":43.313712,"lon":5.385013,"is_reserved":false,"is_disabled":false,"rental_uris":{"android":"levelo://app?vid=042461e1-66c6-43d1-9f02-79b7d6b213c2","ios":"levelo://app?vid=042461e1-66c6-43d1-9f02-79b7d6b213c2"},"vehicle_type_id":"4","last_reported":1752311428,"current_range_meters":14000,"station_id":"ce4bgt92rcd13ifvqcf0","pricing_plan_id":"cebpf4jnsgd1na2vs0mg"},{"bike_id":"a581eef9-f0fb-4e5d-8be0-84b96bfd2d41","system_id":"levelo_inurba_marseille","lat":43.29386,"lon":5.37851,"is_reserved":false,"is_disabled":false,"rental_uris":{"android":"levelo://app?vid=a581eef9-f0fb-4e5d-8be0-84b96bfd2d41","ios":"levelo://app?vid=a581eef9-f0fb-4e5d-8be0-84b96bfd2d41"},"vehicle_type_id":"4","last_reported":1752311428,"current_range_meters":14000,"station_id":"ce4bgjh2rcd13ifvqbf0","pricing_plan_id":"cebpf4jnsgd1na2vs0mg"},{"bike_id":"a100566b-d122-47f7-b059-1aae620ff9b3","system_id":"levelo_inurba_marseille","lat":43.240657,"lon":5.377577,"is_reserved":false,"is_disabled":false,"rental_uris":{"android":"levelo://app?vid=a100566b-d122-47f7-b059-1aae620ff9b3","ios":"levelo://app?vid=a100566b-d122-47f7-b059-1aae620ff9b3"},"vehicle_type_id":"4","last_reported":1752311428,"current_range_meters":14000,"station_id":"ce4bhnp2rcd13ifvqgvg","pricing_plan_id":"cebpf4jnsgd1na2vs0mg"},{"bike_id":"f05b8bfe-6934-41c1-8e7b-6912b26dbed6","system_id":"levelo_inurba_marseille","lat":43.265692,"lon":5.390107,"is_reserved":false,"is_disabled":false,"rental_uris":{"android":"levelo://app?vid=f05b8bfe-6934-41c1-8e7b-6912b26dbed6","ios":"levelo://app?vid=f05b8bfe-6934-41c1-8e7b-6912b26dbed6"},"vehicle_type_id":"4","last_reported":1752311428,"current_range_meters":14800,"station_id":"ce4bhe12rcd13ifvqf30","pricing_plan_id":"cebpf4jnsgd1na2vs0mg"},{"bike_id":"58c86ff8-b444-4637-8b8c-414b4195493a","system_id":"levelo_inurba_marseille","lat":43.280885,"lon":5.396554,"is_reserved":false,"is_disabled":false,"rental_uris":{"android":"levelo://app?vid=58c86ff8-b444-4637-8b8c-414b4195493a","ios":"levelo://app?vid=58c86ff8-b444-4637-8b8c-414b4195493a"},"vehicle_type_id":"4","last_reported":1752311428,"current_range_meters":14800,"station_id":"ce4bho12rcd13ifvqh2g","pricing_plan_id":"cebpf4jnsgd1na2vs0mg"},{"bike_id":"ad3a92a9-aac6-4694-a2f3-20c935fef2b6","system_id":"levelo_inurba_marseille","lat":43.292986,"lon":5.374656,"is_reserved":false,"is_disabled":false,"rental_uris":{"android":"levelo://app?vid=ad3a92a9-aac6-4694-a2f3-20c935fef2b6","ios":"levelo://app?vid=ad3a92a9-aac6-4694-a2f3-20c935fef2b6"},"vehicle_type_id":"4","last_reported":1752311428,"current_range_meters":14800,"station_id":"","pricing_plan_id":"cebpf4jnsgd1na2vs0mg"},{"bike_id":"a105c0c6-6fb2-4348-a250-f82e4e3e3272","system_id":"levelo_inurba_marseille","lat":43.21189,"lon":5.35071,"is_reserved":false,"is_disabled":false,"rental_uris":{"android":"levelo://app?vid=a105c0c6-6fb2-4348-a250-f82e4e3e3272","ios":"levelo://app?vid=a105c0c6-6fb2-4348-a250-f82e4e3e3272"},"vehicle_type_id":"4","last_reported":1752311428,"current_range_meters":14800,"station_id":"st_cvj6sg6p6f1abm77japg","pricing_plan_id":"cebpf4jnsgd1na2vs0mg"},{"bike_id":"25e5f971-a9c9-4b07-bb3b-bff8f5b484ea","system_id":"levelo_inurba_marseille","lat":43.30934,"lon":5.40189,"is_reserved":false,"is_disabled":false,"rental_uris":{"android":"levelo://app?vid=25e5f971-a9c9-4b07-bb3b-bff8f5b484ea","ios":"levelo://app?vid=25e5f971-a9c9-4b07-bb3b-bff8f5b484ea"},"vehicle_type_id":"4","last_reported":1752311428,"current_range_meters":14800,"station_id":"ce4bgvp2rcd13ifvqct0","pricing_plan_id":"cebpf4jnsgd1na2vs0mg"},{"bike_id":"ad023729-3d33-44a6-99ca-a047715b7f88","system_id":"levelo_inurba_marseille","lat":43.212011,"lon":5.350654,"is_reserved":false,"is_disabled":false,"rental_uris":{"android":"levelo://app?vid=ad023729-3d33-44a6-99ca-a047715b7f88","ios":"levelo://app?vid=ad023729-3d33-44a6-99ca-a047715b7f88"},"vehicle_type_id":"4","last_reported":1752311428,"current_range_meters":15200,"station_id":"st_cvj6sg6p6f1abm77japg","pricing_plan_id":"cebpf4jnsgd1na2vs0mg"},{"bike_id":"e9a7a20d-93e4-4fd6-921f-40bbcfcecf67","system_id":"levelo_inurba_marseille","lat":43.273872,"lon":5.362473,"is_reserved":false,"is_disabled":false,"rental_uris":{"android":"levelo://app?vid=e9a7a20d-93e4-4fd6-921f-40bbcfcecf67","ios":"levelo://app?vid=e9a7a20d-93e4-4fd6-921f-40bbcfcecf67"},"vehicle_type_id":"4","last_reported":1752311428,"current_range_meters":15200,"station_id":"ce4bhbh2rcd13ifvqeo0","pricing_plan_id":"cebpf4jnsgd1na2vs0mg"},{"bike_id":"f062f3f8-6747-4d90-b0fe-3c9e94933ab7","system_id":"levelo_inurba_marseille","lat":43.27058,"lon":5.42273,"is_reserved":false,"is_disabled":false,"rental_uris":{"android":"levelo://app?vid=f062f3f8-6747-4d90-b0fe-3c9e94933ab7","ios":"levelo://app?vid=f062f3f8-6747-4d90-b0fe-3c9e94933ab7"},"vehicle_type_id":"4","last_reported":1752311428,"current_range_meters":15200,"station_id":"ce4bhk92rcd13ifvqgb0","pricing_plan_id":"cebpf4jnsgd1na2vs0mg"},{"bike_id":"dfb324bb-b3fa-42ac-af97-fcb3ac59c854","system_id":"levelo_inurba_marseille","lat":43.297671,"lon":5.37111,"is_reserved":false,"is_disabled":false,"rental_uris":{"android":"levelo://app?vid=dfb324bb-b3fa-42ac-af97-fcb3ac59c854","ios":"levelo://app?vid=dfb324bb-b3fa-42ac-af97-fcb3ac59c854"},"vehicle_type_id":"4","last_reported":1752311428,"current_range_meters":16000,"station_id":"ce4bgop2rcd13ifvqc1g","pricing_plan_id":"cebpf4jnsgd1na2vs0mg"},{"bike_id":"e5b1d279-6ac0-40c9-a18d-b9d65faf5735","system_id":"levelo_inurba_marseille","lat":43.2984,"lon":5.36251,"is_reserved":false,"is_disabled":false,"rental_uris":{"android":"levelo://app?vid=e5b1d279-6ac0-40c9-a18d-b9d65faf5735","ios":"levelo://app?vid=e5b1d279-6ac0-40c9-a18d-b9d65faf5735"},"vehicle_type_id":"4","last_reported":1752311428,"current_range_meters":16000,"station_id":"ce4bgpp2rcd13ifvqc3g","pricing_plan_id":"cebpf4jnsgd1na2vs0mg"},{"bike_id":"f20dc79a-7198-418a-9671-1d3f28b0b615","system_id":"levelo_inurba_marseille","lat":43.2514,"lon":5.40349,"is_reserved":false,"is_disabled":false,"rental_uris":{"android":"levelo://app?vid=f20dc79a-7198-418a-9671-1d3f28b0b615","ios":"levelo://app?vid=f20dc79a-7198-418a-9671-1d3f28b0b615"},"vehicle_type_id":"4","last_reported":1752311428,"current_range_meters":16000,"station_id":"ce4bhlh2rcd13ifvqgig","pricing_plan_id":"cebpf4jnsgd1na2vs0mg"},{"bike_id":"cfee0657-6493-4e9d-b55a-affdef745be3","system_id":"levelo_inurba_marseille","lat":43.29843,"lon":5.3767,"is_reserved":false,"is_disabled":false,"rental_uris":{"android":"levelo://app?vid=cfee0657-6493-4e9d-b55a-affdef745be3","ios":"levelo://app?vid=cfee0657-6493-4e9d-b55a-affdef745be3"},"vehicle_type_id":"4","last_reported":1752311428,"current_range_meters":16000,"station_id":"","pricing_plan_id":"cebpf4jnsgd1na2vs0mg"},{"bike_id":"ee515f70-086a-41fc-a63b-35c15562e60e","system_id":"levelo_inurba_marseille","lat":43.21752,"lon":5.345925,"is_reserved":false,"is_disabled":false,"rental_uris":{"android":"levelo://app?vid=ee515f70-086a-41fc-a63b-35c15562e60e","ios":"levelo://app?vid=ee515f70-086a-41fc-a63b-35c15562e60e"},"vehicle_type_id":"4","last_reported":1752311428,"current_range_meters":16000,"station_id":"st_cvj6r9ubvosntc0bgbag","pricing_plan_id":"cebpf4jnsgd1na2vs0mg"},{"bike_id":"470d1e9d-8c05-40b8-a6b2-039f183b9f6a","system_id":"levelo_inurba_marseille","lat":43.231909,"lon":5.355528,"is_reserved":false,"is_disabled":true,"rental_uris":{"android":"levelo://app?vid=470d1e9d-8c05-40b8-a6b2-039f183b9f6a","ios":"levelo://app?vid=470d1e9d-8c05-40b8-a6b2-039f183b9f6a"},"vehicle_type_id":"4","last_reported":1752311428,"current_range_meters":16000,"station_id":"ce4bhu92rcd13ifvqi70","pricing_plan_id":"cebpf4jnsgd1na2vs0mg"},{"bike_id":"888bd7d8-4ec5-4282-97cb-63503f2485c0","system_id":"levelo_inurba_marseille","lat":43.30803,"lon":5.38129,"is_reserved":false,"is_disabled":false,"rental_uris":{"android":"levelo://app?vid=888bd7d8-4ec5-4282-97cb-63503f2485c0","ios":"levelo://app?vid=888bd7d8-4ec5-4282-97cb-63503f2485c0"},"vehicle_type_id":"4","last_reported":1752311428,"current_range_meters":16400,"station_id":"ce4bgt12rcd13ifvqce0","pricing_plan_id":"cebpf4jnsgd1na2vs0mg"},{"bike_id":"407b1e77-51dc-4983-95cf-04f962d77eac","system_id":"levelo_inurba_marseille","lat":43.27963,"lon":5.38697,"is_reserved":false,"is_disabled":false,"rental_uris":{"android":"levelo://app?vid=407b1e77-51dc-4983-95cf-04f962d77eac","ios":"levelo://app?vid=407b1e77-51dc-4983-95cf-04f962d77eac"},"vehicle_type_id":"4","last_reported":1752311428,"current_range_meters":16400,"station_id":"ce4bhg12rcd13ifvqf80","pricing_plan_id":"cebpf4jnsgd1na2vs0mg"},{"bike_id":"e6659664-36a7-455f-a092-a94ebef4a45e","system_id":"levelo_inurba_marseille","lat":43.23152,"lon":5.43714,"is_reserved":false,"is_disabled":false,"rental_uris":{"android":"levelo://app?vid=e6659664-36a7-455f-a092-a94ebef4a45e","ios":"levelo://app?vid=e6659664-36a7-455f-a092-a94ebef4a45e"},"vehicle_type_id":"4","last_reported":1752311428,"current_range_meters":16400,"station_id":"ce4bhmp2rcd13ifvqgog","pricing_plan_id":"cebpf4jnsgd1na2vs0mg"},{"bike_id":"c6f7dabd-b092-4554-a710-07eb4af96a4c","system_id":"levelo_inurba_marseille","lat":43.211906,"lon":5.350696,"is_reserved":false,"is_disabled":false,"rental_uris":{"android":"levelo://app?vid=c6f7dabd-b092-4554-a710-07eb4af96a4c","ios":"levelo://app?vid=c6f7dabd-b092-4554-a710-07eb4af96a4c"},"vehicle_type_id":"4","last_reported":1752311428,"current_range_meters":16400,"station_id":"st_cvj6sg6p6f1abm77japg","pricing_plan_id":"cebpf4jnsgd1na2vs0mg"},{"bike_id":"919e600e-ebda-4ca0-9126-38ed65a36143","system_id":"levelo_inurba_marseille","lat":43.212062,"lon":5.350551,"is_reserved":false,"is_disabled":false,"rental_uris":{"android":"levelo://app?vid=919e600e-ebda-4ca0-9126-38ed65a36143","ios":"levelo://app?vid=919e600e-ebda-4ca0-9126-38ed65a36143"},"vehicle_type_id":"4","last_reported":1752311428,"current_range_meters":16400,"station_id":"st_cvj6sg6p6f1abm77japg","pricing_plan_id":"cebpf4jnsgd1na2vs0mg"},{"bike_id":"412afb4e-4f76-4025-a6ca-7f64bda83e72","system_id":"levelo_inurba_marseille","lat":43.24543,"lon":5.395187,"is_reserved":false,"is_disabled":false,"rental_uris":{"android":"levelo://app?vid=412afb4e-4f76-4025-a6ca-7f64bda83e72","ios":"levelo://app?vid=412afb4e-4f76-4025-a6ca-7f64bda83e72"},"vehicle_type_id":"4","last_reported":1752311428,"current_range_meters":16800,"station_id":"ce4bhlp2rcd13ifvqgjg","pricing_plan_id":"cebpf4jnsgd1na2vs0mg"},{"bike_id":"607eff80-7879-4cd4-802a-27da59b17290","system_id":"levelo_inurba_marseille","lat":43.30879,"lon":5.39643,"is_reserved":false,"is_disabled":false,"rental_uris":{"android":"levelo://app?vid=607eff80-7879-4cd4-802a-27da59b17290","ios":"levelo://app?vid=607eff80-7879-4cd4-802a-27da59b17290"},"vehicle_type_id":"4","last_reported":1752311428,"current_range_meters":16800,"station_id":"ce4bh012rcd13ifvqcv0","pricing_plan_id":"cebpf4jnsgd1na2vs0mg"},{"bike_id":"fe9d49e1-a07a-4343-a1f5-cbcd31489875","system_id":"levelo_inurba_marseille","lat":43.25132,"lon":5.40319,"is_reserved":false,"is_disabled":false,"rental_uris":{"android":"levelo://app?vid=fe9d49e1-a07a-4343-a1f5-cbcd31489875","ios":"levelo://app?vid=fe9d49e1-a07a-4343-a1f5-cbcd31489875"},"vehicle_type_id":"4","last_reported":1752311428,"current_range_meters":16800,"station_id":"ce4bhlh2rcd13ifvqgig","pricing_plan_id":"cebpf4jnsgd1na2vs0mg"},{"bike_id":"a862a812-a4e3-41db-bffe-dc440146afeb","system_id":"levelo_inurba_marseille","lat":43.27056,"lon":5.40259,"is_reserved":false,"is_disabled":false,"rental_uris":{"android":"levelo://app?vid=a862a812-a4e3-41db-bffe-dc440146afeb","ios":"levelo://app?vid=a862a812-a4e3-41db-bffe-dc440146afeb"},"vehicle_type_id":"4","last_reported":1752311428,"current_range_meters":16800,"station_id":"ce4bhk92rcd13ifvqgc0","pricing_plan_id":"cebpf4jnsgd1na2vs0mg"},{"bike_id":"51890362-46b0-4ee7-9f02-afbf036d064e","system_id":"levelo_inurba_marseille","lat":43.211979,"lon":5.3507,"is_reserved":false,"is_disabled":false,"rental_uris":{"android":"levelo://app?vid=51890362-46b0-4ee7-9f02-afbf036d064e","ios":"levelo://app?vid=51890362-46b0-4ee7-9f02-afbf036d064e"},"vehicle_type_id":"4","last_reported":1752311428,"current_range_meters":16800,"station_id":"st_cvj6sg6p6f1abm77japg","pricing_plan_id":"cebpf4jnsgd1na2vs0mg"},{"bike_id":"8e96cc1c-7c1c-42f1-8e93-5f09751459d9","system_id":"levelo_inurba_marseille","lat":43.2929,"lon":5.37446,"is_reserved":false,"is_disabled":false,"rental_uris":{"android":"levelo://app?vid=8e96cc1c-7c1c-42f1-8e93-5f09751459d9","ios":"levelo://app?vid=8e96cc1c-7c1c-42f1-8e93-5f09751459d9"},"vehicle_type_id":"4","last_reported":1752311428,"current_range_meters":16800,"station_id":"ce4bgi12rcd13ifvqb70","pricing_plan_id":"cebpf4jnsgd1na2vs0mg"},{"bike_id":"a0137104-c9f4-434a-a5e3-80725cd5a2b4","system_id":"levelo_inurba_marseille","lat":43.21201,"lon":5.35077,"is_reserved":false,"is_disabled":false,"rental_uris":{"android":"levelo://app?vid=a0137104-c9f4-434a-a5e3-80725cd5a2b4","ios":"levelo://app?vid=a0137104-c9f4-434a-a5e3-80725cd5a2b4"},"vehicle_type_id":"4","last_reported":1752311428,"current_range_meters":16800,"station_id":"st_cvj6sg6p6f1abm77japg","pricing_plan_id":"cebpf4jnsgd1na2vs0mg"},{"bike_id":"a88ad0f9-4dc9-4f3f-841b-ae01ad57516a","system_id":"levelo_inurba_marseille","lat":43.266855,"lon":5.382695,"is_reserved":false,"is_disabled":false,"rental_uris":{"android":"levelo://app?vid=a88ad0f9-4dc9-4f3f-841b-ae01ad57516a","ios":"levelo://app?vid=a88ad0f9-4dc9-4f3f-841b-ae01ad57516a"},"vehicle_type_id":"4","last_reported":1752311428,"current_range_meters":17200,"station_id":"ce4bhg92rcd13ifvqf90","pricing_plan_id":"cebpf4jnsgd1na2vs0mg"},{"bike_id":"00bc0b3b-e317-4a17-a011-a3a9a29d816a","system_id":"levelo_inurba_marseille","lat":43.21196,"lon":5.35071,"is_reserved":false,"is_disabled":false,"rental_uris":{"android":"levelo://app?vid=00bc0b3b-e317-4a17-a011-a3a9a29d816a","ios":"levelo://app?vid=00bc0b3b-e317-4a17-a011-a3a9a29d816a"},"vehicle_type_id":"4","last_reported":1752311428,"current_range_meters":17200,"station_id":"st_cvj6sg6p6f1abm77japg","pricing_plan_id":"cebpf4jnsgd1na2vs0mg"},{"bike_id":"ee5338dd-18a1-4b48-a5b0-f8c72f7b1319","system_id":"levelo_inurba_marseille","lat":43.31802,"lon":5.36865,"is_reserved":false,"is_disabled":false,"rental_uris":{"android":"levelo://app?vid=ee5338dd-18a1-4b48-a5b0-f8c72f7b1319","ios":"levelo://app?vid=ee5338dd-18a1-4b48-a5b0-f8c72f7b1319"},"vehicle_type_id":"4","last_reported":1752311428,"current_range_meters":17200,"station_id":"","pricing_plan_id":"cebpf4jnsgd1na2vs0mg"},{"bike_id":"b9ef4702-89c4-44ae-835a-ce06e3cf439c","system_id":"levelo_inurba_marseille","lat":43.2175,"lon":5.34598,"is_reserved":false,"is_disabled":false,"rental_uris":{"android":"levelo://app?vid=b9ef4702-89c4-44ae-835a-ce06e3cf439c","ios":"levelo://app?vid=b9ef4702-89c4-44ae-835a-ce06e3cf439c"},"vehicle_type_id":"4","last_reported":1752311428,"current_range_meters":17200,"station_id":"st_cvj6r9ubvosntc0bgbag","pricing_plan_id":"cebpf4jnsgd1na2vs0mg"},{"bike_id":"3e01e98e-784c-40cc-9a58-943021295c96","system_id":"levelo_inurba_marseille","lat":43.26497,"lon":5.39559,"is_reserved":false,"is_disabled":false,"rental_uris":{"android":"levelo://app?vid=3e01e98e-784c-40cc-9a58-943021295c96","ios":"levelo://app?vid=3e01e98e-784c-40cc-9a58-943021295c96"},"vehicle_type_id":"4","last_reported":1752311428,"current_range_meters":17200,"station_id":"ce4bhi12rcd13ifvqfq0","pricing_plan_id":"cebpf4jnsgd1na2vs0mg"},{"bike_id":"96776fb0-71ae-4084-b5af-7fbce3f17df2","system_id":"levelo_inurba_marseille","lat":43.29172,"lon":5.37149,"is_reserved":false,"is_disabled":false,"rental_uris":{"android":"levelo://app?vid=96776fb0-71ae-4084-b5af-7fbce3f17df2","ios":"levelo://app?vid=96776fb0-71ae-4084-b5af-7fbce3f17df2"},"vehicle_type_id":"4","last_reported":1752311428,"current_range_meters":17200,"station_id":"ce4bha92rcd13ifvqeh0","pricing_plan_id":"cebpf4jnsgd1na2vs0mg"},{"bike_id":"53b2e3fb-77f4-44bd-9b1f-4c6e207a18dc","system_id":"levelo_inurba_marseille","lat":43.26494,"lon":5.39547,"is_reserved":false,"is_disabled":false,"rental_uris":{"android":"levelo://app?vid=53b2e3fb-77f4-44bd-9b1f-4c6e207a18dc","ios":"levelo://app?vid=53b2e3fb-77f4-44bd-9b1f-4c6e207a18dc"},"vehicle_type_id":"4","last_reported":1752311428,"current_range_meters":17200,"station_id":"ce4bhi12rcd13ifvqfq0","pricing_plan_id":"cebpf4jnsgd1na2vs0mg"},{"bike_id":"06ceac69-3619-47b3-a3b2-d856a10a44f1","system_id":"levelo_inurba_marseille","lat":43.24396,"lon":5.37053,"is_reserved":false,"is_disabled":false,"rental_uris":{"android":"levelo://app?vid=06ceac69-3619-47b3-a3b2-d856a10a44f1","ios":"levelo://app?vid=06ceac69-3619-47b3-a3b2-d856a10a44f1"},"vehicle_type_id":"4","last_reported":1752311428,"current_range_meters":17200,"station_id":"ce4bhhh2rcd13ifvqfk0","pricing_plan_id":"cebpf4jnsgd1na2vs0mg"},{"bike_id":"2a66106d-d0c2-4fdb-a0d3-33bcad5edb0d","system_id":"levelo_inurba_marseille","lat":43.321091,"lon":5.367743,"is_reserved":false,"is_disabled":false,"rental_uris":{"android":"levelo://app?vid=2a66106d-d0c2-4fdb-a0d3-33bcad5edb0d","ios":"levelo://app?vid=2a66106d-d0c2-4fdb-a0d3-33bcad5edb0d"},"vehicle_type_id":"4","last_reported":1752311428,"current_range_meters":17200,"station_id":"ce4bhrh2rcd13ifvqhug","pricing_plan_id":"cebpf4jnsgd1na2vs0mg"},{"bike_id":"38e70852-2f7a-4b34-a55f-7175aa6a06f9","system_id":"levelo_inurba_marseille","lat":43.279195,"lon":5.37983,"is_reserved":false,"is_disabled":false,"rental_uris":{"android":"levelo://app?vid=38e70852-2f7a-4b34-a55f-7175aa6a06f9","ios":"levelo://app?vid=38e70852-2f7a-4b34-a55f-7175aa6a06f9"},"vehicle_type_id":"4","last_reported":1752311428,"current_range_meters":17600,"station_id":"ce4bhf92rcd13ifvqf50","pricing_plan_id":"cebpf4jnsgd1na2vs0mg"},{"bike_id":"df87bdcd-46a7-4b0e-8da7-fe811f9445f8","system_id":"levelo_inurba_marseille","lat":43.270616,"lon":5.402621,"is_reserved":false,"is_disabled":false,"rental_uris":{"android":"levelo://app?vid=df87bdcd-46a7-4b0e-8da7-fe811f9445f8","ios":"levelo://app?vid=df87bdcd-46a7-4b0e-8da7-fe811f9445f8"},"vehicle_type_id":"4","last_reported":1752311428,"current_range_meters":17600,"station_id":"ce4bhk92rcd13ifvqgc0","pricing_plan_id":"cebpf4jnsgd1na2vs0mg"},{"bike_id":"5654660c-2254-4b6a-8901-f14ecd459246","system_id":"levelo_inurba_marseille","lat":43.31126,"lon":5.3776,"is_reserved":false,"is_disabled":false,"rental_uris":{"android":"levelo://app?vid=5654660c-2254-4b6a-8901-f14ecd459246","ios":"levelo://app?vid=5654660c-2254-4b6a-8901-f14ecd459246"},"vehicle_type_id":"4","last_reported":1752311428,"current_range_meters":17600,"station_id":"ce4bgt92rcd13ifvqcg0","pricing_plan_id":"cebpf4jnsgd1na2vs0mg"},{"bike_id":"715646cc-87aa-466c-a34b-df843b8622d4","system_id":"levelo_inurba_marseille","lat":43.29565,"lon":5.37504,"is_reserved":false,"is_disabled":false,"rental_uris":{"android":"levelo://app?vid=715646cc-87aa-466c-a34b-df843b8622d4","ios":"levelo://app?vid=715646cc-87aa-466c-a34b-df843b8622d4"},"vehicle_type_id":"4","last_reported":1752311428,"current_range_meters":17600,"station_id":"ce4bgh92rcd13ifvqb50","pricing_plan_id":"cebpf4jnsgd1na2vs0mg"},{"bike_id":"8b37f03f-f226-4bbc-8648-b109da7ba145","system_id":"levelo_inurba_marseille","lat":43.30536,"lon":5.366999,"is_reserved":false,"is_disabled":false,"rental_uris":{"android":"levelo://app?vid=8b37f03f-f226-4bbc-8648-b109da7ba145","ios":"levelo://app?vid=8b37f03f-f226-4bbc-8648-b109da7ba145"},"vehicle_type_id":"4","last_reported":1752311428,"current_range_meters":17600,"station_id":"","pricing_plan_id":"cebpf4jnsgd1na2vs0mg"},{"bike_id":"290c965b-6f25-4243-bffb-d97240076fb5","system_id":"levelo_inurba_marseille","lat":43.29913,"lon":5.3814,"is_reserved":false,"is_disabled":false,"rental_uris":{"android":"levelo://app?vid=290c965b-6f25-4243-bffb-d97240076fb5","ios":"levelo://app?vid=290c965b-6f25-4243-bffb-d97240076fb5"},"vehicle_type_id":"4","last_reported":1752311428,"current_range_meters":17600,"station_id":"ce4bgj12rcd13ifvqbc0","pricing_plan_id":"cebpf4jnsgd1na2vs0mg"},{"bike_id":"9b1632ff-78e6-40e5-849e-fdb21022303e","system_id":"levelo_inurba_marseille","lat":43.30279,"lon":5.36871,"is_reserved":false,"is_disabled":true,"rental_uris":{"android":"levelo://app?vid=9b1632ff-78e6-40e5-849e-fdb21022303e","ios":"levelo://app?vid=9b1632ff-78e6-40e5-849e-fdb21022303e"},"vehicle_type_id":"4","last_reported":1752311428,"current_range_meters":17600,"station_id":"ce4bgqh2rcd13ifvqc5g","pricing_plan_id":"cebpf4jnsgd1na2vs0mg"},{"bike_id":"775fc0d3-6cde-492b-b703-b78970571f1a","system_id":"levelo_inurba_marseille","lat":43.323601,"lon":5.367501,"is_reserved":false,"is_disabled":false,"rental_uris":{"android":"levelo://app?vid=775fc0d3-6cde-492b-b703-b78970571f1a","ios":"levelo://app?vid=775fc0d3-6cde-492b-b703-b78970571f1a"},"vehicle_type_id":"4","last_reported":1752311428,"current_range_meters":18000,"station_id":"ce4bhsh2rcd13ifvqi2g","pricing_plan_id":"cebpf4jnsgd1na2vs0mg"},{"bike_id":"57692aae-9841-41ad-bc01-254866eaf8b0","system_id":"levelo_inurba_marseille","lat":43.323353,"lon":5.406137,"is_reserved":false,"is_disabled":false,"rental_uris":{"android":"levelo://app?vid=57692aae-9841-41ad-bc01-254866eaf8b0","ios":"levelo://app?vid=57692aae-9841-41ad-bc01-254866eaf8b0"},"vehicle_type_id":"4","last_reported":1752311428,"current_range_meters":18000,"station_id":"ce4bhq92rcd13ifvqhjg","pricing_plan_id":"cebpf4jnsgd1na2vs0mg"},{"bike_id":"15c005ca-52e7-4b89-8afe-4bc56f68590a","system_id":"levelo_inurba_marseille","lat":43.265641,"lon":5.390087,"is_reserved":false,"is_disabled":false,"rental_uris":{"android":"levelo://app?vid=15c005ca-52e7-4b89-8afe-4bc56f68590a","ios":"levelo://app?vid=15c005ca-52e7-4b89-8afe-4bc56f68590a"},"vehicle_type_id":"4","last_reported":1752311428,"current_range_meters":18000,"station_id":"ce4bhe12rcd13ifvqf30","pricing_plan_id":"cebpf4jnsgd1na2vs0mg"},{"bike_id":"e3d4efbc-af94-4032-99e1-bb291a0bd07c","system_id":"levelo_inurba_marseille","lat":43.28266,"lon":5.35059,"is_reserved":false,"is_disabled":false,"rental_uris":{"android":"levelo://app?vid=e3d4efbc-af94-4032-99e1-bb291a0bd07c","ios":"levelo://app?vid=e3d4efbc-af94-4032-99e1-bb291a0bd07c"},"vehicle_type_id":"4","last_reported":1752311428,"current_range_meters":18000,"station_id":"ce4bhbp2rcd13ifvqerg","pricing_plan_id":"cebpf4jnsgd1na2vs0mg"},{"bike_id":"b59e51ca-d910-4846-ae9d-c6b0b3ae1ac3","system_id":"levelo_inurba_marseille","lat":43.283201,"lon":5.350377,"is_reserved":false,"is_disabled":false,"rental_uris":{"android":"levelo://app?vid=b59e51ca-d910-4846-ae9d-c6b0b3ae1ac3","ios":"levelo://app?vid=b59e51ca-d910-4846-ae9d-c6b0b3ae1ac3"},"vehicle_type_id":"4","last_reported":1752311428,"current_range_meters":18000,"station_id":"","pricing_plan_id":"cebpf4jnsgd1na2vs0mg"},{"bike_id":"f23760ff-ab61-4853-aa67-28aac93822c1","system_id":"levelo_inurba_marseille","lat":43.337444,"lon":5.374475,"is_reserved":false,"is_disabled":false,"rental_uris":{"android":"levelo://app?vid=f23760ff-ab61-4853-aa67-28aac93822c1","ios":"levelo://app?vid=f23760ff-ab61-4853-aa67-28aac93822c1"},"vehicle_type_id":"4","last_reported":1752311428,"current_range_meters":18000,"station_id":"","pricing_plan_id":"cebpf4jnsgd1na2vs0mg"},{"bike_id":"d799b321-3a7d-4201-b46e-ffe2ad124f19","system_id":"levelo_inurba_marseille","lat":43.328831,"lon":5.383914,"is_reserved":false,"is_disabled":false,"rental_uris":{"android":"levelo://app?vid=d799b321-3a7d-4201-b46e-ffe2ad124f19","ios":"levelo://app?vid=d799b321-3a7d-4201-b46e-ffe2ad124f19"},"vehicle_type_id":"4","last_reported":1752311428,"current_range_meters":18000,"station_id":"","pricing_plan_id":"cebpf4jnsgd1na2vs0mg"},{"bike_id":"3b1bb547-4fa9-4d14-874f-2f58aa774d5a","system_id":"levelo_inurba_marseille","lat":43.29783,"lon":5.38097,"is_reserved":false,"is_disabled":false,"rental_uris":{"android":"levelo://app?vid=3b1bb547-4fa9-4d14-874f-2f58aa774d5a","ios":"levelo://app?vid=3b1bb547-4fa9-4d14-874f-2f58aa774d5a"},"vehicle_type_id":"4","last_reported":1752311428,"current_range_meters":18800,"station_id":"ce4bgip2rcd13ifvqbb0","pricing_plan_id":"cebpf4jnsgd1na2vs0mg"},{"bike_id":"844b44b6-4e33-4917-878d-a3c647561239","system_id":"levelo_inurba_marseille","lat":43.307409,"lon":5.424379,"is_reserved":false,"is_disabled":false,"rental_uris":{"android":"levelo://app?vid=844b44b6-4e33-4917-878d-a3c647561239","ios":"levelo://app?vid=844b44b6-4e33-4917-878d-a3c647561239"},"vehicle_type_id":"4","last_reported":1752311428,"current_range_meters":18800,"station_id":"st_cvj6ca6bvosntc0bfgr0","pricing_plan_id":"cebpf4jnsgd1na2vs0mg"},{"bike_id":"4b8da722-ee9e-48a4-a5e5-3a8a10364708","system_id":"levelo_inurba_marseille","lat":43.312379,"lon":5.378066,"is_reserved":false,"is_disabled":false,"rental_uris":{"android":"levelo://app?vid=4b8da722-ee9e-48a4-a5e5-3a8a10364708","ios":"levelo://app?vid=4b8da722-ee9e-48a4-a5e5-3a8a10364708"},"vehicle_type_id":"4","last_reported":1752311428,"current_range_meters":18800,"station_id":"","pricing_plan_id":"cebpf4jnsgd1na2vs0mg"},{"bike_id":"69dedae8-597d-4522-bb45-e72359daf0af","system_id":"levelo_inurba_marseille","lat":43.29198,"lon":5.35788,"is_reserved":false,"is_disabled":false,"rental_uris":{"android":"levelo://app?vid=69dedae8-597d-4522-bb45-e72359daf0af","ios":"levelo://app?vid=69dedae8-597d-4522-bb45-e72359daf0af"},"vehicle_type_id":"4","last_reported":1752311428,"current_range_meters":18800,"station_id":"ce4bhb12rcd13ifvqel0","pricing_plan_id":"cebpf4jnsgd1na2vs0mg"},{"bike_id":"5af35bc3-c835-45dc-8089-0d78e9c38b02","system_id":"levelo_inurba_marseille","lat":43.27894,"lon":5.38011,"is_reserved":false,"is_disabled":false,"rental_uris":{"android":"levelo://app?vid=5af35bc3-c835-45dc-8089-0d78e9c38b02","ios":"levelo://app?vid=5af35bc3-c835-45dc-8089-0d78e9c38b02"},"vehicle_type_id":"4","last_reported":1752311428,"current_range_meters":18800,"station_id":"ce4bhf92rcd13ifvqf50","pricing_plan_id":"cebpf4jnsgd1na2vs0mg"},{"bike_id":"b5024860-6305-4a3f-8a17-0f3b02209fb0","system_id":"levelo_inurba_marseille","lat":43.2737,"lon":5.36257,"is_reserved":false,"is_disabled":false,"rental_uris":{"android":"levelo://app?vid=b5024860-6305-4a3f-8a17-0f3b02209fb0","ios":"levelo://app?vid=b5024860-6305-4a3f-8a17-0f3b02209fb0"},"vehicle_type_id":"4","last_reported":1752311428,"current_range_meters":18800,"station_id":"ce4bhbh2rcd13ifvqeo0","pricing_plan_id":"cebpf4jnsgd1na2vs0mg"},{"bike_id":"e817dbcf-1eb6-4edb-9c23-a648f327672e","system_id":"levelo_inurba_marseille","lat":43.303279,"lon":5.40432,"is_reserved":false,"is_disabled":false,"rental_uris":{"android":"levelo://app?vid=e817dbcf-1eb6-4edb-9c23-a648f327672e","ios":"levelo://app?vid=e817dbcf-1eb6-4edb-9c23-a648f327672e"},"vehicle_type_id":"4","last_reported":1752311428,"current_range_meters":18800,"station_id":"ce4bh012rcd13ifvqd10","pricing_plan_id":"cebpf4jnsgd1na2vs0mg"},{"bike_id":"ab0db082-fdfd-4708-82b8-7dbd42565be4","system_id":"levelo_inurba_marseille","lat":43.29744,"lon":5.37699,"is_reserved":false,"is_disabled":false,"rental_uris":{"android":"levelo://app?vid=ab0db082-fdfd-4708-82b8-7dbd42565be4","ios":"levelo://app?vid=ab0db082-fdfd-4708-82b8-7dbd42565be4"},"vehicle_type_id":"4","last_reported":1752311428,"current_range_meters":19200,"station_id":"ce4bgkh2rcd13ifvqbl0","pricing_plan_id":"cebpf4jnsgd1na2vs0mg"},{"bike_id":"6d3f299a-d341-49bc-a1f9-7534528d9b67","system_id":"levelo_inurba_marseille","lat":43.23186,"lon":5.355572,"is_reserved":false,"is_disabled":false,"rental_uris":{"android":"levelo://app?vid=6d3f299a-d341-49bc-a1f9-7534528d9b67","ios":"levelo://app?vid=6d3f299a-d341-49bc-a1f9-7534528d9b67"},"vehicle_type_id":"4","last_reported":1752311428,"current_range_meters":19200,"station_id":"ce4bhu92rcd13ifvqi70","pricing_plan_id":"cebpf4jnsgd1na2vs0mg"},{"bike_id":"14b914a7-ac81-4524-a358-77b861ff3535","system_id":"levelo_inurba_marseille","lat":43.276178,"lon":5.360999,"is_reserved":false,"is_disabled":false,"rental_uris":{"android":"levelo://app?vid=14b914a7-ac81-4524-a358-77b861ff3535","ios":"levelo://app?vid=14b914a7-ac81-4524-a358-77b861ff3535"},"vehicle_type_id":"4","last_reported":1752311428,"current_range_meters":19200,"station_id":"ce4bgj92rcd13ifvqbe0","pricing_plan_id":"cebpf4jnsgd1na2vs0mg"},{"bike_id":"4c27c3e3-fe82-40e3-8934-83ff0d56d546","system_id":"levelo_inurba_marseille","lat":43.27205,"lon":5.3919,"is_reserved":false,"is_disabled":false,"rental_uris":{"android":"levelo://app?vid=4c27c3e3-fe82-40e3-8934-83ff0d56d546","ios":"levelo://app?vid=4c27c3e3-fe82-40e3-8934-83ff0d56d546"},"vehicle_type_id":"4","last_reported":1752311428,"current_range_meters":19600,"station_id":"ce4bhhp2rcd13ifvqfm0","pricing_plan_id":"cebpf4jnsgd1na2vs0mg"},{"bike_id":"ece5e006-0a29-4a34-88d5-2dde675964aa","system_id":"levelo_inurba_marseille","lat":43.27614,"lon":5.36105,"is_reserved":false,"is_disabled":false,"rental_uris":{"android":"levelo://app?vid=ece5e006-0a29-4a34-88d5-2dde675964aa","ios":"levelo://app?vid=ece5e006-0a29-4a34-88d5-2dde675964aa"},"vehicle_type_id":"4","last_reported":1752311428,"current_range_meters":19600,"station_id":"ce4bgj92rcd13ifvqbe0","pricing_plan_id":"cebpf4jnsgd1na2vs0mg"},{"bike_id":"1f344a7b-4f89-43c4-8fb0-53c9e4bb21b4","system_id":"levelo_inurba_marseille","lat":43.281347,"lon":5.378418,"is_reserved":false,"is_disabled":false,"rental_uris":{"android":"levelo://app?vid=1f344a7b-4f89-43c4-8fb0-53c9e4bb21b4","ios":"levelo://app?vid=1f344a7b-4f89-43c4-8fb0-53c9e4bb21b4"},"vehicle_type_id":"4","last_reported":1752311428,"current_range_meters":19600,"station_id":"ce4bha12rcd13ifvqee0","pricing_plan_id":"cebpf4jnsgd1na2vs0mg"},{"bike_id":"f9924005-c8ac-4086-8e25-9a21391f65ea","system_id":"levelo_inurba_marseille","lat":43.211924,"lon":5.350742,"is_reserved":false,"is_disabled":false,"rental_uris":{"android":"levelo://app?vid=f9924005-c8ac-4086-8e25-9a21391f65ea","ios":"levelo://app?vid=f9924005-c8ac-4086-8e25-9a21391f65ea"},"vehicle_type_id":"4","last_reported":1752311428,"current_range_meters":19600,"station_id":"st_cvj6sg6p6f1abm77japg","pricing_plan_id":"cebpf4jnsgd1na2vs0mg"},{"bike_id":"f3f6aca3-1d1f-4204-a18d-bc749f9290cd","system_id":"levelo_inurba_marseille","lat":43.27313,"lon":5.39089,"is_reserved":false,"is_disabled":false,"rental_uris":{"android":"levelo://app?vid=f3f6aca3-1d1f-4204-a18d-bc749f9290cd","ios":"levelo://app?vid=f3f6aca3-1d1f-4204-a18d-bc749f9290cd"},"vehicle_type_id":"4","last_reported":1752311428,"current_range_meters":19600,"station_id":"ce4bhgp2rcd13ifvqfe0","pricing_plan_id":"cebpf4jnsgd1na2vs0mg"},{"bike_id":"2afd10ce-5f23-4122-9c7a-a3416be941b2","system_id":"levelo_inurba_marseille","lat":43.26023,"lon":5.37553,"is_reserved":false,"is_disabled":true,"rental_uris":{"android":"levelo://app?vid=2afd10ce-5f23-4122-9c7a-a3416be941b2","ios":"levelo://app?vid=2afd10ce-5f23-4122-9c7a-a3416be941b2"},"vehicle_type_id":"4","last_reported":1752311428,"current_range_meters":19600,"station_id":"ce4bhgh2rcd13ifvqfa0","pricing_plan_id":"cebpf4jnsgd1na2vs0mg"},{"bike_id":"93736004-e478-41dc-b796-7360599bf429","system_id":"levelo_inurba_marseille","lat":43.32024,"lon":5.41596,"is_reserved":false,"is_disabled":false,"rental_uris":{"android":"levelo://app?vid=93736004-e478-41dc-b796-7360599bf429","ios":"levelo://app?vid=93736004-e478-41dc-b796-7360599bf429"},"vehicle_type_id":"4","last_reported":1752311428,"current_range_meters":19600,"station_id":"ce4bhq92rcd13ifvqhkg","pricing_plan_id":"cebpf4jnsgd1na2vs0mg"},{"bike_id":"d9d1fd9b-ea93-4b1d-b937-5a9fe33714df","system_id":"levelo_inurba_marseille","lat":43.23967,"lon":5.36625,"is_reserved":false,"is_disabled":false,"rental_uris":{"android":"levelo://app?vid=d9d1fd9b-ea93-4b1d-b937-5a9fe33714df","ios":"levelo://app?vid=d9d1fd9b-ea93-4b1d-b937-5a9fe33714df"},"vehicle_type_id":"4","last_reported":1752311428,"current_range_meters":19600,"station_id":"ce4bhi12rcd13ifvqfp0","pricing_plan_id":"cebpf4jnsgd1na2vs0mg"},{"bike_id":"ff1ed8a6-afd3-4511-b6b3-6d5a7ac17c15","system_id":"levelo_inurba_marseille","lat":43.29268,"lon":5.38434,"is_reserved":false,"is_disabled":false,"rental_uris":{"android":"levelo://app?vid=ff1ed8a6-afd3-4511-b6b3-6d5a7ac17c15","ios":"levelo://app?vid=ff1ed8a6-afd3-4511-b6b3-6d5a7ac17c15"},"vehicle_type_id":"4","last_reported":1752311428,"current_range_meters":19600,"station_id":"ce4bh692rcd13ifvqea0","pricing_plan_id":"cebpf4jnsgd1na2vs0mg"},{"bike_id":"c1e31621-0aed-4b5e-af3d-40677b8cf3e0","system_id":"levelo_inurba_marseille","lat":43.29289,"lon":5.37174,"is_reserved":false,"is_disabled":false,"rental_uris":{"android":"levelo://app?vid=c1e31621-0aed-4b5e-af3d-40677b8cf3e0","ios":"levelo://app?vid=c1e31621-0aed-4b5e-af3d-40677b8cf3e0"},"vehicle_type_id":"4","last_reported":1752311428,"current_range_meters":19600,"station_id":"ce4bgh92rcd13ifvqb40","pricing_plan_id":"cebpf4jnsgd1na2vs0mg"},{"bike_id":"9a528605-0b52-4994-a68e-4fc2897376c0","system_id":"levelo_inurba_marseille","lat":43.281028,"lon":5.351882,"is_reserved":false,"is_disabled":false,"rental_uris":{"android":"levelo://app?vid=9a528605-0b52-4994-a68e-4fc2897376c0","ios":"levelo://app?vid=9a528605-0b52-4994-a68e-4fc2897376c0"},"vehicle_type_id":"4","last_reported":1752311428,"current_range_meters":19200,"station_id":"cki0cbj6b192h4jlfktg","pricing_plan_id":"cebpf4jnsgd1na2vs0mg"},{"bike_id":"2789363d-6c32-4f54-a6f0-e032059a9c8e","system_id":"levelo_inurba_marseille","lat":43.24391,"lon":5.37047,"is_reserved":false,"is_disabled":false,"rental_uris":{"android":"levelo://app?vid=2789363d-6c32-4f54-a6f0-e032059a9c8e","ios":"levelo://app?vid=2789363d-6c32-4f54-a6f0-e032059a9c8e"},"vehicle_type_id":"4","last_reported":1752311428,"current_range_meters":20000,"station_id":"ce4bhhh2rcd13ifvqfk0","pricing_plan_id":"cebpf4jnsgd1na2vs0mg"},{"bike_id":"81a7968c-76d4-40a6-9015-2ce2ddcae4c6","system_id":"levelo_inurba_marseille","lat":43.28431,"lon":5.39177,"is_reserved":false,"is_disabled":false,"rental_uris":{"android":"levelo://app?vid=81a7968c-76d4-40a6-9015-2ce2ddcae4c6","ios":"levelo://app?vid=81a7968c-76d4-40a6-9015-2ce2ddcae4c6"},"vehicle_type_id":"4","last_reported":1752311428,"current_range_meters":20000,"station_id":"ce4bhoh2rcd13ifvqh5g","pricing_plan_id":"cebpf4jnsgd1na2vs0mg"},{"bike_id":"824b8412-1a99-450d-813a-99b79e58b295","system_id":"levelo_inurba_marseille","lat":43.24183,"lon":5.39724,"is_reserved":false,"is_disabled":false,"rental_uris":{"android":"levelo://app?vid=824b8412-1a99-450d-813a-99b79e58b295","ios":"levelo://app?vid=824b8412-1a99-450d-813a-99b79e58b295"},"vehicle_type_id":"4","last_reported":1752311428,"current_range_meters":20000,"station_id":"ce4bhn12rcd13ifvqgpg","pricing_plan_id":"cebpf4jnsgd1na2vs0mg"},{"bike_id":"71ffafe8-ba4f-4329-9795-1b18b71c34dd","system_id":"levelo_inurba_marseille","lat":43.297773,"lon":5.371023,"is_reserved":false,"is_disabled":false,"rental_uris":{"android":"levelo://app?vid=71ffafe8-ba4f-4329-9795-1b18b71c34dd","ios":"levelo://app?vid=71ffafe8-ba4f-4329-9795-1b18b71c34dd"},"vehicle_type_id":"4","last_reported":1752311428,"current_range_meters":20400,"station_id":"ce4bgop2rcd13ifvqc1g","pricing_plan_id":"cebpf4jnsgd1na2vs0mg"},{"bike_id":"9b40dc73-509b-4d2f-8a27-44696719b175","system_id":"levelo_inurba_marseille","lat":43.27066,"lon":5.422751,"is_reserved":false,"is_disabled":false,"rental_uris":{"android":"levelo://app?vid=9b40dc73-509b-4d2f-8a27-44696719b175","ios":"levelo://app?vid=9b40dc73-509b-4d2f-8a27-44696719b175"},"vehicle_type_id":"4","last_reported":1752311428,"current_range_meters":20400,"station_id":"ce4bhk92rcd13ifvqgb0","pricing_plan_id":"cebpf4jnsgd1na2vs0mg"},{"bike_id":"d2eb7848-4e16-492e-bb2e-34b216f30c20","system_id":"levelo_inurba_marseille","lat":43.25939,"lon":5.40899,"is_reserved":false,"is_disabled":false,"rental_uris":{"android":"levelo://app?vid=d2eb7848-4e16-492e-bb2e-34b216f30c20","ios":"levelo://app?vid=d2eb7848-4e16-492e-bb2e-34b216f30c20"},"vehicle_type_id":"4","last_reported":1752311428,"current_range_meters":20400,"station_id":"ce4bhm92rcd13ifvqglg","pricing_plan_id":"cebpf4jnsgd1na2vs0mg"},{"bike_id":"c6a8feb4-6823-4a2b-9599-dbfcc793a999","system_id":"levelo_inurba_marseille","lat":43.29263,"lon":5.37618,"is_reserved":false,"is_disabled":false,"rental_uris":{"android":"levelo://app?vid=c6a8feb4-6823-4a2b-9599-dbfcc793a999","ios":"levelo://app?vid=c6a8feb4-6823-4a2b-9599-dbfcc793a999"},"vehicle_type_id":"4","last_reported":1752311428,"current_range_meters":20400,"station_id":"ce4bgi12rcd13ifvqb80","pricing_plan_id":"cebpf4jnsgd1na2vs0mg"},{"bike_id":"f4adc888-1d0c-4cb0-b124-c2e19b6bb478","system_id":"levelo_inurba_marseille","lat":43.29785,"lon":5.39332,"is_reserved":false,"is_disabled":false,"rental_uris":{"android":"levelo://app?vid=f4adc888-1d0c-4cb0-b124-c2e19b6bb478","ios":"levelo://app?vid=f4adc888-1d0c-4cb0-b124-c2e19b6bb478"},"vehicle_type_id":"4","last_reported":1752311428,"current_range_meters":21600,"station_id":"chh1huq6cuj3fo74tm60","pricing_plan_id":"cebpf4jnsgd1na2vs0mg"},{"bike_id":"45be3528-fd16-498e-8434-e30e29d5ac2e","system_id":"levelo_inurba_marseille","lat":43.30385,"lon":5.39803,"is_reserved":false,"is_disabled":false,"rental_uris":{"android":"levelo://app?vid=45be3528-fd16-498e-8434-e30e29d5ac2e","ios":"levelo://app?vid=45be3528-fd16-498e-8434-e30e29d5ac2e"},"vehicle_type_id":"4","last_reported":1752311428,"current_range_meters":20400,"station_id":"","pricing_plan_id":"cebpf4jnsgd1na2vs0mg"},{"bike_id":"2d5ece50-7b5e-4b8c-b259-cb04f9b7d133","system_id":"levelo_inurba_marseille","lat":43.31367,"lon":5.38504,"is_reserved":false,"is_disabled":false,"rental_uris":{"android":"levelo://app?vid=2d5ece50-7b5e-4b8c-b259-cb04f9b7d133","ios":"levelo://app?vid=2d5ece50-7b5e-4b8c-b259-cb04f9b7d133"},"vehicle_type_id":"4","last_reported":1752311428,"current_range_meters":20400,"station_id":"ce4bgt92rcd13ifvqcf0","pricing_plan_id":"cebpf4jnsgd1na2vs0mg"},{"bike_id":"f3920e43-5359-4ba5-9398-633199474bc3","system_id":"levelo_inurba_marseille","lat":43.28262,"lon":5.35065,"is_reserved":false,"is_disabled":false,"rental_uris":{"android":"levelo://app?vid=f3920e43-5359-4ba5-9398-633199474bc3","ios":"levelo://app?vid=f3920e43-5359-4ba5-9398-633199474bc3"},"vehicle_type_id":"4","last_reported":1752311428,"current_range_meters":20400,"station_id":"ce4bhbp2rcd13ifvqerg","pricing_plan_id":"cebpf4jnsgd1na2vs0mg"},{"bike_id":"fd6c4217-5929-42da-9fd9-3bbad6bf9407","system_id":"levelo_inurba_marseille","lat":43.289185,"lon":5.363135,"is_reserved":false,"is_disabled":false,"rental_uris":{"android":"levelo://app?vid=fd6c4217-5929-42da-9fd9-3bbad6bf9407","ios":"levelo://app?vid=fd6c4217-5929-42da-9fd9-3bbad6bf9407"},"vehicle_type_id":"4","last_reported":1752311428,"current_range_meters":20400,"station_id":"ce4bgi92rcd13ifvqb90","pricing_plan_id":"cebpf4jnsgd1na2vs0mg"},{"bike_id":"d7d6748e-e852-44df-b754-a9bb0cf3809a","system_id":"levelo_inurba_marseille","lat":43.27213,"lon":5.3918,"is_reserved":false,"is_disabled":false,"rental_uris":{"android":"levelo://app?vid=d7d6748e-e852-44df-b754-a9bb0cf3809a","ios":"levelo://app?vid=d7d6748e-e852-44df-b754-a9bb0cf3809a"},"vehicle_type_id":"4","last_reported":1752311428,"current_range_meters":20400,"station_id":"ce4bhhp2rcd13ifvqfm0","pricing_plan_id":"cebpf4jnsgd1na2vs0mg"},{"bike_id":"b0d287de-31cc-418d-96f5-7793e69b69f0","system_id":"levelo_inurba_marseille","lat":43.29628,"lon":5.40593,"is_reserved":false,"is_disabled":false,"rental_uris":{"android":"levelo://app?vid=b0d287de-31cc-418d-96f5-7793e69b69f0","ios":"levelo://app?vid=b0d287de-31cc-418d-96f5-7793e69b69f0"},"vehicle_type_id":"4","last_reported":1752311428,"current_range_meters":20800,"station_id":"ce4bh0h2rcd13ifvqd60","pricing_plan_id":"cebpf4jnsgd1na2vs0mg"},{"bike_id":"02c71304-9c4f-4ebf-b265-2eb94afb5a95","system_id":"levelo_inurba_marseille","lat":43.30932,"lon":5.36832,"is_reserved":false,"is_disabled":false,"rental_uris":{"android":"levelo://app?vid=02c71304-9c4f-4ebf-b265-2eb94afb5a95","ios":"levelo://app?vid=02c71304-9c4f-4ebf-b265-2eb94afb5a95"},"vehicle_type_id":"4","last_reported":1752311428,"current_range_meters":20800,"station_id":"","pricing_plan_id":"cebpf4jnsgd1na2vs0mg"},{"bike_id":"9744cd78-2d0c-4154-a13e-58419ebabfaf","system_id":"levelo_inurba_marseille","lat":43.284182,"lon":5.349787,"is_reserved":false,"is_disabled":false,"rental_uris":{"android":"levelo://app?vid=9744cd78-2d0c-4154-a13e-58419ebabfaf","ios":"levelo://app?vid=9744cd78-2d0c-4154-a13e-58419ebabfaf"},"vehicle_type_id":"4","last_reported":1752311428,"current_range_meters":20800,"station_id":"ce4bhbh2rcd13ifvqepg","pricing_plan_id":"cebpf4jnsgd1na2vs0mg"},{"bike_id":"df334c44-58f2-4d6b-887a-841af577ad4c","system_id":"levelo_inurba_marseille","lat":43.27572,"lon":5.3842,"is_reserved":false,"is_disabled":false,"rental_uris":{"android":"levelo://app?vid=df334c44-58f2-4d6b-887a-841af577ad4c","ios":"levelo://app?vid=df334c44-58f2-4d6b-887a-841af577ad4c"},"vehicle_type_id":"4","last_reported":1752311428,"current_range_meters":20800,"station_id":"ce4bhh92rcd13ifvqfi0","pricing_plan_id":"cebpf4jnsgd1na2vs0mg"},{"bike_id":"7f8239f6-49ce-42e0-a2e5-983000e48522","system_id":"levelo_inurba_marseille","lat":43.251183,"lon":5.403226,"is_reserved":false,"is_disabled":false,"rental_uris":{"android":"levelo://app?vid=7f8239f6-49ce-42e0-a2e5-983000e48522","ios":"levelo://app?vid=7f8239f6-49ce-42e0-a2e5-983000e48522"},"vehicle_type_id":"4","last_reported":1752311428,"current_range_meters":20800,"station_id":"ce4bhlh2rcd13ifvqgig","pricing_plan_id":"cebpf4jnsgd1na2vs0mg"},{"bike_id":"2ccd333c-f759-4948-9054-2b566c58b860","system_id":"levelo_inurba_marseille","lat":43.26779,"lon":5.3941,"is_reserved":false,"is_disabled":false,"rental_uris":{"android":"levelo://app?vid=2ccd333c-f759-4948-9054-2b566c58b860","ios":"levelo://app?vid=2ccd333c-f759-4948-9054-2b566c58b860"},"vehicle_type_id":"4","last_reported":1752311428,"current_range_meters":20800,"station_id":"ce4bhh12rcd13ifvqfg0","pricing_plan_id":"cebpf4jnsgd1na2vs0mg"},{"bike_id":"e3e456c4-b90b-4273-a549-897888733807","system_id":"levelo_inurba_marseille","lat":43.33022,"lon":5.39035,"is_reserved":false,"is_disabled":false,"rental_uris":{"android":"levelo://app?vid=e3e456c4-b90b-4273-a549-897888733807","ios":"levelo://app?vid=e3e456c4-b90b-4273-a549-897888733807"},"vehicle_type_id":"4","last_reported":1752311428,"current_range_meters":21600,"station_id":"ce4bhr92rcd13ifvqhrg","pricing_plan_id":"cebpf4jnsgd1na2vs0mg"},{"bike_id":"97813398-8763-4445-9799-feec1e735ad7","system_id":"levelo_inurba_marseille","lat":43.29272,"lon":5.38429,"is_reserved":false,"is_disabled":false,"rental_uris":{"android":"levelo://app?vid=97813398-8763-4445-9799-feec1e735ad7","ios":"levelo://app?vid=97813398-8763-4445-9799-feec1e735ad7"},"vehicle_type_id":"4","last_reported":1752311428,"current_range_meters":22000,"station_id":"ce4bh692rcd13ifvqea0","pricing_plan_id":"cebpf4jnsgd1na2vs0mg"},{"bike_id":"37e04037-4751-45cc-9e56-db1728107dad","system_id":"levelo_inurba_marseille","lat":43.311166,"lon":5.377573,"is_reserved":false,"is_disabled":false,"rental_uris":{"android":"levelo://app?vid=37e04037-4751-45cc-9e56-db1728107dad","ios":"levelo://app?vid=37e04037-4751-45cc-9e56-db1728107dad"},"vehicle_type_id":"4","last_reported":1752311428,"current_range_meters":22000,"station_id":"ce4bgt92rcd13ifvqcg0","pricing_plan_id":"cebpf4jnsgd1na2vs0mg"},{"bike_id":"80706ed8-34fd-4666-9e3e-8aacbb0a19ea","system_id":"levelo_inurba_marseille","lat":43.267966,"lon":5.402679,"is_reserved":false,"is_disabled":true,"rental_uris":{"android":"levelo://app?vid=80706ed8-34fd-4666-9e3e-8aacbb0a19ea","ios":"levelo://app?vid=80706ed8-34fd-4666-9e3e-8aacbb0a19ea"},"vehicle_type_id":"4","last_reported":1752311428,"current_range_meters":22000,"station_id":"ce501612rcd8frsf0b60","pricing_plan_id":"cebpf4jnsgd1na2vs0mg"},{"bike_id":"892d9537-e414-48b6-8dba-9b6e92ec4c4c","system_id":"levelo_inurba_marseille","lat":43.30609,"lon":5.37225,"is_reserved":false,"is_disabled":false,"rental_uris":{"android":"levelo://app?vid=892d9537-e414-48b6-8dba-9b6e92ec4c4c","ios":"levelo://app?vid=892d9537-e414-48b6-8dba-9b6e92ec4c4c"},"vehicle_type_id":"4","last_reported":1752311428,"current_range_meters":22400,"station_id":"ce4bgqh2rcd13ifvqc4g","pricing_plan_id":"cebpf4jnsgd1na2vs0mg"},{"bike_id":"f5a47db5-6fb2-46bd-a2de-efa4ad13bf60","system_id":"levelo_inurba_marseille","lat":43.21198,"lon":5.35072,"is_reserved":false,"is_disabled":false,"rental_uris":{"android":"levelo://app?vid=f5a47db5-6fb2-46bd-a2de-efa4ad13bf60","ios":"levelo://app?vid=f5a47db5-6fb2-46bd-a2de-efa4ad13bf60"},"vehicle_type_id":"4","last_reported":1752311428,"current_range_meters":22400,"station_id":"st_cvj6sg6p6f1abm77japg","pricing_plan_id":"cebpf4jnsgd1na2vs0mg"},{"bike_id":"579c9257-e9d2-4fed-8af3-001a27548604","system_id":"levelo_inurba_marseille","lat":43.21754,"lon":5.345983,"is_reserved":false,"is_disabled":false,"rental_uris":{"android":"levelo://app?vid=579c9257-e9d2-4fed-8af3-001a27548604","ios":"levelo://app?vid=579c9257-e9d2-4fed-8af3-001a27548604"},"vehicle_type_id":"4","last_reported":1752311428,"current_range_meters":22400,"station_id":"st_cvj6r9ubvosntc0bgbag","pricing_plan_id":"cebpf4jnsgd1na2vs0mg"},{"bike_id":"58375fde-ca97-4dab-be52-59caf98323d3","system_id":"levelo_inurba_marseille","lat":43.26547,"lon":5.37286,"is_reserved":false,"is_disabled":true,"rental_uris":{"android":"levelo://app?vid=58375fde-ca97-4dab-be52-59caf98323d3","ios":"levelo://app?vid=58375fde-ca97-4dab-be52-59caf98323d3"},"vehicle_type_id":"4","last_reported":1752311428,"current_range_meters":22400,"station_id":"ce4bhg12rcd13ifvqf70","pricing_plan_id":"cebpf4jnsgd1na2vs0mg"},{"bike_id":"2711e2df-4467-499e-8fe3-b15ecca6968c","system_id":"levelo_inurba_marseille","lat":43.30647,"lon":5.40071,"is_reserved":false,"is_disabled":false,"rental_uris":{"android":"levelo://app?vid=2711e2df-4467-499e-8fe3-b15ecca6968c","ios":"levelo://app?vid=2711e2df-4467-499e-8fe3-b15ecca6968c"},"vehicle_type_id":"4","last_reported":1752311428,"current_range_meters":22400,"station_id":"ce4bh112rcd13ifvqda0","pricing_plan_id":"cebpf4jnsgd1na2vs0mg"},{"bike_id":"ba53c475-2871-4ed1-aac6-393af4be99a3","system_id":"levelo_inurba_marseille","lat":43.28271,"lon":5.35074,"is_reserved":false,"is_disabled":false,"rental_uris":{"android":"levelo://app?vid=ba53c475-2871-4ed1-aac6-393af4be99a3","ios":"levelo://app?vid=ba53c475-2871-4ed1-aac6-393af4be99a3"},"vehicle_type_id":"4","last_reported":1752311428,"current_range_meters":22400,"station_id":"ce4bhbp2rcd13ifvqerg","pricing_plan_id":"cebpf4jnsgd1na2vs0mg"},{"bike_id":"9bfc7d3d-4e60-4f8a-9c32-ef3d0e77ec5b","system_id":"levelo_inurba_marseille","lat":43.211935,"lon":5.350724,"is_reserved":false,"is_disabled":false,"rental_uris":{"android":"levelo://app?vid=9bfc7d3d-4e60-4f8a-9c32-ef3d0e77ec5b","ios":"levelo://app?vid=9bfc7d3d-4e60-4f8a-9c32-ef3d0e77ec5b"},"vehicle_type_id":"4","last_reported":1752311428,"current_range_meters":22400,"station_id":"st_cvj6sg6p6f1abm77japg","pricing_plan_id":"cebpf4jnsgd1na2vs0mg"},{"bike_id":"609ffeab-4227-47b2-ae4d-99829735125c","system_id":"levelo_inurba_marseille","lat":43.28259,"lon":5.35067,"is_reserved":false,"is_disabled":false,"rental_uris":{"android":"levelo://app?vid=609ffeab-4227-47b2-ae4d-99829735125c","ios":"levelo://app?vid=609ffeab-4227-47b2-ae4d-99829735125c"},"vehicle_type_id":"4","last_reported":1752311428,"current_range_meters":22800,"station_id":"ce4bhbp2rcd13ifvqerg","pricing_plan_id":"cebpf4jnsgd1na2vs0mg"},{"bike_id":"9f7a8926-fe00-41e0-80a0-ac3ffcc68741","system_id":"levelo_inurba_marseille","lat":43.24066,"lon":5.3775,"is_reserved":false,"is_disabled":false,"rental_uris":{"android":"levelo://app?vid=9f7a8926-fe00-41e0-80a0-ac3ffcc68741","ios":"levelo://app?vid=9f7a8926-fe00-41e0-80a0-ac3ffcc68741"},"vehicle_type_id":"4","last_reported":1752311428,"current_range_meters":22800,"station_id":"ce4bhnp2rcd13ifvqgvg","pricing_plan_id":"cebpf4jnsgd1na2vs0mg"},{"bike_id":"10666549-7ebc-45b0-9816-8cedb6235d7b","system_id":"levelo_inurba_marseille","lat":43.28606,"lon":5.37061,"is_reserved":false,"is_disabled":false,"rental_uris":{"android":"levelo://app?vid=10666549-7ebc-45b0-9816-8cedb6235d7b","ios":"levelo://app?vid=10666549-7ebc-45b0-9816-8cedb6235d7b"},"vehicle_type_id":"4","last_reported":1752311428,"current_range_meters":22800,"station_id":"ce4bht12rcd13ifvqi60","pricing_plan_id":"cebpf4jnsgd1na2vs0mg"},{"bike_id":"d2501d8a-17a4-488b-92ac-71df945193d6","system_id":"levelo_inurba_marseille","lat":43.270706,"lon":5.422758,"is_reserved":false,"is_disabled":false,"rental_uris":{"android":"levelo://app?vid=d2501d8a-17a4-488b-92ac-71df945193d6","ios":"levelo://app?vid=d2501d8a-17a4-488b-92ac-71df945193d6"},"vehicle_type_id":"4","last_reported":1752311428,"current_range_meters":22800,"station_id":"ce4bhk92rcd13ifvqgb0","pricing_plan_id":"cebpf4jnsgd1na2vs0mg"},{"bike_id":"0247cb1f-929b-4453-bddb-edb785c2f9e3","system_id":"levelo_inurba_marseille","lat":43.26554,"lon":5.37285,"is_reserved":false,"is_disabled":false,"rental_uris":{"android":"levelo://app?vid=0247cb1f-929b-4453-bddb-edb785c2f9e3","ios":"levelo://app?vid=0247cb1f-929b-4453-bddb-edb785c2f9e3"},"vehicle_type_id":"4","last_reported":1752311428,"current_range_meters":22800,"station_id":"ce4bhg12rcd13ifvqf70","pricing_plan_id":"cebpf4jnsgd1na2vs0mg"},{"bike_id":"a01707e1-5f4a-41bb-b355-802bf84b1c00","system_id":"levelo_inurba_marseille","lat":43.28474,"lon":5.38413,"is_reserved":false,"is_disabled":false,"rental_uris":{"android":"levelo://app?vid=a01707e1-5f4a-41bb-b355-802bf84b1c00","ios":"levelo://app?vid=a01707e1-5f4a-41bb-b355-802bf84b1c00"},"vehicle_type_id":"4","last_reported":1752311428,"current_range_meters":22800,"station_id":"ce4bh512rcd13ifvqe3g","pricing_plan_id":"cebpf4jnsgd1na2vs0mg"},{"bike_id":"cc6260c7-e588-42d7-afef-96c409802ccc","system_id":"levelo_inurba_marseille","lat":43.211944,"lon":5.350696,"is_reserved":false,"is_disabled":false,"rental_uris":{"android":"levelo://app?vid=cc6260c7-e588-42d7-afef-96c409802ccc","ios":"levelo://app?vid=cc6260c7-e588-42d7-afef-96c409802ccc"},"vehicle_type_id":"4","last_reported":1752311428,"current_range_meters":22800,"station_id":"st_cvj6sg6p6f1abm77japg","pricing_plan_id":"cebpf4jnsgd1na2vs0mg"},{"bike_id":"05646134-6914-494e-8d1c-40622b9209bf","system_id":"levelo_inurba_marseille","lat":43.2657,"lon":5.37284,"is_reserved":false,"is_disabled":false,"rental_uris":{"android":"levelo://app?vid=05646134-6914-494e-8d1c-40622b9209bf","ios":"levelo://app?vid=05646134-6914-494e-8d1c-40622b9209bf"},"vehicle_type_id":"4","last_reported":1752311428,"current_range_meters":22800,"station_id":"ce4bhg12rcd13ifvqf70","pricing_plan_id":"cebpf4jnsgd1na2vs0mg"},{"bike_id":"7b49c975-458d-4b6e-820c-0a946d3491f2","system_id":"levelo_inurba_marseille","lat":43.29153,"lon":5.37152,"is_reserved":false,"is_disabled":true,"rental_uris":{"android":"levelo://app?vid=7b49c975-458d-4b6e-820c-0a946d3491f2","ios":"levelo://app?vid=7b49c975-458d-4b6e-820c-0a946d3491f2"},"vehicle_type_id":"4","last_reported":1752311428,"current_range_meters":22800,"station_id":"","pricing_plan_id":"cebpf4jnsgd1na2vs0mg"},{"bike_id":"59ebe9c6-d38f-40e7-b9e3-ff0ad0884e86","system_id":"levelo_inurba_marseille","lat":43.30148,"lon":5.38082,"is_reserved":false,"is_disabled":false,"rental_uris":{"android":"levelo://app?vid=59ebe9c6-d38f-40e7-b9e3-ff0ad0884e86","ios":"levelo://app?vid=59ebe9c6-d38f-40e7-b9e3-ff0ad0884e86"},"vehicle_type_id":"4","last_reported":1752311428,"current_range_meters":23200,"station_id":"ce4bgjp2rcd13ifvqbh0","pricing_plan_id":"cebpf4jnsgd1na2vs0mg"},{"bike_id":"bab26f31-3a55-4980-8de3-473dac122244","system_id":"levelo_inurba_marseille","lat":43.29931,"lon":5.363347,"is_reserved":false,"is_disabled":false,"rental_uris":{"android":"levelo://app?vid=bab26f31-3a55-4980-8de3-473dac122244","ios":"levelo://app?vid=bab26f31-3a55-4980-8de3-473dac122244"},"vehicle_type_id":"4","last_reported":1752311428,"current_range_meters":23200,"station_id":"","pricing_plan_id":"cebpf4jnsgd1na2vs0mg"},{"bike_id":"9fc4a9a4-df65-4ffb-87a7-e95c9bee6d88","system_id":"levelo_inurba_marseille","lat":43.25071,"lon":5.39503,"is_reserved":false,"is_disabled":false,"rental_uris":{"android":"levelo://app?vid=9fc4a9a4-df65-4ffb-87a7-e95c9bee6d88","ios":"levelo://app?vid=9fc4a9a4-df65-4ffb-87a7-e95c9bee6d88"},"vehicle_type_id":"4","last_reported":1752311428,"current_range_meters":23200,"station_id":"","pricing_plan_id":"cebpf4jnsgd1na2vs0mg"},{"bike_id":"b6ba52ea-7577-43dd-ab97-dc2692767592","system_id":"levelo_inurba_marseille","lat":43.29575,"lon":5.37521,"is_reserved":false,"is_disabled":false,"rental_uris":{"android":"levelo://app?vid=b6ba52ea-7577-43dd-ab97-dc2692767592","ios":"levelo://app?vid=b6ba52ea-7577-43dd-ab97-dc2692767592"},"vehicle_type_id":"4","last_reported":1752311428,"current_range_meters":23200,"station_id":"ce4bgh92rcd13ifvqb50","pricing_plan_id":"cebpf4jnsgd1na2vs0mg"},{"bike_id":"c8c4de1a-846f-4f5b-aace-9fb14bf7ad52","system_id":"levelo_inurba_marseille","lat":43.211921,"lon":5.350712,"is_reserved":false,"is_disabled":false,"rental_uris":{"android":"levelo://app?vid=c8c4de1a-846f-4f5b-aace-9fb14bf7ad52","ios":"levelo://app?vid=c8c4de1a-846f-4f5b-aace-9fb14bf7ad52"},"vehicle_type_id":"4","last_reported":1752311428,"current_range_meters":23200,"station_id":"st_cvj6sg6p6f1abm77japg","pricing_plan_id":"cebpf4jnsgd1na2vs0mg"},{"bike_id":"e353d125-42eb-4e4e-bc42-af06ed67d8e5","system_id":"levelo_inurba_marseille","lat":43.29604,"lon":5.38098,"is_reserved":false,"is_disabled":false,"rental_uris":{"android":"levelo://app?vid=e353d125-42eb-4e4e-bc42-af06ed67d8e5","ios":"levelo://app?vid=e353d125-42eb-4e4e-bc42-af06ed67d8e5"},"vehicle_type_id":"4","last_reported":1752311428,"current_range_meters":23200,"station_id":"ce4bgl12rcd13ifvqbo0","pricing_plan_id":"cebpf4jnsgd1na2vs0mg"},{"bike_id":"99ae43ef-9981-41ec-907c-f94f73cc9ad2","system_id":"levelo_inurba_marseille","lat":43.29985,"lon":5.38484,"is_reserved":false,"is_disabled":false,"rental_uris":{"android":"levelo://app?vid=99ae43ef-9981-41ec-907c-f94f73cc9ad2","ios":"levelo://app?vid=99ae43ef-9981-41ec-907c-f94f73cc9ad2"},"vehicle_type_id":"4","last_reported":1752311428,"current_range_meters":23200,"station_id":"ce4bgj92rcd13ifvqbd0","pricing_plan_id":"cebpf4jnsgd1na2vs0mg"},{"bike_id":"5b653ef0-60f2-4f2d-a678-3cf16bea2129","system_id":"levelo_inurba_marseille","lat":43.303192,"lon":5.402679,"is_reserved":false,"is_disabled":false,"rental_uris":{"android":"levelo://app?vid=5b653ef0-60f2-4f2d-a678-3cf16bea2129","ios":"levelo://app?vid=5b653ef0-60f2-4f2d-a678-3cf16bea2129"},"vehicle_type_id":"4","last_reported":1752311428,"current_range_meters":24000,"station_id":"ce4bh012rcd13ifvqd10","pricing_plan_id":"cebpf4jnsgd1na2vs0mg"},{"bike_id":"5317c2d5-8f2b-4656-91f8-8999951f296c","system_id":"levelo_inurba_marseille","lat":43.30909,"lon":5.36861,"is_reserved":false,"is_disabled":false,"rental_uris":{"android":"levelo://app?vid=5317c2d5-8f2b-4656-91f8-8999951f296c","ios":"levelo://app?vid=5317c2d5-8f2b-4656-91f8-8999951f296c"},"vehicle_type_id":"4","last_reported":1752311428,"current_range_meters":24000,"station_id":"ce4bgn92rcd13ifvqbvg","pricing_plan_id":"cebpf4jnsgd1na2vs0mg"},{"bike_id":"717d96c2-1502-47d3-84b5-5de5fb5741fc","system_id":"levelo_inurba_marseille","lat":43.2895,"lon":5.37823,"is_reserved":false,"is_disabled":false,"rental_uris":{"android":"levelo://app?vid=717d96c2-1502-47d3-84b5-5de5fb5741fc","ios":"levelo://app?vid=717d96c2-1502-47d3-84b5-5de5fb5741fc"},"vehicle_type_id":"4","last_reported":1752311428,"current_range_meters":24000,"station_id":"ce4bh9p2rcd13ifvqed0","pricing_plan_id":"cebpf4jnsgd1na2vs0mg"},{"bike_id":"e551c81f-beb8-4535-a76a-0860bd6c5653","system_id":"levelo_inurba_marseille","lat":43.29424,"lon":5.38604,"is_reserved":false,"is_disabled":true,"rental_uris":{"android":"levelo://app?vid=e551c81f-beb8-4535-a76a-0860bd6c5653","ios":"levelo://app?vid=e551c81f-beb8-4535-a76a-0860bd6c5653"},"vehicle_type_id":"4","last_reported":1752311428,"current_range_meters":24000,"station_id":"ce4bh2h2rcd13ifvqdh0","pricing_plan_id":"cebpf4jnsgd1na2vs0mg"},{"bike_id":"4e3865ac-ec3b-4016-b73c-615c0ebc7deb","system_id":"levelo_inurba_marseille","lat":43.28419,"lon":5.34986,"is_reserved":false,"is_disabled":false,"rental_uris":{"android":"levelo://app?vid=4e3865ac-ec3b-4016-b73c-615c0ebc7deb","ios":"levelo://app?vid=4e3865ac-ec3b-4016-b73c-615c0ebc7deb"},"vehicle_type_id":"4","last_reported":1752311428,"current_range_meters":24000,"station_id":"ce4bhbh2rcd13ifvqepg","pricing_plan_id":"cebpf4jnsgd1na2vs0mg"},{"bike_id":"80955d0f-8669-4c02-b90f-c6fe20790c37","system_id":"levelo_inurba_marseille","lat":43.23206,"lon":5.35058,"is_reserved":false,"is_disabled":false,"rental_uris":{"android":"levelo://app?vid=80955d0f-8669-4c02-b90f-c6fe20790c37","ios":"levelo://app?vid=80955d0f-8669-4c02-b90f-c6fe20790c37"},"vehicle_type_id":"4","last_reported":1752311428,"current_range_meters":24000,"station_id":"","pricing_plan_id":"cebpf4jnsgd1na2vs0mg"},{"bike_id":"4840a500-316c-452a-8619-2a7792ea3551","system_id":"levelo_inurba_marseille","lat":43.28277,"lon":5.35072,"is_reserved":false,"is_disabled":true,"rental_uris":{"android":"levelo://app?vid=4840a500-316c-452a-8619-2a7792ea3551","ios":"levelo://app?vid=4840a500-316c-452a-8619-2a7792ea3551"},"vehicle_type_id":"4","last_reported":1752311428,"current_range_meters":24000,"station_id":"ce4bhbp2rcd13ifvqerg","pricing_plan_id":"cebpf4jnsgd1na2vs0mg"},{"bike_id":"f59f6657-f62a-42fc-a273-bf50a25645d6","system_id":"levelo_inurba_marseille","lat":43.27368,"lon":5.362721,"is_reserved":false,"is_disabled":false,"rental_uris":{"android":"levelo://app?vid=f59f6657-f62a-42fc-a273-bf50a25645d6","ios":"levelo://app?vid=f59f6657-f62a-42fc-a273-bf50a25645d6"},"vehicle_type_id":"4","last_reported":1752311428,"current_range_meters":24000,"station_id":"ce4bhbh2rcd13ifvqeo0","pricing_plan_id":"cebpf4jnsgd1na2vs0mg"},{"bike_id":"07d14d86-a176-4665-a495-26ba7e0009ea","system_id":"levelo_inurba_marseille","lat":43.282754,"lon":5.350668,"is_reserved":false,"is_disabled":true,"rental_uris":{"android":"levelo://app?vid=07d14d86-a176-4665-a495-26ba7e0009ea","ios":"levelo://app?vid=07d14d86-a176-4665-a495-26ba7e0009ea"},"vehicle_type_id":"4","last_reported":1752311428,"current_range_meters":24000,"station_id":"ce4bhbp2rcd13ifvqerg","pricing_plan_id":"cebpf4jnsgd1na2vs0mg"},{"bike_id":"0812d093-8e54-4ac3-897c-b1868e2f1926","system_id":"levelo_inurba_marseille","lat":43.28904,"lon":5.39521,"is_reserved":false,"is_disabled":false,"rental_uris":{"android":"levelo://app?vid=0812d093-8e54-4ac3-897c-b1868e2f1926","ios":"levelo://app?vid=0812d093-8e54-4ac3-897c-b1868e2f1926"},"vehicle_type_id":"4","last_reported":1752311428,"current_range_meters":24000,"station_id":"","pricing_plan_id":"cebpf4jnsgd1na2vs0mg"},{"bike_id":"0ff55bd1-6ac4-4f8b-ae76-309a852a2877","system_id":"levelo_inurba_marseille","lat":43.30594,"lon":5.37233,"is_reserved":false,"is_disabled":false,"rental_uris":{"android":"levelo://app?vid=0ff55bd1-6ac4-4f8b-ae76-309a852a2877","ios":"levelo://app?vid=0ff55bd1-6ac4-4f8b-ae76-309a852a2877"},"vehicle_type_id":"4","last_reported":1752311428,"current_range_meters":24000,"station_id":"ce4bgqh2rcd13ifvqc4g","pricing_plan_id":"cebpf4jnsgd1na2vs0mg"},{"bike_id":"cf070045-79b9-4bb5-83ea-ade964db42fa","system_id":"levelo_inurba_marseille","lat":43.29896,"lon":5.43667,"is_reserved":false,"is_disabled":false,"rental_uris":{"android":"levelo://app?vid=cf070045-79b9-4bb5-83ea-ade964db42fa","ios":"levelo://app?vid=cf070045-79b9-4bb5-83ea-ade964db42fa"},"vehicle_type_id":"4","last_reported":1752311428,"current_range_meters":24000,"station_id":"ce4bhpp2rcd13ifvqhfg","pricing_plan_id":"cebpf4jnsgd1na2vs0mg"},{"bike_id":"697d5fc4-b988-4a4e-8323-c1ce5ed61a61","system_id":"levelo_inurba_marseille","lat":43.211917,"lon":5.350731,"is_reserved":false,"is_disabled":false,"rental_uris":{"android":"levelo://app?vid=697d5fc4-b988-4a4e-8323-c1ce5ed61a61","ios":"levelo://app?vid=697d5fc4-b988-4a4e-8323-c1ce5ed61a61"},"vehicle_type_id":"4","last_reported":1752311428,"current_range_meters":24400,"station_id":"st_cvj6sg6p6f1abm77japg","pricing_plan_id":"cebpf4jnsgd1na2vs0mg"},{"bike_id":"6ac174d4-75c5-4a9c-9699-97cd631c6e65","system_id":"levelo_inurba_marseille","lat":43.25458,"lon":5.39946,"is_reserved":false,"is_disabled":false,"rental_uris":{"android":"levelo://app?vid=6ac174d4-75c5-4a9c-9699-97cd631c6e65","ios":"levelo://app?vid=6ac174d4-75c5-4a9c-9699-97cd631c6e65"},"vehicle_type_id":"4","last_reported":1752311428,"current_range_meters":24400,"station_id":"","pricing_plan_id":"cebpf4jnsgd1na2vs0mg"},{"bike_id":"b29c635f-9f64-466c-a57c-b8a3bc4058b4","system_id":"levelo_inurba_marseille","lat":43.308339,"lon":5.400335,"is_reserved":false,"is_disabled":false,"rental_uris":{"android":"levelo://app?vid=b29c635f-9f64-466c-a57c-b8a3bc4058b4","ios":"levelo://app?vid=b29c635f-9f64-466c-a57c-b8a3bc4058b4"},"vehicle_type_id":"4","last_reported":1752311428,"current_range_meters":24400,"station_id":"","pricing_plan_id":"cebpf4jnsgd1na2vs0mg"},{"bike_id":"c9131229-fc26-406d-9791-d9ba8a95b1f4","system_id":"levelo_inurba_marseille","lat":43.33747,"lon":5.374402,"is_reserved":false,"is_disabled":false,"rental_uris":{"android":"levelo://app?vid=c9131229-fc26-406d-9791-d9ba8a95b1f4","ios":"levelo://app?vid=c9131229-fc26-406d-9791-d9ba8a95b1f4"},"vehicle_type_id":"4","last_reported":1752311428,"current_range_meters":24400,"station_id":"","pricing_plan_id":"cebpf4jnsgd1na2vs0mg"},{"bike_id":"f84a9711-95ae-4a0b-8d29-98a17feeb5ae","system_id":"levelo_inurba_marseille","lat":43.28567,"lon":5.3949,"is_reserved":false,"is_disabled":false,"rental_uris":{"android":"levelo://app?vid=f84a9711-95ae-4a0b-8d29-98a17feeb5ae","ios":"levelo://app?vid=f84a9711-95ae-4a0b-8d29-98a17feeb5ae"},"vehicle_type_id":"4","last_reported":1752311428,"current_range_meters":24400,"station_id":"ce4bh292rcd13ifvqdg0","pricing_plan_id":"cebpf4jnsgd1na2vs0mg"},{"bike_id":"bbaecf5c-c043-4427-831b-e9b9f93743bc","system_id":"levelo_inurba_marseille","lat":43.28156,"lon":5.42639,"is_reserved":false,"is_disabled":false,"rental_uris":{"android":"levelo://app?vid=bbaecf5c-c043-4427-831b-e9b9f93743bc","ios":"levelo://app?vid=bbaecf5c-c043-4427-831b-e9b9f93743bc"},"vehicle_type_id":"4","last_reported":1752311428,"current_range_meters":24400,"station_id":"ce4bhnh2rcd13ifvqgug","pricing_plan_id":"cebpf4jnsgd1na2vs0mg"},{"bike_id":"20d37ed8-3532-4e6d-ba29-6abdde3b6fb4","system_id":"levelo_inurba_marseille","lat":43.306445,"lon":5.400769,"is_reserved":false,"is_disabled":false,"rental_uris":{"android":"levelo://app?vid=20d37ed8-3532-4e6d-ba29-6abdde3b6fb4","ios":"levelo://app?vid=20d37ed8-3532-4e6d-ba29-6abdde3b6fb4"},"vehicle_type_id":"4","last_reported":1752311428,"current_range_meters":24400,"station_id":"ce4bh112rcd13ifvqda0","pricing_plan_id":"cebpf4jnsgd1na2vs0mg"},{"bike_id":"b799f899-220f-4d7e-bfad-6862bab05a50","system_id":"levelo_inurba_marseille","lat":43.24734,"lon":5.41273,"is_reserved":false,"is_disabled":false,"rental_uris":{"android":"levelo://app?vid=b799f899-220f-4d7e-bfad-6862bab05a50","ios":"levelo://app?vid=b799f899-220f-4d7e-bfad-6862bab05a50"},"vehicle_type_id":"4","last_reported":1752311428,"current_range_meters":24400,"station_id":"","pricing_plan_id":"cebpf4jnsgd1na2vs0mg"},{"bike_id":"80f72b6b-7a3e-4090-8e31-d62e76fb2d32","system_id":"levelo_inurba_marseille","lat":43.3229,"lon":5.38269,"is_reserved":false,"is_disabled":false,"rental_uris":{"android":"levelo://app?vid=80f72b6b-7a3e-4090-8e31-d62e76fb2d32","ios":"levelo://app?vid=80f72b6b-7a3e-4090-8e31-d62e76fb2d32"},"vehicle_type_id":"4","last_reported":1752311428,"current_range_meters":24400,"station_id":"ce4bhr12rcd13ifvqhqg","pricing_plan_id":"cebpf4jnsgd1na2vs0mg"},{"bike_id":"b497322d-03cc-4e9a-8959-5cc4a06175da","system_id":"levelo_inurba_marseille","lat":43.29712,"lon":5.366087,"is_reserved":false,"is_disabled":false,"rental_uris":{"android":"levelo://app?vid=b497322d-03cc-4e9a-8959-5cc4a06175da","ios":"levelo://app?vid=b497322d-03cc-4e9a-8959-5cc4a06175da"},"vehicle_type_id":"4","last_reported":1752311428,"current_range_meters":24800,"station_id":"ce4bgn12rcd13ifvqbt0","pricing_plan_id":"cebpf4jnsgd1na2vs0mg"},{"bike_id":"4c66411d-668b-46dd-9bea-6263043b6d5e","system_id":"levelo_inurba_marseille","lat":43.289469,"lon":5.357396,"is_reserved":false,"is_disabled":false,"rental_uris":{"android":"levelo://app?vid=4c66411d-668b-46dd-9bea-6263043b6d5e","ios":"levelo://app?vid=4c66411d-668b-46dd-9bea-6263043b6d5e"},"vehicle_type_id":"4","last_reported":1752311428,"current_range_meters":24800,"station_id":"ce4bhb92rcd13ifvqen0","pricing_plan_id":"cebpf4jnsgd1na2vs0mg"},{"bike_id":"da983724-2189-4fc3-8aaf-a6ee9bbfd66a","system_id":"levelo_inurba_marseille","lat":43.269327,"lon":5.402523,"is_reserved":false,"is_disabled":false,"rental_uris":{"android":"levelo://app?vid=da983724-2189-4fc3-8aaf-a6ee9bbfd66a","ios":"levelo://app?vid=da983724-2189-4fc3-8aaf-a6ee9bbfd66a"},"vehicle_type_id":"4","last_reported":1752311428,"current_range_meters":24800,"station_id":"cjm6bp8fraef2m0cb0m0","pricing_plan_id":"cebpf4jnsgd1na2vs0mg"},{"bike_id":"b640c36c-6c5a-408e-8ac7-d6548dede463","system_id":"levelo_inurba_marseille","lat":43.24069,"lon":5.377554,"is_reserved":false,"is_disabled":false,"rental_uris":{"android":"levelo://app?vid=b640c36c-6c5a-408e-8ac7-d6548dede463","ios":"levelo://app?vid=b640c36c-6c5a-408e-8ac7-d6548dede463"},"vehicle_type_id":"4","last_reported":1752311428,"current_range_meters":24800,"station_id":"ce4bhnp2rcd13ifvqgvg","pricing_plan_id":"cebpf4jnsgd1na2vs0mg"},{"bike_id":"a4d07f45-19f9-4df9-9728-be6623530a64","system_id":"levelo_inurba_marseille","lat":43.23708,"lon":5.3885,"is_reserved":false,"is_disabled":false,"rental_uris":{"android":"levelo://app?vid=a4d07f45-19f9-4df9-9728-be6623530a64","ios":"levelo://app?vid=a4d07f45-19f9-4df9-9728-be6623530a64"},"vehicle_type_id":"4","last_reported":1752311428,"current_range_meters":24800,"station_id":"","pricing_plan_id":"cebpf4jnsgd1na2vs0mg"},{"bike_id":"20849e11-a15d-4df7-8232-2dfc0ad25f11","system_id":"levelo_inurba_marseille","lat":43.30427,"lon":5.3975,"is_reserved":false,"is_disabled":false,"rental_uris":{"android":"levelo://app?vid=20849e11-a15d-4df7-8232-2dfc0ad25f11","ios":"levelo://app?vid=20849e11-a15d-4df7-8232-2dfc0ad25f11"},"vehicle_type_id":"4","last_reported":1752311428,"current_range_meters":24400,"station_id":"ce4bh092rcd13ifvqd20","pricing_plan_id":"cebpf4jnsgd1na2vs0mg"},{"bike_id":"d1a6a13b-a088-4b49-87ce-a173fa5a1ecd","system_id":"levelo_inurba_marseille","lat":43.284396,"lon":5.391751,"is_reserved":false,"is_disabled":false,"rental_uris":{"android":"levelo://app?vid=d1a6a13b-a088-4b49-87ce-a173fa5a1ecd","ios":"levelo://app?vid=d1a6a13b-a088-4b49-87ce-a173fa5a1ecd"},"vehicle_type_id":"4","last_reported":1752311428,"current_range_meters":24800,"station_id":"ce4bhoh2rcd13ifvqh5g","pricing_plan_id":"cebpf4jnsgd1na2vs0mg"},{"bike_id":"a0a4a0b9-4624-43dc-a5eb-a0f1f472ae26","system_id":"levelo_inurba_marseille","lat":43.24392,"lon":5.37054,"is_reserved":false,"is_disabled":false,"rental_uris":{"android":"levelo://app?vid=a0a4a0b9-4624-43dc-a5eb-a0f1f472ae26","ios":"levelo://app?vid=a0a4a0b9-4624-43dc-a5eb-a0f1f472ae26"},"vehicle_type_id":"4","last_reported":1752311428,"current_range_meters":24800,"station_id":"ce4bhhh2rcd13ifvqfk0","pricing_plan_id":"cebpf4jnsgd1na2vs0mg"},{"bike_id":"8ad58758-a996-4b15-9696-9e763ae6ed1e","system_id":"levelo_inurba_marseille","lat":43.29288,"lon":5.37452,"is_reserved":false,"is_disabled":false,"rental_uris":{"android":"levelo://app?vid=8ad58758-a996-4b15-9696-9e763ae6ed1e","ios":"levelo://app?vid=8ad58758-a996-4b15-9696-9e763ae6ed1e"},"vehicle_type_id":"4","last_reported":1752311428,"current_range_meters":24800,"station_id":"ce4bgi12rcd13ifvqb70","pricing_plan_id":"cebpf4jnsgd1na2vs0mg"},{"bike_id":"8a01e88a-8371-4085-9838-47ae11897cd3","system_id":"levelo_inurba_marseille","lat":43.28163,"lon":5.42641,"is_reserved":false,"is_disabled":true,"rental_uris":{"android":"levelo://app?vid=8a01e88a-8371-4085-9838-47ae11897cd3","ios":"levelo://app?vid=8a01e88a-8371-4085-9838-47ae11897cd3"},"vehicle_type_id":"4","last_reported":1752311428,"current_range_meters":24800,"station_id":"ce4bhnh2rcd13ifvqgug","pricing_plan_id":"cebpf4jnsgd1na2vs0mg"},{"bike_id":"c498e986-cb97-47dd-96a9-84b9685a14d2","system_id":"levelo_inurba_marseille","lat":43.29271,"lon":5.37615,"is_reserved":false,"is_disabled":false,"rental_uris":{"android":"levelo://app?vid=c498e986-cb97-47dd-96a9-84b9685a14d2","ios":"levelo://app?vid=c498e986-cb97-47dd-96a9-84b9685a14d2"},"vehicle_type_id":"4","last_reported":1752311428,"current_range_meters":24800,"station_id":"ce4bgi12rcd13ifvqb80","pricing_plan_id":"cebpf4jnsgd1na2vs0mg"},{"bike_id":"5cb9f2ff-e30c-4f3f-a74a-22aaa10f216c","system_id":"levelo_inurba_marseille","lat":43.27909,"lon":5.3799,"is_reserved":false,"is_disabled":false,"rental_uris":{"android":"levelo://app?vid=5cb9f2ff-e30c-4f3f-a74a-22aaa10f216c","ios":"levelo://app?vid=5cb9f2ff-e30c-4f3f-a74a-22aaa10f216c"},"vehicle_type_id":"4","last_reported":1752311428,"current_range_meters":25200,"station_id":"ce4bhf92rcd13ifvqf50","pricing_plan_id":"cebpf4jnsgd1na2vs0mg"},{"bike_id":"597e390f-35e0-4561-9411-f045e2464b92","system_id":"levelo_inurba_marseille","lat":43.30152,"lon":5.38074,"is_reserved":false,"is_disabled":false,"rental_uris":{"android":"levelo://app?vid=597e390f-35e0-4561-9411-f045e2464b92","ios":"levelo://app?vid=597e390f-35e0-4561-9411-f045e2464b92"},"vehicle_type_id":"4","last_reported":1752311428,"current_range_meters":25200,"station_id":"ce4bgjp2rcd13ifvqbh0","pricing_plan_id":"cebpf4jnsgd1na2vs0mg"},{"bike_id":"2cfd4746-f854-4f02-8ed6-e553866d5cf1","system_id":"levelo_inurba_marseille","lat":43.30651,"lon":5.40079,"is_reserved":false,"is_disabled":false,"rental_uris":{"android":"levelo://app?vid=2cfd4746-f854-4f02-8ed6-e553866d5cf1","ios":"levelo://app?vid=2cfd4746-f854-4f02-8ed6-e553866d5cf1"},"vehicle_type_id":"4","last_reported":1752311428,"current_range_meters":25200,"station_id":"ce4bh112rcd13ifvqda0","pricing_plan_id":"cebpf4jnsgd1na2vs0mg"},{"bike_id":"d754a5d6-c2f8-467c-9c96-51a295bacd59","system_id":"levelo_inurba_marseille","lat":43.300273,"lon":5.388954,"is_reserved":false,"is_disabled":false,"rental_uris":{"android":"levelo://app?vid=d754a5d6-c2f8-467c-9c96-51a295bacd59","ios":"levelo://app?vid=d754a5d6-c2f8-467c-9c96-51a295bacd59"},"vehicle_type_id":"4","last_reported":1752311428,"current_range_meters":25200,"station_id":"","pricing_plan_id":"cebpf4jnsgd1na2vs0mg"},{"bike_id":"1f63d019-1d04-4c10-ad9a-edbc07038fa7","system_id":"levelo_inurba_marseille","lat":43.29255,"lon":5.37611,"is_reserved":false,"is_disabled":false,"rental_uris":{"android":"levelo://app?vid=1f63d019-1d04-4c10-ad9a-edbc07038fa7","ios":"levelo://app?vid=1f63d019-1d04-4c10-ad9a-edbc07038fa7"},"vehicle_type_id":"4","last_reported":1752311428,"current_range_meters":25200,"station_id":"ce4bgi12rcd13ifvqb80","pricing_plan_id":"cebpf4jnsgd1na2vs0mg"},{"bike_id":"f95cac8d-9a49-4aae-9144-cd63abec56f0","system_id":"levelo_inurba_marseille","lat":43.30149,"lon":5.38077,"is_reserved":false,"is_disabled":false,"rental_uris":{"android":"levelo://app?vid=f95cac8d-9a49-4aae-9144-cd63abec56f0","ios":"levelo://app?vid=f95cac8d-9a49-4aae-9144-cd63abec56f0"},"vehicle_type_id":"4","last_reported":1752311428,"current_range_meters":25200,"station_id":"ce4bgjp2rcd13ifvqbh0","pricing_plan_id":"cebpf4jnsgd1na2vs0mg"},{"bike_id":"83700415-ce46-4475-8f56-1f4b237d6934","system_id":"levelo_inurba_marseille","lat":43.30183,"lon":5.38074,"is_reserved":false,"is_disabled":false,"rental_uris":{"android":"levelo://app?vid=83700415-ce46-4475-8f56-1f4b237d6934","ios":"levelo://app?vid=83700415-ce46-4475-8f56-1f4b237d6934"},"vehicle_type_id":"4","last_reported":1752311428,"current_range_meters":25200,"station_id":"ce4bgjp2rcd13ifvqbh0","pricing_plan_id":"cebpf4jnsgd1na2vs0mg"},{"bike_id":"b66f3974-39c3-4f79-a4b2-f84811ec09f2","system_id":"levelo_inurba_marseille","lat":43.21749,"lon":5.34596,"is_reserved":false,"is_disabled":false,"rental_uris":{"android":"levelo://app?vid=b66f3974-39c3-4f79-a4b2-f84811ec09f2","ios":"levelo://app?vid=b66f3974-39c3-4f79-a4b2-f84811ec09f2"},"vehicle_type_id":"4","last_reported":1752311428,"current_range_meters":25200,"station_id":"st_cvj6r9ubvosntc0bgbag","pricing_plan_id":"cebpf4jnsgd1na2vs0mg"},{"bike_id":"8c43e66d-8f1d-49ad-97a0-48c7425eb74e","system_id":"levelo_inurba_marseille","lat":43.29625,"lon":5.37713,"is_reserved":false,"is_disabled":false,"rental_uris":{"android":"levelo://app?vid=8c43e66d-8f1d-49ad-97a0-48c7425eb74e","ios":"levelo://app?vid=8c43e66d-8f1d-49ad-97a0-48c7425eb74e"},"vehicle_type_id":"4","last_reported":1752311428,"current_range_meters":25200,"station_id":"ce4bgi92rcd13ifvqb90","pricing_plan_id":"cebpf4jnsgd1na2vs0mg"},{"bike_id":"8a2f0870-0a44-4a17-8b12-b428d1557cc4","system_id":"levelo_inurba_marseille","lat":43.29619,"lon":5.37734,"is_reserved":false,"is_disabled":false,"rental_uris":{"android":"levelo://app?vid=8a2f0870-0a44-4a17-8b12-b428d1557cc4","ios":"levelo://app?vid=8a2f0870-0a44-4a17-8b12-b428d1557cc4"},"vehicle_type_id":"4","last_reported":1752311428,"current_range_meters":25200,"station_id":"ce4bgi92rcd13ifvqb90","pricing_plan_id":"cebpf4jnsgd1na2vs0mg"},{"bike_id":"276f9de1-8774-4587-a770-7d2c3b06d6a6","system_id":"levelo_inurba_marseille","lat":43.22505,"lon":5.34776,"is_reserved":false,"is_disabled":false,"rental_uris":{"android":"levelo://app?vid=276f9de1-8774-4587-a770-7d2c3b06d6a6","ios":"levelo://app?vid=276f9de1-8774-4587-a770-7d2c3b06d6a6"},"vehicle_type_id":"4","last_reported":1752311428,"current_range_meters":25600,"station_id":"st_cvj5dfep6f1abm77gieg","pricing_plan_id":"cebpf4jnsgd1na2vs0mg"},{"bike_id":"1e5b638a-49dd-4373-877b-7c390845f276","system_id":"levelo_inurba_marseille","lat":43.29634,"lon":5.40598,"is_reserved":false,"is_disabled":false,"rental_uris":{"android":"levelo://app?vid=1e5b638a-49dd-4373-877b-7c390845f276","ios":"levelo://app?vid=1e5b638a-49dd-4373-877b-7c390845f276"},"vehicle_type_id":"4","last_reported":1752311428,"current_range_meters":25600,"station_id":"ce4bh0h2rcd13ifvqd60","pricing_plan_id":"cebpf4jnsgd1na2vs0mg"},{"bike_id":"ddd8d4db-3d4b-4266-9bae-bc3e44141c1a","system_id":"levelo_inurba_marseille","lat":43.29958,"lon":5.41319,"is_reserved":false,"is_disabled":false,"rental_uris":{"android":"levelo://app?vid=ddd8d4db-3d4b-4266-9bae-bc3e44141c1a","ios":"levelo://app?vid=ddd8d4db-3d4b-4266-9bae-bc3e44141c1a"},"vehicle_type_id":"4","last_reported":1752311428,"current_range_meters":25600,"station_id":"ce4bhp12rcd13ifvqh9g","pricing_plan_id":"cebpf4jnsgd1na2vs0mg"},{"bike_id":"761e6500-1935-4f08-a5ee-41df96bc840f","system_id":"levelo_inurba_marseille","lat":43.2953,"lon":5.39392,"is_reserved":false,"is_disabled":false,"rental_uris":{"android":"levelo://app?vid=761e6500-1935-4f08-a5ee-41df96bc840f","ios":"levelo://app?vid=761e6500-1935-4f08-a5ee-41df96bc840f"},"vehicle_type_id":"4","last_reported":1752311428,"current_range_meters":25200,"station_id":"ce4bh292rcd13ifvqdf0","pricing_plan_id":"cebpf4jnsgd1na2vs0mg"},{"bike_id":"dc38121d-1eaa-4c5f-a65f-c52e9e0067e4","system_id":"levelo_inurba_marseille","lat":43.32042,"lon":5.41545,"is_reserved":false,"is_disabled":false,"rental_uris":{"android":"levelo://app?vid=dc38121d-1eaa-4c5f-a65f-c52e9e0067e4","ios":"levelo://app?vid=dc38121d-1eaa-4c5f-a65f-c52e9e0067e4"},"vehicle_type_id":"4","last_reported":1752311428,"current_range_meters":25600,"station_id":"ce4bhq92rcd13ifvqhkg","pricing_plan_id":"cebpf4jnsgd1na2vs0mg"},{"bike_id":"aec05335-69f5-4353-a5c7-4d1c6f38f9a1","system_id":"levelo_inurba_marseille","lat":43.29925,"lon":5.37478,"is_reserved":false,"is_disabled":false,"rental_uris":{"android":"levelo://app?vid=aec05335-69f5-4353-a5c7-4d1c6f38f9a1","ios":"levelo://app?vid=aec05335-69f5-4353-a5c7-4d1c6f38f9a1"},"vehicle_type_id":"4","last_reported":1752311428,"current_range_meters":25600,"station_id":"ce4bgjh2rcd13ifvqbg0","pricing_plan_id":"cebpf4jnsgd1na2vs0mg"},{"bike_id":"5d70b047-14f1-4779-a5ba-fbe84c8ac9c7","system_id":"levelo_inurba_marseille","lat":43.29531,"lon":5.37498,"is_reserved":false,"is_disabled":false,"rental_uris":{"android":"levelo://app?vid=5d70b047-14f1-4779-a5ba-fbe84c8ac9c7","ios":"levelo://app?vid=5d70b047-14f1-4779-a5ba-fbe84c8ac9c7"},"vehicle_type_id":"4","last_reported":1752311428,"current_range_meters":25600,"station_id":"ce4bgkp2rcd13ifvqbmg","pricing_plan_id":"cebpf4jnsgd1na2vs0mg"},{"bike_id":"66ba76a5-2659-49bb-ad8b-578932663c56","system_id":"levelo_inurba_marseille","lat":43.308867,"lon":5.396206,"is_reserved":false,"is_disabled":false,"rental_uris":{"android":"levelo://app?vid=66ba76a5-2659-49bb-ad8b-578932663c56","ios":"levelo://app?vid=66ba76a5-2659-49bb-ad8b-578932663c56"},"vehicle_type_id":"4","last_reported":1752311428,"current_range_meters":26000,"station_id":"ce4bh012rcd13ifvqcv0","pricing_plan_id":"cebpf4jnsgd1na2vs0mg"},{"bike_id":"71e479f4-838c-44c9-a19e-d1950cd099a6","system_id":"levelo_inurba_marseille","lat":43.27637,"lon":5.42365,"is_reserved":false,"is_disabled":false,"rental_uris":{"android":"levelo://app?vid=71e479f4-838c-44c9-a19e-d1950cd099a6","ios":"levelo://app?vid=71e479f4-838c-44c9-a19e-d1950cd099a6"},