{"last_updated":1701900427,"ttl":30,"version":"2.2","data":{"bikes":[{"bike_id":"dbccd2c8-4719-48fd-977b-0da9e0a42a5f","system_id":"levelo_inurba_marseille","lat":43.309076,"lon":5.368465,"is_reserved":false,"is_disabled":false,"rental_uris":{"android":"levelo://app?vid=dbccd2c8-4719-48fd-977b-0da9e0a42a5f","ios":"levelo://app?vid=dbccd2c8-4719-48fd-977b-0da9e0a42a5f"},"vehicle_type_id":"4","last_reported":1701900427,"current_range_meters":29200,"station_id":"ce4bgn92rcd13ifvqbvg","pricing_plan_id":"free"},{"bike_id":"99f77ac4-742a-4558-97fe-049e01ca37ae","system_id":"levelo_inurba_marseille","lat":43.309039,"lon":5.371797,"is_reserved":false,"is_disabled":false,"rental_uris":{"android":"levelo://app?vid=99f77ac4-742a-4558-97fe-049e01ca37ae","ios":"levelo://app?vid=99f77ac4-742a-4558-97fe-049e01ca37ae"},"vehicle_type_id":"4","last_reported":1701900427,"current_range_meters":2400,"station_id":"ce4bguh2rcd13ifvqckg","pricing_plan_id":"free"},{"bike_id":"b9e4ed01-0dbb-47ca-9f39-08ddd24f6b11","system_id":"levelo_inurba_marseille","lat":43.309039,"lon":5.371797,"is_reserved":false,"is_disabled":false,"rental_uris":{"android":"levelo://app?vid=b9e4ed01-0dbb-47ca-9f39-08ddd24f6b11","ios":"levelo://app?vid=b9e4ed01-0dbb-47ca-9f39-08ddd24f6b11"},"vehicle_type_id":"4","last_reported":1701900427,"current_range_meters":28800,"station_id":"ce4bguh2rcd13ifvqckg","pricing_plan_id":"free"},{"bike_id":"d4fd12af-ddd4-412c-a4bf-75a9b0b444fa","system_id":"levelo_inurba_marseille","lat":43.305989,"lon":5.37225,"is_reserved":false,"is_disabled":false,"rental_uris":{"android":"levelo://app?vid=d4fd12af-ddd4-412c-a4bf-75a9b0b444fa","ios":"levelo://app?vid=d4fd12af-ddd4-412c-a4bf-75a9b0b444fa"},"vehicle_type_id":"4","last_reported":1701900427,"current_range_meters":5200,"station_id":"ce4bgqh2rcd13ifvqc4g","pricing_plan_id":"free"},{"bike_id":"dba99abe-a00e-4845-8635-ca2bda7f729f","system_id":"levelo_inurba_marseille","lat":43.311295,"lon":5.377807,"is_reserved":false,"is_disabled":false,"rental_uris":{"android":"levelo://app?vid=dba99abe-a00e-4845-8635-ca2bda7f729f","ios":"levelo://app?vid=dba99abe-a00e-4845-8635-ca2bda7f729f"},"vehicle_type_id":"4","last_reported":1701900427,"current_range_meters":5200,"station_id":"ce4bgt92rcd13ifvqcg0","pricing_plan_id":"free"},{"bike_id":"4acc24d5-4cd8-4014-b332-c13fda0162ea","system_id":"levelo_inurba_marseille","lat":43.307945,"lon":5.376487,"is_reserved":false,"is_disabled":false,"rental_uris":{"android":"levelo://app?vid=4acc24d5-4cd8-4014-b332-c13fda0162ea","ios":"levelo://app?vid=4acc24d5-4cd8-4014-b332-c13fda0162ea"},"vehicle_type_id":"4","last_reported":1701900427,"current_range_meters":22400,"station_id":"ce4bgv92rcd13ifvqcq0","pricing_plan_id":"free"},{"bike_id":"adf146c5-e4e1-4668-9a33-042940925130","system_id":"levelo_inurba_marseille","lat":43.31351,"lon":5.37909,"is_reserved":false,"is_disabled":false,"rental_uris":{"android":"levelo://app?vid=adf146c5-e4e1-4668-9a33-042940925130","ios":"levelo://app?vid=adf146c5-e4e1-4668-9a33-042940925130"},"vehicle_type_id":"4","last_reported":1701900427,"current_range_meters":4800,"station_id":"","pricing_plan_id":"free"},{"bike_id":"a17dfe7e-4f6b-45c8-8891-8c4d3a347ce0","system_id":"levelo_inurba_marseille","lat":43.303046,"lon":5.368981,"is_reserved":false,"is_disabled":false,"rental_uris":{"android":"levelo://app?vid=a17dfe7e-4f6b-45c8-8891-8c4d3a347ce0","ios":"levelo://app?vid=a17dfe7e-4f6b-45c8-8891-8c4d3a347ce0"},"vehicle_type_id":"4","last_reported":1701900427,"current_range_meters":3600,"station_id":"ce4bgqh2rcd13ifvqc5g","pricing_plan_id":"free"},{"bike_id":"1ea60f58-75f7-4484-b705-1156df4b02ad","system_id":"levelo_inurba_marseille","lat":43.302835,"lon":5.373379,"is_reserved":false,"is_disabled":false,"rental_uris":{"android":"levelo://app?vid=1ea60f58-75f7-4484-b705-1156df4b02ad","ios":"levelo://app?vid=1ea60f58-75f7-4484-b705-1156df4b02ad"},"vehicle_type_id":"4","last_reported":1701900427,"current_range_meters":7200,"station_id":"","pricing_plan_id":"free"},{"bike_id":"c58a2089-b67f-42c5-ac7a-21fc01aff172","system_id":"levelo_inurba_marseille","lat":43.31722,"lon":5.38138,"is_reserved":false,"is_disabled":false,"rental_uris":{"android":"levelo://app?vid=c58a2089-b67f-42c5-ac7a-21fc01aff172","ios":"levelo://app?vid=c58a2089-b67f-42c5-ac7a-21fc01aff172"},"vehicle_type_id":"4","last_reported":1701900427,"current_range_meters":3600,"station_id":"","pricing_plan_id":"free"},{"bike_id":"96fea6f2-e4f7-434a-8455-a23e8cff55e0","system_id":"levelo_inurba_marseille","lat":43.30803,"lon":5.381333,"is_reserved":false,"is_disabled":false,"rental_uris":{"android":"levelo://app?vid=96fea6f2-e4f7-434a-8455-a23e8cff55e0","ios":"levelo://app?vid=96fea6f2-e4f7-434a-8455-a23e8cff55e0"},"vehicle_type_id":"4","last_reported":1701900427,"current_range_meters":21600,"station_id":"ce4bgh92rcd13ifvqb50","pricing_plan_id":"free"},{"bike_id":"88bc9434-2a81-4b96-9a56-98c10b349f69","system_id":"levelo_inurba_marseille","lat":43.30801,"lon":5.38164,"is_reserved":false,"is_disabled":false,"rental_uris":{"android":"levelo://app?vid=88bc9434-2a81-4b96-9a56-98c10b349f69","ios":"levelo://app?vid=88bc9434-2a81-4b96-9a56-98c10b349f69"},"vehicle_type_id":"4","last_reported":1701900427,"current_range_meters":24000,"station_id":"ce4bgt12rcd13ifvqce0","pricing_plan_id":"free"},{"bike_id":"715c1ec5-e2ed-4ad7-9982-a1652ef6d3ca","system_id":"levelo_inurba_marseille","lat":43.308012,"lon":5.381511,"is_reserved":false,"is_disabled":false,"rental_uris":{"android":"levelo://app?vid=715c1ec5-e2ed-4ad7-9982-a1652ef6d3ca","ios":"levelo://app?vid=715c1ec5-e2ed-4ad7-9982-a1652ef6d3ca"},"vehicle_type_id":"4","last_reported":1701900427,"current_range_meters":5200,"station_id":"ce4bgt12rcd13ifvqce0","pricing_plan_id":"free"},{"bike_id":"869cc380-7af1-4035-869d-ad2afc9490bb","system_id":"levelo_inurba_marseille","lat":43.304539,"lon":5.379082,"is_reserved":false,"is_disabled":false,"rental_uris":{"android":"levelo://app?vid=869cc380-7af1-4035-869d-ad2afc9490bb","ios":"levelo://app?vid=869cc380-7af1-4035-869d-ad2afc9490bb"},"vehicle_type_id":"4","last_reported":1701900427,"current_range_meters":9600,"station_id":"ce4bgup2rcd13ifvqcn0","pricing_plan_id":"free"},{"bike_id":"e6a7946c-a7d5-4369-b254-577b631c8d1a","system_id":"levelo_inurba_marseille","lat":43.31719,"lon":5.38246,"is_reserved":false,"is_disabled":false,"rental_uris":{"android":"levelo://app?vid=e6a7946c-a7d5-4369-b254-577b631c8d1a","ios":"levelo://app?vid=e6a7946c-a7d5-4369-b254-577b631c8d1a"},"vehicle_type_id":"4","last_reported":1701900427,"current_range_meters":25600,"station_id":"","pricing_plan_id":"free"},{"bike_id":"44b639d4-c394-49b2-9e18-6098ae373bd6","system_id":"levelo_inurba_marseille","lat":43.31919,"lon":5.38121,"is_reserved":false,"is_disabled":false,"rental_uris":{"android":"levelo://app?vid=44b639d4-c394-49b2-9e18-6098ae373bd6","ios":"levelo://app?vid=44b639d4-c394-49b2-9e18-6098ae373bd6"},"vehicle_type_id":"4","last_reported":1701900427,"current_range_meters":30000,"station_id":"","pricing_plan_id":"free"},{"bike_id":"72714644-a730-462a-b220-6837667c5de6","system_id":"levelo_inurba_marseille","lat":43.3251,"lon":5.36855,"is_reserved":false,"is_disabled":false,"rental_uris":{"android":"levelo://app?vid=72714644-a730-462a-b220-6837667c5de6","ios":"levelo://app?vid=72714644-a730-462a-b220-6837667c5de6"},"vehicle_type_id":"4","last_reported":1701900427,"current_range_meters":27200,"station_id":"","pricing_plan_id":"free"},{"bike_id":"6f1a7f4d-a1d9-47fc-8be2-19cb7f99daaf","system_id":"levelo_inurba_marseille","lat":43.319956,"lon":5.381528,"is_reserved":false,"is_disabled":false,"rental_uris":{"android":"levelo://app?vid=6f1a7f4d-a1d9-47fc-8be2-19cb7f99daaf","ios":"levelo://app?vid=6f1a7f4d-a1d9-47fc-8be2-19cb7f99daaf"},"vehicle_type_id":"4","last_reported":1701900427,"current_range_meters":24800,"station_id":"ce4bhr12rcd13ifvqhpg","pricing_plan_id":"free"},{"bike_id":"9ee0ef7a-8d9c-4d78-8ae5-64e12b708d26","system_id":"levelo_inurba_marseille","lat":43.319997,"lon":5.381594,"is_reserved":false,"is_disabled":false,"rental_uris":{"android":"levelo://app?vid=9ee0ef7a-8d9c-4d78-8ae5-64e12b708d26","ios":"levelo://app?vid=9ee0ef7a-8d9c-4d78-8ae5-64e12b708d26"},"vehicle_type_id":"4","last_reported":1701900427,"current_range_meters":0,"station_id":"ce4bhr12rcd13ifvqhpg","pricing_plan_id":"free"},{"bike_id":"d4031a9d-8ccd-4e84-af74-7c6aea106ce1","system_id":"levelo_inurba_marseille","lat":43.299724,"lon":5.371829,"is_reserved":false,"is_disabled":false,"rental_uris":{"android":"levelo://app?vid=d4031a9d-8ccd-4e84-af74-7c6aea106ce1","ios":"levelo://app?vid=d4031a9d-8ccd-4e84-af74-7c6aea106ce1"},"vehicle_type_id":"4","last_reported":1701900427,"current_range_meters":18400,"station_id":"ce4bgr92rcd13ifvqc7g","pricing_plan_id":"free"},{"bike_id":"7174141a-8004-433f-bccc-9e0d5a2d770a","system_id":"levelo_inurba_marseille","lat":43.299724,"lon":5.371829,"is_reserved":false,"is_disabled":false,"rental_uris":{"android":"levelo://app?vid=7174141a-8004-433f-bccc-9e0d5a2d770a","ios":"levelo://app?vid=7174141a-8004-433f-bccc-9e0d5a2d770a"},"vehicle_type_id":"4","last_reported":1701900427,"current_range_meters":22000,"station_id":"ce4bgr92rcd13ifvqc7g","pricing_plan_id":"free"},{"bike_id":"ee444d31-7a6e-41a9-852f-390743db0182","system_id":"levelo_inurba_marseille","lat":43.311722,"lon":5.387247,"is_reserved":false,"is_disabled":false,"rental_uris":{"android":"levelo://app?vid=ee444d31-7a6e-41a9-852f-390743db0182","ios":"levelo://app?vid=ee444d31-7a6e-41a9-852f-390743db0182"},"vehicle_type_id":"4","last_reported":1701900427,"current_range_meters":4000,"station_id":"ce4bgv12rcd13ifvqcp0","pricing_plan_id":"free"},{"bike_id":"cf9cac76-eb44-4109-ae11-c2c37f059853","system_id":"levelo_inurba_marseille","lat":43.311722,"lon":5.387247,"is_reserved":false,"is_disabled":false,"rental_uris":{"android":"levelo://app?vid=cf9cac76-eb44-4109-ae11-c2c37f059853","ios":"levelo://app?vid=cf9cac76-eb44-4109-ae11-c2c37f059853"},"vehicle_type_id":"4","last_reported":1701900427,"current_range_meters":11200,"station_id":"ce4bgv12rcd13ifvqcp0","pricing_plan_id":"free"},{"bike_id":"11c849a2-1a44-4b85-b8c6-c5a9285dc076","system_id":"levelo_inurba_marseille","lat":43.311722,"lon":5.387247,"is_reserved":false,"is_disabled":false,"rental_uris":{"android":"levelo://app?vid=11c849a2-1a44-4b85-b8c6-c5a9285dc076","ios":"levelo://app?vid=11c849a2-1a44-4b85-b8c6-c5a9285dc076"},"vehicle_type_id":"4","last_reported":1701900427,"current_range_meters":13600,"station_id":"ce4bgv12rcd13ifvqcp0","pricing_plan_id":"free"},{"bike_id":"37d198fe-a0c5-49c0-abff-5edaa5409675","system_id":"levelo_inurba_marseille","lat":43.299243,"lon":5.37481,"is_reserved":false,"is_disabled":false,"rental_uris":{"android":"levelo://app?vid=37d198fe-a0c5-49c0-abff-5edaa5409675","ios":"levelo://app?vid=37d198fe-a0c5-49c0-abff-5edaa5409675"},"vehicle_type_id":"4","last_reported":1701900427,"current_range_meters":29200,"station_id":"ce4bgjh2rcd13ifvqbg0","pricing_plan_id":"free"},{"bike_id":"01a5f12b-ea60-4b50-b51b-7141b2ef8953","system_id":"levelo_inurba_marseille","lat":43.311722,"lon":5.387247,"is_reserved":false,"is_disabled":false,"rental_uris":{"android":"levelo://app?vid=01a5f12b-ea60-4b50-b51b-7141b2ef8953","ios":"levelo://app?vid=01a5f12b-ea60-4b50-b51b-7141b2ef8953"},"vehicle_type_id":"4","last_reported":1701900427,"current_range_meters":31600,"station_id":"ce4bgv12rcd13ifvqcp0","pricing_plan_id":"free"},{"bike_id":"dcfcce41-8840-4a9c-b046-ec8f2f9d33dc","system_id":"levelo_inurba_marseille","lat":43.311722,"lon":5.387247,"is_reserved":false,"is_disabled":false,"rental_uris":{"android":"levelo://app?vid=dcfcce41-8840-4a9c-b046-ec8f2f9d33dc","ios":"levelo://app?vid=dcfcce41-8840-4a9c-b046-ec8f2f9d33dc"},"vehicle_type_id":"4","last_reported":1701900427,"current_range_meters":22800,"station_id":"ce4bgv12rcd13ifvqcp0","pricing_plan_id":"free"},{"bike_id":"ba91e27a-a02e-445d-9df7-fb8e0cc45030","system_id":"levelo_inurba_marseille","lat":43.299243,"lon":5.37481,"is_reserved":false,"is_disabled":false,"rental_uris":{"android":"levelo://app?vid=ba91e27a-a02e-445d-9df7-fb8e0cc45030","ios":"levelo://app?vid=ba91e27a-a02e-445d-9df7-fb8e0cc45030"},"vehicle_type_id":"4","last_reported":1701900427,"current_range_meters":6800,"station_id":"ce4bgjh2rcd13ifvqbg0","pricing_plan_id":"free"},{"bike_id":"ccd2930a-694b-4f68-b635-18c1f22abb51","system_id":"levelo_inurba_marseille","lat":43.322872,"lon":5.382756,"is_reserved":false,"is_disabled":false,"rental_uris":{"android":"levelo://app?vid=ccd2930a-694b-4f68-b635-18c1f22abb51","ios":"levelo://app?vid=ccd2930a-694b-4f68-b635-18c1f22abb51"},"vehicle_type_id":"4","last_reported":1701900427,"current_range_meters":31600,"station_id":"ce4bhr12rcd13ifvqhqg","pricing_plan_id":"free"},{"bike_id":"e162cb92-ec88-4378-922d-c24222956199","system_id":"levelo_inurba_marseille","lat":43.322872,"lon":5.382756,"is_reserved":false,"is_disabled":false,"rental_uris":{"android":"levelo://app?vid=e162cb92-ec88-4378-922d-c24222956199","ios":"levelo://app?vid=e162cb92-ec88-4378-922d-c24222956199"},"vehicle_type_id":"4","last_reported":1701900427,"current_range_meters":25200,"station_id":"ce4bhr12rcd13ifvqhqg","pricing_plan_id":"free"},{"bike_id":"55ccc96c-fa12-43da-ace3-cf5d15fb5429","system_id":"levelo_inurba_marseille","lat":43.298218,"lon":5.374416,"is_reserved":false,"is_disabled":false,"rental_uris":{"android":"levelo://app?vid=55ccc96c-fa12-43da-ace3-cf5d15fb5429","ios":"levelo://app?vid=55ccc96c-fa12-43da-ace3-cf5d15fb5429"},"vehicle_type_id":"4","last_reported":1701900427,"current_range_meters":12400,"station_id":"","pricing_plan_id":"free"},{"bike_id":"cce15627-0bb6-4c03-b21c-33120a200a2a","system_id":"levelo_inurba_marseille","lat":43.297163,"lon":5.365866,"is_reserved":false,"is_disabled":false,"rental_uris":{"android":"levelo://app?vid=cce15627-0bb6-4c03-b21c-33120a200a2a","ios":"levelo://app?vid=cce15627-0bb6-4c03-b21c-33120a200a2a"},"vehicle_type_id":"4","last_reported":1701900427,"current_range_meters":26000,"station_id":"ce4bgn12rcd13ifvqbt0","pricing_plan_id":"free"},{"bike_id":"2424b203-2bfa-46d0-8b7b-b616d11edac6","system_id":"levelo_inurba_marseille","lat":43.32842,"lon":5.3624,"is_reserved":false,"is_disabled":false,"rental_uris":{"android":"levelo://app?vid=2424b203-2bfa-46d0-8b7b-b616d11edac6","ios":"levelo://app?vid=2424b203-2bfa-46d0-8b7b-b616d11edac6"},"vehicle_type_id":"4","last_reported":1701900427,"current_range_meters":7600,"station_id":"","pricing_plan_id":"free"},{"bike_id":"94007754-7055-4e9f-884b-a69ad1a23f33","system_id":"levelo_inurba_marseille","lat":43.298905,"lon":5.378241,"is_reserved":false,"is_disabled":false,"rental_uris":{"android":"levelo://app?vid=94007754-7055-4e9f-884b-a69ad1a23f33","ios":"levelo://app?vid=94007754-7055-4e9f-884b-a69ad1a23f33"},"vehicle_type_id":"4","last_reported":1701900427,"current_range_meters":22000,"station_id":"","pricing_plan_id":"free"},{"bike_id":"92dc65d6-6823-4de3-93d4-056f738f090c","system_id":"levelo_inurba_marseille","lat":43.316538,"lon":5.38954,"is_reserved":false,"is_disabled":false,"rental_uris":{"android":"levelo://app?vid=92dc65d6-6823-4de3-93d4-056f738f090c","ios":"levelo://app?vid=92dc65d6-6823-4de3-93d4-056f738f090c"},"vehicle_type_id":"4","last_reported":1701900427,"current_range_meters":8000,"station_id":"","pricing_plan_id":"free"},{"bike_id":"b57e00ed-d800-4fa2-a560-ed9f3677da15","system_id":"levelo_inurba_marseille","lat":43.29573,"lon":5.367355,"is_reserved":false,"is_disabled":false,"rental_uris":{"android":"levelo://app?vid=b57e00ed-d800-4fa2-a560-ed9f3677da15","ios":"levelo://app?vid=b57e00ed-d800-4fa2-a560-ed9f3677da15"},"vehicle_type_id":"4","last_reported":1701900427,"current_range_meters":21200,"station_id":"ce4bgph2rcd13ifvqc2g","pricing_plan_id":"free"},{"bike_id":"9de1a80e-a5a6-4b70-9a80-3d9a37cc8846","system_id":"levelo_inurba_marseille","lat":43.329916,"lon":5.368232,"is_reserved":false,"is_disabled":false,"rental_uris":{"android":"levelo://app?vid=9de1a80e-a5a6-4b70-9a80-3d9a37cc8846","ios":"levelo://app?vid=9de1a80e-a5a6-4b70-9a80-3d9a37cc8846"},"vehicle_type_id":"4","last_reported":1701900427,"current_range_meters":28800,"station_id":"","pricing_plan_id":"free"},{"bike_id":"7e5f8713-e356-4b61-8554-cdd9444e51ee","system_id":"levelo_inurba_marseille","lat":43.317557,"lon":5.390173,"is_reserved":false,"is_disabled":false,"rental_uris":{"android":"levelo://app?vid=7e5f8713-e356-4b61-8554-cdd9444e51ee","ios":"levelo://app?vid=7e5f8713-e356-4b61-8554-cdd9444e51ee"},"vehicle_type_id":"4","last_reported":1701900427,"current_range_meters":4400,"station_id":"ce4bhqp2rcd13ifvqhng","pricing_plan_id":"free"},{"bike_id":"b8123667-3923-419d-a9cf-5a453fd5da91","system_id":"levelo_inurba_marseille","lat":43.317557,"lon":5.390173,"is_reserved":false,"is_disabled":false,"rental_uris":{"android":"levelo://app?vid=b8123667-3923-419d-a9cf-5a453fd5da91","ios":"levelo://app?vid=b8123667-3923-419d-a9cf-5a453fd5da91"},"vehicle_type_id":"4","last_reported":1701900427,"current_range_meters":28800,"station_id":"ce4bhqp2rcd13ifvqhng","pricing_plan_id":"free"},{"bike_id":"12daa09a-f553-48e2-8ccb-f63937d96b85","system_id":"levelo_inurba_marseille","lat":43.31755,"lon":5.39012,"is_reserved":false,"is_disabled":false,"rental_uris":{"android":"levelo://app?vid=12daa09a-f553-48e2-8ccb-f63937d96b85","ios":"levelo://app?vid=12daa09a-f553-48e2-8ccb-f63937d96b85"},"vehicle_type_id":"4","last_reported":1701900427,"current_range_meters":26000,"station_id":"ce4bhqp2rcd13ifvqhng","pricing_plan_id":"free"},{"bike_id":"204a9fbb-891c-4391-a8fc-33da3f6cf344","system_id":"levelo_inurba_marseille","lat":43.317557,"lon":5.390173,"is_reserved":false,"is_disabled":false,"rental_uris":{"android":"levelo://app?vid=204a9fbb-891c-4391-a8fc-33da3f6cf344","ios":"levelo://app?vid=204a9fbb-891c-4391-a8fc-33da3f6cf344"},"vehicle_type_id":"4","last_reported":1701900427,"current_range_meters":19600,"station_id":"ce4bhqp2rcd13ifvqhng","pricing_plan_id":"free"},{"bike_id":"b6d63545-c056-425d-ba2c-7965a4645002","system_id":"levelo_inurba_marseille","lat":43.298037,"lon":5.381066,"is_reserved":false,"is_disabled":false,"rental_uris":{"android":"levelo://app?vid=b6d63545-c056-425d-ba2c-7965a4645002","ios":"levelo://app?vid=b6d63545-c056-425d-ba2c-7965a4645002"},"vehicle_type_id":"4","last_reported":1701900427,"current_range_meters":0,"station_id":"ce4bgip2rcd13ifvqbb0","pricing_plan_id":"free"},{"bike_id":"4e846890-60c8-4b9e-8fb6-5914eb6cf94e","system_id":"levelo_inurba_marseille","lat":43.298037,"lon":5.381066,"is_reserved":false,"is_disabled":false,"rental_uris":{"android":"levelo://app?vid=4e846890-60c8-4b9e-8fb6-5914eb6cf94e","ios":"levelo://app?vid=4e846890-60c8-4b9e-8fb6-5914eb6cf94e"},"vehicle_type_id":"4","last_reported":1701900427,"current_range_meters":400,"station_id":"ce4bgip2rcd13ifvqbb0","pricing_plan_id":"free"},{"bike_id":"71e143cf-8f35-4955-ba9e-f55a48217a9f","system_id":"levelo_inurba_marseille","lat":43.309038,"lon":5.396546,"is_reserved":false,"is_disabled":false,"rental_uris":{"android":"levelo://app?vid=71e143cf-8f35-4955-ba9e-f55a48217a9f","ios":"levelo://app?vid=71e143cf-8f35-4955-ba9e-f55a48217a9f"},"vehicle_type_id":"4","last_reported":1701900427,"current_range_meters":8800,"station_id":"ce4bh012rcd13ifvqcv0","pricing_plan_id":"free"},{"bike_id":"1cc17343-b5de-4b16-966d-05f8473003fb","system_id":"levelo_inurba_marseille","lat":43.32364,"lon":5.38883,"is_reserved":false,"is_disabled":false,"rental_uris":{"android":"levelo://app?vid=1cc17343-b5de-4b16-966d-05f8473003fb","ios":"levelo://app?vid=1cc17343-b5de-4b16-966d-05f8473003fb"},"vehicle_type_id":"4","last_reported":1701900427,"current_range_meters":10400,"station_id":"ce4bhqp2rcd13ifvqhog","pricing_plan_id":"free"},{"bike_id":"5c556038-a114-47c9-a1d1-91f30916f969","system_id":"levelo_inurba_marseille","lat":43.303002,"lon":5.392142,"is_reserved":false,"is_disabled":false,"rental_uris":{"android":"levelo://app?vid=5c556038-a114-47c9-a1d1-91f30916f969","ios":"levelo://app?vid=5c556038-a114-47c9-a1d1-91f30916f969"},"vehicle_type_id":"4","last_reported":1701900427,"current_range_meters":14400,"station_id":"ce4bgkh2rcd13ifvqbk0","pricing_plan_id":"free"},{"bike_id":"8f04c831-8f41-488b-b52d-764d0f085fe4","system_id":"levelo_inurba_marseille","lat":43.291675,"lon":5.371583,"is_reserved":false,"is_disabled":false,"rental_uris":{"android":"levelo://app?vid=8f04c831-8f41-488b-b52d-764d0f085fe4","ios":"levelo://app?vid=8f04c831-8f41-488b-b52d-764d0f085fe4"},"vehicle_type_id":"4","last_reported":1701900427,"current_range_meters":20800,"station_id":"ce4bha92rcd13ifvqeh0","pricing_plan_id":"free"},{"bike_id":"3ddd0915-5ae3-4c41-aefe-2755269c87e3","system_id":"levelo_inurba_marseille","lat":43.291675,"lon":5.371583,"is_reserved":false,"is_disabled":false,"rental_uris":{"android":"levelo://app?vid=3ddd0915-5ae3-4c41-aefe-2755269c87e3","ios":"levelo://app?vid=3ddd0915-5ae3-4c41-aefe-2755269c87e3"},"vehicle_type_id":"4","last_reported":1701900427,"current_range_meters":3200,"station_id":"ce4bha92rcd13ifvqeh0","pricing_plan_id":"free"},{"bike_id":"1a95335b-7c27-44fc-a3b2-10bc05fa55ac","system_id":"levelo_inurba_marseille","lat":43.29863,"lon":5.389055,"is_reserved":false,"is_disabled":false,"rental_uris":{"android":"levelo://app?vid=1a95335b-7c27-44fc-a3b2-10bc05fa55ac","ios":"levelo://app?vid=1a95335b-7c27-44fc-a3b2-10bc05fa55ac"},"vehicle_type_id":"4","last_reported":1701900427,"current_range_meters":25600,"station_id":"ce4bh392rcd13ifvqdl0","pricing_plan_id":"free"},{"bike_id":"2c1986b2-b7c2-4af7-b67a-7bd61b44dc85","system_id":"levelo_inurba_marseille","lat":43.29246,"lon":5.37706,"is_reserved":false,"is_disabled":false,"rental_uris":{"android":"levelo://app?vid=2c1986b2-b7c2-4af7-b67a-7bd61b44dc85","ios":"levelo://app?vid=2c1986b2-b7c2-4af7-b67a-7bd61b44dc85"},"vehicle_type_id":"4","last_reported":1701900427,"current_range_meters":0,"station_id":"","pricing_plan_id":"free"},{"bike_id":"d2d89dde-48b1-40bb-8057-f941e18505ac","system_id":"levelo_inurba_marseille","lat":43.291994,"lon":5.357886,"is_reserved":false,"is_disabled":false,"rental_uris":{"android":"levelo://app?vid=d2d89dde-48b1-40bb-8057-f941e18505ac","ios":"levelo://app?vid=d2d89dde-48b1-40bb-8057-f941e18505ac"},"vehicle_type_id":"4","last_reported":1701900427,"current_range_meters":11200,"station_id":"ce4bhb12rcd13ifvqel0","pricing_plan_id":"free"},{"bike_id":"3ea4acfa-23a8-4914-bd74-468143f6eacc","system_id":"levelo_inurba_marseille","lat":43.309038,"lon":5.396546,"is_reserved":false,"is_disabled":false,"rental_uris":{"android":"levelo://app?vid=3ea4acfa-23a8-4914-bd74-468143f6eacc","ios":"levelo://app?vid=3ea4acfa-23a8-4914-bd74-468143f6eacc"},"vehicle_type_id":"4","last_reported":1701900427,"current_range_meters":12800,"station_id":"ce4bh012rcd13ifvqcv0","pricing_plan_id":"free"},{"bike_id":"f8285efe-e452-4385-89a4-2d54634f1fc6","system_id":"levelo_inurba_marseille","lat":43.29193,"lon":5.358,"is_reserved":false,"is_disabled":false,"rental_uris":{"android":"levelo://app?vid=f8285efe-e452-4385-89a4-2d54634f1fc6","ios":"levelo://app?vid=f8285efe-e452-4385-89a4-2d54634f1fc6"},"vehicle_type_id":"4","last_reported":1701900427,"current_range_meters":10000,"station_id":"ce4bhb12rcd13ifvqel0","pricing_plan_id":"free"},{"bike_id":"530918f1-7646-4030-9bad-e5eb049e9ca1","system_id":"levelo_inurba_marseille","lat":43.309038,"lon":5.396546,"is_reserved":false,"is_disabled":false,"rental_uris":{"android":"levelo://app?vid=530918f1-7646-4030-9bad-e5eb049e9ca1","ios":"levelo://app?vid=530918f1-7646-4030-9bad-e5eb049e9ca1"},"vehicle_type_id":"4","last_reported":1701900427,"current_range_meters":800,"station_id":"ce4bh012rcd13ifvqcv0","pricing_plan_id":"free"},{"bike_id":"f933def7-c07d-45b0-8542-d8994d9378d8","system_id":"levelo_inurba_marseille","lat":43.313291,"lon":5.396838,"is_reserved":false,"is_disabled":false,"rental_uris":{"android":"levelo://app?vid=f933def7-c07d-45b0-8542-d8994d9378d8","ios":"levelo://app?vid=f933def7-c07d-45b0-8542-d8994d9378d8"},"vehicle_type_id":"4","last_reported":1701900427,"current_range_meters":400,"station_id":"ce4bgvp2rcd13ifvqcu0","pricing_plan_id":"free"},{"bike_id":"31bfb267-e273-46b3-b757-8342584a9719","system_id":"levelo_inurba_marseille","lat":43.309038,"lon":5.396546,"is_reserved":false,"is_disabled":false,"rental_uris":{"android":"levelo://app?vid=31bfb267-e273-46b3-b757-8342584a9719","ios":"levelo://app?vid=31bfb267-e273-46b3-b757-8342584a9719"},"vehicle_type_id":"4","last_reported":1701900427,"current_range_meters":18400,"station_id":"ce4bh012rcd13ifvqcv0","pricing_plan_id":"free"},{"bike_id":"2ff15245-8040-41b1-b1c5-c4fa1fcd89e7","system_id":"levelo_inurba_marseille","lat":43.309038,"lon":5.396546,"is_reserved":false,"is_disabled":false,"rental_uris":{"android":"levelo://app?vid=2ff15245-8040-41b1-b1c5-c4fa1fcd89e7","ios":"levelo://app?vid=2ff15245-8040-41b1-b1c5-c4fa1fcd89e7"},"vehicle_type_id":"4","last_reported":1701900427,"current_range_meters":3200,"station_id":"ce4bh012rcd13ifvqcv0","pricing_plan_id":"free"},{"bike_id":"0a8dacde-5326-489d-9aaf-c882755067ce","system_id":"levelo_inurba_marseille","lat":43.29529,"lon":5.385581,"is_reserved":false,"is_disabled":false,"rental_uris":{"android":"levelo://app?vid=0a8dacde-5326-489d-9aaf-c882755067ce","ios":"levelo://app?vid=0a8dacde-5326-489d-9aaf-c882755067ce"},"vehicle_type_id":"4","last_reported":1701900427,"current_range_meters":15600,"station_id":"ce4bgih2rcd13ifvqba0","pricing_plan_id":"free"},{"bike_id":"c306c317-077d-4256-bea7-7411124c56de","system_id":"levelo_inurba_marseille","lat":43.302008,"lon":5.394694,"is_reserved":false,"is_disabled":false,"rental_uris":{"android":"levelo://app?vid=c306c317-077d-4256-bea7-7411124c56de","ios":"levelo://app?vid=c306c317-077d-4256-bea7-7411124c56de"},"vehicle_type_id":"4","last_reported":1701900427,"current_range_meters":8400,"station_id":"ce4bh0p2rcd13ifvqd70","pricing_plan_id":"free"},{"bike_id":"af27cb29-390b-497b-b825-ef02b0071c90","system_id":"levelo_inurba_marseille","lat":43.302008,"lon":5.394694,"is_reserved":false,"is_disabled":false,"rental_uris":{"android":"levelo://app?vid=af27cb29-390b-497b-b825-ef02b0071c90","ios":"levelo://app?vid=af27cb29-390b-497b-b825-ef02b0071c90"},"vehicle_type_id":"4","last_reported":1701900427,"current_range_meters":7200,"station_id":"ce4bh0p2rcd13ifvqd70","pricing_plan_id":"free"},{"bike_id":"c3214d1c-1f46-40ef-bf0c-14c9b2e13438","system_id":"levelo_inurba_marseille","lat":43.290624,"lon":5.359245,"is_reserved":false,"is_disabled":false,"rental_uris":{"android":"levelo://app?vid=c3214d1c-1f46-40ef-bf0c-14c9b2e13438","ios":"levelo://app?vid=c3214d1c-1f46-40ef-bf0c-14c9b2e13438"},"vehicle_type_id":"4","last_reported":1701900427,"current_range_meters":8800,"station_id":"ce4bha92rcd13ifvqeg0","pricing_plan_id":"free"},{"bike_id":"7e9b9b16-d52a-438a-9fc8-3409f541eda5","system_id":"levelo_inurba_marseille","lat":43.290624,"lon":5.359245,"is_reserved":false,"is_disabled":false,"rental_uris":{"android":"levelo://app?vid=7e9b9b16-d52a-438a-9fc8-3409f541eda5","ios":"levelo://app?vid=7e9b9b16-d52a-438a-9fc8-3409f541eda5"},"vehicle_type_id":"4","last_reported":1701900427,"current_range_meters":800,"station_id":"ce4bha92rcd13ifvqeg0","pricing_plan_id":"free"},{"bike_id":"f2c8720d-585a-46a9-bd94-d86f9b863e5b","system_id":"levelo_inurba_marseille","lat":43.289184,"lon":5.366408,"is_reserved":false,"is_disabled":false,"rental_uris":{"android":"levelo://app?vid=f2c8720d-585a-46a9-bd94-d86f9b863e5b","ios":"levelo://app?vid=f2c8720d-585a-46a9-bd94-d86f9b863e5b"},"vehicle_type_id":"4","last_reported":1701900427,"current_range_meters":5200,"station_id":"ce4bhap2rcd13ifvqek0","pricing_plan_id":"free"},{"bike_id":"42ae40c3-6c3f-415b-a013-8666119eaded","system_id":"levelo_inurba_marseille","lat":43.289397,"lon":5.364077,"is_reserved":false,"is_disabled":false,"rental_uris":{"android":"levelo://app?vid=42ae40c3-6c3f-415b-a013-8666119eaded","ios":"levelo://app?vid=42ae40c3-6c3f-415b-a013-8666119eaded"},"vehicle_type_id":"4","last_reported":1701900427,"current_range_meters":4800,"station_id":"ce4bhc92rcd13ifvqetg","pricing_plan_id":"free"},{"bike_id":"a02a1b20-1fb1-4951-988a-77389649024d","system_id":"levelo_inurba_marseille","lat":43.289259,"lon":5.366364,"is_reserved":false,"is_disabled":false,"rental_uris":{"android":"levelo://app?vid=a02a1b20-1fb1-4951-988a-77389649024d","ios":"levelo://app?vid=a02a1b20-1fb1-4951-988a-77389649024d"},"vehicle_type_id":"4","last_reported":1701900427,"current_range_meters":22000,"station_id":"","pricing_plan_id":"free"},{"bike_id":"b197cbe7-a489-43b4-926b-b2f71fd3eb65","system_id":"levelo_inurba_marseille","lat":43.297866,"lon":5.393435,"is_reserved":false,"is_disabled":false,"rental_uris":{"android":"levelo://app?vid=b197cbe7-a489-43b4-926b-b2f71fd3eb65","ios":"levelo://app?vid=b197cbe7-a489-43b4-926b-b2f71fd3eb65"},"vehicle_type_id":"4","last_reported":1701900427,"current_range_meters":16000,"station_id":"chh1huq6cuj3fo74tm60","pricing_plan_id":"free"},{"bike_id":"c43b6562-662e-4677-a6f3-be406ef82c14","system_id":"levelo_inurba_marseille","lat":43.289743,"lon":5.378304,"is_reserved":false,"is_disabled":false,"rental_uris":{"android":"levelo://app?vid=c43b6562-662e-4677-a6f3-be406ef82c14","ios":"levelo://app?vid=c43b6562-662e-4677-a6f3-be406ef82c14"},"vehicle_type_id":"4","last_reported":1701900427,"current_range_meters":10400,"station_id":"ce4bh9p2rcd13ifvqed0","pricing_plan_id":"free"},{"bike_id":"a86cb40d-13c6-46dc-a047-607f347e5381","system_id":"levelo_inurba_marseille","lat":43.286039,"lon":5.370679,"is_reserved":false,"is_disabled":false,"rental_uris":{"android":"levelo://app?vid=a86cb40d-13c6-46dc-a047-607f347e5381","ios":"levelo://app?vid=a86cb40d-13c6-46dc-a047-607f347e5381"},"vehicle_type_id":"4","last_reported":1701900427,"current_range_meters":12800,"station_id":"ce4bht12rcd13ifvqi60","pricing_plan_id":"free"},{"bike_id":"d857416c-7a84-4b53-8800-bd1df7fe100a","system_id":"levelo_inurba_marseille","lat":43.309371,"lon":5.401449,"is_reserved":false,"is_disabled":false,"rental_uris":{"android":"levelo://app?vid=d857416c-7a84-4b53-8800-bd1df7fe100a","ios":"levelo://app?vid=d857416c-7a84-4b53-8800-bd1df7fe100a"},"vehicle_type_id":"4","last_reported":1701900427,"current_range_meters":6800,"station_id":"ce4bgvp2rcd13ifvqct0","pricing_plan_id":"free"},{"bike_id":"eff298e0-514b-4314-a764-6d770936c6d1","system_id":"levelo_inurba_marseille","lat":43.31269,"lon":5.40174,"is_reserved":false,"is_disabled":false,"rental_uris":{"android":"levelo://app?vid=eff298e0-514b-4314-a764-6d770936c6d1","ios":"levelo://app?vid=eff298e0-514b-4314-a764-6d770936c6d1"},"vehicle_type_id":"4","last_reported":1701900427,"current_range_meters":27600,"station_id":"ce4bh092rcd13ifvqd30","pricing_plan_id":"free"},{"bike_id":"a13f8578-b93e-443f-a937-cc9b38144db1","system_id":"levelo_inurba_marseille","lat":43.30922,"lon":5.40141,"is_reserved":false,"is_disabled":false,"rental_uris":{"android":"levelo://app?vid=a13f8578-b93e-443f-a937-cc9b38144db1","ios":"levelo://app?vid=a13f8578-b93e-443f-a937-cc9b38144db1"},"vehicle_type_id":"4","last_reported":1701900427,"current_range_meters":3600,"station_id":"ce4bgvp2rcd13ifvqct0","pricing_plan_id":"free"},{"bike_id":"3dcc588a-3007-4d42-8cd2-6bb0abb7cb8c","system_id":"levelo_inurba_marseille","lat":43.30935,"lon":5.40147,"is_reserved":false,"is_disabled":false,"rental_uris":{"android":"levelo://app?vid=3dcc588a-3007-4d42-8cd2-6bb0abb7cb8c","ios":"levelo://app?vid=3dcc588a-3007-4d42-8cd2-6bb0abb7cb8c"},"vehicle_type_id":"4","last_reported":1701900427,"current_range_meters":0,"station_id":"ce4bgvp2rcd13ifvqct0","pricing_plan_id":"free"},{"bike_id":"e3ac798c-6343-43ea-9327-13ff9d258c8c","system_id":"levelo_inurba_marseille","lat":43.337463,"lon":5.374796,"is_reserved":false,"is_disabled":false,"rental_uris":{"android":"levelo://app?vid=e3ac798c-6343-43ea-9327-13ff9d258c8c","ios":"levelo://app?vid=e3ac798c-6343-43ea-9327-13ff9d258c8c"},"vehicle_type_id":"4","last_reported":1701900427,"current_range_meters":30400,"station_id":"","pricing_plan_id":"free"},{"bike_id":"c1dbbc09-0034-45ec-8bd0-52d9f84cbcd2","system_id":"levelo_inurba_marseille","lat":43.337515,"lon":5.374499,"is_reserved":false,"is_disabled":false,"rental_uris":{"android":"levelo://app?vid=c1dbbc09-0034-45ec-8bd0-52d9f84cbcd2","ios":"levelo://app?vid=c1dbbc09-0034-45ec-8bd0-52d9f84cbcd2"},"vehicle_type_id":"4","last_reported":1701900427,"current_range_meters":30400,"station_id":"","pricing_plan_id":"free"},{"bike_id":"822605d2-7494-4f1f-8e85-7b21a1e83420","system_id":"levelo_inurba_marseille","lat":43.337509,"lon":5.37473,"is_reserved":false,"is_disabled":false,"rental_uris":{"android":"levelo://app?vid=822605d2-7494-4f1f-8e85-7b21a1e83420","ios":"levelo://app?vid=822605d2-7494-4f1f-8e85-7b21a1e83420"},"vehicle_type_id":"4","last_reported":1701900427,"current_range_meters":22800,"station_id":"","pricing_plan_id":"free"},{"bike_id":"44c1b1b2-0973-4870-b46d-f2780c9c18c7","system_id":"levelo_inurba_marseille","lat":43.337505,"lon":5.374767,"is_reserved":false,"is_disabled":false,"rental_uris":{"android":"levelo://app?vid=44c1b1b2-0973-4870-b46d-f2780c9c18c7","ios":"levelo://app?vid=44c1b1b2-0973-4870-b46d-f2780c9c18c7"},"vehicle_type_id":"4","last_reported":1701900427,"current_range_meters":20400,"station_id":"","pricing_plan_id":"free"},{"bike_id":"d4d7b21b-c769-4691-990b-26c7f5edf034","system_id":"levelo_inurba_marseille","lat":43.306412,"lon":5.401035,"is_reserved":false,"is_disabled":false,"rental_uris":{"android":"levelo://app?vid=d4d7b21b-c769-4691-990b-26c7f5edf034","ios":"levelo://app?vid=d4d7b21b-c769-4691-990b-26c7f5edf034"},"vehicle_type_id":"4","last_reported":1701900427,"current_range_meters":7200,"station_id":"ce4bh112rcd13ifvqda0","pricing_plan_id":"free"},{"bike_id":"736de286-1827-490e-9b81-8542a82e14a5","system_id":"levelo_inurba_marseille","lat":43.33749,"lon":5.37492,"is_reserved":false,"is_disabled":false,"rental_uris":{"android":"levelo://app?vid=736de286-1827-490e-9b81-8542a82e14a5","ios":"levelo://app?vid=736de286-1827-490e-9b81-8542a82e14a5"},"vehicle_type_id":"4","last_reported":1701900427,"current_range_meters":24000,"station_id":"","pricing_plan_id":"free"},{"bike_id":"c414c01b-a2f8-498a-b878-2b9e16cb8f02","system_id":"levelo_inurba_marseille","lat":43.337598,"lon":5.374413,"is_reserved":false,"is_disabled":false,"rental_uris":{"android":"levelo://app?vid=c414c01b-a2f8-498a-b878-2b9e16cb8f02","ios":"levelo://app?vid=c414c01b-a2f8-498a-b878-2b9e16cb8f02"},"vehicle_type_id":"4","last_reported":1701900427,"current_range_meters":28000,"station_id":"","pricing_plan_id":"free"},{"bike_id":"c7696395-4b6d-47c6-ba5e-ed97d58bdf6e","system_id":"levelo_inurba_marseille","lat":43.337579,"lon":5.374603,"is_reserved":false,"is_disabled":false,"rental_uris":{"android":"levelo://app?vid=c7696395-4b6d-47c6-ba5e-ed97d58bdf6e","ios":"levelo://app?vid=c7696395-4b6d-47c6-ba5e-ed97d58bdf6e"},"vehicle_type_id":"4","last_reported":1701900427,"current_range_meters":26800,"station_id":"","pricing_plan_id":"free"},{"bike_id":"98fcb63a-87a8-424d-980f-0d4b4069e13c","system_id":"levelo_inurba_marseille","lat":43.30642,"lon":5.401031,"is_reserved":false,"is_disabled":false,"rental_uris":{"android":"levelo://app?vid=98fcb63a-87a8-424d-980f-0d4b4069e13c","ios":"levelo://app?vid=98fcb63a-87a8-424d-980f-0d4b4069e13c"},"vehicle_type_id":"4","last_reported":1701900427,"current_range_meters":9600,"station_id":"ce4bh112rcd13ifvqda0","pricing_plan_id":"free"},{"bike_id":"8a54f192-34c1-4b84-b2dd-9be8f8e35ad9","system_id":"levelo_inurba_marseille","lat":43.337619,"lon":5.374848,"is_reserved":false,"is_disabled":false,"rental_uris":{"android":"levelo://app?vid=8a54f192-34c1-4b84-b2dd-9be8f8e35ad9","ios":"levelo://app?vid=8a54f192-34c1-4b84-b2dd-9be8f8e35ad9"},"vehicle_type_id":"4","last_reported":1701900427,"current_range_meters":29200,"station_id":"","pricing_plan_id":"free"},{"bike_id":"8576e7bf-5aae-4594-bc2b-84af32d3ef41","system_id":"levelo_inurba_marseille","lat":43.30642,"lon":5.401031,"is_reserved":false,"is_disabled":false,"rental_uris":{"android":"levelo://app?vid=8576e7bf-5aae-4594-bc2b-84af32d3ef41","ios":"levelo://app?vid=8576e7bf-5aae-4594-bc2b-84af32d3ef41"},"vehicle_type_id":"4","last_reported":1701900427,"current_range_meters":1600,"station_id":"ce4bh112rcd13ifvqda0","pricing_plan_id":"free"},{"bike_id":"20e65de2-c6ee-4387-808e-ea534e241049","system_id":"levelo_inurba_marseille","lat":43.30642,"lon":5.401031,"is_reserved":false,"is_disabled":false,"rental_uris":{"android":"levelo://app?vid=20e65de2-c6ee-4387-808e-ea534e241049","ios":"levelo://app?vid=20e65de2-c6ee-4387-808e-ea534e241049"},"vehicle_type_id":"4","last_reported":1701900427,"current_range_meters":16800,"station_id":"ce4bh112rcd13ifvqda0","pricing_plan_id":"free"},{"bike_id":"9ad1b85b-8021-4766-ba02-49178e086ddc","system_id":"levelo_inurba_marseille","lat":43.28727,"lon":5.36078,"is_reserved":false,"is_disabled":false,"rental_uris":{"android":"levelo://app?vid=9ad1b85b-8021-4766-ba02-49178e086ddc","ios":"levelo://app?vid=9ad1b85b-8021-4766-ba02-49178e086ddc"},"vehicle_type_id":"4","last_reported":1701900427,"current_range_meters":28000,"station_id":"cki0cbj6b192h4jlfktg","pricing_plan_id":"free"},{"bike_id":"3657cf0c-f0cd-4d37-a238-d5332d360445","system_id":"levelo_inurba_marseille","lat":43.28727,"lon":5.36078,"is_reserved":false,"is_disabled":false,"rental_uris":{"android":"levelo://app?vid=3657cf0c-f0cd-4d37-a238-d5332d360445","ios":"levelo://app?vid=3657cf0c-f0cd-4d37-a238-d5332d360445"},"vehicle_type_id":"4","last_reported":1701900427,"current_range_meters":7200,"station_id":"cki0cbj6b192h4jlfktg","pricing_plan_id":"free"},{"bike_id":"f64b745e-188b-4266-abdf-0b1745b340c0","system_id":"levelo_inurba_marseille","lat":43.286591,"lon":5.363346,"is_reserved":false,"is_disabled":false,"rental_uris":{"android":"levelo://app?vid=f64b745e-188b-4266-abdf-0b1745b340c0","ios":"levelo://app?vid=f64b745e-188b-4266-abdf-0b1745b340c0"},"vehicle_type_id":"4","last_reported":1701900427,"current_range_meters":30800,"station_id":"ce4bhah2rcd13ifvqej0","pricing_plan_id":"free"},{"bike_id":"c1a4ba65-8cff-4e4c-9465-325db6ac3a7c","system_id":"levelo_inurba_marseille","lat":43.295196,"lon":5.39397,"is_reserved":false,"is_disabled":false,"rental_uris":{"android":"levelo://app?vid=c1a4ba65-8cff-4e4c-9465-325db6ac3a7c","ios":"levelo://app?vid=c1a4ba65-8cff-4e4c-9465-325db6ac3a7c"},"vehicle_type_id":"4","last_reported":1701900427,"current_range_meters":23600,"station_id":"ce4bh292rcd13ifvqdf0","pricing_plan_id":"free"},{"bike_id":"a6eac9af-9742-40a9-9b41-ebb204662b27","system_id":"levelo_inurba_marseille","lat":43.290345,"lon":5.38646,"is_reserved":false,"is_disabled":false,"rental_uris":{"android":"levelo://app?vid=a6eac9af-9742-40a9-9b41-ebb204662b27","ios":"levelo://app?vid=a6eac9af-9742-40a9-9b41-ebb204662b27"},"vehicle_type_id":"4","last_reported":1701900427,"current_range_meters":0,"station_id":"ce4bh4p2rcd13ifvqe0g","pricing_plan_id":"free"},{"bike_id":"444f597b-4b94-49d6-90a1-5eae9d75a96d","system_id":"levelo_inurba_marseille","lat":43.289307,"lon":5.38406,"is_reserved":false,"is_disabled":false,"rental_uris":{"android":"levelo://app?vid=444f597b-4b94-49d6-90a1-5eae9d75a96d","ios":"levelo://app?vid=444f597b-4b94-49d6-90a1-5eae9d75a96d"},"vehicle_type_id":"4","last_reported":1701900427,"current_range_meters":17200,"station_id":"ce4bh612rcd13ifvqe6g","pricing_plan_id":"free"},{"bike_id":"39c9b4c4-c824-44ed-9e92-c03a7217d125","system_id":"levelo_inurba_marseille","lat":43.302759,"lon":5.400793,"is_reserved":false,"is_disabled":false,"rental_uris":{"android":"levelo://app?vid=39c9b4c4-c824-44ed-9e92-c03a7217d125","ios":"levelo://app?vid=39c9b4c4-c824-44ed-9e92-c03a7217d125"},"vehicle_type_id":"4","last_reported":1701900427,"current_range_meters":16000,"station_id":"ce4bgvh2rcd13ifvqcs0","pricing_plan_id":"free"},{"bike_id":"ef079536-c522-438b-a735-16295d7f51e9","system_id":"levelo_inurba_marseille","lat":43.302759,"lon":5.400793,"is_reserved":false,"is_disabled":false,"rental_uris":{"android":"levelo://app?vid=ef079536-c522-438b-a735-16295d7f51e9","ios":"levelo://app?vid=ef079536-c522-438b-a735-16295d7f51e9"},"vehicle_type_id":"4","last_reported":1701900427,"current_range_meters":10800,"station_id":"ce4bgvh2rcd13ifvqcs0","pricing_plan_id":"free"},{"bike_id":"e4b8d78f-d9c5-4c19-9d07-0cda0e0e573e","system_id":"levelo_inurba_marseille","lat":43.302759,"lon":5.400793,"is_reserved":false,"is_disabled":false,"rental_uris":{"android":"levelo://app?vid=e4b8d78f-d9c5-4c19-9d07-0cda0e0e573e","ios":"levelo://app?vid=e4b8d78f-d9c5-4c19-9d07-0cda0e0e573e"},"vehicle_type_id":"4","last_reported":1701900427,"current_range_meters":18000,"station_id":"ce4bgvh2rcd13ifvqcs0","pricing_plan_id":"free"},{"bike_id":"92a24054-0a7c-4baa-91b4-d16d24e86aee","system_id":"levelo_inurba_marseille","lat":43.286039,"lon":5.370679,"is_reserved":false,"is_disabled":false,"rental_uris":{"android":"levelo://app?vid=92a24054-0a7c-4baa-91b4-d16d24e86aee","ios":"levelo://app?vid=92a24054-0a7c-4baa-91b4-d16d24e86aee"},"vehicle_type_id":"4","last_reported":1701900427,"current_range_meters":28400,"station_id":"ce4bht12rcd13ifvqi60","pricing_plan_id":"free"},{"bike_id":"ede95bf3-2e98-4d3f-a256-b751c5939a46","system_id":"levelo_inurba_marseille","lat":43.286039,"lon":5.370679,"is_reserved":false,"is_disabled":false,"rental_uris":{"android":"levelo://app?vid=ede95bf3-2e98-4d3f-a256-b751c5939a46","ios":"levelo://app?vid=ede95bf3-2e98-4d3f-a256-b751c5939a46"},"vehicle_type_id":"4","last_reported":1701900427,"current_range_meters":4800,"station_id":"ce4bht12rcd13ifvqi60","pricing_plan_id":"free"},{"bike_id":"ccdae9c5-5c0f-4676-8a88-1e9bbdd060f3","system_id":"levelo_inurba_marseille","lat":43.28461,"lon":5.35892,"is_reserved":false,"is_disabled":false,"rental_uris":{"android":"levelo://app?vid=ccdae9c5-5c0f-4676-8a88-1e9bbdd060f3","ios":"levelo://app?vid=ccdae9c5-5c0f-4676-8a88-1e9bbdd060f3"},"vehicle_type_id":"4","last_reported":1701900427,"current_range_meters":5600,"station_id":"ce4bhah2rcd13ifvqei0","pricing_plan_id":"free"},{"bike_id":"6beba19d-cb34-4268-af60-841e4c9c684e","system_id":"levelo_inurba_marseille","lat":43.28461,"lon":5.35888,"is_reserved":false,"is_disabled":false,"rental_uris":{"android":"levelo://app?vid=6beba19d-cb34-4268-af60-841e4c9c684e","ios":"levelo://app?vid=6beba19d-cb34-4268-af60-841e4c9c684e"},"vehicle_type_id":"4","last_reported":1701900427,"current_range_meters":800,"station_id":"ce4bhah2rcd13ifvqei0","pricing_plan_id":"free"},{"bike_id":"d7916f79-aa61-4cd5-9e24-834c5f8e301f","system_id":"levelo_inurba_marseille","lat":43.28461,"lon":5.35886,"is_reserved":false,"is_disabled":false,"rental_uris":{"android":"levelo://app?vid=d7916f79-aa61-4cd5-9e24-834c5f8e301f","ios":"levelo://app?vid=d7916f79-aa61-4cd5-9e24-834c5f8e301f"},"vehicle_type_id":"4","last_reported":1701900427,"current_range_meters":8800,"station_id":"ce4bhah2rcd13ifvqei0","pricing_plan_id":"free"},{"bike_id":"66b1a3de-80f6-4076-bf4b-48ac0240c26d","system_id":"levelo_inurba_marseille","lat":43.291938,"lon":5.394168,"is_reserved":false,"is_disabled":false,"rental_uris":{"android":"levelo://app?vid=66b1a3de-80f6-4076-bf4b-48ac0240c26d","ios":"levelo://app?vid=66b1a3de-80f6-4076-bf4b-48ac0240c26d"},"vehicle_type_id":"4","last_reported":1701900427,"current_range_meters":20000,"station_id":"","pricing_plan_id":"free"},{"bike_id":"a1eacbb0-e518-47e2-96d9-68694f77b745","system_id":"levelo_inurba_marseille","lat":43.2846,"lon":5.35888,"is_reserved":false,"is_disabled":false,"rental_uris":{"android":"levelo://app?vid=a1eacbb0-e518-47e2-96d9-68694f77b745","ios":"levelo://app?vid=a1eacbb0-e518-47e2-96d9-68694f77b745"},"vehicle_type_id":"4","last_reported":1701900427,"current_range_meters":2000,"station_id":"ce4bhah2rcd13ifvqei0","pricing_plan_id":"free"},{"bike_id":"f1842cd2-c611-4096-b602-04d1230575ea","system_id":"levelo_inurba_marseille","lat":43.2846,"lon":5.35878,"is_reserved":false,"is_disabled":false,"rental_uris":{"android":"levelo://app?vid=f1842cd2-c611-4096-b602-04d1230575ea","ios":"levelo://app?vid=f1842cd2-c611-4096-b602-04d1230575ea"},"vehicle_type_id":"4","last_reported":1701900427,"current_range_meters":2000,"station_id":"ce4bhah2rcd13ifvqei0","pricing_plan_id":"free"},{"bike_id":"64ea78ca-c5d0-44e6-b617-62a12ffd7dc5","system_id":"levelo_inurba_marseille","lat":43.284534,"lon":5.358662,"is_reserved":false,"is_disabled":false,"rental_uris":{"android":"levelo://app?vid=64ea78ca-c5d0-44e6-b617-62a12ffd7dc5","ios":"levelo://app?vid=64ea78ca-c5d0-44e6-b617-62a12ffd7dc5"},"vehicle_type_id":"4","last_reported":1701900427,"current_range_meters":28000,"station_id":"ce4bhah2rcd13ifvqei0","pricing_plan_id":"free"},{"bike_id":"46e40643-a63e-4be4-96f6-90e92af93835","system_id":"levelo_inurba_marseille","lat":43.28455,"lon":5.35897,"is_reserved":false,"is_disabled":false,"rental_uris":{"android":"levelo://app?vid=46e40643-a63e-4be4-96f6-90e92af93835","ios":"levelo://app?vid=46e40643-a63e-4be4-96f6-90e92af93835"},"vehicle_type_id":"4","last_reported":1701900427,"current_range_meters":30800,"station_id":"ce4bhah2rcd13ifvqei0","pricing_plan_id":"free"},{"bike_id":"2576c6ce-ebab-4f9b-8b0e-6e02832ea67b","system_id":"levelo_inurba_marseille","lat":43.283998,"lon":5.375062,"is_reserved":false,"is_disabled":false,"rental_uris":{"android":"levelo://app?vid=2576c6ce-ebab-4f9b-8b0e-6e02832ea67b","ios":"levelo://app?vid=2576c6ce-ebab-4f9b-8b0e-6e02832ea67b"},"vehicle_type_id":"4","last_reported":1701900427,"current_range_meters":29200,"station_id":"ce4bh412rcd13ifvqds0","pricing_plan_id":"free"},{"bike_id":"44abf257-c116-4cc8-b342-3e7eb23898c4","system_id":"levelo_inurba_marseille","lat":43.283998,"lon":5.375062,"is_reserved":false,"is_disabled":false,"rental_uris":{"android":"levelo://app?vid=44abf257-c116-4cc8-b342-3e7eb23898c4","ios":"levelo://app?vid=44abf257-c116-4cc8-b342-3e7eb23898c4"},"vehicle_type_id":"4","last_reported":1701900427,"current_range_meters":0,"station_id":"ce4bh412rcd13ifvqds0","pricing_plan_id":"free"},{"bike_id":"4311528c-7769-4357-8844-c503e5954a0d","system_id":"levelo_inurba_marseille","lat":43.283998,"lon":5.375062,"is_reserved":false,"is_disabled":false,"rental_uris":{"android":"levelo://app?vid=4311528c-7769-4357-8844-c503e5954a0d","ios":"levelo://app?vid=4311528c-7769-4357-8844-c503e5954a0d"},"vehicle_type_id":"4","last_reported":1701900427,"current_range_meters":17600,"station_id":"ce4bh412rcd13ifvqds0","pricing_plan_id":"free"},{"bike_id":"e9b77d4d-b9f4-463d-888e-26753bcb0c85","system_id":"levelo_inurba_marseille","lat":43.319179,"lon":5.407725,"is_reserved":false,"is_disabled":false,"rental_uris":{"android":"levelo://app?vid=e9b77d4d-b9f4-463d-888e-26753bcb0c85","ios":"levelo://app?vid=e9b77d4d-b9f4-463d-888e-26753bcb0c85"},"vehicle_type_id":"4","last_reported":1701900427,"current_range_meters":25600,"station_id":"ce4bhq12rcd13ifvqhig","pricing_plan_id":"free"},{"bike_id":"caad947b-171d-4367-9652-0bec735b5d7a","system_id":"levelo_inurba_marseille","lat":43.33717,"lon":5.391857,"is_reserved":false,"is_disabled":false,"rental_uris":{"android":"levelo://app?vid=caad947b-171d-4367-9652-0bec735b5d7a","ios":"levelo://app?vid=caad947b-171d-4367-9652-0bec735b5d7a"},"vehicle_type_id":"4","last_reported":1701900427,"current_range_meters":18000,"station_id":"ce4bhr92rcd13ifvqhsg","pricing_plan_id":"free"},{"bike_id":"48a7a38e-919a-4c09-bd83-1d19d707cbfb","system_id":"levelo_inurba_marseille","lat":43.288501,"lon":5.393087,"is_reserved":false,"is_disabled":false,"rental_uris":{"android":"levelo://app?vid=48a7a38e-919a-4c09-bd83-1d19d707cbfb","ios":"levelo://app?vid=48a7a38e-919a-4c09-bd83-1d19d707cbfb"},"vehicle_type_id":"4","last_reported":1701900427,"current_range_meters":14400,"station_id":"ce4bh2p2rcd13ifvqdi0","pricing_plan_id":"free"},{"bike_id":"0b90c0b6-051a-41b2-92e3-980bbd822746","system_id":"levelo_inurba_marseille","lat":43.283494,"lon":5.380945,"is_reserved":false,"is_disabled":false,"rental_uris":{"android":"levelo://app?vid=0b90c0b6-051a-41b2-92e3-980bbd822746","ios":"levelo://app?vid=0b90c0b6-051a-41b2-92e3-980bbd822746"},"vehicle_type_id":"4","last_reported":1701900427,"current_range_meters":23200,"station_id":"ce4bh412rcd13ifvqdr0","pricing_plan_id":"free"},{"bike_id":"9da1462c-15dc-44ce-9a56-181ed17061e1","system_id":"levelo_inurba_marseille","lat":43.291282,"lon":5.399886,"is_reserved":false,"is_disabled":false,"rental_uris":{"android":"levelo://app?vid=9da1462c-15dc-44ce-9a56-181ed17061e1","ios":"levelo://app?vid=9da1462c-15dc-44ce-9a56-181ed17061e1"},"vehicle_type_id":"4","last_reported":1701900427,"current_range_meters":0,"station_id":"","pricing_plan_id":"free"},{"bike_id":"62fd1763-2eb4-46c1-a4f4-c979520883eb","system_id":"levelo_inurba_marseille","lat":43.282754,"lon":5.350519,"is_reserved":false,"is_disabled":false,"rental_uris":{"android":"levelo://app?vid=62fd1763-2eb4-46c1-a4f4-c979520883eb","ios":"levelo://app?vid=62fd1763-2eb4-46c1-a4f4-c979520883eb"},"vehicle_type_id":"4","last_reported":1701900427,"current_range_meters":17600,"station_id":"ce4bhbp2rcd13ifvqerg","pricing_plan_id":"free"},{"bike_id":"4f7d340a-e50e-4cd7-bd77-b81973c3683c","system_id":"levelo_inurba_marseille","lat":43.280382,"lon":5.369291,"is_reserved":false,"is_disabled":false,"rental_uris":{"android":"levelo://app?vid=4f7d340a-e50e-4cd7-bd77-b81973c3683c","ios":"levelo://app?vid=4f7d340a-e50e-4cd7-bd77-b81973c3683c"},"vehicle_type_id":"4","last_reported":1701900427,"current_range_meters":25600,"station_id":"ce4bha12rcd13ifvqef0","pricing_plan_id":"free"},{"bike_id":"bab6d3bd-a973-43c5-84cc-69dd6aeb5d42","system_id":"levelo_inurba_marseille","lat":43.281044,"lon":5.378308,"is_reserved":false,"is_disabled":false,"rental_uris":{"android":"levelo://app?vid=bab6d3bd-a973-43c5-84cc-69dd6aeb5d42","ios":"levelo://app?vid=bab6d3bd-a973-43c5-84cc-69dd6aeb5d42"},"vehicle_type_id":"4","last_reported":1701900427,"current_range_meters":8400,"station_id":"ce4bha12rcd13ifvqee0","pricing_plan_id":"free"},{"bike_id":"6bdf36a9-2c89-482d-9e1a-ddfa23dcf49d","system_id":"levelo_inurba_marseille","lat":43.281044,"lon":5.378308,"is_reserved":false,"is_disabled":false,"rental_uris":{"android":"levelo://app?vid=6bdf36a9-2c89-482d-9e1a-ddfa23dcf49d","ios":"levelo://app?vid=6bdf36a9-2c89-482d-9e1a-ddfa23dcf49d"},"vehicle_type_id":"4","last_reported":1701900427,"current_range_meters":16000,"station_id":"ce4bha12rcd13ifvqee0","pricing_plan_id":"free"},{"bike_id":"245b52c8-06b7-4693-be63-dd6a8b8680f8","system_id":"levelo_inurba_marseille","lat":43.308012,"lon":5.381511,"is_reserved":false,"is_disabled":false,"rental_uris":{"android":"levelo://app?vid=245b52c8-06b7-4693-be63-dd6a8b8680f8","ios":"levelo://app?vid=245b52c8-06b7-4693-be63-dd6a8b8680f8"},"vehicle_type_id":"4","last_reported":1701900427,"current_range_meters":26400,"station_id":"ce4bgt12rcd13ifvqce0","pricing_plan_id":"free"},{"bike_id":"a706b46a-6c77-46a6-85f8-57dfa3075c39","system_id":"levelo_inurba_marseille","lat":43.304188,"lon":5.412904,"is_reserved":false,"is_disabled":false,"rental_uris":{"android":"levelo://app?vid=a706b46a-6c77-46a6-85f8-57dfa3075c39","ios":"levelo://app?vid=a706b46a-6c77-46a6-85f8-57dfa3075c39"},"vehicle_type_id":"4","last_reported":1701900427,"current_range_meters":5600,"station_id":"ce4bhop2rcd13ifvqh8g","pricing_plan_id":"free"},{"bike_id":"6f6cc9b5-4ba7-4d66-8246-0e9fc3580966","system_id":"levelo_inurba_marseille","lat":43.279087,"lon":5.380114,"is_reserved":false,"is_disabled":false,"rental_uris":{"android":"levelo://app?vid=6f6cc9b5-4ba7-4d66-8246-0e9fc3580966","ios":"levelo://app?vid=6f6cc9b5-4ba7-4d66-8246-0e9fc3580966"},"vehicle_type_id":"4","last_reported":1701900427,"current_range_meters":17600,"station_id":"ce4bhf92rcd13ifvqf50","pricing_plan_id":"free"},{"bike_id":"27c6c473-ba45-43ce-9603-f1ba3a030f6a","system_id":"levelo_inurba_marseille","lat":43.287154,"lon":5.399979,"is_reserved":false,"is_disabled":false,"rental_uris":{"android":"levelo://app?vid=27c6c473-ba45-43ce-9603-f1ba3a030f6a","ios":"levelo://app?vid=27c6c473-ba45-43ce-9603-f1ba3a030f6a"},"vehicle_type_id":"4","last_reported":1701900427,"current_range_meters":30400,"station_id":"ce4bho92rcd13ifvqh3g","pricing_plan_id":"free"},{"bike_id":"caaaf642-632e-48ac-98a4-6055dadc2ea1","system_id":"levelo_inurba_marseille","lat":43.279087,"lon":5.380114,"is_reserved":false,"is_disabled":false,"rental_uris":{"android":"levelo://app?vid=caaaf642-632e-48ac-98a4-6055dadc2ea1","ios":"levelo://app?vid=caaaf642-632e-48ac-98a4-6055dadc2ea1"},"vehicle_type_id":"4","last_reported":1701900427,"current_range_meters":25200,"station_id":"ce4bhf92rcd13ifvqf50","pricing_plan_id":"free"},{"bike_id":"7f1f438d-a953-4dfd-bc95-b27d56755299","system_id":"levelo_inurba_marseille","lat":43.287154,"lon":5.399979,"is_reserved":false,"is_disabled":false,"rental_uris":{"android":"levelo://app?vid=7f1f438d-a953-4dfd-bc95-b27d56755299","ios":"levelo://app?vid=7f1f438d-a953-4dfd-bc95-b27d56755299"},"vehicle_type_id":"4","last_reported":1701900427,"current_range_meters":10400,"station_id":"ce4bho92rcd13ifvqh3g","pricing_plan_id":"free"},{"bike_id":"7bda7a4e-6d5a-4545-81ba-1f962c87ef5b","system_id":"levelo_inurba_marseille","lat":43.287154,"lon":5.399979,"is_reserved":false,"is_disabled":false,"rental_uris":{"android":"levelo://app?vid=7bda7a4e-6d5a-4545-81ba-1f962c87ef5b","ios":"levelo://app?vid=7bda7a4e-6d5a-4545-81ba-1f962c87ef5b"},"vehicle_type_id":"4","last_reported":1701900427,"current_range_meters":22800,"station_id":"ce4bho92rcd13ifvqh3g","pricing_plan_id":"free"},{"bike_id":"47bc4501-dcb4-4345-beef-5425bda230f8","system_id":"levelo_inurba_marseille","lat":43.287154,"lon":5.399979,"is_reserved":false,"is_disabled":false,"rental_uris":{"android":"levelo://app?vid=47bc4501-dcb4-4345-beef-5425bda230f8","ios":"levelo://app?vid=47bc4501-dcb4-4345-beef-5425bda230f8"},"vehicle_type_id":"4","last_reported":1701900427,"current_range_meters":800,"station_id":"ce4bho92rcd13ifvqh3g","pricing_plan_id":"free"},{"bike_id":"c9cfc60f-1ccb-4325-83c9-d7ed529f104c","system_id":"levelo_inurba_marseille","lat":43.279742,"lon":5.38744,"is_reserved":false,"is_disabled":false,"rental_uris":{"android":"levelo://app?vid=c9cfc60f-1ccb-4325-83c9-d7ed529f104c","ios":"levelo://app?vid=c9cfc60f-1ccb-4325-83c9-d7ed529f104c"},"vehicle_type_id":"4","last_reported":1701900427,"current_range_meters":22800,"station_id":"ce4bhg12rcd13ifvqf80","pricing_plan_id":"free"},{"bike_id":"34ea3094-505a-4eb9-ac2f-ef5b9c51f1d5","system_id":"levelo_inurba_marseille","lat":43.279742,"lon":5.38744,"is_reserved":false,"is_disabled":false,"rental_uris":{"android":"levelo://app?vid=34ea3094-505a-4eb9-ac2f-ef5b9c51f1d5","ios":"levelo://app?vid=34ea3094-505a-4eb9-ac2f-ef5b9c51f1d5"},"vehicle_type_id":"4","last_reported":1701900427,"current_range_meters":12800,"station_id":"ce4bhg12rcd13ifvqf80","pricing_plan_id":"free"},{"bike_id":"92a7427e-9e77-4370-8208-3ac926692000","system_id":"levelo_inurba_marseille","lat":43.292571,"lon":5.409107,"is_reserved":false,"is_disabled":false,"rental_uris":{"android":"levelo://app?vid=92a7427e-9e77-4370-8208-3ac926692000","ios":"levelo://app?vid=92a7427e-9e77-4370-8208-3ac926692000"},"vehicle_type_id":"4","last_reported":1701900427,"current_range_meters":24000,"station_id":"ce4bh192rcd13ifvqdc0","pricing_plan_id":"free"},{"bike_id":"cf3a12f4-9b00-4a46-9725-ae3071bdf618","system_id":"levelo_inurba_marseille","lat":43.292571,"lon":5.409107,"is_reserved":false,"is_disabled":false,"rental_uris":{"android":"levelo://app?vid=cf3a12f4-9b00-4a46-9725-ae3071bdf618","ios":"levelo://app?vid=cf3a12f4-9b00-4a46-9725-ae3071bdf618"},"vehicle_type_id":"4","last_reported":1701900427,"current_range_meters":25600,"station_id":"ce4bh192rcd13ifvqdc0","pricing_plan_id":"free"},{"bike_id":"29f4b1a2-5614-46b7-bb52-865c5a289751","system_id":"levelo_inurba_marseille","lat":43.292569,"lon":5.409107,"is_reserved":false,"is_disabled":false,"rental_uris":{"android":"levelo://app?vid=29f4b1a2-5614-46b7-bb52-865c5a289751","ios":"levelo://app?vid=29f4b1a2-5614-46b7-bb52-865c5a289751"},"vehicle_type_id":"4","last_reported":1701900427,"current_range_meters":10800,"station_id":"ce4bh192rcd13ifvqdc0","pricing_plan_id":"free"},{"bike_id":"9627cd81-489b-45b1-8f06-cdad1494f1e2","system_id":"levelo_inurba_marseille","lat":43.281713,"lon":5.39615,"is_reserved":false,"is_disabled":false,"rental_uris":{"android":"levelo://app?vid=9627cd81-489b-45b1-8f06-cdad1494f1e2","ios":"levelo://app?vid=9627cd81-489b-45b1-8f06-cdad1494f1e2"},"vehicle_type_id":"4","last_reported":1701900427,"current_range_meters":5200,"station_id":"","pricing_plan_id":"free"},{"bike_id":"293d069b-5156-4efb-8473-dd0ae12fdf19","system_id":"levelo_inurba_marseille","lat":43.303837,"lon":5.418724,"is_reserved":false,"is_disabled":false,"rental_uris":{"android":"levelo://app?vid=293d069b-5156-4efb-8473-dd0ae12fdf19","ios":"levelo://app?vid=293d069b-5156-4efb-8473-dd0ae12fdf19"},"vehicle_type_id":"4","last_reported":1701900427,"current_range_meters":28400,"station_id":"ce4bhop2rcd13ifvqh7g","pricing_plan_id":"free"},{"bike_id":"332a9454-c471-46da-817e-98acfef815f8","system_id":"levelo_inurba_marseille","lat":43.33612,"lon":5.410321,"is_reserved":false,"is_disabled":false,"rental_uris":{"android":"levelo://app?vid=332a9454-c471-46da-817e-98acfef815f8","ios":"levelo://app?vid=332a9454-c471-46da-817e-98acfef815f8"},"vehicle_type_id":"4","last_reported":1701900427,"current_range_meters":20800,"station_id":"ce4bhqh2rcd13ifvqhmg","pricing_plan_id":"free"},{"bike_id":"3862fff2-3cdd-4bb0-b761-c498f8a955cc","system_id":"levelo_inurba_marseille","lat":43.33612,"lon":5.410321,"is_reserved":false,"is_disabled":false,"rental_uris":{"android":"levelo://app?vid=3862fff2-3cdd-4bb0-b761-c498f8a955cc","ios":"levelo://app?vid=3862fff2-3cdd-4bb0-b761-c498f8a955cc"},"vehicle_type_id":"4","last_reported":1701900427,"current_range_meters":16800,"station_id":"ce4bhqh2rcd13ifvqhmg","pricing_plan_id":"free"},{"bike_id":"5e801468-5412-4bca-a271-fb5358ebcf80","system_id":"levelo_inurba_marseille","lat":43.278726,"lon":5.394906,"is_reserved":false,"is_disabled":false,"rental_uris":{"android":"levelo://app?vid=5e801468-5412-4bca-a271-fb5358ebcf80","ios":"levelo://app?vid=5e801468-5412-4bca-a271-fb5358ebcf80"},"vehicle_type_id":"4","last_reported":1701900427,"current_range_meters":15600,"station_id":"","pricing_plan_id":"free"},{"bike_id":"283b1518-47c4-4c7a-aece-e76435d9d17e","system_id":"levelo_inurba_marseille","lat":43.27622,"lon":5.39483,"is_reserved":false,"is_disabled":false,"rental_uris":{"android":"levelo://app?vid=283b1518-47c4-4c7a-aece-e76435d9d17e","ios":"levelo://app?vid=283b1518-47c4-4c7a-aece-e76435d9d17e"},"vehicle_type_id":"4","last_reported":1701900427,"current_range_meters":7200,"station_id":"","pricing_plan_id":"free"},{"bike_id":"f2c1ec06-4350-463a-a1a1-617c2a0167c6","system_id":"levelo_inurba_marseille","lat":43.30407,"lon":5.42538,"is_reserved":false,"is_disabled":false,"rental_uris":{"android":"levelo://app?vid=f2c1ec06-4350-463a-a1a1-617c2a0167c6","ios":"levelo://app?vid=f2c1ec06-4350-463a-a1a1-617c2a0167c6"},"vehicle_type_id":"4","last_reported":1701900427,"current_range_meters":2800,"station_id":"ce4bhoh2rcd13ifvqh6g","pricing_plan_id":"free"},{"bike_id":"77e2df1b-d75a-48fe-a6ad-744dfbe91f1d","system_id":"levelo_inurba_marseille","lat":43.27214,"lon":5.3925,"is_reserved":false,"is_disabled":false,"rental_uris":{"android":"levelo://app?vid=77e2df1b-d75a-48fe-a6ad-744dfbe91f1d","ios":"levelo://app?vid=77e2df1b-d75a-48fe-a6ad-744dfbe91f1d"},"vehicle_type_id":"4","last_reported":1701900427,"current_range_meters":11600,"station_id":"","pricing_plan_id":"free"},{"bike_id":"256cc113-cdaa-4a56-9959-8ccdb9f14a83","system_id":"levelo_inurba_marseille","lat":43.278128,"lon":5.407195,"is_reserved":false,"is_disabled":false,"rental_uris":{"android":"levelo://app?vid=256cc113-cdaa-4a56-9959-8ccdb9f14a83","ios":"levelo://app?vid=256cc113-cdaa-4a56-9959-8ccdb9f14a83"},"vehicle_type_id":"4","last_reported":1701900427,"current_range_meters":28000,"station_id":"ce4bhnh2rcd13ifvqgtg","pricing_plan_id":"free"},{"bike_id":"3b81c4b6-c08e-4ead-95a0-ce66e9cbde45","system_id":"levelo_inurba_marseille","lat":43.278128,"lon":5.407195,"is_reserved":false,"is_disabled":false,"rental_uris":{"android":"levelo://app?vid=3b81c4b6-c08e-4ead-95a0-ce66e9cbde45","ios":"levelo://app?vid=3b81c4b6-c08e-4ead-95a0-ce66e9cbde45"},"vehicle_type_id":"4","last_reported":1701900427,"current_range_meters":12400,"station_id":"ce4bhnh2rcd13ifvqgtg","pricing_plan_id":"free"},{"bike_id":"1dfdc0ad-53b6-4710-abcd-390cd4a4a5da","system_id":"levelo_inurba_marseille","lat":43.278128,"lon":5.407195,"is_reserved":false,"is_disabled":false,"rental_uris":{"android":"levelo://app?vid=1dfdc0ad-53b6-4710-abcd-390cd4a4a5da","ios":"levelo://app?vid=1dfdc0ad-53b6-4710-abcd-390cd4a4a5da"},"vehicle_type_id":"4","last_reported":1701900427,"current_range_meters":21600,"station_id":"ce4bhnh2rcd13ifvqgtg","pricing_plan_id":"free"},{"bike_id":"9e459c17-9a30-4cd3-85ea-e27b31c4bc4f","system_id":"levelo_inurba_marseille","lat":43.26681,"lon":5.382694,"is_reserved":false,"is_disabled":false,"rental_uris":{"android":"levelo://app?vid=9e459c17-9a30-4cd3-85ea-e27b31c4bc4f","ios":"levelo://app?vid=9e459c17-9a30-4cd3-85ea-e27b31c4bc4f"},"vehicle_type_id":"4","last_reported":1701900427,"current_range_meters":25200,"station_id":"ce4bhg92rcd13ifvqf90","pricing_plan_id":"free"},{"bike_id":"f4ca9bad-97af-42f9-9861-96437cb5aa0f","system_id":"levelo_inurba_marseille","lat":43.265714,"lon":5.372891,"is_reserved":false,"is_disabled":false,"rental_uris":{"android":"levelo://app?vid=f4ca9bad-97af-42f9-9861-96437cb5aa0f","ios":"levelo://app?vid=f4ca9bad-97af-42f9-9861-96437cb5aa0f"},"vehicle_type_id":"4","last_reported":1701900427,"current_range_meters":11200,"station_id":"ce4bhg12rcd13ifvqf70","pricing_plan_id":"free"},{"bike_id":"5c62f0fe-2a68-4f0e-8c5e-1c3be35b64ff","system_id":"levelo_inurba_marseille","lat":43.292734,"lon":5.428368,"is_reserved":false,"is_disabled":false,"rental_uris":{"android":"levelo://app?vid=5c62f0fe-2a68-4f0e-8c5e-1c3be35b64ff","ios":"levelo://app?vid=5c62f0fe-2a68-4f0e-8c5e-1c3be35b64ff"},"vehicle_type_id":"4","last_reported":1701900427,"current_range_meters":18800,"station_id":"","pricing_plan_id":"free"},{"bike_id":"fc223efa-7821-4a6b-9977-53c7160e9340","system_id":"levelo_inurba_marseille","lat":43.265663,"lon":5.390008,"is_reserved":false,"is_disabled":false,"rental_uris":{"android":"levelo://app?vid=fc223efa-7821-4a6b-9977-53c7160e9340","ios":"levelo://app?vid=fc223efa-7821-4a6b-9977-53c7160e9340"},"vehicle_type_id":"4","last_reported":1701900427,"current_range_meters":0,"station_id":"","pricing_plan_id":"free"},{"bike_id":"c8c04924-7d04-4cc5-ab2d-cc6abc6c8a84","system_id":"levelo_inurba_marseille","lat":43.269383,"lon":5.40259,"is_reserved":false,"is_disabled":false,"rental_uris":{"android":"levelo://app?vid=c8c04924-7d04-4cc5-ab2d-cc6abc6c8a84","ios":"levelo://app?vid=c8c04924-7d04-4cc5-ab2d-cc6abc6c8a84"},"vehicle_type_id":"4","last_reported":1701900427,"current_range_meters":0,"station_id":"cjm6bp8fraef2m0cb0m0","pricing_plan_id":"free"},{"bike_id":"48f81e3e-a7dd-4877-817e-7111f073daf1","system_id":"levelo_inurba_marseille","lat":43.317104,"lon":5.436818,"is_reserved":false,"is_disabled":false,"rental_uris":{"android":"levelo://app?vid=48f81e3e-a7dd-4877-817e-7111f073daf1","ios":"levelo://app?vid=48f81e3e-a7dd-4877-817e-7111f073daf1"},"vehicle_type_id":"4","last_reported":1701900427,"current_range_meters":4000,"station_id":"ce4bhp92rcd13ifvqhcg","pricing_plan_id":"free"},{"bike_id":"bf58fee8-dca1-4d87-bbbb-9a3f7035f1b0","system_id":"levelo_inurba_marseille","lat":43.317104,"lon":5.436818,"is_reserved":false,"is_disabled":false,"rental_uris":{"android":"levelo://app?vid=bf58fee8-dca1-4d87-bbbb-9a3f7035f1b0","ios":"levelo://app?vid=bf58fee8-dca1-4d87-bbbb-9a3f7035f1b0"},"vehicle_type_id":"4","last_reported":1701900427,"current_range_meters":31200,"station_id":"ce4bhp92rcd13ifvqhcg","pricing_plan_id":"free"},{"bike_id":"4b3f757d-47e2-4866-a0bd-c2406fb45b9a","system_id":"levelo_inurba_marseille","lat":43.317104,"lon":5.436818,"is_reserved":false,"is_disabled":false,"rental_uris":{"android":"levelo://app?vid=4b3f757d-47e2-4866-a0bd-c2406fb45b9a","ios":"levelo://app?vid=4b3f757d-47e2-4866-a0bd-c2406fb45b9a"},"vehicle_type_id":"4","last_reported":1701900427,"current_range_meters":2000,"station_id":"ce4bhp92rcd13ifvqhcg","pricing_plan_id":"free"},{"bike_id":"6fdf9bc6-0abc-4e03-bd67-4978093fb4f7","system_id":"levelo_inurba_marseille","lat":43.26202,"lon":5.379299,"is_reserved":false,"is_disabled":false,"rental_uris":{"android":"levelo://app?vid=6fdf9bc6-0abc-4e03-bd67-4978093fb4f7","ios":"levelo://app?vid=6fdf9bc6-0abc-4e03-bd67-4978093fb4f7"},"vehicle_type_id":"4","last_reported":1701900427,"current_range_meters":27200,"station_id":"ce4bhjp2rcd13ifvqg90","pricing_plan_id":"free"},{"bike_id":"5fd364e5-7a26-4b70-b9fa-6055999db597","system_id":"levelo_inurba_marseille","lat":43.26202,"lon":5.379299,"is_reserved":false,"is_disabled":false,"rental_uris":{"android":"levelo://app?vid=5fd364e5-7a26-4b70-b9fa-6055999db597","ios":"levelo://app?vid=5fd364e5-7a26-4b70-b9fa-6055999db597"},"vehicle_type_id":"4","last_reported":1701900427,"current_range_meters":23600,"station_id":"ce4bhjp2rcd13ifvqg90","pricing_plan_id":"free"},{"bike_id":"8c066ef0-8e33-4692-81e9-53a96288cf19","system_id":"levelo_inurba_marseille","lat":43.298768,"lon":5.43643,"is_reserved":false,"is_disabled":false,"rental_uris":{"android":"levelo://app?vid=8c066ef0-8e33-4692-81e9-53a96288cf19","ios":"levelo://app?vid=8c066ef0-8e33-4692-81e9-53a96288cf19"},"vehicle_type_id":"4","last_reported":1701900427,"current_range_meters":30000,"station_id":"ce4bhpp2rcd13ifvqhfg","pricing_plan_id":"free"},{"bike_id":"4f68f183-a711-4386-a731-e8ea8e2f115e","system_id":"levelo_inurba_marseille","lat":43.298768,"lon":5.43643,"is_reserved":false,"is_disabled":false,"rental_uris":{"android":"levelo://app?vid=4f68f183-a711-4386-a731-e8ea8e2f115e","ios":"levelo://app?vid=4f68f183-a711-4386-a731-e8ea8e2f115e"},"vehicle_type_id":"4","last_reported":1701900427,"current_range_meters":26000,"station_id":"ce4bhpp2rcd13ifvqhfg","pricing_plan_id":"free"},{"bike_id":"c5b130b6-e387-4d1f-9edc-1fc25dae90ef","system_id":"levelo_inurba_marseille","lat":43.281548,"lon":5.42643,"is_reserved":false,"is_disabled":false,"rental_uris":{"android":"levelo://app?vid=c5b130b6-e387-4d1f-9edc-1fc25dae90ef","ios":"levelo://app?vid=c5b130b6-e387-4d1f-9edc-1fc25dae90ef"},"vehicle_type_id":"4","last_reported":1701900427,"current_range_meters":27200,"station_id":"ce4bhnh2rcd13ifvqgug","pricing_plan_id":"free"},{"bike_id":"d56d3917-457b-48f5-a8e5-88ba6c73cc8e","system_id":"levelo_inurba_marseille","lat":43.281548,"lon":5.42643,"is_reserved":false,"is_disabled":false,"rental_uris":{"android":"levelo://app?vid=d56d3917-457b-48f5-a8e5-88ba6c73cc8e","ios":"levelo://app?vid=d56d3917-457b-48f5-a8e5-88ba6c73cc8e"},"vehicle_type_id":"4","last_reported":1701900427,"current_range_meters":24400,"station_id":"ce4bhnh2rcd13ifvqgug","pricing_plan_id":"free"},{"bike_id":"44ef2fe9-8da5-4814-bc28-744b4683f2b4","system_id":"levelo_inurba_marseille","lat":43.25578,"lon":5.38235,"is_reserved":false,"is_disabled":false,"rental_uris":{"android":"levelo://app?vid=44ef2fe9-8da5-4814-bc28-744b4683f2b4","ios":"levelo://app?vid=44ef2fe9-8da5-4814-bc28-744b4683f2b4"},"vehicle_type_id":"4","last_reported":1701900427,"current_range_meters":2800,"station_id":"ce4bhih2rcd13ifvqfs0","pricing_plan_id":"free"},{"bike_id":"2928ee9a-8561-4c4b-8ea4-dbd8c15aacab","system_id":"levelo_inurba_marseille","lat":43.25576,"lon":5.38228,"is_reserved":false,"is_disabled":false,"rental_uris":{"android":"levelo://app?vid=2928ee9a-8561-4c4b-8ea4-dbd8c15aacab","ios":"levelo://app?vid=2928ee9a-8561-4c4b-8ea4-dbd8c15aacab"},"vehicle_type_id":"4","last_reported":1701900427,"current_range_meters":0,"station_id":"ce4bhih2rcd13ifvqfs0","pricing_plan_id":"free"},{"bike_id":"92351523-5da1-44da-b46c-ccdfa2958641","system_id":"levelo_inurba_marseille","lat":43.254933,"lon":5.376464,"is_reserved":false,"is_disabled":false,"rental_uris":{"android":"levelo://app?vid=92351523-5da1-44da-b46c-ccdfa2958641","ios":"levelo://app?vid=92351523-5da1-44da-b46c-ccdfa2958641"},"vehicle_type_id":"4","last_reported":1701900427,"current_range_meters":29600,"station_id":"ce4bhh12rcd13ifvqff0","pricing_plan_id":"free"},{"bike_id":"4b2e0382-e1f9-400c-8f21-cae436913d9a","system_id":"levelo_inurba_marseille","lat":43.254947,"lon":5.376454,"is_reserved":false,"is_disabled":false,"rental_uris":{"android":"levelo://app?vid=4b2e0382-e1f9-400c-8f21-cae436913d9a","ios":"levelo://app?vid=4b2e0382-e1f9-400c-8f21-cae436913d9a"},"vehicle_type_id":"4","last_reported":1701900427,"current_range_meters":29600,"station_id":"ce4bhh12rcd13ifvqff0","pricing_plan_id":"free"},{"bike_id":"fa8265ba-5872-4836-af87-e9931b2903ad","system_id":"levelo_inurba_marseille","lat":43.254947,"lon":5.376454,"is_reserved":false,"is_disabled":false,"rental_uris":{"android":"levelo://app?vid=fa8265ba-5872-4836-af87-e9931b2903ad","ios":"levelo://app?vid=fa8265ba-5872-4836-af87-e9931b2903ad"},"vehicle_type_id":"4","last_reported":1701900427,"current_range_meters":8800,"station_id":"ce4bhh12rcd13ifvqff0","pricing_plan_id":"free"},{"bike_id":"df19f8ce-a63c-44d7-949a-ae58af8f4993","system_id":"levelo_inurba_marseille","lat":43.270721,"lon":5.422764,"is_reserved":false,"is_disabled":false,"rental_uris":{"android":"levelo://app?vid=df19f8ce-a63c-44d7-949a-ae58af8f4993","ios":"levelo://app?vid=df19f8ce-a63c-44d7-949a-ae58af8f4993"},"vehicle_type_id":"4","last_reported":1701900427,"current_range_meters":26000,"station_id":"ce4bhk92rcd13ifvqgb0","pricing_plan_id":"free"},{"bike_id":"00f46b74-f70a-4815-b152-6bf5cc0ef103","system_id":"levelo_inurba_marseille","lat":43.270721,"lon":5.422764,"is_reserved":false,"is_disabled":false,"rental_uris":{"android":"levelo://app?vid=00f46b74-f70a-4815-b152-6bf5cc0ef103","ios":"levelo://app?vid=00f46b74-f70a-4815-b152-6bf5cc0ef103"},"vehicle_type_id":"4","last_reported":1701900427,"current_range_meters":26800,"station_id":"ce4bhk92rcd13ifvqgb0","pricing_plan_id":"free"},{"bike_id":"e6b338fc-0654-4eb1-9eb4-c94072dd874c","system_id":"levelo_inurba_marseille","lat":43.25933,"lon":5.4091,"is_reserved":false,"is_disabled":false,"rental_uris":{"android":"levelo://app?vid=e6b338fc-0654-4eb1-9eb4-c94072dd874c","ios":"levelo://app?vid=e6b338fc-0654-4eb1-9eb4-c94072dd874c"},"vehicle_type_id":"4","last_reported":1701900427,"current_range_meters":19200,"station_id":"ce4bhm92rcd13ifvqglg","pricing_plan_id":"free"},{"bike_id":"a74a30c0-3c62-4d5c-bd50-80c35ef7eb2f","system_id":"levelo_inurba_marseille","lat":43.257079,"lon":5.411051,"is_reserved":false,"is_disabled":false,"rental_uris":{"android":"levelo://app?vid=a74a30c0-3c62-4d5c-bd50-80c35ef7eb2f","ios":"levelo://app?vid=a74a30c0-3c62-4d5c-bd50-80c35ef7eb2f"},"vehicle_type_id":"4","last_reported":1701900427,"current_range_meters":24800,"station_id":"ce4bhkp2rcd13ifvqgd0","pricing_plan_id":"free"},{"bike_id":"beadb13e-80b5-46d8-b310-e6facf21a411","system_id":"levelo_inurba_marseille","lat":43.257079,"lon":5.411051,"is_reserved":false,"is_disabled":false,"rental_uris":{"android":"levelo://app?vid=beadb13e-80b5-46d8-b310-e6facf21a411","ios":"levelo://app?vid=beadb13e-80b5-46d8-b310-e6facf21a411"},"vehicle_type_id":"4","last_reported":1701900427,"current_range_meters":4000,"station_id":"ce4bhkp2rcd13ifvqgd0","pricing_plan_id":"free"},{"bike_id":"e1602fb7-dbb0-489c-961b-9627ea130fc4","system_id":"levelo_inurba_marseille","lat":43.25719,"lon":5.41111,"is_reserved":false,"is_disabled":false,"rental_uris":{"android":"levelo://app?vid=e1602fb7-dbb0-489c-961b-9627ea130fc4","ios":"levelo://app?vid=e1602fb7-dbb0-489c-961b-9627ea130fc4"},"vehicle_type_id":"4","last_reported":1701900427,"current_range_meters":4400,"station_id":"ce4bhkp2rcd13ifvqgd0","pricing_plan_id":"free"},{"bike_id":"228935ec-d580-4f70-bd33-231817a60e9b","system_id":"levelo_inurba_marseille","lat":43.257079,"lon":5.411051,"is_reserved":false,"is_disabled":false,"rental_uris":{"android":"levelo://app?vid=228935ec-d580-4f70-bd33-231817a60e9b","ios":"levelo://app?vid=228935ec-d580-4f70-bd33-231817a60e9b"},"vehicle_type_id":"4","last_reported":1701900427,"current_range_meters":10800,"station_id":"ce4bhkp2rcd13ifvqgd0","pricing_plan_id":"free"},{"bike_id":"46c122df-37ab-4053-ad9f-fdecd031d3be","system_id":"levelo_inurba_marseille","lat":43.250009,"lon":5.389195,"is_reserved":false,"is_disabled":false,"rental_uris":{"android":"levelo://app?vid=46c122df-37ab-4053-ad9f-fdecd031d3be","ios":"levelo://app?vid=46c122df-37ab-4053-ad9f-fdecd031d3be"},"vehicle_type_id":"4","last_reported":1701900427,"current_range_meters":27200,"station_id":"ce4bhgp2rcd13ifvqfd0","pricing_plan_id":"free"},{"bike_id":"db11096c-b1d2-4210-baf2-f4812df6a1c7","system_id":"levelo_inurba_marseille","lat":43.250966,"lon":5.395186,"is_reserved":false,"is_disabled":false,"rental_uris":{"android":"levelo://app?vid=db11096c-b1d2-4210-baf2-f4812df6a1c7","ios":"levelo://app?vid=db11096c-b1d2-4210-baf2-f4812df6a1c7"},"vehicle_type_id":"4","last_reported":1701900427,"current_range_meters":25200,"station_id":"ce4bhm12rcd13ifvqgkg","pricing_plan_id":"free"},{"bike_id":"ad60c98b-1966-4e4d-a4f8-6b3eb9eb0eec","system_id":"levelo_inurba_marseille","lat":43.24693,"lon":5.382096,"is_reserved":false,"is_disabled":false,"rental_uris":{"android":"levelo://app?vid=ad60c98b-1966-4e4d-a4f8-6b3eb9eb0eec","ios":"levelo://app?vid=ad60c98b-1966-4e4d-a4f8-6b3eb9eb0eec"},"vehicle_type_id":"4","last_reported":1701900427,"current_range_meters":25200,"station_id":"ce4bhih2rcd13ifvqfr0","pricing_plan_id":"free"},{"bike_id":"a315f003-d862-47d5-859b-4260e5b1ec9c","system_id":"levelo_inurba_marseille","lat":43.24667,"lon":5.38156,"is_reserved":false,"is_disabled":false,"rental_uris":{"android":"levelo://app?vid=a315f003-d862-47d5-859b-4260e5b1ec9c","ios":"levelo://app?vid=a315f003-d862-47d5-859b-4260e5b1ec9c"},"vehicle_type_id":"4","last_reported":1701900427,"current_range_meters":15200,"station_id":"ce4bhih2rcd13ifvqfr0","pricing_plan_id":"free"},{"bike_id":"8dbd72b1-00b6-48ce-8048-535bbb38f720","system_id":"levelo_inurba_marseille","lat":43.24665,"lon":5.38152,"is_reserved":false,"is_disabled":false,"rental_uris":{"android":"levelo://app?vid=8dbd72b1-00b6-48ce-8048-535bbb38f720","ios":"levelo://app?vid=8dbd72b1-00b6-48ce-8048-535bbb38f720"},"vehicle_type_id":"4","last_reported":1701900427,"current_range_meters":3600,"station_id":"ce4bhih2rcd13ifvqfr0","pricing_plan_id":"free"},{"bike_id":"9e9dc76d-1ab8-4c44-8855-9e4371b4eb10","system_id":"levelo_inurba_marseille","lat":43.25112,"lon":5.4032,"is_reserved":false,"is_disabled":false,"rental_uris":{"android":"levelo://app?vid=9e9dc76d-1ab8-4c44-8855-9e4371b4eb10","ios":"levelo://app?vid=9e9dc76d-1ab8-4c44-8855-9e4371b4eb10"},"vehicle_type_id":"4","last_reported":1701900427,"current_range_meters":23200,"station_id":"ce4bhlh2rcd13ifvqgig","pricing_plan_id":"free"},{"bike_id":"14c4b3eb-c3dc-4735-a235-e526689d0fad","system_id":"levelo_inurba_marseille","lat":43.25102,"lon":5.403214,"is_reserved":false,"is_disabled":false,"rental_uris":{"android":"levelo://app?vid=14c4b3eb-c3dc-4735-a235-e526689d0fad","ios":"levelo://app?vid=14c4b3eb-c3dc-4735-a235-e526689d0fad"},"vehicle_type_id":"4","last_reported":1701900427,"current_range_meters":14000,"station_id":"ce4bhlh2rcd13ifvqgig","pricing_plan_id":"free"},{"bike_id":"57e11f93-757d-4afe-8ec8-7ec2944178b2","system_id":"levelo_inurba_marseille","lat":43.24393,"lon":5.3706,"is_reserved":false,"is_disabled":false,"rental_uris":{"android":"levelo://app?vid=57e11f93-757d-4afe-8ec8-7ec2944178b2","ios":"levelo://app?vid=57e11f93-757d-4afe-8ec8-7ec2944178b2"},"vehicle_type_id":"4","last_reported":1701900427,"current_range_meters":30400,"station_id":"ce4bhhh2rcd13ifvqfk0","pricing_plan_id":"free"},{"bike_id":"cc9a7c1b-5b42-4665-b29b-4c33fa547673","system_id":"levelo_inurba_marseille","lat":43.24547,"lon":5.39521,"is_reserved":false,"is_disabled":false,"rental_uris":{"android":"levelo://app?vid=cc9a7c1b-5b42-4665-b29b-4c33fa547673","ios":"levelo://app?vid=cc9a7c1b-5b42-4665-b29b-4c33fa547673"},"vehicle_type_id":"4","last_reported":1701900427,"current_range_meters":2800,"station_id":"ce4bhlp2rcd13ifvqgjg","pricing_plan_id":"free"},{"bike_id":"d64a5e6a-b681-46c3-9bbb-6b0d932cfcd2","system_id":"levelo_inurba_marseille","lat":43.245581,"lon":5.395069,"is_reserved":false,"is_disabled":false,"rental_uris":{"android":"levelo://app?vid=d64a5e6a-b681-46c3-9bbb-6b0d932cfcd2","ios":"levelo://app?vid=d64a5e6a-b681-46c3-9bbb-6b0d932cfcd2"},"vehicle_type_id":"4","last_reported":1701900427,"current_range_meters":27600,"station_id":"ce4bhlp2rcd13ifvqgjg","pricing_plan_id":"free"},{"bike_id":"5697a5f4-97e0-441f-8313-e9484ec89946","system_id":"levelo_inurba_marseille","lat":43.240623,"lon":5.377642,"is_reserved":false,"is_disabled":false,"rental_uris":{"android":"levelo://app?vid=5697a5f4-97e0-441f-8313-e9484ec89946","ios":"levelo://app?vid=5697a5f4-97e0-441f-8313-e9484ec89946"},"vehicle_type_id":"4","last_reported":1701900427,"current_range_meters":30000,"station_id":"ce4bhnp2rcd13ifvqgvg","pricing_plan_id":"free"},{"bike_id":"356b32b3-0b93-4f2f-b6f8-7a0dfba25754","system_id":"levelo_inurba_marseille","lat":43.240623,"lon":5.377642,"is_reserved":false,"is_disabled":false,"rental_uris":{"android":"levelo://app?vid=356b32b3-0b93-4f2f-b6f8-7a0dfba25754","ios":"levelo://app?vid=356b32b3-0b93-4f2f-b6f8-7a0dfba25754"},"vehicle_type_id":"4","last_reported":1701900427,"current_range_meters":25200,"station_id":"ce4bhnp2rcd13ifvqgvg","pricing_plan_id":"free"},{"bike_id":"4c5727f7-b671-44b6-a1c6-91259152df74","system_id":"levelo_inurba_marseille","lat":43.240623,"lon":5.377642,"is_reserved":false,"is_disabled":false,"rental_uris":{"android":"levelo://app?vid=4c5727f7-b671-44b6-a1c6-91259152df74","ios":"levelo://app?vid=4c5727f7-b671-44b6-a1c6-91259152df74"},"vehicle_type_id":"4","last_reported":1701900427,"current_range_meters":22400,"station_id":"ce4bhnp2rcd13ifvqgvg","pricing_plan_id":"free"},{"bike_id":"eaa278ad-09c3-4f75-9832-35635dbae429","system_id":"levelo_inurba_marseille","lat":43.240623,"lon":5.377642,"is_reserved":false,"is_disabled":false,"rental_uris":{"android":"levelo://app?vid=eaa278ad-09c3-4f75-9832-35635dbae429","ios":"levelo://app?vid=eaa278ad-09c3-4f75-9832-35635dbae429"},"vehicle_type_id":"4","last_reported":1701900427,"current_range_meters":15200,"station_id":"ce4bhnp2rcd13ifvqgvg","pricing_plan_id":"free"},{"bike_id":"cb96efd0-e7c3-401d-b6c3-706d1d2ec2bc","system_id":"levelo_inurba_marseille","lat":43.239649,"lon":5.366308,"is_reserved":false,"is_disabled":false,"rental_uris":{"android":"levelo://app?vid=cb96efd0-e7c3-401d-b6c3-706d1d2ec2bc","ios":"levelo://app?vid=cb96efd0-e7c3-401d-b6c3-706d1d2ec2bc"},"vehicle_type_id":"4","last_reported":1701900427,"current_range_meters":400,"station_id":"ce4bhi12rcd13ifvqfp0","pricing_plan_id":"free"},{"bike_id":"fa962fdf-4c86-46f6-a3e6-d8218c3bc51a","system_id":"levelo_inurba_marseille","lat":43.23961,"lon":5.36628,"is_reserved":false,"is_disabled":false,"rental_uris":{"android":"levelo://app?vid=fa962fdf-4c86-46f6-a3e6-d8218c3bc51a","ios":"levelo://app?vid=fa962fdf-4c86-46f6-a3e6-d8218c3bc51a"},"vehicle_type_id":"4","last_reported":1701900427,"current_range_meters":0,"station_id":"ce4bhi12rcd13ifvqfp0","pricing_plan_id":"free"},{"bike_id":"22c65d28-a5e7-495a-992a-fa559900f49b","system_id":"levelo_inurba_marseille","lat":43.241782,"lon":5.397261,"is_reserved":false,"is_disabled":false,"rental_uris":{"android":"levelo://app?vid=22c65d28-a5e7-495a-992a-fa559900f49b","ios":"levelo://app?vid=22c65d28-a5e7-495a-992a-fa559900f49b"},"vehicle_type_id":"4","last_reported":1701900427,"current_range_meters":12400,"station_id":"ce4bhn12rcd13ifvqgpg","pricing_plan_id":"free"},{"bike_id":"b95bd059-db79-4290-bca3-5a38eb6a8b00","system_id":"levelo_inurba_marseille","lat":43.231833,"lon":5.399777,"is_reserved":false,"is_disabled":false,"rental_uris":{"android":"levelo://app?vid=b95bd059-db79-4290-bca3-5a38eb6a8b00","ios":"levelo://app?vid=b95bd059-db79-4290-bca3-5a38eb6a8b00"},"vehicle_type_id":"4","last_reported":1701900427,"current_range_meters":15600,"station_id":"ce4bhn12rcd13ifvqgqg","pricing_plan_id":"free"},{"bike_id":"2a73e8fa-c92c-487d-afb8-ed18138423a5","system_id":"levelo_inurba_marseille","lat":43.231794,"lon":5.400052,"is_reserved":false,"is_disabled":false,"rental_uris":{"android":"levelo://app?vid=2a73e8fa-c92c-487d-afb8-ed18138423a5","ios":"levelo://app?vid=2a73e8fa-c92c-487d-afb8-ed18138423a5"},"vehicle_type_id":"4","last_reported":1701900427,"current_range_meters":30000,"station_id":"ce4bhn12rcd13ifvqgqg","pricing_plan_id":"free"},{"bike_id":"bf500768-3452-4ed8-986e-9bf0ce06cb33","system_id":"levelo_inurba_marseille","lat":43.231816,"lon":5.399806,"is_reserved":false,"is_disabled":false,"rental_uris":{"android":"levelo://app?vid=bf500768-3452-4ed8-986e-9bf0ce06cb33","ios":"levelo://app?vid=bf500768-3452-4ed8-986e-9bf0ce06cb33"},"vehicle_type_id":"4","last_reported":1701900427,"current_range_meters":9200,"station_id":"ce4bhn12rcd13ifvqgqg","pricing_plan_id":"free"},{"bike_id":"32b30606-14b9-41e6-a49f-da3543c8206c","system_id":"levelo_inurba_marseille","lat":43.231562,"lon":5.436933,"is_reserved":false,"is_disabled":false,"rental_uris":{"android":"levelo://app?vid=32b30606-14b9-41e6-a49f-da3543c8206c","ios":"levelo://app?vid=32b30606-14b9-41e6-a49f-da3543c8206c"},"vehicle_type_id":"4","last_reported":1701900427,"current_range_meters":24800,"station_id":"ce4bhmp2rcd13ifvqgog","pricing_plan_id":"free"},{"bike_id":"58123e06-d55b-449c-a2fc-e1b20834e853","system_id":"levelo_inurba_marseille","lat":43.23154,"lon":5.43711,"is_reserved":false,"is_disabled":false,"rental_uris":{"android":"levelo://app?vid=58123e06-d55b-449c-a2fc-e1b20834e853","ios":"levelo://app?vid=58123e06-d55b-449c-a2fc-e1b20834e853"},"vehicle_type_id":"4","last_reported":1701900427,"current_range_meters":4800,"station_id":"ce4bhmp2rcd13ifvqgog","pricing_plan_id":"free"},{"bike_id":"dafb76d3-48a3-4e10-8abe-6207ac6827bf","system_id":"levelo_inurba_marseille","lat":43.231562,"lon":5.436933,"is_reserved":false,"is_disabled":false,"rental_uris":{"android":"levelo://app?vid=dafb76d3-48a3-4e10-8abe-6207ac6827bf","ios":"levelo://app?vid=dafb76d3-48a3-4e10-8abe-6207ac6827bf"},"vehicle_type_id":"4","last_reported":1701900427,"current_range_meters":16000,"station_id":"ce4bhmp2rcd13ifvqgog","pricing_plan_id":"free"}]}}