{"last_updated":1752045153,"ttl":60,"version":"2.2","data":{"bikes":[{"bike_id":"cd20cfea-2f2f-444d-a882-a49b6cf370eb","system_id":"levelo_inurba_marseille","lat":43.337444,"lon":5.374475,"is_reserved":false,"is_disabled":true,"rental_uris":{"android":"levelo://app?vid=cd20cfea-2f2f-444d-a882-a49b6cf370eb","ios":"levelo://app?vid=cd20cfea-2f2f-444d-a882-a49b6cf370eb"},"vehicle_type_id":"4","last_reported":1752045153,"current_range_meters":0,"station_id":"","pricing_plan_id":"cebpf4jnsgd1na2vs0mg"},{"bike_id":"3da29fb8-fc97-44c6-b9ac-31dd456b2fd4","system_id":"levelo_inurba_marseille","lat":43.33771,"lon":5.37424,"is_reserved":false,"is_disabled":true,"rental_uris":{"android":"levelo://app?vid=3da29fb8-fc97-44c6-b9ac-31dd456b2fd4","ios":"levelo://app?vid=3da29fb8-fc97-44c6-b9ac-31dd456b2fd4"},"vehicle_type_id":"4","last_reported":1752045153,"current_range_meters":0,"station_id":"","pricing_plan_id":"cebpf4jnsgd1na2vs0mg"},{"bike_id":"01861ad8-a8d7-4be6-816e-651927c87584","system_id":"levelo_inurba_marseille","lat":43.33751,"lon":5.37456,"is_reserved":false,"is_disabled":true,"rental_uris":{"android":"levelo://app?vid=01861ad8-a8d7-4be6-816e-651927c87584","ios":"levelo://app?vid=01861ad8-a8d7-4be6-816e-651927c87584"},"vehicle_type_id":"4","last_reported":1752045153,"current_range_meters":0,"station_id":"","pricing_plan_id":"cebpf4jnsgd1na2vs0mg"},{"bike_id":"3d508917-55ee-42b6-894b-89c2a444dc06","system_id":"levelo_inurba_marseille","lat":43.337791,"lon":5.374608,"is_reserved":false,"is_disabled":true,"rental_uris":{"android":"levelo://app?vid=3d508917-55ee-42b6-894b-89c2a444dc06","ios":"levelo://app?vid=3d508917-55ee-42b6-894b-89c2a444dc06"},"vehicle_type_id":"4","last_reported":1752045153,"current_range_meters":0,"station_id":"","pricing_plan_id":"cebpf4jnsgd1na2vs0mg"},{"bike_id":"53b1a31e-8ada-40c0-8d64-113a81233c84","system_id":"levelo_inurba_marseille","lat":43.36404,"lon":5.31919,"is_reserved":false,"is_disabled":true,"rental_uris":{"android":"levelo://app?vid=53b1a31e-8ada-40c0-8d64-113a81233c84","ios":"levelo://app?vid=53b1a31e-8ada-40c0-8d64-113a81233c84"},"vehicle_type_id":"4","last_reported":1752045153,"current_range_meters":0,"station_id":"","pricing_plan_id":"cebpf4jnsgd1na2vs0mg"},{"bike_id":"58f55a5c-ed24-41a2-a2d7-e6fe4f18e0b2","system_id":"levelo_inurba_marseille","lat":43.301897,"lon":5.400379,"is_reserved":false,"is_disabled":true,"rental_uris":{"android":"levelo://app?vid=58f55a5c-ed24-41a2-a2d7-e6fe4f18e0b2","ios":"levelo://app?vid=58f55a5c-ed24-41a2-a2d7-e6fe4f18e0b2"},"vehicle_type_id":"4","last_reported":1752045153,"current_range_meters":0,"station_id":"","pricing_plan_id":"cebpf4jnsgd1na2vs0mg"},{"bike_id":"15c906f8-7526-450c-9b32-85bc5c976960","system_id":"levelo_inurba_marseille","lat":43.29932,"lon":5.36543,"is_reserved":false,"is_disabled":true,"rental_uris":{"android":"levelo://app?vid=15c906f8-7526-450c-9b32-85bc5c976960","ios":"levelo://app?vid=15c906f8-7526-450c-9b32-85bc5c976960"},"vehicle_type_id":"4","last_reported":1752045153,"current_range_meters":0,"station_id":"ce4bgm92rcd13ifvqbr0","pricing_plan_id":"cebpf4jnsgd1na2vs0mg"},{"bike_id":"2745534a-5ee1-4e83-b6cb-0eec115a2c9e","system_id":"levelo_inurba_marseille","lat":43.31343,"lon":5.36697,"is_reserved":false,"is_disabled":true,"rental_uris":{"android":"levelo://app?vid=2745534a-5ee1-4e83-b6cb-0eec115a2c9e","ios":"levelo://app?vid=2745534a-5ee1-4e83-b6cb-0eec115a2c9e"},"vehicle_type_id":"4","last_reported":1752045153,"current_range_meters":0,"station_id":"ce4bgr92rcd13ifvqc6g","pricing_plan_id":"cebpf4jnsgd1na2vs0mg"},{"bike_id":"b593fee9-53bc-4fb8-b335-65ac53c18c3b","system_id":"levelo_inurba_marseille","lat":43.28414,"lon":5.34982,"is_reserved":false,"is_disabled":true,"rental_uris":{"android":"levelo://app?vid=b593fee9-53bc-4fb8-b335-65ac53c18c3b","ios":"levelo://app?vid=b593fee9-53bc-4fb8-b335-65ac53c18c3b"},"vehicle_type_id":"4","last_reported":1752045153,"current_range_meters":0,"station_id":"ce4bhbh2rcd13ifvqepg","pricing_plan_id":"cebpf4jnsgd1na2vs0mg"},{"bike_id":"b46ad819-e64b-454b-8826-dbe61468145f","system_id":"levelo_inurba_marseille","lat":43.29266,"lon":5.36847,"is_reserved":false,"is_disabled":true,"rental_uris":{"android":"levelo://app?vid=b46ad819-e64b-454b-8826-dbe61468145f","ios":"levelo://app?vid=b46ad819-e64b-454b-8826-dbe61468145f"},"vehicle_type_id":"4","last_reported":1752045153,"current_range_meters":0,"station_id":"ce4bhbp2rcd13ifvqesg","pricing_plan_id":"cebpf4jnsgd1na2vs0mg"},{"bike_id":"4c669e22-66d1-46c8-bdef-1d9d16b1f0c6","system_id":"levelo_inurba_marseille","lat":43.28596,"lon":5.35086,"is_reserved":false,"is_disabled":true,"rental_uris":{"android":"levelo://app?vid=4c669e22-66d1-46c8-bdef-1d9d16b1f0c6","ios":"levelo://app?vid=4c669e22-66d1-46c8-bdef-1d9d16b1f0c6"},"vehicle_type_id":"4","last_reported":1752045153,"current_range_meters":0,"station_id":"ce4bhch2rcd13ifvqeug","pricing_plan_id":"cebpf4jnsgd1na2vs0mg"},{"bike_id":"3b638e02-6a55-403d-b500-cc62d0041fbc","system_id":"levelo_inurba_marseille","lat":43.26937,"lon":5.38905,"is_reserved":false,"is_disabled":true,"rental_uris":{"android":"levelo://app?vid=3b638e02-6a55-403d-b500-cc62d0041fbc","ios":"levelo://app?vid=3b638e02-6a55-403d-b500-cc62d0041fbc"},"vehicle_type_id":"4","last_reported":1752045153,"current_range_meters":0,"station_id":"ce4bhhh2rcd13ifvqfl0","pricing_plan_id":"cebpf4jnsgd1na2vs0mg"},{"bike_id":"47cc12e9-1f9d-4b29-b948-db655857089a","system_id":"levelo_inurba_marseille","lat":43.22492,"lon":5.34764,"is_reserved":false,"is_disabled":true,"rental_uris":{"android":"levelo://app?vid=47cc12e9-1f9d-4b29-b948-db655857089a","ios":"levelo://app?vid=47cc12e9-1f9d-4b29-b948-db655857089a"},"vehicle_type_id":"4","last_reported":1752045153,"current_range_meters":0,"station_id":"st_cvj5dfep6f1abm77gieg","pricing_plan_id":"cebpf4jnsgd1na2vs0mg"},{"bike_id":"ed290504-6948-4f69-8584-2e2b0286febf","system_id":"levelo_inurba_marseille","lat":43.211939,"lon":5.350721,"is_reserved":false,"is_disabled":true,"rental_uris":{"android":"levelo://app?vid=ed290504-6948-4f69-8584-2e2b0286febf","ios":"levelo://app?vid=ed290504-6948-4f69-8584-2e2b0286febf"},"vehicle_type_id":"4","last_reported":1752045153,"current_range_meters":0,"station_id":"st_cvj6sg6p6f1abm77japg","pricing_plan_id":"cebpf4jnsgd1na2vs0mg"},{"bike_id":"6661cbd2-6ba2-4b46-b15e-1188df0f29d7","system_id":"levelo_inurba_marseille","lat":43.211963,"lon":5.35077,"is_reserved":false,"is_disabled":true,"rental_uris":{"android":"levelo://app?vid=6661cbd2-6ba2-4b46-b15e-1188df0f29d7","ios":"levelo://app?vid=6661cbd2-6ba2-4b46-b15e-1188df0f29d7"},"vehicle_type_id":"4","last_reported":1752045153,"current_range_meters":0,"station_id":"st_cvj6sg6p6f1abm77japg","pricing_plan_id":"cebpf4jnsgd1na2vs0mg"},{"bike_id":"207a517b-776b-447e-b35f-0c0feb37de15","system_id":"levelo_inurba_marseille","lat":43.29937,"lon":5.36536,"is_reserved":false,"is_disabled":true,"rental_uris":{"android":"levelo://app?vid=207a517b-776b-447e-b35f-0c0feb37de15","ios":"levelo://app?vid=207a517b-776b-447e-b35f-0c0feb37de15"},"vehicle_type_id":"4","last_reported":1752045153,"current_range_meters":400,"station_id":"ce4bgm92rcd13ifvqbr0","pricing_plan_id":"cebpf4jnsgd1na2vs0mg"},{"bike_id":"008e8804-2b69-4a2c-a93c-b87deb88b29b","system_id":"levelo_inurba_marseille","lat":43.30786,"lon":5.37638,"is_reserved":false,"is_disabled":true,"rental_uris":{"android":"levelo://app?vid=008e8804-2b69-4a2c-a93c-b87deb88b29b","ios":"levelo://app?vid=008e8804-2b69-4a2c-a93c-b87deb88b29b"},"vehicle_type_id":"4","last_reported":1752045153,"current_range_meters":400,"station_id":"ce4bgv92rcd13ifvqcq0","pricing_plan_id":"cebpf4jnsgd1na2vs0mg"},{"bike_id":"b1ffe3ab-9786-45b2-911c-b4f887813b14","system_id":"levelo_inurba_marseille","lat":43.27198,"lon":5.39189,"is_reserved":false,"is_disabled":true,"rental_uris":{"android":"levelo://app?vid=b1ffe3ab-9786-45b2-911c-b4f887813b14","ios":"levelo://app?vid=b1ffe3ab-9786-45b2-911c-b4f887813b14"},"vehicle_type_id":"4","last_reported":1752045153,"current_range_meters":400,"station_id":"ce4bhhp2rcd13ifvqfm0","pricing_plan_id":"cebpf4jnsgd1na2vs0mg"},{"bike_id":"323de8b7-f8f5-41a8-a2db-32b31d686ff2","system_id":"levelo_inurba_marseille","lat":43.25934,"lon":5.40903,"is_reserved":false,"is_disabled":true,"rental_uris":{"android":"levelo://app?vid=323de8b7-f8f5-41a8-a2db-32b31d686ff2","ios":"levelo://app?vid=323de8b7-f8f5-41a8-a2db-32b31d686ff2"},"vehicle_type_id":"4","last_reported":1752045153,"current_range_meters":400,"station_id":"ce4bhm92rcd13ifvqglg","pricing_plan_id":"cebpf4jnsgd1na2vs0mg"},{"bike_id":"0070a0a2-2342-4533-b884-6c25bb41c553","system_id":"levelo_inurba_marseille","lat":43.24081,"lon":5.37752,"is_reserved":false,"is_disabled":true,"rental_uris":{"android":"levelo://app?vid=0070a0a2-2342-4533-b884-6c25bb41c553","ios":"levelo://app?vid=0070a0a2-2342-4533-b884-6c25bb41c553"},"vehicle_type_id":"4","last_reported":1752045153,"current_range_meters":400,"station_id":"ce4bhnp2rcd13ifvqgvg","pricing_plan_id":"cebpf4jnsgd1na2vs0mg"},{"bike_id":"7382c600-e780-4213-bcc8-74d46a001aff","system_id":"levelo_inurba_marseille","lat":43.28613,"lon":5.37054,"is_reserved":false,"is_disabled":true,"rental_uris":{"android":"levelo://app?vid=7382c600-e780-4213-bcc8-74d46a001aff","ios":"levelo://app?vid=7382c600-e780-4213-bcc8-74d46a001aff"},"vehicle_type_id":"4","last_reported":1752045153,"current_range_meters":400,"station_id":"ce4bht12rcd13ifvqi60","pricing_plan_id":"cebpf4jnsgd1na2vs0mg"},{"bike_id":"47913d0b-63e2-4f8a-b59e-a936efb923be","system_id":"levelo_inurba_marseille","lat":43.26819,"lon":5.39418,"is_reserved":false,"is_disabled":true,"rental_uris":{"android":"levelo://app?vid=47913d0b-63e2-4f8a-b59e-a936efb923be","ios":"levelo://app?vid=47913d0b-63e2-4f8a-b59e-a936efb923be"},"vehicle_type_id":"4","last_reported":1752045153,"current_range_meters":800,"station_id":"ce4bhh12rcd13ifvqfg0","pricing_plan_id":"cebpf4jnsgd1na2vs0mg"},{"bike_id":"de61aa83-6eed-4ba2-a72f-27d0a0143fc0","system_id":"levelo_inurba_marseille","lat":43.30954,"lon":5.39041,"is_reserved":false,"is_disabled":true,"rental_uris":{"android":"levelo://app?vid=de61aa83-6eed-4ba2-a72f-27d0a0143fc0","ios":"levelo://app?vid=de61aa83-6eed-4ba2-a72f-27d0a0143fc0"},"vehicle_type_id":"4","last_reported":1752045153,"current_range_meters":1200,"station_id":"ce4bgup2rcd13ifvqco0","pricing_plan_id":"cebpf4jnsgd1na2vs0mg"},{"bike_id":"3ee8b8c2-4199-41c9-ac6a-16fb42ccb0c9","system_id":"levelo_inurba_marseille","lat":43.30343,"lon":5.40429,"is_reserved":false,"is_disabled":true,"rental_uris":{"android":"levelo://app?vid=3ee8b8c2-4199-41c9-ac6a-16fb42ccb0c9","ios":"levelo://app?vid=3ee8b8c2-4199-41c9-ac6a-16fb42ccb0c9"},"vehicle_type_id":"4","last_reported":1752045153,"current_range_meters":1200,"station_id":"ce4bh012rcd13ifvqd10","pricing_plan_id":"cebpf4jnsgd1na2vs0mg"},{"bike_id":"cef03ba1-bfe1-4492-b9ec-f1ba3ab96f5d","system_id":"levelo_inurba_marseille","lat":43.31275,"lon":5.40161,"is_reserved":false,"is_disabled":true,"rental_uris":{"android":"levelo://app?vid=cef03ba1-bfe1-4492-b9ec-f1ba3ab96f5d","ios":"levelo://app?vid=cef03ba1-bfe1-4492-b9ec-f1ba3ab96f5d"},"vehicle_type_id":"4","last_reported":1752045153,"current_range_meters":1200,"station_id":"ce4bh092rcd13ifvqd30","pricing_plan_id":"cebpf4jnsgd1na2vs0mg"},{"bike_id":"9aca416b-f546-45a3-bdfd-9ccfea7fafa7","system_id":"levelo_inurba_marseille","lat":43.28482,"lon":5.38418,"is_reserved":false,"is_disabled":true,"rental_uris":{"android":"levelo://app?vid=9aca416b-f546-45a3-bdfd-9ccfea7fafa7","ios":"levelo://app?vid=9aca416b-f546-45a3-bdfd-9ccfea7fafa7"},"vehicle_type_id":"4","last_reported":1752045153,"current_range_meters":1200,"station_id":"ce4bh512rcd13ifvqe3g","pricing_plan_id":"cebpf4jnsgd1na2vs0mg"},{"bike_id":"8c1dacb9-f31f-4959-9235-74fd350d5488","system_id":"levelo_inurba_marseille","lat":43.28269,"lon":5.35068,"is_reserved":false,"is_disabled":true,"rental_uris":{"android":"levelo://app?vid=8c1dacb9-f31f-4959-9235-74fd350d5488","ios":"levelo://app?vid=8c1dacb9-f31f-4959-9235-74fd350d5488"},"vehicle_type_id":"4","last_reported":1752045153,"current_range_meters":1200,"station_id":"ce4bhbp2rcd13ifvqerg","pricing_plan_id":"cebpf4jnsgd1na2vs0mg"},{"bike_id":"e562ad4e-a577-4b7b-a74e-7e00b9c0f52f","system_id":"levelo_inurba_marseille","lat":43.22504,"lon":5.3478,"is_reserved":false,"is_disabled":true,"rental_uris":{"android":"levelo://app?vid=e562ad4e-a577-4b7b-a74e-7e00b9c0f52f","ios":"levelo://app?vid=e562ad4e-a577-4b7b-a74e-7e00b9c0f52f"},"vehicle_type_id":"4","last_reported":1752045153,"current_range_meters":1200,"station_id":"st_cvj5dfep6f1abm77gieg","pricing_plan_id":"cebpf4jnsgd1na2vs0mg"},{"bike_id":"016bd35e-f269-48d7-bbb5-a83fa4a713c1","system_id":"levelo_inurba_marseille","lat":43.2929,"lon":5.37449,"is_reserved":false,"is_disabled":true,"rental_uris":{"android":"levelo://app?vid=016bd35e-f269-48d7-bbb5-a83fa4a713c1","ios":"levelo://app?vid=016bd35e-f269-48d7-bbb5-a83fa4a713c1"},"vehicle_type_id":"4","last_reported":1752045153,"current_range_meters":1600,"station_id":"ce4bgi12rcd13ifvqb70","pricing_plan_id":"cebpf4jnsgd1na2vs0mg"},{"bike_id":"fbf38ac0-e5c8-4f30-9d11-401d6c9ef193","system_id":"levelo_inurba_marseille","lat":43.29099,"lon":5.38131,"is_reserved":false,"is_disabled":true,"rental_uris":{"android":"levelo://app?vid=fbf38ac0-e5c8-4f30-9d11-401d6c9ef193","ios":"levelo://app?vid=fbf38ac0-e5c8-4f30-9d11-401d6c9ef193"},"vehicle_type_id":"4","last_reported":1752045153,"current_range_meters":1600,"station_id":"ce4bh512rcd13ifvqe2g","pricing_plan_id":"cebpf4jnsgd1na2vs0mg"},{"bike_id":"d75c183d-0453-4994-8974-66f68a1ac68b","system_id":"levelo_inurba_marseille","lat":43.29055,"lon":5.3757,"is_reserved":false,"is_disabled":true,"rental_uris":{"android":"levelo://app?vid=d75c183d-0453-4994-8974-66f68a1ac68b","ios":"levelo://app?vid=d75c183d-0453-4994-8974-66f68a1ac68b"},"vehicle_type_id":"4","last_reported":1752045153,"current_range_meters":1600,"station_id":"ce4bh692rcd13ifvqe90","pricing_plan_id":"cebpf4jnsgd1na2vs0mg"},{"bike_id":"92d2274d-2cf5-4029-a6eb-1d2c62b8e9dd","system_id":"levelo_inurba_marseille","lat":43.28966,"lon":5.37857,"is_reserved":false,"is_disabled":true,"rental_uris":{"android":"levelo://app?vid=92d2274d-2cf5-4029-a6eb-1d2c62b8e9dd","ios":"levelo://app?vid=92d2274d-2cf5-4029-a6eb-1d2c62b8e9dd"},"vehicle_type_id":"4","last_reported":1752045153,"current_range_meters":1600,"station_id":"ce4bh9p2rcd13ifvqed0","pricing_plan_id":"cebpf4jnsgd1na2vs0mg"},{"bike_id":"8f6245d4-a3a7-4bbe-b339-ed1cd1bd0a9e","system_id":"levelo_inurba_marseille","lat":43.27211,"lon":5.39194,"is_reserved":false,"is_disabled":true,"rental_uris":{"android":"levelo://app?vid=8f6245d4-a3a7-4bbe-b339-ed1cd1bd0a9e","ios":"levelo://app?vid=8f6245d4-a3a7-4bbe-b339-ed1cd1bd0a9e"},"vehicle_type_id":"4","last_reported":1752045153,"current_range_meters":1600,"station_id":"ce4bhhp2rcd13ifvqfm0","pricing_plan_id":"cebpf4jnsgd1na2vs0mg"},{"bike_id":"9dbf864e-62fa-4a55-90c4-12a7822b7e41","system_id":"levelo_inurba_marseille","lat":43.28662,"lon":5.38659,"is_reserved":false,"is_disabled":true,"rental_uris":{"android":"levelo://app?vid=9dbf864e-62fa-4a55-90c4-12a7822b7e41","ios":"levelo://app?vid=9dbf864e-62fa-4a55-90c4-12a7822b7e41"},"vehicle_type_id":"4","last_reported":1752045153,"current_range_meters":2000,"station_id":"ce4bh492rcd13ifvqdug","pricing_plan_id":"cebpf4jnsgd1na2vs0mg"},{"bike_id":"3d3bd089-933e-4a03-8138-484027b55951","system_id":"levelo_inurba_marseille","lat":43.29089,"lon":5.38119,"is_reserved":false,"is_disabled":true,"rental_uris":{"android":"levelo://app?vid=3d3bd089-933e-4a03-8138-484027b55951","ios":"levelo://app?vid=3d3bd089-933e-4a03-8138-484027b55951"},"vehicle_type_id":"4","last_reported":1752045153,"current_range_meters":2000,"station_id":"ce4bh512rcd13ifvqe2g","pricing_plan_id":"cebpf4jnsgd1na2vs0mg"},{"bike_id":"aae81fe4-c25f-4831-aa8e-aab7d56ef406","system_id":"levelo_inurba_marseille","lat":43.26782,"lon":5.39412,"is_reserved":false,"is_disabled":true,"rental_uris":{"android":"levelo://app?vid=aae81fe4-c25f-4831-aa8e-aab7d56ef406","ios":"levelo://app?vid=aae81fe4-c25f-4831-aa8e-aab7d56ef406"},"vehicle_type_id":"4","last_reported":1752045153,"current_range_meters":2000,"station_id":"ce4bhh12rcd13ifvqfg0","pricing_plan_id":"cebpf4jnsgd1na2vs0mg"},{"bike_id":"cbc6dc46-7830-4e5d-9e05-f92882ba7875","system_id":"levelo_inurba_marseille","lat":43.25723,"lon":5.411,"is_reserved":false,"is_disabled":true,"rental_uris":{"android":"levelo://app?vid=cbc6dc46-7830-4e5d-9e05-f92882ba7875","ios":"levelo://app?vid=cbc6dc46-7830-4e5d-9e05-f92882ba7875"},"vehicle_type_id":"4","last_reported":1752045153,"current_range_meters":2000,"station_id":"ce4bhkp2rcd13ifvqgd0","pricing_plan_id":"cebpf4jnsgd1na2vs0mg"},{"bike_id":"2bff9de0-dd27-4786-8c3a-ac93b8369f5d","system_id":"levelo_inurba_marseille","lat":43.21698,"lon":5.34695,"is_reserved":false,"is_disabled":false,"rental_uris":{"android":"levelo://app?vid=2bff9de0-dd27-4786-8c3a-ac93b8369f5d","ios":"levelo://app?vid=2bff9de0-dd27-4786-8c3a-ac93b8369f5d"},"vehicle_type_id":"4","last_reported":1752045153,"current_range_meters":2800,"station_id":"","pricing_plan_id":"cebpf4jnsgd1na2vs0mg"},{"bike_id":"e97ee5c0-87e5-403c-92ed-929b14d6ff8f","system_id":"levelo_inurba_marseille","lat":43.28292,"lon":5.384986,"is_reserved":false,"is_disabled":false,"rental_uris":{"android":"levelo://app?vid=e97ee5c0-87e5-403c-92ed-929b14d6ff8f","ios":"levelo://app?vid=e97ee5c0-87e5-403c-92ed-929b14d6ff8f"},"vehicle_type_id":"4","last_reported":1752045153,"current_range_meters":2800,"station_id":"","pricing_plan_id":"cebpf4jnsgd1na2vs0mg"},{"bike_id":"2b7f64da-ca6b-4820-b081-4c8b7dc85820","system_id":"levelo_inurba_marseille","lat":43.31412,"lon":5.37386,"is_reserved":false,"is_disabled":false,"rental_uris":{"android":"levelo://app?vid=2b7f64da-ca6b-4820-b081-4c8b7dc85820","ios":"levelo://app?vid=2b7f64da-ca6b-4820-b081-4c8b7dc85820"},"vehicle_type_id":"4","last_reported":1752045153,"current_range_meters":2800,"station_id":"ce4bgt12rcd13ifvqcd0","pricing_plan_id":"cebpf4jnsgd1na2vs0mg"},{"bike_id":"9ff07928-8116-4b76-98d3-f09370a0ced5","system_id":"levelo_inurba_marseille","lat":43.25111,"lon":5.40324,"is_reserved":false,"is_disabled":false,"rental_uris":{"android":"levelo://app?vid=9ff07928-8116-4b76-98d3-f09370a0ced5","ios":"levelo://app?vid=9ff07928-8116-4b76-98d3-f09370a0ced5"},"vehicle_type_id":"4","last_reported":1752045153,"current_range_meters":2800,"station_id":"ce4bhlh2rcd13ifvqgig","pricing_plan_id":"cebpf4jnsgd1na2vs0mg"},{"bike_id":"4b948767-4865-407c-9d7b-78c0fe7b8691","system_id":"levelo_inurba_marseille","lat":43.25113,"lon":5.40321,"is_reserved":false,"is_disabled":false,"rental_uris":{"android":"levelo://app?vid=4b948767-4865-407c-9d7b-78c0fe7b8691","ios":"levelo://app?vid=4b948767-4865-407c-9d7b-78c0fe7b8691"},"vehicle_type_id":"4","last_reported":1752045153,"current_range_meters":2800,"station_id":"ce4bhlh2rcd13ifvqgig","pricing_plan_id":"cebpf4jnsgd1na2vs0mg"},{"bike_id":"7072a365-b73d-4286-b397-5b81adffab28","system_id":"levelo_inurba_marseille","lat":43.25485,"lon":5.37649,"is_reserved":false,"is_disabled":false,"rental_uris":{"android":"levelo://app?vid=7072a365-b73d-4286-b397-5b81adffab28","ios":"levelo://app?vid=7072a365-b73d-4286-b397-5b81adffab28"},"vehicle_type_id":"4","last_reported":1752045153,"current_range_meters":3200,"station_id":"ce4bhh12rcd13ifvqff0","pricing_plan_id":"cebpf4jnsgd1na2vs0mg"},{"bike_id":"d92d5661-dd37-41e5-bbbf-43104a6d29a1","system_id":"levelo_inurba_marseille","lat":43.2781,"lon":5.40705,"is_reserved":false,"is_disabled":false,"rental_uris":{"android":"levelo://app?vid=d92d5661-dd37-41e5-bbbf-43104a6d29a1","ios":"levelo://app?vid=d92d5661-dd37-41e5-bbbf-43104a6d29a1"},"vehicle_type_id":"4","last_reported":1752045153,"current_range_meters":3200,"station_id":"ce4bhnh2rcd13ifvqgtg","pricing_plan_id":"cebpf4jnsgd1na2vs0mg"},{"bike_id":"3b22f952-d0bc-4c00-8fd3-7e27b88aea23","system_id":"levelo_inurba_marseille","lat":43.29659,"lon":5.36245,"is_reserved":false,"is_disabled":false,"rental_uris":{"android":"levelo://app?vid=3b22f952-d0bc-4c00-8fd3-7e27b88aea23","ios":"levelo://app?vid=3b22f952-d0bc-4c00-8fd3-7e27b88aea23"},"vehicle_type_id":"4","last_reported":1752045153,"current_range_meters":3600,"station_id":"","pricing_plan_id":"cebpf4jnsgd1na2vs0mg"},{"bike_id":"be625a13-e5c9-4c5d-bc85-82158e65c6cd","system_id":"levelo_inurba_marseille","lat":43.305328,"lon":5.384181,"is_reserved":false,"is_disabled":false,"rental_uris":{"android":"levelo://app?vid=be625a13-e5c9-4c5d-bc85-82158e65c6cd","ios":"levelo://app?vid=be625a13-e5c9-4c5d-bc85-82158e65c6cd"},"vehicle_type_id":"4","last_reported":1752045153,"current_range_meters":3600,"station_id":"ce4bgg92rcd13ifvqb30","pricing_plan_id":"cebpf4jnsgd1na2vs0mg"},{"bike_id":"877453e3-10b3-48a4-a836-e21993b15d95","system_id":"levelo_inurba_marseille","lat":43.2439,"lon":5.3706,"is_reserved":false,"is_disabled":false,"rental_uris":{"android":"levelo://app?vid=877453e3-10b3-48a4-a836-e21993b15d95","ios":"levelo://app?vid=877453e3-10b3-48a4-a836-e21993b15d95"},"vehicle_type_id":"4","last_reported":1752045153,"current_range_meters":4000,"station_id":"ce4bhhh2rcd13ifvqfk0","pricing_plan_id":"cebpf4jnsgd1na2vs0mg"},{"bike_id":"37f2becd-23f9-4f13-a711-38b8024eeec7","system_id":"levelo_inurba_marseille","lat":43.33768,"lon":5.37516,"is_reserved":false,"is_disabled":false,"rental_uris":{"android":"levelo://app?vid=37f2becd-23f9-4f13-a711-38b8024eeec7","ios":"levelo://app?vid=37f2becd-23f9-4f13-a711-38b8024eeec7"},"vehicle_type_id":"4","last_reported":1752045153,"current_range_meters":4400,"station_id":"","pricing_plan_id":"cebpf4jnsgd1na2vs0mg"},{"bike_id":"14e7b21f-6a49-4bd8-adcb-9e2a34f46350","system_id":"levelo_inurba_marseille","lat":43.28111,"lon":5.39822,"is_reserved":false,"is_disabled":false,"rental_uris":{"android":"levelo://app?vid=14e7b21f-6a49-4bd8-adcb-9e2a34f46350","ios":"levelo://app?vid=14e7b21f-6a49-4bd8-adcb-9e2a34f46350"},"vehicle_type_id":"4","last_reported":1752045153,"current_range_meters":4400,"station_id":"","pricing_plan_id":"cebpf4jnsgd1na2vs0mg"},{"bike_id":"c98d0307-3157-4a39-9409-864e8e505802","system_id":"levelo_inurba_marseille","lat":43.24176,"lon":5.39358,"is_reserved":false,"is_disabled":false,"rental_uris":{"android":"levelo://app?vid=c98d0307-3157-4a39-9409-864e8e505802","ios":"levelo://app?vid=c98d0307-3157-4a39-9409-864e8e505802"},"vehicle_type_id":"4","last_reported":1752045153,"current_range_meters":4400,"station_id":"","pricing_plan_id":"cebpf4jnsgd1na2vs0mg"},{"bike_id":"e4796752-7046-4849-84b6-acd677961985","system_id":"levelo_inurba_marseille","lat":43.29361,"lon":5.378512,"is_reserved":false,"is_disabled":false,"rental_uris":{"android":"levelo://app?vid=e4796752-7046-4849-84b6-acd677961985","ios":"levelo://app?vid=e4796752-7046-4849-84b6-acd677961985"},"vehicle_type_id":"4","last_reported":1752045153,"current_range_meters":4400,"station_id":"","pricing_plan_id":"cebpf4jnsgd1na2vs0mg"},{"bike_id":"bfc2a016-9cd0-491b-aae1-062ae28dff6d","system_id":"levelo_inurba_marseille","lat":43.26679,"lon":5.3827,"is_reserved":false,"is_disabled":false,"rental_uris":{"android":"levelo://app?vid=bfc2a016-9cd0-491b-aae1-062ae28dff6d","ios":"levelo://app?vid=bfc2a016-9cd0-491b-aae1-062ae28dff6d"},"vehicle_type_id":"4","last_reported":1752045153,"current_range_meters":4400,"station_id":"ce4bhg92rcd13ifvqf90","pricing_plan_id":"cebpf4jnsgd1na2vs0mg"},{"bike_id":"b8de4260-d6f3-4d4c-b10a-4a126bf007b8","system_id":"levelo_inurba_marseille","lat":43.311137,"lon":5.377027,"is_reserved":false,"is_disabled":false,"rental_uris":{"android":"levelo://app?vid=b8de4260-d6f3-4d4c-b10a-4a126bf007b8","ios":"levelo://app?vid=b8de4260-d6f3-4d4c-b10a-4a126bf007b8"},"vehicle_type_id":"4","last_reported":1752045153,"current_range_meters":4800,"station_id":"","pricing_plan_id":"cebpf4jnsgd1na2vs0mg"},{"bike_id":"495c05fb-cedb-49b5-900e-216f1f852790","system_id":"levelo_inurba_marseille","lat":43.25494,"lon":5.37649,"is_reserved":false,"is_disabled":false,"rental_uris":{"android":"levelo://app?vid=495c05fb-cedb-49b5-900e-216f1f852790","ios":"levelo://app?vid=495c05fb-cedb-49b5-900e-216f1f852790"},"vehicle_type_id":"4","last_reported":1752045153,"current_range_meters":4800,"station_id":"ce4bhh12rcd13ifvqff0","pricing_plan_id":"cebpf4jnsgd1na2vs0mg"},{"bike_id":"f78ae41b-f0b6-4fdf-8d8c-6cb11c1727dc","system_id":"levelo_inurba_marseille","lat":43.25716,"lon":5.41111,"is_reserved":false,"is_disabled":false,"rental_uris":{"android":"levelo://app?vid=f78ae41b-f0b6-4fdf-8d8c-6cb11c1727dc","ios":"levelo://app?vid=f78ae41b-f0b6-4fdf-8d8c-6cb11c1727dc"},"vehicle_type_id":"4","last_reported":1752045153,"current_range_meters":4800,"station_id":"ce4bhkp2rcd13ifvqgd0","pricing_plan_id":"cebpf4jnsgd1na2vs0mg"},{"bike_id":"2c423baa-ecca-420a-87d7-ad0b7e0b9ebb","system_id":"levelo_inurba_marseille","lat":43.280386,"lon":5.3536,"is_reserved":false,"is_disabled":false,"rental_uris":{"android":"levelo://app?vid=2c423baa-ecca-420a-87d7-ad0b7e0b9ebb","ios":"levelo://app?vid=2c423baa-ecca-420a-87d7-ad0b7e0b9ebb"},"vehicle_type_id":"4","last_reported":1752045153,"current_range_meters":6000,"station_id":"","pricing_plan_id":"cebpf4jnsgd1na2vs0mg"},{"bike_id":"252a58c7-d89c-49ef-add3-f0cfe321920b","system_id":"levelo_inurba_marseille","lat":43.29295,"lon":5.37441,"is_reserved":false,"is_disabled":false,"rental_uris":{"android":"levelo://app?vid=252a58c7-d89c-49ef-add3-f0cfe321920b","ios":"levelo://app?vid=252a58c7-d89c-49ef-add3-f0cfe321920b"},"vehicle_type_id":"4","last_reported":1752045153,"current_range_meters":6000,"station_id":"ce4bgi12rcd13ifvqb70","pricing_plan_id":"cebpf4jnsgd1na2vs0mg"},{"bike_id":"dcd5f279-391c-4610-ba1a-4ffea8e2068b","system_id":"levelo_inurba_marseille","lat":43.30595,"lon":5.37228,"is_reserved":false,"is_disabled":false,"rental_uris":{"android":"levelo://app?vid=dcd5f279-391c-4610-ba1a-4ffea8e2068b","ios":"levelo://app?vid=dcd5f279-391c-4610-ba1a-4ffea8e2068b"},"vehicle_type_id":"4","last_reported":1752045153,"current_range_meters":6000,"station_id":"ce4bgqh2rcd13ifvqc4g","pricing_plan_id":"cebpf4jnsgd1na2vs0mg"},{"bike_id":"bcef6483-64fe-42a6-a47b-f30dede89a1d","system_id":"levelo_inurba_marseille","lat":43.30014,"lon":5.37197,"is_reserved":false,"is_disabled":false,"rental_uris":{"android":"levelo://app?vid=bcef6483-64fe-42a6-a47b-f30dede89a1d","ios":"levelo://app?vid=bcef6483-64fe-42a6-a47b-f30dede89a1d"},"vehicle_type_id":"4","last_reported":1752045153,"current_range_meters":6000,"station_id":"ce4bgr92rcd13ifvqc7g","pricing_plan_id":"cebpf4jnsgd1na2vs0mg"},{"bike_id":"ae868faa-1cb2-498a-9bfe-dda3f2c0d82a","system_id":"levelo_inurba_marseille","lat":43.24389,"lon":5.37061,"is_reserved":false,"is_disabled":false,"rental_uris":{"android":"levelo://app?vid=ae868faa-1cb2-498a-9bfe-dda3f2c0d82a","ios":"levelo://app?vid=ae868faa-1cb2-498a-9bfe-dda3f2c0d82a"},"vehicle_type_id":"4","last_reported":1752045153,"current_range_meters":6000,"station_id":"ce4bhhh2rcd13ifvqfk0","pricing_plan_id":"cebpf4jnsgd1na2vs0mg"},{"bike_id":"36f400aa-41af-41c8-baaf-605b9c5d5e7b","system_id":"levelo_inurba_marseille","lat":43.23154,"lon":5.43704,"is_reserved":false,"is_disabled":false,"rental_uris":{"android":"levelo://app?vid=36f400aa-41af-41c8-baaf-605b9c5d5e7b","ios":"levelo://app?vid=36f400aa-41af-41c8-baaf-605b9c5d5e7b"},"vehicle_type_id":"4","last_reported":1752045153,"current_range_meters":6000,"station_id":"ce4bhmp2rcd13ifvqgog","pricing_plan_id":"cebpf4jnsgd1na2vs0mg"},{"bike_id":"f56586ff-62aa-4a73-b309-15615bf55f8a","system_id":"levelo_inurba_marseille","lat":43.28615,"lon":5.35106,"is_reserved":false,"is_disabled":false,"rental_uris":{"android":"levelo://app?vid=f56586ff-62aa-4a73-b309-15615bf55f8a","ios":"levelo://app?vid=f56586ff-62aa-4a73-b309-15615bf55f8a"},"vehicle_type_id":"4","last_reported":1752045153,"current_range_meters":6400,"station_id":"ce4bhch2rcd13ifvqeug","pricing_plan_id":"cebpf4jnsgd1na2vs0mg"},{"bike_id":"cababae7-ea52-419c-a2c5-ec49054c9ae1","system_id":"levelo_inurba_marseille","lat":43.26212,"lon":5.37441,"is_reserved":false,"is_disabled":false,"rental_uris":{"android":"levelo://app?vid=cababae7-ea52-419c-a2c5-ec49054c9ae1","ios":"levelo://app?vid=cababae7-ea52-419c-a2c5-ec49054c9ae1"},"vehicle_type_id":"4","last_reported":1752045153,"current_range_meters":6400,"station_id":"ce4bhgp2rcd13ifvqfc0","pricing_plan_id":"cebpf4jnsgd1na2vs0mg"},{"bike_id":"8087e8f4-4f79-4a21-b64b-62f05003b07e","system_id":"levelo_inurba_marseille","lat":43.32333,"lon":5.40623,"is_reserved":false,"is_disabled":false,"rental_uris":{"android":"levelo://app?vid=8087e8f4-4f79-4a21-b64b-62f05003b07e","ios":"levelo://app?vid=8087e8f4-4f79-4a21-b64b-62f05003b07e"},"vehicle_type_id":"4","last_reported":1752045153,"current_range_meters":6400,"station_id":"ce4bhq92rcd13ifvqhjg","pricing_plan_id":"cebpf4jnsgd1na2vs0mg"},{"bike_id":"19c552da-55bc-46d8-97cb-d1fbabdad01a","system_id":"levelo_inurba_marseille","lat":43.21196,"lon":5.35062,"is_reserved":false,"is_disabled":false,"rental_uris":{"android":"levelo://app?vid=19c552da-55bc-46d8-97cb-d1fbabdad01a","ios":"levelo://app?vid=19c552da-55bc-46d8-97cb-d1fbabdad01a"},"vehicle_type_id":"4","last_reported":1752045153,"current_range_meters":6400,"station_id":"st_cvj6sg6p6f1abm77japg","pricing_plan_id":"cebpf4jnsgd1na2vs0mg"},{"bike_id":"355e2ee3-6caa-4b86-bdc3-60788f70cd17","system_id":"levelo_inurba_marseille","lat":43.30449,"lon":5.37903,"is_reserved":false,"is_disabled":false,"rental_uris":{"android":"levelo://app?vid=355e2ee3-6caa-4b86-bdc3-60788f70cd17","ios":"levelo://app?vid=355e2ee3-6caa-4b86-bdc3-60788f70cd17"},"vehicle_type_id":"4","last_reported":1752045153,"current_range_meters":6800,"station_id":"ce4bgup2rcd13ifvqcn0","pricing_plan_id":"cebpf4jnsgd1na2vs0mg"},{"bike_id":"06b2196c-467a-4700-84cd-e4cc903ce767","system_id":"levelo_inurba_marseille","lat":43.325086,"lon":5.367621,"is_reserved":false,"is_disabled":false,"rental_uris":{"android":"levelo://app?vid=06b2196c-467a-4700-84cd-e4cc903ce767","ios":"levelo://app?vid=06b2196c-467a-4700-84cd-e4cc903ce767"},"vehicle_type_id":"4","last_reported":1752045153,"current_range_meters":6800,"station_id":"ce4bhs12rcd13ifvqhvg","pricing_plan_id":"cebpf4jnsgd1na2vs0mg"},{"bike_id":"b19cc954-fb4a-46c0-bb93-43893dd92b54","system_id":"levelo_inurba_marseille","lat":43.29039,"lon":5.39961,"is_reserved":false,"is_disabled":false,"rental_uris":{"android":"levelo://app?vid=b19cc954-fb4a-46c0-bb93-43893dd92b54","ios":"levelo://app?vid=b19cc954-fb4a-46c0-bb93-43893dd92b54"},"vehicle_type_id":"4","last_reported":1752045153,"current_range_meters":7200,"station_id":"ce4bh392rcd13ifvqdm0","pricing_plan_id":"cebpf4jnsgd1na2vs0mg"},{"bike_id":"2d35dc48-3bd7-438c-a084-02f211f03f2d","system_id":"levelo_inurba_marseille","lat":43.284149,"lon":5.349854,"is_reserved":false,"is_disabled":false,"rental_uris":{"android":"levelo://app?vid=2d35dc48-3bd7-438c-a084-02f211f03f2d","ios":"levelo://app?vid=2d35dc48-3bd7-438c-a084-02f211f03f2d"},"vehicle_type_id":"4","last_reported":1752045153,"current_range_meters":7200,"station_id":"ce4bhbh2rcd13ifvqepg","pricing_plan_id":"cebpf4jnsgd1na2vs0mg"},{"bike_id":"46a10890-38c7-43a9-8555-8a420a40a8ae","system_id":"levelo_inurba_marseille","lat":43.23178,"lon":5.39989,"is_reserved":false,"is_disabled":false,"rental_uris":{"android":"levelo://app?vid=46a10890-38c7-43a9-8555-8a420a40a8ae","ios":"levelo://app?vid=46a10890-38c7-43a9-8555-8a420a40a8ae"},"vehicle_type_id":"4","last_reported":1752045153,"current_range_meters":7200,"station_id":"ce4bhn12rcd13ifvqgqg","pricing_plan_id":"cebpf4jnsgd1na2vs0mg"},{"bike_id":"3c94d2c6-2996-41de-9e54-fa8af7df6912","system_id":"levelo_inurba_marseille","lat":43.2172,"lon":5.34619,"is_reserved":false,"is_disabled":false,"rental_uris":{"android":"levelo://app?vid=3c94d2c6-2996-41de-9e54-fa8af7df6912","ios":"levelo://app?vid=3c94d2c6-2996-41de-9e54-fa8af7df6912"},"vehicle_type_id":"4","last_reported":1752045153,"current_range_meters":7200,"station_id":"st_cvj6r9ubvosntc0bgbag","pricing_plan_id":"cebpf4jnsgd1na2vs0mg"},{"bike_id":"7ba5d315-292b-4cb0-92c8-87182ced7c07","system_id":"levelo_inurba_marseille","lat":43.292268,"lon":5.360632,"is_reserved":false,"is_disabled":false,"rental_uris":{"android":"levelo://app?vid=7ba5d315-292b-4cb0-92c8-87182ced7c07","ios":"levelo://app?vid=7ba5d315-292b-4cb0-92c8-87182ced7c07"},"vehicle_type_id":"4","last_reported":1752045153,"current_range_meters":8000,"station_id":"ce4bhbh2rcd13ifvqeqg","pricing_plan_id":"cebpf4jnsgd1na2vs0mg"},{"bike_id":"bf69e250-20b4-4c8f-9e57-13395abd74f8","system_id":"levelo_inurba_marseille","lat":43.25926,"lon":5.40874,"is_reserved":false,"is_disabled":false,"rental_uris":{"android":"levelo://app?vid=bf69e250-20b4-4c8f-9e57-13395abd74f8","ios":"levelo://app?vid=bf69e250-20b4-4c8f-9e57-13395abd74f8"},"vehicle_type_id":"4","last_reported":1752045153,"current_range_meters":8000,"station_id":"ce4bhm92rcd13ifvqglg","pricing_plan_id":"cebpf4jnsgd1na2vs0mg"},{"bike_id":"373f7154-05e4-4923-8d21-eb4b99691656","system_id":"levelo_inurba_marseille","lat":43.315306,"lon":5.386863,"is_reserved":false,"is_disabled":false,"rental_uris":{"android":"levelo://app?vid=373f7154-05e4-4923-8d21-eb4b99691656","ios":"levelo://app?vid=373f7154-05e4-4923-8d21-eb4b99691656"},"vehicle_type_id":"4","last_reported":1752045153,"current_range_meters":8400,"station_id":"","pricing_plan_id":"cebpf4jnsgd1na2vs0mg"},{"bike_id":"a29e770b-0aa9-4deb-9c30-300b7b6b3657","system_id":"levelo_inurba_marseille","lat":43.31341,"lon":5.3671,"is_reserved":false,"is_disabled":false,"rental_uris":{"android":"levelo://app?vid=a29e770b-0aa9-4deb-9c30-300b7b6b3657","ios":"levelo://app?vid=a29e770b-0aa9-4deb-9c30-300b7b6b3657"},"vehicle_type_id":"4","last_reported":1752045153,"current_range_meters":8400,"station_id":"ce4bgr92rcd13ifvqc6g","pricing_plan_id":"cebpf4jnsgd1na2vs0mg"},{"bike_id":"b0fdf526-b17a-4e09-9ece-aae517ba4adb","system_id":"levelo_inurba_marseille","lat":43.30887,"lon":5.37204,"is_reserved":false,"is_disabled":false,"rental_uris":{"android":"levelo://app?vid=b0fdf526-b17a-4e09-9ece-aae517ba4adb","ios":"levelo://app?vid=b0fdf526-b17a-4e09-9ece-aae517ba4adb"},"vehicle_type_id":"4","last_reported":1752045153,"current_range_meters":8400,"station_id":"ce4bguh2rcd13ifvqckg","pricing_plan_id":"cebpf4jnsgd1na2vs0mg"},{"bike_id":"5f373bcd-a187-4616-8d68-3b4b681017ef","system_id":"levelo_inurba_marseille","lat":43.24386,"lon":5.37062,"is_reserved":false,"is_disabled":false,"rental_uris":{"android":"levelo://app?vid=5f373bcd-a187-4616-8d68-3b4b681017ef","ios":"levelo://app?vid=5f373bcd-a187-4616-8d68-3b4b681017ef"},"vehicle_type_id":"4","last_reported":1752045153,"current_range_meters":8400,"station_id":"ce4bhhh2rcd13ifvqfk0","pricing_plan_id":"cebpf4jnsgd1na2vs0mg"},{"bike_id":"888522e3-39b6-4ff3-ad74-ff6c6f771157","system_id":"levelo_inurba_marseille","lat":43.295,"lon":5.40274,"is_reserved":false,"is_disabled":false,"rental_uris":{"android":"levelo://app?vid=888522e3-39b6-4ff3-ad74-ff6c6f771157","ios":"levelo://app?vid=888522e3-39b6-4ff3-ad74-ff6c6f771157"},"vehicle_type_id":"4","last_reported":1752045153,"current_range_meters":8800,"station_id":"","pricing_plan_id":"cebpf4jnsgd1na2vs0mg"},{"bike_id":"68131559-19c0-4fe3-9b0b-ee71ca00dce3","system_id":"levelo_inurba_marseille","lat":43.31341,"lon":5.36697,"is_reserved":false,"is_disabled":false,"rental_uris":{"android":"levelo://app?vid=68131559-19c0-4fe3-9b0b-ee71ca00dce3","ios":"levelo://app?vid=68131559-19c0-4fe3-9b0b-ee71ca00dce3"},"vehicle_type_id":"4","last_reported":1752045153,"current_range_meters":8800,"station_id":"ce4bgr92rcd13ifvqc6g","pricing_plan_id":"cebpf4jnsgd1na2vs0mg"},{"bike_id":"d7eaeebc-48b0-45bf-b7fd-bf220b9b6b4c","system_id":"levelo_inurba_marseille","lat":43.29964,"lon":5.37145,"is_reserved":false,"is_disabled":false,"rental_uris":{"android":"levelo://app?vid=d7eaeebc-48b0-45bf-b7fd-bf220b9b6b4c","ios":"levelo://app?vid=d7eaeebc-48b0-45bf-b7fd-bf220b9b6b4c"},"vehicle_type_id":"4","last_reported":1752045153,"current_range_meters":8800,"station_id":"ce4bgr92rcd13ifvqc7g","pricing_plan_id":"cebpf4jnsgd1na2vs0mg"},{"bike_id":"b546ea33-b957-480f-88ac-07263bf49779","system_id":"levelo_inurba_marseille","lat":43.23149,"lon":5.43726,"is_reserved":false,"is_disabled":false,"rental_uris":{"android":"levelo://app?vid=b546ea33-b957-480f-88ac-07263bf49779","ios":"levelo://app?vid=b546ea33-b957-480f-88ac-07263bf49779"},"vehicle_type_id":"4","last_reported":1752045153,"current_range_meters":8800,"station_id":"ce4bhmp2rcd13ifvqgog","pricing_plan_id":"cebpf4jnsgd1na2vs0mg"},{"bike_id":"63a29694-4af7-4a38-a698-5b65cb87714a","system_id":"levelo_inurba_marseille","lat":43.32006,"lon":5.40794,"is_reserved":false,"is_disabled":false,"rental_uris":{"android":"levelo://app?vid=63a29694-4af7-4a38-a698-5b65cb87714a","ios":"levelo://app?vid=63a29694-4af7-4a38-a698-5b65cb87714a"},"vehicle_type_id":"4","last_reported":1752045153,"current_range_meters":9200,"station_id":"","pricing_plan_id":"cebpf4jnsgd1na2vs0mg"},{"bike_id":"e54a69bc-634c-4579-91a1-2ea1e7521c68","system_id":"levelo_inurba_marseille","lat":43.30214,"lon":5.37185,"is_reserved":false,"is_disabled":false,"rental_uris":{"android":"levelo://app?vid=e54a69bc-634c-4579-91a1-2ea1e7521c68","ios":"levelo://app?vid=e54a69bc-634c-4579-91a1-2ea1e7521c68"},"vehicle_type_id":"4","last_reported":1752045153,"current_range_meters":9200,"station_id":"","pricing_plan_id":"cebpf4jnsgd1na2vs0mg"},{"bike_id":"e742cf82-1765-407f-9c9e-814d952af329","system_id":"levelo_inurba_marseille","lat":43.25929,"lon":5.40892,"is_reserved":false,"is_disabled":false,"rental_uris":{"android":"levelo://app?vid=e742cf82-1765-407f-9c9e-814d952af329","ios":"levelo://app?vid=e742cf82-1765-407f-9c9e-814d952af329"},"vehicle_type_id":"4","last_reported":1752045153,"current_range_meters":9200,"station_id":"ce4bhm92rcd13ifvqglg","pricing_plan_id":"cebpf4jnsgd1na2vs0mg"},{"bike_id":"5684280b-b6f1-45e8-9f10-d09e6ce41f2c","system_id":"levelo_inurba_marseille","lat":43.3015,"lon":5.38089,"is_reserved":false,"is_disabled":false,"rental_uris":{"android":"levelo://app?vid=5684280b-b6f1-45e8-9f10-d09e6ce41f2c","ios":"levelo://app?vid=5684280b-b6f1-45e8-9f10-d09e6ce41f2c"},"vehicle_type_id":"4","last_reported":1752045153,"current_range_meters":9600,"station_id":"ce4bgjp2rcd13ifvqbh0","pricing_plan_id":"cebpf4jnsgd1na2vs0mg"},{"bike_id":"6cde8caf-1756-453c-88e0-a2cf34da7410","system_id":"levelo_inurba_marseille","lat":43.31362,"lon":5.36722,"is_reserved":false,"is_disabled":false,"rental_uris":{"android":"levelo://app?vid=6cde8caf-1756-453c-88e0-a2cf34da7410","ios":"levelo://app?vid=6cde8caf-1756-453c-88e0-a2cf34da7410"},"vehicle_type_id":"4","last_reported":1752045153,"current_range_meters":9600,"station_id":"ce4bgr92rcd13ifvqc6g","pricing_plan_id":"cebpf4jnsgd1na2vs0mg"},{"bike_id":"d6f62f29-ab79-4a02-835d-b3d6213e6667","system_id":"levelo_inurba_marseille","lat":43.25727,"lon":5.41105,"is_reserved":false,"is_disabled":false,"rental_uris":{"android":"levelo://app?vid=d6f62f29-ab79-4a02-835d-b3d6213e6667","ios":"levelo://app?vid=d6f62f29-ab79-4a02-835d-b3d6213e6667"},"vehicle_type_id":"4","last_reported":1752045153,"current_range_meters":9600,"station_id":"ce4bhkp2rcd13ifvqgd0","pricing_plan_id":"cebpf4jnsgd1na2vs0mg"},{"bike_id":"786d1f8e-48d7-45a6-98f0-0a0695f005c7","system_id":"levelo_inurba_marseille","lat":43.239589,"lon":5.366286,"is_reserved":false,"is_disabled":false,"rental_uris":{"android":"levelo://app?vid=786d1f8e-48d7-45a6-98f0-0a0695f005c7","ios":"levelo://app?vid=786d1f8e-48d7-45a6-98f0-0a0695f005c7"},"vehicle_type_id":"4","last_reported":1752045153,"current_range_meters":10000,"station_id":"ce4bhi12rcd13ifvqfp0","pricing_plan_id":"cebpf4jnsgd1na2vs0mg"},{"bike_id":"77c63ecf-8ec4-46ab-b695-3fed0ff0fb70","system_id":"levelo_inurba_marseille","lat":43.29895,"lon":5.43671,"is_reserved":false,"is_disabled":false,"rental_uris":{"android":"levelo://app?vid=77c63ecf-8ec4-46ab-b695-3fed0ff0fb70","ios":"levelo://app?vid=77c63ecf-8ec4-46ab-b695-3fed0ff0fb70"},"vehicle_type_id":"4","last_reported":1752045153,"current_range_meters":10000,"station_id":"ce4bhpp2rcd13ifvqhfg","pricing_plan_id":"cebpf4jnsgd1na2vs0mg"},{"bike_id":"b287377f-3d0b-47ac-86fe-9e0dfc1563de","system_id":"levelo_inurba_marseille","lat":43.225018,"lon":5.347769,"is_reserved":false,"is_disabled":false,"rental_uris":{"android":"levelo://app?vid=b287377f-3d0b-47ac-86fe-9e0dfc1563de","ios":"levelo://app?vid=b287377f-3d0b-47ac-86fe-9e0dfc1563de"},"vehicle_type_id":"4","last_reported":1752045153,"current_range_meters":10000,"station_id":"st_cvj5dfep6f1abm77gieg","pricing_plan_id":"cebpf4jnsgd1na2vs0mg"},{"bike_id":"d5ef770d-9759-47e3-b3a5-7d2785ef76db","system_id":"levelo_inurba_marseille","lat":43.32929,"lon":5.39031,"is_reserved":false,"is_disabled":false,"rental_uris":{"android":"levelo://app?vid=d5ef770d-9759-47e3-b3a5-7d2785ef76db","ios":"levelo://app?vid=d5ef770d-9759-47e3-b3a5-7d2785ef76db"},"vehicle_type_id":"4","last_reported":1752045153,"current_range_meters":10800,"station_id":"","pricing_plan_id":"cebpf4jnsgd1na2vs0mg"},{"bike_id":"3030cb07-c041-4d87-a253-8c849c24aa85","system_id":"levelo_inurba_marseille","lat":43.32638,"lon":5.36209,"is_reserved":false,"is_disabled":false,"rental_uris":{"android":"levelo://app?vid=3030cb07-c041-4d87-a253-8c849c24aa85","ios":"levelo://app?vid=3030cb07-c041-4d87-a253-8c849c24aa85"},"vehicle_type_id":"4","last_reported":1752045153,"current_range_meters":10800,"station_id":"","pricing_plan_id":"cebpf4jnsgd1na2vs0mg"},{"bike_id":"c2ee7d66-374b-44cd-b9d7-9ad64301293b","system_id":"levelo_inurba_marseille","lat":43.33792,"lon":5.37476,"is_reserved":false,"is_disabled":false,"rental_uris":{"android":"levelo://app?vid=c2ee7d66-374b-44cd-b9d7-9ad64301293b","ios":"levelo://app?vid=c2ee7d66-374b-44cd-b9d7-9ad64301293b"},"vehicle_type_id":"4","last_reported":1752045153,"current_range_meters":10800,"station_id":"","pricing_plan_id":"cebpf4jnsgd1na2vs0mg"},{"bike_id":"6b0d6e26-d218-4518-b165-1044f6093a42","system_id":"levelo_inurba_marseille","lat":43.28941,"lon":5.39626,"is_reserved":false,"is_disabled":false,"rental_uris":{"android":"levelo://app?vid=6b0d6e26-d218-4518-b165-1044f6093a42","ios":"levelo://app?vid=6b0d6e26-d218-4518-b165-1044f6093a42"},"vehicle_type_id":"4","last_reported":1752045153,"current_range_meters":10800,"station_id":"ce4bh3h2rcd13ifvqdn0","pricing_plan_id":"cebpf4jnsgd1na2vs0mg"},{"bike_id":"e3ddc414-0edc-455c-b91b-38bc9773d6df","system_id":"levelo_inurba_marseille","lat":43.231832,"lon":5.399914,"is_reserved":false,"is_disabled":false,"rental_uris":{"android":"levelo://app?vid=e3ddc414-0edc-455c-b91b-38bc9773d6df","ios":"levelo://app?vid=e3ddc414-0edc-455c-b91b-38bc9773d6df"},"vehicle_type_id":"4","last_reported":1752045153,"current_range_meters":10800,"station_id":"ce4bhn12rcd13ifvqgqg","pricing_plan_id":"cebpf4jnsgd1na2vs0mg"},{"bike_id":"2267b742-d2f4-4b32-a8bd-965f91ca2159","system_id":"levelo_inurba_marseille","lat":43.26679,"lon":5.38262,"is_reserved":false,"is_disabled":false,"rental_uris":{"android":"levelo://app?vid=2267b742-d2f4-4b32-a8bd-965f91ca2159","ios":"levelo://app?vid=2267b742-d2f4-4b32-a8bd-965f91ca2159"},"vehicle_type_id":"4","last_reported":1752045153,"current_range_meters":11200,"station_id":"ce4bhg92rcd13ifvqf90","pricing_plan_id":"cebpf4jnsgd1na2vs0mg"},{"bike_id":"82f40aca-214c-480a-99d7-4df294448107","system_id":"levelo_inurba_marseille","lat":43.254895,"lon":5.376448,"is_reserved":false,"is_disabled":false,"rental_uris":{"android":"levelo://app?vid=82f40aca-214c-480a-99d7-4df294448107","ios":"levelo://app?vid=82f40aca-214c-480a-99d7-4df294448107"},"vehicle_type_id":"4","last_reported":1752045153,"current_range_meters":11200,"station_id":"ce4bhh12rcd13ifvqff0","pricing_plan_id":"cebpf4jnsgd1na2vs0mg"},{"bike_id":"bb29e41f-3292-49b1-a9fc-f6c4198e0b85","system_id":"levelo_inurba_marseille","lat":43.310839,"lon":5.424294,"is_reserved":false,"is_disabled":false,"rental_uris":{"android":"levelo://app?vid=bb29e41f-3292-49b1-a9fc-f6c4198e0b85","ios":"levelo://app?vid=bb29e41f-3292-49b1-a9fc-f6c4198e0b85"},"vehicle_type_id":"4","last_reported":1752045153,"current_range_meters":11200,"station_id":"ce4bhp92rcd13ifvqhag","pricing_plan_id":"cebpf4jnsgd1na2vs0mg"},{"bike_id":"56eb3fdf-ea87-4fcf-85df-3680fa66363e","system_id":"levelo_inurba_marseille","lat":43.225,"lon":5.34782,"is_reserved":false,"is_disabled":false,"rental_uris":{"android":"levelo://app?vid=56eb3fdf-ea87-4fcf-85df-3680fa66363e","ios":"levelo://app?vid=56eb3fdf-ea87-4fcf-85df-3680fa66363e"},"vehicle_type_id":"4","last_reported":1752045153,"current_range_meters":11200,"station_id":"st_cvj5dfep6f1abm77gieg","pricing_plan_id":"cebpf4jnsgd1na2vs0mg"},{"bike_id":"87c2d236-4978-4760-be77-27d7f5a212e4","system_id":"levelo_inurba_marseille","lat":43.29644,"lon":5.36205,"is_reserved":false,"is_disabled":false,"rental_uris":{"android":"levelo://app?vid=87c2d236-4978-4760-be77-27d7f5a212e4","ios":"levelo://app?vid=87c2d236-4978-4760-be77-27d7f5a212e4"},"vehicle_type_id":"4","last_reported":1752045153,"current_range_meters":11600,"station_id":"","pricing_plan_id":"cebpf4jnsgd1na2vs0mg"},{"bike_id":"306ce1a6-757b-4897-8796-d879ee9a33eb","system_id":"levelo_inurba_marseille","lat":43.29264,"lon":5.40129,"is_reserved":false,"is_disabled":false,"rental_uris":{"android":"levelo://app?vid=306ce1a6-757b-4897-8796-d879ee9a33eb","ios":"levelo://app?vid=306ce1a6-757b-4897-8796-d879ee9a33eb"},"vehicle_type_id":"4","last_reported":1752045153,"current_range_meters":11600,"station_id":"ce4bh312rcd13ifvqdk0","pricing_plan_id":"cebpf4jnsgd1na2vs0mg"},{"bike_id":"8935e67e-e377-4f20-b30d-fbcbd3d43af7","system_id":"levelo_inurba_marseille","lat":43.28617,"lon":5.35092,"is_reserved":false,"is_disabled":false,"rental_uris":{"android":"levelo://app?vid=8935e67e-e377-4f20-b30d-fbcbd3d43af7","ios":"levelo://app?vid=8935e67e-e377-4f20-b30d-fbcbd3d43af7"},"vehicle_type_id":"4","last_reported":1752045153,"current_range_meters":11600,"station_id":"ce4bhch2rcd13ifvqeug","pricing_plan_id":"cebpf4jnsgd1na2vs0mg"},{"bike_id":"3c78f3be-0595-4cde-ab3a-21eba194a66a","system_id":"levelo_inurba_marseille","lat":43.21753,"lon":5.34603,"is_reserved":false,"is_disabled":false,"rental_uris":{"android":"levelo://app?vid=3c78f3be-0595-4cde-ab3a-21eba194a66a","ios":"levelo://app?vid=3c78f3be-0595-4cde-ab3a-21eba194a66a"},"vehicle_type_id":"4","last_reported":1752045153,"current_range_meters":12000,"station_id":"","pricing_plan_id":"cebpf4jnsgd1na2vs0mg"},{"bike_id":"3954e371-d9fb-4c04-8740-5bd5ce15bd83","system_id":"levelo_inurba_marseille","lat":43.29043,"lon":5.35909,"is_reserved":false,"is_disabled":false,"rental_uris":{"android":"levelo://app?vid=3954e371-d9fb-4c04-8740-5bd5ce15bd83","ios":"levelo://app?vid=3954e371-d9fb-4c04-8740-5bd5ce15bd83"},"vehicle_type_id":"4","last_reported":1752045153,"current_range_meters":12000,"station_id":"ce4bha92rcd13ifvqeg0","pricing_plan_id":"cebpf4jnsgd1na2vs0mg"},{"bike_id":"78144b5a-9ed1-4d00-94db-9cefda8b0ea8","system_id":"levelo_inurba_marseille","lat":43.32658,"lon":5.40995,"is_reserved":false,"is_disabled":false,"rental_uris":{"android":"levelo://app?vid=78144b5a-9ed1-4d00-94db-9cefda8b0ea8","ios":"levelo://app?vid=78144b5a-9ed1-4d00-94db-9cefda8b0ea8"},"vehicle_type_id":"4","last_reported":1752045153,"current_range_meters":12000,"station_id":"ce4bhpp2rcd13ifvqhgg","pricing_plan_id":"cebpf4jnsgd1na2vs0mg"},{"bike_id":"ec4640ad-dc82-4e8e-9f02-cc693fd00e04","system_id":"levelo_inurba_marseille","lat":43.31685,"lon":5.40476,"is_reserved":false,"is_disabled":false,"rental_uris":{"android":"levelo://app?vid=ec4640ad-dc82-4e8e-9f02-cc693fd00e04","ios":"levelo://app?vid=ec4640ad-dc82-4e8e-9f02-cc693fd00e04"},"vehicle_type_id":"4","last_reported":1752045153,"current_range_meters":12400,"station_id":"ce4bh012rcd13ifvqd00","pricing_plan_id":"cebpf4jnsgd1na2vs0mg"},{"bike_id":"a74d1421-7a37-499b-b1c4-5e1394842b7e","system_id":"levelo_inurba_marseille","lat":43.33713,"lon":5.39175,"is_reserved":false,"is_disabled":false,"rental_uris":{"android":"levelo://app?vid=a74d1421-7a37-499b-b1c4-5e1394842b7e","ios":"levelo://app?vid=a74d1421-7a37-499b-b1c4-5e1394842b7e"},"vehicle_type_id":"4","last_reported":1752045153,"current_range_meters":12400,"station_id":"ce4bhr92rcd13ifvqhsg","pricing_plan_id":"cebpf4jnsgd1na2vs0mg"},{"bike_id":"9959d7fa-4898-43a5-a1ec-b9fed544cad3","system_id":"levelo_inurba_marseille","lat":43.284262,"lon":5.349951,"is_reserved":false,"is_disabled":false,"rental_uris":{"android":"levelo://app?vid=9959d7fa-4898-43a5-a1ec-b9fed544cad3","ios":"levelo://app?vid=9959d7fa-4898-43a5-a1ec-b9fed544cad3"},"vehicle_type_id":"4","last_reported":1752045153,"current_range_meters":12800,"station_id":"ce4bhbh2rcd13ifvqepg","pricing_plan_id":"cebpf4jnsgd1na2vs0mg"},{"bike_id":"1108d251-1fbf-4200-9d91-40a53f8f35f5","system_id":"levelo_inurba_marseille","lat":43.26681,"lon":5.38265,"is_reserved":false,"is_disabled":false,"rental_uris":{"android":"levelo://app?vid=1108d251-1fbf-4200-9d91-40a53f8f35f5","ios":"levelo://app?vid=1108d251-1fbf-4200-9d91-40a53f8f35f5"},"vehicle_type_id":"4","last_reported":1752045153,"current_range_meters":12800,"station_id":"ce4bhg92rcd13ifvqf90","pricing_plan_id":"cebpf4jnsgd1na2vs0mg"},{"bike_id":"6ba3cb7b-fd15-4c2c-a418-213febb1ebc6","system_id":"levelo_inurba_marseille","lat":43.26675,"lon":5.38266,"is_reserved":false,"is_disabled":false,"rental_uris":{"android":"levelo://app?vid=6ba3cb7b-fd15-4c2c-a418-213febb1ebc6","ios":"levelo://app?vid=6ba3cb7b-fd15-4c2c-a418-213febb1ebc6"},"vehicle_type_id":"4","last_reported":1752045153,"current_range_meters":12800,"station_id":"ce4bhg92rcd13ifvqf90","pricing_plan_id":"cebpf4jnsgd1na2vs0mg"},{"bike_id":"ee3b268a-f5bf-413d-8421-48049331943d","system_id":"levelo_inurba_marseille","lat":43.248155,"lon":5.374509,"is_reserved":false,"is_disabled":false,"rental_uris":{"android":"levelo://app?vid=ee3b268a-f5bf-413d-8421-48049331943d","ios":"levelo://app?vid=ee3b268a-f5bf-413d-8421-48049331943d"},"vehicle_type_id":"4","last_reported":1752045153,"current_range_meters":12800,"station_id":"ce4bhgh2rcd13ifvqfb0","pricing_plan_id":"cebpf4jnsgd1na2vs0mg"},{"bike_id":"2daaab4f-9719-4a65-b732-cd5fcb9b5f14","system_id":"levelo_inurba_marseille","lat":43.25935,"lon":5.40909,"is_reserved":false,"is_disabled":false,"rental_uris":{"android":"levelo://app?vid=2daaab4f-9719-4a65-b732-cd5fcb9b5f14","ios":"levelo://app?vid=2daaab4f-9719-4a65-b732-cd5fcb9b5f14"},"vehicle_type_id":"4","last_reported":1752045153,"current_range_meters":12800,"station_id":"ce4bhm92rcd13ifvqglg","pricing_plan_id":"cebpf4jnsgd1na2vs0mg"},{"bike_id":"14855008-1536-4180-b530-d8f98e81e3f2","system_id":"levelo_inurba_marseille","lat":43.25934,"lon":5.40908,"is_reserved":false,"is_disabled":false,"rental_uris":{"android":"levelo://app?vid=14855008-1536-4180-b530-d8f98e81e3f2","ios":"levelo://app?vid=14855008-1536-4180-b530-d8f98e81e3f2"},"vehicle_type_id":"4","last_reported":1752045153,"current_range_meters":12800,"station_id":"ce4bhm92rcd13ifvqglg","pricing_plan_id":"cebpf4jnsgd1na2vs0mg"},{"bike_id":"ca2bab86-416f-413e-81b0-5002099ee069","system_id":"levelo_inurba_marseille","lat":43.275728,"lon":5.420082,"is_reserved":false,"is_disabled":false,"rental_uris":{"android":"levelo://app?vid=ca2bab86-416f-413e-81b0-5002099ee069","ios":"levelo://app?vid=ca2bab86-416f-413e-81b0-5002099ee069"},"vehicle_type_id":"4","last_reported":1752045153,"current_range_meters":13600,"station_id":"","pricing_plan_id":"cebpf4jnsgd1na2vs0mg"},{"bike_id":"45666c55-6657-450c-b71f-e924d2b075ef","system_id":"levelo_inurba_marseille","lat":43.29904,"lon":5.37477,"is_reserved":false,"is_disabled":false,"rental_uris":{"android":"levelo://app?vid=45666c55-6657-450c-b71f-e924d2b075ef","ios":"levelo://app?vid=45666c55-6657-450c-b71f-e924d2b075ef"},"vehicle_type_id":"4","last_reported":1752045153,"current_range_meters":13600,"station_id":"ce4bgjh2rcd13ifvqbg0","pricing_plan_id":"cebpf4jnsgd1na2vs0mg"},{"bike_id":"b8284de4-d4d5-4214-9a30-4b6f8987bfa6","system_id":"levelo_inurba_marseille","lat":43.30142,"lon":5.3808,"is_reserved":false,"is_disabled":false,"rental_uris":{"android":"levelo://app?vid=b8284de4-d4d5-4214-9a30-4b6f8987bfa6","ios":"levelo://app?vid=b8284de4-d4d5-4214-9a30-4b6f8987bfa6"},"vehicle_type_id":"4","last_reported":1752045153,"current_range_meters":13600,"station_id":"ce4bgjp2rcd13ifvqbh0","pricing_plan_id":"cebpf4jnsgd1na2vs0mg"},{"bike_id":"03759d44-3743-40e9-a897-a20a00559abf","system_id":"levelo_inurba_marseille","lat":43.31345,"lon":5.36722,"is_reserved":false,"is_disabled":false,"rental_uris":{"android":"levelo://app?vid=03759d44-3743-40e9-a897-a20a00559abf","ios":"levelo://app?vid=03759d44-3743-40e9-a897-a20a00559abf"},"vehicle_type_id":"4","last_reported":1752045153,"current_range_meters":13600,"station_id":"ce4bgr92rcd13ifvqc6g","pricing_plan_id":"cebpf4jnsgd1na2vs0mg"},{"bike_id":"16342e6d-a69b-42b1-8604-54e26a48ae03","system_id":"levelo_inurba_marseille","lat":43.26212,"lon":5.381548,"is_reserved":false,"is_disabled":false,"rental_uris":{"android":"levelo://app?vid=16342e6d-a69b-42b1-8604-54e26a48ae03","ios":"levelo://app?vid=16342e6d-a69b-42b1-8604-54e26a48ae03"},"vehicle_type_id":"4","last_reported":1752045153,"current_range_meters":13600,"station_id":"ce4bhjp2rcd13ifvqg90","pricing_plan_id":"cebpf4jnsgd1na2vs0mg"},{"bike_id":"84e7e709-4e4f-4764-818c-af719435bfca","system_id":"levelo_inurba_marseille","lat":43.316681,"lon":5.373479,"is_reserved":false,"is_disabled":false,"rental_uris":{"android":"levelo://app?vid=84e7e709-4e4f-4764-818c-af719435bfca","ios":"levelo://app?vid=84e7e709-4e4f-4764-818c-af719435bfca"},"vehicle_type_id":"4","last_reported":1752045153,"current_range_meters":14000,"station_id":"","pricing_plan_id":"cebpf4jnsgd1na2vs0mg"},{"bike_id":"a5a1db4c-4dcc-46e5-a84f-c0fb8283b97a","system_id":"levelo_inurba_marseille","lat":43.240688,"lon":5.377469,"is_reserved":false,"is_disabled":false,"rental_uris":{"android":"levelo://app?vid=a5a1db4c-4dcc-46e5-a84f-c0fb8283b97a","ios":"levelo://app?vid=a5a1db4c-4dcc-46e5-a84f-c0fb8283b97a"},"vehicle_type_id":"4","last_reported":1752045153,"current_range_meters":14000,"station_id":"ce4bhnp2rcd13ifvqgvg","pricing_plan_id":"cebpf4jnsgd1na2vs0mg"},{"bike_id":"14a45da4-ee9a-4531-8406-03c261350b4d","system_id":"levelo_inurba_marseille","lat":43.24389,"lon":5.37058,"is_reserved":false,"is_disabled":false,"rental_uris":{"android":"levelo://app?vid=14a45da4-ee9a-4531-8406-03c261350b4d","ios":"levelo://app?vid=14a45da4-ee9a-4531-8406-03c261350b4d"},"vehicle_type_id":"4","last_reported":1752045153,"current_range_meters":14400,"station_id":"ce4bhhh2rcd13ifvqfk0","pricing_plan_id":"cebpf4jnsgd1na2vs0mg"},{"bike_id":"cd812f06-3254-4dc4-bdab-94ecd7361d33","system_id":"levelo_inurba_marseille","lat":43.217433,"lon":5.346038,"is_reserved":false,"is_disabled":false,"rental_uris":{"android":"levelo://app?vid=cd812f06-3254-4dc4-bdab-94ecd7361d33","ios":"levelo://app?vid=cd812f06-3254-4dc4-bdab-94ecd7361d33"},"vehicle_type_id":"4","last_reported":1752045153,"current_range_meters":14400,"station_id":"st_cvj6r9ubvosntc0bgbag","pricing_plan_id":"cebpf4jnsgd1na2vs0mg"},{"bike_id":"d0f90c24-dd03-411b-9731-55305f76b7c8","system_id":"levelo_inurba_marseille","lat":43.21192,"lon":5.35077,"is_reserved":false,"is_disabled":false,"rental_uris":{"android":"levelo://app?vid=d0f90c24-dd03-411b-9731-55305f76b7c8","ios":"levelo://app?vid=d0f90c24-dd03-411b-9731-55305f76b7c8"},"vehicle_type_id":"4","last_reported":1752045153,"current_range_meters":14400,"station_id":"st_cvj6sg6p6f1abm77japg","pricing_plan_id":"cebpf4jnsgd1na2vs0mg"},{"bike_id":"82e934ba-a598-4bcc-85ae-7c81e56a3ff1","system_id":"levelo_inurba_marseille","lat":43.315779,"lon":5.388968,"is_reserved":false,"is_disabled":false,"rental_uris":{"android":"levelo://app?vid=82e934ba-a598-4bcc-85ae-7c81e56a3ff1","ios":"levelo://app?vid=82e934ba-a598-4bcc-85ae-7c81e56a3ff1"},"vehicle_type_id":"4","last_reported":1752045153,"current_range_meters":14800,"station_id":"","pricing_plan_id":"cebpf4jnsgd1na2vs0mg"},{"bike_id":"741e86fe-0f91-4693-9a57-008546515c35","system_id":"levelo_inurba_marseille","lat":43.30905,"lon":5.36837,"is_reserved":false,"is_disabled":false,"rental_uris":{"android":"levelo://app?vid=741e86fe-0f91-4693-9a57-008546515c35","ios":"levelo://app?vid=741e86fe-0f91-4693-9a57-008546515c35"},"vehicle_type_id":"4","last_reported":1752045153,"current_range_meters":14800,"station_id":"ce4bgn92rcd13ifvqbvg","pricing_plan_id":"cebpf4jnsgd1na2vs0mg"},{"bike_id":"840281e7-03cf-4e27-8ab0-ed5dcfb45157","system_id":"levelo_inurba_marseille","lat":43.30898,"lon":5.36847,"is_reserved":false,"is_disabled":false,"rental_uris":{"android":"levelo://app?vid=840281e7-03cf-4e27-8ab0-ed5dcfb45157","ios":"levelo://app?vid=840281e7-03cf-4e27-8ab0-ed5dcfb45157"},"vehicle_type_id":"4","last_reported":1752045153,"current_range_meters":14800,"station_id":"ce4bgn92rcd13ifvqbvg","pricing_plan_id":"cebpf4jnsgd1na2vs0mg"},{"bike_id":"8c053b4d-0be5-44d8-94c6-9380cbcd75c4","system_id":"levelo_inurba_marseille","lat":43.30536,"lon":5.36562,"is_reserved":false,"is_disabled":false,"rental_uris":{"android":"levelo://app?vid=8c053b4d-0be5-44d8-94c6-9380cbcd75c4","ios":"levelo://app?vid=8c053b4d-0be5-44d8-94c6-9380cbcd75c4"},"vehicle_type_id":"4","last_reported":1752045153,"current_range_meters":14800,"station_id":"ce4bgs12rcd13ifvqcag","pricing_plan_id":"cebpf4jnsgd1na2vs0mg"},{"bike_id":"ae2b8708-e94b-4751-b6a3-fc8f919f8682","system_id":"levelo_inurba_marseille","lat":43.307979,"lon":5.381481,"is_reserved":false,"is_disabled":false,"rental_uris":{"android":"levelo://app?vid=ae2b8708-e94b-4751-b6a3-fc8f919f8682","ios":"levelo://app?vid=ae2b8708-e94b-4751-b6a3-fc8f919f8682"},"vehicle_type_id":"4","last_reported":1752045153,"current_range_meters":14800,"station_id":"ce4bgt12rcd13ifvqce0","pricing_plan_id":"cebpf4jnsgd1na2vs0mg"},{"bike_id":"f187bca7-730c-495f-b36c-b985f85f6d76","system_id":"levelo_inurba_marseille","lat":43.28609,"lon":5.35091,"is_reserved":false,"is_disabled":false,"rental_uris":{"android":"levelo://app?vid=f187bca7-730c-495f-b36c-b985f85f6d76","ios":"levelo://app?vid=f187bca7-730c-495f-b36c-b985f85f6d76"},"vehicle_type_id":"4","last_reported":1752045153,"current_range_meters":14800,"station_id":"ce4bhch2rcd13ifvqeug","pricing_plan_id":"cebpf4jnsgd1na2vs0mg"},{"bike_id":"3bd8b8a3-512e-4c45-8839-c2f9349ff4ec","system_id":"levelo_inurba_marseille","lat":43.21753,"lon":5.34603,"is_reserved":false,"is_disabled":false,"rental_uris":{"android":"levelo://app?vid=3bd8b8a3-512e-4c45-8839-c2f9349ff4ec","ios":"levelo://app?vid=3bd8b8a3-512e-4c45-8839-c2f9349ff4ec"},"vehicle_type_id":"4","last_reported":1752045153,"current_range_meters":14800,"station_id":"st_cvj6r9ubvosntc0bgbag","pricing_plan_id":"cebpf4jnsgd1na2vs0mg"},{"bike_id":"4975b22d-8c48-452f-bd19-7a9d3ed7c378","system_id":"levelo_inurba_marseille","lat":43.29676,"lon":5.37424,"is_reserved":false,"is_disabled":false,"rental_uris":{"android":"levelo://app?vid=4975b22d-8c48-452f-bd19-7a9d3ed7c378","ios":"levelo://app?vid=4975b22d-8c48-452f-bd19-7a9d3ed7c378"},"vehicle_type_id":"4","last_reported":1752045153,"current_range_meters":15200,"station_id":"","pricing_plan_id":"cebpf4jnsgd1na2vs0mg"},{"bike_id":"f573a8fb-f1f8-47c4-901e-ddf2739a5cca","system_id":"levelo_inurba_marseille","lat":43.36048,"lon":5.32556,"is_reserved":false,"is_disabled":false,"rental_uris":{"android":"levelo://app?vid=f573a8fb-f1f8-47c4-901e-ddf2739a5cca","ios":"levelo://app?vid=f573a8fb-f1f8-47c4-901e-ddf2739a5cca"},"vehicle_type_id":"4","last_reported":1752045153,"current_range_meters":15200,"station_id":"","pricing_plan_id":"cebpf4jnsgd1na2vs0mg"},{"bike_id":"c2b72fe0-bae6-4c7b-ad48-9e771b203dc8","system_id":"levelo_inurba_marseille","lat":43.313658,"lon":5.384737,"is_reserved":false,"is_disabled":false,"rental_uris":{"android":"levelo://app?vid=c2b72fe0-bae6-4c7b-ad48-9e771b203dc8","ios":"levelo://app?vid=c2b72fe0-bae6-4c7b-ad48-9e771b203dc8"},"vehicle_type_id":"4","last_reported":1752045153,"current_range_meters":15200,"station_id":"ce4bgt92rcd13ifvqcf0","pricing_plan_id":"cebpf4jnsgd1na2vs0mg"},{"bike_id":"069b813a-8cfa-4629-a160-d6f3629e015f","system_id":"levelo_inurba_marseille","lat":43.26226,"lon":5.40449,"is_reserved":false,"is_disabled":false,"rental_uris":{"android":"levelo://app?vid=069b813a-8cfa-4629-a160-d6f3629e015f","ios":"levelo://app?vid=069b813a-8cfa-4629-a160-d6f3629e015f"},"vehicle_type_id":"4","last_reported":1752045153,"current_range_meters":15200,"station_id":"ce4bhmh2rcd13ifvqgmg","pricing_plan_id":"cebpf4jnsgd1na2vs0mg"},{"bike_id":"ac39d365-5643-4610-bf4b-0e5167a77f88","system_id":"levelo_inurba_marseille","lat":43.337239,"lon":5.391789,"is_reserved":false,"is_disabled":false,"rental_uris":{"android":"levelo://app?vid=ac39d365-5643-4610-bf4b-0e5167a77f88","ios":"levelo://app?vid=ac39d365-5643-4610-bf4b-0e5167a77f88"},"vehicle_type_id":"4","last_reported":1752045153,"current_range_meters":15200,"station_id":"ce4bhr92rcd13ifvqhsg","pricing_plan_id":"cebpf4jnsgd1na2vs0mg"},{"bike_id":"fecdeb5c-f6ad-4d78-b601-b2a3ac08f76a","system_id":"levelo_inurba_marseille","lat":43.29583,"lon":5.39971,"is_reserved":false,"is_disabled":false,"rental_uris":{"android":"levelo://app?vid=fecdeb5c-f6ad-4d78-b601-b2a3ac08f76a","ios":"levelo://app?vid=fecdeb5c-f6ad-4d78-b601-b2a3ac08f76a"},"vehicle_type_id":"4","last_reported":1752045153,"current_range_meters":16000,"station_id":"ce4bh312rcd13ifvqdj0","pricing_plan_id":"cebpf4jnsgd1na2vs0mg"},{"bike_id":"ef60d0db-6e9b-4175-9009-30f731558de2","system_id":"levelo_inurba_marseille","lat":43.26553,"lon":5.37301,"is_reserved":false,"is_disabled":false,"rental_uris":{"android":"levelo://app?vid=ef60d0db-6e9b-4175-9009-30f731558de2","ios":"levelo://app?vid=ef60d0db-6e9b-4175-9009-30f731558de2"},"vehicle_type_id":"4","last_reported":1752045153,"current_range_meters":16000,"station_id":"ce4bhg12rcd13ifvqf70","pricing_plan_id":"cebpf4jnsgd1na2vs0mg"},{"bike_id":"61571258-91fc-4c1e-b959-4ba4a43e3ddf","system_id":"levelo_inurba_marseille","lat":43.32368,"lon":5.38884,"is_reserved":false,"is_disabled":false,"rental_uris":{"android":"levelo://app?vid=61571258-91fc-4c1e-b959-4ba4a43e3ddf","ios":"levelo://app?vid=61571258-91fc-4c1e-b959-4ba4a43e3ddf"},"vehicle_type_id":"4","last_reported":1752045153,"current_range_meters":16000,"station_id":"ce4bhqp2rcd13ifvqhog","pricing_plan_id":"cebpf4jnsgd1na2vs0mg"},{"bike_id":"c65bb56a-21f1-4676-bde0-3122778b5462","system_id":"levelo_inurba_marseille","lat":43.29945,"lon":5.40374,"is_reserved":false,"is_disabled":false,"rental_uris":{"android":"levelo://app?vid=c65bb56a-21f1-4676-bde0-3122778b5462","ios":"levelo://app?vid=c65bb56a-21f1-4676-bde0-3122778b5462"},"vehicle_type_id":"4","last_reported":1752045153,"current_range_meters":16400,"station_id":"","pricing_plan_id":"cebpf4jnsgd1na2vs0mg"},{"bike_id":"f5c16f07-bc6f-4121-91a7-5ad90eec4f34","system_id":"levelo_inurba_marseille","lat":43.312037,"lon":5.373235,"is_reserved":false,"is_disabled":false,"rental_uris":{"android":"levelo://app?vid=f5c16f07-bc6f-4121-91a7-5ad90eec4f34","ios":"levelo://app?vid=f5c16f07-bc6f-4121-91a7-5ad90eec4f34"},"vehicle_type_id":"4","last_reported":1752045153,"current_range_meters":16400,"station_id":"","pricing_plan_id":"cebpf4jnsgd1na2vs0mg"},{"bike_id":"f11ceede-7179-40ff-a869-02668eb2c5ed","system_id":"levelo_inurba_marseille","lat":43.29794,"lon":5.37096,"is_reserved":false,"is_disabled":false,"rental_uris":{"android":"levelo://app?vid=f11ceede-7179-40ff-a869-02668eb2c5ed","ios":"levelo://app?vid=f11ceede-7179-40ff-a869-02668eb2c5ed"},"vehicle_type_id":"4","last_reported":1752045153,"current_range_meters":16400,"station_id":"ce4bgop2rcd13ifvqc1g","pricing_plan_id":"cebpf4jnsgd1na2vs0mg"},{"bike_id":"5872761a-f1ac-4411-9899-aa2588a3d72d","system_id":"levelo_inurba_marseille","lat":43.30189,"lon":5.36624,"is_reserved":false,"is_disabled":false,"rental_uris":{"android":"levelo://app?vid=5872761a-f1ac-4411-9899-aa2588a3d72d","ios":"levelo://app?vid=5872761a-f1ac-4411-9899-aa2588a3d72d"},"vehicle_type_id":"4","last_reported":1752045153,"current_range_meters":16400,"station_id":"ce4bgrh2rcd13ifvqc8g","pricing_plan_id":"cebpf4jnsgd1na2vs0mg"},{"bike_id":"87f6c7ed-bff1-496c-b478-07b6ff832f06","system_id":"levelo_inurba_marseille","lat":43.30458,"lon":5.37908,"is_reserved":false,"is_disabled":false,"rental_uris":{"android":"levelo://app?vid=87f6c7ed-bff1-496c-b478-07b6ff832f06","ios":"levelo://app?vid=87f6c7ed-bff1-496c-b478-07b6ff832f06"},"vehicle_type_id":"4","last_reported":1752045153,"current_range_meters":16400,"station_id":"ce4bgup2rcd13ifvqcn0","pricing_plan_id":"cebpf4jnsgd1na2vs0mg"},{"bike_id":"e23dd502-2895-4b34-bcab-cc17412f25d8","system_id":"levelo_inurba_marseille","lat":43.27166,"lon":5.40995,"is_reserved":false,"is_disabled":false,"rental_uris":{"android":"levelo://app?vid=e23dd502-2895-4b34-bcab-cc17412f25d8","ios":"levelo://app?vid=e23dd502-2895-4b34-bcab-cc17412f25d8"},"vehicle_type_id":"4","last_reported":1752045153,"current_range_meters":16400,"station_id":"ce4bhl12rcd13ifvqgf0","pricing_plan_id":"cebpf4jnsgd1na2vs0mg"},{"bike_id":"a2047a72-12d8-486b-ab8e-c91cffffcd3f","system_id":"levelo_inurba_marseille","lat":43.23148,"lon":5.43725,"is_reserved":false,"is_disabled":false,"rental_uris":{"android":"levelo://app?vid=a2047a72-12d8-486b-ab8e-c91cffffcd3f","ios":"levelo://app?vid=a2047a72-12d8-486b-ab8e-c91cffffcd3f"},"vehicle_type_id":"4","last_reported":1752045153,"current_range_meters":16400,"station_id":"ce4bhmp2rcd13ifvqgog","pricing_plan_id":"cebpf4jnsgd1na2vs0mg"},{"bike_id":"4aa77f41-7219-4866-8b46-ec65474dbfdf","system_id":"levelo_inurba_marseille","lat":43.2796,"lon":5.41074,"is_reserved":false,"is_disabled":false,"rental_uris":{"android":"levelo://app?vid=4aa77f41-7219-4866-8b46-ec65474dbfdf","ios":"levelo://app?vid=4aa77f41-7219-4866-8b46-ec65474dbfdf"},"vehicle_type_id":"4","last_reported":1752045153,"current_range_meters":16400,"station_id":"ce4bhnp2rcd13ifvqh0g","pricing_plan_id":"cebpf4jnsgd1na2vs0mg"},{"bike_id":"697d5fc4-b988-4a4e-8323-c1ce5ed61a61","system_id":"levelo_inurba_marseille","lat":43.21183,"lon":5.35068,"is_reserved":false,"is_disabled":false,"rental_uris":{"android":"levelo://app?vid=697d5fc4-b988-4a4e-8323-c1ce5ed61a61","ios":"levelo://app?vid=697d5fc4-b988-4a4e-8323-c1ce5ed61a61"},"vehicle_type_id":"4","last_reported":1752045153,"current_range_meters":16400,"station_id":"st_cvj6sg6p6f1abm77japg","pricing_plan_id":"cebpf4jnsgd1na2vs0mg"},{"bike_id":"b6d9b946-f66a-4c6f-96e5-5d23e176360c","system_id":"levelo_inurba_marseille","lat":43.31315,"lon":5.38172,"is_reserved":false,"is_disabled":false,"rental_uris":{"android":"levelo://app?vid=b6d9b946-f66a-4c6f-96e5-5d23e176360c","ios":"levelo://app?vid=b6d9b946-f66a-4c6f-96e5-5d23e176360c"},"vehicle_type_id":"4","last_reported":1752045153,"current_range_meters":16800,"station_id":"","pricing_plan_id":"cebpf4jnsgd1na2vs0mg"},{"bike_id":"b757ffbb-2b71-4330-9f60-5f8a9d46d16e","system_id":"levelo_inurba_marseille","lat":43.296601,"lon":5.371301,"is_reserved":false,"is_disabled":false,"rental_uris":{"android":"levelo://app?vid=b757ffbb-2b71-4330-9f60-5f8a9d46d16e","ios":"levelo://app?vid=b757ffbb-2b71-4330-9f60-5f8a9d46d16e"},"vehicle_type_id":"4","last_reported":1752045153,"current_range_meters":16800,"station_id":"","pricing_plan_id":"cebpf4jnsgd1na2vs0mg"},{"bike_id":"c443378e-8279-4b98-ae37-8cc35a882701","system_id":"levelo_inurba_marseille","lat":43.31293,"lon":5.36739,"is_reserved":false,"is_disabled":false,"rental_uris":{"android":"levelo://app?vid=c443378e-8279-4b98-ae37-8cc35a882701","ios":"levelo://app?vid=c443378e-8279-4b98-ae37-8cc35a882701"},"vehicle_type_id":"4","last_reported":1752045153,"current_range_meters":16800,"station_id":"","pricing_plan_id":"cebpf4jnsgd1na2vs0mg"},{"bike_id":"b2caa530-bb19-4cc6-a6bd-61e3e1d7432e","system_id":"levelo_inurba_marseille","lat":43.33763,"lon":5.37461,"is_reserved":false,"is_disabled":false,"rental_uris":{"android":"levelo://app?vid=b2caa530-bb19-4cc6-a6bd-61e3e1d7432e","ios":"levelo://app?vid=b2caa530-bb19-4cc6-a6bd-61e3e1d7432e"},"vehicle_type_id":"4","last_reported":1752045153,"current_range_meters":16800,"station_id":"","pricing_plan_id":"cebpf4jnsgd1na2vs0mg"},{"bike_id":"642cd0fc-86ac-4960-ba5b-712cef92e6d9","system_id":"levelo_inurba_marseille","lat":43.29848,"lon":5.36285,"is_reserved":false,"is_disabled":false,"rental_uris":{"android":"levelo://app?vid=642cd0fc-86ac-4960-ba5b-712cef92e6d9","ios":"levelo://app?vid=642cd0fc-86ac-4960-ba5b-712cef92e6d9"},"vehicle_type_id":"4","last_reported":1752045153,"current_range_meters":16800,"station_id":"ce4bgpp2rcd13ifvqc3g","pricing_plan_id":"cebpf4jnsgd1na2vs0mg"},{"bike_id":"3b90dd8d-00a3-48a9-89a1-3657ce9e5a09","system_id":"levelo_inurba_marseille","lat":43.23964,"lon":5.36627,"is_reserved":false,"is_disabled":false,"rental_uris":{"android":"levelo://app?vid=3b90dd8d-00a3-48a9-89a1-3657ce9e5a09","ios":"levelo://app?vid=3b90dd8d-00a3-48a9-89a1-3657ce9e5a09"},"vehicle_type_id":"4","last_reported":1752045153,"current_range_meters":16800,"station_id":"ce4bhi12rcd13ifvqfp0","pricing_plan_id":"cebpf4jnsgd1na2vs0mg"},{"bike_id":"b542b10e-137a-431d-ae90-7ee31330f26b","system_id":"levelo_inurba_marseille","lat":43.24658,"lon":5.38163,"is_reserved":false,"is_disabled":false,"rental_uris":{"android":"levelo://app?vid=b542b10e-137a-431d-ae90-7ee31330f26b","ios":"levelo://app?vid=b542b10e-137a-431d-ae90-7ee31330f26b"},"vehicle_type_id":"4","last_reported":1752045153,"current_range_meters":16800,"station_id":"ce4bhih2rcd13ifvqfr0","pricing_plan_id":"cebpf4jnsgd1na2vs0mg"},{"bike_id":"6a861a85-51b5-4cab-a810-2e49e54adfa2","system_id":"levelo_inurba_marseille","lat":43.231506,"lon":5.43716,"is_reserved":false,"is_disabled":false,"rental_uris":{"android":"levelo://app?vid=6a861a85-51b5-4cab-a810-2e49e54adfa2","ios":"levelo://app?vid=6a861a85-51b5-4cab-a810-2e49e54adfa2"},"vehicle_type_id":"4","last_reported":1752045153,"current_range_meters":16800,"station_id":"ce4bhmp2rcd13ifvqgog","pricing_plan_id":"cebpf4jnsgd1na2vs0mg"},{"bike_id":"b28aa0a0-791c-4a08-9a16-c7bf6ea0ed5a","system_id":"levelo_inurba_marseille","lat":43.22498,"lon":5.34742,"is_reserved":false,"is_disabled":false,"rental_uris":{"android":"levelo://app?vid=b28aa0a0-791c-4a08-9a16-c7bf6ea0ed5a","ios":"levelo://app?vid=b28aa0a0-791c-4a08-9a16-c7bf6ea0ed5a"},"vehicle_type_id":"4","last_reported":1752045153,"current_range_meters":16800,"station_id":"st_cvj5dfep6f1abm77gieg","pricing_plan_id":"cebpf4jnsgd1na2vs0mg"},{"bike_id":"93d6be08-2471-48d7-9948-c35dc9626201","system_id":"levelo_inurba_marseille","lat":43.31714,"lon":5.37647,"is_reserved":false,"is_disabled":false,"rental_uris":{"android":"levelo://app?vid=93d6be08-2471-48d7-9948-c35dc9626201","ios":"levelo://app?vid=93d6be08-2471-48d7-9948-c35dc9626201"},"vehicle_type_id":"4","last_reported":1752045153,"current_range_meters":17200,"station_id":"","pricing_plan_id":"cebpf4jnsgd1na2vs0mg"},{"bike_id":"09336cd1-7b2f-46b8-ac6e-85b310d42b0a","system_id":"levelo_inurba_marseille","lat":43.29341,"lon":5.42778,"is_reserved":false,"is_disabled":false,"rental_uris":{"android":"levelo://app?vid=09336cd1-7b2f-46b8-ac6e-85b310d42b0a","ios":"levelo://app?vid=09336cd1-7b2f-46b8-ac6e-85b310d42b0a"},"vehicle_type_id":"4","last_reported":1752045153,"current_range_meters":17200,"station_id":"","pricing_plan_id":"cebpf4jnsgd1na2vs0mg"},{"bike_id":"a7f31610-674b-43fc-9596-31da8a47ed65","system_id":"levelo_inurba_marseille","lat":43.29574,"lon":5.36735,"is_reserved":false,"is_disabled":false,"rental_uris":{"android":"levelo://app?vid=a7f31610-674b-43fc-9596-31da8a47ed65","ios":"levelo://app?vid=a7f31610-674b-43fc-9596-31da8a47ed65"},"vehicle_type_id":"4","last_reported":1752045153,"current_range_meters":17200,"station_id":"ce4bgph2rcd13ifvqc2g","pricing_plan_id":"cebpf4jnsgd1na2vs0mg"},{"bike_id":"5c16e2c8-2722-40a6-9090-4d679982a684","system_id":"levelo_inurba_marseille","lat":43.30453,"lon":5.37918,"is_reserved":false,"is_disabled":false,"rental_uris":{"android":"levelo://app?vid=5c16e2c8-2722-40a6-9090-4d679982a684","ios":"levelo://app?vid=5c16e2c8-2722-40a6-9090-4d679982a684"},"vehicle_type_id":"4","last_reported":1752045153,"current_range_meters":17200,"station_id":"ce4bh092rcd13ifvqd20","pricing_plan_id":"cebpf4jnsgd1na2vs0mg"},{"bike_id":"6e06ce1c-2b83-453a-a15b-81f65dd6d223","system_id":"levelo_inurba_marseille","lat":43.29038,"lon":5.3996,"is_reserved":false,"is_disabled":false,"rental_uris":{"android":"levelo://app?vid=6e06ce1c-2b83-453a-a15b-81f65dd6d223","ios":"levelo://app?vid=6e06ce1c-2b83-453a-a15b-81f65dd6d223"},"vehicle_type_id":"4","last_reported":1752045153,"current_range_meters":17200,"station_id":"ce4bh392rcd13ifvqdm0","pricing_plan_id":"cebpf4jnsgd1na2vs0mg"},{"bike_id":"6e5c2657-ccb8-4153-8b94-2143bc427a03","system_id":"levelo_inurba_marseille","lat":43.225,"lon":5.3477,"is_reserved":false,"is_disabled":false,"rental_uris":{"android":"levelo://app?vid=6e5c2657-ccb8-4153-8b94-2143bc427a03","ios":"levelo://app?vid=6e5c2657-ccb8-4153-8b94-2143bc427a03"},"vehicle_type_id":"4","last_reported":1752045153,"current_range_meters":17200,"station_id":"st_cvj5dfep6f1abm77gieg","pricing_plan_id":"cebpf4jnsgd1na2vs0mg"},{"bike_id":"1be39311-cfa5-4cbb-b93d-fb0870d6e611","system_id":"levelo_inurba_marseille","lat":43.21188,"lon":5.35075,"is_reserved":false,"is_disabled":false,"rental_uris":{"android":"levelo://app?vid=1be39311-cfa5-4cbb-b93d-fb0870d6e611","ios":"levelo://app?vid=1be39311-cfa5-4cbb-b93d-fb0870d6e611"},"vehicle_type_id":"4","last_reported":1752045153,"current_range_meters":17200,"station_id":"st_cvj6sg6p6f1abm77japg","pricing_plan_id":"cebpf4jnsgd1na2vs0mg"},{"bike_id":"999f2a33-af15-4ca0-853a-d2550f2d6574","system_id":"levelo_inurba_marseille","lat":43.23443,"lon":5.35928,"is_reserved":false,"is_disabled":false,"rental_uris":{"android":"levelo://app?vid=999f2a33-af15-4ca0-853a-d2550f2d6574","ios":"levelo://app?vid=999f2a33-af15-4ca0-853a-d2550f2d6574"},"vehicle_type_id":"4","last_reported":1752045153,"current_range_meters":17600,"station_id":"","pricing_plan_id":"cebpf4jnsgd1na2vs0mg"},{"bike_id":"320f2a33-deaa-4e0a-a3d5-c39ce8ad680a","system_id":"levelo_inurba_marseille","lat":43.3156,"lon":5.3743,"is_reserved":false,"is_disabled":false,"rental_uris":{"android":"levelo://app?vid=320f2a33-deaa-4e0a-a3d5-c39ce8ad680a","ios":"levelo://app?vid=320f2a33-deaa-4e0a-a3d5-c39ce8ad680a"},"vehicle_type_id":"4","last_reported":1752045153,"current_range_meters":17600,"station_id":"","pricing_plan_id":"cebpf4jnsgd1na2vs0mg"},{"bike_id":"99b607c1-ac79-471f-ab89-0b94df7dae2c","system_id":"levelo_inurba_marseille","lat":43.30946,"lon":5.39031,"is_reserved":false,"is_disabled":false,"rental_uris":{"android":"levelo://app?vid=99b607c1-ac79-471f-ab89-0b94df7dae2c","ios":"levelo://app?vid=99b607c1-ac79-471f-ab89-0b94df7dae2c"},"vehicle_type_id":"4","last_reported":1752045153,"current_range_meters":17600,"station_id":"ce4bgup2rcd13ifvqco0","pricing_plan_id":"cebpf4jnsgd1na2vs0mg"},{"bike_id":"7dc48cb7-b742-4446-8d3e-f56bc6d6cf97","system_id":"levelo_inurba_marseille","lat":43.262038,"lon":5.374356,"is_reserved":false,"is_disabled":false,"rental_uris":{"android":"levelo://app?vid=7dc48cb7-b742-4446-8d3e-f56bc6d6cf97","ios":"levelo://app?vid=7dc48cb7-b742-4446-8d3e-f56bc6d6cf97"},"vehicle_type_id":"4","last_reported":1752045153,"current_range_meters":17600,"station_id":"ce4bhgp2rcd13ifvqfc0","pricing_plan_id":"cebpf4jnsgd1na2vs0mg"},{"bike_id":"4c7f9d85-82f0-46fa-a35f-049330465c10","system_id":"levelo_inurba_marseille","lat":43.23148,"lon":5.43718,"is_reserved":false,"is_disabled":false,"rental_uris":{"android":"levelo://app?vid=4c7f9d85-82f0-46fa-a35f-049330465c10","ios":"levelo://app?vid=4c7f9d85-82f0-46fa-a35f-049330465c10"},"vehicle_type_id":"4","last_reported":1752045153,"current_range_meters":17600,"station_id":"ce4bhmp2rcd13ifvqgog","pricing_plan_id":"cebpf4jnsgd1na2vs0mg"},{"bike_id":"a443e824-b364-4874-850c-3d51c9448eb3","system_id":"levelo_inurba_marseille","lat":43.30899,"lon":5.36847,"is_reserved":false,"is_disabled":false,"rental_uris":{"android":"levelo://app?vid=a443e824-b364-4874-850c-3d51c9448eb3","ios":"levelo://app?vid=a443e824-b364-4874-850c-3d51c9448eb3"},"vehicle_type_id":"4","last_reported":1752045153,"current_range_meters":18000,"station_id":"ce4bgn92rcd13ifvqbvg","pricing_plan_id":"cebpf4jnsgd1na2vs0mg"},{"bike_id":"b54127fb-ce2e-408a-b95e-87546a698faf","system_id":"levelo_inurba_marseille","lat":43.31347,"lon":5.36708,"is_reserved":false,"is_disabled":false,"rental_uris":{"android":"levelo://app?vid=b54127fb-ce2e-408a-b95e-87546a698faf","ios":"levelo://app?vid=b54127fb-ce2e-408a-b95e-87546a698faf"},"vehicle_type_id":"4","last_reported":1752045153,"current_range_meters":18000,"station_id":"ce4bgr92rcd13ifvqc6g","pricing_plan_id":"cebpf4jnsgd1na2vs0mg"},{"bike_id":"b6a915d4-fc10-4267-abc2-5f9d6e94ed2e","system_id":"levelo_inurba_marseille","lat":43.30458,"lon":5.37913,"is_reserved":false,"is_disabled":false,"rental_uris":{"android":"levelo://app?vid=b6a915d4-fc10-4267-abc2-5f9d6e94ed2e","ios":"levelo://app?vid=b6a915d4-fc10-4267-abc2-5f9d6e94ed2e"},"vehicle_type_id":"4","last_reported":1752045153,"current_range_meters":18000,"station_id":"ce4bgup2rcd13ifvqcn0","pricing_plan_id":"cebpf4jnsgd1na2vs0mg"},{"bike_id":"b7bd0a60-0d63-49eb-b04b-3c6e4ea787e2","system_id":"levelo_inurba_marseille","lat":43.28611,"lon":5.351,"is_reserved":false,"is_disabled":false,"rental_uris":{"android":"levelo://app?vid=b7bd0a60-0d63-49eb-b04b-3c6e4ea787e2","ios":"levelo://app?vid=b7bd0a60-0d63-49eb-b04b-3c6e4ea787e2"},"vehicle_type_id":"4","last_reported":1752045153,"current_range_meters":18000,"station_id":"ce4bhch2rcd13ifvqeug","pricing_plan_id":"cebpf4jnsgd1na2vs0mg"},{"bike_id":"8a755292-6639-4f9a-a85d-7cb173c776d5","system_id":"levelo_inurba_marseille","lat":43.24998,"lon":5.38927,"is_reserved":false,"is_disabled":false,"rental_uris":{"android":"levelo://app?vid=8a755292-6639-4f9a-a85d-7cb173c776d5","ios":"levelo://app?vid=8a755292-6639-4f9a-a85d-7cb173c776d5"},"vehicle_type_id":"4","last_reported":1752045153,"current_range_meters":18000,"station_id":"ce4bhgp2rcd13ifvqfd0","pricing_plan_id":"cebpf4jnsgd1na2vs0mg"},{"bike_id":"5f079fd8-2cdd-409a-8466-5a15c6796fba","system_id":"levelo_inurba_marseille","lat":43.25941,"lon":5.40896,"is_reserved":false,"is_disabled":false,"rental_uris":{"android":"levelo://app?vid=5f079fd8-2cdd-409a-8466-5a15c6796fba","ios":"levelo://app?vid=5f079fd8-2cdd-409a-8466-5a15c6796fba"},"vehicle_type_id":"4","last_reported":1752045153,"current_range_meters":18000,"station_id":"ce4bhm92rcd13ifvqglg","pricing_plan_id":"cebpf4jnsgd1na2vs0mg"},{"bike_id":"04e7b77f-3ec2-407c-9a46-7e17b706e799","system_id":"levelo_inurba_marseille","lat":43.241783,"lon":5.397259,"is_reserved":false,"is_disabled":false,"rental_uris":{"android":"levelo://app?vid=04e7b77f-3ec2-407c-9a46-7e17b706e799","ios":"levelo://app?vid=04e7b77f-3ec2-407c-9a46-7e17b706e799"},"vehicle_type_id":"4","last_reported":1752045153,"current_range_meters":18000,"station_id":"ce4bhn12rcd13ifvqgpg","pricing_plan_id":"cebpf4jnsgd1na2vs0mg"},{"bike_id":"7a305d51-5742-4308-b8f1-f89a7aed6968","system_id":"levelo_inurba_marseille","lat":43.32363,"lon":5.36756,"is_reserved":false,"is_disabled":false,"rental_uris":{"android":"levelo://app?vid=7a305d51-5742-4308-b8f1-f89a7aed6968","ios":"levelo://app?vid=7a305d51-5742-4308-b8f1-f89a7aed6968"},"vehicle_type_id":"4","last_reported":1752045153,"current_range_meters":18000,"station_id":"ce4bhsh2rcd13ifvqi2g","pricing_plan_id":"cebpf4jnsgd1na2vs0mg"},{"bike_id":"40fa92fc-f934-431e-b290-17833f63b829","system_id":"levelo_inurba_marseille","lat":43.23196,"lon":5.35557,"is_reserved":false,"is_disabled":false,"rental_uris":{"android":"levelo://app?vid=40fa92fc-f934-431e-b290-17833f63b829","ios":"levelo://app?vid=40fa92fc-f934-431e-b290-17833f63b829"},"vehicle_type_id":"4","last_reported":1752045153,"current_range_meters":18000,"station_id":"ce4bhu92rcd13ifvqi70","pricing_plan_id":"cebpf4jnsgd1na2vs0mg"},{"bike_id":"c0735136-e0f1-410b-b7bc-03f3deffba27","system_id":"levelo_inurba_marseille","lat":43.217469,"lon":5.346034,"is_reserved":false,"is_disabled":false,"rental_uris":{"android":"levelo://app?vid=c0735136-e0f1-410b-b7bc-03f3deffba27","ios":"levelo://app?vid=c0735136-e0f1-410b-b7bc-03f3deffba27"},"vehicle_type_id":"4","last_reported":1752045153,"current_range_meters":18000,"station_id":"st_cvj6r9ubvosntc0bgbag","pricing_plan_id":"cebpf4jnsgd1na2vs0mg"},{"bike_id":"97324f48-a25c-4f6c-8464-9014d49e65bc","system_id":"levelo_inurba_marseille","lat":43.29048,"lon":5.39928,"is_reserved":false,"is_disabled":false,"rental_uris":{"android":"levelo://app?vid=97324f48-a25c-4f6c-8464-9014d49e65bc","ios":"levelo://app?vid=97324f48-a25c-4f6c-8464-9014d49e65bc"},"vehicle_type_id":"4","last_reported":1752045153,"current_range_meters":18800,"station_id":"ce4bh392rcd13ifvqdm0","pricing_plan_id":"cebpf4jnsgd1na2vs0mg"},{"bike_id":"d0330f0a-621e-4be2-9d8e-54e5380e150c","system_id":"levelo_inurba_marseille","lat":43.29032,"lon":5.37569,"is_reserved":false,"is_disabled":false,"rental_uris":{"android":"levelo://app?vid=d0330f0a-621e-4be2-9d8e-54e5380e150c","ios":"levelo://app?vid=d0330f0a-621e-4be2-9d8e-54e5380e150c"},"vehicle_type_id":"4","last_reported":1752045153,"current_range_meters":18800,"station_id":"ce4bh692rcd13ifvqe90","pricing_plan_id":"cebpf4jnsgd1na2vs0mg"},{"bike_id":"326aea00-d12b-46eb-be84-e2d79c603d19","system_id":"levelo_inurba_marseille","lat":43.26681,"lon":5.38271,"is_reserved":false,"is_disabled":false,"rental_uris":{"android":"levelo://app?vid=326aea00-d12b-46eb-be84-e2d79c603d19","ios":"levelo://app?vid=326aea00-d12b-46eb-be84-e2d79c603d19"},"vehicle_type_id":"4","last_reported":1752045153,"current_range_meters":18800,"station_id":"ce4bhg92rcd13ifvqf90","pricing_plan_id":"cebpf4jnsgd1na2vs0mg"},{"bike_id":"032a14ce-e367-40e6-a795-74d0ad4487ac","system_id":"levelo_inurba_marseille","lat":43.25923,"lon":5.40883,"is_reserved":false,"is_disabled":false,"rental_uris":{"android":"levelo://app?vid=032a14ce-e367-40e6-a795-74d0ad4487ac","ios":"levelo://app?vid=032a14ce-e367-40e6-a795-74d0ad4487ac"},"vehicle_type_id":"4","last_reported":1752045153,"current_range_meters":18800,"station_id":"ce4bhm92rcd13ifvqglg","pricing_plan_id":"cebpf4jnsgd1na2vs0mg"},{"bike_id":"0dde599a-9e49-4424-bf17-46b64f156432","system_id":"levelo_inurba_marseille","lat":43.24073,"lon":5.37763,"is_reserved":false,"is_disabled":false,"rental_uris":{"android":"levelo://app?vid=0dde599a-9e49-4424-bf17-46b64f156432","ios":"levelo://app?vid=0dde599a-9e49-4424-bf17-46b64f156432"},"vehicle_type_id":"4","last_reported":1752045153,"current_range_meters":18800,"station_id":"ce4bhnp2rcd13ifvqgvg","pricing_plan_id":"cebpf4jnsgd1na2vs0mg"},{"bike_id":"b189459c-f21e-4428-a78c-19981ce9bbf6","system_id":"levelo_inurba_marseille","lat":43.23201,"lon":5.35534,"is_reserved":false,"is_disabled":false,"rental_uris":{"android":"levelo://app?vid=b189459c-f21e-4428-a78c-19981ce9bbf6","ios":"levelo://app?vid=b189459c-f21e-4428-a78c-19981ce9bbf6"},"vehicle_type_id":"4","last_reported":1752045153,"current_range_meters":18800,"station_id":"ce4bhu92rcd13ifvqi70","pricing_plan_id":"cebpf4jnsgd1na2vs0mg"},{"bike_id":"0801c5ca-5091-4995-b47a-d848c79908f1","system_id":"levelo_inurba_marseille","lat":43.30433,"lon":5.38879,"is_reserved":false,"is_disabled":false,"rental_uris":{"android":"levelo://app?vid=0801c5ca-5091-4995-b47a-d848c79908f1","ios":"levelo://app?vid=0801c5ca-5091-4995-b47a-d848c79908f1"},"vehicle_type_id":"4","last_reported":1752045153,"current_range_meters":19200,"station_id":"ce4bgk12rcd13ifvqbi0","pricing_plan_id":"cebpf4jnsgd1na2vs0mg"},{"bike_id":"7fe69786-d159-43d0-a32e-7c076a313948","system_id":"levelo_inurba_marseille","lat":43.292768,"lon":5.379894,"is_reserved":false,"is_disabled":false,"rental_uris":{"android":"levelo://app?vid=7fe69786-d159-43d0-a32e-7c076a313948","ios":"levelo://app?vid=7fe69786-d159-43d0-a32e-7c076a313948"},"vehicle_type_id":"4","last_reported":1752045153,"current_range_meters":19200,"station_id":"ce4bgn92rcd13ifvqbvg","pricing_plan_id":"cebpf4jnsgd1na2vs0mg"},{"bike_id":"79d2b3cf-826f-4f70-be4d-013371ec7c3e","system_id":"levelo_inurba_marseille","lat":43.30892,"lon":5.3719,"is_reserved":false,"is_disabled":false,"rental_uris":{"android":"levelo://app?vid=79d2b3cf-826f-4f70-be4d-013371ec7c3e","ios":"levelo://app?vid=79d2b3cf-826f-4f70-be4d-013371ec7c3e"},"vehicle_type_id":"4","last_reported":1752045153,"current_range_meters":19200,"station_id":"ce4bguh2rcd13ifvqckg","pricing_plan_id":"cebpf4jnsgd1na2vs0mg"},{"bike_id":"e9c52e2e-1391-4329-8438-e4f2c2348935","system_id":"levelo_inurba_marseille","lat":43.25232,"lon":5.39438,"is_reserved":false,"is_disabled":false,"rental_uris":{"android":"levelo://app?vid=e9c52e2e-1391-4329-8438-e4f2c2348935","ios":"levelo://app?vid=e9c52e2e-1391-4329-8438-e4f2c2348935"},"vehicle_type_id":"4","last_reported":1752045153,"current_range_meters":19600,"station_id":"","pricing_plan_id":"cebpf4jnsgd1na2vs0mg"},{"bike_id":"feaa7e3a-cbe4-4489-be11-8a12d7eec173","system_id":"levelo_inurba_marseille","lat":43.251828,"lon":5.425011,"is_reserved":false,"is_disabled":false,"rental_uris":{"android":"levelo://app?vid=feaa7e3a-cbe4-4489-be11-8a12d7eec173","ios":"levelo://app?vid=feaa7e3a-cbe4-4489-be11-8a12d7eec173"},"vehicle_type_id":"4","last_reported":1752045153,"current_range_meters":19600,"station_id":"","pricing_plan_id":"cebpf4jnsgd1na2vs0mg"},{"bike_id":"1b7c75f6-5adb-4a08-9ba4-9d869abf6810","system_id":"levelo_inurba_marseille","lat":43.29023,"lon":5.38144,"is_reserved":false,"is_disabled":false,"rental_uris":{"android":"levelo://app?vid=1b7c75f6-5adb-4a08-9ba4-9d869abf6810","ios":"levelo://app?vid=1b7c75f6-5adb-4a08-9ba4-9d869abf6810"},"vehicle_type_id":"4","last_reported":1752045153,"current_range_meters":19600,"station_id":"ce4bh4p2rcd13ifvqe1g","pricing_plan_id":"cebpf4jnsgd1na2vs0mg"},{"bike_id":"923b9c22-c5dc-4c02-b32d-54247784fc93","system_id":"levelo_inurba_marseille","lat":43.28855,"lon":5.35868,"is_reserved":false,"is_disabled":false,"rental_uris":{"android":"levelo://app?vid=923b9c22-c5dc-4c02-b32d-54247784fc93","ios":"levelo://app?vid=923b9c22-c5dc-4c02-b32d-54247784fc93"},"vehicle_type_id":"4","last_reported":1752045153,"current_range_meters":19600,"station_id":"ce4bhb12rcd13ifvqem0","pricing_plan_id":"cebpf4jnsgd1na2vs0mg"},{"bike_id":"aae4c4a6-885e-4383-9fb9-e3b012937831","system_id":"levelo_inurba_marseille","lat":43.28268,"lon":5.350475,"is_reserved":false,"is_disabled":false,"rental_uris":{"android":"levelo://app?vid=aae4c4a6-885e-4383-9fb9-e3b012937831","ios":"levelo://app?vid=aae4c4a6-885e-4383-9fb9-e3b012937831"},"vehicle_type_id":"4","last_reported":1752045153,"current_range_meters":19600,"station_id":"ce4bhbp2rcd13ifvqerg","pricing_plan_id":"cebpf4jnsgd1na2vs0mg"},{"bike_id":"f91f3f14-4e8d-4c18-bc16-d010ae63ac5d","system_id":"levelo_inurba_marseille","lat":43.28157,"lon":5.4265,"is_reserved":false,"is_disabled":false,"rental_uris":{"android":"levelo://app?vid=f91f3f14-4e8d-4c18-bc16-d010ae63ac5d","ios":"levelo://app?vid=f91f3f14-4e8d-4c18-bc16-d010ae63ac5d"},"vehicle_type_id":"4","last_reported":1752045153,"current_range_meters":19600,"station_id":"ce4bhnh2rcd13ifvqgug","pricing_plan_id":"cebpf4jnsgd1na2vs0mg"},{"bike_id":"efe894f9-4477-4129-befa-eea68068ea21","system_id":"levelo_inurba_marseille","lat":43.32333,"lon":5.40621,"is_reserved":false,"is_disabled":false,"rental_uris":{"android":"levelo://app?vid=efe894f9-4477-4129-befa-eea68068ea21","ios":"levelo://app?vid=efe894f9-4477-4129-befa-eea68068ea21"},"vehicle_type_id":"4","last_reported":1752045153,"current_range_meters":19600,"station_id":"ce4bhq92rcd13ifvqhjg","pricing_plan_id":"cebpf4jnsgd1na2vs0mg"},{"bike_id":"c7b25214-e785-4cd1-a30d-6df30d28c089","system_id":"levelo_inurba_marseille","lat":43.21728,"lon":5.34619,"is_reserved":false,"is_disabled":false,"rental_uris":{"android":"levelo://app?vid=c7b25214-e785-4cd1-a30d-6df30d28c089","ios":"levelo://app?vid=c7b25214-e785-4cd1-a30d-6df30d28c089"},"vehicle_type_id":"4","last_reported":1752045153,"current_range_meters":19600,"station_id":"st_cvj6r9ubvosntc0bgbag","pricing_plan_id":"cebpf4jnsgd1na2vs0mg"},{"bike_id":"36c387ea-be50-4028-8ecc-21605fe3e879","system_id":"levelo_inurba_marseille","lat":43.29353,"lon":5.42806,"is_reserved":false,"is_disabled":false,"rental_uris":{"android":"levelo://app?vid=36c387ea-be50-4028-8ecc-21605fe3e879","ios":"levelo://app?vid=36c387ea-be50-4028-8ecc-21605fe3e879"},"vehicle_type_id":"4","last_reported":1752045153,"current_range_meters":20000,"station_id":"","pricing_plan_id":"cebpf4jnsgd1na2vs0mg"},{"bike_id":"87d13c3c-9453-4492-8a8f-f2b4c8e828c6","system_id":"levelo_inurba_marseille","lat":43.26177,"lon":5.37049,"is_reserved":false,"is_disabled":false,"rental_uris":{"android":"levelo://app?vid=87d13c3c-9453-4492-8a8f-f2b4c8e828c6","ios":"levelo://app?vid=87d13c3c-9453-4492-8a8f-f2b4c8e828c6"},"vehicle_type_id":"4","last_reported":1752045153,"current_range_meters":20000,"station_id":"","pricing_plan_id":"cebpf4jnsgd1na2vs0mg"},{"bike_id":"1e2bcb2e-1abb-4eb1-972b-31f33bd44649","system_id":"levelo_inurba_marseille","lat":43.30274,"lon":5.37712,"is_reserved":false,"is_disabled":false,"rental_uris":{"android":"levelo://app?vid=1e2bcb2e-1abb-4eb1-972b-31f33bd44649","ios":"levelo://app?vid=1e2bcb2e-1abb-4eb1-972b-31f33bd44649"},"vehicle_type_id":"4","last_reported":1752045153,"current_range_meters":20000,"station_id":"ce4bguh2rcd13ifvqcj0","pricing_plan_id":"cebpf4jnsgd1na2vs0mg"},{"bike_id":"463d837d-826a-4dea-9a52-15b87ab9bbf0","system_id":"levelo_inurba_marseille","lat":43.30948,"lon":5.39036,"is_reserved":false,"is_disabled":false,"rental_uris":{"android":"levelo://app?vid=463d837d-826a-4dea-9a52-15b87ab9bbf0","ios":"levelo://app?vid=463d837d-826a-4dea-9a52-15b87ab9bbf0"},"vehicle_type_id":"4","last_reported":1752045153,"current_range_meters":20000,"station_id":"ce4bgup2rcd13ifvqco0","pricing_plan_id":"cebpf4jnsgd1na2vs0mg"},{"bike_id":"ca6e233d-fb31-4f13-86eb-09c5fd5e358b","system_id":"levelo_inurba_marseille","lat":43.27317,"lon":5.39077,"is_reserved":false,"is_disabled":false,"rental_uris":{"android":"levelo://app?vid=ca6e233d-fb31-4f13-86eb-09c5fd5e358b","ios":"levelo://app?vid=ca6e233d-fb31-4f13-86eb-09c5fd5e358b"},"vehicle_type_id":"4","last_reported":1752045153,"current_range_meters":20000,"station_id":"ce4bhgp2rcd13ifvqfe0","pricing_plan_id":"cebpf4jnsgd1na2vs0mg"},{"bike_id":"fa73d450-1601-480d-9fb8-d4bd9866f207","system_id":"levelo_inurba_marseille","lat":43.25716,"lon":5.4111,"is_reserved":false,"is_disabled":false,"rental_uris":{"android":"levelo://app?vid=fa73d450-1601-480d-9fb8-d4bd9866f207","ios":"levelo://app?vid=fa73d450-1601-480d-9fb8-d4bd9866f207"},"vehicle_type_id":"4","last_reported":1752045153,"current_range_meters":20000,"station_id":"ce4bhkp2rcd13ifvqgd0","pricing_plan_id":"cebpf4jnsgd1na2vs0mg"},{"bike_id":"ef6311b9-c394-4e85-b3f2-bf62d7fa6877","system_id":"levelo_inurba_marseille","lat":43.245477,"lon":5.395235,"is_reserved":false,"is_disabled":false,"rental_uris":{"android":"levelo://app?vid=ef6311b9-c394-4e85-b3f2-bf62d7fa6877","ios":"levelo://app?vid=ef6311b9-c394-4e85-b3f2-bf62d7fa6877"},"vehicle_type_id":"4","last_reported":1752045153,"current_range_meters":20000,"station_id":"ce4bhlp2rcd13ifvqgjg","pricing_plan_id":"cebpf4jnsgd1na2vs0mg"},{"bike_id":"c04487c5-ae39-4655-bd88-649ac7699ec4","system_id":"levelo_inurba_marseille","lat":43.2594,"lon":5.40902,"is_reserved":false,"is_disabled":false,"rental_uris":{"android":"levelo://app?vid=c04487c5-ae39-4655-bd88-649ac7699ec4","ios":"levelo://app?vid=c04487c5-ae39-4655-bd88-649ac7699ec4"},"vehicle_type_id":"4","last_reported":1752045153,"current_range_meters":20000,"station_id":"ce4bhm92rcd13ifvqglg","pricing_plan_id":"cebpf4jnsgd1na2vs0mg"},{"bike_id":"aca47642-4ceb-4a40-bae0-66b7f0d6dee2","system_id":"levelo_inurba_marseille","lat":43.22505,"lon":5.3479,"is_reserved":false,"is_disabled":false,"rental_uris":{"android":"levelo://app?vid=aca47642-4ceb-4a40-bae0-66b7f0d6dee2","ios":"levelo://app?vid=aca47642-4ceb-4a40-bae0-66b7f0d6dee2"},"vehicle_type_id":"4","last_reported":1752045153,"current_range_meters":20000,"station_id":"st_cvj5dfep6f1abm77gieg","pricing_plan_id":"cebpf4jnsgd1na2vs0mg"},{"bike_id":"9f5e74ce-2459-4c6f-a171-f6d1e8a1ed83","system_id":"levelo_inurba_marseille","lat":43.318564,"lon":5.375459,"is_reserved":false,"is_disabled":false,"rental_uris":{"android":"levelo://app?vid=9f5e74ce-2459-4c6f-a171-f6d1e8a1ed83","ios":"levelo://app?vid=9f5e74ce-2459-4c6f-a171-f6d1e8a1ed83"},"vehicle_type_id":"4","last_reported":1752045153,"current_range_meters":20400,"station_id":"","pricing_plan_id":"cebpf4jnsgd1na2vs0mg"},{"bike_id":"d3494ff1-68c7-4962-90af-bb7e956cdb28","system_id":"levelo_inurba_marseille","lat":43.3122,"lon":5.3686,"is_reserved":false,"is_disabled":false,"rental_uris":{"android":"levelo://app?vid=d3494ff1-68c7-4962-90af-bb7e956cdb28","ios":"levelo://app?vid=d3494ff1-68c7-4962-90af-bb7e956cdb28"},"vehicle_type_id":"4","last_reported":1752045153,"current_range_meters":20400,"station_id":"ce4bgl92rcd13ifvqbq0","pricing_plan_id":"cebpf4jnsgd1na2vs0mg"},{"bike_id":"3f1e9d59-ce0c-4e36-b34c-4d1bfacdc625","system_id":"levelo_inurba_marseille","lat":43.29849,"lon":5.36265,"is_reserved":false,"is_disabled":false,"rental_uris":{"android":"levelo://app?vid=3f1e9d59-ce0c-4e36-b34c-4d1bfacdc625","ios":"levelo://app?vid=3f1e9d59-ce0c-4e36-b34c-4d1bfacdc625"},"vehicle_type_id":"4","last_reported":1752045153,"current_range_meters":20400,"station_id":"ce4bgpp2rcd13ifvqc3g","pricing_plan_id":"cebpf4jnsgd1na2vs0mg"},{"bike_id":"50a7658a-d4b7-4a9f-94be-c4ee3dd322ad","system_id":"levelo_inurba_marseille","lat":43.28416,"lon":5.3499,"is_reserved":false,"is_disabled":false,"rental_uris":{"android":"levelo://app?vid=50a7658a-d4b7-4a9f-94be-c4ee3dd322ad","ios":"levelo://app?vid=50a7658a-d4b7-4a9f-94be-c4ee3dd322ad"},"vehicle_type_id":"4","last_reported":1752045153,"current_range_meters":20400,"station_id":"ce4bhbh2rcd13ifvqepg","pricing_plan_id":"cebpf4jnsgd1na2vs0mg"},{"bike_id":"fe393e70-3017-4f74-9643-ce2ab31a2adc","system_id":"levelo_inurba_marseille","lat":43.286199,"lon":5.350982,"is_reserved":false,"is_disabled":false,"rental_uris":{"android":"levelo://app?vid=fe393e70-3017-4f74-9643-ce2ab31a2adc","ios":"levelo://app?vid=fe393e70-3017-4f74-9643-ce2ab31a2adc"},"vehicle_type_id":"4","last_reported":1752045153,"current_range_meters":20400,"station_id":"ce4bhch2rcd13ifvqeug","pricing_plan_id":"cebpf4jnsgd1na2vs0mg"},{"bike_id":"aafc4660-1cd1-4bb0-a0f5-95ff7d1fc0de","system_id":"levelo_inurba_marseille","lat":43.26227,"lon":5.40452,"is_reserved":false,"is_disabled":false,"rental_uris":{"android":"levelo://app?vid=aafc4660-1cd1-4bb0-a0f5-95ff7d1fc0de","ios":"levelo://app?vid=aafc4660-1cd1-4bb0-a0f5-95ff7d1fc0de"},"vehicle_type_id":"4","last_reported":1752045153,"current_range_meters":20400,"station_id":"ce4bhmh2rcd13ifvqgmg","pricing_plan_id":"cebpf4jnsgd1na2vs0mg"},{"bike_id":"c323ad22-9b54-4b2d-bfc0-ef4ea7c8ccbb","system_id":"levelo_inurba_marseille","lat":43.2407,"lon":5.37761,"is_reserved":false,"is_disabled":false,"rental_uris":{"android":"levelo://app?vid=c323ad22-9b54-4b2d-bfc0-ef4ea7c8ccbb","ios":"levelo://app?vid=c323ad22-9b54-4b2d-bfc0-ef4ea7c8ccbb"},"vehicle_type_id":"4","last_reported":1752045153,"current_range_meters":20400,"station_id":"ce4bhnp2rcd13ifvqgvg","pricing_plan_id":"cebpf4jnsgd1na2vs0mg"},{"bike_id":"ff1f8117-8a3b-46bb-8357-a9733f3f138e","system_id":"levelo_inurba_marseille","lat":43.32483,"lon":5.36561,"is_reserved":false,"is_disabled":false,"rental_uris":{"android":"levelo://app?vid=ff1f8117-8a3b-46bb-8357-a9733f3f138e","ios":"levelo://app?vid=ff1f8117-8a3b-46bb-8357-a9733f3f138e"},"vehicle_type_id":"4","last_reported":1752045153,"current_range_meters":20400,"station_id":"ce4bhs12rcd13ifvqhvg","pricing_plan_id":"cebpf4jnsgd1na2vs0mg"},{"bike_id":"a5a2c35a-e95a-485b-83c8-e9960cc0ed45","system_id":"levelo_inurba_marseille","lat":43.32476,"lon":5.36569,"is_reserved":false,"is_disabled":false,"rental_uris":{"android":"levelo://app?vid=a5a2c35a-e95a-485b-83c8-e9960cc0ed45","ios":"levelo://app?vid=a5a2c35a-e95a-485b-83c8-e9960cc0ed45"},"vehicle_type_id":"4","last_reported":1752045153,"current_range_meters":20400,"station_id":"ce4bhs12rcd13ifvqhvg","pricing_plan_id":"cebpf4jnsgd1na2vs0mg"},{"bike_id":"a2bd025b-f0e6-4a3d-b3d9-ebfa621fa75c","system_id":"levelo_inurba_marseille","lat":43.22934,"lon":5.35378,"is_reserved":false,"is_disabled":false,"rental_uris":{"android":"levelo://app?vid=a2bd025b-f0e6-4a3d-b3d9-ebfa621fa75c","ios":"levelo://app?vid=a2bd025b-f0e6-4a3d-b3d9-ebfa621fa75c"},"vehicle_type_id":"4","last_reported":1752045153,"current_range_meters":20400,"station_id":"cpo3532slgdg3j2ikp40","pricing_plan_id":"cebpf4jnsgd1na2vs0mg"},{"bike_id":"fde530d0-eeed-4692-bb9c-2c65ba0cdd9f","system_id":"levelo_inurba_marseille","lat":43.30841,"lon":5.42573,"is_reserved":false,"is_disabled":false,"rental_uris":{"android":"levelo://app?vid=fde530d0-eeed-4692-bb9c-2c65ba0cdd9f","ios":"levelo://app?vid=fde530d0-eeed-4692-bb9c-2c65ba0cdd9f"},"vehicle_type_id":"4","last_reported":1752045153,"current_range_meters":20800,"station_id":"","pricing_plan_id":"cebpf4jnsgd1na2vs0mg"},{"bike_id":"d59a6c8c-8673-42b0-b2d3-be5fa1c0b437","system_id":"levelo_inurba_marseille","lat":43.30881,"lon":5.37193,"is_reserved":false,"is_disabled":false,"rental_uris":{"android":"levelo://app?vid=d59a6c8c-8673-42b0-b2d3-be5fa1c0b437","ios":"levelo://app?vid=d59a6c8c-8673-42b0-b2d3-be5fa1c0b437"},"vehicle_type_id":"4","last_reported":1752045153,"current_range_meters":20800,"station_id":"ce4bguh2rcd13ifvqckg","pricing_plan_id":"cebpf4jnsgd1na2vs0mg"},{"bike_id":"d5b168ae-00f0-4256-9a10-fc32ab7b2047","system_id":"levelo_inurba_marseille","lat":43.266914,"lon":5.382417,"is_reserved":false,"is_disabled":false,"rental_uris":{"android":"levelo://app?vid=d5b168ae-00f0-4256-9a10-fc32ab7b2047","ios":"levelo://app?vid=d5b168ae-00f0-4256-9a10-fc32ab7b2047"},"vehicle_type_id":"4","last_reported":1752045153,"current_range_meters":20800,"station_id":"ce4bhg92rcd13ifvqf90","pricing_plan_id":"cebpf4jnsgd1na2vs0mg"},{"bike_id":"ecf3dbd8-ebd4-439f-a4b9-b62a07833bb5","system_id":"levelo_inurba_marseille","lat":43.26192,"lon":5.37446,"is_reserved":false,"is_disabled":false,"rental_uris":{"android":"levelo://app?vid=ecf3dbd8-ebd4-439f-a4b9-b62a07833bb5","ios":"levelo://app?vid=ecf3dbd8-ebd4-439f-a4b9-b62a07833bb5"},"vehicle_type_id":"4","last_reported":1752045153,"current_range_meters":20800,"station_id":"ce4bhgp2rcd13ifvqfc0","pricing_plan_id":"cebpf4jnsgd1na2vs0mg"},{"bike_id":"32a62487-ecbb-4881-8526-16ca13257b4f","system_id":"levelo_inurba_marseille","lat":43.26504,"lon":5.39533,"is_reserved":false,"is_disabled":false,"rental_uris":{"android":"levelo://app?vid=32a62487-ecbb-4881-8526-16ca13257b4f","ios":"levelo://app?vid=32a62487-ecbb-4881-8526-16ca13257b4f"},"vehicle_type_id":"4","last_reported":1752045153,"current_range_meters":20800,"station_id":"ce4bhi12rcd13ifvqfq0","pricing_plan_id":"cebpf4jnsgd1na2vs0mg"},{"bike_id":"fa87fcb5-aacb-41a1-a789-0296bbd02085","system_id":"levelo_inurba_marseille","lat":43.24548,"lon":5.37377,"is_reserved":false,"is_disabled":false,"rental_uris":{"android":"levelo://app?vid=fa87fcb5-aacb-41a1-a789-0296bbd02085","ios":"levelo://app?vid=fa87fcb5-aacb-41a1-a789-0296bbd02085"},"vehicle_type_id":"4","last_reported":1752045153,"current_range_meters":21600,"station_id":"","pricing_plan_id":"cebpf4jnsgd1na2vs0mg"},{"bike_id":"678cf82c-c0e1-412a-948e-8a581a672e1b","system_id":"levelo_inurba_marseille","lat":43.296268,"lon":5.370501,"is_reserved":false,"is_disabled":false,"rental_uris":{"android":"levelo://app?vid=678cf82c-c0e1-412a-948e-8a581a672e1b","ios":"levelo://app?vid=678cf82c-c0e1-412a-948e-8a581a672e1b"},