{"last_updated":1761145836,"ttl":60,"version":"2.2","data":{"bikes":[{"bike_id":"8fa4abc7-ebc1-442a-be76-a488ff611c9b","system_id":"levelo_inurba_marseille","lat":43.30149,"lon":5.38086,"is_reserved":false,"is_disabled":false,"rental_uris":{"android":"levelo://app?vid=8fa4abc7-ebc1-442a-be76-a488ff611c9b","ios":"levelo://app?vid=8fa4abc7-ebc1-442a-be76-a488ff611c9b"},"vehicle_type_id":"4","last_reported":1761145836,"current_range_meters":2800,"station_id":"ce4bgjp2rcd13ifvqbh0","pricing_plan_id":"cebpf4jnsgd1na2vs0mg"},{"bike_id":"d124ea6b-ae35-448a-8d72-fe072d348816","system_id":"levelo_inurba_marseille","lat":43.225303,"lon":5.348308,"is_reserved":false,"is_disabled":false,"rental_uris":{"android":"levelo://app?vid=d124ea6b-ae35-448a-8d72-fe072d348816","ios":"levelo://app?vid=d124ea6b-ae35-448a-8d72-fe072d348816"},"vehicle_type_id":"4","last_reported":1761145836,"current_range_meters":2800,"station_id":"","pricing_plan_id":"cebpf4jnsgd1na2vs0mg"},{"bike_id":"56808f09-5a62-403b-b8e3-97d89aaf3152","system_id":"levelo_inurba_marseille","lat":43.29793,"lon":5.37919,"is_reserved":false,"is_disabled":false,"rental_uris":{"android":"levelo://app?vid=56808f09-5a62-403b-b8e3-97d89aaf3152","ios":"levelo://app?vid=56808f09-5a62-403b-b8e3-97d89aaf3152"},"vehicle_type_id":"4","last_reported":1761145836,"current_range_meters":2800,"station_id":"","pricing_plan_id":"cebpf4jnsgd1na2vs0mg"},{"bike_id":"98490d11-db71-4361-ab96-f0addd49d050","system_id":"levelo_inurba_marseille","lat":43.30016,"lon":5.37346,"is_reserved":false,"is_disabled":false,"rental_uris":{"android":"levelo://app?vid=98490d11-db71-4361-ab96-f0addd49d050","ios":"levelo://app?vid=98490d11-db71-4361-ab96-f0addd49d050"},"vehicle_type_id":"4","last_reported":1761145836,"current_range_meters":2800,"station_id":"","pricing_plan_id":"cebpf4jnsgd1na2vs0mg"},{"bike_id":"1c5f6221-a096-4a83-a2a0-9b9d7857dc48","system_id":"levelo_inurba_marseille","lat":43.32533,"lon":5.41433,"is_reserved":false,"is_disabled":false,"rental_uris":{"android":"levelo://app?vid=1c5f6221-a096-4a83-a2a0-9b9d7857dc48","ios":"levelo://app?vid=1c5f6221-a096-4a83-a2a0-9b9d7857dc48"},"vehicle_type_id":"4","last_reported":1761145836,"current_range_meters":3200,"station_id":"ce4bhq12rcd13ifvqhhg","pricing_plan_id":"cebpf4jnsgd1na2vs0mg"},{"bike_id":"21500954-7a6b-438d-a5d6-cfc14e6a28dc","system_id":"levelo_inurba_marseille","lat":43.30429,"lon":5.38888,"is_reserved":false,"is_disabled":false,"rental_uris":{"android":"levelo://app?vid=21500954-7a6b-438d-a5d6-cfc14e6a28dc","ios":"levelo://app?vid=21500954-7a6b-438d-a5d6-cfc14e6a28dc"},"vehicle_type_id":"4","last_reported":1761145836,"current_range_meters":3200,"station_id":"ce4bgk12rcd13ifvqbi0","pricing_plan_id":"cebpf4jnsgd1na2vs0mg"},{"bike_id":"645fd7ad-0b20-4adb-b8e1-e233d40de6dd","system_id":"levelo_inurba_marseille","lat":43.29529,"lon":5.37503,"is_reserved":false,"is_disabled":false,"rental_uris":{"android":"levelo://app?vid=645fd7ad-0b20-4adb-b8e1-e233d40de6dd","ios":"levelo://app?vid=645fd7ad-0b20-4adb-b8e1-e233d40de6dd"},"vehicle_type_id":"4","last_reported":1761145836,"current_range_meters":3200,"station_id":"ce4bgkp2rcd13ifvqbmg","pricing_plan_id":"cebpf4jnsgd1na2vs0mg"},{"bike_id":"fa4cf493-8166-40ce-9dbf-938b033439b0","system_id":"levelo_inurba_marseille","lat":43.29277,"lon":5.40137,"is_reserved":false,"is_disabled":false,"rental_uris":{"android":"levelo://app?vid=fa4cf493-8166-40ce-9dbf-938b033439b0","ios":"levelo://app?vid=fa4cf493-8166-40ce-9dbf-938b033439b0"},"vehicle_type_id":"4","last_reported":1761145836,"current_range_meters":4000,"station_id":"ce4bh312rcd13ifvqdk0","pricing_plan_id":"cebpf4jnsgd1na2vs0mg"},{"bike_id":"271e66fb-713c-4b2d-a033-d1858543078b","system_id":"levelo_inurba_marseille","lat":43.28611,"lon":5.35109,"is_reserved":false,"is_disabled":false,"rental_uris":{"android":"levelo://app?vid=271e66fb-713c-4b2d-a033-d1858543078b","ios":"levelo://app?vid=271e66fb-713c-4b2d-a033-d1858543078b"},"vehicle_type_id":"4","last_reported":1761145836,"current_range_meters":4000,"station_id":"ce4bhch2rcd13ifvqeug","pricing_plan_id":"cebpf4jnsgd1na2vs0mg"},{"bike_id":"7e957a6d-3416-42f6-ae1f-a57bbb9045ac","system_id":"levelo_inurba_marseille","lat":43.28417,"lon":5.34974,"is_reserved":false,"is_disabled":false,"rental_uris":{"android":"levelo://app?vid=7e957a6d-3416-42f6-ae1f-a57bbb9045ac","ios":"levelo://app?vid=7e957a6d-3416-42f6-ae1f-a57bbb9045ac"},"vehicle_type_id":"4","last_reported":1761145836,"current_range_meters":4000,"station_id":"ce4bhbh2rcd13ifvqepg","pricing_plan_id":"cebpf4jnsgd1na2vs0mg"},{"bike_id":"60cd0428-e362-4605-a2a7-39322ebcb813","system_id":"levelo_inurba_marseille","lat":43.24177,"lon":5.39729,"is_reserved":false,"is_disabled":false,"rental_uris":{"android":"levelo://app?vid=60cd0428-e362-4605-a2a7-39322ebcb813","ios":"levelo://app?vid=60cd0428-e362-4605-a2a7-39322ebcb813"},"vehicle_type_id":"4","last_reported":1761145836,"current_range_meters":4000,"station_id":"ce4bhn12rcd13ifvqgpg","pricing_plan_id":"cebpf4jnsgd1na2vs0mg"},{"bike_id":"1be47a6c-8a64-4d47-9f63-e29b098c68d9","system_id":"levelo_inurba_marseille","lat":43.24659,"lon":5.38898,"is_reserved":false,"is_disabled":false,"rental_uris":{"android":"levelo://app?vid=1be47a6c-8a64-4d47-9f63-e29b098c68d9","ios":"levelo://app?vid=1be47a6c-8a64-4d47-9f63-e29b098c68d9"},"vehicle_type_id":"4","last_reported":1761145836,"current_range_meters":4000,"station_id":"ce4bhg12rcd13ifvqf60","pricing_plan_id":"cebpf4jnsgd1na2vs0mg"},{"bike_id":"74816ec7-a90c-431e-a33a-9be9d2f27b2a","system_id":"levelo_inurba_marseille","lat":43.29514,"lon":5.37487,"is_reserved":false,"is_disabled":false,"rental_uris":{"android":"levelo://app?vid=74816ec7-a90c-431e-a33a-9be9d2f27b2a","ios":"levelo://app?vid=74816ec7-a90c-431e-a33a-9be9d2f27b2a"},"vehicle_type_id":"4","last_reported":1761145836,"current_range_meters":4000,"station_id":"ce4bgkp2rcd13ifvqbmg","pricing_plan_id":"cebpf4jnsgd1na2vs0mg"},{"bike_id":"69adac03-8ae4-4f13-bbac-880a1086e9e1","system_id":"levelo_inurba_marseille","lat":43.29596,"lon":5.38104,"is_reserved":false,"is_disabled":false,"rental_uris":{"android":"levelo://app?vid=69adac03-8ae4-4f13-bbac-880a1086e9e1","ios":"levelo://app?vid=69adac03-8ae4-4f13-bbac-880a1086e9e1"},"vehicle_type_id":"4","last_reported":1761145836,"current_range_meters":4400,"station_id":"ce4bgl12rcd13ifvqbo0","pricing_plan_id":"cebpf4jnsgd1na2vs0mg"},{"bike_id":"26d73d80-c85c-4f6c-b80d-df177ad7a9c4","system_id":"levelo_inurba_marseille","lat":43.295715,"lon":5.375224,"is_reserved":false,"is_disabled":false,"rental_uris":{"android":"levelo://app?vid=26d73d80-c85c-4f6c-b80d-df177ad7a9c4","ios":"levelo://app?vid=26d73d80-c85c-4f6c-b80d-df177ad7a9c4"},"vehicle_type_id":"4","last_reported":1761145836,"current_range_meters":4400,"station_id":"ce4bgh92rcd13ifvqb50","pricing_plan_id":"cebpf4jnsgd1na2vs0mg"},{"bike_id":"e5d74b93-af83-4e89-aa9b-917965f3f57a","system_id":"levelo_inurba_marseille","lat":43.29196,"lon":5.39323,"is_reserved":false,"is_disabled":false,"rental_uris":{"android":"levelo://app?vid=e5d74b93-af83-4e89-aa9b-917965f3f57a","ios":"levelo://app?vid=e5d74b93-af83-4e89-aa9b-917965f3f57a"},"vehicle_type_id":"4","last_reported":1761145836,"current_range_meters":4400,"station_id":"ce4bh192rcd13ifvqdd0","pricing_plan_id":"cebpf4jnsgd1na2vs0mg"},{"bike_id":"bb46dca1-bef1-46f9-9ab9-b6a16b3a2454","system_id":"levelo_inurba_marseille","lat":43.29195,"lon":5.39325,"is_reserved":false,"is_disabled":false,"rental_uris":{"android":"levelo://app?vid=bb46dca1-bef1-46f9-9ab9-b6a16b3a2454","ios":"levelo://app?vid=bb46dca1-bef1-46f9-9ab9-b6a16b3a2454"},"vehicle_type_id":"4","last_reported":1761145836,"current_range_meters":4400,"station_id":"ce4bh192rcd13ifvqdd0","pricing_plan_id":"cebpf4jnsgd1na2vs0mg"},{"bike_id":"04365a4e-7c03-40b0-994c-7a75c63204b7","system_id":"levelo_inurba_marseille","lat":43.254989,"lon":5.376457,"is_reserved":false,"is_disabled":false,"rental_uris":{"android":"levelo://app?vid=04365a4e-7c03-40b0-994c-7a75c63204b7","ios":"levelo://app?vid=04365a4e-7c03-40b0-994c-7a75c63204b7"},"vehicle_type_id":"4","last_reported":1761145836,"current_range_meters":4400,"station_id":"ce4bhh12rcd13ifvqff0","pricing_plan_id":"cebpf4jnsgd1na2vs0mg"},{"bike_id":"4154d683-e72a-4592-9e60-2a3872848698","system_id":"levelo_inurba_marseille","lat":43.28489,"lon":5.48393,"is_reserved":false,"is_disabled":false,"rental_uris":{"android":"levelo://app?vid=4154d683-e72a-4592-9e60-2a3872848698","ios":"levelo://app?vid=4154d683-e72a-4592-9e60-2a3872848698"},"vehicle_type_id":"4","last_reported":1761145836,"current_range_meters":4800,"station_id":"st_d3jp68qikq2c7381ktn0","pricing_plan_id":"cebpf4jnsgd1na2vs0mg"},{"bike_id":"a870d8c4-d388-4bd8-a292-a2b1665e7e0e","system_id":"levelo_inurba_marseille","lat":43.304308,"lon":5.405861,"is_reserved":false,"is_disabled":false,"rental_uris":{"android":"levelo://app?vid=a870d8c4-d388-4bd8-a292-a2b1665e7e0e","ios":"levelo://app?vid=a870d8c4-d388-4bd8-a292-a2b1665e7e0e"},"vehicle_type_id":"4","last_reported":1761145836,"current_range_meters":4800,"station_id":"","pricing_plan_id":"cebpf4jnsgd1na2vs0mg"},{"bike_id":"a2e131f8-3c9f-478a-b394-6a9db5f46a7a","system_id":"levelo_inurba_marseille","lat":43.30131,"lon":5.37428,"is_reserved":false,"is_disabled":true,"rental_uris":{"android":"levelo://app?vid=a2e131f8-3c9f-478a-b394-6a9db5f46a7a","ios":"levelo://app?vid=a2e131f8-3c9f-478a-b394-6a9db5f46a7a"},"vehicle_type_id":"4","last_reported":1761145836,"current_range_meters":4800,"station_id":"ce4bgs92rcd13ifvqcc0","pricing_plan_id":"cebpf4jnsgd1na2vs0mg"},{"bike_id":"f396d404-597f-4912-88ab-1460a785c178","system_id":"levelo_inurba_marseille","lat":43.29294,"lon":5.37463,"is_reserved":false,"is_disabled":false,"rental_uris":{"android":"levelo://app?vid=f396d404-597f-4912-88ab-1460a785c178","ios":"levelo://app?vid=f396d404-597f-4912-88ab-1460a785c178"},"vehicle_type_id":"4","last_reported":1761145836,"current_range_meters":4800,"station_id":"ce4bgi12rcd13ifvqb70","pricing_plan_id":"cebpf4jnsgd1na2vs0mg"},{"bike_id":"e7db674b-e890-4c1f-9210-5ba55efb706e","system_id":"levelo_inurba_marseille","lat":43.32102,"lon":5.36769,"is_reserved":false,"is_disabled":false,"rental_uris":{"android":"levelo://app?vid=e7db674b-e890-4c1f-9210-5ba55efb706e","ios":"levelo://app?vid=e7db674b-e890-4c1f-9210-5ba55efb706e"},"vehicle_type_id":"4","last_reported":1761145836,"current_range_meters":4800,"station_id":"ce4bhrh2rcd13ifvqhug","pricing_plan_id":"cebpf4jnsgd1na2vs0mg"},{"bike_id":"e7cb61d9-84d9-41c0-8427-00fc6a9e436b","system_id":"levelo_inurba_marseille","lat":43.31063,"lon":5.3753,"is_reserved":false,"is_disabled":false,"rental_uris":{"android":"levelo://app?vid=e7cb61d9-84d9-41c0-8427-00fc6a9e436b","ios":"levelo://app?vid=e7cb61d9-84d9-41c0-8427-00fc6a9e436b"},"vehicle_type_id":"4","last_reported":1761145836,"current_range_meters":4800,"station_id":"","pricing_plan_id":"cebpf4jnsgd1na2vs0mg"},{"bike_id":"80ed7599-e3a6-4cfc-bf21-7d8c086a3884","system_id":"levelo_inurba_marseille","lat":43.28937,"lon":5.3639,"is_reserved":false,"is_disabled":false,"rental_uris":{"android":"levelo://app?vid=80ed7599-e3a6-4cfc-bf21-7d8c086a3884","ios":"levelo://app?vid=80ed7599-e3a6-4cfc-bf21-7d8c086a3884"},"vehicle_type_id":"4","last_reported":1761145836,"current_range_meters":5600,"station_id":"ce4bhc92rcd13ifvqetg","pricing_plan_id":"cebpf4jnsgd1na2vs0mg"},{"bike_id":"f7f21008-e8e4-417b-94f5-ce2c3968f30a","system_id":"levelo_inurba_marseille","lat":43.28439,"lon":5.39195,"is_reserved":false,"is_disabled":false,"rental_uris":{"android":"levelo://app?vid=f7f21008-e8e4-417b-94f5-ce2c3968f30a","ios":"levelo://app?vid=f7f21008-e8e4-417b-94f5-ce2c3968f30a"},"vehicle_type_id":"4","last_reported":1761145836,"current_range_meters":5600,"station_id":"ce4bhoh2rcd13ifvqh5g","pricing_plan_id":"cebpf4jnsgd1na2vs0mg"},{"bike_id":"7bf0fa62-ec3b-424d-9e54-5df7febfe876","system_id":"levelo_inurba_marseille","lat":43.295247,"lon":5.385386,"is_reserved":false,"is_disabled":false,"rental_uris":{"android":"levelo://app?vid=7bf0fa62-ec3b-424d-9e54-5df7febfe876","ios":"levelo://app?vid=7bf0fa62-ec3b-424d-9e54-5df7febfe876"},"vehicle_type_id":"4","last_reported":1761145836,"current_range_meters":5600,"station_id":"ce4bgih2rcd13ifvqba0","pricing_plan_id":"cebpf4jnsgd1na2vs0mg"},{"bike_id":"58b537c5-97ab-46d0-9a55-2d4fe97d2e76","system_id":"levelo_inurba_marseille","lat":43.283996,"lon":5.385515,"is_reserved":false,"is_disabled":true,"rental_uris":{"android":"levelo://app?vid=58b537c5-97ab-46d0-9a55-2d4fe97d2e76","ios":"levelo://app?vid=58b537c5-97ab-46d0-9a55-2d4fe97d2e76"},"vehicle_type_id":"4","last_reported":1761145836,"current_range_meters":5600,"station_id":"ce4bh492rcd13ifvqdvg","pricing_plan_id":"cebpf4jnsgd1na2vs0mg"},{"bike_id":"805cc412-434c-4829-8363-1954f7f430fd","system_id":"levelo_inurba_marseille","lat":43.29865,"lon":5.38376,"is_reserved":false,"is_disabled":false,"rental_uris":{"android":"levelo://app?vid=805cc412-434c-4829-8363-1954f7f430fd","ios":"levelo://app?vid=805cc412-434c-4829-8363-1954f7f430fd"},"vehicle_type_id":"4","last_reported":1761145836,"current_range_meters":5600,"station_id":"","pricing_plan_id":"cebpf4jnsgd1na2vs0mg"},{"bike_id":"d1dd64c6-e575-4db6-925b-18b8fd852f5c","system_id":"levelo_inurba_marseille","lat":43.26681,"lon":5.38274,"is_reserved":false,"is_disabled":false,"rental_uris":{"android":"levelo://app?vid=d1dd64c6-e575-4db6-925b-18b8fd852f5c","ios":"levelo://app?vid=d1dd64c6-e575-4db6-925b-18b8fd852f5c"},"vehicle_type_id":"4","last_reported":1761145836,"current_range_meters":6000,"station_id":"ce4bhg92rcd13ifvqf90","pricing_plan_id":"cebpf4jnsgd1na2vs0mg"},{"bike_id":"d724758e-9082-4543-9bbe-a6b2fff5f92a","system_id":"levelo_inurba_marseille","lat":43.27202,"lon":5.39185,"is_reserved":false,"is_disabled":false,"rental_uris":{"android":"levelo://app?vid=d724758e-9082-4543-9bbe-a6b2fff5f92a","ios":"levelo://app?vid=d724758e-9082-4543-9bbe-a6b2fff5f92a"},"vehicle_type_id":"4","last_reported":1761145836,"current_range_meters":6400,"station_id":"ce4bhhp2rcd13ifvqfm0","pricing_plan_id":"cebpf4jnsgd1na2vs0mg"},{"bike_id":"ad1d21c4-9a2a-4933-9f7e-1f55cb54d480","system_id":"levelo_inurba_marseille","lat":43.243868,"lon":5.370779,"is_reserved":false,"is_disabled":false,"rental_uris":{"android":"levelo://app?vid=ad1d21c4-9a2a-4933-9f7e-1f55cb54d480","ios":"levelo://app?vid=ad1d21c4-9a2a-4933-9f7e-1f55cb54d480"},"vehicle_type_id":"4","last_reported":1761145836,"current_range_meters":6400,"station_id":"ce4bhh12rcd13ifvqff0","pricing_plan_id":"cebpf4jnsgd1na2vs0mg"},{"bike_id":"d97cc958-98dd-4ad0-a473-0ba2783b6c52","system_id":"levelo_inurba_marseille","lat":43.24939,"lon":5.40521,"is_reserved":false,"is_disabled":false,"rental_uris":{"android":"levelo://app?vid=d97cc958-98dd-4ad0-a473-0ba2783b6c52","ios":"levelo://app?vid=d97cc958-98dd-4ad0-a473-0ba2783b6c52"},"vehicle_type_id":"4","last_reported":1761145836,"current_range_meters":6800,"station_id":"st_d2ngiaodas8pm72gd1h0","pricing_plan_id":"cebpf4jnsgd1na2vs0mg"},{"bike_id":"c59c97c2-1003-423b-8b68-d81d75dd3097","system_id":"levelo_inurba_marseille","lat":43.29013,"lon":5.38139,"is_reserved":false,"is_disabled":false,"rental_uris":{"android":"levelo://app?vid=c59c97c2-1003-423b-8b68-d81d75dd3097","ios":"levelo://app?vid=c59c97c2-1003-423b-8b68-d81d75dd3097"},"vehicle_type_id":"4","last_reported":1761145836,"current_range_meters":6800,"station_id":"ce4bh4p2rcd13ifvqe1g","pricing_plan_id":"cebpf4jnsgd1na2vs0mg"},{"bike_id":"3d068a7d-8c2c-4f97-8d7d-54140fa95800","system_id":"levelo_inurba_marseille","lat":43.273583,"lon":5.39879,"is_reserved":false,"is_disabled":false,"rental_uris":{"android":"levelo://app?vid=3d068a7d-8c2c-4f97-8d7d-54140fa95800","ios":"levelo://app?vid=3d068a7d-8c2c-4f97-8d7d-54140fa95800"},"vehicle_type_id":"4","last_reported":1761145836,"current_range_meters":6800,"station_id":"","pricing_plan_id":"cebpf4jnsgd1na2vs0mg"},{"bike_id":"9baa6e66-ef54-4ae8-823b-c3861514ce82","system_id":"levelo_inurba_marseille","lat":43.29246,"lon":5.38451,"is_reserved":false,"is_disabled":false,"rental_uris":{"android":"levelo://app?vid=9baa6e66-ef54-4ae8-823b-c3861514ce82","ios":"levelo://app?vid=9baa6e66-ef54-4ae8-823b-c3861514ce82"},"vehicle_type_id":"4","last_reported":1761145836,"current_range_meters":6800,"station_id":"ce4bh692rcd13ifvqea0","pricing_plan_id":"cebpf4jnsgd1na2vs0mg"},{"bike_id":"08f884e1-40bf-4382-9b87-338ee53fe904","system_id":"levelo_inurba_marseille","lat":43.29892,"lon":5.43668,"is_reserved":false,"is_disabled":false,"rental_uris":{"android":"levelo://app?vid=08f884e1-40bf-4382-9b87-338ee53fe904","ios":"levelo://app?vid=08f884e1-40bf-4382-9b87-338ee53fe904"},"vehicle_type_id":"4","last_reported":1761145836,"current_range_meters":6800,"station_id":"ce4bhpp2rcd13ifvqhfg","pricing_plan_id":"cebpf4jnsgd1na2vs0mg"},{"bike_id":"399ca456-cd61-40a7-a657-edd0cff6746f","system_id":"levelo_inurba_marseille","lat":43.27297,"lon":5.39105,"is_reserved":false,"is_disabled":false,"rental_uris":{"android":"levelo://app?vid=399ca456-cd61-40a7-a657-edd0cff6746f","ios":"levelo://app?vid=399ca456-cd61-40a7-a657-edd0cff6746f"},"vehicle_type_id":"4","last_reported":1761145836,"current_range_meters":6800,"station_id":"ce4bhgp2rcd13ifvqfe0","pricing_plan_id":"cebpf4jnsgd1na2vs0mg"},{"bike_id":"3d982bd9-3d6c-4a31-a5b4-7459d736d70d","system_id":"levelo_inurba_marseille","lat":43.29276,"lon":5.36853,"is_reserved":false,"is_disabled":false,"rental_uris":{"android":"levelo://app?vid=3d982bd9-3d6c-4a31-a5b4-7459d736d70d","ios":"levelo://app?vid=3d982bd9-3d6c-4a31-a5b4-7459d736d70d"},"vehicle_type_id":"4","last_reported":1761145836,"current_range_meters":6800,"station_id":"ce4bhbp2rcd13ifvqesg","pricing_plan_id":"cebpf4jnsgd1na2vs0mg"},{"bike_id":"66bec76d-d7e9-4a1e-a715-39e56334bf96","system_id":"levelo_inurba_marseille","lat":43.2828,"lon":5.39652,"is_reserved":false,"is_disabled":false,"rental_uris":{"android":"levelo://app?vid=66bec76d-d7e9-4a1e-a715-39e56334bf96","ios":"levelo://app?vid=66bec76d-d7e9-4a1e-a715-39e56334bf96"},"vehicle_type_id":"4","last_reported":1761145836,"current_range_meters":7200,"station_id":"","pricing_plan_id":"cebpf4jnsgd1na2vs0mg"},{"bike_id":"b7e41c34-cad5-468c-aadc-3ef8a1845b5a","system_id":"levelo_inurba_marseille","lat":43.28161,"lon":5.36127,"is_reserved":false,"is_disabled":false,"rental_uris":{"android":"levelo://app?vid=b7e41c34-cad5-468c-aadc-3ef8a1845b5a","ios":"levelo://app?vid=b7e41c34-cad5-468c-aadc-3ef8a1845b5a"},"vehicle_type_id":"4","last_reported":1761145836,"current_range_meters":8000,"station_id":"","pricing_plan_id":"cebpf4jnsgd1na2vs0mg"},{"bike_id":"97585d63-cae0-46a3-8fec-9651d52b3156","system_id":"levelo_inurba_marseille","lat":43.27897,"lon":5.38002,"is_reserved":false,"is_disabled":true,"rental_uris":{"android":"levelo://app?vid=97585d63-cae0-46a3-8fec-9651d52b3156","ios":"levelo://app?vid=97585d63-cae0-46a3-8fec-9651d52b3156"},"vehicle_type_id":"4","last_reported":1761145836,"current_range_meters":8000,"station_id":"ce4bhf92rcd13ifvqf50","pricing_plan_id":"cebpf4jnsgd1na2vs0mg"},{"bike_id":"da3c5d5d-639d-4a11-88e1-f7b9c2ad220a","system_id":"levelo_inurba_marseille","lat":43.31691,"lon":5.37761,"is_reserved":false,"is_disabled":true,"rental_uris":{"android":"levelo://app?vid=da3c5d5d-639d-4a11-88e1-f7b9c2ad220a","ios":"levelo://app?vid=da3c5d5d-639d-4a11-88e1-f7b9c2ad220a"},"vehicle_type_id":"4","last_reported":1761145836,"current_range_meters":8000,"station_id":"ce4bgth2rcd13ifvqch0","pricing_plan_id":"cebpf4jnsgd1na2vs0mg"},{"bike_id":"12c36be3-5162-4923-9735-810a93ad89d7","system_id":"levelo_inurba_marseille","lat":43.28862,"lon":5.42526,"is_reserved":false,"is_disabled":false,"rental_uris":{"android":"levelo://app?vid=12c36be3-5162-4923-9735-810a93ad89d7","ios":"levelo://app?vid=12c36be3-5162-4923-9735-810a93ad89d7"},"vehicle_type_id":"4","last_reported":1761145836,"current_range_meters":8000,"station_id":"st_d3b462108ojc7389ooeg","pricing_plan_id":"cebpf4jnsgd1na2vs0mg"},{"bike_id":"c4432b73-0adb-475d-83b3-18f6e7bba483","system_id":"levelo_inurba_marseille","lat":43.31436,"lon":5.40364,"is_reserved":false,"is_disabled":false,"rental_uris":{"android":"levelo://app?vid=c4432b73-0adb-475d-83b3-18f6e7bba483","ios":"levelo://app?vid=c4432b73-0adb-475d-83b3-18f6e7bba483"},"vehicle_type_id":"4","last_reported":1761145836,"current_range_meters":8000,"station_id":"","pricing_plan_id":"cebpf4jnsgd1na2vs0mg"},{"bike_id":"3201e625-69d5-420e-838c-f4c3f44666ef","system_id":"levelo_inurba_marseille","lat":43.33775,"lon":5.37438,"is_reserved":false,"is_disabled":false,"rental_uris":{"android":"levelo://app?vid=3201e625-69d5-420e-838c-f4c3f44666ef","ios":"levelo://app?vid=3201e625-69d5-420e-838c-f4c3f44666ef"},"vehicle_type_id":"4","last_reported":1761145836,"current_range_meters":8400,"station_id":"","pricing_plan_id":"cebpf4jnsgd1na2vs0mg"},{"bike_id":"3d2797d3-937c-41e6-9c77-8d15be0cfec4","system_id":"levelo_inurba_marseille","lat":43.255025,"lon":5.376516,"is_reserved":false,"is_disabled":false,"rental_uris":{"android":"levelo://app?vid=3d2797d3-937c-41e6-9c77-8d15be0cfec4","ios":"levelo://app?vid=3d2797d3-937c-41e6-9c77-8d15be0cfec4"},"vehicle_type_id":"4","last_reported":1761145836,"current_range_meters":8400,"station_id":"ce4bhh12rcd13ifvqff0","pricing_plan_id":"cebpf4jnsgd1na2vs0mg"},{"bike_id":"9a0210d3-98da-454a-a47c-d79a03fa4387","system_id":"levelo_inurba_marseille","lat":43.29622,"lon":5.37718,"is_reserved":false,"is_disabled":false,"rental_uris":{"android":"levelo://app?vid=9a0210d3-98da-454a-a47c-d79a03fa4387","ios":"levelo://app?vid=9a0210d3-98da-454a-a47c-d79a03fa4387"},"vehicle_type_id":"4","last_reported":1761145836,"current_range_meters":8400,"station_id":"ce4bgi92rcd13ifvqb90","pricing_plan_id":"cebpf4jnsgd1na2vs0mg"},{"bike_id":"64ca8601-2bd9-4dc1-bd58-f0e2fff6785f","system_id":"levelo_inurba_marseille","lat":43.28612,"lon":5.35102,"is_reserved":false,"is_disabled":false,"rental_uris":{"android":"levelo://app?vid=64ca8601-2bd9-4dc1-bd58-f0e2fff6785f","ios":"levelo://app?vid=64ca8601-2bd9-4dc1-bd58-f0e2fff6785f"},"vehicle_type_id":"4","last_reported":1761145836,"current_range_meters":8400,"station_id":"ce4bhch2rcd13ifvqeug","pricing_plan_id":"cebpf4jnsgd1na2vs0mg"},{"bike_id":"b8457e49-45d1-4539-8d31-1eb0283df508","system_id":"levelo_inurba_marseille","lat":43.33161,"lon":5.35483,"is_reserved":false,"is_disabled":false,"rental_uris":{"android":"levelo://app?vid=b8457e49-45d1-4539-8d31-1eb0283df508","ios":"levelo://app?vid=b8457e49-45d1-4539-8d31-1eb0283df508"},"vehicle_type_id":"4","last_reported":1761145836,"current_range_meters":8800,"station_id":"","pricing_plan_id":"cebpf4jnsgd1na2vs0mg"},{"bike_id":"9435dd71-ccf3-4a5f-ad75-11b0d71fd449","system_id":"levelo_inurba_marseille","lat":43.29708,"lon":5.36602,"is_reserved":false,"is_disabled":false,"rental_uris":{"android":"levelo://app?vid=9435dd71-ccf3-4a5f-ad75-11b0d71fd449","ios":"levelo://app?vid=9435dd71-ccf3-4a5f-ad75-11b0d71fd449"},"vehicle_type_id":"4","last_reported":1761145836,"current_range_meters":8800,"station_id":"ce4bgn12rcd13ifvqbt0","pricing_plan_id":"cebpf4jnsgd1na2vs0mg"},{"bike_id":"1e828d29-9ce3-4620-8df4-1dbcabd64cc3","system_id":"levelo_inurba_marseille","lat":43.21176,"lon":5.35099,"is_reserved":false,"is_disabled":false,"rental_uris":{"android":"levelo://app?vid=1e828d29-9ce3-4620-8df4-1dbcabd64cc3","ios":"levelo://app?vid=1e828d29-9ce3-4620-8df4-1dbcabd64cc3"},"vehicle_type_id":"4","last_reported":1761145836,"current_range_meters":8800,"station_id":"st_cvj6sg6p6f1abm77japg","pricing_plan_id":"cebpf4jnsgd1na2vs0mg"},{"bike_id":"09936669-ea5b-4ba7-8a1a-860cf59df2cb","system_id":"levelo_inurba_marseille","lat":43.30149,"lon":5.38093,"is_reserved":false,"is_disabled":false,"rental_uris":{"android":"levelo://app?vid=09936669-ea5b-4ba7-8a1a-860cf59df2cb","ios":"levelo://app?vid=09936669-ea5b-4ba7-8a1a-860cf59df2cb"},"vehicle_type_id":"4","last_reported":1761145836,"current_range_meters":8800,"station_id":"ce4bgjp2rcd13ifvqbh0","pricing_plan_id":"cebpf4jnsgd1na2vs0mg"},{"bike_id":"e7b03f0a-0d7c-4456-a9b9-7359855ae05a","system_id":"levelo_inurba_marseille","lat":43.225198,"lon":5.348312,"is_reserved":false,"is_disabled":false,"rental_uris":{"android":"levelo://app?vid=e7b03f0a-0d7c-4456-a9b9-7359855ae05a","ios":"levelo://app?vid=e7b03f0a-0d7c-4456-a9b9-7359855ae05a"},"vehicle_type_id":"4","last_reported":1761145836,"current_range_meters":8800,"station_id":"","pricing_plan_id":"cebpf4jnsgd1na2vs0mg"},{"bike_id":"e3f03a4b-79e8-4c86-8b60-dae37cb49b4e","system_id":"levelo_inurba_marseille","lat":43.21767,"lon":5.3463,"is_reserved":false,"is_disabled":false,"rental_uris":{"android":"levelo://app?vid=e3f03a4b-79e8-4c86-8b60-dae37cb49b4e","ios":"levelo://app?vid=e3f03a4b-79e8-4c86-8b60-dae37cb49b4e"},"vehicle_type_id":"4","last_reported":1761145836,"current_range_meters":9200,"station_id":"st_cvj6r9ubvosntc0bgbag","pricing_plan_id":"cebpf4jnsgd1na2vs0mg"},{"bike_id":"d83ba3b5-f05f-4b3f-995a-05ad1a505367","system_id":"levelo_inurba_marseille","lat":43.31718,"lon":5.42403,"is_reserved":false,"is_disabled":false,"rental_uris":{"android":"levelo://app?vid=d83ba3b5-f05f-4b3f-995a-05ad1a505367","ios":"levelo://app?vid=d83ba3b5-f05f-4b3f-995a-05ad1a505367"},"vehicle_type_id":"4","last_reported":1761145836,"current_range_meters":9600,"station_id":"ce4bhp92rcd13ifvqhbg","pricing_plan_id":"cebpf4jnsgd1na2vs0mg"},{"bike_id":"e4ab2c1b-906c-43ce-886d-436806aa2ef3","system_id":"levelo_inurba_marseille","lat":43.300751,"lon":5.390454,"is_reserved":false,"is_disabled":false,"rental_uris":{"android":"levelo://app?vid=e4ab2c1b-906c-43ce-886d-436806aa2ef3","ios":"levelo://app?vid=e4ab2c1b-906c-43ce-886d-436806aa2ef3"},"vehicle_type_id":"4","last_reported":1761145836,"current_range_meters":9600,"station_id":"ce4bh192rcd13ifvqdb0","pricing_plan_id":"cebpf4jnsgd1na2vs0mg"},{"bike_id":"d38bb17a-4ac6-4da6-829b-fc2ffe260364","system_id":"levelo_inurba_marseille","lat":43.319,"lon":5.4074,"is_reserved":false,"is_disabled":true,"rental_uris":{"android":"levelo://app?vid=d38bb17a-4ac6-4da6-829b-fc2ffe260364","ios":"levelo://app?vid=d38bb17a-4ac6-4da6-829b-fc2ffe260364"},"vehicle_type_id":"4","last_reported":1761145836,"current_range_meters":9600,"station_id":"ce4bhq12rcd13ifvqhig","pricing_plan_id":"cebpf4jnsgd1na2vs0mg"},{"bike_id":"b462a2eb-0f63-4ded-b527-554c10f4173f","system_id":"levelo_inurba_marseille","lat":43.2926,"lon":5.38444,"is_reserved":false,"is_disabled":false,"rental_uris":{"android":"levelo://app?vid=b462a2eb-0f63-4ded-b527-554c10f4173f","ios":"levelo://app?vid=b462a2eb-0f63-4ded-b527-554c10f4173f"},"vehicle_type_id":"4","last_reported":1761145836,"current_range_meters":9600,"station_id":"ce4bh692rcd13ifvqea0","pricing_plan_id":"cebpf4jnsgd1na2vs0mg"},{"bike_id":"9fa92e61-7374-44d2-9b36-fa05b05fd756","system_id":"levelo_inurba_marseille","lat":43.24385,"lon":5.37055,"is_reserved":false,"is_disabled":false,"rental_uris":{"android":"levelo://app?vid=9fa92e61-7374-44d2-9b36-fa05b05fd756","ios":"levelo://app?vid=9fa92e61-7374-44d2-9b36-fa05b05fd756"},"vehicle_type_id":"4","last_reported":1761145836,"current_range_meters":9600,"station_id":"ce4bhhh2rcd13ifvqfk0","pricing_plan_id":"cebpf4jnsgd1na2vs0mg"},{"bike_id":"35ca1fe1-a8dd-4e2e-88f5-436a1a499faf","system_id":"levelo_inurba_marseille","lat":43.29014,"lon":5.38144,"is_reserved":false,"is_disabled":false,"rental_uris":{"android":"levelo://app?vid=35ca1fe1-a8dd-4e2e-88f5-436a1a499faf","ios":"levelo://app?vid=35ca1fe1-a8dd-4e2e-88f5-436a1a499faf"},"vehicle_type_id":"4","last_reported":1761145836,"current_range_meters":9600,"station_id":"ce4bh4p2rcd13ifvqe1g","pricing_plan_id":"cebpf4jnsgd1na2vs0mg"},{"bike_id":"02f7835e-8895-43db-bc46-dc0659a292d5","system_id":"levelo_inurba_marseille","lat":43.29331,"lon":5.3707,"is_reserved":false,"is_disabled":false,"rental_uris":{"android":"levelo://app?vid=02f7835e-8895-43db-bc46-dc0659a292d5","ios":"levelo://app?vid=02f7835e-8895-43db-bc46-dc0659a292d5"},"vehicle_type_id":"4","last_reported":1761145836,"current_range_meters":10000,"station_id":"","pricing_plan_id":"cebpf4jnsgd1na2vs0mg"},{"bike_id":"146c2516-bef0-44a7-b04d-fb80b55a97f2","system_id":"levelo_inurba_marseille","lat":43.30119,"lon":5.43122,"is_reserved":false,"is_disabled":false,"rental_uris":{"android":"levelo://app?vid=146c2516-bef0-44a7-b04d-fb80b55a97f2","ios":"levelo://app?vid=146c2516-bef0-44a7-b04d-fb80b55a97f2"},"vehicle_type_id":"4","last_reported":1761145836,"current_range_meters":10800,"station_id":"st_d3js3co5814s73ftftug","pricing_plan_id":"cebpf4jnsgd1na2vs0mg"},{"bike_id":"4e7e8f57-06ea-4923-b3c1-ea91802d5920","system_id":"levelo_inurba_marseille","lat":43.279863,"lon":5.416476,"is_reserved":false,"is_disabled":false,"rental_uris":{"android":"levelo://app?vid=4e7e8f57-06ea-4923-b3c1-ea91802d5920","ios":"levelo://app?vid=4e7e8f57-06ea-4923-b3c1-ea91802d5920"},"vehicle_type_id":"4","last_reported":1761145836,"current_range_meters":10800,"station_id":"ce4bho12rcd13ifvqh1g","pricing_plan_id":"cebpf4jnsgd1na2vs0mg"},{"bike_id":"31b3161f-690a-4e4a-aab2-83533b1ecc39","system_id":"levelo_inurba_marseille","lat":43.30421,"lon":5.38885,"is_reserved":false,"is_disabled":false,"rental_uris":{"android":"levelo://app?vid=31b3161f-690a-4e4a-aab2-83533b1ecc39","ios":"levelo://app?vid=31b3161f-690a-4e4a-aab2-83533b1ecc39"},"vehicle_type_id":"4","last_reported":1761145836,"current_range_meters":10800,"station_id":"ce4bgk12rcd13ifvqbi0","pricing_plan_id":"cebpf4jnsgd1na2vs0mg"},{"bike_id":"40e17525-0511-4786-8546-896444b0c93b","system_id":"levelo_inurba_marseille","lat":43.21192,"lon":5.35094,"is_reserved":false,"is_disabled":false,"rental_uris":{"android":"levelo://app?vid=40e17525-0511-4786-8546-896444b0c93b","ios":"levelo://app?vid=40e17525-0511-4786-8546-896444b0c93b"},"vehicle_type_id":"4","last_reported":1761145836,"current_range_meters":10800,"station_id":"st_cvj6sg6p6f1abm77japg","pricing_plan_id":"cebpf4jnsgd1na2vs0mg"},{"bike_id":"4010250f-6a1e-4c14-a48c-f6af023594cc","system_id":"levelo_inurba_marseille","lat":43.29887,"lon":5.43669,"is_reserved":false,"is_disabled":false,"rental_uris":{"android":"levelo://app?vid=4010250f-6a1e-4c14-a48c-f6af023594cc","ios":"levelo://app?vid=4010250f-6a1e-4c14-a48c-f6af023594cc"},"vehicle_type_id":"4","last_reported":1761145836,"current_range_meters":11200,"station_id":"ce4bhpp2rcd13ifvqhfg","pricing_plan_id":"cebpf4jnsgd1na2vs0mg"},{"bike_id":"89dd87c4-c8d0-4de7-8902-2b0447e67475","system_id":"levelo_inurba_marseille","lat":43.31232,"lon":5.36877,"is_reserved":false,"is_disabled":true,"rental_uris":{"android":"levelo://app?vid=89dd87c4-c8d0-4de7-8902-2b0447e67475","ios":"levelo://app?vid=89dd87c4-c8d0-4de7-8902-2b0447e67475"},"vehicle_type_id":"4","last_reported":1761145836,"current_range_meters":11200,"station_id":"","pricing_plan_id":"cebpf4jnsgd1na2vs0mg"},{"bike_id":"07ff6c7f-b997-49cd-803b-985a24cc74f4","system_id":"levelo_inurba_marseille","lat":43.31771,"lon":5.39885,"is_reserved":false,"is_disabled":false,"rental_uris":{"android":"levelo://app?vid=07ff6c7f-b997-49cd-803b-985a24cc74f4","ios":"levelo://app?vid=07ff6c7f-b997-49cd-803b-985a24cc74f4"},"vehicle_type_id":"4","last_reported":1761145836,"current_range_meters":11200,"station_id":"","pricing_plan_id":"cebpf4jnsgd1na2vs0mg"},{"bike_id":"2071eff0-bfb3-4188-900f-2e9ec6439f6d","system_id":"levelo_inurba_marseille","lat":43.29567,"lon":5.39974,"is_reserved":false,"is_disabled":false,"rental_uris":{"android":"levelo://app?vid=2071eff0-bfb3-4188-900f-2e9ec6439f6d","ios":"levelo://app?vid=2071eff0-bfb3-4188-900f-2e9ec6439f6d"},"vehicle_type_id":"4","last_reported":1761145836,"current_range_meters":11200,"station_id":"ce4bh312rcd13ifvqdj0","pricing_plan_id":"cebpf4jnsgd1na2vs0mg"},{"bike_id":"b869754e-ab30-4b29-93e2-c3b579cde905","system_id":"levelo_inurba_marseille","lat":43.270608,"lon":5.38304,"is_reserved":false,"is_disabled":false,"rental_uris":{"android":"levelo://app?vid=b869754e-ab30-4b29-93e2-c3b579cde905","ios":"levelo://app?vid=b869754e-ab30-4b29-93e2-c3b579cde905"},"vehicle_type_id":"4","last_reported":1761145836,"current_range_meters":11200,"station_id":"st_d3n2fo6cfp8s73cte1j0","pricing_plan_id":"cebpf4jnsgd1na2vs0mg"},{"bike_id":"ac1df8dc-41e5-4954-977f-6f21ed12d11a","system_id":"levelo_inurba_marseille","lat":43.217495,"lon":5.346019,"is_reserved":false,"is_disabled":false,"rental_uris":{"android":"levelo://app?vid=ac1df8dc-41e5-4954-977f-6f21ed12d11a","ios":"levelo://app?vid=ac1df8dc-41e5-4954-977f-6f21ed12d11a"},"vehicle_type_id":"4","last_reported":1761145836,"current_range_meters":11600,"station_id":"ce4bh692rcd13ifvqea0","pricing_plan_id":"cebpf4jnsgd1na2vs0mg"},{"bike_id":"6ea4db1a-bb11-46d4-bc50-dfb3b45ad0dc","system_id":"levelo_inurba_marseille","lat":43.23189,"lon":5.35545,"is_reserved":false,"is_disabled":false,"rental_uris":{"android":"levelo://app?vid=6ea4db1a-bb11-46d4-bc50-dfb3b45ad0dc","ios":"levelo://app?vid=6ea4db1a-bb11-46d4-bc50-dfb3b45ad0dc"},"vehicle_type_id":"4","last_reported":1761145836,"current_range_meters":11600,"station_id":"ce4bhu92rcd13ifvqi70","pricing_plan_id":"cebpf4jnsgd1na2vs0mg"},{"bike_id":"82576c51-8b9b-43eb-aa43-fc4a18c9ea5b","system_id":"levelo_inurba_marseille","lat":43.21753,"lon":5.34595,"is_reserved":false,"is_disabled":false,"rental_uris":{"android":"levelo://app?vid=82576c51-8b9b-43eb-aa43-fc4a18c9ea5b","ios":"levelo://app?vid=82576c51-8b9b-43eb-aa43-fc4a18c9ea5b"},"vehicle_type_id":"4","last_reported":1761145836,"current_range_meters":11600,"station_id":"st_cvj6r9ubvosntc0bgbag","pricing_plan_id":"cebpf4jnsgd1na2vs0mg"},{"bike_id":"bbf0e5b3-61ac-473b-99b0-cf0316df431b","system_id":"levelo_inurba_marseille","lat":43.29973,"lon":5.37193,"is_reserved":false,"is_disabled":false,"rental_uris":{"android":"levelo://app?vid=bbf0e5b3-61ac-473b-99b0-cf0316df431b","ios":"levelo://app?vid=bbf0e5b3-61ac-473b-99b0-cf0316df431b"},"vehicle_type_id":"4","last_reported":1761145836,"current_range_meters":11600,"station_id":"ce4bgr92rcd13ifvqc7g","pricing_plan_id":"cebpf4jnsgd1na2vs0mg"},{"bike_id":"5048d45b-2570-49ac-818b-598672b08e95","system_id":"levelo_inurba_marseille","lat":43.296125,"lon":5.381168,"is_reserved":false,"is_disabled":false,"rental_uris":{"android":"levelo://app?vid=5048d45b-2570-49ac-818b-598672b08e95","ios":"levelo://app?vid=5048d45b-2570-49ac-818b-598672b08e95"},"vehicle_type_id":"4","last_reported":1761145836,"current_range_meters":11600,"station_id":"ce4bhjp2rcd13ifvqga0","pricing_plan_id":"cebpf4jnsgd1na2vs0mg"},{"bike_id":"3b724502-1ea7-49e8-9194-8329305fec87","system_id":"levelo_inurba_marseille","lat":43.29605,"lon":5.38108,"is_reserved":false,"is_disabled":false,"rental_uris":{"android":"levelo://app?vid=3b724502-1ea7-49e8-9194-8329305fec87","ios":"levelo://app?vid=3b724502-1ea7-49e8-9194-8329305fec87"},"vehicle_type_id":"4","last_reported":1761145836,"current_range_meters":11600,"station_id":"ce4bgl12rcd13ifvqbo0","pricing_plan_id":"cebpf4jnsgd1na2vs0mg"},{"bike_id":"6146b6a3-a2f0-4083-b0dd-fa6ecd5a65f0","system_id":"levelo_inurba_marseille","lat":43.27355,"lon":5.36246,"is_reserved":false,"is_disabled":false,"rental_uris":{"android":"levelo://app?vid=6146b6a3-a2f0-4083-b0dd-fa6ecd5a65f0","ios":"levelo://app?vid=6146b6a3-a2f0-4083-b0dd-fa6ecd5a65f0"},"vehicle_type_id":"4","last_reported":1761145836,"current_range_meters":12000,"station_id":"ce4bhbh2rcd13ifvqeo0","pricing_plan_id":"cebpf4jnsgd1na2vs0mg"},{"bike_id":"8019ec39-0894-4bd0-b05a-e74768265a39","system_id":"levelo_inurba_marseille","lat":43.299219,"lon":5.365281,"is_reserved":false,"is_disabled":false,"rental_uris":{"android":"levelo://app?vid=8019ec39-0894-4bd0-b05a-e74768265a39","ios":"levelo://app?vid=8019ec39-0894-4bd0-b05a-e74768265a39"},"vehicle_type_id":"4","last_reported":1761145836,"current_range_meters":12000,"station_id":"ce4bgj92rcd13ifvqbd0","pricing_plan_id":"cebpf4jnsgd1na2vs0mg"},{"bike_id":"27e4da55-03ac-4a27-9cbb-4218c6a866bf","system_id":"levelo_inurba_marseille","lat":43.280642,"lon":5.352788,"is_reserved":false,"is_disabled":false,"rental_uris":{"android":"levelo://app?vid=27e4da55-03ac-4a27-9cbb-4218c6a866bf","ios":"levelo://app?vid=27e4da55-03ac-4a27-9cbb-4218c6a866bf"},"vehicle_type_id":"4","last_reported":1761145836,"current_range_meters":12000,"station_id":"","pricing_plan_id":"cebpf4jnsgd1na2vs0mg"},{"bike_id":"a7288874-d0bf-4e83-ab47-723a566b8c85","system_id":"levelo_inurba_marseille","lat":43.30598,"lon":5.37221,"is_reserved":false,"is_disabled":false,"rental_uris":{"android":"levelo://app?vid=a7288874-d0bf-4e83-ab47-723a566b8c85","ios":"levelo://app?vid=a7288874-d0bf-4e83-ab47-723a566b8c85"},"vehicle_type_id":"4","last_reported":1761145836,"current_range_meters":12400,"station_id":"ce4bgqh2rcd13ifvqc4g","pricing_plan_id":"cebpf4jnsgd1na2vs0mg"},{"bike_id":"396aaa55-c35f-41fc-8337-93bac25c9dde","system_id":"levelo_inurba_marseille","lat":43.29236,"lon":5.35553,"is_reserved":false,"is_disabled":false,"rental_uris":{"android":"levelo://app?vid=396aaa55-c35f-41fc-8337-93bac25c9dde","ios":"levelo://app?vid=396aaa55-c35f-41fc-8337-93bac25c9dde"},"vehicle_type_id":"4","last_reported":1761145836,"current_range_meters":12400,"station_id":"","pricing_plan_id":"cebpf4jnsgd1na2vs0mg"},{"bike_id":"1c43d9d4-67c9-42c0-9827-04b45a68897d","system_id":"levelo_inurba_marseille","lat":43.28916,"lon":5.36684,"is_reserved":false,"is_disabled":false,"rental_uris":{"android":"levelo://app?vid=1c43d9d4-67c9-42c0-9827-04b45a68897d","ios":"levelo://app?vid=1c43d9d4-67c9-42c0-9827-04b45a68897d"},"vehicle_type_id":"4","last_reported":1761145836,"current_range_meters":12400,"station_id":"ce4bhap2rcd13ifvqek0","pricing_plan_id":"cebpf4jnsgd1na2vs0mg"},{"bike_id":"37d01fc8-4b4d-4652-a489-1254eb9d4c80","system_id":"levelo_inurba_marseille","lat":43.34076,"lon":5.40411,"is_reserved":false,"is_disabled":false,"rental_uris":{"android":"levelo://app?vid=37d01fc8-4b4d-4652-a489-1254eb9d4c80","ios":"levelo://app?vid=37d01fc8-4b4d-4652-a489-1254eb9d4c80"},"vehicle_type_id":"4","last_reported":1761145836,"current_range_meters":12400,"station_id":"","pricing_plan_id":"cebpf4jnsgd1na2vs0mg"},{"bike_id":"61c47949-89b9-4c27-95f4-2b581fa26bb6","system_id":"levelo_inurba_marseille","lat":43.23182,"lon":5.39976,"is_reserved":false,"is_disabled":false,"rental_uris":{"android":"levelo://app?vid=61c47949-89b9-4c27-95f4-2b581fa26bb6","ios":"levelo://app?vid=61c47949-89b9-4c27-95f4-2b581fa26bb6"},"vehicle_type_id":"4","last_reported":1761145836,"current_range_meters":12800,"station_id":"ce4bhn12rcd13ifvqgqg","pricing_plan_id":"cebpf4jnsgd1na2vs0mg"},{"bike_id":"5abe613e-ae9e-485b-b08c-9e72a84c372e","system_id":"levelo_inurba_marseille","lat":43.29281,"lon":5.40118,"is_reserved":false,"is_disabled":false,"rental_uris":{"android":"levelo://app?vid=5abe613e-ae9e-485b-b08c-9e72a84c372e","ios":"levelo://app?vid=5abe613e-ae9e-485b-b08c-9e72a84c372e"},"vehicle_type_id":"4","last_reported":1761145836,"current_range_meters":12800,"station_id":"ce4bh312rcd13ifvqdk0","pricing_plan_id":"cebpf4jnsgd1na2vs0mg"},{"bike_id":"8517d2ad-4627-4d5c-b43d-563f1cd29009","system_id":"levelo_inurba_marseille","lat":43.30451,"lon":5.36908,"is_reserved":false,"is_disabled":false,"rental_uris":{"android":"levelo://app?vid=8517d2ad-4627-4d5c-b43d-563f1cd29009","ios":"levelo://app?vid=8517d2ad-4627-4d5c-b43d-563f1cd29009"},"vehicle_type_id":"4","last_reported":1761145836,"current_range_meters":13600,"station_id":"","pricing_plan_id":"cebpf4jnsgd1na2vs0mg"},{"bike_id":"eb6c5412-8b38-44a8-b811-036bda830ce8","system_id":"levelo_inurba_marseille","lat":43.307872,"lon":5.376471,"is_reserved":false,"is_disabled":false,"rental_uris":{"android":"levelo://app?vid=eb6c5412-8b38-44a8-b811-036bda830ce8","ios":"levelo://app?vid=eb6c5412-8b38-44a8-b811-036bda830ce8"},"vehicle_type_id":"4","last_reported":1761145836,"current_range_meters":13600,"station_id":"ce4bgv92rcd13ifvqcq0","pricing_plan_id":"cebpf4jnsgd1na2vs0mg"},{"bike_id":"5b1bf553-e24d-4326-b84f-4fb73a17f07f","system_id":"levelo_inurba_marseille","lat":43.26057,"lon":5.394,"is_reserved":false,"is_disabled":false,"rental_uris":{"android":"levelo://app?vid=5b1bf553-e24d-4326-b84f-4fb73a17f07f","ios":"levelo://app?vid=5b1bf553-e24d-4326-b84f-4fb73a17f07f"},"vehicle_type_id":"4","last_reported":1761145836,"current_range_meters":14000,"station_id":"ce4bhh92rcd13ifvqfj0","pricing_plan_id":"cebpf4jnsgd1na2vs0mg"},{"bike_id":"5b2fb394-b654-4cda-abea-19d87e1a4938","system_id":"levelo_inurba_marseille","lat":43.240822,"lon":5.377519,"is_reserved":false,"is_disabled":false,"rental_uris":{"android":"levelo://app?vid=5b2fb394-b654-4cda-abea-19d87e1a4938","ios":"levelo://app?vid=5b2fb394-b654-4cda-abea-19d87e1a4938"},"vehicle_type_id":"4","last_reported":1761145836,"current_range_meters":14000,"station_id":"ce4bhnp2rcd13ifvqgvg","pricing_plan_id":"cebpf4jnsgd1na2vs0mg"},{"bike_id":"ac4f7d3c-5af7-44ad-8c8b-463d26f4b847","system_id":"levelo_inurba_marseille","lat":43.274451,"lon":5.390878,"is_reserved":false,"is_disabled":false,"rental_uris":{"android":"levelo://app?vid=ac4f7d3c-5af7-44ad-8c8b-463d26f4b847","ios":"levelo://app?vid=ac4f7d3c-5af7-44ad-8c8b-463d26f4b847"},"vehicle_type_id":"4","last_reported":1761145836,"current_range_meters":14000,"station_id":"ce4bhg12rcd13ifvqf80","pricing_plan_id":"cebpf4jnsgd1na2vs0mg"},{"bike_id":"3eb0f59e-3e27-4399-9edd-0bd33d1af81c","system_id":"levelo_inurba_marseille","lat":43.30141,"lon":5.3807,"is_reserved":false,"is_disabled":false,"rental_uris":{"android":"levelo://app?vid=3eb0f59e-3e27-4399-9edd-0bd33d1af81c","ios":"levelo://app?vid=3eb0f59e-3e27-4399-9edd-0bd33d1af81c"},"vehicle_type_id":"4","last_reported":1761145836,"current_range_meters":14000,"station_id":"ce4bgjp2rcd13ifvqbh0","pricing_plan_id":"cebpf4jnsgd1na2vs0mg"},{"bike_id":"b61e6817-4496-4ad7-ab43-b524af2e26e5","system_id":"levelo_inurba_marseille","lat":43.2866,"lon":5.38661,"is_reserved":false,"is_disabled":false,"rental_uris":{"android":"levelo://app?vid=b61e6817-4496-4ad7-ab43-b524af2e26e5","ios":"levelo://app?vid=b61e6817-4496-4ad7-ab43-b524af2e26e5"},"vehicle_type_id":"4","last_reported":1761145836,"current_range_meters":14400,"station_id":"","pricing_plan_id":"cebpf4jnsgd1na2vs0mg"},{"bike_id":"07e992db-48e1-481b-a50e-3b491cfc1455","system_id":"levelo_inurba_marseille","lat":43.31991,"lon":5.41291,"is_reserved":false,"is_disabled":false,"rental_uris":{"android":"levelo://app?vid=07e992db-48e1-481b-a50e-3b491cfc1455","ios":"levelo://app?vid=07e992db-48e1-481b-a50e-3b491cfc1455"},"vehicle_type_id":"4","last_reported":1761145836,"current_range_meters":14400,"station_id":"","pricing_plan_id":"cebpf4jnsgd1na2vs0mg"},{"bike_id":"cb59e4db-6fb6-4196-8e69-b10d4d91f60d","system_id":"levelo_inurba_marseille","lat":43.28613,"lon":5.35102,"is_reserved":false,"is_disabled":false,"rental_uris":{"android":"levelo://app?vid=cb59e4db-6fb6-4196-8e69-b10d4d91f60d","ios":"levelo://app?vid=cb59e4db-6fb6-4196-8e69-b10d4d91f60d"},"vehicle_type_id":"4","last_reported":1761145836,"current_range_meters":14400,"station_id":"ce4bhch2rcd13ifvqeug","pricing_plan_id":"cebpf4jnsgd1na2vs0mg"},{"bike_id":"ad700c07-5e25-4a6c-8d0d-c900ce2c046b","system_id":"levelo_inurba_marseille","lat":43.28075,"lon":5.39657,"is_reserved":false,"is_disabled":false,"rental_uris":{"android":"levelo://app?vid=ad700c07-5e25-4a6c-8d0d-c900ce2c046b","ios":"levelo://app?vid=ad700c07-5e25-4a6c-8d0d-c900ce2c046b"},"vehicle_type_id":"4","last_reported":1761145836,"current_range_meters":14400,"station_id":"ce4bho12rcd13ifvqh2g","pricing_plan_id":"cebpf4jnsgd1na2vs0mg"},{"bike_id":"5271386d-a07e-453e-a5ac-877d08033217","system_id":"levelo_inurba_marseille","lat":43.28641,"lon":5.37978,"is_reserved":false,"is_disabled":false,"rental_uris":{"android":"levelo://app?vid=5271386d-a07e-453e-a5ac-877d08033217","ios":"levelo://app?vid=5271386d-a07e-453e-a5ac-877d08033217"},"vehicle_type_id":"4","last_reported":1761145836,"current_range_meters":14800,"station_id":"","pricing_plan_id":"cebpf4jnsgd1na2vs0mg"},{"bike_id":"ed1c071c-d50c-4732-85a6-902ee0609e97","system_id":"levelo_inurba_marseille","lat":43.289313,"lon":5.383967,"is_reserved":false,"is_disabled":false,"rental_uris":{"android":"levelo://app?vid=ed1c071c-d50c-4732-85a6-902ee0609e97","ios":"levelo://app?vid=ed1c071c-d50c-4732-85a6-902ee0609e97"},"vehicle_type_id":"4","last_reported":1761145836,"current_range_meters":14800,"station_id":"ce4bh612rcd13ifvqe6g","pricing_plan_id":"cebpf4jnsgd1na2vs0mg"},{"bike_id":"b5b36cf1-3c2f-49f9-8f2c-3850de770853","system_id":"levelo_inurba_marseille","lat":43.28938,"lon":5.36392,"is_reserved":false,"is_disabled":false,"rental_uris":{"android":"levelo://app?vid=b5b36cf1-3c2f-49f9-8f2c-3850de770853","ios":"levelo://app?vid=b5b36cf1-3c2f-49f9-8f2c-3850de770853"},"vehicle_type_id":"4","last_reported":1761145836,"current_range_meters":14800,"station_id":"ce4bhc92rcd13ifvqetg","pricing_plan_id":"cebpf4jnsgd1na2vs0mg"},{"bike_id":"e7709aff-f080-4c40-b225-77642ea3c5cc","system_id":"levelo_inurba_marseille","lat":43.24172,"lon":5.36394,"is_reserved":false,"is_disabled":false,"rental_uris":{"android":"levelo://app?vid=e7709aff-f080-4c40-b225-77642ea3c5cc","ios":"levelo://app?vid=e7709aff-f080-4c40-b225-77642ea3c5cc"},"vehicle_type_id":"4","last_reported":1761145836,"current_range_meters":14800,"station_id":"cpo36qri1sfpv3e86is0","pricing_plan_id":"cebpf4jnsgd1na2vs0mg"},{"bike_id":"47c28f3a-d57d-4cac-abc4-9bf4354c9a65","system_id":"levelo_inurba_marseille","lat":43.292242,"lon":5.360587,"is_reserved":false,"is_disabled":false,"rental_uris":{"android":"levelo://app?vid=47c28f3a-d57d-4cac-abc4-9bf4354c9a65","ios":"levelo://app?vid=47c28f3a-d57d-4cac-abc4-9bf4354c9a65"},"vehicle_type_id":"4","last_reported":1761145836,"current_range_meters":15200,"station_id":"","pricing_plan_id":"cebpf4jnsgd1na2vs0mg"},{"bike_id":"3ff4ea5a-9e87-4762-940f-6580f78b8605","system_id":"levelo_inurba_marseille","lat":43.30783,"lon":5.3817,"is_reserved":false,"is_disabled":false,"rental_uris":{"android":"levelo://app?vid=3ff4ea5a-9e87-4762-940f-6580f78b8605","ios":"levelo://app?vid=3ff4ea5a-9e87-4762-940f-6580f78b8605"},"vehicle_type_id":"4","last_reported":1761145836,"current_range_meters":15200,"station_id":"ce4bgt12rcd13ifvqce0","pricing_plan_id":"cebpf4jnsgd1na2vs0mg"},{"bike_id":"7c2810fd-bcd9-4c3b-bd14-2fcbc0a6bc5b","system_id":"levelo_inurba_marseille","lat":43.2815,"lon":5.4264,"is_reserved":false,"is_disabled":false,"rental_uris":{"android":"levelo://app?vid=7c2810fd-bcd9-4c3b-bd14-2fcbc0a6bc5b","ios":"levelo://app?vid=7c2810fd-bcd9-4c3b-bd14-2fcbc0a6bc5b"},"vehicle_type_id":"4","last_reported":1761145836,"current_range_meters":15200,"station_id":"ce4bhnh2rcd13ifvqgug","pricing_plan_id":"cebpf4jnsgd1na2vs0mg"},{"bike_id":"61f001a3-2cb1-43fb-bfe4-e4a1763b22c1","system_id":"levelo_inurba_marseille","lat":43.27065,"lon":5.42286,"is_reserved":false,"is_disabled":false,"rental_uris":{"android":"levelo://app?vid=61f001a3-2cb1-43fb-bfe4-e4a1763b22c1","ios":"levelo://app?vid=61f001a3-2cb1-43fb-bfe4-e4a1763b22c1"},"vehicle_type_id":"4","last_reported":1761145836,"current_range_meters":15200,"station_id":"ce4bhk92rcd13ifvqgb0","pricing_plan_id":"cebpf4jnsgd1na2vs0mg"},{"bike_id":"b42ef29c-84da-416b-b6c6-68415263c3d1","system_id":"levelo_inurba_marseille","lat":43.28362,"lon":5.38629,"is_reserved":false,"is_disabled":false,"rental_uris":{"android":"levelo://app?vid=b42ef29c-84da-416b-b6c6-68415263c3d1","ios":"levelo://app?vid=b42ef29c-84da-416b-b6c6-68415263c3d1"},"vehicle_type_id":"4","last_reported":1761145836,"current_range_meters":15200,"station_id":"ce4bh492rcd13ifvqdvg","pricing_plan_id":"cebpf4jnsgd1na2vs0mg"},{"bike_id":"9d8bcd8e-8ecf-425f-98ef-b7c9398172e2","system_id":"levelo_inurba_marseille","lat":43.32364,"lon":5.36764,"is_reserved":false,"is_disabled":false,"rental_uris":{"android":"levelo://app?vid=9d8bcd8e-8ecf-425f-98ef-b7c9398172e2","ios":"levelo://app?vid=9d8bcd8e-8ecf-425f-98ef-b7c9398172e2"},"vehicle_type_id":"4","last_reported":1761145836,"current_range_meters":15200,"station_id":"ce4bhsh2rcd13ifvqi2g","pricing_plan_id":"cebpf4jnsgd1na2vs0mg"},{"bike_id":"4eae2ec4-8862-466e-a3d9-395cca4276d0","system_id":"levelo_inurba_marseille","lat":43.30289,"lon":5.3751,"is_reserved":false,"is_disabled":false,"rental_uris":{"android":"levelo://app?vid=4eae2ec4-8862-466e-a3d9-395cca4276d0","ios":"levelo://app?vid=4eae2ec4-8862-466e-a3d9-395cca4276d0"},"vehicle_type_id":"4","last_reported":1761145836,"current_range_meters":15200,"station_id":"","pricing_plan_id":"cebpf4jnsgd1na2vs0mg"},{"bike_id":"c6c2dba1-db81-4cd1-9c62-d4db3c03abcc","system_id":"levelo_inurba_marseille","lat":43.25584,"lon":5.38205,"is_reserved":false,"is_disabled":false,"rental_uris":{"android":"levelo://app?vid=c6c2dba1-db81-4cd1-9c62-d4db3c03abcc","ios":"levelo://app?vid=c6c2dba1-db81-4cd1-9c62-d4db3c03abcc"},"vehicle_type_id":"4","last_reported":1761145836,"current_range_meters":15200,"station_id":"ce4bhih2rcd13ifvqfs0","pricing_plan_id":"cebpf4jnsgd1na2vs0mg"},{"bike_id":"9870a68d-ae62-4bec-82c3-a7443a850bdc","system_id":"levelo_inurba_marseille","lat":43.31281,"lon":5.37776,"is_reserved":false,"is_disabled":false,"rental_uris":{"android":"levelo://app?vid=9870a68d-ae62-4bec-82c3-a7443a850bdc","ios":"levelo://app?vid=9870a68d-ae62-4bec-82c3-a7443a850bdc"},"vehicle_type_id":"4","last_reported":1761145836,"current_range_meters":16000,"station_id":"","pricing_plan_id":"cebpf4jnsgd1na2vs0mg"},{"bike_id":"618a9c44-e479-45b6-b144-58d3228e3132","system_id":"levelo_inurba_marseille","lat":43.24626,"lon":5.38894,"is_reserved":false,"is_disabled":false,"rental_uris":{"android":"levelo://app?vid=618a9c44-e479-45b6-b144-58d3228e3132","ios":"levelo://app?vid=618a9c44-e479-45b6-b144-58d3228e3132"},"vehicle_type_id":"4","last_reported":1761145836,"current_range_meters":16000,"station_id":"ce4bhg12rcd13ifvqf60","pricing_plan_id":"cebpf4jnsgd1na2vs0mg"},{"bike_id":"b3b13e92-d401-45af-ad84-a41c7bbeb5fe","system_id":"levelo_inurba_marseille","lat":43.30489,"lon":5.36745,"is_reserved":false,"is_disabled":false,"rental_uris":{"android":"levelo://app?vid=b3b13e92-d401-45af-ad84-a41c7bbeb5fe","ios":"levelo://app?vid=b3b13e92-d401-45af-ad84-a41c7bbeb5fe"},"vehicle_type_id":"4","last_reported":1761145836,"current_range_meters":16000,"station_id":"","pricing_plan_id":"cebpf4jnsgd1na2vs0mg"},{"bike_id":"7fa0cd21-12e8-4485-b587-35a71737bd5b","system_id":"levelo_inurba_marseille","lat":43.29773,"lon":5.371,"is_reserved":false,"is_disabled":false,"rental_uris":{"android":"levelo://app?vid=7fa0cd21-12e8-4485-b587-35a71737bd5b","ios":"levelo://app?vid=7fa0cd21-12e8-4485-b587-35a71737bd5b"},"vehicle_type_id":"4","last_reported":1761145836,"current_range_meters":16000,"station_id":"ce4bgop2rcd13ifvqc1g","pricing_plan_id":"cebpf4jnsgd1na2vs0mg"},{"bike_id":"13629a64-ef0b-468f-b9a9-dc7eac7d8e9e","system_id":"levelo_inurba_marseille","lat":43.2407,"lon":5.37763,"is_reserved":false,"is_disabled":false,"rental_uris":{"android":"levelo://app?vid=13629a64-ef0b-468f-b9a9-dc7eac7d8e9e","ios":"levelo://app?vid=13629a64-ef0b-468f-b9a9-dc7eac7d8e9e"},"vehicle_type_id":"4","last_reported":1761145836,"current_range_meters":16000,"station_id":"ce4bhnp2rcd13ifvqgvg","pricing_plan_id":"cebpf4jnsgd1na2vs0mg"},{"bike_id":"a79c6bd1-700c-48dd-854c-b0af28c99022","system_id":"levelo_inurba_marseille","lat":43.24644,"lon":5.43146,"is_reserved":false,"is_disabled":false,"rental_uris":{"android":"levelo://app?vid=a79c6bd1-700c-48dd-854c-b0af28c99022","ios":"levelo://app?vid=a79c6bd1-700c-48dd-854c-b0af28c99022"},"vehicle_type_id":"4","last_reported":1761145836,"current_range_meters":16000,"station_id":"st_d2m6c4gdas8pm72e190g","pricing_plan_id":"cebpf4jnsgd1na2vs0mg"},{"bike_id":"2ff2319d-129a-4d22-a25d-01d96c2dcbc1","system_id":"levelo_inurba_marseille","lat":43.24646,"lon":5.38914,"is_reserved":false,"is_disabled":false,"rental_uris":{"android":"levelo://app?vid=2ff2319d-129a-4d22-a25d-01d96c2dcbc1","ios":"levelo://app?vid=2ff2319d-129a-4d22-a25d-01d96c2dcbc1"},"vehicle_type_id":"4","last_reported":1761145836,"current_range_meters":16400,"station_id":"ce4bhg12rcd13ifvqf60","pricing_plan_id":"cebpf4jnsgd1na2vs0mg"},{"bike_id":"20c4f458-8798-4025-8191-dd1d9d00741f","system_id":"levelo_inurba_marseille","lat":43.33717,"lon":5.39186,"is_reserved":false,"is_disabled":false,"rental_uris":{"android":"levelo://app?vid=20c4f458-8798-4025-8191-dd1d9d00741f","ios":"levelo://app?vid=20c4f458-8798-4025-8191-dd1d9d00741f"},"vehicle_type_id":"4","last_reported":1761145836,"current_range_meters":16400,"station_id":"ce4bhr92rcd13ifvqhsg","pricing_plan_id":"cebpf4jnsgd1na2vs0mg"},{"bike_id":"65c5f640-66e7-4f98-9da1-00e1d084493f","system_id":"levelo_inurba_marseille","lat":43.29279,"lon":5.40116,"is_reserved":false,"is_disabled":false,"rental_uris":{"android":"levelo://app?vid=65c5f640-66e7-4f98-9da1-00e1d084493f","ios":"levelo://app?vid=65c5f640-66e7-4f98-9da1-00e1d084493f"},"vehicle_type_id":"4","last_reported":1761145836,"current_range_meters":16400,"station_id":"ce4bh312rcd13ifvqdk0","pricing_plan_id":"cebpf4jnsgd1na2vs0mg"},{"bike_id":"fd06af52-f6c2-45e0-8f84-23592965275b","system_id":"levelo_inurba_marseille","lat":43.28838,"lon":5.35858,"is_reserved":false,"is_disabled":false,"rental_uris":{"android":"levelo://app?vid=fd06af52-f6c2-45e0-8f84-23592965275b","ios":"levelo://app?vid=fd06af52-f6c2-45e0-8f84-23592965275b"},"vehicle_type_id":"4","last_reported":1761145836,"current_range_meters":16400,"station_id":"ce4bhb12rcd13ifvqem0","pricing_plan_id":"cebpf4jnsgd1na2vs0mg"},{"bike_id":"0cf9e2b8-85c8-4cfa-8657-8b253a599faf","system_id":"levelo_inurba_marseille","lat":43.29258,"lon":5.36853,"is_reserved":false,"is_disabled":false,"rental_uris":{"android":"levelo://app?vid=0cf9e2b8-85c8-4cfa-8657-8b253a599faf","ios":"levelo://app?vid=0cf9e2b8-85c8-4cfa-8657-8b253a599faf"},"vehicle_type_id":"4","last_reported":1761145836,"current_range_meters":16400,"station_id":"ce4bhbp2rcd13ifvqesg","pricing_plan_id":"cebpf4jnsgd1na2vs0mg"},{"bike_id":"5c5f86d4-45e0-4ad5-a478-5119cd222b7f","system_id":"levelo_inurba_marseille","lat":43.33137,"lon":5.38192,"is_reserved":false,"is_disabled":false,"rental_uris":{"android":"levelo://app?vid=5c5f86d4-45e0-4ad5-a478-5119cd222b7f","ios":"levelo://app?vid=5c5f86d4-45e0-4ad5-a478-5119cd222b7f"},"vehicle_type_id":"4","last_reported":1761145836,"current_range_meters":16400,"station_id":"","pricing_plan_id":"cebpf4jnsgd1na2vs0mg"},{"bike_id":"9bb7cadc-6019-40da-ace8-53cca79b90fb","system_id":"levelo_inurba_marseille","lat":43.24804,"lon":5.37459,"is_reserved":false,"is_disabled":false,"rental_uris":{"android":"levelo://app?vid=9bb7cadc-6019-40da-ace8-53cca79b90fb","ios":"levelo://app?vid=9bb7cadc-6019-40da-ace8-53cca79b90fb"},"vehicle_type_id":"4","last_reported":1761145836,"current_range_meters":16400,"station_id":"ce4bhgh2rcd13ifvqfb0","pricing_plan_id":"cebpf4jnsgd1na2vs0mg"},{"bike_id":"9d220e9e-af99-464b-a781-fc152c6d9434","system_id":"levelo_inurba_marseille","lat":43.29223,"lon":5.36067,"is_reserved":false,"is_disabled":false,"rental_uris":{"android":"levelo://app?vid=9d220e9e-af99-464b-a781-fc152c6d9434","ios":"levelo://app?vid=9d220e9e-af99-464b-a781-fc152c6d9434"},"vehicle_type_id":"4","last_reported":1761145836,"current_range_meters":16400,"station_id":"ce4bhbh2rcd13ifvqeqg","pricing_plan_id":"cebpf4jnsgd1na2vs0mg"},{"bike_id":"d24763d9-2519-4d7b-8e80-3e9860f6893d","system_id":"levelo_inurba_marseille","lat":43.29931,"lon":5.36551,"is_reserved":false,"is_disabled":false,"rental_uris":{"android":"levelo://app?vid=d24763d9-2519-4d7b-8e80-3e9860f6893d","ios":"levelo://app?vid=d24763d9-2519-4d7b-8e80-3e9860f6893d"},"vehicle_type_id":"4","last_reported":1761145836,"current_range_meters":16400,"station_id":"ce4bgm92rcd13ifvqbr0","pricing_plan_id":"cebpf4jnsgd1na2vs0mg"},{"bike_id":"fb8c63d3-3fc0-444b-a1f2-eb331671bfaa","system_id":"levelo_inurba_marseille","lat":43.29008,"lon":5.37553,"is_reserved":false,"is_disabled":false,"rental_uris":{"android":"levelo://app?vid=fb8c63d3-3fc0-444b-a1f2-eb331671bfaa","ios":"levelo://app?vid=fb8c63d3-3fc0-444b-a1f2-eb331671bfaa"},"vehicle_type_id":"4","last_reported":1761145836,"current_range_meters":16400,"station_id":"ce4bh692rcd13ifvqe90","pricing_plan_id":"cebpf4jnsgd1na2vs0mg"},{"bike_id":"ba320087-4e90-46a5-8982-c417b39c5529","system_id":"levelo_inurba_marseille","lat":43.27049,"lon":5.40272,"is_reserved":false,"is_disabled":false,"rental_uris":{"android":"levelo://app?vid=ba320087-4e90-46a5-8982-c417b39c5529","ios":"levelo://app?vid=ba320087-4e90-46a5-8982-c417b39c5529"},"vehicle_type_id":"4","last_reported":1761145836,"current_range_meters":16400,"station_id":"ce4bhk92rcd13ifvqgc0","pricing_plan_id":"cebpf4jnsgd1na2vs0mg"},{"bike_id":"acdb8ea6-6d84-4ed9-b119-2cca8eee2879","system_id":"levelo_inurba_marseille","lat":43.283518,"lon":5.38104,"is_reserved":false,"is_disabled":false,"rental_uris":{"android":"levelo://app?vid=acdb8ea6-6d84-4ed9-b119-2cca8eee2879","ios":"levelo://app?vid=acdb8ea6-6d84-4ed9-b119-2cca8eee2879"},"vehicle_type_id":"4","last_reported":1761145836,"current_range_meters":16400,"station_id":"ce4bh412rcd13ifvqdr0","pricing_plan_id":"cebpf4jnsgd1na2vs0mg"},{"bike_id":"c6df92e6-442a-4f75-9a45-f2766c4a930c","system_id":"levelo_inurba_marseille","lat":43.22562,"lon":5.41627,"is_reserved":false,"is_disabled":false,"rental_uris":{"android":"levelo://app?vid=c6df92e6-442a-4f75-9a45-f2766c4a930c","ios":"levelo://app?vid=c6df92e6-442a-4f75-9a45-f2766c4a930c"},"vehicle_type_id":"4","last_reported":1761145836,"current_range_meters":16800,"station_id":"st_d2o4gvlbi1j2169b742g","pricing_plan_id":"cebpf4jnsgd1na2vs0mg"},{"bike_id":"0ca22df0-5e77-4e59-bbb2-0d1ca218dbb6","system_id":"levelo_inurba_marseille","lat":43.25107,"lon":5.40323,"is_reserved":false,"is_disabled":false,"rental_uris":{"android":"levelo://app?vid=0ca22df0-5e77-4e59-bbb2-0d1ca218dbb6","ios":"levelo://app?vid=0ca22df0-5e77-4e59-bbb2-0d1ca218dbb6"},"vehicle_type_id":"4","last_reported":1761145836,"current_range_meters":16800,"station_id":"ce4bhlh2rcd13ifvqgig","pricing_plan_id":"cebpf4jnsgd1na2vs0mg"},{"bike_id":"c8c0fa58-a519-4343-9887-b0c694f93aef","system_id":"levelo_inurba_marseille","lat":43.28877,"lon":5.42521,"is_reserved":false,"is_disabled":false,"rental_uris":{"android":"levelo://app?vid=c8c0fa58-a519-4343-9887-b0c694f93aef","ios":"levelo://app?vid=c8c0fa58-a519-4343-9887-b0c694f93aef"},"vehicle_type_id":"4","last_reported":1761145836,"current_range_meters":16800,"station_id":"st_d3b462108ojc7389ooeg","pricing_plan_id":"cebpf4jnsgd1na2vs0mg"},{"bike_id":"8d4138ad-9b10-4506-b60a-46d04fc1ac58","system_id":"levelo_inurba_marseille","lat":43.30125,"lon":5.39851,"is_reserved":false,"is_disabled":false,"rental_uris":{"android":"levelo://app?vid=8d4138ad-9b10-4506-b60a-46d04fc1ac58","ios":"levelo://app?vid=8d4138ad-9b10-4506-b60a-46d04fc1ac58"},"vehicle_type_id":"4","last_reported":1761145836,"current_range_meters":16800,"station_id":"ce4bh0h2rcd13ifvqd40","pricing_plan_id":"cebpf4jnsgd1na2vs0mg"},{"bike_id":"e2d2b98f-8a30-4106-a37e-882518e41f0c","system_id":"levelo_inurba_marseille","lat":43.29858,"lon":5.39737,"is_reserved":false,"is_disabled":false,"rental_uris":{"android":"levelo://app?vid=e2d2b98f-8a30-4106-a37e-882518e41f0c","ios":"levelo://app?vid=e2d2b98f-8a30-4106-a37e-882518e41f0c"},"vehicle_type_id":"4","last_reported":1761145836,"current_range_meters":16800,"station_id":"ce4bh0h2rcd13ifvqd50","pricing_plan_id":"cebpf4jnsgd1na2vs0mg"},{"bike_id":"0ec4ef5d-d495-417b-9bb4-a7234e30b1f5","system_id":"levelo_inurba_marseille","lat":43.24536,"lon":5.39524,"is_reserved":false,"is_disabled":false,"rental_uris":{"android":"levelo://app?vid=0ec4ef5d-d495-417b-9bb4-a7234e30b1f5","ios":"levelo://app?vid=0ec4ef5d-d495-417b-9bb4-a7234e30b1f5"},"vehicle_type_id":"4","last_reported":1761145836,"current_range_meters":16800,"station_id":"ce4bhlp2rcd13ifvqgjg","pricing_plan_id":"cebpf4jnsgd1na2vs0mg"},{"bike_id":"d883e9a6-149c-47c5-9e9a-accba425942c","system_id":"levelo_inurba_marseille","lat":43.32111,"lon":5.36784,"is_reserved":false,"is_disabled":false,"rental_uris":{"android":"levelo://app?vid=d883e9a6-149c-47c5-9e9a-accba425942c","ios":"levelo://app?vid=d883e9a6-149c-47c5-9e9a-accba425942c"},"vehicle_type_id":"4","last_reported":1761145836,"current_range_meters":16800,"station_id":"ce4bhrh2rcd13ifvqhug","pricing_plan_id":"cebpf4jnsgd1na2vs0mg"},{"bike_id":"e26a4ba5-d1f0-450a-a9c3-d00a5fad899d","system_id":"levelo_inurba_marseille","lat":43.24162,"lon":5.36391,"is_reserved":false,"is_disabled":false,"rental_uris":{"android":"levelo://app?vid=e26a4ba5-d1f0-450a-a9c3-d00a5fad899d","ios":"levelo://app?vid=e26a4ba5-d1f0-450a-a9c3-d00a5fad899d"},"vehicle_type_id":"4","last_reported":1761145836,"current_range_meters":16800,"station_id":"cpo36qri1sfpv3e86is0","pricing_plan_id":"cebpf4jnsgd1na2vs0mg"},{"bike_id":"512da441-f0ac-4dc6-8a14-7cf614d9e64e","system_id":"levelo_inurba_marseille","lat":43.28411,"lon":5.3751,"is_reserved":false,"is_disabled":false,"rental_uris":{"android":"levelo://app?vid=512da441-f0ac-4dc6-8a14-7cf614d9e64e","ios":"levelo://app?vid=512da441-f0ac-4dc6-8a14-7cf614d9e64e"},"vehicle_type_id":"4","last_reported":1761145836,"current_range_meters":16800,"station_id":"ce4bh412rcd13ifvqds0","pricing_plan_id":"cebpf4jnsgd1na2vs0mg"},{"bike_id":"e393e2ec-ef5e-473c-aa72-91549a6fee16","system_id":"levelo_inurba_marseille","lat":43.29706,"lon":5.37696,"is_reserved":false,"is_disabled":false,"rental_uris":{"android":"levelo://app?vid=e393e2ec-ef5e-473c-aa72-91549a6fee16","ios":"levelo://app?vid=e393e2ec-ef5e-473c-aa72-91549a6fee16"},"vehicle_type_id":"4","last_reported":1761145836,"current_range_meters":16800,"station_id":"ce4bgkh2rcd13ifvqbl0","pricing_plan_id":"cebpf4jnsgd1na2vs0mg"},{"bike_id":"f2d7c4d6-6cd6-487c-8d71-0dcf6c3b9a5c","system_id":"levelo_inurba_marseille","lat":43.28614,"lon":5.35105,"is_reserved":false,"is_disabled":false,"rental_uris":{"android":"levelo://app?vid=f2d7c4d6-6cd6-487c-8d71-0dcf6c3b9a5c","ios":"levelo://app?vid=f2d7c4d6-6cd6-487c-8d71-0dcf6c3b9a5c"},"vehicle_type_id":"4","last_reported":1761145836,"current_range_meters":16800,"station_id":"ce4bhch2rcd13ifvqeug","pricing_plan_id":"cebpf4jnsgd1na2vs0mg"},{"bike_id":"61525fe3-26d4-4c5c-a075-e59599c296c4","system_id":"levelo_inurba_marseille","lat":43.314422,"lon":5.392909,"is_reserved":false,"is_disabled":false,"rental_uris":{"android":"levelo://app?vid=61525fe3-26d4-4c5c-a075-e59599c296c4","ios":"levelo://app?vid=61525fe3-26d4-4c5c-a075-e59599c296c4"},"vehicle_type_id":"4","last_reported":1761145836,"current_range_meters":17200,"station_id":"","pricing_plan_id":"cebpf4jnsgd1na2vs0mg"},{"bike_id":"d4da7a79-ca5e-4367-bfbd-cf0176fdbd36","system_id":"levelo_inurba_marseille","lat":43.30527,"lon":5.36558,"is_reserved":false,"is_disabled":false,"rental_uris":{"android":"levelo://app?vid=d4da7a79-ca5e-4367-bfbd-cf0176fdbd36","ios":"levelo://app?vid=d4da7a79-ca5e-4367-bfbd-cf0176fdbd36"},"vehicle_type_id":"4","last_reported":1761145836,"current_range_meters":17200,"station_id":"","pricing_plan_id":"cebpf4jnsgd1na2vs0mg"},{"bike_id":"08ffff4a-6b10-4c95-84bf-baa3cd048d8d","system_id":"levelo_inurba_marseille","lat":43.292709,"lon":5.368233,"is_reserved":false,"is_disabled":false,"rental_uris":{"android":"levelo://app?vid=08ffff4a-6b10-4c95-84bf-baa3cd048d8d","ios":"levelo://app?vid=08ffff4a-6b10-4c95-84bf-baa3cd048d8d"},"vehicle_type_id":"4","last_reported":1761145836,"current_range_meters":17200,"station_id":"ce4bhbp2rcd13ifvqesg","pricing_plan_id":"cebpf4jnsgd1na2vs0mg"},{"bike_id":"c3f887dc-0b68-44f1-873c-29098672ba35","system_id":"levelo_inurba_marseille","lat":43.29514,"lon":5.39408,"is_reserved":false,"is_disabled":false,"rental_uris":{"android":"levelo://app?vid=c3f887dc-0b68-44f1-873c-29098672ba35","ios":"levelo://app?vid=c3f887dc-0b68-44f1-873c-29098672ba35"},"vehicle_type_id":"4","last_reported":1761145836,"current_range_meters":17600,"station_id":"ce4bh292rcd13ifvqdf0","pricing_plan_id":"cebpf4jnsgd1na2vs0mg"},{"bike_id":"ff8e10e8-96be-45d2-890f-af08d32ff28f","system_id":"levelo_inurba_marseille","lat":43.28227,"lon":5.39066,"is_reserved":false,"is_disabled":false,"rental_uris":{"android":"levelo://app?vid=ff8e10e8-96be-45d2-890f-af08d32ff28f","ios":"levelo://app?vid=ff8e10e8-96be-45d2-890f-af08d32ff28f"},"vehicle_type_id":"4","last_reported":1761145836,"current_range_meters":17600,"station_id":"ce4bhn92rcd13ifvqgsg","pricing_plan_id":"cebpf4jnsgd1na2vs0mg"},{"bike_id":"fc088b50-e903-4413-b68e-3a2b8a695866","system_id":"levelo_inurba_marseille","lat":43.24622,"lon":5.43147,"is_reserved":false,"is_disabled":false,"rental_uris":{"android":"levelo://app?vid=fc088b50-e903-4413-b68e-3a2b8a695866","ios":"levelo://app?vid=fc088b50-e903-4413-b68e-3a2b8a695866"},"vehicle_type_id":"4","last_reported":1761145836,"current_range_meters":17600,"station_id":"st_d2m6c4gdas8pm72e190g","pricing_plan_id":"cebpf4jnsgd1na2vs0mg"},{"bike_id":"22556366-5b35-4879-b6f5-b944bfc8418c","system_id":"levelo_inurba_marseille","lat":43.30151,"lon":5.381,"is_reserved":false,"is_disabled":true,"rental_uris":{"android":"levelo://app?vid=22556366-5b35-4879-b6f5-b944bfc8418c","ios":"levelo://app?vid=22556366-5b35-4879-b6f5-b944bfc8418c"},"vehicle_type_id":"4","last_reported":1761145836,"current_range_meters":17600,"station_id":"ce4bgjp2rcd13ifvqbh0","pricing_plan_id":"cebpf4jnsgd1na2vs0mg"},{"bike_id":"bda3ed1a-3199-4eb8-8229-577855d09dbb","system_id":"levelo_inurba_marseille","lat":43.3163,"lon":5.37876,"is_reserved":false,"is_disabled":false,"rental_uris":{"android":"levelo://app?vid=bda3ed1a-3199-4eb8-8229-577855d09dbb","ios":"levelo://app?vid=bda3ed1a-3199-4eb8-8229-577855d09dbb"},"vehicle_type_id":"4","last_reported":1761145836,"current_range_meters":17600,"station_id":"","pricing_plan_id":"cebpf4jnsgd1na2vs0mg"},{"bike_id":"556113b3-cd0f-48cc-968c-e08e9776f110","system_id":"levelo_inurba_marseille","lat":43.30115,"lon":5.43122,"is_reserved":false,"is_disabled":false,"rental_uris":{"android":"levelo://app?vid=556113b3-cd0f-48cc-968c-e08e9776f110","ios":"levelo://app?vid=556113b3-cd0f-48cc-968c-e08e9776f110"},"vehicle_type_id":"4","last_reported":1761145836,"current_range_meters":17600,"station_id":"st_d3js3co5814s73ftftug","pricing_plan_id":"cebpf4jnsgd1na2vs0mg"},{"bike_id":"9393f9ef-7253-457f-bdcb-e284d908af29","system_id":"levelo_inurba_marseille","lat":43.28848,"lon":5.3584,"is_reserved":false,"is_disabled":false,"rental_uris":{"android":"levelo://app?vid=9393f9ef-7253-457f-bdcb-e284d908af29","ios":"levelo://app?vid=9393f9ef-7253-457f-bdcb-e284d908af29"},"vehicle_type_id":"4","last_reported":1761145836,"current_range_meters":17600,"station_id":"ce4bhb12rcd13ifvqem0","pricing_plan_id":"cebpf4jnsgd1na2vs0mg"},{"bike_id":"27d9291b-1a67-48ec-a277-b94b1b13fb54","system_id":"levelo_inurba_marseille","lat":43.29292,"lon":5.3746,"is_reserved":false,"is_disabled":false,"rental_uris":{"android":"levelo://app?vid=27d9291b-1a67-48ec-a277-b94b1b13fb54","ios":"levelo://app?vid=27d9291b-1a67-48ec-a277-b94b1b13fb54"},"vehicle_type_id":"4","last_reported":1761145836,"current_range_meters":17600,"station_id":"ce4bgi12rcd13ifvqb70","pricing_plan_id":"cebpf4jnsgd1na2vs0mg"},{"bike_id":"d9247930-f477-4727-872b-24c5b02f6614","system_id":"levelo_inurba_marseille","lat":43.27179,"lon":5.41006,"is_reserved":false,"is_disabled":false,"rental_uris":{"android":"levelo://app?vid=d9247930-f477-4727-872b-24c5b02f6614","ios":"levelo://app?vid=d9247930-f477-4727-872b-24c5b02f6614"},"vehicle_type_id":"4","last_reported":1761145836,"current_range_meters":17600,"station_id":"ce4bhl12rcd13ifvqgf0","pricing_plan_id":"cebpf4jnsgd1na2vs0mg"},{"bike_id":"be27d8d6-b007-489f-b51c-c525920507be","system_id":"levelo_inurba_marseille","lat":43.29961,"lon":5.38517,"is_reserved":false,"is_disabled":false,"rental_uris":{"android":"levelo://app?vid=be27d8d6-b007-489f-b51c-c525920507be","ios":"levelo://app?vid=be27d8d6-b007-489f-b51c-c525920507be"},"vehicle_type_id":"4","last_reported":1761145836,"current_range_meters":18000,"station_id":"ce4bgj92rcd13ifvqbd0","pricing_plan_id":"cebpf4jnsgd1na2vs0mg"},{"bike_id":"2a22829e-2bd6-41ec-a3e5-ef826e7425d3","system_id":"levelo_inurba_marseille","lat":43.321151,"lon":5.368019,"is_reserved":false,"is_disabled":false,"rental_uris":{"android":"levelo://app?vid=2a22829e-2bd6-41ec-a3e5-ef826e7425d3","ios":"levelo://app?vid=2a22829e-2bd6-41ec-a3e5-ef826e7425d3"},"vehicle_type_id":"4","last_reported":1761145836,"current_range_meters":18000,"station_id":"ce4bhrh2rcd13ifvqhug","pricing_plan_id":"cebpf4jnsgd1na2vs0mg"},{"bike_id":"d42a0f16-1b8e-40f9-9c0d-d26b94f0dbfb","system_id":"levelo_inurba_marseille","lat":43.295796,"lon":5.375275,"is_reserved":false,"is_disabled":false,"rental_uris":{"android":"levelo://app?vid=d42a0f16-1b8e-40f9-9c0d-d26b94f0dbfb","ios":"levelo://app?vid=d42a0f16-1b8e-40f9-9c0d-d26b94f0dbfb"},"vehicle_type_id":"4","last_reported":1761145836,"current_range_meters":18000,"station_id":"ce4bhbp2rcd13ifvqerg","pricing_plan_id":"cebpf4jnsgd1na2vs0mg"},{"bike_id":"e33ab3c4-8145-49fc-a06c-f43ab9925c5c","system_id":"levelo_inurba_marseille","lat":43.29225,"lon":5.36068,"is_reserved":false,"is_disabled":false,"rental_uris":{"android":"levelo://app?vid=e33ab3c4-8145-49fc-a06c-f43ab9925c5c","ios":"levelo://app?vid=e33ab3c4-8145-49fc-a06c-f43ab9925c5c"},"vehicle_type_id":"4","last_reported":1761145836,"current_range_meters":18000,"station_id":"ce4bhbh2rcd13ifvqeqg","pricing_plan_id":"cebpf4jnsgd1na2vs0mg"},{"bike_id":"bc1ce556-4f70-40b2-a104-08b26a535c74","system_id":"levelo_inurba_marseille","lat":43.22558,"lon":5.41632,"is_reserved":false,"is_disabled":false,"rental_uris":{"android":"levelo://app?vid=bc1ce556-4f70-40b2-a104-08b26a535c74","ios":"levelo://app?vid=bc1ce556-4f70-40b2-a104-08b26a535c74"},"vehicle_type_id":"4","last_reported":1761145836,"current_range_meters":18000,"station_id":"st_d2o4gvlbi1j2169b742g","pricing_plan_id":"cebpf4jnsgd1na2vs0mg"},{"bike_id":"a065fb47-9ff2-4293-8c84-3ebf3f9ebc8b","system_id":"levelo_inurba_marseille","lat":43.284227,"lon":5.34974,"is_reserved":false,"is_disabled":false,"rental_uris":{"android":"levelo://app?vid=a065fb47-9ff2-4293-8c84-3ebf3f9ebc8b","ios":"levelo://app?vid=a065fb47-9ff2-4293-8c84-3ebf3f9ebc8b"},"vehicle_type_id":"4","last_reported":1761145836,"current_range_meters":18000,"station_id":"ce4bhbh2rcd13ifvqepg","pricing_plan_id":"cebpf4jnsgd1na2vs0mg"},{"bike_id":"e3ca91a6-cfea-4ecc-af81-039b2e89a9d4","system_id":"levelo_inurba_marseille","lat":43.24395,"lon":5.37021,"is_reserved":false,"is_disabled":false,"rental_uris":{"android":"levelo://app?vid=e3ca91a6-cfea-4ecc-af81-039b2e89a9d4","ios":"levelo://app?vid=e3ca91a6-cfea-4ecc-af81-039b2e89a9d4"},"vehicle_type_id":"4","last_reported":1761145836,"current_range_meters":18800,"station_id":"ce4bhhh2rcd13ifvqfk0","pricing_plan_id":"cebpf4jnsgd1na2vs0mg"},{"bike_id":"0602d476-412a-4e1f-a043-34fa4402aca1","system_id":"levelo_inurba_marseille","lat":43.21743,"lon":5.34592,"is_reserved":false,"is_disabled":false,"rental_uris":{"android":"levelo://app?vid=0602d476-412a-4e1f-a043-34fa4402aca1","ios":"levelo://app?vid=0602d476-412a-4e1f-a043-34fa4402aca1"},"vehicle_type_id":"4","last_reported":1761145836,"current_range_meters":18800,"station_id":"st_cvj6r9ubvosntc0bgbag","pricing_plan_id":"cebpf4jnsgd1na2vs0mg"},{"bike_id":"a72f33d4-c8c3-41c7-9f2f-0c59907fcbba","system_id":"levelo_inurba_marseille","lat":43.273751,"lon":5.362626,"is_reserved":false,"is_disabled":false,"rental_uris":{"android":"levelo://app?vid=a72f33d4-c8c3-41c7-9f2f-0c59907fcbba","ios":"levelo://app?vid=a72f33d4-c8c3-41c7-9f2f-0c59907fcbba"},"vehicle_type_id":"4","last_reported":1761145836,"current_range_meters":18800,"station_id":"ce4bhbh2rcd13ifvqeo0","pricing_plan_id":"cebpf4jnsgd1na2vs0mg"},{"bike_id":"490d33f2-1c69-4fd8-a751-9b2d51d4fd5f","system_id":"levelo_inurba_marseille","lat":43.30132,"lon":5.38779,"is_reserved":false,"is_disabled":false,"rental_uris":{"android":"levelo://app?vid=490d33f2-1c69-4fd8-a751-9b2d51d4fd5f","ios":"levelo://app?vid=490d33f2-1c69-4fd8-a751-9b2d51d4fd5f"},"vehicle_type_id":"4","last_reported":1761145836,"current_range_meters":18800,"station_id":"ce4bghh2rcd13ifvqb60","pricing_plan_id":"cebpf4jnsgd1na2vs0mg"},{"bike_id":"900512a2-14c6-421d-969e-c3dc812fd854","system_id":"levelo_inurba_marseille","lat":43.290305,"lon":5.372418,"is_reserved":false,"is_disabled":false,"rental_uris":{"android":"levelo://app?vid=900512a2-14c6-421d-969e-c3dc812fd854","ios":"levelo://app?vid=900512a2-14c6-421d-969e-c3dc812fd854"},"vehicle_type_id":"4","last_reported":1761145836,"current_range_meters":18800,"station_id":"","pricing_plan_id":"cebpf4jnsgd1na2vs0mg"},{"bike_id":"d2dd40b6-b656-4f7f-8227-3d65dab6eeee","system_id":"levelo_inurba_marseille","lat":43.27368,"lon":5.36243,"is_reserved":false,"is_disabled":false,"rental_uris":{"android":"levelo://app?vid=d2dd40b6-b656-4f7f-8227-3d65dab6eeee","ios":"levelo://app?vid=d2dd40b6-b656-4f7f-8227-3d65dab6eeee"},"vehicle_type_id":"4","last_reported":1761145836,"current_range_meters":19200,"station_id":"ce4bhbh2rcd13ifvqeo0","pricing_plan_id":"cebpf4jnsgd1na2vs0mg"},{"bike_id":"3b139051-8b17-4e6a-9c9e-0ba0ddb720db","system_id":"levelo_inurba_marseille","lat":43.24383,"lon":5.37058,"is_reserved":false,"is_disabled":false,"rental_uris":{"android":"levelo://app?vid=3b139051-8b17-4e6a-9c9e-0ba0ddb720db","ios":"levelo://app?vid=3b139051-8b17-4e6a-9c9e-0ba0ddb720db"},"vehicle_type_id":"4","last_reported":1761145836,"current_range_meters":19200,"station_id":"ce4bhhh2rcd13ifvqfk0","pricing_plan_id":"cebpf4jnsgd1na2vs0mg"},{"bike_id":"a13346db-eea0-4640-8b02-b496b6a64428","system_id":"levelo_inurba_marseille","lat":43.28698,"lon":5.37391,"is_reserved":false,"is_disabled":false,"rental_uris":{"android":"levelo://app?vid=a13346db-eea0-4640-8b02-b496b6a64428","ios":"levelo://app?vid=a13346db-eea0-4640-8b02-b496b6a64428"},"vehicle_type_id":"4","last_reported":1761145836,"current_range_meters":19200,"station_id":"ce4bh3p2rcd13ifvqdq0","pricing_plan_id":"cebpf4jnsgd1na2vs0mg"},{"bike_id":"692a999f-f646-43fe-b949-d58fd32447f4","system_id":"levelo_inurba_marseille","lat":43.32551,"lon":5.39007,"is_reserved":false,"is_disabled":false,"rental_uris":{"android":"levelo://app?vid=692a999f-f646-43fe-b949-d58fd32447f4","ios":"levelo://app?vid=692a999f-f646-43fe-b949-d58fd32447f4"},"vehicle_type_id":"4","last_reported":1761145836,"current_range_meters":19200,"station_id":"","pricing_plan_id":"cebpf4jnsgd1na2vs0mg"},{"bike_id":"7b6637c5-a225-4fa5-a90e-18c4d88153d8","system_id":"levelo_inurba_marseille","lat":43.29045,"lon":5.35918,"is_reserved":false,"is_disabled":false,"rental_uris":{"android":"levelo://app?vid=7b6637c5-a225-4fa5-a90e-18c4d88153d8","ios":"levelo://app?vid=7b6637c5-a225-4fa5-a90e-18c4d88153d8"},"vehicle_type_id":"4","last_reported":1761145836,"current_range_meters":19200,"station_id":"ce4bha92rcd13ifvqeg0","pricing_plan_id":"cebpf4jnsgd1na2vs0mg"},{"bike_id":"13ffca06-ecc4-46ee-aa82-6818647126c8","system_id":"levelo_inurba_marseille","lat":43.299011,"lon":5.436536,"is_reserved":false,"is_disabled":false,"rental_uris":{"android":"levelo://app?vid=13ffca06-ecc4-46ee-aa82-6818647126c8","ios":"levelo://app?vid=13ffca06-ecc4-46ee-aa82-6818647126c8"},"vehicle_type_id":"4","last_reported":1761145836,"current_range_meters":19200,"station_id":"ce4bhpp2rcd13ifvqhfg","pricing_plan_id":"cebpf4jnsgd1na2vs0mg"},{"bike_id":"b39dff13-556c-4b28-bde9-1cd6f4a12842","system_id":"levelo_inurba_marseille","lat":43.301246,"lon":5.398736,"is_reserved":false,"is_disabled":false,"rental_uris":{"android":"levelo://app?vid=b39dff13-556c-4b28-bde9-1cd6f4a12842","ios":"levelo://app?vid=b39dff13-556c-4b28-bde9-1cd6f4a12842"},"vehicle_type_id":"4","last_reported":1761145836,"current_range_meters":19600,"station_id":"ce4bh0h2rcd13ifvqd40","pricing_plan_id":"cebpf4jnsgd1na2vs0mg"},{"bike_id":"26ecfd90-2879-4ffd-b3cb-633752b421a5","system_id":"levelo_inurba_marseille","lat":43.26549,"lon":5.37288,"is_reserved":false,"is_disabled":false,"rental_uris":{"android":"levelo://app?vid=26ecfd90-2879-4ffd-b3cb-633752b421a5","ios":"levelo://app?vid=26ecfd90-2879-4ffd-b3cb-633752b421a5"},"vehicle_type_id":"4","last_reported":1761145836,"current_range_meters":19600,"station_id":"ce4bhg12rcd13ifvqf70","pricing_plan_id":"cebpf4jnsgd1na2vs0mg"},{"bike_id":"79db06a8-8d0b-4f68-a2e3-4948c01bcef4","system_id":"levelo_inurba_marseille","lat":43.255916,"lon":5.382336,"is_reserved":false,"is_disabled":false,"rental_uris":{"android":"levelo://app?vid=79db06a8-8d0b-4f68-a2e3-4948c01bcef4","ios":"levelo://app?vid=79db06a8-8d0b-4f68-a2e3-4948c01bcef4"},"vehicle_type_id":"4","last_reported":1761145836,"current_range_meters":19600,"station_id":"ce4bhih2rcd13ifvqfs0","pricing_plan_id":"cebpf4jnsgd1na2vs0mg"},{"bike_id":"7074f0a3-b4fb-49cd-bd2e-3493a51c0d7c","system_id":"levelo_inurba_marseille","lat":43.30415,"lon":5.41291,"is_reserved":false,"is_disabled":false,"rental_uris":{"android":"levelo://app?vid=7074f0a3-b4fb-49cd-bd2e-3493a51c0d7c","ios":"levelo://app?vid=7074f0a3-b4fb-49cd-bd2e-3493a51c0d7c"},"vehicle_type_id":"4","last_reported":1761145836,"current_range_meters":19600,"station_id":"ce4bhop2rcd13ifvqh8g","pricing_plan_id":"cebpf4jnsgd1na2vs0mg"},{"bike_id":"035ca1d7-233f-4f69-9569-4f3393764361","system_id":"levelo_inurba_marseille","lat":43.30852,"lon":5.37371,"is_reserved":false,"is_disabled":false,"rental_uris":{"android":"levelo://app?vid=035ca1d7-233f-4f69-9569-4f3393764361","ios":"levelo://app?vid=035ca1d7-233f-4f69-9569-4f3393764361"},"vehicle_type_id":"4","last_reported":1761145836,"current_range_meters":19600,"station_id":"","pricing_plan_id":"cebpf4jnsgd1na2vs0mg"},{"bike_id":"230c35f2-2e1a-4c8c-ad1e-7cb8bce101eb","system_id":"levelo_inurba_marseille","lat":43.265527,"lon":5.37284,"is_reserved":false,"is_disabled":false,"rental_uris":{"android":"levelo://app?vid=230c35f2-2e1a-4c8c-ad1e-7cb8bce101eb","ios":"levelo://app?vid=230c35f2-2e1a-4c8c-ad1e-7cb8bce101eb"},"vehicle_type_id":"4","last_reported":1761145836,"current_range_meters":19600,"station_id":"ce4bhg12rcd13ifvqf70","pricing_plan_id":"cebpf4jnsgd1na2vs0mg"},{"bike_id":"8bcacd78-80de-4026-af75-b37ebe3030fe","system_id":"levelo_inurba_marseille","lat":43.334756,"lon":5.404255,"is_reserved":false,"is_disabled":false,"rental_uris":{"android":"levelo://app?vid=8bcacd78-80de-4026-af75-b37ebe3030fe","ios":"levelo://app?vid=8bcacd78-80de-4026-af75-b37ebe3030fe"},"vehicle_type_id":"4","last_reported":1761145836,"current_range_meters":19600,"station_id":"","pricing_plan_id":"cebpf4jnsgd1na2vs0mg"},{"bike_id":"9785c015-4fd9-4760-b3bd-67958109aa5f","system_id":"levelo_inurba_marseille","lat":43.267494,"lon":5.394155,"is_reserved":false,"is_disabled":false,"rental_uris":{"android":"levelo://app?vid=9785c015-4fd9-4760-b3bd-67958109aa5f","ios":"levelo://app?vid=9785c015-4fd9-4760-b3bd-67958109aa5f"},"vehicle_type_id":"4","last_reported":1761145836,"current_range_meters":19600,"station_id":"ce4bhh12rcd13ifvqfg0","pricing_plan_id":"cebpf4jnsgd1na2vs0mg"},{"bike_id":"9c023054-f387-47db-bf1d-2774b5d6d642","system_id":"levelo_inurba_marseille","lat":43.31678,"lon":5.38182,"is_reserved":false,"is_disabled":false,"rental_uris":{"android":"levelo://app?vid=9c023054-f387-47db-bf1d-2774b5d6d642","ios":"levelo://app?vid=9c023054-f387-47db-bf1d-2774b5d6d642"},"vehicle_type_id":"4","last_reported":1761145836,"current_range_meters":19600,"station_id":"","pricing_plan_id":"cebpf4jnsgd1na2vs0mg"},{"bike_id":"3aaf3c22-ed60-4544-bb69-96db45494770","system_id":"levelo_inurba_marseille","lat":43.30534,"lon":5.3671,"is_reserved":false,"is_disabled":false,"rental_uris":{"android":"levelo://app?vid=3aaf3c22-ed60-4544-bb69-96db45494770","ios":"levelo://app?vid=3aaf3c22-ed60-4544-bb69-96db45494770"},"vehicle_type_id":"4","last_reported":1761145836,"current_range_meters":19600,"station_id":"ce4bgrp2rcd13ifvqc9g","pricing_plan_id":"cebpf4jnsgd1na2vs0mg"},{"bike_id":"3c5bffd8-322f-4631-a714-0972e4530d4b","system_id":"levelo_inurba_marseille","lat":43.27365,"lon":5.36244,"is_reserved":false,"is_disabled":false,"rental_uris":{"android":"levelo://app?vid=3c5bffd8-322f-4631-a714-0972e4530d4b","ios":"levelo://app?vid=3c5bffd8-322f-4631-a714-0972e4530d4b"},"vehicle_type_id":"4","last_reported":1761145836,"current_range_meters":20000,"station_id":"ce4bhbh2rcd13ifvqeo0","pricing_plan_id":"cebpf4jnsgd1na2vs0mg"},{"bike_id":"642db917-5c8b-4e8d-9ef5-47fe9ef8bc7a","system_id":"levelo_inurba_marseille","lat":43.29594,"lon":5.37677,"is_reserved":false,"is_disabled":false,"rental_uris":{"android":"levelo://app?vid=642db917-5c8b-4e8d-9ef5-47fe9ef8bc7a","ios":"levelo://app?vid=642db917-5c8b-4e8d-9ef5-47fe9ef8bc7a"},"vehicle_type_id":"4","last_reported":1761145836,"current_range_meters":20000,"station_id":"ce4bgi92rcd13ifvqb90","pricing_plan_id":"cebpf4jnsgd1na2vs0mg"},{"bike_id":"e437460d-805d-4c07-9b55-237013e207ed","system_id":"levelo_inurba_marseille","lat":43.307962,"lon":5.381422,"is_reserved":false,"is_disabled":false,"rental_uris":{"android":"levelo://app?vid=e437460d-805d-4c07-9b55-237013e207ed","ios":"levelo://app?vid=e437460d-805d-4c07-9b55-237013e207ed"},"vehicle_type_id":"4","last_reported":1761145836,"current_range_meters":20000,"station_id":"ce4bgt12rcd13ifvqce0","pricing_plan_id":"cebpf4jnsgd1na2vs0mg"},{"bike_id":"7f0c2448-35dc-4d3e-a10e-3eebb529d07d","system_id":"levelo_inurba_marseille","lat":43.29528,"lon":5.38542,"is_reserved":false,"is_disabled":false,"rental_uris":{"android":"levelo://app?vid=7f0c2448-35dc-4d3e-a10e-3eebb529d07d","ios":"levelo://app?vid=7f0c2448-35dc-4d3e-a10e-3eebb529d07d"},"vehicle_type_id":"4","last_reported":1761145836,"current_range_meters":20000,"station_id":"ce4bgih2rcd13ifvqba0","pricing_plan_id":"cebpf4jnsgd1na2vs0mg"},{"bike_id":"28d0eed5-c327-4c52-b8dd-01adca57a260","system_id":"levelo_inurba_marseille","lat":43.29976,"lon":5.38487,"is_reserved":false,"is_disabled":false,"rental_uris":{"android":"levelo://app?vid=28d0eed5-c327-4c52-b8dd-01adca57a260","ios":"levelo://app?vid=28d0eed5-c327-4c52-b8dd-01adca57a260"},"vehicle_type_id":"4","last_reported":1761145836,"current_range_meters":20400,"station_id":"ce4bgj92rcd13ifvqbd0","pricing_plan_id":"cebpf4jnsgd1na2vs0mg"},{"bike_id":"e4938cd3-f082-4e3c-80e4-30add27bc136","system_id":"levelo_inurba_marseille","lat":43.33715,"lon":5.39176,"is_reserved":false,"is_disabled":false,"rental_uris":{"android":"levelo://app?vid=e4938cd3-f082-4e3c-80e4-30add27bc136","ios":"levelo://app?vid=e4938cd3-f082-4e3c-80e4-30add27bc136"},"vehicle_type_id":"4","last_reported":1761145836,"current_range_meters":20400,"station_id":"ce4bhr92rcd13ifvqhsg","pricing_plan_id":"cebpf4jnsgd1na2vs0mg"},{"bike_id":"ff067eab-0cf6-44d3-9317-95b11d59fe01","system_id":"levelo_inurba_marseille","lat":43.2846,"lon":5.35882,"is_reserved":false,"is_disabled":false,"rental_uris":{"android":"levelo://app?vid=ff067eab-0cf6-44d3-9317-95b11d59fe01","ios":"levelo://app?vid=ff067eab-0cf6-44d3-9317-95b11d59fe01"},"vehicle_type_id":"4","last_reported":1761145836,"current_range_meters":20400,"station_id":"ce4bhah2rcd13ifvqei0","pricing_plan_id":"cebpf4jnsgd1na2vs0mg"},{"bike_id":"1996ea89-9471-4d12-8066-1a9d0b7c69da","system_id":"levelo_inurba_marseille","lat":43.24392,"lon":5.37077,"is_reserved":false,"is_disabled":false,"rental_uris":{"android":"levelo://app?vid=1996ea89-9471-4d12-8066-1a9d0b7c69da","ios":"levelo://app?vid=1996ea89-9471-4d12-8066-1a9d0b7c69da"},"vehicle_type_id":"4","last_reported":1761145836,"current_range_meters":20400,"station_id":"ce4bhhh2rcd13ifvqfk0","pricing_plan_id":"cebpf4jnsgd1na2vs0mg"},{"bike_id":"745eb1d9-36e7-43e9-ab13-378f0c560a0c","system_id":"levelo_inurba_marseille","lat":43.33702,"lon":5.39214,"is_reserved":false,"is_disabled":false,"rental_uris":{"android":"levelo://app?vid=745eb1d9-36e7-43e9-ab13-378f0c560a0c","ios":"levelo://app?vid=745eb1d9-36e7-43e9-ab13-378f0c560a0c"},"vehicle_type_id":"4","last_reported":1761145836,"current_range_meters":20400,"station_id":"ce4bhr92rcd13ifvqhsg","pricing_plan_id":"cebpf4jnsgd1na2vs0mg"},{"bike_id":"73328dd9-6e9f-4a5f-ac0f-3f0d97cbcf5f","system_id":"levelo_inurba_marseille","lat":43.29279,"lon":5.40117,"is_reserved":false,"is_disabled":false,"rental_uris":{"android":"levelo://app?vid=73328dd9-6e9f-4a5f-ac0f-3f0d97cbcf5f","ios":"levelo://app?vid=73328dd9-6e9f-4a5f-ac0f-3f0d97cbcf5f"},"vehicle_type_id":"4","last_reported":1761145836,"current_range_meters":20400,"station_id":"ce4bh312rcd13ifvqdk0","pricing_plan_id":"cebpf4jnsgd1na2vs0mg"},{"bike_id":"f1767e8c-7fb7-4f51-b9bb-5ad11a10d1fc","system_id":"levelo_inurba_marseille","lat":43.315275,"lon":5.380351,"is_reserved":false,"is_disabled":false,"rental_uris":{"android":"levelo://app?vid=f1767e8c-7fb7-4f51-b9bb-5ad11a10d1fc","ios":"levelo://app?vid=f1767e8c-7fb7-4f51-b9bb-5ad11a10d1fc"},"vehicle_type_id":"4","last_reported":1761145836,"current_range_meters":20400,"station_id":"ce4bhsp2rcd13ifvqi50","pricing_plan_id":"cebpf4jnsgd1na2vs0mg"},{"bike_id":"17b6014c-fc41-4b7e-a0d1-dc810e388b46","system_id":"levelo_inurba_marseille","lat":43.28478,"lon":5.38419,"is_reserved":false,"is_disabled":false,"rental_uris":{"android":"levelo://app?vid=17b6014c-fc41-4b7e-a0d1-dc810e388b46","ios":"levelo://app?vid=17b6014c-fc41-4b7e-a0d1-dc810e388b46"},"vehicle_type_id":"4","last_reported":1761145836,"current_range_meters":20400,"station_id":"ce4bh512rcd13ifvqe3g","pricing_plan_id":"cebpf4jnsgd1na2vs0mg"},{"bike_id":"2172ef7f-240b-4c72-bf8d-26c79cc1f73d","system_id":"levelo_inurba_marseille","lat":43.29891,"lon":5.43657,"is_reserved":false,"is_disabled":false,"rental_uris":{"android":"levelo://app?vid=2172ef7f-240b-4c72-bf8d-26c79cc1f73d","ios":"levelo://app?vid=2172ef7f-240b-4c72-bf8d-26c79cc1f73d"},"vehicle_type_id":"4","last_reported":1761145836,"current_range_meters":20800,"station_id":"ce4bhpp2rcd13ifvqhfg","pricing_plan_id":"cebpf4jnsgd1na2vs0mg"},{"bike_id":"e82b1c76-d6c2-48da-81ba-cb06634ebed6","system_id":"levelo_inurba_marseille","lat":43.29098,"lon":5.38119,"is_reserved":false,"is_disabled":false,"rental_uris":{"android":"levelo://app?vid=e82b1c76-d6c2-48da-81ba-cb06634ebed6","ios":"levelo://app?vid=e82b1c76-d6c2-48da-81ba-cb06634ebed6"},"vehicle_type_id":"4","last_reported":1761145836,"current_range_meters":20800,"station_id":"ce4bh512rcd13ifvqe2g","pricing_plan_id":"cebpf4jnsgd1na2vs0mg"},{"bike_id":"39d26e99-c11b-4ba8-95b5-2fa691e7edd7","system_id":"levelo_inurba_marseille","lat":43.30807,"lon":5.381372,"is_reserved":false,"is_disabled":false,"rental_uris":{"android":"levelo://app?vid=39d26e99-c11b-4ba8-95b5-2fa691e7edd7","ios":"levelo://app?vid=39d26e99-c11b-4ba8-95b5-2fa691e7edd7"},"vehicle_type_id":"4","last_reported":1761145836,"current_range_meters":20800,"station_id":"ce4bgt12rcd13ifvqce0","pricing_plan_id":"cebpf4jnsgd1na2vs0mg"},{"bike_id":"26339118-4556-4d41-b6a6-12685a214717","system_id":"levelo_inurba_marseille","lat":43.28416,"lon":5.34993,"is_reserved":false,"is_disabled":false,"rental_uris":{"android":"levelo://app?vid=26339118-4556-4d41-b6a6-12685a214717","ios":"levelo://app?vid=26339118-4556-4d41-b6a6-12685a214717"},"vehicle_type_id":"4","last_reported":1761145836,"current_range_meters":20800,"station_id":"ce4bhbh2rcd13ifvqepg","pricing_plan_id":"cebpf4jnsgd1na2vs0mg"},{"bike_id":"7bb5002f-926c-40d1-ba3d-6740d50df1f5","system_id":"levelo_inurba_marseille","lat":43.29566,"lon":5.39979,"is_reserved":false,"is_disabled":false,"rental_uris":{"android":"levelo://app?vid=7bb5002f-926c-40d1-ba3d-6740d50df1f5","ios":"levelo://app?vid=7bb5002f-926c-40d1-ba3d-6740d50df1f5"},"vehicle_type_id":"4","last_reported":1761145836,"current_range_meters":20800,"station_id":"ce4bh312rcd13ifvqdj0","pricing_plan_id":"cebpf4jnsgd1na2vs0mg"},{"bike_id":"ea418a9e-00a4-4180-856c-feac78f9a5ff","system_id":"levelo_inurba_marseille","lat":43.29535,"lon":5.42287,"is_reserved":false,"is_disabled":false,"rental_uris":{"android":"levelo://app?vid=ea418a9e-00a4-4180-856c-feac78f9a5ff","ios":"levelo://app?vid=ea418a9e-00a4-4180-856c-feac78f9a5ff"},"vehicle_type_id":"4","last_reported":1761145836,"current_range_meters":20800,"station_id":"ce4bhph2rcd13ifvqhdg","pricing_plan_id":"cebpf4jnsgd1na2vs0mg"},{"bike_id":"bc5270d3-d28a-4a8c-82f0-1f1b8b07ccf0","system_id":"levelo_inurba_marseille","lat":43.30294,"lon":5.36892,"is_reserved":false,"is_disabled":false,"rental_uris":{"android":"levelo://app?vid=bc5270d3-d28a-4a8c-82f0-1f1b8b07ccf0","ios":"levelo://app?vid=bc5270d3-d28a-4a8c-82f0-1f1b8b07ccf0"},"vehicle_type_id":"4","last_reported":1761145836,"current_range_meters":21600,"station_id":"ce4bgqh2rcd13ifvqc5g","pricing_plan_id":"cebpf4jnsgd1na2vs0mg"},{"bike_id":"dc2e247f-f475-4a09-a265-2f3afc8dc92d","system_id":"levelo_inurba_marseille","lat":43.282623,"lon":5.350693,"is_reserved":false,"is_disabled":false,"rental_uris":{"android":"levelo://app?vid=dc2e247f-f475-4a09-a265-2f3afc8dc92d","ios":"levelo://app?vid=dc2e247f-f475-4a09-a265-2f3afc8dc92d"},"vehicle_type_id":"4","last_reported":1761145836,"current_range_meters":21600,"station_id":"ce4bhbp2rcd13ifvqerg","pricing_plan_id":"cebpf4jnsgd1na2vs0mg"},{"bike_id":"9a1972b5-72a6-4763-9884-2f966099622e","system_id":"levelo_inurba_marseille","lat":43.30013,"lon":5.37673,"is_reserved":false,"is_disabled":false,"rental_uris":{"android":"levelo://app?vid=9a1972b5-72a6-4763-9884-2f966099622e","ios":"levelo://app?vid=9a1972b5-72a6-4763-9884-2f966099622e"},"vehicle_type_id":"4","last_reported":1761145836,"current_range_meters":21600,"station_id":"","pricing_plan_id":"cebpf4jnsgd1na2vs0mg"},{"bike_id":"75eebb0f-2447-4bf8-b846-45b5b359059b","system_id":"levelo_inurba_marseille","lat":43.33762,"lon":5.37487,"is_reserved":false,"is_disabled":false,"rental_uris":{"android":"levelo://app?vid=75eebb0f-2447-4bf8-b846-45b5b359059b","ios":"levelo://app?vid=75eebb0f-2447-4bf8-b846-45b5b359059b"},"vehicle_type_id":"4","last_reported":1761145836,"current_range_meters":21600,"station_id":"","pricing_plan_id":"cebpf4jnsgd1na2vs0mg"},{"bike_id":"00a7bc8a-8777-449d-b886-2e56c70c8da6","system_id":"levelo_inurba_marseille","lat":43.29712,"lon":5.3769,"is_reserved":false,"is_disabled":false,"rental_uris":{"android":"levelo://app?vid=00a7bc8a-8777-449d-b886-2e56c70c8da6","ios":"levelo://app?vid=00a7bc8a-8777-449d-b886-2e56c70c8da6"},"vehicle_type_id":"4","last_reported":1761145836,"current_range_meters":22000,"station_id":"ce4bgkh2rcd13ifvqbl0","pricing_plan_id":"cebpf4jnsgd1na2vs0mg"},{"bike_id":"578cdef4-4b67-4ba4-bd60-6f6657106414","system_id":"levelo_inurba_marseille","lat":43.28404,"lon":5.37513,"is_reserved":false,"is_disabled":false,"rental_uris":{"android":"levelo://app?vid=578cdef4-4b67-4ba4-bd60-6f6657106414","ios":"levelo://app?vid=578cdef4-4b67-4ba4-bd60-6f6657106414"},"vehicle_type_id":"4","last_reported":1761145836,"current_range_meters":22000,"station_id":"ce4bh412rcd13ifvqds0","pricing_plan_id":"cebpf4jnsgd1na2vs0mg"},{"bike_id":"165d7af7-5377-4f27-bb2a-0c76015f69b9","system_id":"levelo_inurba_marseille","lat":43.304067,"lon":5.387956,"is_reserved":false,"is_disabled":false,"rental_uris":{"android":"levelo://app?vid=165d7af7-5377-4f27-bb2a-0c76015f69b9","ios":"levelo://app?vid=165d7af7-5377-4f27-bb2a-0c76015f69b9"},"vehicle_type_id":"4","last_reported":1761145836,"current_range_meters":22000,"station_id":"ce4bgk12rcd13ifvqbi0","pricing_plan_id":"cebpf4jnsgd1na2vs0mg"},{"bike_id":"25510b45-08cd-431b-9096-a61c2284a027","system_id":"levelo_inurba_marseille","lat":43.31706,"lon":5.38182,"is_reserved":false,"is_disabled":false,"rental_uris":{"android":"levelo://app?vid=25510b45-08cd-431b-9096-a61c2284a027","ios":"levelo://app?vid=25510b45-08cd-431b-9096-a61c2284a027"},"vehicle_type_id":"4","last_reported":1761145836,"current_range_meters":22000,"station_id":"","pricing_plan_id":"cebpf4jnsgd1na2vs0mg"},{"bike_id":"078081c6-88c0-4f2d-a619-261bfa8b66b2","system_id":"levelo_inurba_marseille","lat":43.29819,"lon":5.4389,"is_reserved":false,"is_disabled":false,"rental_uris":{"android":"levelo://app?vid=078081c6-88c0-4f2d-a619-261bfa8b66b2","ios":"levelo://app?vid=078081c6-88c0-4f2d-a619-261bfa8b66b2"},"vehicle_type_id":"4","last_reported":1761145836,"current_range_meters":22000,"station_id":"","pricing_plan_id":"cebpf4jnsgd1na2vs0mg"},{"bike_id":"0dfaf4e0-059f-4a09-a13e-1f50cded1467","system_id":"levelo_inurba_marseille","lat":43.29281,"lon":5.4012,"is_reserved":false,"is_disabled":false,"rental_uris":{"android":"levelo://app?vid=0dfaf4e0-059f-4a09-a13e-1f50cded1467","ios":"levelo://app?vid=0dfaf4e0-059f-4a09-a13e-1f50cded1467"},"vehicle_type_id":"4","last_reported":1761145836,"current_range_meters":22000,"station_id":"ce4bh312rcd13ifvqdk0","pricing_plan_id":"cebpf4jnsgd1na2vs0mg"},{"bike_id":"027b5216-0be3-4305-9f75-81fde0a8497b","system_id":"levelo_inurba_marseille","lat":43.28475,"lon":5.3588,"is_reserved":false,"is_disabled":false,"rental_uris":{"android":"levelo://app?vid=027b5216-0be3-4305-9f75-81fde0a8497b","ios":"levelo://app?vid=027b5216-0be3-4305-9f75-81fde0a8497b"},"vehicle_type_id":"4","last_reported":1761145836,"current_range_meters":22000,"station_id":"ce4bhah2rcd13ifvqei0","pricing_plan_id":"cebpf4jnsgd1na2vs0mg"},{"bike_id":"008e2922-217e-4279-a6ad-efa51e14bb13","system_id":"levelo_inurba_marseille","lat":43.29267,"lon":5.38441,"is_reserved":false,"is_disabled":false,"rental_uris":{"android":"levelo://app?vid=008e2922-217e-4279-a6ad-efa51e14bb13","ios":"levelo://app?vid=008e2922-217e-4279-a6ad-efa51e14bb13"},"vehicle_type_id":"4","last_reported":1761145836,"current_range_meters":22000,"station_id":"ce4bh692rcd13ifvqea0","pricing_plan_id":"cebpf4jnsgd1na2vs0mg"},{"bike_id":"d9ecb998-ceaa-4a39-8aba-9f0e44069447","system_id":"levelo_inurba_marseille","lat":43.32147,"lon":5.38731,"is_reserved":false,"is_disabled":false,"rental_uris":{"android":"levelo://app?vid=d9ecb998-ceaa-4a39-8aba-9f0e44069447","ios":"levelo://app?vid=d9ecb998-ceaa-4a39-8aba-9f0e44069447"},"vehicle_type_id":"4","last_reported":1761145836,"current_range_meters":22000,"station_id":"","pricing_plan_id":"cebpf4jnsgd1na2vs0mg"},{"bike_id":"d7f501b0-c3b9-40be-9341-b91d1dfe75b2","system_id":"levelo_inurba_marseille","lat":43.28411,"lon":5.34992,"is_reserved":false,"is_disabled":false,"rental_uris":{"android":"levelo://app?vid=d7f501b0-c3b9-40be-9341-b91d1dfe75b2","ios":"levelo://app?vid=d7f501b0-c3b9-40be-9341-b91d1dfe75b2"},"vehicle_type_id":"4","last_reported":1761145836,"current_range_meters":22400,"station_id":"ce4bhbh2rcd13ifvqepg","pricing_plan_id":"cebpf4jnsgd1na2vs0mg"},{"bike_id":"e46fad4b-1f59-4ded-ac7e-3b679458b6f2","system_id":"levelo_inurba_marseille","lat":43.26936,"lon":5.40265,"is_reserved":false,"is_disabled":false,"rental_uris":{"android":"levelo://app?vid=e46fad4b-1f59-4ded-ac7e-3b679458b6f2","ios":"levelo://app?vid=e46fad4b-1f59-4ded-ac7e-3b679458b6f2"},"vehicle_type_id":"4","last_reported":1761145836,"current_range_meters":22400,"station_id":"cjm6bp8fraef2m0cb0m0","pricing_plan_id":"cebpf4jnsgd1na2vs0mg"},{"bike_id":"6552118e-9997-496d-8ae3-3aae82824535","system_id":"levelo_inurba_marseille","lat":43.32246,"lon":5.38357,"is_reserved":false,"is_disabled":false,"rental_uris":{"android":"levelo://app?vid=6552118e-9997-496d-8ae3-3aae82824535","ios":"levelo://app?vid=6552118e-9997-496d-8ae3-3aae82824535"},"vehicle_type_id":"4","last_reported":1761145836,"current_range_meters":22400,"station_id":"","pricing_plan_id":"cebpf4jnsgd1na2vs0mg"},{"bike_id":"f8c755d7-1bb8-4fcd-bb3f-74aeb49951cc","system_id":"levelo_inurba_marseille","lat":43.31373,"lon":5.37909,"is_reserved":false,"is_disabled":false,"rental_uris":{"android":"levelo://app?vid=f8c755d7-1bb8-4fcd-bb3f-74aeb49951cc","ios":"levelo://app?vid=f8c755d7-1bb8-4fcd-bb3f-74aeb49951cc"},"vehicle_type_id":"4","last_reported":1761145836,"current_range_meters":22400,"station_id":"","pricing_plan_id":"cebpf4jnsgd1na2vs0mg"},{"bike_id":"7a803bde-0043-45d9-a55a-518e9a8b7bae","system_id":"levelo_inurba_marseille","lat":43.29563,"lon":5.37527,"is_reserved":false,"is_disabled":false,"rental_uris":{"android":"levelo://app?vid=7a803bde-0043-45d9-a55a-518e9a8b7bae","ios":"levelo://app?vid=7a803bde-0043-45d9-a55a-518e9a8b7bae"},"vehicle_type_id":"4","last_reported":1761145836,"current_range_meters":22400,"station_id":"ce4bgh92rcd13ifvqb50","pricing_plan_id":"cebpf4jnsgd1na2vs0mg"},{"bike_id":"add6b842-e6c0-4b91-aae6-62e95f4b1280","system_id":"levelo_inurba_marseille","lat":43.26023,"lon":5.37549,"is_reserved":false,"is_disabled":false,"rental_uris":{"android":"levelo://app?vid=add6b842-e6c0-4b91-aae6-62e95f4b1280","ios":"levelo://app?vid=add6b842-e6c0-4b91-aae6-62e95f4b1280"},"vehicle_type_id":"4","last_reported":1761145836,"current_range_meters":22400,"station_id":"ce4bhgh2rcd13ifvqfa0","pricing_plan_id":"cebpf4jnsgd1na2vs0mg"},{"bike_id":"535fac65-1c41-4422-afa5-771b1333ecc4","system_id":"levelo_inurba_marseille","lat":43.30873,"lon":5.37227,"is_reserved":false,"is_disabled":false,"rental_uris":{"android":"levelo://app?vid=535fac65-1c41-4422-afa5-771b1333ecc4","ios":"levelo://app?vid=535fac65-1c41-4422-afa5-771b1333ecc4"},"vehicle_type_id":"4","last_reported":1761145836,"current_range_meters":22400,"station_id":"ce4bguh2rcd13ifvqckg","pricing_plan_id":"cebpf4jnsgd1na2vs0mg"},{"bike_id":"2cd81037-3f76-464f-886c-e8714d61d459","system_id":"levelo_inurba_marseille","lat":43.23179,"lon":5.35561,"is_reserved":false,"is_disabled":false,"rental_uris":{"android":"levelo://app?vid=2cd81037-3f76-464f-886c-e8714d61d459","ios":"levelo://app?vid=2cd81037-3f76-464f-886c-e8714d61d459"},"vehicle_type_id":"4","last_reported":1761145836,"current_range_meters":22400,"station_id":"ce4bhu92rcd13ifvqi70","pricing_plan_id":"cebpf4jnsgd1na2vs0mg"},{"bike_id":"9d078a5c-ad56-4dfe-8c7e-9876e275883e","system_id":"levelo_inurba_marseille","lat":43.3014,"lon":5.3807,"is_reserved":false,"is_disabled":false,"rental_uris":{"android":"levelo://app?vid=9d078a5c-ad56-4dfe-8c7e-9876e275883e","ios":"levelo://app?vid=9d078a5c-ad56-4dfe-8c7e-9876e275883e"},"vehicle_type_id":"4","last_reported":1761145836,"current_range_meters":22400,"station_id":"ce4bgjp2rcd13ifvqbh0","pricing_plan_id":"cebpf4jnsgd1na2vs0mg"},{"bike_id":"bf9e38a4-a96c-4874-86a6-d1bf727ba911","system_id":"levelo_inurba_marseille","lat":43.28781,"lon":5.38855,"is_reserved":false,"is_disabled":false,"rental_uris":{"android":"levelo://app?vid=bf9e38a4-a96c-4874-86a6-d1bf727ba911","ios":"levelo://app?vid=bf9e38a4-a96c-4874-86a6-d1bf727ba911"},"vehicle_type_id":"4","last_reported":1761145836,"current_range_meters":22800,"station_id":"","pricing_plan_id":"cebpf4jnsgd1na2vs0mg"},{"bike_id":"1e3b62dd-d48c-4d98-90d7-c705b6375513","system_id":"levelo_inurba_marseille","lat":43.30145,"lon":5.38846,"is_reserved":false,"is_disabled":false,"rental_uris":{"android":"levelo://app?vid=1e3b62dd-d48c-4d98-90d7-c705b6375513","ios":"levelo://app?vid=1e3b62dd-d48c-4d98-90d7-c705b6375513"},"vehicle_type_id":"4","last_reported":1761145836,"current_range_meters":22800,"station_id":"","pricing_plan_id":"cebpf4jnsgd1na2vs0mg"},{"bike_id":"3e4783b6-28d8-4737-a4ef-6a1b0da02476","system_id":"levelo_inurba_marseille","lat":43.29447,"lon":5.40721,"is_reserved":false,"is_disabled":false,"rental_uris":{"android":"levelo://app?vid=3e4783b6-28d8-4737-a4ef-6a1b0da02476","ios":"levelo://app?vid=3e4783b6-28d8-4737-a4ef-6a1b0da02476"},"vehicle_type_id":"4","last_reported":1761145836,"current_range_meters":22800,"station_id":"","pricing_plan_id":"cebpf4jnsgd1na2vs0mg"},{"bike_id":"fad20ab4-7d11-40ac-97f0-d9bfd23e0d18","system_id":"levelo_inurba_marseille","lat":43.29709,"lon":5.37697,"is_reserved":false,"is_disabled":false,"rental_uris":{"android":"levelo://app?vid=fad20ab4-7d11-40ac-97f0-d9bfd23e0d18","ios":"levelo://app?vid=fad20ab4-7d11-40ac-97f0-d9bfd23e0d18"},"vehicle_type_id":"4","last_reported":1761145836,"current_range_meters":22800,"station_id":"ce4bgkh2rcd13ifvqbl0","pricing_plan_id":"cebpf4jnsgd1na2vs0mg"},