{"last_updated":1704830867,"ttl":30,"version":"2.2","data":{"bikes":[{"bike_id":"ac0ae112-3df7-4770-9dd6-7a276faa0a9b","system_id":"levelo_inurba_marseille","lat":43.312239,"lon":5.368562,"is_reserved":false,"is_disabled":false,"rental_uris":{"android":"levelo://app?vid=ac0ae112-3df7-4770-9dd6-7a276faa0a9b","ios":"levelo://app?vid=ac0ae112-3df7-4770-9dd6-7a276faa0a9b"},"vehicle_type_id":"4","last_reported":1704830867,"current_range_meters":0,"station_id":"ce4bgl92rcd13ifvqbq0","pricing_plan_id":"free"},{"bike_id":"68a45162-e46e-4fca-a4d7-d06991e63e55","system_id":"levelo_inurba_marseille","lat":43.312239,"lon":5.368562,"is_reserved":false,"is_disabled":false,"rental_uris":{"android":"levelo://app?vid=68a45162-e46e-4fca-a4d7-d06991e63e55","ios":"levelo://app?vid=68a45162-e46e-4fca-a4d7-d06991e63e55"},"vehicle_type_id":"4","last_reported":1704830867,"current_range_meters":17600,"station_id":"ce4bgl92rcd13ifvqbq0","pricing_plan_id":"free"},{"bike_id":"b1d52d70-ffd3-4c1d-b28d-209bab991900","system_id":"levelo_inurba_marseille","lat":43.312239,"lon":5.368562,"is_reserved":false,"is_disabled":false,"rental_uris":{"android":"levelo://app?vid=b1d52d70-ffd3-4c1d-b28d-209bab991900","ios":"levelo://app?vid=b1d52d70-ffd3-4c1d-b28d-209bab991900"},"vehicle_type_id":"4","last_reported":1704830867,"current_range_meters":10000,"station_id":"ce4bgl92rcd13ifvqbq0","pricing_plan_id":"free"},{"bike_id":"e9f66014-5538-44a2-9f44-7b264cca864d","system_id":"levelo_inurba_marseille","lat":43.312239,"lon":5.368562,"is_reserved":false,"is_disabled":false,"rental_uris":{"android":"levelo://app?vid=e9f66014-5538-44a2-9f44-7b264cca864d","ios":"levelo://app?vid=e9f66014-5538-44a2-9f44-7b264cca864d"},"vehicle_type_id":"4","last_reported":1704830867,"current_range_meters":11200,"station_id":"ce4bgl92rcd13ifvqbq0","pricing_plan_id":"free"},{"bike_id":"2b3dd930-4661-4791-b1d5-de5c7fc7fcd3","system_id":"levelo_inurba_marseille","lat":43.312239,"lon":5.368562,"is_reserved":false,"is_disabled":false,"rental_uris":{"android":"levelo://app?vid=2b3dd930-4661-4791-b1d5-de5c7fc7fcd3","ios":"levelo://app?vid=2b3dd930-4661-4791-b1d5-de5c7fc7fcd3"},"vehicle_type_id":"4","last_reported":1704830867,"current_range_meters":23600,"station_id":"ce4bgl92rcd13ifvqbq0","pricing_plan_id":"free"},{"bike_id":"31075a05-114f-46c8-a0a5-3a28b985355d","system_id":"levelo_inurba_marseille","lat":43.309076,"lon":5.368465,"is_reserved":false,"is_disabled":false,"rental_uris":{"android":"levelo://app?vid=31075a05-114f-46c8-a0a5-3a28b985355d","ios":"levelo://app?vid=31075a05-114f-46c8-a0a5-3a28b985355d"},"vehicle_type_id":"4","last_reported":1704830867,"current_range_meters":26400,"station_id":"ce4bgn92rcd13ifvqbvg","pricing_plan_id":"free"},{"bike_id":"a18c9f18-dd23-4fa3-ae4c-750a813ec2dd","system_id":"levelo_inurba_marseille","lat":43.31361,"lon":5.37348,"is_reserved":false,"is_disabled":false,"rental_uris":{"android":"levelo://app?vid=a18c9f18-dd23-4fa3-ae4c-750a813ec2dd","ios":"levelo://app?vid=a18c9f18-dd23-4fa3-ae4c-750a813ec2dd"},"vehicle_type_id":"4","last_reported":1704830867,"current_range_meters":4800,"station_id":"","pricing_plan_id":"free"},{"bike_id":"7b3b699f-3f99-4e35-89af-d56ef1f73cc7","system_id":"levelo_inurba_marseille","lat":43.31531,"lon":5.37284,"is_reserved":false,"is_disabled":false,"rental_uris":{"android":"levelo://app?vid=7b3b699f-3f99-4e35-89af-d56ef1f73cc7","ios":"levelo://app?vid=7b3b699f-3f99-4e35-89af-d56ef1f73cc7"},"vehicle_type_id":"4","last_reported":1704830867,"current_range_meters":20400,"station_id":"","pricing_plan_id":"free"},{"bike_id":"bd180795-4694-46f7-9c96-e5cdbe0d7a05","system_id":"levelo_inurba_marseille","lat":43.314811,"lon":5.373103,"is_reserved":false,"is_disabled":false,"rental_uris":{"android":"levelo://app?vid=bd180795-4694-46f7-9c96-e5cdbe0d7a05","ios":"levelo://app?vid=bd180795-4694-46f7-9c96-e5cdbe0d7a05"},"vehicle_type_id":"4","last_reported":1704830867,"current_range_meters":6800,"station_id":"ce4bgt12rcd13ifvqcd0","pricing_plan_id":"free"},{"bike_id":"dccb29e9-017f-4a8e-a5e4-3466ddfabbe7","system_id":"levelo_inurba_marseille","lat":43.309039,"lon":5.371797,"is_reserved":false,"is_disabled":false,"rental_uris":{"android":"levelo://app?vid=dccb29e9-017f-4a8e-a5e4-3466ddfabbe7","ios":"levelo://app?vid=dccb29e9-017f-4a8e-a5e4-3466ddfabbe7"},"vehicle_type_id":"4","last_reported":1704830867,"current_range_meters":31200,"station_id":"ce4bguh2rcd13ifvqckg","pricing_plan_id":"free"},{"bike_id":"fe45b825-2da4-49c0-863e-8fff3564b2c4","system_id":"levelo_inurba_marseille","lat":43.314811,"lon":5.373104,"is_reserved":false,"is_disabled":false,"rental_uris":{"android":"levelo://app?vid=fe45b825-2da4-49c0-863e-8fff3564b2c4","ios":"levelo://app?vid=fe45b825-2da4-49c0-863e-8fff3564b2c4"},"vehicle_type_id":"4","last_reported":1704830867,"current_range_meters":0,"station_id":"ce4bgt12rcd13ifvqcd0","pricing_plan_id":"free"},{"bike_id":"8acc3b37-c5e6-44fa-acdd-cb9adc25ca15","system_id":"levelo_inurba_marseille","lat":43.309039,"lon":5.371797,"is_reserved":false,"is_disabled":false,"rental_uris":{"android":"levelo://app?vid=8acc3b37-c5e6-44fa-acdd-cb9adc25ca15","ios":"levelo://app?vid=8acc3b37-c5e6-44fa-acdd-cb9adc25ca15"},"vehicle_type_id":"4","last_reported":1704830867,"current_range_meters":25600,"station_id":"ce4bguh2rcd13ifvqckg","pricing_plan_id":"free"},{"bike_id":"c8892881-d86c-4f68-bfeb-1dfd8e0b7d40","system_id":"levelo_inurba_marseille","lat":43.305368,"lon":5.367343,"is_reserved":false,"is_disabled":false,"rental_uris":{"android":"levelo://app?vid=c8892881-d86c-4f68-bfeb-1dfd8e0b7d40","ios":"levelo://app?vid=c8892881-d86c-4f68-bfeb-1dfd8e0b7d40"},"vehicle_type_id":"4","last_reported":1704830867,"current_range_meters":6800,"station_id":"ce4bgrp2rcd13ifvqc9g","pricing_plan_id":"free"},{"bike_id":"9a1521f8-4131-4189-88e8-072398af8b3f","system_id":"levelo_inurba_marseille","lat":43.305989,"lon":5.37225,"is_reserved":false,"is_disabled":false,"rental_uris":{"android":"levelo://app?vid=9a1521f8-4131-4189-88e8-072398af8b3f","ios":"levelo://app?vid=9a1521f8-4131-4189-88e8-072398af8b3f"},"vehicle_type_id":"4","last_reported":1704830867,"current_range_meters":30400,"station_id":"ce4bgqh2rcd13ifvqc4g","pricing_plan_id":"free"},{"bike_id":"e2bde781-33f7-4b7b-881d-f06fda707032","system_id":"levelo_inurba_marseille","lat":43.311131,"lon":5.377651,"is_reserved":false,"is_disabled":false,"rental_uris":{"android":"levelo://app?vid=e2bde781-33f7-4b7b-881d-f06fda707032","ios":"levelo://app?vid=e2bde781-33f7-4b7b-881d-f06fda707032"},"vehicle_type_id":"4","last_reported":1704830867,"current_range_meters":14400,"station_id":"ce4bgt92rcd13ifvqcg0","pricing_plan_id":"free"},{"bike_id":"6c0a4dc3-c03e-4042-8ae0-14bc1d07cd96","system_id":"levelo_inurba_marseille","lat":43.311125,"lon":5.377624,"is_reserved":false,"is_disabled":false,"rental_uris":{"android":"levelo://app?vid=6c0a4dc3-c03e-4042-8ae0-14bc1d07cd96","ios":"levelo://app?vid=6c0a4dc3-c03e-4042-8ae0-14bc1d07cd96"},"vehicle_type_id":"4","last_reported":1704830867,"current_range_meters":22000,"station_id":"ce4bgt92rcd13ifvqcg0","pricing_plan_id":"free"},{"bike_id":"dbfd96a6-4f0c-4c05-b05c-d7a02237e190","system_id":"levelo_inurba_marseille","lat":43.31128,"lon":5.37769,"is_reserved":false,"is_disabled":false,"rental_uris":{"android":"levelo://app?vid=dbfd96a6-4f0c-4c05-b05c-d7a02237e190","ios":"levelo://app?vid=dbfd96a6-4f0c-4c05-b05c-d7a02237e190"},"vehicle_type_id":"4","last_reported":1704830867,"current_range_meters":14400,"station_id":"ce4bgt92rcd13ifvqcg0","pricing_plan_id":"free"},{"bike_id":"7ba47980-a9dc-49c0-82f4-e68c858d8748","system_id":"levelo_inurba_marseille","lat":43.311131,"lon":5.377651,"is_reserved":false,"is_disabled":false,"rental_uris":{"android":"levelo://app?vid=7ba47980-a9dc-49c0-82f4-e68c858d8748","ios":"levelo://app?vid=7ba47980-a9dc-49c0-82f4-e68c858d8748"},"vehicle_type_id":"4","last_reported":1704830867,"current_range_meters":13200,"station_id":"ce4bgt92rcd13ifvqcg0","pricing_plan_id":"free"},{"bike_id":"152a3ec6-172f-4877-8906-cf99cb3b8cd4","system_id":"levelo_inurba_marseille","lat":43.311131,"lon":5.377651,"is_reserved":false,"is_disabled":false,"rental_uris":{"android":"levelo://app?vid=152a3ec6-172f-4877-8906-cf99cb3b8cd4","ios":"levelo://app?vid=152a3ec6-172f-4877-8906-cf99cb3b8cd4"},"vehicle_type_id":"4","last_reported":1704830867,"current_range_meters":9200,"station_id":"ce4bgt92rcd13ifvqcg0","pricing_plan_id":"free"},{"bike_id":"d434e21a-9657-4114-9bd3-9d77fe229c1d","system_id":"levelo_inurba_marseille","lat":43.311131,"lon":5.377651,"is_reserved":false,"is_disabled":false,"rental_uris":{"android":"levelo://app?vid=d434e21a-9657-4114-9bd3-9d77fe229c1d","ios":"levelo://app?vid=d434e21a-9657-4114-9bd3-9d77fe229c1d"},"vehicle_type_id":"4","last_reported":1704830867,"current_range_meters":13200,"station_id":"ce4bgt92rcd13ifvqcg0","pricing_plan_id":"free"},{"bike_id":"cc909c15-a40f-4134-9eb6-85515e828de0","system_id":"levelo_inurba_marseille","lat":43.311125,"lon":5.377624,"is_reserved":false,"is_disabled":false,"rental_uris":{"android":"levelo://app?vid=cc909c15-a40f-4134-9eb6-85515e828de0","ios":"levelo://app?vid=cc909c15-a40f-4134-9eb6-85515e828de0"},"vehicle_type_id":"4","last_reported":1704830867,"current_range_meters":17600,"station_id":"ce4bgt92rcd13ifvqcg0","pricing_plan_id":"free"},{"bike_id":"464cf71c-30dd-44a3-b3b2-b6879ae12feb","system_id":"levelo_inurba_marseille","lat":43.307945,"lon":5.376487,"is_reserved":false,"is_disabled":false,"rental_uris":{"android":"levelo://app?vid=464cf71c-30dd-44a3-b3b2-b6879ae12feb","ios":"levelo://app?vid=464cf71c-30dd-44a3-b3b2-b6879ae12feb"},"vehicle_type_id":"4","last_reported":1704830867,"current_range_meters":24000,"station_id":"ce4bgv92rcd13ifvqcq0","pricing_plan_id":"free"},{"bike_id":"68a2e4d5-df94-4531-8df4-dd89633f0d44","system_id":"levelo_inurba_marseille","lat":43.307945,"lon":5.376487,"is_reserved":false,"is_disabled":false,"rental_uris":{"android":"levelo://app?vid=68a2e4d5-df94-4531-8df4-dd89633f0d44","ios":"levelo://app?vid=68a2e4d5-df94-4531-8df4-dd89633f0d44"},"vehicle_type_id":"4","last_reported":1704830867,"current_range_meters":9600,"station_id":"ce4bgv92rcd13ifvqcq0","pricing_plan_id":"free"},{"bike_id":"5bce25fa-3cf5-4fab-8d95-6790cbc8e72f","system_id":"levelo_inurba_marseille","lat":43.311125,"lon":5.377624,"is_reserved":false,"is_disabled":false,"rental_uris":{"android":"levelo://app?vid=5bce25fa-3cf5-4fab-8d95-6790cbc8e72f","ios":"levelo://app?vid=5bce25fa-3cf5-4fab-8d95-6790cbc8e72f"},"vehicle_type_id":"4","last_reported":1704830867,"current_range_meters":16800,"station_id":"ce4bgt92rcd13ifvqcg0","pricing_plan_id":"free"},{"bike_id":"180f7a08-b61d-4a33-96e0-4bf15909e7b5","system_id":"levelo_inurba_marseille","lat":43.301939,"lon":5.366286,"is_reserved":false,"is_disabled":false,"rental_uris":{"android":"levelo://app?vid=180f7a08-b61d-4a33-96e0-4bf15909e7b5","ios":"levelo://app?vid=180f7a08-b61d-4a33-96e0-4bf15909e7b5"},"vehicle_type_id":"4","last_reported":1704830867,"current_range_meters":6800,"station_id":"ce4bgrh2rcd13ifvqc8g","pricing_plan_id":"free"},{"bike_id":"18f41fc9-047b-4751-b04f-46203cdf9655","system_id":"levelo_inurba_marseille","lat":43.301939,"lon":5.366286,"is_reserved":false,"is_disabled":false,"rental_uris":{"android":"levelo://app?vid=18f41fc9-047b-4751-b04f-46203cdf9655","ios":"levelo://app?vid=18f41fc9-047b-4751-b04f-46203cdf9655"},"vehicle_type_id":"4","last_reported":1704830867,"current_range_meters":2800,"station_id":"ce4bgrh2rcd13ifvqc8g","pricing_plan_id":"free"},{"bike_id":"2e788675-6cce-45ac-8ceb-e478be7d128a","system_id":"levelo_inurba_marseille","lat":43.308012,"lon":5.381511,"is_reserved":false,"is_disabled":false,"rental_uris":{"android":"levelo://app?vid=2e788675-6cce-45ac-8ceb-e478be7d128a","ios":"levelo://app?vid=2e788675-6cce-45ac-8ceb-e478be7d128a"},"vehicle_type_id":"4","last_reported":1704830867,"current_range_meters":1200,"station_id":"ce4bgt12rcd13ifvqce0","pricing_plan_id":"free"},{"bike_id":"68f50423-f887-49e8-90b0-eb86589b8ffd","system_id":"levelo_inurba_marseille","lat":43.308012,"lon":5.381511,"is_reserved":false,"is_disabled":false,"rental_uris":{"android":"levelo://app?vid=68f50423-f887-49e8-90b0-eb86589b8ffd","ios":"levelo://app?vid=68f50423-f887-49e8-90b0-eb86589b8ffd"},"vehicle_type_id":"4","last_reported":1704830867,"current_range_meters":8000,"station_id":"ce4bgt12rcd13ifvqce0","pricing_plan_id":"free"},{"bike_id":"b62c84c4-12dd-4d5f-8731-7cf614f02cfd","system_id":"levelo_inurba_marseille","lat":43.304606,"lon":5.379026,"is_reserved":false,"is_disabled":false,"rental_uris":{"android":"levelo://app?vid=b62c84c4-12dd-4d5f-8731-7cf614f02cfd","ios":"levelo://app?vid=b62c84c4-12dd-4d5f-8731-7cf614f02cfd"},"vehicle_type_id":"4","last_reported":1704830867,"current_range_meters":22800,"station_id":"ce4bgup2rcd13ifvqcn0","pricing_plan_id":"free"},{"bike_id":"44f2ed2d-e1a7-46bb-8043-c08ccfca6be7","system_id":"levelo_inurba_marseille","lat":43.3047,"lon":5.37897,"is_reserved":false,"is_disabled":false,"rental_uris":{"android":"levelo://app?vid=44f2ed2d-e1a7-46bb-8043-c08ccfca6be7","ios":"levelo://app?vid=44f2ed2d-e1a7-46bb-8043-c08ccfca6be7"},"vehicle_type_id":"4","last_reported":1704830867,"current_range_meters":27200,"station_id":"ce4bgup2rcd13ifvqcn0","pricing_plan_id":"free"},{"bike_id":"c18bd710-d53d-408e-b066-0a5177bfde88","system_id":"levelo_inurba_marseille","lat":43.304606,"lon":5.379026,"is_reserved":false,"is_disabled":false,"rental_uris":{"android":"levelo://app?vid=c18bd710-d53d-408e-b066-0a5177bfde88","ios":"levelo://app?vid=c18bd710-d53d-408e-b066-0a5177bfde88"},"vehicle_type_id":"4","last_reported":1704830867,"current_range_meters":25600,"station_id":"ce4bgup2rcd13ifvqcn0","pricing_plan_id":"free"},{"bike_id":"050a0d4c-6841-40a6-8459-663ab34bd027","system_id":"levelo_inurba_marseille","lat":43.304606,"lon":5.379026,"is_reserved":false,"is_disabled":false,"rental_uris":{"android":"levelo://app?vid=050a0d4c-6841-40a6-8459-663ab34bd027","ios":"levelo://app?vid=050a0d4c-6841-40a6-8459-663ab34bd027"},"vehicle_type_id":"4","last_reported":1704830867,"current_range_meters":16000,"station_id":"ce4bgup2rcd13ifvqcn0","pricing_plan_id":"free"},{"bike_id":"3ed8c41e-6c54-46dc-b784-cf32a32b06f4","system_id":"levelo_inurba_marseille","lat":43.30466,"lon":5.379,"is_reserved":false,"is_disabled":false,"rental_uris":{"android":"levelo://app?vid=3ed8c41e-6c54-46dc-b784-cf32a32b06f4","ios":"levelo://app?vid=3ed8c41e-6c54-46dc-b784-cf32a32b06f4"},"vehicle_type_id":"4","last_reported":1704830867,"current_range_meters":16800,"station_id":"ce4bgup2rcd13ifvqcn0","pricing_plan_id":"free"},{"bike_id":"f3024a02-cad0-4e53-8fac-c01eac4054bd","system_id":"levelo_inurba_marseille","lat":43.300827,"lon":5.365856,"is_reserved":false,"is_disabled":false,"rental_uris":{"android":"levelo://app?vid=f3024a02-cad0-4e53-8fac-c01eac4054bd","ios":"levelo://app?vid=f3024a02-cad0-4e53-8fac-c01eac4054bd"},"vehicle_type_id":"4","last_reported":1704830867,"current_range_meters":15600,"station_id":"","pricing_plan_id":"free"},{"bike_id":"966b2d41-1764-4aeb-ab96-2e27d6a6aaf7","system_id":"levelo_inurba_marseille","lat":43.30464,"lon":5.37903,"is_reserved":false,"is_disabled":false,"rental_uris":{"android":"levelo://app?vid=966b2d41-1764-4aeb-ab96-2e27d6a6aaf7","ios":"levelo://app?vid=966b2d41-1764-4aeb-ab96-2e27d6a6aaf7"},"vehicle_type_id":"4","last_reported":1704830867,"current_range_meters":0,"station_id":"ce4bgup2rcd13ifvqcn0","pricing_plan_id":"free"},{"bike_id":"592186ea-9749-4077-a128-39abeba103d1","system_id":"levelo_inurba_marseille","lat":43.324769,"lon":5.365574,"is_reserved":false,"is_disabled":false,"rental_uris":{"android":"levelo://app?vid=592186ea-9749-4077-a128-39abeba103d1","ios":"levelo://app?vid=592186ea-9749-4077-a128-39abeba103d1"},"vehicle_type_id":"4","last_reported":1704830867,"current_range_meters":10800,"station_id":"ce4bhs12rcd13ifvqhvg","pricing_plan_id":"free"},{"bike_id":"9a5d20fc-5739-4188-aece-a966211e1333","system_id":"levelo_inurba_marseille","lat":43.324771,"lon":5.36557,"is_reserved":false,"is_disabled":false,"rental_uris":{"android":"levelo://app?vid=9a5d20fc-5739-4188-aece-a966211e1333","ios":"levelo://app?vid=9a5d20fc-5739-4188-aece-a966211e1333"},"vehicle_type_id":"4","last_reported":1704830867,"current_range_meters":4400,"station_id":"ce4bhs12rcd13ifvqhvg","pricing_plan_id":"free"},{"bike_id":"2aa100e7-2671-4c1b-a1f0-ab7832afcbad","system_id":"levelo_inurba_marseille","lat":43.324771,"lon":5.36557,"is_reserved":false,"is_disabled":false,"rental_uris":{"android":"levelo://app?vid=2aa100e7-2671-4c1b-a1f0-ab7832afcbad","ios":"levelo://app?vid=2aa100e7-2671-4c1b-a1f0-ab7832afcbad"},"vehicle_type_id":"4","last_reported":1704830867,"current_range_meters":15600,"station_id":"ce4bhs12rcd13ifvqhvg","pricing_plan_id":"free"},{"bike_id":"ff7d6d39-92d2-4309-910f-696520f9158d","system_id":"levelo_inurba_marseille","lat":43.324771,"lon":5.36557,"is_reserved":false,"is_disabled":false,"rental_uris":{"android":"levelo://app?vid=ff7d6d39-92d2-4309-910f-696520f9158d","ios":"levelo://app?vid=ff7d6d39-92d2-4309-910f-696520f9158d"},"vehicle_type_id":"4","last_reported":1704830867,"current_range_meters":15600,"station_id":"ce4bhs12rcd13ifvqhvg","pricing_plan_id":"free"},{"bike_id":"52f54fe1-209b-48d5-a9e5-77969beb0120","system_id":"levelo_inurba_marseille","lat":43.324771,"lon":5.36557,"is_reserved":false,"is_disabled":false,"rental_uris":{"android":"levelo://app?vid=52f54fe1-209b-48d5-a9e5-77969beb0120","ios":"levelo://app?vid=52f54fe1-209b-48d5-a9e5-77969beb0120"},"vehicle_type_id":"4","last_reported":1704830867,"current_range_meters":25600,"station_id":"ce4bhs12rcd13ifvqhvg","pricing_plan_id":"free"},{"bike_id":"ee926864-2611-4e6a-bfd8-5fc91eba9acd","system_id":"levelo_inurba_marseille","lat":43.324771,"lon":5.36557,"is_reserved":false,"is_disabled":false,"rental_uris":{"android":"levelo://app?vid=ee926864-2611-4e6a-bfd8-5fc91eba9acd","ios":"levelo://app?vid=ee926864-2611-4e6a-bfd8-5fc91eba9acd"},"vehicle_type_id":"4","last_reported":1704830867,"current_range_meters":21200,"station_id":"ce4bhs12rcd13ifvqhvg","pricing_plan_id":"free"},{"bike_id":"bb02e8fc-1b1a-442d-be08-908b3392a957","system_id":"levelo_inurba_marseille","lat":43.324771,"lon":5.36557,"is_reserved":false,"is_disabled":false,"rental_uris":{"android":"levelo://app?vid=bb02e8fc-1b1a-442d-be08-908b3392a957","ios":"levelo://app?vid=bb02e8fc-1b1a-442d-be08-908b3392a957"},"vehicle_type_id":"4","last_reported":1704830867,"current_range_meters":15600,"station_id":"ce4bhs12rcd13ifvqhvg","pricing_plan_id":"free"},{"bike_id":"f83cc974-146d-4216-8e0a-fc1f44d54a58","system_id":"levelo_inurba_marseille","lat":43.30159,"lon":5.37406,"is_reserved":false,"is_disabled":false,"rental_uris":{"android":"levelo://app?vid=f83cc974-146d-4216-8e0a-fc1f44d54a58","ios":"levelo://app?vid=f83cc974-146d-4216-8e0a-fc1f44d54a58"},"vehicle_type_id":"4","last_reported":1704830867,"current_range_meters":27600,"station_id":"ce4bgs92rcd13ifvqcc0","pricing_plan_id":"free"},{"bike_id":"8973788a-4403-43ef-a697-0a12d5dc7061","system_id":"levelo_inurba_marseille","lat":43.30143,"lon":5.37413,"is_reserved":false,"is_disabled":false,"rental_uris":{"android":"levelo://app?vid=8973788a-4403-43ef-a697-0a12d5dc7061","ios":"levelo://app?vid=8973788a-4403-43ef-a697-0a12d5dc7061"},"vehicle_type_id":"4","last_reported":1704830867,"current_range_meters":29200,"station_id":"ce4bgs92rcd13ifvqcc0","pricing_plan_id":"free"},{"bike_id":"ebe520f5-39e9-442e-9ec1-ff6266ced4f1","system_id":"levelo_inurba_marseille","lat":43.301465,"lon":5.374256,"is_reserved":false,"is_disabled":false,"rental_uris":{"android":"levelo://app?vid=ebe520f5-39e9-442e-9ec1-ff6266ced4f1","ios":"levelo://app?vid=ebe520f5-39e9-442e-9ec1-ff6266ced4f1"},"vehicle_type_id":"4","last_reported":1704830867,"current_range_meters":16800,"station_id":"","pricing_plan_id":"free"},{"bike_id":"6088c916-f4e5-4543-91f4-522af5528794","system_id":"levelo_inurba_marseille","lat":43.319935,"lon":5.381699,"is_reserved":false,"is_disabled":false,"rental_uris":{"android":"levelo://app?vid=6088c916-f4e5-4543-91f4-522af5528794","ios":"levelo://app?vid=6088c916-f4e5-4543-91f4-522af5528794"},"vehicle_type_id":"4","last_reported":1704830867,"current_range_meters":26000,"station_id":"ce4bhr12rcd13ifvqhpg","pricing_plan_id":"free"},{"bike_id":"fcce2545-172d-4acd-9096-6574ff290ed0","system_id":"levelo_inurba_marseille","lat":43.319935,"lon":5.381699,"is_reserved":false,"is_disabled":false,"rental_uris":{"android":"levelo://app?vid=fcce2545-172d-4acd-9096-6574ff290ed0","ios":"levelo://app?vid=fcce2545-172d-4acd-9096-6574ff290ed0"},"vehicle_type_id":"4","last_reported":1704830867,"current_range_meters":22800,"station_id":"ce4bhr12rcd13ifvqhpg","pricing_plan_id":"free"},{"bike_id":"bd90d70e-761b-4e9d-afb4-8cc89c14186c","system_id":"levelo_inurba_marseille","lat":43.319935,"lon":5.381699,"is_reserved":false,"is_disabled":false,"rental_uris":{"android":"levelo://app?vid=bd90d70e-761b-4e9d-afb4-8cc89c14186c","ios":"levelo://app?vid=bd90d70e-761b-4e9d-afb4-8cc89c14186c"},"vehicle_type_id":"4","last_reported":1704830867,"current_range_meters":5200,"station_id":"ce4bhr12rcd13ifvqhpg","pricing_plan_id":"free"},{"bike_id":"90c7e69f-3898-41b0-addb-5f44a927f3d7","system_id":"levelo_inurba_marseille","lat":43.319935,"lon":5.381699,"is_reserved":false,"is_disabled":false,"rental_uris":{"android":"levelo://app?vid=90c7e69f-3898-41b0-addb-5f44a927f3d7","ios":"levelo://app?vid=90c7e69f-3898-41b0-addb-5f44a927f3d7"},"vehicle_type_id":"4","last_reported":1704830867,"current_range_meters":29600,"station_id":"ce4bhr12rcd13ifvqhpg","pricing_plan_id":"free"},{"bike_id":"bb84e355-ce96-42e8-b907-0c1ff0fb175b","system_id":"levelo_inurba_marseille","lat":43.313571,"lon":5.384829,"is_reserved":false,"is_disabled":false,"rental_uris":{"android":"levelo://app?vid=bb84e355-ce96-42e8-b907-0c1ff0fb175b","ios":"levelo://app?vid=bb84e355-ce96-42e8-b907-0c1ff0fb175b"},"vehicle_type_id":"4","last_reported":1704830867,"current_range_meters":16400,"station_id":"ce4bgt92rcd13ifvqcf0","pricing_plan_id":"free"},{"bike_id":"20866da6-e75e-464f-ba21-a1b58855cef8","system_id":"levelo_inurba_marseille","lat":43.313571,"lon":5.384829,"is_reserved":false,"is_disabled":false,"rental_uris":{"android":"levelo://app?vid=20866da6-e75e-464f-ba21-a1b58855cef8","ios":"levelo://app?vid=20866da6-e75e-464f-ba21-a1b58855cef8"},"vehicle_type_id":"4","last_reported":1704830867,"current_range_meters":12000,"station_id":"ce4bgt92rcd13ifvqcf0","pricing_plan_id":"free"},{"bike_id":"55f6a7c8-173a-4548-a857-35e75d3d93c3","system_id":"levelo_inurba_marseille","lat":43.313571,"lon":5.384829,"is_reserved":false,"is_disabled":false,"rental_uris":{"android":"levelo://app?vid=55f6a7c8-173a-4548-a857-35e75d3d93c3","ios":"levelo://app?vid=55f6a7c8-173a-4548-a857-35e75d3d93c3"},"vehicle_type_id":"4","last_reported":1704830867,"current_range_meters":25600,"station_id":"ce4bgt92rcd13ifvqcf0","pricing_plan_id":"free"},{"bike_id":"d9350f27-4d33-4cc1-b416-6cff7436aa03","system_id":"levelo_inurba_marseille","lat":43.313571,"lon":5.384829,"is_reserved":false,"is_disabled":false,"rental_uris":{"android":"levelo://app?vid=d9350f27-4d33-4cc1-b416-6cff7436aa03","ios":"levelo://app?vid=d9350f27-4d33-4cc1-b416-6cff7436aa03"},"vehicle_type_id":"4","last_reported":1704830867,"current_range_meters":26400,"station_id":"ce4bgt92rcd13ifvqcf0","pricing_plan_id":"free"},{"bike_id":"12daec6c-ab82-48ef-af9f-c36dc825b97a","system_id":"levelo_inurba_marseille","lat":43.313571,"lon":5.384829,"is_reserved":false,"is_disabled":false,"rental_uris":{"android":"levelo://app?vid=12daec6c-ab82-48ef-af9f-c36dc825b97a","ios":"levelo://app?vid=12daec6c-ab82-48ef-af9f-c36dc825b97a"},"vehicle_type_id":"4","last_reported":1704830867,"current_range_meters":25600,"station_id":"ce4bgt92rcd13ifvqcf0","pricing_plan_id":"free"},{"bike_id":"60c14532-9245-4221-9dc1-7870ecd5e7ac","system_id":"levelo_inurba_marseille","lat":43.313571,"lon":5.384829,"is_reserved":false,"is_disabled":false,"rental_uris":{"android":"levelo://app?vid=60c14532-9245-4221-9dc1-7870ecd5e7ac","ios":"levelo://app?vid=60c14532-9245-4221-9dc1-7870ecd5e7ac"},"vehicle_type_id":"4","last_reported":1704830867,"current_range_meters":21600,"station_id":"ce4bgt92rcd13ifvqcf0","pricing_plan_id":"free"},{"bike_id":"101e8ec4-e6d2-4c94-bd4b-ea144e307b0b","system_id":"levelo_inurba_marseille","lat":43.299222,"lon":5.365554,"is_reserved":false,"is_disabled":false,"rental_uris":{"android":"levelo://app?vid=101e8ec4-e6d2-4c94-bd4b-ea144e307b0b","ios":"levelo://app?vid=101e8ec4-e6d2-4c94-bd4b-ea144e307b0b"},"vehicle_type_id":"4","last_reported":1704830867,"current_range_meters":0,"station_id":"ce4bgm92rcd13ifvqbr0","pricing_plan_id":"free"},{"bike_id":"deb5bd06-d719-4950-8257-43b41818bfe8","system_id":"levelo_inurba_marseille","lat":43.299724,"lon":5.371829,"is_reserved":false,"is_disabled":false,"rental_uris":{"android":"levelo://app?vid=deb5bd06-d719-4950-8257-43b41818bfe8","ios":"levelo://app?vid=deb5bd06-d719-4950-8257-43b41818bfe8"},"vehicle_type_id":"4","last_reported":1704830867,"current_range_meters":2000,"station_id":"ce4bgr92rcd13ifvqc7g","pricing_plan_id":"free"},{"bike_id":"5e3ae350-92fc-4f1a-91e5-fca6c6157e9c","system_id":"levelo_inurba_marseille","lat":43.314305,"lon":5.385497,"is_reserved":false,"is_disabled":false,"rental_uris":{"android":"levelo://app?vid=5e3ae350-92fc-4f1a-91e5-fca6c6157e9c","ios":"levelo://app?vid=5e3ae350-92fc-4f1a-91e5-fca6c6157e9c"},"vehicle_type_id":"4","last_reported":1704830867,"current_range_meters":11200,"station_id":"","pricing_plan_id":"free"},{"bike_id":"b22604ec-0c4b-41b4-a20e-38add68f7682","system_id":"levelo_inurba_marseille","lat":43.325403,"lon":5.374837,"is_reserved":false,"is_disabled":false,"rental_uris":{"android":"levelo://app?vid=b22604ec-0c4b-41b4-a20e-38add68f7682","ios":"levelo://app?vid=b22604ec-0c4b-41b4-a20e-38add68f7682"},"vehicle_type_id":"4","last_reported":1704830867,"current_range_meters":400,"station_id":"","pricing_plan_id":"free"},{"bike_id":"e3eafc4f-329b-4e2c-9993-b4db35dc9db5","system_id":"levelo_inurba_marseille","lat":43.325666,"lon":5.374554,"is_reserved":false,"is_disabled":false,"rental_uris":{"android":"levelo://app?vid=e3eafc4f-329b-4e2c-9993-b4db35dc9db5","ios":"levelo://app?vid=e3eafc4f-329b-4e2c-9993-b4db35dc9db5"},"vehicle_type_id":"4","last_reported":1704830867,"current_range_meters":18400,"station_id":"","pricing_plan_id":"free"},{"bike_id":"c8fadccd-efc2-4541-bcb6-f3e77f60300b","system_id":"levelo_inurba_marseille","lat":43.305364,"lon":5.384119,"is_reserved":false,"is_disabled":false,"rental_uris":{"android":"levelo://app?vid=c8fadccd-efc2-4541-bcb6-f3e77f60300b","ios":"levelo://app?vid=c8fadccd-efc2-4541-bcb6-f3e77f60300b"},"vehicle_type_id":"4","last_reported":1704830867,"current_range_meters":7200,"station_id":"ce4bgg92rcd13ifvqb30","pricing_plan_id":"free"},{"bike_id":"f5fb5d6d-a6dd-45fd-ae5c-99cbb4369573","system_id":"levelo_inurba_marseille","lat":43.299243,"lon":5.37481,"is_reserved":false,"is_disabled":false,"rental_uris":{"android":"levelo://app?vid=f5fb5d6d-a6dd-45fd-ae5c-99cbb4369573","ios":"levelo://app?vid=f5fb5d6d-a6dd-45fd-ae5c-99cbb4369573"},"vehicle_type_id":"4","last_reported":1704830867,"current_range_meters":27200,"station_id":"ce4bgjh2rcd13ifvqbg0","pricing_plan_id":"free"},{"bike_id":"4970d51d-81f8-46ca-9b61-d3cb9b18d51a","system_id":"levelo_inurba_marseille","lat":43.311722,"lon":5.387247,"is_reserved":false,"is_disabled":false,"rental_uris":{"android":"levelo://app?vid=4970d51d-81f8-46ca-9b61-d3cb9b18d51a","ios":"levelo://app?vid=4970d51d-81f8-46ca-9b61-d3cb9b18d51a"},"vehicle_type_id":"4","last_reported":1704830867,"current_range_meters":22400,"station_id":"ce4bgv12rcd13ifvqcp0","pricing_plan_id":"free"},{"bike_id":"77932a8b-3738-487e-9eb4-ab36eb4cf9d8","system_id":"levelo_inurba_marseille","lat":43.311722,"lon":5.387247,"is_reserved":false,"is_disabled":false,"rental_uris":{"android":"levelo://app?vid=77932a8b-3738-487e-9eb4-ab36eb4cf9d8","ios":"levelo://app?vid=77932a8b-3738-487e-9eb4-ab36eb4cf9d8"},"vehicle_type_id":"4","last_reported":1704830867,"current_range_meters":19200,"station_id":"ce4bgv12rcd13ifvqcp0","pricing_plan_id":"free"},{"bike_id":"e7af5a54-0783-46c4-bf93-cea3bf739c4f","system_id":"levelo_inurba_marseille","lat":43.299243,"lon":5.37481,"is_reserved":false,"is_disabled":false,"rental_uris":{"android":"levelo://app?vid=e7af5a54-0783-46c4-bf93-cea3bf739c4f","ios":"levelo://app?vid=e7af5a54-0783-46c4-bf93-cea3bf739c4f"},"vehicle_type_id":"4","last_reported":1704830867,"current_range_meters":31200,"station_id":"ce4bgjh2rcd13ifvqbg0","pricing_plan_id":"free"},{"bike_id":"e1d45971-d7e0-4000-94a4-ff4be29d46f5","system_id":"levelo_inurba_marseille","lat":43.311722,"lon":5.387247,"is_reserved":false,"is_disabled":false,"rental_uris":{"android":"levelo://app?vid=e1d45971-d7e0-4000-94a4-ff4be29d46f5","ios":"levelo://app?vid=e1d45971-d7e0-4000-94a4-ff4be29d46f5"},"vehicle_type_id":"4","last_reported":1704830867,"current_range_meters":15600,"station_id":"ce4bgv12rcd13ifvqcp0","pricing_plan_id":"free"},{"bike_id":"edb9ae2d-6754-4db6-98d7-7e5ce4840454","system_id":"levelo_inurba_marseille","lat":43.311722,"lon":5.387247,"is_reserved":false,"is_disabled":false,"rental_uris":{"android":"levelo://app?vid=edb9ae2d-6754-4db6-98d7-7e5ce4840454","ios":"levelo://app?vid=edb9ae2d-6754-4db6-98d7-7e5ce4840454"},"vehicle_type_id":"4","last_reported":1704830867,"current_range_meters":26000,"station_id":"ce4bgv12rcd13ifvqcp0","pricing_plan_id":"free"},{"bike_id":"c89a17a0-41d3-43ec-8d45-d4aea4fe2d1b","system_id":"levelo_inurba_marseille","lat":43.311722,"lon":5.387247,"is_reserved":false,"is_disabled":false,"rental_uris":{"android":"levelo://app?vid=c89a17a0-41d3-43ec-8d45-d4aea4fe2d1b","ios":"levelo://app?vid=c89a17a0-41d3-43ec-8d45-d4aea4fe2d1b"},"vehicle_type_id":"4","last_reported":1704830867,"current_range_meters":5600,"station_id":"ce4bgv12rcd13ifvqcp0","pricing_plan_id":"free"},{"bike_id":"5dc78555-3731-47fb-81b3-66a4d4a711f9","system_id":"levelo_inurba_marseille","lat":43.311722,"lon":5.387247,"is_reserved":false,"is_disabled":false,"rental_uris":{"android":"levelo://app?vid=5dc78555-3731-47fb-81b3-66a4d4a711f9","ios":"levelo://app?vid=5dc78555-3731-47fb-81b3-66a4d4a711f9"},"vehicle_type_id":"4","last_reported":1704830867,"current_range_meters":14400,"station_id":"ce4bgv12rcd13ifvqcp0","pricing_plan_id":"free"},{"bike_id":"cc7fe815-f50e-4dd0-af15-91a6ff3331fa","system_id":"levelo_inurba_marseille","lat":43.311722,"lon":5.387247,"is_reserved":false,"is_disabled":false,"rental_uris":{"android":"levelo://app?vid=cc7fe815-f50e-4dd0-af15-91a6ff3331fa","ios":"levelo://app?vid=cc7fe815-f50e-4dd0-af15-91a6ff3331fa"},"vehicle_type_id":"4","last_reported":1704830867,"current_range_meters":20400,"station_id":"ce4bgv12rcd13ifvqcp0","pricing_plan_id":"free"},{"bike_id":"a4b69b8b-9efd-4666-ae1f-f23920d7ce64","system_id":"levelo_inurba_marseille","lat":43.311722,"lon":5.387247,"is_reserved":false,"is_disabled":false,"rental_uris":{"android":"levelo://app?vid=a4b69b8b-9efd-4666-ae1f-f23920d7ce64","ios":"levelo://app?vid=a4b69b8b-9efd-4666-ae1f-f23920d7ce64"},"vehicle_type_id":"4","last_reported":1704830867,"current_range_meters":24800,"station_id":"ce4bgv12rcd13ifvqcp0","pricing_plan_id":"free"},{"bike_id":"5bf1d6bc-5ec0-4225-a9ca-40b8f03cb77d","system_id":"levelo_inurba_marseille","lat":43.31174,"lon":5.38719,"is_reserved":false,"is_disabled":false,"rental_uris":{"android":"levelo://app?vid=5bf1d6bc-5ec0-4225-a9ca-40b8f03cb77d","ios":"levelo://app?vid=5bf1d6bc-5ec0-4225-a9ca-40b8f03cb77d"},"vehicle_type_id":"4","last_reported":1704830867,"current_range_meters":20400,"station_id":"ce4bgv12rcd13ifvqcp0","pricing_plan_id":"free"},{"bike_id":"61430ce9-1b32-4b54-84f7-cebe3fce465d","system_id":"levelo_inurba_marseille","lat":43.311722,"lon":5.387247,"is_reserved":false,"is_disabled":false,"rental_uris":{"android":"levelo://app?vid=61430ce9-1b32-4b54-84f7-cebe3fce465d","ios":"levelo://app?vid=61430ce9-1b32-4b54-84f7-cebe3fce465d"},"vehicle_type_id":"4","last_reported":1704830867,"current_range_meters":15600,"station_id":"ce4bgv12rcd13ifvqcp0","pricing_plan_id":"free"},{"bike_id":"e4be501f-f6d8-429a-959e-6b411ad5476c","system_id":"levelo_inurba_marseille","lat":43.311722,"lon":5.387247,"is_reserved":false,"is_disabled":false,"rental_uris":{"android":"levelo://app?vid=e4be501f-f6d8-429a-959e-6b411ad5476c","ios":"levelo://app?vid=e4be501f-f6d8-429a-959e-6b411ad5476c"},"vehicle_type_id":"4","last_reported":1704830867,"current_range_meters":28000,"station_id":"ce4bgv12rcd13ifvqcp0","pricing_plan_id":"free"},{"bike_id":"a54f2e1b-826d-4ce9-895f-d8329fb8bf1b","system_id":"levelo_inurba_marseille","lat":43.29798,"lon":5.37092,"is_reserved":false,"is_disabled":false,"rental_uris":{"android":"levelo://app?vid=a54f2e1b-826d-4ce9-895f-d8329fb8bf1b","ios":"levelo://app?vid=a54f2e1b-826d-4ce9-895f-d8329fb8bf1b"},"vehicle_type_id":"4","last_reported":1704830867,"current_range_meters":11200,"station_id":"ce4bgop2rcd13ifvqc1g","pricing_plan_id":"free"},{"bike_id":"96d89e44-bf9b-45f1-abb8-d9c9870203f1","system_id":"levelo_inurba_marseille","lat":43.297774,"lon":5.370875,"is_reserved":false,"is_disabled":false,"rental_uris":{"android":"levelo://app?vid=96d89e44-bf9b-45f1-abb8-d9c9870203f1","ios":"levelo://app?vid=96d89e44-bf9b-45f1-abb8-d9c9870203f1"},"vehicle_type_id":"4","last_reported":1704830867,"current_range_meters":24400,"station_id":"ce4bgop2rcd13ifvqc1g","pricing_plan_id":"free"},{"bike_id":"6f3386fd-51d8-445a-b1d7-74d38e3e5710","system_id":"levelo_inurba_marseille","lat":43.29793,"lon":5.37102,"is_reserved":false,"is_disabled":false,"rental_uris":{"android":"levelo://app?vid=6f3386fd-51d8-445a-b1d7-74d38e3e5710","ios":"levelo://app?vid=6f3386fd-51d8-445a-b1d7-74d38e3e5710"},"vehicle_type_id":"4","last_reported":1704830867,"current_range_meters":12400,"station_id":"ce4bgop2rcd13ifvqc1g","pricing_plan_id":"free"},{"bike_id":"57ff67a1-74cc-4a3d-a5a7-2a402c400f1b","system_id":"levelo_inurba_marseille","lat":43.297794,"lon":5.370888,"is_reserved":false,"is_disabled":false,"rental_uris":{"android":"levelo://app?vid=57ff67a1-74cc-4a3d-a5a7-2a402c400f1b","ios":"levelo://app?vid=57ff67a1-74cc-4a3d-a5a7-2a402c400f1b"},"vehicle_type_id":"4","last_reported":1704830867,"current_range_meters":11600,"station_id":"ce4bgop2rcd13ifvqc1g","pricing_plan_id":"free"},{"bike_id":"24149caa-6f18-4bae-b403-1263d07418c6","system_id":"levelo_inurba_marseille","lat":43.297774,"lon":5.370875,"is_reserved":false,"is_disabled":false,"rental_uris":{"android":"levelo://app?vid=24149caa-6f18-4bae-b403-1263d07418c6","ios":"levelo://app?vid=24149caa-6f18-4bae-b403-1263d07418c6"},"vehicle_type_id":"4","last_reported":1704830867,"current_range_meters":22000,"station_id":"ce4bgop2rcd13ifvqc1g","pricing_plan_id":"free"},{"bike_id":"f6070138-b435-45cd-afe5-5fa586feac4e","system_id":"levelo_inurba_marseille","lat":43.322872,"lon":5.382756,"is_reserved":false,"is_disabled":false,"rental_uris":{"android":"levelo://app?vid=f6070138-b435-45cd-afe5-5fa586feac4e","ios":"levelo://app?vid=f6070138-b435-45cd-afe5-5fa586feac4e"},"vehicle_type_id":"4","last_reported":1704830867,"current_range_meters":22400,"station_id":"ce4bhr12rcd13ifvqhqg","pricing_plan_id":"free"},{"bike_id":"9dddb55b-ab2a-4362-984d-08fd7ede665f","system_id":"levelo_inurba_marseille","lat":43.32284,"lon":5.38266,"is_reserved":false,"is_disabled":false,"rental_uris":{"android":"levelo://app?vid=9dddb55b-ab2a-4362-984d-08fd7ede665f","ios":"levelo://app?vid=9dddb55b-ab2a-4362-984d-08fd7ede665f"},"vehicle_type_id":"4","last_reported":1704830867,"current_range_meters":20800,"station_id":"ce4bhr12rcd13ifvqhqg","pricing_plan_id":"free"},{"bike_id":"198ab8d8-34df-452b-b039-c369bdea82d5","system_id":"levelo_inurba_marseille","lat":43.3229,"lon":5.38261,"is_reserved":false,"is_disabled":false,"rental_uris":{"android":"levelo://app?vid=198ab8d8-34df-452b-b039-c369bdea82d5","ios":"levelo://app?vid=198ab8d8-34df-452b-b039-c369bdea82d5"},"vehicle_type_id":"4","last_reported":1704830867,"current_range_meters":9600,"station_id":"ce4bhr12rcd13ifvqhqg","pricing_plan_id":"free"},{"bike_id":"01a76a40-89b1-49f0-917c-d8107f95a77f","system_id":"levelo_inurba_marseille","lat":43.32288,"lon":5.38266,"is_reserved":false,"is_disabled":false,"rental_uris":{"android":"levelo://app?vid=01a76a40-89b1-49f0-917c-d8107f95a77f","ios":"levelo://app?vid=01a76a40-89b1-49f0-917c-d8107f95a77f"},"vehicle_type_id":"4","last_reported":1704830867,"current_range_meters":6800,"station_id":"ce4bhr12rcd13ifvqhqg","pricing_plan_id":"free"},{"bike_id":"965e06bb-d727-441b-b835-de8a0777d9ea","system_id":"levelo_inurba_marseille","lat":43.32291,"lon":5.38267,"is_reserved":false,"is_disabled":false,"rental_uris":{"android":"levelo://app?vid=965e06bb-d727-441b-b835-de8a0777d9ea","ios":"levelo://app?vid=965e06bb-d727-441b-b835-de8a0777d9ea"},"vehicle_type_id":"4","last_reported":1704830867,"current_range_meters":2000,"station_id":"ce4bhr12rcd13ifvqhqg","pricing_plan_id":"free"},{"bike_id":"f4a772fa-5e25-4411-a2f1-6273bbd7c8b0","system_id":"levelo_inurba_marseille","lat":43.32285,"lon":5.38275,"is_reserved":false,"is_disabled":false,"rental_uris":{"android":"levelo://app?vid=f4a772fa-5e25-4411-a2f1-6273bbd7c8b0","ios":"levelo://app?vid=f4a772fa-5e25-4411-a2f1-6273bbd7c8b0"},"vehicle_type_id":"4","last_reported":1704830867,"current_range_meters":20800,"station_id":"ce4bhr12rcd13ifvqhqg","pricing_plan_id":"free"},{"bike_id":"e5f64b36-ecfd-4fac-a3a5-5904b691c001","system_id":"levelo_inurba_marseille","lat":43.322872,"lon":5.382756,"is_reserved":false,"is_disabled":false,"rental_uris":{"android":"levelo://app?vid=e5f64b36-ecfd-4fac-a3a5-5904b691c001","ios":"levelo://app?vid=e5f64b36-ecfd-4fac-a3a5-5904b691c001"},"vehicle_type_id":"4","last_reported":1704830867,"current_range_meters":30400,"station_id":"ce4bhr12rcd13ifvqhqg","pricing_plan_id":"free"},{"bike_id":"e7d5037f-de16-4667-bc98-17ded19fb786","system_id":"levelo_inurba_marseille","lat":43.297273,"lon":5.366373,"is_reserved":false,"is_disabled":false,"rental_uris":{"android":"levelo://app?vid=e7d5037f-de16-4667-bc98-17ded19fb786","ios":"levelo://app?vid=e7d5037f-de16-4667-bc98-17ded19fb786"},"vehicle_type_id":"4","last_reported":1704830867,"current_range_meters":23600,"station_id":"ce4bgn12rcd13ifvqbt0","pricing_plan_id":"free"},{"bike_id":"387c1dff-fb7e-4547-838e-1af3f69c4219","system_id":"levelo_inurba_marseille","lat":43.32824,"lon":5.36682,"is_reserved":false,"is_disabled":false,"rental_uris":{"android":"levelo://app?vid=387c1dff-fb7e-4547-838e-1af3f69c4219","ios":"levelo://app?vid=387c1dff-fb7e-4547-838e-1af3f69c4219"},"vehicle_type_id":"4","last_reported":1704830867,"current_range_meters":12400,"station_id":"ce4bhs92rcd13ifvqi0g","pricing_plan_id":"free"},{"bike_id":"b417e045-2acd-45ab-8543-5d87cc32d878","system_id":"levelo_inurba_marseille","lat":43.328371,"lon":5.366909,"is_reserved":false,"is_disabled":false,"rental_uris":{"android":"levelo://app?vid=b417e045-2acd-45ab-8543-5d87cc32d878","ios":"levelo://app?vid=b417e045-2acd-45ab-8543-5d87cc32d878"},"vehicle_type_id":"4","last_reported":1704830867,"current_range_meters":12400,"station_id":"ce4bhs92rcd13ifvqi0g","pricing_plan_id":"free"},{"bike_id":"66addf4b-70b7-4ac4-8e17-37956e9ecfbb","system_id":"levelo_inurba_marseille","lat":43.328241,"lon":5.366819,"is_reserved":false,"is_disabled":false,"rental_uris":{"android":"levelo://app?vid=66addf4b-70b7-4ac4-8e17-37956e9ecfbb","ios":"levelo://app?vid=66addf4b-70b7-4ac4-8e17-37956e9ecfbb"},"vehicle_type_id":"4","last_reported":1704830867,"current_range_meters":9200,"station_id":"ce4bhs92rcd13ifvqi0g","pricing_plan_id":"free"},{"bike_id":"72905f78-9c33-4138-8385-d331d9223abd","system_id":"levelo_inurba_marseille","lat":43.328251,"lon":5.366901,"is_reserved":false,"is_disabled":false,"rental_uris":{"android":"levelo://app?vid=72905f78-9c33-4138-8385-d331d9223abd","ios":"levelo://app?vid=72905f78-9c33-4138-8385-d331d9223abd"},"vehicle_type_id":"4","last_reported":1704830867,"current_range_meters":4400,"station_id":"ce4bhs92rcd13ifvqi0g","pricing_plan_id":"free"},{"bike_id":"a70069dc-f773-452d-9d3a-320d0014d11e","system_id":"levelo_inurba_marseille","lat":43.328371,"lon":5.366909,"is_reserved":false,"is_disabled":false,"rental_uris":{"android":"levelo://app?vid=a70069dc-f773-452d-9d3a-320d0014d11e","ios":"levelo://app?vid=a70069dc-f773-452d-9d3a-320d0014d11e"},"vehicle_type_id":"4","last_reported":1704830867,"current_range_meters":21600,"station_id":"ce4bhs92rcd13ifvqi0g","pricing_plan_id":"free"},{"bike_id":"d68ce626-ef98-4d52-b3b3-f34d703a806b","system_id":"levelo_inurba_marseille","lat":43.328262,"lon":5.366777,"is_reserved":false,"is_disabled":false,"rental_uris":{"android":"levelo://app?vid=d68ce626-ef98-4d52-b3b3-f34d703a806b","ios":"levelo://app?vid=d68ce626-ef98-4d52-b3b3-f34d703a806b"},"vehicle_type_id":"4","last_reported":1704830867,"current_range_meters":24800,"station_id":"ce4bhs92rcd13ifvqi0g","pricing_plan_id":"free"},{"bike_id":"fb45f142-a2e6-4b54-b6fd-5660ca2c1fe5","system_id":"levelo_inurba_marseille","lat":43.328371,"lon":5.366909,"is_reserved":false,"is_disabled":false,"rental_uris":{"android":"levelo://app?vid=fb45f142-a2e6-4b54-b6fd-5660ca2c1fe5","ios":"levelo://app?vid=fb45f142-a2e6-4b54-b6fd-5660ca2c1fe5"},"vehicle_type_id":"4","last_reported":1704830867,"current_range_meters":25600,"station_id":"ce4bhs92rcd13ifvqi0g","pricing_plan_id":"free"},{"bike_id":"331410e4-8362-40e5-8b58-6a53f46a25bd","system_id":"levelo_inurba_marseille","lat":43.328371,"lon":5.366912,"is_reserved":false,"is_disabled":false,"rental_uris":{"android":"levelo://app?vid=331410e4-8362-40e5-8b58-6a53f46a25bd","ios":"levelo://app?vid=331410e4-8362-40e5-8b58-6a53f46a25bd"},"vehicle_type_id":"4","last_reported":1704830867,"current_range_meters":14800,"station_id":"ce4bhs92rcd13ifvqi0g","pricing_plan_id":"free"},{"bike_id":"cb10c6bf-7a07-4d62-8564-8123aa71a8db","system_id":"levelo_inurba_marseille","lat":43.297163,"lon":5.365866,"is_reserved":false,"is_disabled":false,"rental_uris":{"android":"levelo://app?vid=cb10c6bf-7a07-4d62-8564-8123aa71a8db","ios":"levelo://app?vid=cb10c6bf-7a07-4d62-8564-8123aa71a8db"},"vehicle_type_id":"4","last_reported":1704830867,"current_range_meters":18000,"station_id":"ce4bgn12rcd13ifvqbt0","pricing_plan_id":"free"},{"bike_id":"5c7a59fa-b898-45ba-839d-ec00297bbc14","system_id":"levelo_inurba_marseille","lat":43.297163,"lon":5.365866,"is_reserved":false,"is_disabled":false,"rental_uris":{"android":"levelo://app?vid=5c7a59fa-b898-45ba-839d-ec00297bbc14","ios":"levelo://app?vid=5c7a59fa-b898-45ba-839d-ec00297bbc14"},"vehicle_type_id":"4","last_reported":1704830867,"current_range_meters":11200,"station_id":"ce4bgn12rcd13ifvqbt0","pricing_plan_id":"free"},{"bike_id":"33c39509-463c-4446-968d-c9bf6df2cc31","system_id":"levelo_inurba_marseille","lat":43.297163,"lon":5.365866,"is_reserved":false,"is_disabled":false,"rental_uris":{"android":"levelo://app?vid=33c39509-463c-4446-968d-c9bf6df2cc31","ios":"levelo://app?vid=33c39509-463c-4446-968d-c9bf6df2cc31"},"vehicle_type_id":"4","last_reported":1704830867,"current_range_meters":30400,"station_id":"ce4bgn12rcd13ifvqbt0","pricing_plan_id":"free"},{"bike_id":"d717ec0d-c6d2-4739-a1fb-2d1e801f7037","system_id":"levelo_inurba_marseille","lat":43.297163,"lon":5.365866,"is_reserved":false,"is_disabled":false,"rental_uris":{"android":"levelo://app?vid=d717ec0d-c6d2-4739-a1fb-2d1e801f7037","ios":"levelo://app?vid=d717ec0d-c6d2-4739-a1fb-2d1e801f7037"},"vehicle_type_id":"4","last_reported":1704830867,"current_range_meters":7200,"station_id":"ce4bgn12rcd13ifvqbt0","pricing_plan_id":"free"},{"bike_id":"c03e8c47-d0d3-49bf-a9db-4300c1d60065","system_id":"levelo_inurba_marseille","lat":43.297076,"lon":5.366019,"is_reserved":false,"is_disabled":false,"rental_uris":{"android":"levelo://app?vid=c03e8c47-d0d3-49bf-a9db-4300c1d60065","ios":"levelo://app?vid=c03e8c47-d0d3-49bf-a9db-4300c1d60065"},"vehicle_type_id":"4","last_reported":1704830867,"current_range_meters":24000,"station_id":"ce4bgn12rcd13ifvqbt0","pricing_plan_id":"free"},{"bike_id":"5d17fcc1-ee1a-4e36-8844-4f9946d324b0","system_id":"levelo_inurba_marseille","lat":43.297004,"lon":5.365984,"is_reserved":false,"is_disabled":false,"rental_uris":{"android":"levelo://app?vid=5d17fcc1-ee1a-4e36-8844-4f9946d324b0","ios":"levelo://app?vid=5d17fcc1-ee1a-4e36-8844-4f9946d324b0"},"vehicle_type_id":"4","last_reported":1704830867,"current_range_meters":16800,"station_id":"ce4bgn12rcd13ifvqbt0","pricing_plan_id":"free"},{"bike_id":"37dcdeb4-373e-464b-9715-f991ab38e7cb","system_id":"levelo_inurba_marseille","lat":43.2968,"lon":5.37291,"is_reserved":false,"is_disabled":false,"rental_uris":{"android":"levelo://app?vid=37dcdeb4-373e-464b-9715-f991ab38e7cb","ios":"levelo://app?vid=37dcdeb4-373e-464b-9715-f991ab38e7cb"},"vehicle_type_id":"4","last_reported":1704830867,"current_range_meters":28800,"station_id":"ce4bgk12rcd13ifvqbj0","pricing_plan_id":"free"},{"bike_id":"0e21c0e1-cd91-41f5-a668-23429ce9066e","system_id":"levelo_inurba_marseille","lat":43.296801,"lon":5.372822,"is_reserved":false,"is_disabled":false,"rental_uris":{"android":"levelo://app?vid=0e21c0e1-cd91-41f5-a668-23429ce9066e","ios":"levelo://app?vid=0e21c0e1-cd91-41f5-a668-23429ce9066e"},"vehicle_type_id":"4","last_reported":1704830867,"current_range_meters":14400,"station_id":"","pricing_plan_id":"free"},{"bike_id":"e6006fa9-35e7-48bb-8cfd-9d9e2c51acc5","system_id":"levelo_inurba_marseille","lat":43.296131,"lon":5.370773,"is_reserved":false,"is_disabled":false,"rental_uris":{"android":"levelo://app?vid=e6006fa9-35e7-48bb-8cfd-9d9e2c51acc5","ios":"levelo://app?vid=e6006fa9-35e7-48bb-8cfd-9d9e2c51acc5"},"vehicle_type_id":"4","last_reported":1704830867,"current_range_meters":4800,"station_id":"ce4bgnh2rcd13ifvqc0g","pricing_plan_id":"free"},{"bike_id":"dfd53a63-0b12-403b-b2c9-50c997287923","system_id":"levelo_inurba_marseille","lat":43.296211,"lon":5.371499,"is_reserved":false,"is_disabled":false,"rental_uris":{"android":"levelo://app?vid=dfd53a63-0b12-403b-b2c9-50c997287923","ios":"levelo://app?vid=dfd53a63-0b12-403b-b2c9-50c997287923"},"vehicle_type_id":"4","last_reported":1704830867,"current_range_meters":25200,"station_id":"ce4bgnh2rcd13ifvqc0g","pricing_plan_id":"free"},{"bike_id":"1ceda21f-8588-4f86-9793-a32ca2c773d2","system_id":"levelo_inurba_marseille","lat":43.29588,"lon":5.36726,"is_reserved":false,"is_disabled":false,"rental_uris":{"android":"levelo://app?vid=1ceda21f-8588-4f86-9793-a32ca2c773d2","ios":"levelo://app?vid=1ceda21f-8588-4f86-9793-a32ca2c773d2"},"vehicle_type_id":"4","last_reported":1704830867,"current_range_meters":16000,"station_id":"ce4bgph2rcd13ifvqc2g","pricing_plan_id":"free"},{"bike_id":"9baa23e5-10fd-4726-a97f-bd4119347f6d","system_id":"levelo_inurba_marseille","lat":43.296129,"lon":5.370777,"is_reserved":false,"is_disabled":false,"rental_uris":{"android":"levelo://app?vid=9baa23e5-10fd-4726-a97f-bd4119347f6d","ios":"levelo://app?vid=9baa23e5-10fd-4726-a97f-bd4119347f6d"},"vehicle_type_id":"4","last_reported":1704830867,"current_range_meters":6000,"station_id":"ce4bgnh2rcd13ifvqc0g","pricing_plan_id":"free"},{"bike_id":"03dc2494-d09c-49f2-939f-59dbf57d82d8","system_id":"levelo_inurba_marseille","lat":43.299028,"lon":5.381509,"is_reserved":false,"is_disabled":false,"rental_uris":{"android":"levelo://app?vid=03dc2494-d09c-49f2-939f-59dbf57d82d8","ios":"levelo://app?vid=03dc2494-d09c-49f2-939f-59dbf57d82d8"},"vehicle_type_id":"4","last_reported":1704830867,"current_range_meters":31200,"station_id":"ce4bgj12rcd13ifvqbc0","pricing_plan_id":"free"},{"bike_id":"7e49c824-1264-431b-beba-96f7cda48e21","system_id":"levelo_inurba_marseille","lat":43.299028,"lon":5.381509,"is_reserved":false,"is_disabled":false,"rental_uris":{"android":"levelo://app?vid=7e49c824-1264-431b-beba-96f7cda48e21","ios":"levelo://app?vid=7e49c824-1264-431b-beba-96f7cda48e21"},"vehicle_type_id":"4","last_reported":1704830867,"current_range_meters":24400,"station_id":"ce4bgj12rcd13ifvqbc0","pricing_plan_id":"free"},{"bike_id":"5b159e97-00e1-4124-93b7-e42c8ba76a66","system_id":"levelo_inurba_marseille","lat":43.309702,"lon":5.390491,"is_reserved":false,"is_disabled":false,"rental_uris":{"android":"levelo://app?vid=5b159e97-00e1-4124-93b7-e42c8ba76a66","ios":"levelo://app?vid=5b159e97-00e1-4124-93b7-e42c8ba76a66"},"vehicle_type_id":"4","last_reported":1704830867,"current_range_meters":6000,"station_id":"ce4bgup2rcd13ifvqco0","pricing_plan_id":"free"},{"bike_id":"8ee03ff6-39f6-4f48-83df-0ad538f425fd","system_id":"levelo_inurba_marseille","lat":43.317557,"lon":5.390173,"is_reserved":false,"is_disabled":false,"rental_uris":{"android":"levelo://app?vid=8ee03ff6-39f6-4f48-83df-0ad538f425fd","ios":"levelo://app?vid=8ee03ff6-39f6-4f48-83df-0ad538f425fd"},"vehicle_type_id":"4","last_reported":1704830867,"current_range_meters":28400,"station_id":"ce4bhqp2rcd13ifvqhng","pricing_plan_id":"free"},{"bike_id":"8dcb7abd-000f-4a89-b368-8f71746552cb","system_id":"levelo_inurba_marseille","lat":43.317557,"lon":5.390173,"is_reserved":false,"is_disabled":false,"rental_uris":{"android":"levelo://app?vid=8dcb7abd-000f-4a89-b368-8f71746552cb","ios":"levelo://app?vid=8dcb7abd-000f-4a89-b368-8f71746552cb"},"vehicle_type_id":"4","last_reported":1704830867,"current_range_meters":14000,"station_id":"ce4bhqp2rcd13ifvqhng","pricing_plan_id":"free"},{"bike_id":"a4a8fe16-b861-482d-8919-e7240e077d1f","system_id":"levelo_inurba_marseille","lat":43.31758,"lon":5.390199,"is_reserved":false,"is_disabled":false,"rental_uris":{"android":"levelo://app?vid=a4a8fe16-b861-482d-8919-e7240e077d1f","ios":"levelo://app?vid=a4a8fe16-b861-482d-8919-e7240e077d1f"},"vehicle_type_id":"4","last_reported":1704830867,"current_range_meters":20800,"station_id":"ce4bhqp2rcd13ifvqhng","pricing_plan_id":"free"},{"bike_id":"941bebe7-4299-47bb-a31b-7a53cebaf4fe","system_id":"levelo_inurba_marseille","lat":43.304278,"lon":5.388868,"is_reserved":false,"is_disabled":false,"rental_uris":{"android":"levelo://app?vid=941bebe7-4299-47bb-a31b-7a53cebaf4fe","ios":"levelo://app?vid=941bebe7-4299-47bb-a31b-7a53cebaf4fe"},"vehicle_type_id":"4","last_reported":1704830867,"current_range_meters":9600,"station_id":"ce4bgk12rcd13ifvqbi0","pricing_plan_id":"free"},{"bike_id":"cb8de5ca-b405-499d-8876-4ad46ee6225f","system_id":"levelo_inurba_marseille","lat":43.304278,"lon":5.388868,"is_reserved":false,"is_disabled":false,"rental_uris":{"android":"levelo://app?vid=cb8de5ca-b405-499d-8876-4ad46ee6225f","ios":"levelo://app?vid=cb8de5ca-b405-499d-8876-4ad46ee6225f"},"vehicle_type_id":"4","last_reported":1704830867,"current_range_meters":10000,"station_id":"ce4bgk12rcd13ifvqbi0","pricing_plan_id":"free"},{"bike_id":"804855db-3c10-42e0-ae09-e988d2190461","system_id":"levelo_inurba_marseille","lat":43.295748,"lon":5.37522,"is_reserved":false,"is_disabled":false,"rental_uris":{"android":"levelo://app?vid=804855db-3c10-42e0-ae09-e988d2190461","ios":"levelo://app?vid=804855db-3c10-42e0-ae09-e988d2190461"},"vehicle_type_id":"4","last_reported":1704830867,"current_range_meters":0,"station_id":"ce4bgh92rcd13ifvqb50","pricing_plan_id":"free"},{"bike_id":"333411fb-e205-4ec8-be42-370f7fd35106","system_id":"levelo_inurba_marseille","lat":43.296263,"lon":5.377094,"is_reserved":false,"is_disabled":false,"rental_uris":{"android":"levelo://app?vid=333411fb-e205-4ec8-be42-370f7fd35106","ios":"levelo://app?vid=333411fb-e205-4ec8-be42-370f7fd35106"},"vehicle_type_id":"4","last_reported":1704830867,"current_range_meters":0,"station_id":"ce4bgi92rcd13ifvqb90","pricing_plan_id":"free"},{"bike_id":"e3efe1f3-3ff3-49ae-8d7e-eed91b8f350d","system_id":"levelo_inurba_marseille","lat":43.295279,"lon":5.375048,"is_reserved":false,"is_disabled":false,"rental_uris":{"android":"levelo://app?vid=e3efe1f3-3ff3-49ae-8d7e-eed91b8f350d","ios":"levelo://app?vid=e3efe1f3-3ff3-49ae-8d7e-eed91b8f350d"},"vehicle_type_id":"4","last_reported":1704830867,"current_range_meters":27200,"station_id":"ce4bgkp2rcd13ifvqbmg","pricing_plan_id":"free"},{"bike_id":"21552a4d-3b96-43b7-b8c8-f501949ef4d6","system_id":"levelo_inurba_marseille","lat":43.295279,"lon":5.375048,"is_reserved":false,"is_disabled":false,"rental_uris":{"android":"levelo://app?vid=21552a4d-3b96-43b7-b8c8-f501949ef4d6","ios":"levelo://app?vid=21552a4d-3b96-43b7-b8c8-f501949ef4d6"},"vehicle_type_id":"4","last_reported":1704830867,"current_range_meters":1600,"station_id":"ce4bgkp2rcd13ifvqbmg","pricing_plan_id":"free"},{"bike_id":"42f95f25-c066-42e1-8e52-11cb674d6b01","system_id":"levelo_inurba_marseille","lat":43.295279,"lon":5.375048,"is_reserved":false,"is_disabled":false,"rental_uris":{"android":"levelo://app?vid=42f95f25-c066-42e1-8e52-11cb674d6b01","ios":"levelo://app?vid=42f95f25-c066-42e1-8e52-11cb674d6b01"},"vehicle_type_id":"4","last_reported":1704830867,"current_range_meters":11200,"station_id":"ce4bgkp2rcd13ifvqbmg","pricing_plan_id":"free"},{"bike_id":"2320034b-360b-4bef-aeaa-b84bc4df277c","system_id":"levelo_inurba_marseille","lat":43.295279,"lon":5.375048,"is_reserved":false,"is_disabled":false,"rental_uris":{"android":"levelo://app?vid=2320034b-360b-4bef-aeaa-b84bc4df277c","ios":"levelo://app?vid=2320034b-360b-4bef-aeaa-b84bc4df277c"},"vehicle_type_id":"4","last_reported":1704830867,"current_range_meters":16800,"station_id":"ce4bgkp2rcd13ifvqbmg","pricing_plan_id":"free"},{"bike_id":"7f89379f-cec6-4f5b-8707-343dcfc413b6","system_id":"levelo_inurba_marseille","lat":43.29971,"lon":5.38494,"is_reserved":false,"is_disabled":false,"rental_uris":{"android":"levelo://app?vid=7f89379f-cec6-4f5b-8707-343dcfc413b6","ios":"levelo://app?vid=7f89379f-cec6-4f5b-8707-343dcfc413b6"},"vehicle_type_id":"4","last_reported":1704830867,"current_range_meters":0,"station_id":"ce4bgj92rcd13ifvqbd0","pricing_plan_id":"free"},{"bike_id":"95176410-6a38-4d4b-bf95-c4f0c2fe4c21","system_id":"levelo_inurba_marseille","lat":43.299724,"lon":5.384848,"is_reserved":false,"is_disabled":false,"rental_uris":{"android":"levelo://app?vid=95176410-6a38-4d4b-bf95-c4f0c2fe4c21","ios":"levelo://app?vid=95176410-6a38-4d4b-bf95-c4f0c2fe4c21"},"vehicle_type_id":"4","last_reported":1704830867,"current_range_meters":9600,"station_id":"ce4bgj92rcd13ifvqbd0","pricing_plan_id":"free"},{"bike_id":"5e24668f-edd9-4a38-a8a4-a10538ce1a47","system_id":"levelo_inurba_marseille","lat":43.29518,"lon":5.37713,"is_reserved":false,"is_disabled":false,"rental_uris":{"android":"levelo://app?vid=5e24668f-edd9-4a38-a8a4-a10538ce1a47","ios":"levelo://app?vid=5e24668f-edd9-4a38-a8a4-a10538ce1a47"},"vehicle_type_id":"4","last_reported":1704830867,"current_range_meters":26000,"station_id":"","pricing_plan_id":"free"},{"bike_id":"81e921ca-b50d-451e-a2aa-0de67930d968","system_id":"levelo_inurba_marseille","lat":43.3236,"lon":5.38876,"is_reserved":false,"is_disabled":false,"rental_uris":{"android":"levelo://app?vid=81e921ca-b50d-451e-a2aa-0de67930d968","ios":"levelo://app?vid=81e921ca-b50d-451e-a2aa-0de67930d968"},"vehicle_type_id":"4","last_reported":1704830867,"current_range_meters":19600,"station_id":"ce4bhqp2rcd13ifvqhog","pricing_plan_id":"free"},{"bike_id":"75205096-6852-4545-82d0-2fc78b418465","system_id":"levelo_inurba_marseille","lat":43.32366,"lon":5.38872,"is_reserved":false,"is_disabled":false,"rental_uris":{"android":"levelo://app?vid=75205096-6852-4545-82d0-2fc78b418465","ios":"levelo://app?vid=75205096-6852-4545-82d0-2fc78b418465"},"vehicle_type_id":"4","last_reported":1704830867,"current_range_meters":22400,"station_id":"ce4bhqp2rcd13ifvqhog","pricing_plan_id":"free"},{"bike_id":"c52cac78-36c5-4b60-a30f-f38d903841b2","system_id":"levelo_inurba_marseille","lat":43.32362,"lon":5.3888,"is_reserved":false,"is_disabled":false,"rental_uris":{"android":"levelo://app?vid=c52cac78-36c5-4b60-a30f-f38d903841b2","ios":"levelo://app?vid=c52cac78-36c5-4b60-a30f-f38d903841b2"},"vehicle_type_id":"4","last_reported":1704830867,"current_range_meters":24800,"station_id":"ce4bhqp2rcd13ifvqhog","pricing_plan_id":"free"},{"bike_id":"ea1b3b59-376b-41ec-ab9b-0e979094ae7e","system_id":"levelo_inurba_marseille","lat":43.323347,"lon":5.3891,"is_reserved":false,"is_disabled":false,"rental_uris":{"android":"levelo://app?vid=ea1b3b59-376b-41ec-ab9b-0e979094ae7e","ios":"levelo://app?vid=ea1b3b59-376b-41ec-ab9b-0e979094ae7e"},"vehicle_type_id":"4","last_reported":1704830867,"current_range_meters":11200,"station_id":"ce4bhqp2rcd13ifvqhog","pricing_plan_id":"free"},{"bike_id":"7dd93b7f-65ea-48ba-9ea4-63843b477081","system_id":"levelo_inurba_marseille","lat":43.32364,"lon":5.38883,"is_reserved":false,"is_disabled":false,"rental_uris":{"android":"levelo://app?vid=7dd93b7f-65ea-48ba-9ea4-63843b477081","ios":"levelo://app?vid=7dd93b7f-65ea-48ba-9ea4-63843b477081"},"vehicle_type_id":"4","last_reported":1704830867,"current_range_meters":26800,"station_id":"ce4bhqp2rcd13ifvqhog","pricing_plan_id":"free"},{"bike_id":"f98c8e4e-5262-4c11-b747-3fdaba5152b8","system_id":"levelo_inurba_marseille","lat":43.3237,"lon":5.3888,"is_reserved":false,"is_disabled":false,"rental_uris":{"android":"levelo://app?vid=f98c8e4e-5262-4c11-b747-3fdaba5152b8","ios":"levelo://app?vid=f98c8e4e-5262-4c11-b747-3fdaba5152b8"},"vehicle_type_id":"4","last_reported":1704830867,"current_range_meters":800,"station_id":"ce4bhqp2rcd13ifvqhog","pricing_plan_id":"free"},{"bike_id":"7cf362c3-c501-429a-89d8-68ec044fa5dc","system_id":"levelo_inurba_marseille","lat":43.32367,"lon":5.388836,"is_reserved":false,"is_disabled":false,"rental_uris":{"android":"levelo://app?vid=7cf362c3-c501-429a-89d8-68ec044fa5dc","ios":"levelo://app?vid=7cf362c3-c501-429a-89d8-68ec044fa5dc"},"vehicle_type_id":"4","last_reported":1704830867,"current_range_meters":26800,"station_id":"ce4bhqp2rcd13ifvqhog","pricing_plan_id":"free"},{"bike_id":"f7f6a6bd-1cb4-42b6-a6d8-17a519319eab","system_id":"levelo_inurba_marseille","lat":43.29601,"lon":5.381084,"is_reserved":false,"is_disabled":false,"rental_uris":{"android":"levelo://app?vid=f7f6a6bd-1cb4-42b6-a6d8-17a519319eab","ios":"levelo://app?vid=f7f6a6bd-1cb4-42b6-a6d8-17a519319eab"},"vehicle_type_id":"4","last_reported":1704830867,"current_range_meters":26000,"station_id":"ce4bgl12rcd13ifvqbo0","pricing_plan_id":"free"},{"bike_id":"06d8784e-fe22-4245-88f0-40847ef23828","system_id":"levelo_inurba_marseille","lat":43.29325,"lon":5.37204,"is_reserved":false,"is_disabled":false,"rental_uris":{"android":"levelo://app?vid=06d8784e-fe22-4245-88f0-40847ef23828","ios":"levelo://app?vid=06d8784e-fe22-4245-88f0-40847ef23828"},"vehicle_type_id":"4","last_reported":1704830867,"current_range_meters":9600,"station_id":"ce4bgh92rcd13ifvqb40","pricing_plan_id":"free"},{"bike_id":"2a2494f4-2543-4ede-82f2-b9c4603b9a23","system_id":"levelo_inurba_marseille","lat":43.292749,"lon":5.368402,"is_reserved":false,"is_disabled":false,"rental_uris":{"android":"levelo://app?vid=2a2494f4-2543-4ede-82f2-b9c4603b9a23","ios":"levelo://app?vid=2a2494f4-2543-4ede-82f2-b9c4603b9a23"},"vehicle_type_id":"4","last_reported":1704830867,"current_range_meters":0,"station_id":"ce4bhbp2rcd13ifvqesg","pricing_plan_id":"free"},{"bike_id":"52fda5bf-a917-4235-928f-a1adc43ee471","system_id":"levelo_inurba_marseille","lat":43.293199,"lon":5.371914,"is_reserved":false,"is_disabled":false,"rental_uris":{"android":"levelo://app?vid=52fda5bf-a917-4235-928f-a1adc43ee471","ios":"levelo://app?vid=52fda5bf-a917-4235-928f-a1adc43ee471"},"vehicle_type_id":"4","last_reported":1704830867,"current_range_meters":22400,"station_id":"ce4bgh92rcd13ifvqb40","pricing_plan_id":"free"},{"bike_id":"f6240ad4-663d-45a7-bb7a-8f46191fe554","system_id":"levelo_inurba_marseille","lat":43.305994,"lon":5.393687,"is_reserved":false,"is_disabled":false,"rental_uris":{"android":"levelo://app?vid=f6240ad4-663d-45a7-bb7a-8f46191fe554","ios":"levelo://app?vid=f6240ad4-663d-45a7-bb7a-8f46191fe554"},"vehicle_type_id":"4","last_reported":1704830867,"current_range_meters":27200,"station_id":"ce4bh0p2rcd13ifvqd80","pricing_plan_id":"free"},{"bike_id":"08da11f3-17a6-453d-ba14-c93b9650b8d3","system_id":"levelo_inurba_marseille","lat":43.2936,"lon":5.37835,"is_reserved":false,"is_disabled":false,"rental_uris":{"android":"levelo://app?vid=08da11f3-17a6-453d-ba14-c93b9650b8d3","ios":"levelo://app?vid=08da11f3-17a6-453d-ba14-c93b9650b8d3"},"vehicle_type_id":"4","last_reported":1704830867,"current_range_meters":12400,"station_id":"ce4bgjh2rcd13ifvqbf0","pricing_plan_id":"free"},{"bike_id":"8bfe5303-2f9e-498d-a1ae-62c17a8a318f","system_id":"levelo_inurba_marseille","lat":43.2936,"lon":5.37835,"is_reserved":false,"is_disabled":false,"rental_uris":{"android":"levelo://app?vid=8bfe5303-2f9e-498d-a1ae-62c17a8a318f","ios":"levelo://app?vid=8bfe5303-2f9e-498d-a1ae-62c17a8a318f"},"vehicle_type_id":"4","last_reported":1704830867,"current_range_meters":12000,"station_id":"ce4bgjh2rcd13ifvqbf0","pricing_plan_id":"free"},{"bike_id":"fe8ea900-52df-4876-a181-c39b7fbaefa4","system_id":"levelo_inurba_marseille","lat":43.30085,"lon":5.390856,"is_reserved":false,"is_disabled":false,"rental_uris":{"android":"levelo://app?vid=fe8ea900-52df-4876-a181-c39b7fbaefa4","ios":"levelo://app?vid=fe8ea900-52df-4876-a181-c39b7fbaefa4"},"vehicle_type_id":"4","last_reported":1704830867,"current_range_meters":24800,"station_id":"ce4bh192rcd13ifvqdb0","pricing_plan_id":"free"},{"bike_id":"4899f726-ef10-447b-a918-d84e0769d148","system_id":"levelo_inurba_marseille","lat":43.292205,"lon":5.360522,"is_reserved":false,"is_disabled":false,"rental_uris":{"android":"levelo://app?vid=4899f726-ef10-447b-a918-d84e0769d148","ios":"levelo://app?vid=4899f726-ef10-447b-a918-d84e0769d148"},"vehicle_type_id":"4","last_reported":1704830867,"current_range_meters":22000,"station_id":"ce4bhbh2rcd13ifvqeqg","pricing_plan_id":"free"},{"bike_id":"27a4726c-7bd1-440b-850d-f2693916c413","system_id":"levelo_inurba_marseille","lat":43.291675,"lon":5.371583,"is_reserved":false,"is_disabled":false,"rental_uris":{"android":"levelo://app?vid=27a4726c-7bd1-440b-850d-f2693916c413","ios":"levelo://app?vid=27a4726c-7bd1-440b-850d-f2693916c413"},"vehicle_type_id":"4","last_reported":1704830867,"current_range_meters":0,"station_id":"ce4bha92rcd13ifvqeh0","pricing_plan_id":"free"},{"bike_id":"07d45101-c3d6-45cc-b177-33271495b4be","system_id":"levelo_inurba_marseille","lat":43.296129,"lon":5.370777,"is_reserved":false,"is_disabled":false,"rental_uris":{"android":"levelo://app?vid=07d45101-c3d6-45cc-b177-33271495b4be","ios":"levelo://app?vid=07d45101-c3d6-45cc-b177-33271495b4be"},"vehicle_type_id":"4","last_reported":1704830867,"current_range_meters":18800,"station_id":"ce4bgnh2rcd13ifvqc0g","pricing_plan_id":"free"},{"bike_id":"078ab494-784c-48dc-9d57-b696f448f56a","system_id":"levelo_inurba_marseille","lat":43.30894,"lon":5.39619,"is_reserved":false,"is_disabled":false,"rental_uris":{"android":"levelo://app?vid=078ab494-784c-48dc-9d57-b696f448f56a","ios":"levelo://app?vid=078ab494-784c-48dc-9d57-b696f448f56a"},"vehicle_type_id":"4","last_reported":1704830867,"current_range_meters":8000,"station_id":"ce4bh012rcd13ifvqcv0","pricing_plan_id":"free"},{"bike_id":"dacc7546-ee44-4b99-ab2a-4e1325d9999a","system_id":"levelo_inurba_marseille","lat":43.291994,"lon":5.357886,"is_reserved":false,"is_disabled":false,"rental_uris":{"android":"levelo://app?vid=dacc7546-ee44-4b99-ab2a-4e1325d9999a","ios":"levelo://app?vid=dacc7546-ee44-4b99-ab2a-4e1325d9999a"},"vehicle_type_id":"4","last_reported":1704830867,"current_range_meters":10400,"station_id":"ce4bhb12rcd13ifvqel0","pricing_plan_id":"free"},{"bike_id":"c7db0237-cfd1-49fc-ade0-d877e98c6b27","system_id":"levelo_inurba_marseille","lat":43.313291,"lon":5.396838,"is_reserved":false,"is_disabled":false,"rental_uris":{"android":"levelo://app?vid=c7db0237-cfd1-49fc-ade0-d877e98c6b27","ios":"levelo://app?vid=c7db0237-cfd1-49fc-ade0-d877e98c6b27"},"vehicle_type_id":"4","last_reported":1704830867,"current_range_meters":10800,"station_id":"ce4bgvp2rcd13ifvqcu0","pricing_plan_id":"free"},{"bike_id":"3a7d504c-9707-42ee-b6a5-5a26ad66a0d3","system_id":"levelo_inurba_marseille","lat":43.30903,"lon":5.39635,"is_reserved":false,"is_disabled":false,"rental_uris":{"android":"levelo://app?vid=3a7d504c-9707-42ee-b6a5-5a26ad66a0d3","ios":"levelo://app?vid=3a7d504c-9707-42ee-b6a5-5a26ad66a0d3"},"vehicle_type_id":"4","last_reported":1704830867,"current_range_meters":12000,"station_id":"ce4bh012rcd13ifvqcv0","pricing_plan_id":"free"},{"bike_id":"44a20fee-d358-4faa-8e11-f0bff8832f7e","system_id":"levelo_inurba_marseille","lat":43.313291,"lon":5.396838,"is_reserved":false,"is_disabled":false,"rental_uris":{"android":"levelo://app?vid=44a20fee-d358-4faa-8e11-f0bff8832f7e","ios":"levelo://app?vid=44a20fee-d358-4faa-8e11-f0bff8832f7e"},"vehicle_type_id":"4","last_reported":1704830867,"current_range_meters":12800,"station_id":"ce4bgvp2rcd13ifvqcu0","pricing_plan_id":"free"},{"bike_id":"7c5a19e6-61e5-4ff9-b344-b29dad202a1a","system_id":"levelo_inurba_marseille","lat":43.309047,"lon":5.396551,"is_reserved":false,"is_disabled":false,"rental_uris":{"android":"levelo://app?vid=7c5a19e6-61e5-4ff9-b344-b29dad202a1a","ios":"levelo://app?vid=7c5a19e6-61e5-4ff9-b344-b29dad202a1a"},"vehicle_type_id":"4","last_reported":1704830867,"current_range_meters":6400,"station_id":"ce4bh012rcd13ifvqcv0","pricing_plan_id":"free"},{"bike_id":"03dfc576-955f-4483-ae7b-8bfd08cf549d","system_id":"levelo_inurba_marseille","lat":43.313291,"lon":5.396838,"is_reserved":false,"is_disabled":false,"rental_uris":{"android":"levelo://app?vid=03dfc576-955f-4483-ae7b-8bfd08cf549d","ios":"levelo://app?vid=03dfc576-955f-4483-ae7b-8bfd08cf549d"},"vehicle_type_id":"4","last_reported":1704830867,"current_range_meters":31600,"station_id":"ce4bgvp2rcd13ifvqcu0","pricing_plan_id":"free"},{"bike_id":"66f55f14-7744-4ad6-b80f-980c0b665c30","system_id":"levelo_inurba_marseille","lat":43.313291,"lon":5.396838,"is_reserved":false,"is_disabled":false,"rental_uris":{"android":"levelo://app?vid=66f55f14-7744-4ad6-b80f-980c0b665c30","ios":"levelo://app?vid=66f55f14-7744-4ad6-b80f-980c0b665c30"},"vehicle_type_id":"4","last_reported":1704830867,"current_range_meters":23200,"station_id":"ce4bgvp2rcd13ifvqcu0","pricing_plan_id":"free"},{"bike_id":"32883a14-611d-4088-a4fd-ad7f6816bdac","system_id":"levelo_inurba_marseille","lat":43.308867,"lon":5.396432,"is_reserved":false,"is_disabled":false,"rental_uris":{"android":"levelo://app?vid=32883a14-611d-4088-a4fd-ad7f6816bdac","ios":"levelo://app?vid=32883a14-611d-4088-a4fd-ad7f6816bdac"},"vehicle_type_id":"4","last_reported":1704830867,"current_range_meters":30800,"station_id":"ce4bh012rcd13ifvqcv0","pricing_plan_id":"free"},{"bike_id":"2e3a7afb-d8c7-4884-acc8-550933aad787","system_id":"levelo_inurba_marseille","lat":43.31329,"lon":5.39691,"is_reserved":false,"is_disabled":false,"rental_uris":{"android":"levelo://app?vid=2e3a7afb-d8c7-4884-acc8-550933aad787","ios":"levelo://app?vid=2e3a7afb-d8c7-4884-acc8-550933aad787"},"vehicle_type_id":"4","last_reported":1704830867,"current_range_meters":22800,"station_id":"ce4bgvp2rcd13ifvqcu0","pricing_plan_id":"free"},{"bike_id":"460038ff-124c-4609-8c97-f1c1d78c42e9","system_id":"levelo_inurba_marseille","lat":43.313291,"lon":5.396838,"is_reserved":false,"is_disabled":false,"rental_uris":{"android":"levelo://app?vid=460038ff-124c-4609-8c97-f1c1d78c42e9","ios":"levelo://app?vid=460038ff-124c-4609-8c97-f1c1d78c42e9"},"vehicle_type_id":"4","last_reported":1704830867,"current_range_meters":26400,"station_id":"ce4bgvp2rcd13ifvqcu0","pricing_plan_id":"free"},{"bike_id":"7b36211d-f979-4204-ae1c-1091b8280214","system_id":"levelo_inurba_marseille","lat":43.313291,"lon":5.396838,"is_reserved":false,"is_disabled":false,"rental_uris":{"android":"levelo://app?vid=7b36211d-f979-4204-ae1c-1091b8280214","ios":"levelo://app?vid=7b36211d-f979-4204-ae1c-1091b8280214"},"vehicle_type_id":"4","last_reported":1704830867,"current_range_meters":9600,"station_id":"ce4bgvp2rcd13ifvqcu0","pricing_plan_id":"free"},{"bike_id":"ce227334-7b48-47fe-8664-cbb2fc01cb37","system_id":"levelo_inurba_marseille","lat":43.309047,"lon":5.396551,"is_reserved":false,"is_disabled":false,"rental_uris":{"android":"levelo://app?vid=ce227334-7b48-47fe-8664-cbb2fc01cb37","ios":"levelo://app?vid=ce227334-7b48-47fe-8664-cbb2fc01cb37"},"vehicle_type_id":"4","last_reported":1704830867,"current_range_meters":15200,"station_id":"ce4bh012rcd13ifvqcv0","pricing_plan_id":"free"},{"bike_id":"248c6735-6a24-4deb-8598-8470ec2c1aee","system_id":"levelo_inurba_marseille","lat":43.30887,"lon":5.39653,"is_reserved":false,"is_disabled":false,"rental_uris":{"android":"levelo://app?vid=248c6735-6a24-4deb-8598-8470ec2c1aee","ios":"levelo://app?vid=248c6735-6a24-4deb-8598-8470ec2c1aee"},"vehicle_type_id":"4","last_reported":1704830867,"current_range_meters":17200,"station_id":"ce4bh012rcd13ifvqcv0","pricing_plan_id":"free"},{"bike_id":"9613a6ca-4f7c-4032-be8c-94815fb8c28b","system_id":"levelo_inurba_marseille","lat":43.30889,"lon":5.39656,"is_reserved":false,"is_disabled":false,"rental_uris":{"android":"levelo://app?vid=9613a6ca-4f7c-4032-be8c-94815fb8c28b","ios":"levelo://app?vid=9613a6ca-4f7c-4032-be8c-94815fb8c28b"},"vehicle_type_id":"4","last_reported":1704830867,"current_range_meters":16000,"station_id":"ce4bh012rcd13ifvqcv0","pricing_plan_id":"free"},{"bike_id":"4b1ab0c6-bce6-4288-93a5-50e8209a59a6","system_id":"levelo_inurba_marseille","lat":43.29529,"lon":5.385581,"is_reserved":false,"is_disabled":false,"rental_uris":{"android":"levelo://app?vid=4b1ab0c6-bce6-4288-93a5-50e8209a59a6","ios":"levelo://app?vid=4b1ab0c6-bce6-4288-93a5-50e8209a59a6"},"vehicle_type_id":"4","last_reported":1704830867,"current_range_meters":15600,"station_id":"ce4bgih2rcd13ifvqba0","pricing_plan_id":"free"},{"bike_id":"666a6a82-7188-41ff-b91a-0b015bf92671","system_id":"levelo_inurba_marseille","lat":43.29529,"lon":5.385581,"is_reserved":false,"is_disabled":false,"rental_uris":{"android":"levelo://app?vid=666a6a82-7188-41ff-b91a-0b015bf92671","ios":"levelo://app?vid=666a6a82-7188-41ff-b91a-0b015bf92671"},"vehicle_type_id":"4","last_reported":1704830867,"current_range_meters":23200,"station_id":"ce4bgih2rcd13ifvqba0","pricing_plan_id":"free"},{"bike_id":"0494dfed-d160-439a-9daa-9d5a5c1dd464","system_id":"levelo_inurba_marseille","lat":43.313464,"lon":5.397874,"is_reserved":false,"is_disabled":false,"rental_uris":{"android":"levelo://app?vid=0494dfed-d160-439a-9daa-9d5a5c1dd464","ios":"levelo://app?vid=0494dfed-d160-439a-9daa-9d5a5c1dd464"},"vehicle_type_id":"4","last_reported":1704830867,"current_range_meters":10400,"station_id":"","pricing_plan_id":"free"},{"bike_id":"08e09d67-edb5-486b-9746-3520f0950c9c","system_id":"levelo_inurba_marseille","lat":43.302008,"lon":5.394694,"is_reserved":false,"is_disabled":false,"rental_uris":{"android":"levelo://app?vid=08e09d67-edb5-486b-9746-3520f0950c9c","ios":"levelo://app?vid=08e09d67-edb5-486b-9746-3520f0950c9c"},"vehicle_type_id":"4","last_reported":1704830867,"current_range_meters":11600,"station_id":"ce4bh0p2rcd13ifvqd70","pricing_plan_id":"free"},{"bike_id":"e301beb3-ba96-46f3-bdce-842b4e07402b","system_id":"levelo_inurba_marseille","lat":43.290624,"lon":5.359245,"is_reserved":false,"is_disabled":false,"rental_uris":{"android":"levelo://app?vid=e301beb3-ba96-46f3-bdce-842b4e07402b","ios":"levelo://app?vid=e301beb3-ba96-46f3-bdce-842b4e07402b"},"vehicle_type_id":"4","last_reported":1704830867,"current_range_meters":25600,"station_id":"ce4bha92rcd13ifvqeg0","pricing_plan_id":"free"},{"bike_id":"84dc494f-4202-4393-a66f-5fdbccac152c","system_id":"levelo_inurba_marseille","lat":43.290631,"lon":5.359244,"is_reserved":false,"is_disabled":false,"rental_uris":{"android":"levelo://app?vid=84dc494f-4202-4393-a66f-5fdbccac152c","ios":"levelo://app?vid=84dc494f-4202-4393-a66f-5fdbccac152c"},"vehicle_type_id":"4","last_reported":1704830867,"current_range_meters":12800,"station_id":"ce4bha92rcd13ifvqeg0","pricing_plan_id":"free"},{"bike_id":"ca63bca5-920e-4ae4-a99f-467eb1f80da6","system_id":"levelo_inurba_marseille","lat":43.290631,"lon":5.359244,"is_reserved":false,"is_disabled":false,"rental_uris":{"android":"levelo://app?vid=ca63bca5-920e-4ae4-a99f-467eb1f80da6","ios":"levelo://app?vid=ca63bca5-920e-4ae4-a99f-467eb1f80da6"},"vehicle_type_id":"4","last_reported":1704830867,"current_range_meters":30000,"station_id":"ce4bha92rcd13ifvqeg0","pricing_plan_id":"free"},{"bike_id":"6a00b293-4f12-4ce8-9e93-b6bde95ae43b","system_id":"levelo_inurba_marseille","lat":43.2916,"lon":5.37911,"is_reserved":false,"is_disabled":false,"rental_uris":{"android":"levelo://app?vid=6a00b293-4f12-4ce8-9e93-b6bde95ae43b","ios":"levelo://app?vid=6a00b293-4f12-4ce8-9e93-b6bde95ae43b"},"vehicle_type_id":"4","last_reported":1704830867,"current_range_meters":4400,"station_id":"","pricing_plan_id":"free"},{"bike_id":"a1db6edd-f7eb-42ef-9d75-0d1bf626d603","system_id":"levelo_inurba_marseille","lat":43.289184,"lon":5.366408,"is_reserved":false,"is_disabled":false,"rental_uris":{"android":"levelo://app?vid=a1db6edd-f7eb-42ef-9d75-0d1bf626d603","ios":"levelo://app?vid=a1db6edd-f7eb-42ef-9d75-0d1bf626d603"},"vehicle_type_id":"4","last_reported":1704830867,"current_range_meters":1600,"station_id":"ce4bhap2rcd13ifvqek0","pricing_plan_id":"free"},{"bike_id":"cf96487d-4f06-48e9-94b5-1f836026c31f","system_id":"levelo_inurba_marseille","lat":43.289184,"lon":5.366408,"is_reserved":false,"is_disabled":false,"rental_uris":{"android":"levelo://app?vid=cf96487d-4f06-48e9-94b5-1f836026c31f","ios":"levelo://app?vid=cf96487d-4f06-48e9-94b5-1f836026c31f"},"vehicle_type_id":"4","last_reported":1704830867,"current_range_meters":17600,"station_id":"ce4bhap2rcd13ifvqek0","pricing_plan_id":"free"},{"bike_id":"468ca377-1440-497a-96a4-1b0fe56675ef","system_id":"levelo_inurba_marseille","lat":43.289184,"lon":5.366408,"is_reserved":false,"is_disabled":false,"rental_uris":{"android":"levelo://app?vid=468ca377-1440-497a-96a4-1b0fe56675ef","ios":"levelo://app?vid=468ca377-1440-497a-96a4-1b0fe56675ef"},"vehicle_type_id":"4","last_reported":1704830867,"current_range_meters":30000,"station_id":"ce4bhap2rcd13ifvqek0","pricing_plan_id":"free"},{"bike_id":"582a3def-7b29-4a4a-bd02-b2d1bb21e431","system_id":"levelo_inurba_marseille","lat":43.289184,"lon":5.366408,"is_reserved":false,"is_disabled":false,"rental_uris":{"android":"levelo://app?vid=582a3def-7b29-4a4a-bd02-b2d1bb21e431","ios":"levelo://app?vid=582a3def-7b29-4a4a-bd02-b2d1bb21e431"},"vehicle_type_id":"4","last_reported":1704830867,"current_range_meters":27200,"station_id":"ce4bhap2rcd13ifvqek0","pricing_plan_id":"free"},{"bike_id":"966df94c-d773-4bf3-8e3d-2941199ee2ce","system_id":"levelo_inurba_marseille","lat":43.28931,"lon":5.36631,"is_reserved":false,"is_disabled":false,"rental_uris":{"android":"levelo://app?vid=966df94c-d773-4bf3-8e3d-2941199ee2ce","ios":"levelo://app?vid=966df94c-d773-4bf3-8e3d-2941199ee2ce"},"vehicle_type_id":"4","last_reported":1704830867,"current_range_meters":0,"station_id":"ce4bhap2rcd13ifvqek0","pricing_plan_id":"free"},{"bike_id":"74f36886-317a-4703-931a-f540635408b5","system_id":"levelo_inurba_marseille","lat":43.304274,"lon":5.397513,"is_reserved":false,"is_disabled":false,"rental_uris":{"android":"levelo://app?vid=74f36886-317a-4703-931a-f540635408b5","ios":"levelo://app?vid=74f36886-317a-4703-931a-f540635408b5"},"vehicle_type_id":"4","last_reported":1704830867,"current_range_meters":23200,"station_id":"ce4bh092rcd13ifvqd20","pricing_plan_id":"free"},{"bike_id":"1c1e8554-0d88-4dcc-b328-d400b203ae05","system_id":"levelo_inurba_marseille","lat":43.292642,"lon":5.384254,"is_reserved":false,"is_disabled":false,"rental_uris":{"android":"levelo://app?vid=1c1e8554-0d88-4dcc-b328-d400b203ae05","ios":"levelo://app?vid=1c1e8554-0d88-4dcc-b328-d400b203ae05"},"vehicle_type_id":"4","last_reported":1704830867,"current_range_meters":26400,"station_id":"ce4bh692rcd13ifvqea0","pricing_plan_id":"free"},{"bike_id":"bb574447-f700-4fa2-8fe5-3639dc83d3e1","system_id":"levelo_inurba_marseille","lat":43.292642,"lon":5.384254,"is_reserved":false,"is_disabled":false,"rental_uris":{"android":"levelo://app?vid=bb574447-f700-4fa2-8fe5-3639dc83d3e1","ios":"levelo://app?vid=bb574447-f700-4fa2-8fe5-3639dc83d3e1"},"vehicle_type_id":"4","last_reported":1704830867,"current_range_meters":0,"station_id":"ce4bh692rcd13ifvqea0","pricing_plan_id":"free"},{"bike_id":"9d71c5cf-a4de-43d3-8b58-c630bd33630c","system_id":"levelo_inurba_marseille","lat":43.298681,"lon":5.397225,"is_reserved":false,"is_disabled":false,"rental_uris":{"android":"levelo://app?vid=9d71c5cf-a4de-43d3-8b58-c630bd33630c","ios":"levelo://app?vid=9d71c5cf-a4de-43d3-8b58-c630bd33630c"},"vehicle_type_id":"4","last_reported":1704830867,"current_range_meters":21600,"station_id":"ce4bh0h2rcd13ifvqd50","pricing_plan_id":"free"},{"bike_id":"68cdbb37-796b-49dd-8237-60c50e990312","system_id":"levelo_inurba_marseille","lat":43.297815,"lon":5.393548,"is_reserved":false,"is_disabled":false,"rental_uris":{"android":"levelo://app?vid=68cdbb37-796b-49dd-8237-60c50e990312","ios":"levelo://app?vid=68cdbb37-796b-49dd-8237-60c50e990312"},"vehicle_type_id":"4","last_reported":1704830867,"current_range_meters":0,"station_id":"chh1huq6cuj3fo74tm60","pricing_plan_id":"free"},{"bike_id":"93b841b8-0d9f-4dfe-84b5-856e3378f8b4","system_id":"levelo_inurba_marseille","lat":43.29798,"lon":5.39333,"is_reserved":false,"is_disabled":false,"rental_uris":{"android":"levelo://app?vid=93b841b8-0d9f-4dfe-84b5-856e3378f8b4","ios":"levelo://app?vid=93b841b8-0d9f-4dfe-84b5-856e3378f8b4"},"vehicle_type_id":"4","last_reported":1704830867,"current_range_meters":22800,"station_id":"chh1huq6cuj3fo74tm60","pricing_plan_id":"free"},{"bike_id":"00ceb65b-d038-4bb1-b17d-d4d95e332dcc","system_id":"levelo_inurba_marseille","lat":43.29786,"lon":5.39335,"is_reserved":false,"is_disabled":false,"rental_uris":{"android":"levelo://app?vid=00ceb65b-d038-4bb1-b17d-d4d95e332dcc","ios":"levelo://app?vid=00ceb65b-d038-4bb1-b17d-d4d95e332dcc"},"vehicle_type_id":"4","last_reported":1704830867,"current_range_meters":0,"station_id":"chh1huq6cuj3fo74tm60","pricing_plan_id":"free"},{"bike_id":"29877edf-f914-4818-a395-be7aee9e9d72","system_id":"levelo_inurba_marseille","lat":43.33022,"lon":5.39038,"is_reserved":false,"is_disabled":false,"rental_uris":{"android":"levelo://app?vid=29877edf-f914-4818-a395-be7aee9e9d72","ios":"levelo://app?vid=29877edf-f914-4818-a395-be7aee9e9d72"},"vehicle_type_id":"4","last_reported":1704830867,"current_range_meters":28400,"station_id":"","pricing_plan_id":"free"},{"bike_id":"b4b1d330-9cae-432f-bbe4-7ca5957c66dd","system_id":"levelo_inurba_marseille","lat":43.33032,"lon":5.39028,"is_reserved":false,"is_disabled":false,"rental_uris":{"android":"levelo://app?vid=b4b1d330-9cae-432f-bbe4-7ca5957c66dd","ios":"levelo://app?vid=b4b1d330-9cae-432f-bbe4-7ca5957c66dd"},"vehicle_type_id":"4","last_reported":1704830867,"current_range_meters":22400,"station_id":"","pricing_plan_id":"free"},{"bike_id":"87efb1e3-3a04-4a04-8a2c-7950735911ef","system_id":"levelo_inurba_marseille","lat":43.33023,"lon":5.39042,"is_reserved":false,"is_disabled":false,"rental_uris":{"android":"levelo://app?vid=87efb1e3-3a04-4a04-8a2c-7950735911ef","ios":"levelo://app?vid=87efb1e3-3a04-4a04-8a2c-7950735911ef"},"vehicle_type_id":"4","last_reported":1704830867,"current_range_meters":18800,"station_id":"","pricing_plan_id":"free"},{"bike_id":"604d70e1-4bfc-4c1a-ad50-5c45b428d61e","system_id":"levelo_inurba_marseille","lat":43.33027,"lon":5.39043,"is_reserved":false,"is_disabled":false,"rental_uris":{"android":"levelo://app?vid=604d70e1-4bfc-4c1a-ad50-5c45b428d61e","ios":"levelo://app?vid=604d70e1-4bfc-4c1a-ad50-5c45b428d61e"},"vehicle_type_id":"4","last_reported":1704830867,"current_range_meters":31200,"station_id":"ce4bhr92rcd13ifvqhrg","pricing_plan_id":"free"},{"bike_id":"3dac567c-d722-4e94-aa38-8a3688c276ae","system_id":"levelo_inurba_marseille","lat":43.310328,"lon":5.400942,"is_reserved":false,"is_disabled":false,"rental_uris":{"android":"levelo://app?vid=3dac567c-d722-4e94-aa38-8a3688c276ae","ios":"levelo://app?vid=3dac567c-d722-4e94-aa38-8a3688c276ae"},"vehicle_type_id":"4","last_reported":1704830867,"current_range_meters":23600,"station_id":"","pricing_plan_id":"free"},{"bike_id":"1a46d2d0-85d6-40a9-a7c8-890671b584e0","system_id":"levelo_inurba_marseille","lat":43.309283,"lon":5.401344,"is_reserved":false,"is_disabled":false,"rental_uris":{"android":"levelo://app?vid=1a46d2d0-85d6-40a9-a7c8-890671b584e0","ios":"levelo://app?vid=1a46d2d0-85d6-40a9-a7c8-890671b584e0"},"vehicle_type_id":"4","last_reported":1704830867,"current_range_meters":31200,"station_id":"ce4bgvp2rcd13ifvqct0","pricing_plan_id":"free"},{"bike_id":"7a3880c8-df66-4db0-97af-99785855549f","system_id":"levelo_inurba_marseille","lat":43.312778,"lon":5.401682,"is_reserved":false,"is_disabled":false,"rental_uris":{"android":"levelo://app?vid=7a3880c8-df66-4db0-97af-99785855549f","ios":"levelo://app?vid=7a3880c8-df66-4db0-97af-99785855549f"},"vehicle_type_id":"4","last_reported":1704830867,"current_range_meters":27600,"station_id":"ce4bh092rcd13ifvqd30","pricing_plan_id":"free"},{"bike_id":"183c8441-338e-422b-8bf0-f2bde2c56328","system_id":"levelo_inurba_marseille","lat":43.306412,"lon":5.401035,"is_reserved":false,"is_disabled":false,"rental_uris":{"android":"levelo://app?vid=183c8441-338e-422b-8bf0-f2bde2c56328","ios":"levelo://app?vid=183c8441-338e-422b-8bf0-f2bde2c56328"},"vehicle_type_id":"4","last_reported":1704830867,"current_range_meters":24000,"station_id":"ce4bh112rcd13ifvqda0","pricing_plan_id":"free"},{"bike_id":"cf73facc-2fa3-4e06-b8d6-de2b8c1ab653","system_id":"levelo_inurba_marseille","lat":43.312765,"lon":5.4017,"is_reserved":false,"is_disabled":false,"rental_uris":{"android":"levelo://app?vid=cf73facc-2fa3-4e06-b8d6-de2b8c1ab653","ios":"levelo://app?vid=cf73facc-2fa3-4e06-b8d6-de2b8c1ab653"},"vehicle_type_id":"4","last_reported":1704830867,"current_range_meters":29200,"station_id":"ce4bh092rcd13ifvqd30","pricing_plan_id":"free"},{"bike_id":"6ded6c57-50d6-461c-a554-1e6a58cf74aa","system_id":"levelo_inurba_marseille","lat":43.312609,"lon":5.401662,"is_reserved":false,"is_disabled":false,"rental_uris":{"android":"levelo://app?vid=6ded6c57-50d6-461c-a554-1e6a58cf74aa","ios":"levelo://app?vid=6ded6c57-50d6-461c-a554-1e6a58cf74aa"},"vehicle_type_id":"4","last_reported":1704830867,"current_range_meters":16000,"station_id":"ce4bh092rcd13ifvqd30","pricing_plan_id":"free"},{"bike_id":"6d0a125e-4420-4867-b83b-5d481be74bca","system_id":"levelo_inurba_marseille","lat":43.30927,"lon":5.40143,"is_reserved":false,"is_disabled":false,"rental_uris":{"android":"levelo://app?vid=6d0a125e-4420-4867-b83b-5d481be74bca","ios":"levelo://app?vid=6d0a125e-4420-4867-b83b-5d481be74bca"},"vehicle_type_id":"4","last_reported":1704830867,"current_range_meters":18800,"station_id":"ce4bgvp2rcd13ifvqct0","pricing_plan_id":"free"},{"bike_id":"f675d45c-d18c-4b87-baf5-d032c6b9539b","system_id":"levelo_inurba_marseille","lat":43.309371,"lon":5.401449,"is_reserved":false,"is_disabled":false,"rental_uris":{"android":"levelo://app?vid=f675d45c-d18c-4b87-baf5-d032c6b9539b","ios":"levelo://app?vid=f675d45c-d18c-4b87-baf5-d032c6b9539b"},"vehicle_type_id":"4","last_reported":1704830867,"current_range_meters":25200,"station_id":"ce4bgvp2rcd13ifvqct0","pricing_plan_id":"free"},{"bike_id":"286d0c61-c0c4-45e1-8c5d-9f8dc2d215f1","system_id":"levelo_inurba_marseille","lat":43.306412,"lon":5.401035,"is_reserved":false,"is_disabled":false,"rental_uris":{"android":"levelo://app?vid=286d0c61-c0c4-45e1-8c5d-9f8dc2d215f1","ios":"levelo://app?vid=286d0c61-c0c4-45e1-8c5d-9f8dc2d215f1"},"vehicle_type_id":"4","last_reported":1704830867,"current_range_meters":28400,"station_id":"ce4bh112rcd13ifvqda0","pricing_plan_id":"free"},{"bike_id":"8ba44336-282f-4cda-90bb-b7fe4482f748","system_id":"levelo_inurba_marseille","lat":43.3093,"lon":5.40147,"is_reserved":false,"is_disabled":false,"rental_uris":{"android":"levelo://app?vid=8ba44336-282f-4cda-90bb-b7fe4482f748","ios":"levelo://app?vid=8ba44336-282f-4cda-90bb-b7fe4482f748"},"vehicle_type_id":"4","last_reported":1704830867,"current_range_meters":24000,"station_id":"ce4bgvp2rcd13ifvqct0","pricing_plan_id":"free"},{"bike_id":"e12d72da-85a2-4583-b875-7ac80017c6e4","system_id":"levelo_inurba_marseille","lat":43.309371,"lon":5.401449,"is_reserved":false,"is_disabled":false,"rental_uris":{"android":"levelo://app?vid=e12d72da-85a2-4583-b875-7ac80017c6e4","ios":"levelo://app?vid=e12d72da-85a2-4583-b875-7ac80017c6e4"},"vehicle_type_id":"4","last_reported":1704830867,"current_range_meters":28000,"station_id":"ce4bgvp2rcd13ifvqct0","pricing_plan_id":"free"},{"bike_id":"85224a66-356a-449e-970b-29063edcd57c","system_id":"levelo_inurba_marseille","lat":43.306412,"lon":5.401035,"is_reserved":false,"is_disabled":false,"rental_uris":{"android":"levelo://app?vid=85224a66-356a-449e-970b-29063edcd57c","ios":"levelo://app?vid=85224a66-356a-449e-970b-29063edcd57c"},"vehicle_type_id":"4","last_reported":1704830867,"current_range_meters":20800,"station_id":"ce4bh112rcd13ifvqda0","pricing_plan_id":"free"},{"bike_id":"54ffbc00-7f11-46eb-8ba8-f883f08a6329","system_id":"levelo_inurba_marseille","lat":43.306412,"lon":5.401035,"is_reserved":false,"is_disabled":false,"rental_uris":{"android":"levelo://app?vid=54ffbc00-7f11-46eb-8ba8-f883f08a6329","ios":"levelo://app?vid=54ffbc00-7f11-46eb-8ba8-f883f08a6329"},"vehicle_type_id":"4","last_reported":1704830867,"current_range_meters":2800,"station_id":"ce4bh112rcd13ifvqda0","pricing_plan_id":"free"},{"bike_id":"d28573e1-4df4-4b5e-a0b4-dffcdd36df7f","system_id":"levelo_inurba_marseille","lat":43.306412,"lon":5.401035,"is_reserved":false,"is_disabled":false,"rental_uris":{"android":"levelo://app?vid=d28573e1-4df4-4b5e-a0b4-dffcdd36df7f","ios":"levelo://app?vid=d28573e1-4df4-4b5e-a0b4-dffcdd36df7f"},"vehicle_type_id":"4","last_reported":1704830867,"current_range_meters":20000,"station_id":"ce4bh112rcd13ifvqda0","pricing_plan_id":"free"},{"bike_id":"6668f8c3-55e3-4604-8f4a-c928f803f930","system_id":"levelo_inurba_marseille","lat":43.306412,"lon":5.401035,"is_reserved":false,"is_disabled":false,"rental_uris":{"android":"levelo://app?vid=6668f8c3-55e3-4604-8f4a-c928f803f930","ios":"levelo://app?vid=6668f8c3-55e3-4604-8f4a-c928f803f930"},"vehicle_type_id":"4","last_reported":1704830867,"current_range_meters":0,"station_id":"ce4bh112rcd13ifvqda0","pricing_plan_id":"free"},{"bike_id":"c1c0f418-8120-4ac4-9bff-565beba4a8bc","system_id":"levelo_inurba_marseille","lat":43.306297,"lon":5.400833,"is_reserved":false,"is_disabled":false,"rental_uris":{"android":"levelo://app?vid=c1c0f418-8120-4ac4-9bff-565beba4a8bc","ios":"levelo://app?vid=c1c0f418-8120-4ac4-9bff-565beba4a8bc"},"vehicle_type_id":"4","last_reported":1704830867,"current_range_meters":400,"station_id":"ce4bh112rcd13ifvqda0","pricing_plan_id":"free"},{"bike_id":"cbec5330-ff5f-4bd6-be85-4cd58c9701a2","system_id":"levelo_inurba_marseille","lat":43.301117,"lon":5.398795,"is_reserved":false,"is_disabled":false,"rental_uris":{"android":"levelo://app?vid=cbec5330-ff5f-4bd6-be85-4cd58c9701a2","ios":"levelo://app?vid=cbec5330-ff5f-4bd6-be85-4cd58c9701a2"},"vehicle_type_id":"4","last_reported":1704830867,"current_range_meters":1200,"station_id":"ce4bh0h2rcd13ifvqd40","pricing_plan_id":"free"},{"bike_id":"b56832cc-b306-44c8-8861-e4f81260d007","system_id":"levelo_inurba_marseille","lat":43.28727,"lon":5.36078,"is_reserved":false,"is_disabled":false,"rental_uris":{"android":"levelo://app?vid=b56832cc-b306-44c8-8861-e4f81260d007","ios":"levelo://app?vid=b56832cc-b306-44c8-8861-e4f81260d007"},"vehicle_type_id":"4","last_reported":1704830867,"current_range_meters":18000,"station_id":"cki0cbj6b192h4jlfktg","pricing_plan_id":"free"},{"bike_id":"5e57c29e-7ebe-4d24-9aa6-b33de229845d","system_id":"levelo_inurba_marseille","lat":43.28727,"lon":5.36078,"is_reserved":false,"is_disabled":false,"rental_uris":{"android":"levelo://app?vid=5e57c29e-7ebe-4d24-9aa6-b33de229845d","ios":"levelo://app?vid=5e57c29e-7ebe-4d24-9aa6-b33de229845d"},"vehicle_type_id":"4","last_reported":1704830867,"current_range_meters":28400,"station_id":"cki0cbj6b192h4jlfktg","pricing_plan_id":"free"},{"bike_id":"85ad7107-a89b-41f1-a22f-89e98ef06030","system_id":"levelo_inurba_marseille","lat":43.28727,"lon":5.36078,"is_reserved":false,"is_disabled":false,"rental_uris":{"android":"levelo://app?vid=85ad7107-a89b-41f1-a22f-89e98ef06030","ios":"levelo://app?vid=85ad7107-a89b-41f1-a22f-89e98ef06030"},"vehicle_type_id":"4","last_reported":1704830867,"current_range_meters":27600,"station_id":"cki0cbj6b192h4jlfktg","pricing_plan_id":"free"},{"bike_id":"1fea92ae-83a3-481e-a710-11fbf933fcef","system_id":"levelo_inurba_marseille","lat":43.28727,"lon":5.36078,"is_reserved":false,"is_disabled":false,"rental_uris":{"android":"levelo://app?vid=1fea92ae-83a3-481e-a710-11fbf933fcef","ios":"levelo://app?vid=1fea92ae-83a3-481e-a710-11fbf933fcef"},"vehicle_type_id":"4","last_reported":1704830867,"current_range_meters":27600,"station_id":"cki0cbj6b192h4jlfktg","pricing_plan_id":"free"},{"bike_id":"00462145-042f-41d8-a85f-a0f9cd03fe33","system_id":"levelo_inurba_marseille","lat":43.30462,"lon":5.40068,"is_reserved":false,"is_disabled":false,"rental_uris":{"android":"levelo://app?vid=00462145-042f-41d8-a85f-a0f9cd03fe33","ios":"levelo://app?vid=00462145-042f-41d8-a85f-a0f9cd03fe33"},"vehicle_type_id":"4","last_reported":1704830867,"current_range_meters":20400,"station_id":"","pricing_plan_id":"free"},{"bike_id":"288e8ddb-5a29-4084-a908-36c65db13c53","system_id":"levelo_inurba_marseille","lat":43.28727,"lon":5.36078,"is_reserved":false,"is_disabled":false,"rental_uris":{"android":"levelo://app?vid=288e8ddb-5a29-4084-a908-36c65db13c53","ios":"levelo://app?vid=288e8ddb-5a29-4084-a908-36c65db13c53"},"vehicle_type_id":"4","last_reported":1704830867,"current_range_meters":6800,"station_id":"cki0cbj6b192h4jlfktg","pricing_plan_id":"free"},{"bike_id":"7371e3c6-7cf7-47d9-b679-4fbd75fc1ec2","system_id":"levelo_inurba_marseille","lat":43.28727,"lon":5.36078,"is_reserved":false,"is_disabled":false,"rental_uris":{"android":"levelo://app?vid=7371e3c6-7cf7-47d9-b679-4fbd75fc1ec2","ios":"levelo://app?vid=7371e3c6-7cf7-47d9-b679-4fbd75fc1ec2"},"vehicle_type_id":"4","last_reported":1704830867,"current_range_meters":31600,"station_id":"cki0cbj6b192h4jlfktg","pricing_plan_id":"free"},{"bike_id":"9d09b590-f4b2-480c-ba10-ac7b0e57d17c","system_id":"levelo_inurba_marseille","lat":43.286591,"lon":5.363346,"is_reserved":false,"is_disabled":false,"rental_uris":{"android":"levelo://app?vid=9d09b590-f4b2-480c-ba10-ac7b0e57d17c","ios":"levelo://app?vid=9d09b590-f4b2-480c-ba10-ac7b0e57d17c"},"vehicle_type_id":"4","last_reported":1704830867,"current_range_meters":30800,"station_id":"ce4bhah2rcd13ifvqej0","pricing_plan_id":"free"},{"bike_id":"8b4df5fa-420e-4574-8de1-7e7b07dfc7eb","system_id":"levelo_inurba_marseille","lat":43.298681,"lon":5.397225,"is_reserved":false,"is_disabled":false,"rental_uris":{"android":"levelo://app?vid=8b4df5fa-420e-4574-8de1-7e7b07dfc7eb","ios":"levelo://app?vid=8b4df5fa-420e-4574-8de1-7e7b07dfc7eb"},"vehicle_type_id":"4","last_reported":1704830867,"current_range_meters":22400,"station_id":"ce4bh0h2rcd13ifvqd50","pricing_plan_id":"free"},{"bike_id":"fa9d89da-9e90-481d-9546-0d57a67db652","system_id":"levelo_inurba_marseille","lat":43.295196,"lon":5.39397,"is_reserved":false,"is_disabled":false,"rental_uris":{"android":"levelo://app?vid=fa9d89da-9e90-481d-9546-0d57a67db652","ios":"levelo://app?vid=fa9d89da-9e90-481d-9546-0d57a67db652"},"vehicle_type_id":"4","last_reported":1704830867,"current_range_meters":4800,"station_id":"ce4bh292rcd13ifvqdf0","pricing_plan_id":"free"},{"bike_id":"4de6d7c9-bc20-4d22-8ec5-b637f0ef6e32","system_id":"levelo_inurba_marseille","lat":43.28675,"lon":5.36332,"is_reserved":false,"is_disabled":false,"rental_uris":{"android":"levelo://app?vid=4de6d7c9-bc20-4d22-8ec5-b637f0ef6e32","ios":"levelo://app?vid=4de6d7c9-bc20-4d22-8ec5-b637f0ef6e32"},"vehicle_type_id":"4","last_reported":1704830867,"current_range_meters":0,"station_id":"ce4bhah2rcd13ifvqej0","pricing_plan_id":"free"},{"bike_id":"4562825a-6394-4d2d-813a-e9e6994a830e","system_id":"levelo_inurba_marseille","lat":43.286707,"lon":5.363393,"is_reserved":false,"is_disabled":false,"rental_uris":{"android":"levelo://app?vid=4562825a-6394-4d2d-813a-e9e6994a830e","ios":"levelo://app?vid=4562825a-6394-4d2d-813a-e9e6994a830e"},"vehicle_type_id":"4","last_reported":1704830867,"current_range_meters":400,"station_id":"ce4bhah2rcd13ifvqej0","pricing_plan_id":"free"},{"bike_id":"6d5df037-177a-40c2-8671-63907aa2ca0b","system_id":"levelo_inurba_marseille","lat":43.286591,"lon":5.363346,"is_reserved":false,"is_disabled":false,"rental_uris":{"android":"levelo://app?vid=6d5df037-177a-40c2-8671-63907aa2ca0b","ios":"levelo://app?vid=6d5df037-177a-40c2-8671-63907aa2ca0b"},"vehicle_type_id":"4","last_reported":1704830867,"current_range_meters":12000,"station_id":"ce4bhah2rcd13ifvqej0","pricing_plan_id":"free"},{"bike_id":"5aaadb46-f377-4656-bb1e-74b4d740bc6b","system_id":"levelo_inurba_marseille","lat":43.286591,"lon":5.363346,"is_reserved":false,"is_disabled":false,"rental_uris":{"android":"levelo://app?vid=5aaadb46-f377-4656-bb1e-74b4d740bc6b","ios":"levelo://app?vid=5aaadb46-f377-4656-bb1e-74b4d740bc6b"},"vehicle_type_id":"4","last_reported":1704830867,"current_range_meters":17600,"station_id":"ce4bhah2rcd13ifvqej0","pricing_plan_id":"free"},{"bike_id":"80b94df8-4fcf-4502-9356-06e601164742","system_id":"levelo_inurba_marseille","lat":43.286591,"lon":5.363346,"is_reserved":false,"is_disabled":false,"rental_uris":{"android":"levelo://app?vid=80b94df8-4fcf-4502-9356-06e601164742","ios":"levelo://app?vid=80b94df8-4fcf-4502-9356-06e601164742"},"vehicle_type_id":"4","last_reported":1704830867,"current_range_meters":15600,"station_id":"ce4bhah2rcd13ifvqej0","pricing_plan_id":"free"},{"bike_id":"81e09945-5b3b-40f4-8588-57751d0db042","system_id":"levelo_inurba_marseille","lat":43.286591,"lon":5.363346,"is_reserved":false,"is_disabled":false,"rental_uris":{"android":"levelo://app?vid=81e09945-5b3b-40f4-8588-57751d0db042","ios":"levelo://app?vid=81e09945-5b3b-40f4-8588-57751d0db042"},"vehicle_type_id":"4","last_reported":1704830867,"current_range_meters":0,"station_id":"ce4bhah2rcd13ifvqej0","pricing_plan_id":"free"},{"bike_id":"cb4ae437-d6e5-4163-be16-9d4185fb850f","system_id":"levelo_inurba_marseille","lat":43.287008,"lon":5.373849,"is_reserved":false,"is_disabled":false,"rental_uris":{"android":"levelo://app?vid=cb4ae437-d6e5-4163-be16-9d4185fb850f","ios":"levelo://app?vid=cb4ae437-d6e5-4163-be16-9d4185fb850f"},"vehicle_type_id":"4","last_reported":1704830867,"current_range_meters":14800,"station_id":"ce4bh3p2rcd13ifvqdq0","pricing_plan_id":"free"},{"bike_id":"3e24da4f-7fc1-4bdc-bef1-1bb831733047","system_id":"levelo_inurba_marseille","lat":43.287,"lon":5.37389,"is_reserved":false,"is_disabled":false,"rental_uris":{"android":"levelo://app?vid=3e24da4f-7fc1-4bdc-bef1-1bb831733047","ios":"levelo://app?vid=3e24da4f-7fc1-4bdc-bef1-1bb831733047"},"vehicle_type_id":"4","last_reported":1704830867,"current_range_meters":11600,"station_id":"ce4bh3p2rcd13ifvqdq0","pricing_plan_id":"free"},{"bike_id":"8284069e-b022-4b98-8b5f-a6f1442fb792","system_id":"levelo_inurba_marseille","lat":43.286591,"lon":5.363346,"is_reserved":false,"is_disabled":false,"rental_uris":{"android":"levelo://app?vid=8284069e-b022-4b98-8b5f-a6f1442fb792","ios":"levelo://app?vid=8284069e-b022-4b98-8b5f-a6f1442fb792"},"vehicle_type_id":"4","last_reported":1704830867,"current_range_meters":18400,"station_id":"ce4bhah2rcd13ifvqej0","pricing_plan_id":"free"},{"bike_id":"17a7dc42-d8ff-4f6f-9984-a1a6c34abc05","system_id":"levelo_inurba_marseille","lat":43.286991,"lon":5.37391,"is_reserved":false,"is_disabled":false,"rental_uris":{"android":"levelo://app?vid=17a7dc42-d8ff-4f6f-9984-a1a6c34abc05","ios":"levelo://app?vid=17a7dc42-d8ff-4f6f-9984-a1a6c34abc05"},"vehicle_type_id":"4","last_reported":1704830867,"current_range_meters":15200,"station_id":"ce4bh3p2rcd13ifvqdq0","pricing_plan_id":"free"},{"bike_id":"ae6216a6-1fa2-48e6-85dd-c0ea06549265","system_id":"levelo_inurba_marseille","lat":43.28695,"lon":5.37387,"is_reserved":false,"is_disabled":false,"rental_uris":{"android":"levelo://app?vid=ae6216a6-1fa2-48e6-85dd-c0ea06549265","ios":"levelo://app?vid=ae6216a6-1fa2-48e6-85dd-c0ea06549265"},"vehicle_type_id":"4","last_reported":1704830867,"current_range_meters":27600,"station_id":"ce4bh3p2rcd13ifvqdq0","pricing_plan_id":"free"},{"bike_id":"ad18b52f-8441-43dc-8640-38a264683542","system_id":"levelo_inurba_marseille","lat":43.302759,"lon":5.400793,"is_reserved":false,"is_disabled":false,"rental_uris":{"android":"levelo://app?vid=ad18b52f-8441-43dc-8640-38a264683542","ios":"levelo://app?vid=ad18b52f-8441-43dc-8640-38a264683542"},"vehicle_type_id":"4","last_reported":1704830867,"current_range_meters":31200,"station_id":"ce4bgvh2rcd13ifvqcs0","pricing_plan_id":"free"},{"bike_id":"c9db868f-7d17-4d91-9f01-15bf642f7746","system_id":"levelo_inurba_marseille","lat":43.28933,"lon":5.38352,"is_reserved":false,"is_disabled":false,"rental_uris":{"android":"levelo://app?vid=c9db868f-7d17-4d91-9f01-15bf642f7746","ios":"levelo://app?vid=c9db868f-7d17-4d91-9f01-15bf642f7746"},"vehicle_type_id":"4","last_reported":1704830867,"current_range_meters":12000,"station_id":"ce4bh612rcd13ifvqe6g","pricing_plan_id":"free"},{"bike_id":"5f1e1205-793d-4c56-91bb-858defe645ef","system_id":"levelo_inurba_marseille","lat":43.289307,"lon":5.38406,"is_reserved":false,"is_disabled":false,"rental_uris":{"android":"levelo://app?vid=5f1e1205-793d-4c56-91bb-858defe645ef","ios":"levelo://app?vid=5f1e1205-793d-4c56-91bb-858defe645ef"},"vehicle_type_id":"4","last_reported":1704830867,"current_range_meters":29200,"station_id":"ce4bh612rcd13ifvqe6g","pricing_plan_id":"free"},{"bike_id":"76b86dad-41d1-4f44-8fe9-98152969f375","system_id":"levelo_inurba_marseille","lat":43.28938,"lon":5.38392,"is_reserved":false,"is_disabled":false,"rental_uris":{"android":"levelo://app?vid=76b86dad-41d1-4f44-8fe9-98152969f375","ios":"levelo://app?vid=76b86dad-41d1-4f44-8fe9-98152969f375"},"vehicle_type_id":"4","last_reported":1704830867,"current_range_meters":8000,"station_id":"ce4bh612rcd13ifvqe6g","pricing_plan_id":"free"},{"bike_id":"fcbad8e6-958b-47db-baeb-9778ff65cccb","system_id":"levelo_inurba_marseille","lat":43.295194,"lon":5.39397,"is_reserved":false,"is_disabled":false,"rental_uris":{"android":"levelo://app?vid=fcbad8e6-958b-47db-baeb-9778ff65cccb","ios":"levelo://app?vid=fcbad8e6-958b-47db-baeb-9778ff65cccb"},"vehicle_type_id":"4","last_reported":1704830867,"current_range_meters":0,"station_id":"ce4bh292rcd13ifvqdf0","pricing_plan_id":"free"},{"bike_id":"b40f4e76-74b8-40e7-932c-3d58cf07d043","system_id":"levelo_inurba_marseille","lat":43.29034,"lon":5.3864,"is_reserved":false,"is_disabled":false,"rental_uris":{"android":"levelo://app?vid=b40f4e76-74b8-40e7-932c-3d58cf07d043","ios":"levelo://app?vid=b40f4e76-74b8-40e7-932c-3d58cf07d043"},"vehicle_type_id":"4","last_reported":1704830867,"current_range_meters":7200,"station_id":"ce4bh4p2rcd13ifvqe0g","pricing_plan_id":"free"},{"bike_id":"25bbc6ce-abc0-4eb7-86a9-41e08b23bfd7","system_id":"levelo_inurba_marseille","lat":43.290345,"lon":5.38646,"is_reserved":false,"is_disabled":false,"rental_uris":{"android":"levelo://app?vid=25bbc6ce-abc0-4eb7-86a9-41e08b23bfd7","ios":"levelo://app?vid=25bbc6ce-abc0-4eb7-86a9-41e08b23bfd7"},"vehicle_type_id":"4","last_reported":1704830867,"current_range_meters":6400,"station_id":"ce4bh4p2rcd13ifvqe0g","pricing_plan_id":"free"},{"bike_id":"b927980c-de09-4343-8084-6b7d404f5cf8","system_id":"levelo_inurba_marseille","lat":43.290345,"lon":5.38646,"is_reserved":false,"is_disabled":false,"rental_uris":{"android":"levelo://app?vid=b927980c-de09-4343-8084-6b7d404f5cf8","ios":"levelo://app?vid=b927980c-de09-4343-8084-6b7d404f5cf8"},