{"last_updated":1702487198,"ttl":30,"version":"2.2","data":{"bikes":[{"bike_id":"e0c7b702-83db-4fbc-8973-af382656afe9","system_id":"levelo_inurba_marseille","lat":43.312239,"lon":5.368562,"is_reserved":false,"is_disabled":false,"rental_uris":{"android":"levelo://app?vid=e0c7b702-83db-4fbc-8973-af382656afe9","ios":"levelo://app?vid=e0c7b702-83db-4fbc-8973-af382656afe9"},"vehicle_type_id":"4","last_reported":1702487198,"current_range_meters":0,"station_id":"ce4bgl92rcd13ifvqbq0","pricing_plan_id":"free"},{"bike_id":"2bd9bf2a-2bf3-4ced-b685-f2491b981d0f","system_id":"levelo_inurba_marseille","lat":43.309076,"lon":5.368465,"is_reserved":false,"is_disabled":false,"rental_uris":{"android":"levelo://app?vid=2bd9bf2a-2bf3-4ced-b685-f2491b981d0f","ios":"levelo://app?vid=2bd9bf2a-2bf3-4ced-b685-f2491b981d0f"},"vehicle_type_id":"4","last_reported":1702487198,"current_range_meters":28800,"station_id":"ce4bgn92rcd13ifvqbvg","pricing_plan_id":"free"},{"bike_id":"3f8b821f-e430-4a35-bf14-f8b6e777ea11","system_id":"levelo_inurba_marseille","lat":43.313939,"lon":5.375306,"is_reserved":false,"is_disabled":false,"rental_uris":{"android":"levelo://app?vid=3f8b821f-e430-4a35-bf14-f8b6e777ea11","ios":"levelo://app?vid=3f8b821f-e430-4a35-bf14-f8b6e777ea11"},"vehicle_type_id":"4","last_reported":1702487198,"current_range_meters":7200,"station_id":"","pricing_plan_id":"free"},{"bike_id":"529228f0-d819-44c0-bd0c-df8ce707b2ef","system_id":"levelo_inurba_marseille","lat":43.30537,"lon":5.367345,"is_reserved":false,"is_disabled":false,"rental_uris":{"android":"levelo://app?vid=529228f0-d819-44c0-bd0c-df8ce707b2ef","ios":"levelo://app?vid=529228f0-d819-44c0-bd0c-df8ce707b2ef"},"vehicle_type_id":"4","last_reported":1702487198,"current_range_meters":0,"station_id":"ce4bgrp2rcd13ifvqc9g","pricing_plan_id":"free"},{"bike_id":"955e4ab2-16e5-44e8-a986-a2f50ff96c06","system_id":"levelo_inurba_marseille","lat":43.305382,"lon":5.365389,"is_reserved":false,"is_disabled":false,"rental_uris":{"android":"levelo://app?vid=955e4ab2-16e5-44e8-a986-a2f50ff96c06","ios":"levelo://app?vid=955e4ab2-16e5-44e8-a986-a2f50ff96c06"},"vehicle_type_id":"4","last_reported":1702487198,"current_range_meters":26400,"station_id":"","pricing_plan_id":"free"},{"bike_id":"1a94cb4d-305d-4ffb-ae91-3241c9d52991","system_id":"levelo_inurba_marseille","lat":43.304606,"lon":5.379026,"is_reserved":false,"is_disabled":false,"rental_uris":{"android":"levelo://app?vid=1a94cb4d-305d-4ffb-ae91-3241c9d52991","ios":"levelo://app?vid=1a94cb4d-305d-4ffb-ae91-3241c9d52991"},"vehicle_type_id":"4","last_reported":1702487198,"current_range_meters":12800,"station_id":"ce4bgup2rcd13ifvqcn0","pricing_plan_id":"free"},{"bike_id":"dc68debd-6203-4696-b9a5-55eea857c5a0","system_id":"levelo_inurba_marseille","lat":43.317165,"lon":5.376825,"is_reserved":false,"is_disabled":false,"rental_uris":{"android":"levelo://app?vid=dc68debd-6203-4696-b9a5-55eea857c5a0","ios":"levelo://app?vid=dc68debd-6203-4696-b9a5-55eea857c5a0"},"vehicle_type_id":"4","last_reported":1702487198,"current_range_meters":23200,"station_id":"ce4bgth2rcd13ifvqch0","pricing_plan_id":"free"},{"bike_id":"227b454f-cbfd-4a97-b4c2-968569f53a3b","system_id":"levelo_inurba_marseille","lat":43.315293,"lon":5.380349,"is_reserved":false,"is_disabled":false,"rental_uris":{"android":"levelo://app?vid=227b454f-cbfd-4a97-b4c2-968569f53a3b","ios":"levelo://app?vid=227b454f-cbfd-4a97-b4c2-968569f53a3b"},"vehicle_type_id":"4","last_reported":1702487198,"current_range_meters":28400,"station_id":"ce4bhsp2rcd13ifvqi50","pricing_plan_id":"free"},{"bike_id":"b795cd07-df6b-4c4c-8507-2dcae79f9bad","system_id":"levelo_inurba_marseille","lat":43.309039,"lon":5.371797,"is_reserved":false,"is_disabled":false,"rental_uris":{"android":"levelo://app?vid=b795cd07-df6b-4c4c-8507-2dcae79f9bad","ios":"levelo://app?vid=b795cd07-df6b-4c4c-8507-2dcae79f9bad"},"vehicle_type_id":"4","last_reported":1702487198,"current_range_meters":4400,"station_id":"ce4bguh2rcd13ifvqckg","pricing_plan_id":"free"},{"bike_id":"5dbdc38e-b74c-48c4-b581-aa4fc0402d1a","system_id":"levelo_inurba_marseille","lat":43.30143,"lon":5.37413,"is_reserved":false,"is_disabled":false,"rental_uris":{"android":"levelo://app?vid=5dbdc38e-b74c-48c4-b581-aa4fc0402d1a","ios":"levelo://app?vid=5dbdc38e-b74c-48c4-b581-aa4fc0402d1a"},"vehicle_type_id":"4","last_reported":1702487198,"current_range_meters":19600,"station_id":"ce4bgs92rcd13ifvqcc0","pricing_plan_id":"free"},{"bike_id":"4956179e-483b-4c26-bdef-b95af16fab8d","system_id":"levelo_inurba_marseille","lat":43.31995,"lon":5.38151,"is_reserved":false,"is_disabled":false,"rental_uris":{"android":"levelo://app?vid=4956179e-483b-4c26-bdef-b95af16fab8d","ios":"levelo://app?vid=4956179e-483b-4c26-bdef-b95af16fab8d"},"vehicle_type_id":"4","last_reported":1702487198,"current_range_meters":18400,"station_id":"ce4bhr12rcd13ifvqhpg","pricing_plan_id":"free"},{"bike_id":"2b9904e4-d96c-4787-9173-0f078bcbc4b3","system_id":"levelo_inurba_marseille","lat":43.31359,"lon":5.3849,"is_reserved":false,"is_disabled":false,"rental_uris":{"android":"levelo://app?vid=2b9904e4-d96c-4787-9173-0f078bcbc4b3","ios":"levelo://app?vid=2b9904e4-d96c-4787-9173-0f078bcbc4b3"},"vehicle_type_id":"4","last_reported":1702487198,"current_range_meters":0,"station_id":"ce4bgt92rcd13ifvqcf0","pricing_plan_id":"free"},{"bike_id":"45a6f842-58d4-42eb-adf7-07577ff60091","system_id":"levelo_inurba_marseille","lat":43.313571,"lon":5.384829,"is_reserved":false,"is_disabled":false,"rental_uris":{"android":"levelo://app?vid=45a6f842-58d4-42eb-adf7-07577ff60091","ios":"levelo://app?vid=45a6f842-58d4-42eb-adf7-07577ff60091"},"vehicle_type_id":"4","last_reported":1702487198,"current_range_meters":26400,"station_id":"ce4bgt92rcd13ifvqcf0","pricing_plan_id":"free"},{"bike_id":"2b0fad47-7329-415b-b3ab-0219cce5e7ac","system_id":"levelo_inurba_marseille","lat":43.313571,"lon":5.384829,"is_reserved":false,"is_disabled":false,"rental_uris":{"android":"levelo://app?vid=2b0fad47-7329-415b-b3ab-0219cce5e7ac","ios":"levelo://app?vid=2b0fad47-7329-415b-b3ab-0219cce5e7ac"},"vehicle_type_id":"4","last_reported":1702487198,"current_range_meters":6400,"station_id":"ce4bgt92rcd13ifvqcf0","pricing_plan_id":"free"},{"bike_id":"77a6c46d-d898-4e4f-8846-efa91689c7f0","system_id":"levelo_inurba_marseille","lat":43.302006,"lon":5.38065,"is_reserved":false,"is_disabled":false,"rental_uris":{"android":"levelo://app?vid=77a6c46d-d898-4e4f-8846-efa91689c7f0","ios":"levelo://app?vid=77a6c46d-d898-4e4f-8846-efa91689c7f0"},"vehicle_type_id":"4","last_reported":1702487198,"current_range_meters":0,"station_id":"","pricing_plan_id":"free"},{"bike_id":"49e9024c-14bf-4161-9112-99b655166c49","system_id":"levelo_inurba_marseille","lat":43.311722,"lon":5.387247,"is_reserved":false,"is_disabled":false,"rental_uris":{"android":"levelo://app?vid=49e9024c-14bf-4161-9112-99b655166c49","ios":"levelo://app?vid=49e9024c-14bf-4161-9112-99b655166c49"},"vehicle_type_id":"4","last_reported":1702487198,"current_range_meters":17600,"station_id":"ce4bgv12rcd13ifvqcp0","pricing_plan_id":"free"},{"bike_id":"1c9c228c-5954-4155-a104-2a72ed6d3f0b","system_id":"levelo_inurba_marseille","lat":43.322872,"lon":5.382756,"is_reserved":false,"is_disabled":false,"rental_uris":{"android":"levelo://app?vid=1c9c228c-5954-4155-a104-2a72ed6d3f0b","ios":"levelo://app?vid=1c9c228c-5954-4155-a104-2a72ed6d3f0b"},"vehicle_type_id":"4","last_reported":1702487198,"current_range_meters":9200,"station_id":"ce4bhr12rcd13ifvqhqg","pricing_plan_id":"free"},{"bike_id":"85cf78a3-ed74-406c-a440-29e8c7a89565","system_id":"levelo_inurba_marseille","lat":43.32829,"lon":5.36696,"is_reserved":false,"is_disabled":false,"rental_uris":{"android":"levelo://app?vid=85cf78a3-ed74-406c-a440-29e8c7a89565","ios":"levelo://app?vid=85cf78a3-ed74-406c-a440-29e8c7a89565"},"vehicle_type_id":"4","last_reported":1702487198,"current_range_meters":21200,"station_id":"ce4bhs92rcd13ifvqi0g","pricing_plan_id":"free"},{"bike_id":"6f8e4ade-b159-49f9-8bc0-57ef09f62861","system_id":"levelo_inurba_marseille","lat":43.297163,"lon":5.365866,"is_reserved":false,"is_disabled":false,"rental_uris":{"android":"levelo://app?vid=6f8e4ade-b159-49f9-8bc0-57ef09f62861","ios":"levelo://app?vid=6f8e4ade-b159-49f9-8bc0-57ef09f62861"},"vehicle_type_id":"4","last_reported":1702487198,"current_range_meters":27200,"station_id":"ce4bgn12rcd13ifvqbt0","pricing_plan_id":"free"},{"bike_id":"cf14d050-5d5b-431d-9db2-fa2fdaa19797","system_id":"levelo_inurba_marseille","lat":43.299028,"lon":5.381509,"is_reserved":false,"is_disabled":false,"rental_uris":{"android":"levelo://app?vid=cf14d050-5d5b-431d-9db2-fa2fdaa19797","ios":"levelo://app?vid=cf14d050-5d5b-431d-9db2-fa2fdaa19797"},"vehicle_type_id":"4","last_reported":1702487198,"current_range_meters":16000,"station_id":"ce4bgj12rcd13ifvqbc0","pricing_plan_id":"free"},{"bike_id":"820a1329-5bce-47fe-8218-f752bec6b62b","system_id":"levelo_inurba_marseille","lat":43.299028,"lon":5.381509,"is_reserved":false,"is_disabled":false,"rental_uris":{"android":"levelo://app?vid=820a1329-5bce-47fe-8218-f752bec6b62b","ios":"levelo://app?vid=820a1329-5bce-47fe-8218-f752bec6b62b"},"vehicle_type_id":"4","last_reported":1702487198,"current_range_meters":17200,"station_id":"ce4bgj12rcd13ifvqbc0","pricing_plan_id":"free"},{"bike_id":"23bbe805-c94b-4a71-b6b3-02557ecd6b8b","system_id":"levelo_inurba_marseille","lat":43.31758,"lon":5.39002,"is_reserved":false,"is_disabled":false,"rental_uris":{"android":"levelo://app?vid=23bbe805-c94b-4a71-b6b3-02557ecd6b8b","ios":"levelo://app?vid=23bbe805-c94b-4a71-b6b3-02557ecd6b8b"},"vehicle_type_id":"4","last_reported":1702487198,"current_range_meters":24400,"station_id":"ce4bhqp2rcd13ifvqhng","pricing_plan_id":"free"},{"bike_id":"e9d78157-ab4a-41df-a9e7-085811189ed4","system_id":"levelo_inurba_marseille","lat":43.317557,"lon":5.390173,"is_reserved":false,"is_disabled":false,"rental_uris":{"android":"levelo://app?vid=e9d78157-ab4a-41df-a9e7-085811189ed4","ios":"levelo://app?vid=e9d78157-ab4a-41df-a9e7-085811189ed4"},"vehicle_type_id":"4","last_reported":1702487198,"current_range_meters":26000,"station_id":"ce4bhqp2rcd13ifvqhng","pricing_plan_id":"free"},{"bike_id":"2963d0ff-63dd-4972-8beb-3979bf199f2c","system_id":"levelo_inurba_marseille","lat":43.304278,"lon":5.388868,"is_reserved":false,"is_disabled":false,"rental_uris":{"android":"levelo://app?vid=2963d0ff-63dd-4972-8beb-3979bf199f2c","ios":"levelo://app?vid=2963d0ff-63dd-4972-8beb-3979bf199f2c"},"vehicle_type_id":"4","last_reported":1702487198,"current_range_meters":20800,"station_id":"ce4bgk12rcd13ifvqbi0","pricing_plan_id":"free"},{"bike_id":"2a969eee-040e-4dbb-8b47-ac54e741e294","system_id":"levelo_inurba_marseille","lat":43.304278,"lon":5.388868,"is_reserved":false,"is_disabled":false,"rental_uris":{"android":"levelo://app?vid=2a969eee-040e-4dbb-8b47-ac54e741e294","ios":"levelo://app?vid=2a969eee-040e-4dbb-8b47-ac54e741e294"},"vehicle_type_id":"4","last_reported":1702487198,"current_range_meters":800,"station_id":"ce4bgk12rcd13ifvqbi0","pricing_plan_id":"free"},{"bike_id":"adba7890-0a6d-4888-8e77-621fc3cee7e5","system_id":"levelo_inurba_marseille","lat":43.299825,"lon":5.38492,"is_reserved":false,"is_disabled":false,"rental_uris":{"android":"levelo://app?vid=adba7890-0a6d-4888-8e77-621fc3cee7e5","ios":"levelo://app?vid=adba7890-0a6d-4888-8e77-621fc3cee7e5"},"vehicle_type_id":"4","last_reported":1702487198,"current_range_meters":0,"station_id":"ce4bgj92rcd13ifvqbd0","pricing_plan_id":"free"},{"bike_id":"5515ee18-e232-42f5-b5dc-9d2710814282","system_id":"levelo_inurba_marseille","lat":43.32361,"lon":5.38884,"is_reserved":false,"is_disabled":false,"rental_uris":{"android":"levelo://app?vid=5515ee18-e232-42f5-b5dc-9d2710814282","ios":"levelo://app?vid=5515ee18-e232-42f5-b5dc-9d2710814282"},"vehicle_type_id":"4","last_reported":1702487198,"current_range_meters":12000,"station_id":"ce4bhqp2rcd13ifvqhog","pricing_plan_id":"free"},{"bike_id":"ef76321a-9b04-47b4-92de-d682e9f5920f","system_id":"levelo_inurba_marseille","lat":43.32366,"lon":5.38884,"is_reserved":false,"is_disabled":false,"rental_uris":{"android":"levelo://app?vid=ef76321a-9b04-47b4-92de-d682e9f5920f","ios":"levelo://app?vid=ef76321a-9b04-47b4-92de-d682e9f5920f"},"vehicle_type_id":"4","last_reported":1702487198,"current_range_meters":4800,"station_id":"ce4bhqp2rcd13ifvqhog","pricing_plan_id":"free"},{"bike_id":"7aa43ffc-78db-484a-8d60-858527897509","system_id":"levelo_inurba_marseille","lat":43.32371,"lon":5.38882,"is_reserved":false,"is_disabled":false,"rental_uris":{"android":"levelo://app?vid=7aa43ffc-78db-484a-8d60-858527897509","ios":"levelo://app?vid=7aa43ffc-78db-484a-8d60-858527897509"},"vehicle_type_id":"4","last_reported":1702487198,"current_range_meters":14800,"station_id":"ce4bhqp2rcd13ifvqhog","pricing_plan_id":"free"},{"bike_id":"48324545-8427-4737-953a-629777e4fcf8","system_id":"levelo_inurba_marseille","lat":43.29602,"lon":5.381084,"is_reserved":false,"is_disabled":false,"rental_uris":{"android":"levelo://app?vid=48324545-8427-4737-953a-629777e4fcf8","ios":"levelo://app?vid=48324545-8427-4737-953a-629777e4fcf8"},"vehicle_type_id":"4","last_reported":1702487198,"current_range_meters":0,"station_id":"ce4bgl12rcd13ifvqbo0","pricing_plan_id":"free"},{"bike_id":"f836b808-acbc-4755-9bd6-e3462315dd76","system_id":"levelo_inurba_marseille","lat":43.289307,"lon":5.38406,"is_reserved":false,"is_disabled":false,"rental_uris":{"android":"levelo://app?vid=f836b808-acbc-4755-9bd6-e3462315dd76","ios":"levelo://app?vid=f836b808-acbc-4755-9bd6-e3462315dd76"},"vehicle_type_id":"4","last_reported":1702487198,"current_range_meters":16400,"station_id":"ce4bh612rcd13ifvqe6g","pricing_plan_id":"free"},{"bike_id":"05e4876e-4ab5-4418-b4aa-0f7fffeebeaf","system_id":"levelo_inurba_marseille","lat":43.302992,"lon":5.392136,"is_reserved":false,"is_disabled":false,"rental_uris":{"android":"levelo://app?vid=05e4876e-4ab5-4418-b4aa-0f7fffeebeaf","ios":"levelo://app?vid=05e4876e-4ab5-4418-b4aa-0f7fffeebeaf"},"vehicle_type_id":"4","last_reported":1702487198,"current_range_meters":7200,"station_id":"ce4bgkh2rcd13ifvqbk0","pricing_plan_id":"free"},{"bike_id":"88342e32-8093-483c-97eb-8dc68ba76537","system_id":"levelo_inurba_marseille","lat":43.29877,"lon":5.38895,"is_reserved":false,"is_disabled":false,"rental_uris":{"android":"levelo://app?vid=88342e32-8093-483c-97eb-8dc68ba76537","ios":"levelo://app?vid=88342e32-8093-483c-97eb-8dc68ba76537"},"vehicle_type_id":"4","last_reported":1702487198,"current_range_meters":6400,"station_id":"","pricing_plan_id":"free"},{"bike_id":"4a1440cd-f3e0-4e75-aee8-e56f5e143d47","system_id":"levelo_inurba_marseille","lat":43.2987,"lon":5.38902,"is_reserved":false,"is_disabled":false,"rental_uris":{"android":"levelo://app?vid=4a1440cd-f3e0-4e75-aee8-e56f5e143d47","ios":"levelo://app?vid=4a1440cd-f3e0-4e75-aee8-e56f5e143d47"},"vehicle_type_id":"4","last_reported":1702487198,"current_range_meters":15600,"station_id":"","pricing_plan_id":"free"},{"bike_id":"08972f86-82fc-440a-8c72-168e1738fe4b","system_id":"levelo_inurba_marseille","lat":43.313291,"lon":5.396838,"is_reserved":false,"is_disabled":false,"rental_uris":{"android":"levelo://app?vid=08972f86-82fc-440a-8c72-168e1738fe4b","ios":"levelo://app?vid=08972f86-82fc-440a-8c72-168e1738fe4b"},"vehicle_type_id":"4","last_reported":1702487198,"current_range_meters":18400,"station_id":"ce4bgvp2rcd13ifvqcu0","pricing_plan_id":"free"},{"bike_id":"f7c5b4c7-7f05-45f8-8e2a-1197cc640296","system_id":"levelo_inurba_marseille","lat":43.313291,"lon":5.396838,"is_reserved":false,"is_disabled":false,"rental_uris":{"android":"levelo://app?vid=f7c5b4c7-7f05-45f8-8e2a-1197cc640296","ios":"levelo://app?vid=f7c5b4c7-7f05-45f8-8e2a-1197cc640296"},"vehicle_type_id":"4","last_reported":1702487198,"current_range_meters":1200,"station_id":"ce4bgvp2rcd13ifvqcu0","pricing_plan_id":"free"},{"bike_id":"7768e7d0-560d-4e51-ad21-c33dfe83044e","system_id":"levelo_inurba_marseille","lat":43.309047,"lon":5.396551,"is_reserved":false,"is_disabled":false,"rental_uris":{"android":"levelo://app?vid=7768e7d0-560d-4e51-ad21-c33dfe83044e","ios":"levelo://app?vid=7768e7d0-560d-4e51-ad21-c33dfe83044e"},"vehicle_type_id":"4","last_reported":1702487198,"current_range_meters":0,"station_id":"ce4bh012rcd13ifvqcv0","pricing_plan_id":"free"},{"bike_id":"50b95f3c-d4c4-49e5-b01c-6c09f345eabd","system_id":"levelo_inurba_marseille","lat":43.290624,"lon":5.359245,"is_reserved":false,"is_disabled":false,"rental_uris":{"android":"levelo://app?vid=50b95f3c-d4c4-49e5-b01c-6c09f345eabd","ios":"levelo://app?vid=50b95f3c-d4c4-49e5-b01c-6c09f345eabd"},"vehicle_type_id":"4","last_reported":1702487198,"current_range_meters":30000,"station_id":"ce4bha92rcd13ifvqeg0","pricing_plan_id":"free"},{"bike_id":"c33dc173-b89f-4af4-952a-f6a3114a0253","system_id":"levelo_inurba_marseille","lat":43.290624,"lon":5.359245,"is_reserved":false,"is_disabled":false,"rental_uris":{"android":"levelo://app?vid=c33dc173-b89f-4af4-952a-f6a3114a0253","ios":"levelo://app?vid=c33dc173-b89f-4af4-952a-f6a3114a0253"},"vehicle_type_id":"4","last_reported":1702487198,"current_range_meters":19200,"station_id":"ce4bha92rcd13ifvqeg0","pricing_plan_id":"free"},{"bike_id":"b8423239-993e-4dce-8805-86622b6d3b87","system_id":"levelo_inurba_marseille","lat":43.290631,"lon":5.359244,"is_reserved":false,"is_disabled":false,"rental_uris":{"android":"levelo://app?vid=b8423239-993e-4dce-8805-86622b6d3b87","ios":"levelo://app?vid=b8423239-993e-4dce-8805-86622b6d3b87"},"vehicle_type_id":"4","last_reported":1702487198,"current_range_meters":19200,"station_id":"ce4bha92rcd13ifvqeg0","pricing_plan_id":"free"},{"bike_id":"649854e5-2039-439e-bc4d-a872b9038916","system_id":"levelo_inurba_marseille","lat":43.294153,"lon":5.386305,"is_reserved":false,"is_disabled":false,"rental_uris":{"android":"levelo://app?vid=649854e5-2039-439e-bc4d-a872b9038916","ios":"levelo://app?vid=649854e5-2039-439e-bc4d-a872b9038916"},"vehicle_type_id":"4","last_reported":1702487198,"current_range_meters":12000,"station_id":"ce4bh2h2rcd13ifvqdh0","pricing_plan_id":"free"},{"bike_id":"2cd14799-8430-4a4c-8154-0098f213258d","system_id":"levelo_inurba_marseille","lat":43.289184,"lon":5.366408,"is_reserved":false,"is_disabled":false,"rental_uris":{"android":"levelo://app?vid=2cd14799-8430-4a4c-8154-0098f213258d","ios":"levelo://app?vid=2cd14799-8430-4a4c-8154-0098f213258d"},"vehicle_type_id":"4","last_reported":1702487198,"current_range_meters":800,"station_id":"ce4bhap2rcd13ifvqek0","pricing_plan_id":"free"},{"bike_id":"c0afce4e-6b51-4506-a22b-88f97d011d4f","system_id":"levelo_inurba_marseille","lat":43.289184,"lon":5.366408,"is_reserved":false,"is_disabled":false,"rental_uris":{"android":"levelo://app?vid=c0afce4e-6b51-4506-a22b-88f97d011d4f","ios":"levelo://app?vid=c0afce4e-6b51-4506-a22b-88f97d011d4f"},"vehicle_type_id":"4","last_reported":1702487198,"current_range_meters":20000,"station_id":"ce4bhap2rcd13ifvqek0","pricing_plan_id":"free"},{"bike_id":"49d23a39-8082-4747-9455-357282c81b03","system_id":"levelo_inurba_marseille","lat":43.28938,"lon":5.36403,"is_reserved":false,"is_disabled":false,"rental_uris":{"android":"levelo://app?vid=49d23a39-8082-4747-9455-357282c81b03","ios":"levelo://app?vid=49d23a39-8082-4747-9455-357282c81b03"},"vehicle_type_id":"4","last_reported":1702487198,"current_range_meters":8000,"station_id":"ce4bhc92rcd13ifvqetg","pricing_plan_id":"free"},{"bike_id":"a38914e9-f711-4515-a761-1bd7915972e4","system_id":"levelo_inurba_marseille","lat":43.289184,"lon":5.366408,"is_reserved":false,"is_disabled":false,"rental_uris":{"android":"levelo://app?vid=a38914e9-f711-4515-a761-1bd7915972e4","ios":"levelo://app?vid=a38914e9-f711-4515-a761-1bd7915972e4"},"vehicle_type_id":"4","last_reported":1702487198,"current_range_meters":4800,"station_id":"ce4bhap2rcd13ifvqek0","pricing_plan_id":"free"},{"bike_id":"9325b271-b634-4211-9eab-ee0490a1c237","system_id":"levelo_inurba_marseille","lat":43.292644,"lon":5.384257,"is_reserved":false,"is_disabled":false,"rental_uris":{"android":"levelo://app?vid=9325b271-b634-4211-9eab-ee0490a1c237","ios":"levelo://app?vid=9325b271-b634-4211-9eab-ee0490a1c237"},"vehicle_type_id":"4","last_reported":1702487198,"current_range_meters":2400,"station_id":"ce4bh692rcd13ifvqea0","pricing_plan_id":"free"},{"bike_id":"2b309533-48ac-425c-a3e9-d4a986c8eb23","system_id":"levelo_inurba_marseille","lat":43.290104,"lon":5.356111,"is_reserved":false,"is_disabled":false,"rental_uris":{"android":"levelo://app?vid=2b309533-48ac-425c-a3e9-d4a986c8eb23","ios":"levelo://app?vid=2b309533-48ac-425c-a3e9-d4a986c8eb23"},"vehicle_type_id":"4","last_reported":1702487198,"current_range_meters":0,"station_id":"ce4bhb92rcd13ifvqen0","pricing_plan_id":"free"},{"bike_id":"d611f202-63b9-4f5a-861a-829fb0141b27","system_id":"levelo_inurba_marseille","lat":43.33041,"lon":5.38922,"is_reserved":false,"is_disabled":false,"rental_uris":{"android":"levelo://app?vid=d611f202-63b9-4f5a-861a-829fb0141b27","ios":"levelo://app?vid=d611f202-63b9-4f5a-861a-829fb0141b27"},"vehicle_type_id":"4","last_reported":1702487198,"current_range_meters":24800,"station_id":"ce4bhr92rcd13ifvqhrg","pricing_plan_id":"free"},{"bike_id":"0a75e64e-3c37-473e-92cc-4953104d2425","system_id":"levelo_inurba_marseille","lat":43.33044,"lon":5.38919,"is_reserved":false,"is_disabled":false,"rental_uris":{"android":"levelo://app?vid=0a75e64e-3c37-473e-92cc-4953104d2425","ios":"levelo://app?vid=0a75e64e-3c37-473e-92cc-4953104d2425"},"vehicle_type_id":"4","last_reported":1702487198,"current_range_meters":24400,"station_id":"ce4bhr92rcd13ifvqhrg","pricing_plan_id":"free"},{"bike_id":"374d21df-b28a-4c21-8a2e-edd4b5363a44","system_id":"levelo_inurba_marseille","lat":43.290103,"lon":5.356114,"is_reserved":false,"is_disabled":false,"rental_uris":{"android":"levelo://app?vid=374d21df-b28a-4c21-8a2e-edd4b5363a44","ios":"levelo://app?vid=374d21df-b28a-4c21-8a2e-edd4b5363a44"},"vehicle_type_id":"4","last_reported":1702487198,"current_range_meters":6800,"station_id":"ce4bhb92rcd13ifvqen0","pricing_plan_id":"free"},{"bike_id":"c718c734-35df-4d85-a02e-4d391fe0b0f4","system_id":"levelo_inurba_marseille","lat":43.297815,"lon":5.393548,"is_reserved":false,"is_disabled":false,"rental_uris":{"android":"levelo://app?vid=c718c734-35df-4d85-a02e-4d391fe0b0f4","ios":"levelo://app?vid=c718c734-35df-4d85-a02e-4d391fe0b0f4"},"vehicle_type_id":"4","last_reported":1702487198,"current_range_meters":9200,"station_id":"chh1huq6cuj3fo74tm60","pricing_plan_id":"free"},{"bike_id":"0314feb1-8bca-475a-9d45-34298b5c6a49","system_id":"levelo_inurba_marseille","lat":43.295169,"lon":5.390426,"is_reserved":false,"is_disabled":false,"rental_uris":{"android":"levelo://app?vid=0314feb1-8bca-475a-9d45-34298b5c6a49","ios":"levelo://app?vid=0314feb1-8bca-475a-9d45-34298b5c6a49"},"vehicle_type_id":"4","last_reported":1702487198,"current_range_meters":15200,"station_id":"ce4bh3p2rcd13ifvqdp0","pricing_plan_id":"free"},{"bike_id":"284caa1a-d112-48c9-b532-202f451d3d89","system_id":"levelo_inurba_marseille","lat":43.28856,"lon":5.358371,"is_reserved":false,"is_disabled":false,"rental_uris":{"android":"levelo://app?vid=284caa1a-d112-48c9-b532-202f451d3d89","ios":"levelo://app?vid=284caa1a-d112-48c9-b532-202f451d3d89"},"vehicle_type_id":"4","last_reported":1702487198,"current_range_meters":16400,"station_id":"ce4bhb12rcd13ifvqem0","pricing_plan_id":"free"},{"bike_id":"a297154a-e6ea-4e51-b4d3-7347ad8abbd7","system_id":"levelo_inurba_marseille","lat":43.30642,"lon":5.401031,"is_reserved":false,"is_disabled":false,"rental_uris":{"android":"levelo://app?vid=a297154a-e6ea-4e51-b4d3-7347ad8abbd7","ios":"levelo://app?vid=a297154a-e6ea-4e51-b4d3-7347ad8abbd7"},"vehicle_type_id":"4","last_reported":1702487198,"current_range_meters":10400,"station_id":"ce4bh112rcd13ifvqda0","pricing_plan_id":"free"},{"bike_id":"aba96444-48d6-47ed-a2f3-105dcf5aab98","system_id":"levelo_inurba_marseille","lat":43.33749,"lon":5.37452,"is_reserved":false,"is_disabled":false,"rental_uris":{"android":"levelo://app?vid=aba96444-48d6-47ed-a2f3-105dcf5aab98","ios":"levelo://app?vid=aba96444-48d6-47ed-a2f3-105dcf5aab98"},"vehicle_type_id":"4","last_reported":1702487198,"current_range_meters":18000,"station_id":"","pricing_plan_id":"free"},{"bike_id":"fa23bc4c-3492-4ba5-ab13-c42e18316583","system_id":"levelo_inurba_marseille","lat":43.3376,"lon":5.37456,"is_reserved":false,"is_disabled":false,"rental_uris":{"android":"levelo://app?vid=fa23bc4c-3492-4ba5-ab13-c42e18316583","ios":"levelo://app?vid=fa23bc4c-3492-4ba5-ab13-c42e18316583"},"vehicle_type_id":"4","last_reported":1702487198,"current_range_meters":31200,"station_id":"","pricing_plan_id":"free"},{"bike_id":"d26d58e1-6968-4755-a5df-fa3aa7d263a0","system_id":"levelo_inurba_marseille","lat":43.28727,"lon":5.36078,"is_reserved":false,"is_disabled":false,"rental_uris":{"android":"levelo://app?vid=d26d58e1-6968-4755-a5df-fa3aa7d263a0","ios":"levelo://app?vid=d26d58e1-6968-4755-a5df-fa3aa7d263a0"},"vehicle_type_id":"4","last_reported":1702487198,"current_range_meters":10400,"station_id":"cki0cbj6b192h4jlfktg","pricing_plan_id":"free"},{"bike_id":"408da0df-54f4-4b55-bd7f-159c4d1bb93b","system_id":"levelo_inurba_marseille","lat":43.286591,"lon":5.363346,"is_reserved":false,"is_disabled":false,"rental_uris":{"android":"levelo://app?vid=408da0df-54f4-4b55-bd7f-159c4d1bb93b","ios":"levelo://app?vid=408da0df-54f4-4b55-bd7f-159c4d1bb93b"},"vehicle_type_id":"4","last_reported":1702487198,"current_range_meters":12800,"station_id":"ce4bhah2rcd13ifvqej0","pricing_plan_id":"free"},{"bike_id":"e56054b9-b7c6-4845-bbb1-7b6828a742c9","system_id":"levelo_inurba_marseille","lat":43.295194,"lon":5.39397,"is_reserved":false,"is_disabled":false,"rental_uris":{"android":"levelo://app?vid=e56054b9-b7c6-4845-bbb1-7b6828a742c9","ios":"levelo://app?vid=e56054b9-b7c6-4845-bbb1-7b6828a742c9"},"vehicle_type_id":"4","last_reported":1702487198,"current_range_meters":0,"station_id":"ce4bh292rcd13ifvqdf0","pricing_plan_id":"free"},{"bike_id":"8c66b381-aeba-4d2a-8145-23e7f4b20fa4","system_id":"levelo_inurba_marseille","lat":43.295196,"lon":5.39397,"is_reserved":false,"is_disabled":false,"rental_uris":{"android":"levelo://app?vid=8c66b381-aeba-4d2a-8145-23e7f4b20fa4","ios":"levelo://app?vid=8c66b381-aeba-4d2a-8145-23e7f4b20fa4"},"vehicle_type_id":"4","last_reported":1702487198,"current_range_meters":24000,"station_id":"ce4bh292rcd13ifvqdf0","pricing_plan_id":"free"},{"bike_id":"17ad54fa-30dd-43a6-8536-35935c3c0b86","system_id":"levelo_inurba_marseille","lat":43.286039,"lon":5.370681,"is_reserved":false,"is_disabled":false,"rental_uris":{"android":"levelo://app?vid=17ad54fa-30dd-43a6-8536-35935c3c0b86","ios":"levelo://app?vid=17ad54fa-30dd-43a6-8536-35935c3c0b86"},"vehicle_type_id":"4","last_reported":1702487198,"current_range_meters":5200,"station_id":"ce4bht12rcd13ifvqi60","pricing_plan_id":"free"},{"bike_id":"18156fdb-af2e-4fc7-8c82-26a401ddb7fc","system_id":"levelo_inurba_marseille","lat":43.291994,"lon":5.392907,"is_reserved":false,"is_disabled":false,"rental_uris":{"android":"levelo://app?vid=18156fdb-af2e-4fc7-8c82-26a401ddb7fc","ios":"levelo://app?vid=18156fdb-af2e-4fc7-8c82-26a401ddb7fc"},"vehicle_type_id":"4","last_reported":1702487198,"current_range_meters":19600,"station_id":"ce4bh192rcd13ifvqdd0","pricing_plan_id":"free"},{"bike_id":"d53f405f-596e-436f-aae4-48b0864b4a35","system_id":"levelo_inurba_marseille","lat":43.28515,"lon":5.37711,"is_reserved":false,"is_disabled":false,"rental_uris":{"android":"levelo://app?vid=d53f405f-596e-436f-aae4-48b0864b4a35","ios":"levelo://app?vid=d53f405f-596e-436f-aae4-48b0864b4a35"},"vehicle_type_id":"4","last_reported":1702487198,"current_range_meters":0,"station_id":"ce4bh412rcd13ifvqds0","pricing_plan_id":"free"},{"bike_id":"cb3aa72d-67b4-445e-8008-cb1d966bf1e9","system_id":"levelo_inurba_marseille","lat":43.284538,"lon":5.358657,"is_reserved":false,"is_disabled":false,"rental_uris":{"android":"levelo://app?vid=cb3aa72d-67b4-445e-8008-cb1d966bf1e9","ios":"levelo://app?vid=cb3aa72d-67b4-445e-8008-cb1d966bf1e9"},"vehicle_type_id":"4","last_reported":1702487198,"current_range_meters":12800,"station_id":"ce4bhah2rcd13ifvqei0","pricing_plan_id":"free"},{"bike_id":"b34fae22-2ff5-4f79-9b0f-ef8097effb55","system_id":"levelo_inurba_marseille","lat":43.284538,"lon":5.358657,"is_reserved":false,"is_disabled":false,"rental_uris":{"android":"levelo://app?vid=b34fae22-2ff5-4f79-9b0f-ef8097effb55","ios":"levelo://app?vid=b34fae22-2ff5-4f79-9b0f-ef8097effb55"},"vehicle_type_id":"4","last_reported":1702487198,"current_range_meters":6400,"station_id":"ce4bhah2rcd13ifvqei0","pricing_plan_id":"free"},{"bike_id":"12388d7a-d7ed-44b7-82f2-c9380edc9c16","system_id":"levelo_inurba_marseille","lat":43.294314,"lon":5.397498,"is_reserved":false,"is_disabled":false,"rental_uris":{"android":"levelo://app?vid=12388d7a-d7ed-44b7-82f2-c9380edc9c16","ios":"levelo://app?vid=12388d7a-d7ed-44b7-82f2-c9380edc9c16"},"vehicle_type_id":"4","last_reported":1702487198,"current_range_meters":14800,"station_id":"ce4bh3h2rcd13ifvqdo0","pricing_plan_id":"free"},{"bike_id":"ff655ba9-9436-490e-b6d3-f95a22679d75","system_id":"levelo_inurba_marseille","lat":43.285848,"lon":5.350787,"is_reserved":false,"is_disabled":false,"rental_uris":{"android":"levelo://app?vid=ff655ba9-9436-490e-b6d3-f95a22679d75","ios":"levelo://app?vid=ff655ba9-9436-490e-b6d3-f95a22679d75"},"vehicle_type_id":"4","last_reported":1702487198,"current_range_meters":14800,"station_id":"ce4bhch2rcd13ifvqeug","pricing_plan_id":"free"},{"bike_id":"5bb8c9b7-52a8-44fb-8e0b-89519428e3e6","system_id":"levelo_inurba_marseille","lat":43.285848,"lon":5.350787,"is_reserved":false,"is_disabled":false,"rental_uris":{"android":"levelo://app?vid=5bb8c9b7-52a8-44fb-8e0b-89519428e3e6","ios":"levelo://app?vid=5bb8c9b7-52a8-44fb-8e0b-89519428e3e6"},"vehicle_type_id":"4","last_reported":1702487198,"current_range_meters":16000,"station_id":"ce4bhch2rcd13ifvqeug","pricing_plan_id":"free"},{"bike_id":"b8d6705b-c23b-455f-8bce-c55022e279bf","system_id":"levelo_inurba_marseille","lat":43.32346,"lon":5.40612,"is_reserved":false,"is_disabled":false,"rental_uris":{"android":"levelo://app?vid=b8d6705b-c23b-455f-8bce-c55022e279bf","ios":"levelo://app?vid=b8d6705b-c23b-455f-8bce-c55022e279bf"},"vehicle_type_id":"4","last_reported":1702487198,"current_range_meters":21200,"station_id":"","pricing_plan_id":"free"},{"bike_id":"284ad9ba-b0aa-4906-9976-b6cde5152d78","system_id":"levelo_inurba_marseille","lat":43.32344,"lon":5.40616,"is_reserved":false,"is_disabled":false,"rental_uris":{"android":"levelo://app?vid=284ad9ba-b0aa-4906-9976-b6cde5152d78","ios":"levelo://app?vid=284ad9ba-b0aa-4906-9976-b6cde5152d78"},"vehicle_type_id":"4","last_reported":1702487198,"current_range_meters":3200,"station_id":"","pricing_plan_id":"free"},{"bike_id":"d414d5d7-3c33-4ad7-b50e-c26b7dbb3f87","system_id":"levelo_inurba_marseille","lat":43.297946,"lon":5.404063,"is_reserved":false,"is_disabled":false,"rental_uris":{"android":"levelo://app?vid=d414d5d7-3c33-4ad7-b50e-c26b7dbb3f87","ios":"levelo://app?vid=d414d5d7-3c33-4ad7-b50e-c26b7dbb3f87"},"vehicle_type_id":"4","last_reported":1702487198,"current_range_meters":19600,"station_id":"ce4bh112rcd13ifvqd90","pricing_plan_id":"free"},{"bike_id":"06ca8534-65b4-4774-a7c8-03b5af893c6a","system_id":"levelo_inurba_marseille","lat":43.32124,"lon":5.40787,"is_reserved":false,"is_disabled":false,"rental_uris":{"android":"levelo://app?vid=06ca8534-65b4-4774-a7c8-03b5af893c6a","ios":"levelo://app?vid=06ca8534-65b4-4774-a7c8-03b5af893c6a"},"vehicle_type_id":"4","last_reported":1702487198,"current_range_meters":8000,"station_id":"","pricing_plan_id":"free"},{"bike_id":"5c0dc56d-6aab-49c4-b6d8-7fb722e20db5","system_id":"levelo_inurba_marseille","lat":43.284217,"lon":5.349697,"is_reserved":false,"is_disabled":false,"rental_uris":{"android":"levelo://app?vid=5c0dc56d-6aab-49c4-b6d8-7fb722e20db5","ios":"levelo://app?vid=5c0dc56d-6aab-49c4-b6d8-7fb722e20db5"},"vehicle_type_id":"4","last_reported":1702487198,"current_range_meters":9600,"station_id":"ce4bhbh2rcd13ifvqepg","pricing_plan_id":"free"},{"bike_id":"64b349c1-0a18-476f-991c-f5a23082b206","system_id":"levelo_inurba_marseille","lat":43.284219,"lon":5.3497,"is_reserved":false,"is_disabled":false,"rental_uris":{"android":"levelo://app?vid=64b349c1-0a18-476f-991c-f5a23082b206","ios":"levelo://app?vid=64b349c1-0a18-476f-991c-f5a23082b206"},"vehicle_type_id":"4","last_reported":1702487198,"current_range_meters":26800,"station_id":"ce4bhbh2rcd13ifvqepg","pricing_plan_id":"free"},{"bike_id":"bc91c231-87cd-4d12-9712-1aefcf8158fb","system_id":"levelo_inurba_marseille","lat":43.284217,"lon":5.349697,"is_reserved":false,"is_disabled":false,"rental_uris":{"android":"levelo://app?vid=bc91c231-87cd-4d12-9712-1aefcf8158fb","ios":"levelo://app?vid=bc91c231-87cd-4d12-9712-1aefcf8158fb"},"vehicle_type_id":"4","last_reported":1702487198,"current_range_meters":22400,"station_id":"ce4bhbh2rcd13ifvqepg","pricing_plan_id":"free"},{"bike_id":"aa9b8af8-962f-408c-bb5d-65f0b7c21206","system_id":"levelo_inurba_marseille","lat":43.284217,"lon":5.349697,"is_reserved":false,"is_disabled":false,"rental_uris":{"android":"levelo://app?vid=aa9b8af8-962f-408c-bb5d-65f0b7c21206","ios":"levelo://app?vid=aa9b8af8-962f-408c-bb5d-65f0b7c21206"},"vehicle_type_id":"4","last_reported":1702487198,"current_range_meters":11600,"station_id":"ce4bhbh2rcd13ifvqepg","pricing_plan_id":"free"},{"bike_id":"ea323551-664b-4fbc-9794-27f6e7baf0f6","system_id":"levelo_inurba_marseille","lat":43.282744,"lon":5.350533,"is_reserved":false,"is_disabled":false,"rental_uris":{"android":"levelo://app?vid=ea323551-664b-4fbc-9794-27f6e7baf0f6","ios":"levelo://app?vid=ea323551-664b-4fbc-9794-27f6e7baf0f6"},"vehicle_type_id":"4","last_reported":1702487198,"current_range_meters":5200,"station_id":"ce4bhbp2rcd13ifvqerg","pricing_plan_id":"free"},{"bike_id":"6aba93d2-c837-449d-a825-dfb064e79028","system_id":"levelo_inurba_marseille","lat":43.304188,"lon":5.412904,"is_reserved":false,"is_disabled":false,"rental_uris":{"android":"levelo://app?vid=6aba93d2-c837-449d-a825-dfb064e79028","ios":"levelo://app?vid=6aba93d2-c837-449d-a825-dfb064e79028"},"vehicle_type_id":"4","last_reported":1702487198,"current_range_meters":8800,"station_id":"ce4bhop2rcd13ifvqh8g","pricing_plan_id":"free"},{"bike_id":"07240b03-eba4-456a-b056-fbc4a3f32a2a","system_id":"levelo_inurba_marseille","lat":43.30419,"lon":5.41281,"is_reserved":false,"is_disabled":false,"rental_uris":{"android":"levelo://app?vid=07240b03-eba4-456a-b056-fbc4a3f32a2a","ios":"levelo://app?vid=07240b03-eba4-456a-b056-fbc4a3f32a2a"},"vehicle_type_id":"4","last_reported":1702487198,"current_range_meters":18800,"station_id":"ce4bhop2rcd13ifvqh8g","pricing_plan_id":"free"},{"bike_id":"fd742d58-919a-4269-a846-6d4a55c1b297","system_id":"levelo_inurba_marseille","lat":43.304275,"lon":5.41304,"is_reserved":false,"is_disabled":false,"rental_uris":{"android":"levelo://app?vid=fd742d58-919a-4269-a846-6d4a55c1b297","ios":"levelo://app?vid=fd742d58-919a-4269-a846-6d4a55c1b297"},"vehicle_type_id":"4","last_reported":1702487198,"current_range_meters":24800,"station_id":"ce4bhop2rcd13ifvqh8g","pricing_plan_id":"free"},{"bike_id":"85f3d3c8-55cf-4bea-8826-ea7b03087072","system_id":"levelo_inurba_marseille","lat":43.279087,"lon":5.380114,"is_reserved":false,"is_disabled":false,"rental_uris":{"android":"levelo://app?vid=85f3d3c8-55cf-4bea-8826-ea7b03087072","ios":"levelo://app?vid=85f3d3c8-55cf-4bea-8826-ea7b03087072"},"vehicle_type_id":"4","last_reported":1702487198,"current_range_meters":30000,"station_id":"ce4bhf92rcd13ifvqf50","pricing_plan_id":"free"},{"bike_id":"fc11f647-9fc3-424d-afad-ab2f59cc118b","system_id":"levelo_inurba_marseille","lat":43.287154,"lon":5.399979,"is_reserved":false,"is_disabled":false,"rental_uris":{"android":"levelo://app?vid=fc11f647-9fc3-424d-afad-ab2f59cc118b","ios":"levelo://app?vid=fc11f647-9fc3-424d-afad-ab2f59cc118b"},"vehicle_type_id":"4","last_reported":1702487198,"current_range_meters":27200,"station_id":"ce4bho92rcd13ifvqh3g","pricing_plan_id":"free"},{"bike_id":"5a7d3c2d-90f2-4efa-bca2-622e4238b71f","system_id":"levelo_inurba_marseille","lat":43.292571,"lon":5.409107,"is_reserved":false,"is_disabled":false,"rental_uris":{"android":"levelo://app?vid=5a7d3c2d-90f2-4efa-bca2-622e4238b71f","ios":"levelo://app?vid=5a7d3c2d-90f2-4efa-bca2-622e4238b71f"},"vehicle_type_id":"4","last_reported":1702487198,"current_range_meters":1600,"station_id":"ce4bh192rcd13ifvqdc0","pricing_plan_id":"free"},{"bike_id":"6c8ccec2-7d52-4326-a16e-b24763c7fe77","system_id":"levelo_inurba_marseille","lat":43.303565,"lon":5.418814,"is_reserved":false,"is_disabled":false,"rental_uris":{"android":"levelo://app?vid=6c8ccec2-7d52-4326-a16e-b24763c7fe77","ios":"levelo://app?vid=6c8ccec2-7d52-4326-a16e-b24763c7fe77"},"vehicle_type_id":"4","last_reported":1702487198,"current_range_meters":18400,"station_id":"ce4bhop2rcd13ifvqh7g","pricing_plan_id":"free"},{"bike_id":"ca1cc434-5257-4fb4-9b47-ed1339a84ae9","system_id":"levelo_inurba_marseille","lat":43.276771,"lon":5.388799,"is_reserved":false,"is_disabled":false,"rental_uris":{"android":"levelo://app?vid=ca1cc434-5257-4fb4-9b47-ed1339a84ae9","ios":"levelo://app?vid=ca1cc434-5257-4fb4-9b47-ed1339a84ae9"},"vehicle_type_id":"4","last_reported":1702487198,"current_range_meters":400,"station_id":"ce4bhi12rcd13ifvqfo0","pricing_plan_id":"free"},{"bike_id":"784485c4-59ec-40e4-a312-c04d466aeda6","system_id":"levelo_inurba_marseille","lat":43.280351,"lon":5.399279,"is_reserved":false,"is_disabled":false,"rental_uris":{"android":"levelo://app?vid=784485c4-59ec-40e4-a312-c04d466aeda6","ios":"levelo://app?vid=784485c4-59ec-40e4-a312-c04d466aeda6"},"vehicle_type_id":"4","last_reported":1702487198,"current_range_meters":15200,"station_id":"","pricing_plan_id":"free"},{"bike_id":"d40c5958-55be-4dfd-9420-b06e88cb3eee","system_id":"levelo_inurba_marseille","lat":43.279952,"lon":5.400085,"is_reserved":false,"is_disabled":false,"rental_uris":{"android":"levelo://app?vid=d40c5958-55be-4dfd-9420-b06e88cb3eee","ios":"levelo://app?vid=d40c5958-55be-4dfd-9420-b06e88cb3eee"},"vehicle_type_id":"4","last_reported":1702487198,"current_range_meters":12000,"station_id":"ce4bho92rcd13ifvqh4g","pricing_plan_id":"free"},{"bike_id":"fe0a789f-e57a-472a-b8c8-b3b0f92ab63e","system_id":"levelo_inurba_marseille","lat":43.317121,"lon":5.423936,"is_reserved":false,"is_disabled":false,"rental_uris":{"android":"levelo://app?vid=fe0a789f-e57a-472a-b8c8-b3b0f92ab63e","ios":"levelo://app?vid=fe0a789f-e57a-472a-b8c8-b3b0f92ab63e"},"vehicle_type_id":"4","last_reported":1702487198,"current_range_meters":30000,"station_id":"ce4bhp92rcd13ifvqhbg","pricing_plan_id":"free"},{"bike_id":"49632bd5-9313-4d8c-8155-9f68a316ec71","system_id":"levelo_inurba_marseille","lat":43.317121,"lon":5.423936,"is_reserved":false,"is_disabled":false,"rental_uris":{"android":"levelo://app?vid=49632bd5-9313-4d8c-8155-9f68a316ec71","ios":"levelo://app?vid=49632bd5-9313-4d8c-8155-9f68a316ec71"},"vehicle_type_id":"4","last_reported":1702487198,"current_range_meters":14400,"station_id":"ce4bhp92rcd13ifvqhbg","pricing_plan_id":"free"},{"bike_id":"55f8cf7b-a384-4860-b1f5-075034029351","system_id":"levelo_inurba_marseille","lat":43.31712,"lon":5.42402,"is_reserved":false,"is_disabled":false,"rental_uris":{"android":"levelo://app?vid=55f8cf7b-a384-4860-b1f5-075034029351","ios":"levelo://app?vid=55f8cf7b-a384-4860-b1f5-075034029351"},"vehicle_type_id":"4","last_reported":1702487198,"current_range_meters":25200,"station_id":"ce4bhp92rcd13ifvqhbg","pricing_plan_id":"free"},{"bike_id":"b1c028eb-0fe1-4afa-b35c-b9783a0e9537","system_id":"levelo_inurba_marseille","lat":43.31723,"lon":5.42405,"is_reserved":false,"is_disabled":false,"rental_uris":{"android":"levelo://app?vid=b1c028eb-0fe1-4afa-b35c-b9783a0e9537","ios":"levelo://app?vid=b1c028eb-0fe1-4afa-b35c-b9783a0e9537"},"vehicle_type_id":"4","last_reported":1702487198,"current_range_meters":1200,"station_id":"ce4bhp92rcd13ifvqhbg","pricing_plan_id":"free"},{"bike_id":"3ca2c2d2-99b0-4aa6-a05d-e30f02e6a7fb","system_id":"levelo_inurba_marseille","lat":43.27588,"lon":5.39495,"is_reserved":false,"is_disabled":false,"rental_uris":{"android":"levelo://app?vid=3ca2c2d2-99b0-4aa6-a05d-e30f02e6a7fb","ios":"levelo://app?vid=3ca2c2d2-99b0-4aa6-a05d-e30f02e6a7fb"},"vehicle_type_id":"4","last_reported":1702487198,"current_range_meters":14400,"station_id":"","pricing_plan_id":"free"},{"bike_id":"35208da1-ca71-4be2-bd8a-fe19886ddf38","system_id":"levelo_inurba_marseille","lat":43.304096,"lon":5.425385,"is_reserved":false,"is_disabled":false,"rental_uris":{"android":"levelo://app?vid=35208da1-ca71-4be2-bd8a-fe19886ddf38","ios":"levelo://app?vid=35208da1-ca71-4be2-bd8a-fe19886ddf38"},"vehicle_type_id":"4","last_reported":1702487198,"current_range_meters":29600,"station_id":"ce4bhoh2rcd13ifvqh6g","pricing_plan_id":"free"},{"bike_id":"b303b963-4911-4459-b4b6-e47006920ac1","system_id":"levelo_inurba_marseille","lat":43.304096,"lon":5.425385,"is_reserved":false,"is_disabled":false,"rental_uris":{"android":"levelo://app?vid=b303b963-4911-4459-b4b6-e47006920ac1","ios":"levelo://app?vid=b303b963-4911-4459-b4b6-e47006920ac1"},"vehicle_type_id":"4","last_reported":1702487198,"current_range_meters":11600,"station_id":"ce4bhoh2rcd13ifvqh6g","pricing_plan_id":"free"},{"bike_id":"39eefe27-03d9-47f3-9de8-d68c3a12f1c4","system_id":"levelo_inurba_marseille","lat":43.27195,"lon":5.39222,"is_reserved":false,"is_disabled":false,"rental_uris":{"android":"levelo://app?vid=39eefe27-03d9-47f3-9de8-d68c3a12f1c4","ios":"levelo://app?vid=39eefe27-03d9-47f3-9de8-d68c3a12f1c4"},"vehicle_type_id":"4","last_reported":1702487198,"current_range_meters":0,"station_id":"","pricing_plan_id":"free"},{"bike_id":"9f6618b1-9e02-4e5f-833c-091518978e60","system_id":"levelo_inurba_marseille","lat":43.279465,"lon":5.410561,"is_reserved":false,"is_disabled":false,"rental_uris":{"android":"levelo://app?vid=9f6618b1-9e02-4e5f-833c-091518978e60","ios":"levelo://app?vid=9f6618b1-9e02-4e5f-833c-091518978e60"},"vehicle_type_id":"4","last_reported":1702487198,"current_range_meters":28000,"station_id":"ce4bhnp2rcd13ifvqh0g","pricing_plan_id":"free"},{"bike_id":"2123c982-eb64-4251-a76c-095cbb5fa834","system_id":"levelo_inurba_marseille","lat":43.2693,"lon":5.38924,"is_reserved":false,"is_disabled":false,"rental_uris":{"android":"levelo://app?vid=2123c982-eb64-4251-a76c-095cbb5fa834","ios":"levelo://app?vid=2123c982-eb64-4251-a76c-095cbb5fa834"},"vehicle_type_id":"4","last_reported":1702487198,"current_range_meters":0,"station_id":"ce4bhhh2rcd13ifvqfl0","pricing_plan_id":"free"},{"bike_id":"70f6083f-f6ed-4024-a98d-8b7567dba7cf","system_id":"levelo_inurba_marseille","lat":43.269319,"lon":5.389397,"is_reserved":false,"is_disabled":false,"rental_uris":{"android":"levelo://app?vid=70f6083f-f6ed-4024-a98d-8b7567dba7cf","ios":"levelo://app?vid=70f6083f-f6ed-4024-a98d-8b7567dba7cf"},"vehicle_type_id":"4","last_reported":1702487198,"current_range_meters":30000,"station_id":"ce4bhhh2rcd13ifvqfl0","pricing_plan_id":"free"},{"bike_id":"1d4e3f7d-fd29-42a5-84db-b5e1ed339884","system_id":"levelo_inurba_marseille","lat":43.270329,"lon":5.392934,"is_reserved":false,"is_disabled":false,"rental_uris":{"android":"levelo://app?vid=1d4e3f7d-fd29-42a5-84db-b5e1ed339884","ios":"levelo://app?vid=1d4e3f7d-fd29-42a5-84db-b5e1ed339884"},"vehicle_type_id":"4","last_reported":1702487198,"current_range_meters":4800,"station_id":"","pricing_plan_id":"free"},{"bike_id":"21008433-1039-4200-8e02-f0717efaa2a8","system_id":"levelo_inurba_marseille","lat":43.27005,"lon":5.392394,"is_reserved":false,"is_disabled":false,"rental_uris":{"android":"levelo://app?vid=21008433-1039-4200-8e02-f0717efaa2a8","ios":"levelo://app?vid=21008433-1039-4200-8e02-f0717efaa2a8"},"vehicle_type_id":"4","last_reported":1702487198,"current_range_meters":12800,"station_id":"","pricing_plan_id":"free"},{"bike_id":"3f232a0b-f328-4a7c-9376-5d1041aa79e5","system_id":"levelo_inurba_marseille","lat":43.30803,"lon":5.43523,"is_reserved":false,"is_disabled":false,"rental_uris":{"android":"levelo://app?vid=3f232a0b-f328-4a7c-9376-5d1041aa79e5","ios":"levelo://app?vid=3f232a0b-f328-4a7c-9376-5d1041aa79e5"},"vehicle_type_id":"4","last_reported":1702487198,"current_range_meters":31200,"station_id":"ce4bhph2rcd13ifvqheg","pricing_plan_id":"free"},{"bike_id":"bc23e806-8c02-4ce7-8f10-ddaec58ee545","system_id":"levelo_inurba_marseille","lat":43.265569,"lon":5.390047,"is_reserved":false,"is_disabled":false,"rental_uris":{"android":"levelo://app?vid=bc23e806-8c02-4ce7-8f10-ddaec58ee545","ios":"levelo://app?vid=bc23e806-8c02-4ce7-8f10-ddaec58ee545"},"vehicle_type_id":"4","last_reported":1702487198,"current_range_meters":0,"station_id":"ce4bhe12rcd13ifvqf30","pricing_plan_id":"free"},{"bike_id":"b06e2888-ed4a-454e-a9f9-62a4d07175cb","system_id":"levelo_inurba_marseille","lat":43.26556,"lon":5.39012,"is_reserved":false,"is_disabled":false,"rental_uris":{"android":"levelo://app?vid=b06e2888-ed4a-454e-a9f9-62a4d07175cb","ios":"levelo://app?vid=b06e2888-ed4a-454e-a9f9-62a4d07175cb"},"vehicle_type_id":"4","last_reported":1702487198,"current_range_meters":14000,"station_id":"ce4bhe12rcd13ifvqf30","pricing_plan_id":"free"},{"bike_id":"f860f387-f2ce-4d8f-830e-bd8a0d08dbe2","system_id":"levelo_inurba_marseille","lat":43.298768,"lon":5.43643,"is_reserved":false,"is_disabled":false,"rental_uris":{"android":"levelo://app?vid=f860f387-f2ce-4d8f-830e-bd8a0d08dbe2","ios":"levelo://app?vid=f860f387-f2ce-4d8f-830e-bd8a0d08dbe2"},"vehicle_type_id":"4","last_reported":1702487198,"current_range_meters":22000,"station_id":"ce4bhpp2rcd13ifvqhfg","pricing_plan_id":"free"},{"bike_id":"582ca4bf-aa7b-4d68-8a54-b31c9007dfcf","system_id":"levelo_inurba_marseille","lat":43.317104,"lon":5.436818,"is_reserved":false,"is_disabled":false,"rental_uris":{"android":"levelo://app?vid=582ca4bf-aa7b-4d68-8a54-b31c9007dfcf","ios":"levelo://app?vid=582ca4bf-aa7b-4d68-8a54-b31c9007dfcf"},"vehicle_type_id":"4","last_reported":1702487198,"current_range_meters":29600,"station_id":"ce4bhp92rcd13ifvqhcg","pricing_plan_id":"free"},{"bike_id":"0634f25c-f5b1-468b-a8f9-4c5a81b89cb7","system_id":"levelo_inurba_marseille","lat":43.26204,"lon":5.37931,"is_reserved":false,"is_disabled":false,"rental_uris":{"android":"levelo://app?vid=0634f25c-f5b1-468b-a8f9-4c5a81b89cb7","ios":"levelo://app?vid=0634f25c-f5b1-468b-a8f9-4c5a81b89cb7"},"vehicle_type_id":"4","last_reported":1702487198,"current_range_meters":14400,"station_id":"ce4bhjp2rcd13ifvqg90","pricing_plan_id":"free"},{"bike_id":"0a3d64af-66b8-4835-8a46-2321eebaffca","system_id":"levelo_inurba_marseille","lat":43.271368,"lon":5.40928,"is_reserved":false,"is_disabled":false,"rental_uris":{"android":"levelo://app?vid=0a3d64af-66b8-4835-8a46-2321eebaffca","ios":"levelo://app?vid=0a3d64af-66b8-4835-8a46-2321eebaffca"},"vehicle_type_id":"4","last_reported":1702487198,"current_range_meters":16000,"station_id":"ce4bhl12rcd13ifvqgf0","pricing_plan_id":"free"},{"bike_id":"dc112b54-b90b-48b3-8f04-04ce3a115f49","system_id":"levelo_inurba_marseille","lat":43.271388,"lon":5.409269,"is_reserved":false,"is_disabled":false,"rental_uris":{"android":"levelo://app?vid=dc112b54-b90b-48b3-8f04-04ce3a115f49","ios":"levelo://app?vid=dc112b54-b90b-48b3-8f04-04ce3a115f49"},"vehicle_type_id":"4","last_reported":1702487198,"current_range_meters":10400,"station_id":"ce4bhl12rcd13ifvqgf0","pricing_plan_id":"free"},{"bike_id":"57d110dc-2774-41fa-a7ea-87456f1c4815","system_id":"levelo_inurba_marseille","lat":43.271368,"lon":5.40928,"is_reserved":false,"is_disabled":false,"rental_uris":{"android":"levelo://app?vid=57d110dc-2774-41fa-a7ea-87456f1c4815","ios":"levelo://app?vid=57d110dc-2774-41fa-a7ea-87456f1c4815"},"vehicle_type_id":"4","last_reported":1702487198,"current_range_meters":27600,"station_id":"ce4bhl12rcd13ifvqgf0","pricing_plan_id":"free"},{"bike_id":"38a4a3ac-b01c-43e0-abb4-5a012521fc8c","system_id":"levelo_inurba_marseille","lat":43.298768,"lon":5.43643,"is_reserved":false,"is_disabled":false,"rental_uris":{"android":"levelo://app?vid=38a4a3ac-b01c-43e0-abb4-5a012521fc8c","ios":"levelo://app?vid=38a4a3ac-b01c-43e0-abb4-5a012521fc8c"},"vehicle_type_id":"4","last_reported":1702487198,"current_range_meters":30800,"station_id":"ce4bhpp2rcd13ifvqhfg","pricing_plan_id":"free"},{"bike_id":"35a85cf9-9566-462c-8635-8548e14e231f","system_id":"levelo_inurba_marseille","lat":43.298768,"lon":5.43643,"is_reserved":false,"is_disabled":false,"rental_uris":{"android":"levelo://app?vid=35a85cf9-9566-462c-8635-8548e14e231f","ios":"levelo://app?vid=35a85cf9-9566-462c-8635-8548e14e231f"},"vehicle_type_id":"4","last_reported":1702487198,"current_range_meters":1200,"station_id":"ce4bhpp2rcd13ifvqhfg","pricing_plan_id":"free"},{"bike_id":"4ec71661-c1e3-4c3b-a17d-3fefed6d4370","system_id":"levelo_inurba_marseille","lat":43.298768,"lon":5.43643,"is_reserved":false,"is_disabled":false,"rental_uris":{"android":"levelo://app?vid=4ec71661-c1e3-4c3b-a17d-3fefed6d4370","ios":"levelo://app?vid=4ec71661-c1e3-4c3b-a17d-3fefed6d4370"},"vehicle_type_id":"4","last_reported":1702487198,"current_range_meters":18800,"station_id":"ce4bhpp2rcd13ifvqhfg","pricing_plan_id":"free"},{"bike_id":"57980104-7cc5-4569-b0d1-dff2e3af83a7","system_id":"levelo_inurba_marseille","lat":43.26032,"lon":5.37577,"is_reserved":false,"is_disabled":false,"rental_uris":{"android":"levelo://app?vid=57980104-7cc5-4569-b0d1-dff2e3af83a7","ios":"levelo://app?vid=57980104-7cc5-4569-b0d1-dff2e3af83a7"},"vehicle_type_id":"4","last_reported":1702487198,"current_range_meters":14000,"station_id":"","pricing_plan_id":"free"},{"bike_id":"af5d9ae9-c611-48ae-bdd0-02a1acfdf6ec","system_id":"levelo_inurba_marseille","lat":43.281548,"lon":5.42643,"is_reserved":false,"is_disabled":false,"rental_uris":{"android":"levelo://app?vid=af5d9ae9-c611-48ae-bdd0-02a1acfdf6ec","ios":"levelo://app?vid=af5d9ae9-c611-48ae-bdd0-02a1acfdf6ec"},"vehicle_type_id":"4","last_reported":1702487198,"current_range_meters":0,"station_id":"ce4bhnh2rcd13ifvqgug","pricing_plan_id":"free"},{"bike_id":"9033636c-5f25-4157-8960-0576b93355ae","system_id":"levelo_inurba_marseille","lat":43.281548,"lon":5.42643,"is_reserved":false,"is_disabled":false,"rental_uris":{"android":"levelo://app?vid=9033636c-5f25-4157-8960-0576b93355ae","ios":"levelo://app?vid=9033636c-5f25-4157-8960-0576b93355ae"},"vehicle_type_id":"4","last_reported":1702487198,"current_range_meters":21200,"station_id":"ce4bhnh2rcd13ifvqgug","pricing_plan_id":"free"},{"bike_id":"4f1a3582-9901-49ec-aefe-7ce756d9a0ab","system_id":"levelo_inurba_marseille","lat":43.281548,"lon":5.42643,"is_reserved":false,"is_disabled":false,"rental_uris":{"android":"levelo://app?vid=4f1a3582-9901-49ec-aefe-7ce756d9a0ab","ios":"levelo://app?vid=4f1a3582-9901-49ec-aefe-7ce756d9a0ab"},"vehicle_type_id":"4","last_reported":1702487198,"current_range_meters":0,"station_id":"ce4bhnh2rcd13ifvqgug","pricing_plan_id":"free"},{"bike_id":"6b175c57-0da5-4c4c-a3b5-842d1c1075c8","system_id":"levelo_inurba_marseille","lat":43.281548,"lon":5.42643,"is_reserved":false,"is_disabled":false,"rental_uris":{"android":"levelo://app?vid=6b175c57-0da5-4c4c-a3b5-842d1c1075c8","ios":"levelo://app?vid=6b175c57-0da5-4c4c-a3b5-842d1c1075c8"},"vehicle_type_id":"4","last_reported":1702487198,"current_range_meters":6400,"station_id":"ce4bhnh2rcd13ifvqgug","pricing_plan_id":"free"},{"bike_id":"9a81c4da-a47f-4b93-bc4a-6c0ec4e2086d","system_id":"levelo_inurba_marseille","lat":43.281548,"lon":5.42643,"is_reserved":false,"is_disabled":false,"rental_uris":{"android":"levelo://app?vid=9a81c4da-a47f-4b93-bc4a-6c0ec4e2086d","ios":"levelo://app?vid=9a81c4da-a47f-4b93-bc4a-6c0ec4e2086d"},"vehicle_type_id":"4","last_reported":1702487198,"current_range_meters":12000,"station_id":"ce4bhnh2rcd13ifvqgug","pricing_plan_id":"free"},{"bike_id":"9ec026e7-ba7e-4397-947d-73777aeb14cc","system_id":"levelo_inurba_marseille","lat":43.25584,"lon":5.38233,"is_reserved":false,"is_disabled":false,"rental_uris":{"android":"levelo://app?vid=9ec026e7-ba7e-4397-947d-73777aeb14cc","ios":"levelo://app?vid=9ec026e7-ba7e-4397-947d-73777aeb14cc"},"vehicle_type_id":"4","last_reported":1702487198,"current_range_meters":6000,"station_id":"ce4bhih2rcd13ifvqfs0","pricing_plan_id":"free"},{"bike_id":"ece2927e-d936-4cd8-9ba3-c9443efe9a79","system_id":"levelo_inurba_marseille","lat":43.25826,"lon":5.3943,"is_reserved":false,"is_disabled":false,"rental_uris":{"android":"levelo://app?vid=ece2927e-d936-4cd8-9ba3-c9443efe9a79","ios":"levelo://app?vid=ece2927e-d936-4cd8-9ba3-c9443efe9a79"},"vehicle_type_id":"4","last_reported":1702487198,"current_range_meters":20400,"station_id":"ce4bhip2rcd13ifvqft0","pricing_plan_id":"free"},{"bike_id":"7b09d10a-da2b-4bbe-8e58-c654cc173eb7","system_id":"levelo_inurba_marseille","lat":43.270721,"lon":5.422764,"is_reserved":false,"is_disabled":false,"rental_uris":{"android":"levelo://app?vid=7b09d10a-da2b-4bbe-8e58-c654cc173eb7","ios":"levelo://app?vid=7b09d10a-da2b-4bbe-8e58-c654cc173eb7"},"vehicle_type_id":"4","last_reported":1702487198,"current_range_meters":2800,"station_id":"ce4bhk92rcd13ifvqgb0","pricing_plan_id":"free"},{"bike_id":"b3778f4b-17a5-414d-a355-5d6709a05873","system_id":"levelo_inurba_marseille","lat":43.25391,"lon":5.3827,"is_reserved":false,"is_disabled":false,"rental_uris":{"android":"levelo://app?vid=b3778f4b-17a5-414d-a355-5d6709a05873","ios":"levelo://app?vid=b3778f4b-17a5-414d-a355-5d6709a05873"},"vehicle_type_id":"4","last_reported":1702487198,"current_range_meters":22400,"station_id":"","pricing_plan_id":"free"},{"bike_id":"58f3fcea-62d3-4c12-b911-5e5f11ea5bd9","system_id":"levelo_inurba_marseille","lat":43.259332,"lon":5.409138,"is_reserved":false,"is_disabled":false,"rental_uris":{"android":"levelo://app?vid=58f3fcea-62d3-4c12-b911-5e5f11ea5bd9","ios":"levelo://app?vid=58f3fcea-62d3-4c12-b911-5e5f11ea5bd9"},"vehicle_type_id":"4","last_reported":1702487198,"current_range_meters":0,"station_id":"ce4bhm92rcd13ifvqglg","pricing_plan_id":"free"},{"bike_id":"455828ca-9442-4cb2-94a9-6d2a2939d52d","system_id":"levelo_inurba_marseille","lat":43.24804,"lon":5.37459,"is_reserved":false,"is_disabled":false,"rental_uris":{"android":"levelo://app?vid=455828ca-9442-4cb2-94a9-6d2a2939d52d","ios":"levelo://app?vid=455828ca-9442-4cb2-94a9-6d2a2939d52d"},"vehicle_type_id":"4","last_reported":1702487198,"current_range_meters":30000,"station_id":"ce4bhgh2rcd13ifvqfb0","pricing_plan_id":"free"},{"bike_id":"7e1973b3-f606-4647-8baa-0aa70235ba76","system_id":"levelo_inurba_marseille","lat":43.250966,"lon":5.395186,"is_reserved":false,"is_disabled":false,"rental_uris":{"android":"levelo://app?vid=7e1973b3-f606-4647-8baa-0aa70235ba76","ios":"levelo://app?vid=7e1973b3-f606-4647-8baa-0aa70235ba76"},"vehicle_type_id":"4","last_reported":1702487198,"current_range_meters":15600,"station_id":"ce4bhm12rcd13ifvqgkg","pricing_plan_id":"free"},{"bike_id":"74804e16-a954-45d4-aea7-cf5bd4227f7d","system_id":"levelo_inurba_marseille","lat":43.24693,"lon":5.382096,"is_reserved":false,"is_disabled":false,"rental_uris":{"android":"levelo://app?vid=74804e16-a954-45d4-aea7-cf5bd4227f7d","ios":"levelo://app?vid=74804e16-a954-45d4-aea7-cf5bd4227f7d"},"vehicle_type_id":"4","last_reported":1702487198,"current_range_meters":8400,"station_id":"ce4bhih2rcd13ifvqfr0","pricing_plan_id":"free"},{"bike_id":"df4ff600-38b0-4a87-919c-bd32da7e6aa3","system_id":"levelo_inurba_marseille","lat":43.246461,"lon":5.389014,"is_reserved":false,"is_disabled":false,"rental_uris":{"android":"levelo://app?vid=df4ff600-38b0-4a87-919c-bd32da7e6aa3","ios":"levelo://app?vid=df4ff600-38b0-4a87-919c-bd32da7e6aa3"},"vehicle_type_id":"4","last_reported":1702487198,"current_range_meters":31200,"station_id":"ce4bhg12rcd13ifvqf60","pricing_plan_id":"free"},{"bike_id":"d15c4950-48e9-4f92-a038-250239b9b4e2","system_id":"levelo_inurba_marseille","lat":43.245581,"lon":5.395069,"is_reserved":false,"is_disabled":false,"rental_uris":{"android":"levelo://app?vid=d15c4950-48e9-4f92-a038-250239b9b4e2","ios":"levelo://app?vid=d15c4950-48e9-4f92-a038-250239b9b4e2"},"vehicle_type_id":"4","last_reported":1702487198,"current_range_meters":24800,"station_id":"ce4bhlp2rcd13ifvqgjg","pricing_plan_id":"free"},{"bike_id":"9af76f9c-24ab-48cd-a884-2f55b135e3d5","system_id":"levelo_inurba_marseille","lat":43.239588,"lon":5.366238,"is_reserved":false,"is_disabled":false,"rental_uris":{"android":"levelo://app?vid=9af76f9c-24ab-48cd-a884-2f55b135e3d5","ios":"levelo://app?vid=9af76f9c-24ab-48cd-a884-2f55b135e3d5"},"vehicle_type_id":"4","last_reported":1702487198,"current_range_meters":26800,"station_id":"ce4bhi12rcd13ifvqfp0","pricing_plan_id":"free"},{"bike_id":"5e73fbfd-7e47-4a34-af61-72f438a4ee66","system_id":"levelo_inurba_marseille","lat":43.239588,"lon":5.366238,"is_reserved":false,"is_disabled":false,"rental_uris":{"android":"levelo://app?vid=5e73fbfd-7e47-4a34-af61-72f438a4ee66","ios":"levelo://app?vid=5e73fbfd-7e47-4a34-af61-72f438a4ee66"},"vehicle_type_id":"4","last_reported":1702487198,"current_range_meters":28800,"station_id":"ce4bhi12rcd13ifvqfp0","pricing_plan_id":"free"},{"bike_id":"825265e1-f294-4e04-ac72-2c431a6af408","system_id":"levelo_inurba_marseille","lat":43.239588,"lon":5.366238,"is_reserved":false,"is_disabled":false,"rental_uris":{"android":"levelo://app?vid=825265e1-f294-4e04-ac72-2c431a6af408","ios":"levelo://app?vid=825265e1-f294-4e04-ac72-2c431a6af408"},"vehicle_type_id":"4","last_reported":1702487198,"current_range_meters":31200,"station_id":"ce4bhi12rcd13ifvqfp0","pricing_plan_id":"free"},{"bike_id":"b1daf600-447f-4a38-9c28-5dbe227ab6ee","system_id":"levelo_inurba_marseille","lat":43.239588,"lon":5.366238,"is_reserved":false,"is_disabled":false,"rental_uris":{"android":"levelo://app?vid=b1daf600-447f-4a38-9c28-5dbe227ab6ee","ios":"levelo://app?vid=b1daf600-447f-4a38-9c28-5dbe227ab6ee"},"vehicle_type_id":"4","last_reported":1702487198,"current_range_meters":29600,"station_id":"ce4bhi12rcd13ifvqfp0","pricing_plan_id":"free"},{"bike_id":"dfc2f271-ee2c-4fa7-88de-51339aa910c2","system_id":"levelo_inurba_marseille","lat":43.239588,"lon":5.366238,"is_reserved":false,"is_disabled":false,"rental_uris":{"android":"levelo://app?vid=dfc2f271-ee2c-4fa7-88de-51339aa910c2","ios":"levelo://app?vid=dfc2f271-ee2c-4fa7-88de-51339aa910c2"},"vehicle_type_id":"4","last_reported":1702487198,"current_range_meters":31200,"station_id":"ce4bhi12rcd13ifvqfp0","pricing_plan_id":"free"},{"bike_id":"968f6208-fbce-4043-90c6-aee3c49d3277","system_id":"levelo_inurba_marseille","lat":43.241782,"lon":5.397261,"is_reserved":false,"is_disabled":false,"rental_uris":{"android":"levelo://app?vid=968f6208-fbce-4043-90c6-aee3c49d3277","ios":"levelo://app?vid=968f6208-fbce-4043-90c6-aee3c49d3277"},"vehicle_type_id":"4","last_reported":1702487198,"current_range_meters":16400,"station_id":"ce4bhn12rcd13ifvqgpg","pricing_plan_id":"free"},{"bike_id":"552f919c-a33a-4930-bcfb-7d53ba89cde0","system_id":"levelo_inurba_marseille","lat":43.241782,"lon":5.397261,"is_reserved":false,"is_disabled":false,"rental_uris":{"android":"levelo://app?vid=552f919c-a33a-4930-bcfb-7d53ba89cde0","ios":"levelo://app?vid=552f919c-a33a-4930-bcfb-7d53ba89cde0"},"vehicle_type_id":"4","last_reported":1702487198,"current_range_meters":10000,"station_id":"ce4bhn12rcd13ifvqgpg","pricing_plan_id":"free"},{"bike_id":"a24e9a7d-aca6-4a9e-803e-e0faeb33511b","system_id":"levelo_inurba_marseille","lat":43.23201,"lon":5.3555,"is_reserved":false,"is_disabled":false,"rental_uris":{"android":"levelo://app?vid=a24e9a7d-aca6-4a9e-803e-e0faeb33511b","ios":"levelo://app?vid=a24e9a7d-aca6-4a9e-803e-e0faeb33511b"},"vehicle_type_id":"4","last_reported":1702487198,"current_range_meters":31200,"station_id":"ce4bhu92rcd13ifvqi70","pricing_plan_id":"free"},{"bike_id":"7419071b-370e-4ee1-b8ec-fe330c17852b","system_id":"levelo_inurba_marseille","lat":43.23192,"lon":5.35553,"is_reserved":false,"is_disabled":false,"rental_uris":{"android":"levelo://app?vid=7419071b-370e-4ee1-b8ec-fe330c17852b","ios":"levelo://app?vid=7419071b-370e-4ee1-b8ec-fe330c17852b"},"vehicle_type_id":"4","last_reported":1702487198,"current_range_meters":28000,"station_id":"ce4bhu92rcd13ifvqi70","pricing_plan_id":"free"},{"bike_id":"28cf0186-3129-4448-9e8f-8fa9860365e7","system_id":"levelo_inurba_marseille","lat":43.231794,"lon":5.400052,"is_reserved":false,"is_disabled":false,"rental_uris":{"android":"levelo://app?vid=28cf0186-3129-4448-9e8f-8fa9860365e7","ios":"levelo://app?vid=28cf0186-3129-4448-9e8f-8fa9860365e7"},"vehicle_type_id":"4","last_reported":1702487198,"current_range_meters":19200,"station_id":"ce4bhn12rcd13ifvqgqg","pricing_plan_id":"free"},{"bike_id":"46e85755-7f44-4770-9e69-88e3e5d2d0d4","system_id":"levelo_inurba_marseille","lat":43.231794,"lon":5.400052,"is_reserved":false,"is_disabled":false,"rental_uris":{"android":"levelo://app?vid=46e85755-7f44-4770-9e69-88e3e5d2d0d4","ios":"levelo://app?vid=46e85755-7f44-4770-9e69-88e3e5d2d0d4"},"vehicle_type_id":"4","last_reported":1702487198,"current_range_meters":21200,"station_id":"ce4bhn12rcd13ifvqgqg","pricing_plan_id":"free"},{"bike_id":"976b51c7-50e5-4a1e-9623-472378627f57","system_id":"levelo_inurba_marseille","lat":43.231794,"lon":5.400052,"is_reserved":false,"is_disabled":false,"rental_uris":{"android":"levelo://app?vid=976b51c7-50e5-4a1e-9623-472378627f57","ios":"levelo://app?vid=976b51c7-50e5-4a1e-9623-472378627f57"},"vehicle_type_id":"4","last_reported":1702487198,"current_range_meters":31200,"station_id":"ce4bhn12rcd13ifvqgqg","pricing_plan_id":"free"},{"bike_id":"57c72221-af87-447c-8105-25c1397a08c0","system_id":"levelo_inurba_marseille","lat":43.231793,"lon":5.400044,"is_reserved":false,"is_disabled":false,"rental_uris":{"android":"levelo://app?vid=57c72221-af87-447c-8105-25c1397a08c0","ios":"levelo://app?vid=57c72221-af87-447c-8105-25c1397a08c0"},"vehicle_type_id":"4","last_reported":1702487198,"current_range_meters":20400,"station_id":"ce4bhn12rcd13ifvqgqg","pricing_plan_id":"free"},{"bike_id":"8b01bb59-2645-444e-8775-2b8dfa773148","system_id":"levelo_inurba_marseille","lat":43.231793,"lon":5.400044,"is_reserved":false,"is_disabled":false,"rental_uris":{"android":"levelo://app?vid=8b01bb59-2645-444e-8775-2b8dfa773148","ios":"levelo://app?vid=8b01bb59-2645-444e-8775-2b8dfa773148"},"vehicle_type_id":"4","last_reported":1702487198,"current_range_meters":5200,"station_id":"ce4bhn12rcd13ifvqgqg","pricing_plan_id":"free"},{"bike_id":"5d66a1e1-407e-43b7-8a1f-b43437a90341","system_id":"levelo_inurba_marseille","lat":43.231794,"lon":5.400052,"is_reserved":false,"is_disabled":false,"rental_uris":{"android":"levelo://app?vid=5d66a1e1-407e-43b7-8a1f-b43437a90341","ios":"levelo://app?vid=5d66a1e1-407e-43b7-8a1f-b43437a90341"},"vehicle_type_id":"4","last_reported":1702487198,"current_range_meters":27200,"station_id":"ce4bhn12rcd13ifvqgqg","pricing_plan_id":"free"},{"bike_id":"e9e13da5-814b-4e04-963f-f688451db439","system_id":"levelo_inurba_marseille","lat":43.231793,"lon":5.400044,"is_reserved":false,"is_disabled":false,"rental_uris":{"android":"levelo://app?vid=e9e13da5-814b-4e04-963f-f688451db439","ios":"levelo://app?vid=e9e13da5-814b-4e04-963f-f688451db439"},"vehicle_type_id":"4","last_reported":1702487198,"current_range_meters":31200,"station_id":"ce4bhn12rcd13ifvqgqg","pricing_plan_id":"free"},{"bike_id":"a70842cf-3cdd-4227-8996-9e4cdf55219b","system_id":"levelo_inurba_marseille","lat":43.231793,"lon":5.400044,"is_reserved":false,"is_disabled":false,"rental_uris":{"android":"levelo://app?vid=a70842cf-3cdd-4227-8996-9e4cdf55219b","ios":"levelo://app?vid=a70842cf-3cdd-4227-8996-9e4cdf55219b"},"vehicle_type_id":"4","last_reported":1702487198,"current_range_meters":18000,"station_id":"ce4bhn12rcd13ifvqgqg","pricing_plan_id":"free"},{"bike_id":"53f2fd7c-0e77-49ab-8170-027129f676f0","system_id":"levelo_inurba_marseille","lat":43.231794,"lon":5.400052,"is_reserved":false,"is_disabled":false,"rental_uris":{"android":"levelo://app?vid=53f2fd7c-0e77-49ab-8170-027129f676f0","ios":"levelo://app?vid=53f2fd7c-0e77-49ab-8170-027129f676f0"},"vehicle_type_id":"4","last_reported":1702487198,"current_range_meters":1600,"station_id":"ce4bhn12rcd13ifvqgqg","pricing_plan_id":"free"},{"bike_id":"b5bfddb3-ec7a-4783-8f76-6359d90d5464","system_id":"levelo_inurba_marseille","lat":43.231562,"lon":5.436933,"is_reserved":false,"is_disabled":false,"rental_uris":{"android":"levelo://app?vid=b5bfddb3-ec7a-4783-8f76-6359d90d5464","ios":"levelo://app?vid=b5bfddb3-ec7a-4783-8f76-6359d90d5464"},"vehicle_type_id":"4","last_reported":1702487198,"current_range_meters":18400,"station_id":"ce4bhmp2rcd13ifvqgog","pricing_plan_id":"free"}]}}