{"last_updated":1739480942,"ttl":60,"version":"2.2","data":{"bikes":[{"bike_id":"ad7bbcf4-3605-43e6-9028-3b6f40f299b4","system_id":"levelo_inurba_marseille","lat":43.30214,"lon":5.39476,"is_reserved":false,"is_disabled":false,"rental_uris":{"android":"levelo://app?vid=ad7bbcf4-3605-43e6-9028-3b6f40f299b4","ios":"levelo://app?vid=ad7bbcf4-3605-43e6-9028-3b6f40f299b4"},"vehicle_type_id":"4","last_reported":1739480942,"current_range_meters":38400,"station_id":"ce4bh0p2rcd13ifvqd70","pricing_plan_id":"cebpf4jnsgd1na2vs0mg"},{"bike_id":"16a054cf-d220-4a13-8e1c-680ff7bd2a57","system_id":"levelo_inurba_marseille","lat":43.28444,"lon":5.39172,"is_reserved":false,"is_disabled":false,"rental_uris":{"android":"levelo://app?vid=16a054cf-d220-4a13-8e1c-680ff7bd2a57","ios":"levelo://app?vid=16a054cf-d220-4a13-8e1c-680ff7bd2a57"},"vehicle_type_id":"4","last_reported":1739480942,"current_range_meters":37600,"station_id":"ce4bhoh2rcd13ifvqh5g","pricing_plan_id":"cebpf4jnsgd1na2vs0mg"},{"bike_id":"fabe0dc0-e9b8-4510-811e-856b5cccb082","system_id":"levelo_inurba_marseille","lat":43.25501,"lon":5.3765,"is_reserved":false,"is_disabled":true,"rental_uris":{"android":"levelo://app?vid=fabe0dc0-e9b8-4510-811e-856b5cccb082","ios":"levelo://app?vid=fabe0dc0-e9b8-4510-811e-856b5cccb082"},"vehicle_type_id":"4","last_reported":1739480942,"current_range_meters":36800,"station_id":"ce4bhh12rcd13ifvqff0","pricing_plan_id":"cebpf4jnsgd1na2vs0mg"},{"bike_id":"8de44643-9c65-479b-92b5-27d16e23072f","system_id":"levelo_inurba_marseille","lat":43.22938,"lon":5.35362,"is_reserved":false,"is_disabled":false,"rental_uris":{"android":"levelo://app?vid=8de44643-9c65-479b-92b5-27d16e23072f","ios":"levelo://app?vid=8de44643-9c65-479b-92b5-27d16e23072f"},"vehicle_type_id":"4","last_reported":1739480942,"current_range_meters":38000,"station_id":"cpo3532slgdg3j2ikp40","pricing_plan_id":"cebpf4jnsgd1na2vs0mg"},{"bike_id":"da3b06b8-7418-4778-987f-0fbc99dc78cc","system_id":"levelo_inurba_marseille","lat":43.28667,"lon":5.38679,"is_reserved":false,"is_disabled":false,"rental_uris":{"android":"levelo://app?vid=da3b06b8-7418-4778-987f-0fbc99dc78cc","ios":"levelo://app?vid=da3b06b8-7418-4778-987f-0fbc99dc78cc"},"vehicle_type_id":"4","last_reported":1739480942,"current_range_meters":35600,"station_id":"ce4bh492rcd13ifvqdug","pricing_plan_id":"cebpf4jnsgd1na2vs0mg"},{"bike_id":"5bb93883-746a-4657-831b-dceff88c8915","system_id":"levelo_inurba_marseille","lat":43.2621,"lon":5.37898,"is_reserved":false,"is_disabled":false,"rental_uris":{"android":"levelo://app?vid=5bb93883-746a-4657-831b-dceff88c8915","ios":"levelo://app?vid=5bb93883-746a-4657-831b-dceff88c8915"},"vehicle_type_id":"4","last_reported":1739480942,"current_range_meters":37600,"station_id":"ce4bhjp2rcd13ifvqg90","pricing_plan_id":"cebpf4jnsgd1na2vs0mg"},{"bike_id":"1d4165b9-e8af-42e7-8e88-54a0f84b4f26","system_id":"levelo_inurba_marseille","lat":43.23192,"lon":5.39955,"is_reserved":false,"is_disabled":false,"rental_uris":{"android":"levelo://app?vid=1d4165b9-e8af-42e7-8e88-54a0f84b4f26","ios":"levelo://app?vid=1d4165b9-e8af-42e7-8e88-54a0f84b4f26"},"vehicle_type_id":"4","last_reported":1739480942,"current_range_meters":33600,"station_id":"ce4bhn12rcd13ifvqgqg","pricing_plan_id":"cebpf4jnsgd1na2vs0mg"},{"bike_id":"0c0dabf7-1d9b-45b5-ba17-05b651aeb446","system_id":"levelo_inurba_marseille","lat":43.29938,"lon":5.36549,"is_reserved":false,"is_disabled":false,"rental_uris":{"android":"levelo://app?vid=0c0dabf7-1d9b-45b5-ba17-05b651aeb446","ios":"levelo://app?vid=0c0dabf7-1d9b-45b5-ba17-05b651aeb446"},"vehicle_type_id":"4","last_reported":1739480942,"current_range_meters":36800,"station_id":"ce4bgm92rcd13ifvqbr0","pricing_plan_id":"cebpf4jnsgd1na2vs0mg"},{"bike_id":"e8887aed-fddd-4b96-bc9f-849d198fae08","system_id":"levelo_inurba_marseille","lat":43.255777,"lon":5.38247,"is_reserved":false,"is_disabled":false,"rental_uris":{"android":"levelo://app?vid=e8887aed-fddd-4b96-bc9f-849d198fae08","ios":"levelo://app?vid=e8887aed-fddd-4b96-bc9f-849d198fae08"},"vehicle_type_id":"4","last_reported":1739480942,"current_range_meters":12800,"station_id":"ce4bhih2rcd13ifvqfs0","pricing_plan_id":"cebpf4jnsgd1na2vs0mg"},{"bike_id":"b25a4055-6287-4e09-8a31-efd80b381969","system_id":"levelo_inurba_marseille","lat":43.2942,"lon":5.3863,"is_reserved":false,"is_disabled":false,"rental_uris":{"android":"levelo://app?vid=b25a4055-6287-4e09-8a31-efd80b381969","ios":"levelo://app?vid=b25a4055-6287-4e09-8a31-efd80b381969"},"vehicle_type_id":"4","last_reported":1739480942,"current_range_meters":38000,"station_id":"ce4bh2h2rcd13ifvqdh0","pricing_plan_id":"cebpf4jnsgd1na2vs0mg"},{"bike_id":"87875142-acbf-4c37-bced-29f49e328da9","system_id":"levelo_inurba_marseille","lat":43.29276,"lon":5.36842,"is_reserved":false,"is_disabled":false,"rental_uris":{"android":"levelo://app?vid=87875142-acbf-4c37-bced-29f49e328da9","ios":"levelo://app?vid=87875142-acbf-4c37-bced-29f49e328da9"},"vehicle_type_id":"4","last_reported":1739480942,"current_range_meters":12000,"station_id":"ce4bhbp2rcd13ifvqesg","pricing_plan_id":"cebpf4jnsgd1na2vs0mg"},{"bike_id":"20432d9d-22cc-44be-b867-72c3c93d83a0","system_id":"levelo_inurba_marseille","lat":43.29418,"lon":5.38633,"is_reserved":false,"is_disabled":false,"rental_uris":{"android":"levelo://app?vid=20432d9d-22cc-44be-b867-72c3c93d83a0","ios":"levelo://app?vid=20432d9d-22cc-44be-b867-72c3c93d83a0"},"vehicle_type_id":"4","last_reported":1739480942,"current_range_meters":34000,"station_id":"ce4bh2h2rcd13ifvqdh0","pricing_plan_id":"cebpf4jnsgd1na2vs0mg"},{"bike_id":"8390feee-0735-4b8f-90c8-f81c741ca7d5","system_id":"levelo_inurba_marseille","lat":43.24817,"lon":5.37457,"is_reserved":false,"is_disabled":false,"rental_uris":{"android":"levelo://app?vid=8390feee-0735-4b8f-90c8-f81c741ca7d5","ios":"levelo://app?vid=8390feee-0735-4b8f-90c8-f81c741ca7d5"},"vehicle_type_id":"4","last_reported":1739480942,"current_range_meters":37600,"station_id":"ce4bhgh2rcd13ifvqfb0","pricing_plan_id":"cebpf4jnsgd1na2vs0mg"},{"bike_id":"84b5b547-b271-4d32-870b-7a14a363a3c2","system_id":"levelo_inurba_marseille","lat":43.2846,"lon":5.35882,"is_reserved":false,"is_disabled":false,"rental_uris":{"android":"levelo://app?vid=84b5b547-b271-4d32-870b-7a14a363a3c2","ios":"levelo://app?vid=84b5b547-b271-4d32-870b-7a14a363a3c2"},"vehicle_type_id":"4","last_reported":1739480942,"current_range_meters":24000,"station_id":"ce4bhah2rcd13ifvqei0","pricing_plan_id":"cebpf4jnsgd1na2vs0mg"},{"bike_id":"3978400e-dc40-48da-93af-d286b1eaeaf6","system_id":"levelo_inurba_marseille","lat":43.25519,"lon":5.37651,"is_reserved":false,"is_disabled":false,"rental_uris":{"android":"levelo://app?vid=3978400e-dc40-48da-93af-d286b1eaeaf6","ios":"levelo://app?vid=3978400e-dc40-48da-93af-d286b1eaeaf6"},"vehicle_type_id":"4","last_reported":1739480942,"current_range_meters":38800,"station_id":"ce4bhh12rcd13ifvqff0","pricing_plan_id":"cebpf4jnsgd1na2vs0mg"},{"bike_id":"c5d83290-7e41-4747-be49-5a88384d605e","system_id":"levelo_inurba_marseille","lat":43.28498,"lon":5.38515,"is_reserved":false,"is_disabled":true,"rental_uris":{"android":"levelo://app?vid=c5d83290-7e41-4747-be49-5a88384d605e","ios":"levelo://app?vid=c5d83290-7e41-4747-be49-5a88384d605e"},"vehicle_type_id":"4","last_reported":1739480942,"current_range_meters":22800,"station_id":"ce4bh8p2rcd13ifvqeb0","pricing_plan_id":"cebpf4jnsgd1na2vs0mg"},{"bike_id":"56192679-cc8f-4f99-a19c-ed0875b3f321","system_id":"levelo_inurba_marseille","lat":43.31735,"lon":5.42415,"is_reserved":false,"is_disabled":false,"rental_uris":{"android":"levelo://app?vid=56192679-cc8f-4f99-a19c-ed0875b3f321","ios":"levelo://app?vid=56192679-cc8f-4f99-a19c-ed0875b3f321"},"vehicle_type_id":"4","last_reported":1739480942,"current_range_meters":38800,"station_id":"ce4bhp92rcd13ifvqhbg","pricing_plan_id":"cebpf4jnsgd1na2vs0mg"},{"bike_id":"9fd18d71-c7d2-42ac-9a03-a3e2f2196e93","system_id":"levelo_inurba_marseille","lat":43.29083,"lon":5.38158,"is_reserved":false,"is_disabled":false,"rental_uris":{"android":"levelo://app?vid=9fd18d71-c7d2-42ac-9a03-a3e2f2196e93","ios":"levelo://app?vid=9fd18d71-c7d2-42ac-9a03-a3e2f2196e93"},"vehicle_type_id":"4","last_reported":1739480942,"current_range_meters":38800,"station_id":"ce4bh512rcd13ifvqe2g","pricing_plan_id":"cebpf4jnsgd1na2vs0mg"},{"bike_id":"b34c6303-752a-46a1-93ad-ddbc991e20b6","system_id":"levelo_inurba_marseille","lat":43.230617,"lon":5.354932,"is_reserved":false,"is_disabled":false,"rental_uris":{"android":"levelo://app?vid=b34c6303-752a-46a1-93ad-ddbc991e20b6","ios":"levelo://app?vid=b34c6303-752a-46a1-93ad-ddbc991e20b6"},"vehicle_type_id":"4","last_reported":1739480942,"current_range_meters":8000,"station_id":"cpo3342slgdg3j2ifvpg","pricing_plan_id":"cebpf4jnsgd1na2vs0mg"},{"bike_id":"f4297ec3-a745-470f-8379-4a2b1e421801","system_id":"levelo_inurba_marseille","lat":43.29021,"lon":5.35942,"is_reserved":false,"is_disabled":true,"rental_uris":{"android":"levelo://app?vid=f4297ec3-a745-470f-8379-4a2b1e421801","ios":"levelo://app?vid=f4297ec3-a745-470f-8379-4a2b1e421801"},"vehicle_type_id":"4","last_reported":1739480942,"current_range_meters":38800,"station_id":"ce4bha92rcd13ifvqeg0","pricing_plan_id":"cebpf4jnsgd1na2vs0mg"},{"bike_id":"94f215f4-8d84-4a90-8447-d7fd34779bff","system_id":"levelo_inurba_marseille","lat":43.25506,"lon":5.37628,"is_reserved":false,"is_disabled":false,"rental_uris":{"android":"levelo://app?vid=94f215f4-8d84-4a90-8447-d7fd34779bff","ios":"levelo://app?vid=94f215f4-8d84-4a90-8447-d7fd34779bff"},"vehicle_type_id":"4","last_reported":1739480942,"current_range_meters":16000,"station_id":"ce4bhh12rcd13ifvqff0","pricing_plan_id":"cebpf4jnsgd1na2vs0mg"},{"bike_id":"1008caae-4554-45a8-be4b-7a22becb98fe","system_id":"levelo_inurba_marseille","lat":43.30297,"lon":5.39209,"is_reserved":false,"is_disabled":false,"rental_uris":{"android":"levelo://app?vid=1008caae-4554-45a8-be4b-7a22becb98fe","ios":"levelo://app?vid=1008caae-4554-45a8-be4b-7a22becb98fe"},"vehicle_type_id":"4","last_reported":1739480942,"current_range_meters":38800,"station_id":"ce4bgkh2rcd13ifvqbk0","pricing_plan_id":"cebpf4jnsgd1na2vs0mg"},{"bike_id":"7e3aa56e-620c-49ba-a222-8b981e930b79","system_id":"levelo_inurba_marseille","lat":43.31493,"lon":5.37306,"is_reserved":false,"is_disabled":false,"rental_uris":{"android":"levelo://app?vid=7e3aa56e-620c-49ba-a222-8b981e930b79","ios":"levelo://app?vid=7e3aa56e-620c-49ba-a222-8b981e930b79"},"vehicle_type_id":"4","last_reported":1739480942,"current_range_meters":35600,"station_id":"ce4bgt12rcd13ifvqcd0","pricing_plan_id":"cebpf4jnsgd1na2vs0mg"},{"bike_id":"741ea012-58fd-430b-9946-b864253bdf7d","system_id":"levelo_inurba_marseille","lat":43.29542,"lon":5.38541,"is_reserved":false,"is_disabled":false,"rental_uris":{"android":"levelo://app?vid=741ea012-58fd-430b-9946-b864253bdf7d","ios":"levelo://app?vid=741ea012-58fd-430b-9946-b864253bdf7d"},"vehicle_type_id":"4","last_reported":1739480942,"current_range_meters":30400,"station_id":"ce4bgih2rcd13ifvqba0","pricing_plan_id":"cebpf4jnsgd1na2vs0mg"},{"bike_id":"ac563615-1c9b-4d54-94c9-bd17fd4a149f","system_id":"levelo_inurba_marseille","lat":43.28442,"lon":5.39152,"is_reserved":false,"is_disabled":false,"rental_uris":{"android":"levelo://app?vid=ac563615-1c9b-4d54-94c9-bd17fd4a149f","ios":"levelo://app?vid=ac563615-1c9b-4d54-94c9-bd17fd4a149f"},"vehicle_type_id":"4","last_reported":1739480942,"current_range_meters":38800,"station_id":"ce4bhoh2rcd13ifvqh5g","pricing_plan_id":"cebpf4jnsgd1na2vs0mg"},{"bike_id":"fe0dec67-db0e-49f0-a93e-10f71e03e351","system_id":"levelo_inurba_marseille","lat":43.28353,"lon":5.38097,"is_reserved":false,"is_disabled":false,"rental_uris":{"android":"levelo://app?vid=fe0dec67-db0e-49f0-a93e-10f71e03e351","ios":"levelo://app?vid=fe0dec67-db0e-49f0-a93e-10f71e03e351"},"vehicle_type_id":"4","last_reported":1739480942,"current_range_meters":28000,"station_id":"ce4bh412rcd13ifvqdr0","pricing_plan_id":"cebpf4jnsgd1na2vs0mg"},{"bike_id":"4771bdc5-5a9a-4126-baef-ad23555935fc","system_id":"levelo_inurba_marseille","lat":43.29515,"lon":5.39394,"is_reserved":false,"is_disabled":false,"rental_uris":{"android":"levelo://app?vid=4771bdc5-5a9a-4126-baef-ad23555935fc","ios":"levelo://app?vid=4771bdc5-5a9a-4126-baef-ad23555935fc"},"vehicle_type_id":"4","last_reported":1739480942,"current_range_meters":28400,"station_id":"ce4bh292rcd13ifvqdf0","pricing_plan_id":"cebpf4jnsgd1na2vs0mg"},{"bike_id":"ae9ac42c-c442-4a42-a6d9-83f1be830871","system_id":"levelo_inurba_marseille","lat":43.29912,"lon":5.36569,"is_reserved":false,"is_disabled":false,"rental_uris":{"android":"levelo://app?vid=ae9ac42c-c442-4a42-a6d9-83f1be830871","ios":"levelo://app?vid=ae9ac42c-c442-4a42-a6d9-83f1be830871"},"vehicle_type_id":"4","last_reported":1739480942,"current_range_meters":9600,"station_id":"ce4bgm92rcd13ifvqbr0","pricing_plan_id":"cebpf4jnsgd1na2vs0mg"},{"bike_id":"2dfd07b4-aec1-4162-bd20-345c96ed41e8","system_id":"levelo_inurba_marseille","lat":43.29312,"lon":5.37186,"is_reserved":false,"is_disabled":false,"rental_uris":{"android":"levelo://app?vid=2dfd07b4-aec1-4162-bd20-345c96ed41e8","ios":"levelo://app?vid=2dfd07b4-aec1-4162-bd20-345c96ed41e8"},"vehicle_type_id":"4","last_reported":1739480942,"current_range_meters":38000,"station_id":"ce4bgh92rcd13ifvqb40","pricing_plan_id":"cebpf4jnsgd1na2vs0mg"},{"bike_id":"2a7fbfda-36d8-455b-955d-63e67c8c1e23","system_id":"levelo_inurba_marseille","lat":43.30924,"lon":5.43989,"is_reserved":false,"is_disabled":false,"rental_uris":{"android":"levelo://app?vid=2a7fbfda-36d8-455b-955d-63e67c8c1e23","ios":"levelo://app?vid=2a7fbfda-36d8-455b-955d-63e67c8c1e23"},"vehicle_type_id":"4","last_reported":1739480942,"current_range_meters":28000,"station_id":"","pricing_plan_id":"cebpf4jnsgd1na2vs0mg"},{"bike_id":"0806deb7-288d-46f9-a267-9d6d6605d61a","system_id":"levelo_inurba_marseille","lat":43.31529,"lon":5.38025,"is_reserved":false,"is_disabled":false,"rental_uris":{"android":"levelo://app?vid=0806deb7-288d-46f9-a267-9d6d6605d61a","ios":"levelo://app?vid=0806deb7-288d-46f9-a267-9d6d6605d61a"},"vehicle_type_id":"4","last_reported":1739480942,"current_range_meters":38800,"station_id":"ce4bhsp2rcd13ifvqi50","pricing_plan_id":"cebpf4jnsgd1na2vs0mg"},{"bike_id":"cd2ade96-d83c-484d-ad63-31dd855266a0","system_id":"levelo_inurba_marseille","lat":43.29872,"lon":5.39738,"is_reserved":false,"is_disabled":false,"rental_uris":{"android":"levelo://app?vid=cd2ade96-d83c-484d-ad63-31dd855266a0","ios":"levelo://app?vid=cd2ade96-d83c-484d-ad63-31dd855266a0"},"vehicle_type_id":"4","last_reported":1739480942,"current_range_meters":38800,"station_id":"ce4bh0h2rcd13ifvqd50","pricing_plan_id":"cebpf4jnsgd1na2vs0mg"},{"bike_id":"670d8b79-cf37-4bf6-9297-ca0919e71705","system_id":"levelo_inurba_marseille","lat":43.30545,"lon":5.38431,"is_reserved":false,"is_disabled":true,"rental_uris":{"android":"levelo://app?vid=670d8b79-cf37-4bf6-9297-ca0919e71705","ios":"levelo://app?vid=670d8b79-cf37-4bf6-9297-ca0919e71705"},"vehicle_type_id":"4","last_reported":1739480942,"current_range_meters":34000,"station_id":"ce4bgg92rcd13ifvqb30","pricing_plan_id":"cebpf4jnsgd1na2vs0mg"},{"bike_id":"4004e863-e0ca-4122-9424-ab9f70e142e6","system_id":"levelo_inurba_marseille","lat":43.31672,"lon":5.39624,"is_reserved":false,"is_disabled":false,"rental_uris":{"android":"levelo://app?vid=4004e863-e0ca-4122-9424-ab9f70e142e6","ios":"levelo://app?vid=4004e863-e0ca-4122-9424-ab9f70e142e6"},"vehicle_type_id":"4","last_reported":1739480942,"current_range_meters":25600,"station_id":"","pricing_plan_id":"cebpf4jnsgd1na2vs0mg"},{"bike_id":"1973349c-76b1-4d08-a981-a59f0ff4b1ea","system_id":"levelo_inurba_marseille","lat":43.293107,"lon":5.37172,"is_reserved":false,"is_disabled":false,"rental_uris":{"android":"levelo://app?vid=1973349c-76b1-4d08-a981-a59f0ff4b1ea","ios":"levelo://app?vid=1973349c-76b1-4d08-a981-a59f0ff4b1ea"},"vehicle_type_id":"4","last_reported":1739480942,"current_range_meters":27600,"station_id":"ce4bgh92rcd13ifvqb40","pricing_plan_id":"cebpf4jnsgd1na2vs0mg"},{"bike_id":"90e60eba-ea5a-48b6-b611-b06e0ea8c53e","system_id":"levelo_inurba_marseille","lat":43.29434,"lon":5.3864,"is_reserved":false,"is_disabled":false,"rental_uris":{"android":"levelo://app?vid=90e60eba-ea5a-48b6-b611-b06e0ea8c53e","ios":"levelo://app?vid=90e60eba-ea5a-48b6-b611-b06e0ea8c53e"},"vehicle_type_id":"4","last_reported":1739480942,"current_range_meters":24400,"station_id":"ce4bh2h2rcd13ifvqdh0","pricing_plan_id":"cebpf4jnsgd1na2vs0mg"},{"bike_id":"eae6c8f6-f4e7-40f6-847d-7bb82337a26c","system_id":"levelo_inurba_marseille","lat":43.28376,"lon":5.3864,"is_reserved":false,"is_disabled":false,"rental_uris":{"android":"levelo://app?vid=eae6c8f6-f4e7-40f6-847d-7bb82337a26c","ios":"levelo://app?vid=eae6c8f6-f4e7-40f6-847d-7bb82337a26c"},"vehicle_type_id":"4","last_reported":1739480942,"current_range_meters":25200,"station_id":"ce4bh492rcd13ifvqdvg","pricing_plan_id":"cebpf4jnsgd1na2vs0mg"},{"bike_id":"a976e7ac-6155-4dcb-8d3a-9fd779764b7a","system_id":"levelo_inurba_marseille","lat":43.2784,"lon":5.39208,"is_reserved":false,"is_disabled":false,"rental_uris":{"android":"levelo://app?vid=a976e7ac-6155-4dcb-8d3a-9fd779764b7a","ios":"levelo://app?vid=a976e7ac-6155-4dcb-8d3a-9fd779764b7a"},"vehicle_type_id":"4","last_reported":1739480942,"current_range_meters":29600,"station_id":"ce4bhjp2rcd13ifvqga0","pricing_plan_id":"cebpf4jnsgd1na2vs0mg"},{"bike_id":"1fc50d90-a531-4b18-8fc8-5a7a3988385e","system_id":"levelo_inurba_marseille","lat":43.29241,"lon":5.3843,"is_reserved":false,"is_disabled":false,"rental_uris":{"android":"levelo://app?vid=1fc50d90-a531-4b18-8fc8-5a7a3988385e","ios":"levelo://app?vid=1fc50d90-a531-4b18-8fc8-5a7a3988385e"},"vehicle_type_id":"4","last_reported":1739480942,"current_range_meters":38000,"station_id":"ce4bh692rcd13ifvqea0","pricing_plan_id":"cebpf4jnsgd1na2vs0mg"},{"bike_id":"e4d14330-222d-46d5-8f26-efec567da29c","system_id":"levelo_inurba_marseille","lat":43.28613,"lon":5.35099,"is_reserved":false,"is_disabled":false,"rental_uris":{"android":"levelo://app?vid=e4d14330-222d-46d5-8f26-efec567da29c","ios":"levelo://app?vid=e4d14330-222d-46d5-8f26-efec567da29c"},"vehicle_type_id":"4","last_reported":1739480942,"current_range_meters":38800,"station_id":"ce4bhch2rcd13ifvqeug","pricing_plan_id":"cebpf4jnsgd1na2vs0mg"},{"bike_id":"02998224-a253-4c3c-b848-759859f8fe40","system_id":"levelo_inurba_marseille","lat":43.28456,"lon":5.35892,"is_reserved":false,"is_disabled":false,"rental_uris":{"android":"levelo://app?vid=02998224-a253-4c3c-b848-759859f8fe40","ios":"levelo://app?vid=02998224-a253-4c3c-b848-759859f8fe40"},"vehicle_type_id":"4","last_reported":1739480942,"current_range_meters":32800,"station_id":"ce4bhah2rcd13ifvqei0","pricing_plan_id":"cebpf4jnsgd1na2vs0mg"},{"bike_id":"03f1ee11-be7f-45e6-a171-a893130e88b6","system_id":"levelo_inurba_marseille","lat":43.290007,"lon":5.355945,"is_reserved":false,"is_disabled":true,"rental_uris":{"android":"levelo://app?vid=03f1ee11-be7f-45e6-a171-a893130e88b6","ios":"levelo://app?vid=03f1ee11-be7f-45e6-a171-a893130e88b6"},"vehicle_type_id":"4","last_reported":1739480942,"current_range_meters":38400,"station_id":"ce4bhb92rcd13ifvqen0","pricing_plan_id":"cebpf4jnsgd1na2vs0mg"},{"bike_id":"704ec19d-e7c0-4858-a423-dcfa560220a5","system_id":"levelo_inurba_marseille","lat":43.23198,"lon":5.39977,"is_reserved":false,"is_disabled":false,"rental_uris":{"android":"levelo://app?vid=704ec19d-e7c0-4858-a423-dcfa560220a5","ios":"levelo://app?vid=704ec19d-e7c0-4858-a423-dcfa560220a5"},"vehicle_type_id":"4","last_reported":1739480942,"current_range_meters":36000,"station_id":"ce4bhn12rcd13ifvqgqg","pricing_plan_id":"cebpf4jnsgd1na2vs0mg"},{"bike_id":"21ff9799-dbd2-4e2f-8cb3-cf7934e6536f","system_id":"levelo_inurba_marseille","lat":43.29574,"lon":5.39973,"is_reserved":false,"is_disabled":false,"rental_uris":{"android":"levelo://app?vid=21ff9799-dbd2-4e2f-8cb3-cf7934e6536f","ios":"levelo://app?vid=21ff9799-dbd2-4e2f-8cb3-cf7934e6536f"},"vehicle_type_id":"4","last_reported":1739480942,"current_range_meters":36400,"station_id":"ce4bh312rcd13ifvqdj0","pricing_plan_id":"cebpf4jnsgd1na2vs0mg"},{"bike_id":"81e8b687-b7dc-4f3b-902f-34681737fb40","system_id":"levelo_inurba_marseille","lat":43.30097,"lon":5.39072,"is_reserved":false,"is_disabled":false,"rental_uris":{"android":"levelo://app?vid=81e8b687-b7dc-4f3b-902f-34681737fb40","ios":"levelo://app?vid=81e8b687-b7dc-4f3b-902f-34681737fb40"},"vehicle_type_id":"4","last_reported":1739480942,"current_range_meters":34000,"station_id":"ce4bh192rcd13ifvqdb0","pricing_plan_id":"cebpf4jnsgd1na2vs0mg"},{"bike_id":"953570e5-45e3-4096-aec8-3b7f00b0db08","system_id":"levelo_inurba_marseille","lat":43.29415,"lon":5.38625,"is_reserved":false,"is_disabled":false,"rental_uris":{"android":"levelo://app?vid=953570e5-45e3-4096-aec8-3b7f00b0db08","ios":"levelo://app?vid=953570e5-45e3-4096-aec8-3b7f00b0db08"},"vehicle_type_id":"4","last_reported":1739480942,"current_range_meters":20800,"station_id":"ce4bh2h2rcd13ifvqdh0","pricing_plan_id":"cebpf4jnsgd1na2vs0mg"},{"bike_id":"9ffe0681-9ede-4d8e-8df5-acca9b5ea6d7","system_id":"levelo_inurba_marseille","lat":43.29258,"lon":5.40915,"is_reserved":false,"is_disabled":false,"rental_uris":{"android":"levelo://app?vid=9ffe0681-9ede-4d8e-8df5-acca9b5ea6d7","ios":"levelo://app?vid=9ffe0681-9ede-4d8e-8df5-acca9b5ea6d7"},"vehicle_type_id":"4","last_reported":1739480942,"current_range_meters":4400,"station_id":"ce4bh192rcd13ifvqdc0","pricing_plan_id":"cebpf4jnsgd1na2vs0mg"},{"bike_id":"6e79fee3-d43f-4b38-9347-60eb150ccde4","system_id":"levelo_inurba_marseille","lat":43.29305,"lon":5.37148,"is_reserved":false,"is_disabled":false,"rental_uris":{"android":"levelo://app?vid=6e79fee3-d43f-4b38-9347-60eb150ccde4","ios":"levelo://app?vid=6e79fee3-d43f-4b38-9347-60eb150ccde4"},"vehicle_type_id":"4","last_reported":1739480942,"current_range_meters":38000,"station_id":"ce4bgh92rcd13ifvqb40","pricing_plan_id":"cebpf4jnsgd1na2vs0mg"},{"bike_id":"9cf8e6d9-67b8-441b-8ab4-08ef8560d2b0","system_id":"levelo_inurba_marseille","lat":43.33514,"lon":5.35585,"is_reserved":false,"is_disabled":true,"rental_uris":{"android":"levelo://app?vid=9cf8e6d9-67b8-441b-8ab4-08ef8560d2b0","ios":"levelo://app?vid=9cf8e6d9-67b8-441b-8ab4-08ef8560d2b0"},"vehicle_type_id":"4","last_reported":1739480942,"current_range_meters":0,"station_id":"","pricing_plan_id":"cebpf4jnsgd1na2vs0mg"},{"bike_id":"7a3720dd-298c-4d87-91ef-5d83e7db7658","system_id":"levelo_inurba_marseille","lat":43.24084,"lon":5.37761,"is_reserved":false,"is_disabled":false,"rental_uris":{"android":"levelo://app?vid=7a3720dd-298c-4d87-91ef-5d83e7db7658","ios":"levelo://app?vid=7a3720dd-298c-4d87-91ef-5d83e7db7658"},"vehicle_type_id":"4","last_reported":1739480942,"current_range_meters":38800,"station_id":"ce4bhnp2rcd13ifvqgvg","pricing_plan_id":"cebpf4jnsgd1na2vs0mg"},{"bike_id":"6279f888-1d4b-4ebb-b3f2-c7248902b00f","system_id":"levelo_inurba_marseille","lat":43.25504,"lon":5.37617,"is_reserved":false,"is_disabled":false,"rental_uris":{"android":"levelo://app?vid=6279f888-1d4b-4ebb-b3f2-c7248902b00f","ios":"levelo://app?vid=6279f888-1d4b-4ebb-b3f2-c7248902b00f"},"vehicle_type_id":"4","last_reported":1739480942,"current_range_meters":20400,"station_id":"ce4bhh12rcd13ifvqff0","pricing_plan_id":"cebpf4jnsgd1na2vs0mg"},{"bike_id":"a571f314-0abb-4dc6-aa7a-8bfec9459416","system_id":"levelo_inurba_marseille","lat":43.28937,"lon":5.36371,"is_reserved":false,"is_disabled":false,"rental_uris":{"android":"levelo://app?vid=a571f314-0abb-4dc6-aa7a-8bfec9459416","ios":"levelo://app?vid=a571f314-0abb-4dc6-aa7a-8bfec9459416"},"vehicle_type_id":"4","last_reported":1739480942,"current_range_meters":38800,"station_id":"ce4bhc92rcd13ifvqetg","pricing_plan_id":"cebpf4jnsgd1na2vs0mg"},{"bike_id":"3dac6192-3123-4c95-afea-ba492f5c9f4e","system_id":"levelo_inurba_marseille","lat":43.32663,"lon":5.43082,"is_reserved":false,"is_disabled":false,"rental_uris":{"android":"levelo://app?vid=3dac6192-3123-4c95-afea-ba492f5c9f4e","ios":"levelo://app?vid=3dac6192-3123-4c95-afea-ba492f5c9f4e"},"vehicle_type_id":"4","last_reported":1739480942,"current_range_meters":32800,"station_id":"","pricing_plan_id":"cebpf4jnsgd1na2vs0mg"},{"bike_id":"9fc4e854-e1e4-44e8-ac99-347f796108d1","system_id":"levelo_inurba_marseille","lat":43.29524,"lon":5.39402,"is_reserved":false,"is_disabled":false,"rental_uris":{"android":"levelo://app?vid=9fc4e854-e1e4-44e8-ac99-347f796108d1","ios":"levelo://app?vid=9fc4e854-e1e4-44e8-ac99-347f796108d1"},"vehicle_type_id":"4","last_reported":1739480942,"current_range_meters":27200,"station_id":"ce4bh292rcd13ifvqdf0","pricing_plan_id":"cebpf4jnsgd1na2vs0mg"},{"bike_id":"e26e4d9a-d17a-4e05-a615-8cb1580b2ec8","system_id":"levelo_inurba_marseille","lat":43.25871,"lon":5.3991,"is_reserved":false,"is_disabled":false,"rental_uris":{"android":"levelo://app?vid=e26e4d9a-d17a-4e05-a615-8cb1580b2ec8","ios":"levelo://app?vid=e26e4d9a-d17a-4e05-a615-8cb1580b2ec8"},"vehicle_type_id":"4","last_reported":1739480942,"current_range_meters":38800,"station_id":"ce4bhl92rcd13ifvqghg","pricing_plan_id":"cebpf4jnsgd1na2vs0mg"},{"bike_id":"d8a5d151-9020-418b-990d-17bffb2b3256","system_id":"levelo_inurba_marseille","lat":43.278117,"lon":5.407163,"is_reserved":false,"is_disabled":false,"rental_uris":{"android":"levelo://app?vid=d8a5d151-9020-418b-990d-17bffb2b3256","ios":"levelo://app?vid=d8a5d151-9020-418b-990d-17bffb2b3256"},"vehicle_type_id":"4","last_reported":1739480942,"current_range_meters":18800,"station_id":"ce4bhnh2rcd13ifvqgtg","pricing_plan_id":"cebpf4jnsgd1na2vs0mg"},{"bike_id":"b45381ad-1389-482c-a78d-58377a79ee3d","system_id":"levelo_inurba_marseille","lat":43.27904,"lon":5.37986,"is_reserved":false,"is_disabled":false,"rental_uris":{"android":"levelo://app?vid=b45381ad-1389-482c-a78d-58377a79ee3d","ios":"levelo://app?vid=b45381ad-1389-482c-a78d-58377a79ee3d"},"vehicle_type_id":"4","last_reported":1739480942,"current_range_meters":38000,"station_id":"ce4bhf92rcd13ifvqf50","pricing_plan_id":"cebpf4jnsgd1na2vs0mg"},{"bike_id":"51ab7186-5043-4bed-baca-73708608a302","system_id":"levelo_inurba_marseille","lat":43.29584,"lon":5.37026,"is_reserved":false,"is_disabled":true,"rental_uris":{"android":"levelo://app?vid=51ab7186-5043-4bed-baca-73708608a302","ios":"levelo://app?vid=51ab7186-5043-4bed-baca-73708608a302"},"vehicle_type_id":"4","last_reported":1739480942,"current_range_meters":0,"station_id":"","pricing_plan_id":"cebpf4jnsgd1na2vs0mg"},{"bike_id":"0e23335c-ca35-4852-ac23-df5d41fe0a57","system_id":"levelo_inurba_marseille","lat":43.29875,"lon":5.38918,"is_reserved":false,"is_disabled":false,"rental_uris":{"android":"levelo://app?vid=0e23335c-ca35-4852-ac23-df5d41fe0a57","ios":"levelo://app?vid=0e23335c-ca35-4852-ac23-df5d41fe0a57"},"vehicle_type_id":"4","last_reported":1739480942,"current_range_meters":38000,"station_id":"ce4bh392rcd13ifvqdl0","pricing_plan_id":"cebpf4jnsgd1na2vs0mg"},{"bike_id":"0a091e32-861c-4a90-ba8d-79373292393c","system_id":"levelo_inurba_marseille","lat":43.27611,"lon":5.36121,"is_reserved":false,"is_disabled":false,"rental_uris":{"android":"levelo://app?vid=0a091e32-861c-4a90-ba8d-79373292393c","ios":"levelo://app?vid=0a091e32-861c-4a90-ba8d-79373292393c"},"vehicle_type_id":"4","last_reported":1739480942,"current_range_meters":8800,"station_id":"ce4bgj92rcd13ifvqbe0","pricing_plan_id":"cebpf4jnsgd1na2vs0mg"},{"bike_id":"d3fc5f7e-9983-4343-a9af-f36df7d45f29","system_id":"levelo_inurba_marseille","lat":43.231902,"lon":5.39978,"is_reserved":false,"is_disabled":false,"rental_uris":{"android":"levelo://app?vid=d3fc5f7e-9983-4343-a9af-f36df7d45f29","ios":"levelo://app?vid=d3fc5f7e-9983-4343-a9af-f36df7d45f29"},"vehicle_type_id":"4","last_reported":1739480942,"current_range_meters":23200,"station_id":"ce4bhn12rcd13ifvqgqg","pricing_plan_id":"cebpf4jnsgd1na2vs0mg"},{"bike_id":"d01cfddf-7881-4b7c-815e-f570bddc475f","system_id":"levelo_inurba_marseille","lat":43.27939,"lon":5.41049,"is_reserved":false,"is_disabled":false,"rental_uris":{"android":"levelo://app?vid=d01cfddf-7881-4b7c-815e-f570bddc475f","ios":"levelo://app?vid=d01cfddf-7881-4b7c-815e-f570bddc475f"},"vehicle_type_id":"4","last_reported":1739480942,"current_range_meters":38800,"station_id":"ce4bhnp2rcd13ifvqh0g","pricing_plan_id":"cebpf4jnsgd1na2vs0mg"},{"bike_id":"fe598011-a5df-46fc-94f5-abd59a564f24","system_id":"levelo_inurba_marseille","lat":43.29248,"lon":5.38444,"is_reserved":false,"is_disabled":false,"rental_uris":{"android":"levelo://app?vid=fe598011-a5df-46fc-94f5-abd59a564f24","ios":"levelo://app?vid=fe598011-a5df-46fc-94f5-abd59a564f24"},"vehicle_type_id":"4","last_reported":1739480942,"current_range_meters":35200,"station_id":"ce4bh692rcd13ifvqea0","pricing_plan_id":"cebpf4jnsgd1na2vs0mg"},{"bike_id":"6a1c529c-cc99-418e-96ec-6be49a781e49","system_id":"levelo_inurba_marseille","lat":43.29423,"lon":5.38609,"is_reserved":false,"is_disabled":false,"rental_uris":{"android":"levelo://app?vid=6a1c529c-cc99-418e-96ec-6be49a781e49","ios":"levelo://app?vid=6a1c529c-cc99-418e-96ec-6be49a781e49"},"vehicle_type_id":"4","last_reported":1739480942,"current_range_meters":20800,"station_id":"ce4bh2h2rcd13ifvqdh0","pricing_plan_id":"cebpf4jnsgd1na2vs0mg"},{"bike_id":"86545730-ef1d-4ebc-8c78-941032a94a82","system_id":"levelo_inurba_marseille","lat":43.28035,"lon":5.36948,"is_reserved":false,"is_disabled":false,"rental_uris":{"android":"levelo://app?vid=86545730-ef1d-4ebc-8c78-941032a94a82","ios":"levelo://app?vid=86545730-ef1d-4ebc-8c78-941032a94a82"},"vehicle_type_id":"4","last_reported":1739480942,"current_range_meters":31200,"station_id":"ce4bha12rcd13ifvqef0","pricing_plan_id":"cebpf4jnsgd1na2vs0mg"},{"bike_id":"68ff56c3-b6fc-41fd-b5ad-861703c1b03c","system_id":"levelo_inurba_marseille","lat":43.29518,"lon":5.39038,"is_reserved":false,"is_disabled":false,"rental_uris":{"android":"levelo://app?vid=68ff56c3-b6fc-41fd-b5ad-861703c1b03c","ios":"levelo://app?vid=68ff56c3-b6fc-41fd-b5ad-861703c1b03c"},"vehicle_type_id":"4","last_reported":1739480942,"current_range_meters":38800,"station_id":"ce4bh3p2rcd13ifvqdp0","pricing_plan_id":"cebpf4jnsgd1na2vs0mg"},{"bike_id":"c40e2cb9-b89c-4dbd-956b-535ef79f1d37","system_id":"levelo_inurba_marseille","lat":43.2481,"lon":5.3746,"is_reserved":false,"is_disabled":false,"rental_uris":{"android":"levelo://app?vid=c40e2cb9-b89c-4dbd-956b-535ef79f1d37","ios":"levelo://app?vid=c40e2cb9-b89c-4dbd-956b-535ef79f1d37"},"vehicle_type_id":"4","last_reported":1739480942,"current_range_meters":22800,"station_id":"ce4bhgh2rcd13ifvqfb0","pricing_plan_id":"cebpf4jnsgd1na2vs0mg"},{"bike_id":"7cd0daa1-55ff-4122-a5aa-b2ad843b72ea","system_id":"levelo_inurba_marseille","lat":43.28102,"lon":5.39876,"is_reserved":false,"is_disabled":false,"rental_uris":{"android":"levelo://app?vid=7cd0daa1-55ff-4122-a5aa-b2ad843b72ea","ios":"levelo://app?vid=7cd0daa1-55ff-4122-a5aa-b2ad843b72ea"},"vehicle_type_id":"4","last_reported":1739480942,"current_range_meters":9600,"station_id":"","pricing_plan_id":"cebpf4jnsgd1na2vs0mg"},{"bike_id":"1e59cb05-2d52-485f-ae25-4ce5b8e37d13","system_id":"levelo_inurba_marseille","lat":43.23185,"lon":5.39991,"is_reserved":false,"is_disabled":false,"rental_uris":{"android":"levelo://app?vid=1e59cb05-2d52-485f-ae25-4ce5b8e37d13","ios":"levelo://app?vid=1e59cb05-2d52-485f-ae25-4ce5b8e37d13"},"vehicle_type_id":"4","last_reported":1739480942,"current_range_meters":7200,"station_id":"ce4bhn12rcd13ifvqgqg","pricing_plan_id":"cebpf4jnsgd1na2vs0mg"},{"bike_id":"d94ad0a4-4209-47fc-bb1e-86a94e106366","system_id":"levelo_inurba_marseille","lat":43.28831,"lon":5.35866,"is_reserved":false,"is_disabled":false,"rental_uris":{"android":"levelo://app?vid=d94ad0a4-4209-47fc-bb1e-86a94e106366","ios":"levelo://app?vid=d94ad0a4-4209-47fc-bb1e-86a94e106366"},"vehicle_type_id":"4","last_reported":1739480942,"current_range_meters":10800,"station_id":"ce4bhb12rcd13ifvqem0","pricing_plan_id":"cebpf4jnsgd1na2vs0mg"},{"bike_id":"ee079ffa-4416-4a91-bc98-3bd665acea3b","system_id":"levelo_inurba_marseille","lat":43.33723,"lon":5.39167,"is_reserved":false,"is_disabled":false,"rental_uris":{"android":"levelo://app?vid=ee079ffa-4416-4a91-bc98-3bd665acea3b","ios":"levelo://app?vid=ee079ffa-4416-4a91-bc98-3bd665acea3b"},"vehicle_type_id":"4","last_reported":1739480942,"current_range_meters":38800,"station_id":"ce4bhr92rcd13ifvqhsg","pricing_plan_id":"cebpf4jnsgd1na2vs0mg"},{"bike_id":"1fa82dc6-47d4-4356-bbca-393bf4461726","system_id":"levelo_inurba_marseille","lat":43.2395,"lon":5.36647,"is_reserved":false,"is_disabled":false,"rental_uris":{"android":"levelo://app?vid=1fa82dc6-47d4-4356-bbca-393bf4461726","ios":"levelo://app?vid=1fa82dc6-47d4-4356-bbca-393bf4461726"},"vehicle_type_id":"4","last_reported":1739480942,"current_range_meters":38400,"station_id":"ce4bhi12rcd13ifvqfp0","pricing_plan_id":"cebpf4jnsgd1na2vs0mg"},{"bike_id":"eafbb86e-0095-46c0-a2c6-0835e69f8ed6","system_id":"levelo_inurba_marseille","lat":43.30753,"lon":5.37454,"is_reserved":false,"is_disabled":false,"rental_uris":{"android":"levelo://app?vid=eafbb86e-0095-46c0-a2c6-0835e69f8ed6","ios":"levelo://app?vid=eafbb86e-0095-46c0-a2c6-0835e69f8ed6"},"vehicle_type_id":"4","last_reported":1739480942,"current_range_meters":10800,"station_id":"","pricing_plan_id":"cebpf4jnsgd1na2vs0mg"},{"bike_id":"55851924-ebf6-45cb-af08-d48cd614ee56","system_id":"levelo_inurba_marseille","lat":43.27824,"lon":5.40714,"is_reserved":false,"is_disabled":false,"rental_uris":{"android":"levelo://app?vid=55851924-ebf6-45cb-af08-d48cd614ee56","ios":"levelo://app?vid=55851924-ebf6-45cb-af08-d48cd614ee56"},"vehicle_type_id":"4","last_reported":1739480942,"current_range_meters":38800,"station_id":"ce4bhnh2rcd13ifvqgtg","pricing_plan_id":"cebpf4jnsgd1na2vs0mg"},{"bike_id":"9638b1de-6e65-4723-820d-87a0cd11082b","system_id":"levelo_inurba_marseille","lat":43.29973,"lon":5.38502,"is_reserved":false,"is_disabled":true,"rental_uris":{"android":"levelo://app?vid=9638b1de-6e65-4723-820d-87a0cd11082b","ios":"levelo://app?vid=9638b1de-6e65-4723-820d-87a0cd11082b"},"vehicle_type_id":"4","last_reported":1739480942,"current_range_meters":38000,"station_id":"ce4bgj92rcd13ifvqbd0","pricing_plan_id":"cebpf4jnsgd1na2vs0mg"},{"bike_id":"a52e5f59-492e-4d41-bdaa-f501a2bbceb9","system_id":"levelo_inurba_marseille","lat":43.27372,"lon":5.36261,"is_reserved":false,"is_disabled":false,"rental_uris":{"android":"levelo://app?vid=a52e5f59-492e-4d41-bdaa-f501a2bbceb9","ios":"levelo://app?vid=a52e5f59-492e-4d41-bdaa-f501a2bbceb9"},"vehicle_type_id":"4","last_reported":1739480942,"current_range_meters":26000,"station_id":"ce4bhbh2rcd13ifvqeo0","pricing_plan_id":"cebpf4jnsgd1na2vs0mg"},{"bike_id":"2a4b9998-a405-4a0e-9257-7329c18e12ae","system_id":"levelo_inurba_marseille","lat":43.24098,"lon":5.37749,"is_reserved":false,"is_disabled":false,"rental_uris":{"android":"levelo://app?vid=2a4b9998-a405-4a0e-9257-7329c18e12ae","ios":"levelo://app?vid=2a4b9998-a405-4a0e-9257-7329c18e12ae"},"vehicle_type_id":"4","last_reported":1739480942,"current_range_meters":18800,"station_id":"ce4bhnp2rcd13ifvqgvg","pricing_plan_id":"cebpf4jnsgd1na2vs0mg"},{"bike_id":"896ec56b-5525-4094-9b48-4e6034904017","system_id":"levelo_inurba_marseille","lat":43.30895,"lon":5.39635,"is_reserved":false,"is_disabled":false,"rental_uris":{"android":"levelo://app?vid=896ec56b-5525-4094-9b48-4e6034904017","ios":"levelo://app?vid=896ec56b-5525-4094-9b48-4e6034904017"},"vehicle_type_id":"4","last_reported":1739480942,"current_range_meters":38800,"station_id":"ce4bh012rcd13ifvqcv0","pricing_plan_id":"cebpf4jnsgd1na2vs0mg"},{"bike_id":"668e42b6-a592-4ccd-9a67-0b85c9348e27","system_id":"levelo_inurba_marseille","lat":43.28674,"lon":5.38671,"is_reserved":false,"is_disabled":false,"rental_uris":{"android":"levelo://app?vid=668e42b6-a592-4ccd-9a67-0b85c9348e27","ios":"levelo://app?vid=668e42b6-a592-4ccd-9a67-0b85c9348e27"},"vehicle_type_id":"4","last_reported":1739480942,"current_range_meters":38000,"station_id":"ce4bh492rcd13ifvqdug","pricing_plan_id":"cebpf4jnsgd1na2vs0mg"},{"bike_id":"83dc17c6-5483-4911-a98e-812dbdb1c9f8","system_id":"levelo_inurba_marseille","lat":43.29573,"lon":5.39974,"is_reserved":false,"is_disabled":true,"rental_uris":{"android":"levelo://app?vid=83dc17c6-5483-4911-a98e-812dbdb1c9f8","ios":"levelo://app?vid=83dc17c6-5483-4911-a98e-812dbdb1c9f8"},"vehicle_type_id":"4","last_reported":1739480942,"current_range_meters":0,"station_id":"ce4bh312rcd13ifvqdj0","pricing_plan_id":"cebpf4jnsgd1na2vs0mg"},{"bike_id":"b2c2d795-8fcd-4b62-8101-8fe31e15144e","system_id":"levelo_inurba_marseille","lat":43.29935,"lon":5.36552,"is_reserved":false,"is_disabled":false,"rental_uris":{"android":"levelo://app?vid=b2c2d795-8fcd-4b62-8101-8fe31e15144e","ios":"levelo://app?vid=b2c2d795-8fcd-4b62-8101-8fe31e15144e"},"vehicle_type_id":"4","last_reported":1739480942,"current_range_meters":16800,"station_id":"ce4bgm92rcd13ifvqbr0","pricing_plan_id":"cebpf4jnsgd1na2vs0mg"},{"bike_id":"a3c1a4ab-82f6-4315-9ed6-5bac6bafe89a","system_id":"levelo_inurba_marseille","lat":43.28725,"lon":5.36103,"is_reserved":false,"is_disabled":false,"rental_uris":{"android":"levelo://app?vid=a3c1a4ab-82f6-4315-9ed6-5bac6bafe89a","ios":"levelo://app?vid=a3c1a4ab-82f6-4315-9ed6-5bac6bafe89a"},"vehicle_type_id":"4","last_reported":1739480942,"current_range_meters":21600,"station_id":"cki0cbj6b192h4jlfktg","pricing_plan_id":"cebpf4jnsgd1na2vs0mg"},{"bike_id":"3f0d5a9b-ed4b-4d06-952e-029576553500","system_id":"levelo_inurba_marseille","lat":43.26058,"lon":5.39395,"is_reserved":false,"is_disabled":false,"rental_uris":{"android":"levelo://app?vid=3f0d5a9b-ed4b-4d06-952e-029576553500","ios":"levelo://app?vid=3f0d5a9b-ed4b-4d06-952e-029576553500"},"vehicle_type_id":"4","last_reported":1739480942,"current_range_meters":38800,"station_id":"ce4bhh92rcd13ifvqfj0","pricing_plan_id":"cebpf4jnsgd1na2vs0mg"},{"bike_id":"0f2de5cd-c636-4001-ab39-c26b347a3fee","system_id":"levelo_inurba_marseille","lat":43.26062,"lon":5.39397,"is_reserved":false,"is_disabled":false,"rental_uris":{"android":"levelo://app?vid=0f2de5cd-c636-4001-ab39-c26b347a3fee","ios":"levelo://app?vid=0f2de5cd-c636-4001-ab39-c26b347a3fee"},"vehicle_type_id":"4","last_reported":1739480942,"current_range_meters":38800,"station_id":"ce4bhh92rcd13ifvqfj0","pricing_plan_id":"cebpf4jnsgd1na2vs0mg"},{"bike_id":"f5115d6c-1bfa-47c0-8546-f2395f55c348","system_id":"levelo_inurba_marseille","lat":43.27615,"lon":5.36109,"is_reserved":false,"is_disabled":false,"rental_uris":{"android":"levelo://app?vid=f5115d6c-1bfa-47c0-8546-f2395f55c348","ios":"levelo://app?vid=f5115d6c-1bfa-47c0-8546-f2395f55c348"},"vehicle_type_id":"4","last_reported":1739480942,"current_range_meters":2800,"station_id":"ce4bgj92rcd13ifvqbe0","pricing_plan_id":"cebpf4jnsgd1na2vs0mg"},{"bike_id":"64c6b46b-656d-4ea4-b38b-769c889a07b3","system_id":"levelo_inurba_marseille","lat":43.26551,"lon":5.39002,"is_reserved":false,"is_disabled":false,"rental_uris":{"android":"levelo://app?vid=64c6b46b-656d-4ea4-b38b-769c889a07b3","ios":"levelo://app?vid=64c6b46b-656d-4ea4-b38b-769c889a07b3"},"vehicle_type_id":"4","last_reported":1739480942,"current_range_meters":38800,"station_id":"ce4bhe12rcd13ifvqf30","pricing_plan_id":"cebpf4jnsgd1na2vs0mg"},{"bike_id":"39aaa5d4-2a53-47c2-883c-03455c231e64","system_id":"levelo_inurba_marseille","lat":43.28718,"lon":5.36103,"is_reserved":false,"is_disabled":false,"rental_uris":{"android":"levelo://app?vid=39aaa5d4-2a53-47c2-883c-03455c231e64","ios":"levelo://app?vid=39aaa5d4-2a53-47c2-883c-03455c231e64"},"vehicle_type_id":"4","last_reported":1739480942,"current_range_meters":36000,"station_id":"cki0cbj6b192h4jlfktg","pricing_plan_id":"cebpf4jnsgd1na2vs0mg"},{"bike_id":"2f4c6ec0-fbda-4154-a953-ad82d010ef1c","system_id":"levelo_inurba_marseille","lat":43.32048,"lon":5.41539,"is_reserved":false,"is_disabled":false,"rental_uris":{"android":"levelo://app?vid=2f4c6ec0-fbda-4154-a953-ad82d010ef1c","ios":"levelo://app?vid=2f4c6ec0-fbda-4154-a953-ad82d010ef1c"},"vehicle_type_id":"4","last_reported":1739480942,"current_range_meters":38800,"station_id":"ce4bhq92rcd13ifvqhkg","pricing_plan_id":"cebpf4jnsgd1na2vs0mg"},{"bike_id":"88a95536-9bfd-43cd-ba1c-09deb4a37283","system_id":"levelo_inurba_marseille","lat":43.29028,"lon":5.38641,"is_reserved":false,"is_disabled":false,"rental_uris":{"android":"levelo://app?vid=88a95536-9bfd-43cd-ba1c-09deb4a37283","ios":"levelo://app?vid=88a95536-9bfd-43cd-ba1c-09deb4a37283"},"vehicle_type_id":"4","last_reported":1739480942,"current_range_meters":24800,"station_id":"ce4bh4p2rcd13ifvqe0g","pricing_plan_id":"cebpf4jnsgd1na2vs0mg"},{"bike_id":"85299ea2-1a1b-41d4-8ee9-43325dd8e003","system_id":"levelo_inurba_marseille","lat":43.29228,"lon":5.36059,"is_reserved":false,"is_disabled":false,"rental_uris":{"android":"levelo://app?vid=85299ea2-1a1b-41d4-8ee9-43325dd8e003","ios":"levelo://app?vid=85299ea2-1a1b-41d4-8ee9-43325dd8e003"},"vehicle_type_id":"4","last_reported":1739480942,"current_range_meters":38800,"station_id":"ce4bhbh2rcd13ifvqeqg","pricing_plan_id":"cebpf4jnsgd1na2vs0mg"},{"bike_id":"08a86ebb-b290-4f14-9520-6a5a716f26bd","system_id":"levelo_inurba_marseille","lat":43.23956,"lon":5.36634,"is_reserved":false,"is_disabled":false,"rental_uris":{"android":"levelo://app?vid=08a86ebb-b290-4f14-9520-6a5a716f26bd","ios":"levelo://app?vid=08a86ebb-b290-4f14-9520-6a5a716f26bd"},"vehicle_type_id":"4","last_reported":1739480942,"current_range_meters":38400,"station_id":"ce4bhi12rcd13ifvqfp0","pricing_plan_id":"cebpf4jnsgd1na2vs0mg"},{"bike_id":"1b3240b9-62c2-42db-81c5-39052ccf06ee","system_id":"levelo_inurba_marseille","lat":43.32656,"lon":5.40998,"is_reserved":false,"is_disabled":false,"rental_uris":{"android":"levelo://app?vid=1b3240b9-62c2-42db-81c5-39052ccf06ee","ios":"levelo://app?vid=1b3240b9-62c2-42db-81c5-39052ccf06ee"},"vehicle_type_id":"4","last_reported":1739480942,"current_range_meters":26000,"station_id":"ce4bhpp2rcd13ifvqhgg","pricing_plan_id":"cebpf4jnsgd1na2vs0mg"},{"bike_id":"80897a2a-2a00-41fb-b479-a38b46796bd7","system_id":"levelo_inurba_marseille","lat":43.30404,"lon":5.37821,"is_reserved":false,"is_disabled":true,"rental_uris":{"android":"levelo://app?vid=80897a2a-2a00-41fb-b479-a38b46796bd7","ios":"levelo://app?vid=80897a2a-2a00-41fb-b479-a38b46796bd7"},"vehicle_type_id":"4","last_reported":1739480942,"current_range_meters":0,"station_id":"","pricing_plan_id":"cebpf4jnsgd1na2vs0mg"},{"bike_id":"b0e41783-fdea-44bc-8bdb-e91e16025fcd","system_id":"levelo_inurba_marseille","lat":43.29032,"lon":5.38657,"is_reserved":false,"is_disabled":false,"rental_uris":{"android":"levelo://app?vid=b0e41783-fdea-44bc-8bdb-e91e16025fcd","ios":"levelo://app?vid=b0e41783-fdea-44bc-8bdb-e91e16025fcd"},"vehicle_type_id":"4","last_reported":1739480942,"current_range_meters":38000,"station_id":"ce4bh4p2rcd13ifvqe0g","pricing_plan_id":"cebpf4jnsgd1na2vs0mg"},{"bike_id":"23849fcd-4bc4-44f6-8337-e9a9a16fe0e7","system_id":"levelo_inurba_marseille","lat":43.29732,"lon":5.47952,"is_reserved":false,"is_disabled":false,"rental_uris":{"android":"levelo://app?vid=23849fcd-4bc4-44f6-8337-e9a9a16fe0e7","ios":"levelo://app?vid=23849fcd-4bc4-44f6-8337-e9a9a16fe0e7"},"vehicle_type_id":"4","last_reported":1739480942,"current_range_meters":6800,"station_id":"","pricing_plan_id":"cebpf4jnsgd1na2vs0mg"},{"bike_id":"fe02ae05-699c-4f05-a53d-04396c4b1391","system_id":"levelo_inurba_marseille","lat":43.2942,"lon":5.38623,"is_reserved":false,"is_disabled":false,"rental_uris":{"android":"levelo://app?vid=fe02ae05-699c-4f05-a53d-04396c4b1391","ios":"levelo://app?vid=fe02ae05-699c-4f05-a53d-04396c4b1391"},"vehicle_type_id":"4","last_reported":1739480942,"current_range_meters":38800,"station_id":"ce4bh2h2rcd13ifvqdh0","pricing_plan_id":"cebpf4jnsgd1na2vs0mg"},{"bike_id":"c1af073b-dd9a-4a77-ac16-33944535d631","system_id":"levelo_inurba_marseille","lat":43.28941,"lon":5.36634,"is_reserved":false,"is_disabled":false,"rental_uris":{"android":"levelo://app?vid=c1af073b-dd9a-4a77-ac16-33944535d631","ios":"levelo://app?vid=c1af073b-dd9a-4a77-ac16-33944535d631"},"vehicle_type_id":"4","last_reported":1739480942,"current_range_meters":14000,"station_id":"ce4bhap2rcd13ifvqek0","pricing_plan_id":"cebpf4jnsgd1na2vs0mg"},{"bike_id":"b3fd0009-bbb7-4e76-a71a-f46e8625ffa6","system_id":"levelo_inurba_marseille","lat":43.28348,"lon":5.38103,"is_reserved":false,"is_disabled":false,"rental_uris":{"android":"levelo://app?vid=b3fd0009-bbb7-4e76-a71a-f46e8625ffa6","ios":"levelo://app?vid=b3fd0009-bbb7-4e76-a71a-f46e8625ffa6"},"vehicle_type_id":"4","last_reported":1739480942,"current_range_meters":23200,"station_id":"ce4bh412rcd13ifvqdr0","pricing_plan_id":"cebpf4jnsgd1na2vs0mg"},{"bike_id":"bb4d395a-845a-4702-857d-85bf095d5271","system_id":"levelo_inurba_marseille","lat":43.29866,"lon":5.39732,"is_reserved":false,"is_disabled":false,"rental_uris":{"android":"levelo://app?vid=bb4d395a-845a-4702-857d-85bf095d5271","ios":"levelo://app?vid=bb4d395a-845a-4702-857d-85bf095d5271"},"vehicle_type_id":"4","last_reported":1739480942,"current_range_meters":38800,"station_id":"ce4bh0h2rcd13ifvqd50","pricing_plan_id":"cebpf4jnsgd1na2vs0mg"},{"bike_id":"1f84712b-5242-428d-8c9a-77198073a7b1","system_id":"levelo_inurba_marseille","lat":43.2886,"lon":5.3583,"is_reserved":false,"is_disabled":false,"rental_uris":{"android":"levelo://app?vid=1f84712b-5242-428d-8c9a-77198073a7b1","ios":"levelo://app?vid=1f84712b-5242-428d-8c9a-77198073a7b1"},"vehicle_type_id":"4","last_reported":1739480942,"current_range_meters":20400,"station_id":"ce4bhb12rcd13ifvqem0","pricing_plan_id":"cebpf4jnsgd1na2vs0mg"},{"bike_id":"6cfbf51a-4ec4-4b50-afa2-a58eb7355bc4","system_id":"levelo_inurba_marseille","lat":43.32725,"lon":5.39169,"is_reserved":false,"is_disabled":false,"rental_uris":{"android":"levelo://app?vid=6cfbf51a-4ec4-4b50-afa2-a58eb7355bc4","ios":"levelo://app?vid=6cfbf51a-4ec4-4b50-afa2-a58eb7355bc4"},"vehicle_type_id":"4","last_reported":1739480942,"current_range_meters":25600,"station_id":"","pricing_plan_id":"cebpf4jnsgd1na2vs0mg"},{"bike_id":"2ffed822-7174-41f8-ad36-b592fa66c5a6","system_id":"levelo_inurba_marseille","lat":43.23077,"lon":5.35479,"is_reserved":false,"is_disabled":false,"rental_uris":{"android":"levelo://app?vid=2ffed822-7174-41f8-ad36-b592fa66c5a6","ios":"levelo://app?vid=2ffed822-7174-41f8-ad36-b592fa66c5a6"},"vehicle_type_id":"4","last_reported":1739480942,"current_range_meters":8000,"station_id":"cpo3342slgdg3j2ifvpg","pricing_plan_id":"cebpf4jnsgd1na2vs0mg"},{"bike_id":"09a26d4e-e987-420b-833a-e775f5ca23fd","system_id":"levelo_inurba_marseille","lat":43.24177,"lon":5.39722,"is_reserved":false,"is_disabled":false,"rental_uris":{"android":"levelo://app?vid=09a26d4e-e987-420b-833a-e775f5ca23fd","ios":"levelo://app?vid=09a26d4e-e987-420b-833a-e775f5ca23fd"},"vehicle_type_id":"4","last_reported":1739480942,"current_range_meters":16000,"station_id":"ce4bhn12rcd13ifvqgpg","pricing_plan_id":"cebpf4jnsgd1na2vs0mg"},{"bike_id":"90069231-8d02-46fd-ba3f-d8e7e83900ee","system_id":"levelo_inurba_marseille","lat":43.28835,"lon":5.4382,"is_reserved":false,"is_disabled":true,"rental_uris":{"android":"levelo://app?vid=90069231-8d02-46fd-ba3f-d8e7e83900ee","ios":"levelo://app?vid=90069231-8d02-46fd-ba3f-d8e7e83900ee"},"vehicle_type_id":"4","last_reported":1739480942,"current_range_meters":0,"station_id":"","pricing_plan_id":"cebpf4jnsgd1na2vs0mg"},{"bike_id":"9d249881-5a15-4231-8a5b-9e0b021f19d2","system_id":"levelo_inurba_marseille","lat":43.27958,"lon":5.38727,"is_reserved":false,"is_disabled":true,"rental_uris":{"android":"levelo://app?vid=9d249881-5a15-4231-8a5b-9e0b021f19d2","ios":"levelo://app?vid=9d249881-5a15-4231-8a5b-9e0b021f19d2"},"vehicle_type_id":"4","last_reported":1739480942,"current_range_meters":34800,"station_id":"ce4bhg12rcd13ifvqf80","pricing_plan_id":"cebpf4jnsgd1na2vs0mg"},{"bike_id":"58363004-2f75-4579-ba4e-bf54ea4ca349","system_id":"levelo_inurba_marseille","lat":43.31077,"lon":5.38351,"is_reserved":false,"is_disabled":false,"rental_uris":{"android":"levelo://app?vid=58363004-2f75-4579-ba4e-bf54ea4ca349","ios":"levelo://app?vid=58363004-2f75-4579-ba4e-bf54ea4ca349"},"vehicle_type_id":"4","last_reported":1739480942,"current_range_meters":3600,"station_id":"ce4bgv92rcd13ifvqcr0","pricing_plan_id":"cebpf4jnsgd1na2vs0mg"},{"bike_id":"8878e5e8-e13c-4318-b499-fd415887d7cd","system_id":"levelo_inurba_marseille","lat":43.23967,"lon":5.36629,"is_reserved":false,"is_disabled":false,"rental_uris":{"android":"levelo://app?vid=8878e5e8-e13c-4318-b499-fd415887d7cd","ios":"levelo://app?vid=8878e5e8-e13c-4318-b499-fd415887d7cd"},"vehicle_type_id":"4","last_reported":1739480942,"current_range_meters":6000,"station_id":"ce4bhi12rcd13ifvqfp0","pricing_plan_id":"cebpf4jnsgd1na2vs0mg"},{"bike_id":"73b42648-e404-4494-8b3b-894459ae94cd","system_id":"levelo_inurba_marseille","lat":43.29254,"lon":5.38437,"is_reserved":false,"is_disabled":false,"rental_uris":{"android":"levelo://app?vid=73b42648-e404-4494-8b3b-894459ae94cd","ios":"levelo://app?vid=73b42648-e404-4494-8b3b-894459ae94cd"},"vehicle_type_id":"4","last_reported":1739480942,"current_range_meters":12400,"station_id":"ce4bh692rcd13ifvqea0","pricing_plan_id":"cebpf4jnsgd1na2vs0mg"},{"bike_id":"722c03d4-5f09-4a1d-bb2e-829c66405a32","system_id":"levelo_inurba_marseille","lat":43.27928,"lon":5.39573,"is_reserved":false,"is_disabled":true,"rental_uris":{"android":"levelo://app?vid=722c03d4-5f09-4a1d-bb2e-829c66405a32","ios":"levelo://app?vid=722c03d4-5f09-4a1d-bb2e-829c66405a32"},"vehicle_type_id":"4","last_reported":1739480942,"current_range_meters":38000,"station_id":"ce4bhf92rcd13ifvqf40","pricing_plan_id":"cebpf4jnsgd1na2vs0mg"},{"bike_id":"e64a29bd-ffcd-4fcb-a76c-0df6fa8db068","system_id":"levelo_inurba_marseille","lat":43.29328,"lon":5.37135,"is_reserved":false,"is_disabled":false,"rental_uris":{"android":"levelo://app?vid=e64a29bd-ffcd-4fcb-a76c-0df6fa8db068","ios":"levelo://app?vid=e64a29bd-ffcd-4fcb-a76c-0df6fa8db068"},"vehicle_type_id":"4","last_reported":1739480942,"current_range_meters":38000,"station_id":"ce4bgh92rcd13ifvqb40","pricing_plan_id":"cebpf4jnsgd1na2vs0mg"},{"bike_id":"0a1ed316-4ee4-4f0c-8ff1-2f7b901c2e4f","system_id":"levelo_inurba_marseille","lat":43.28155,"lon":5.42645,"is_reserved":false,"is_disabled":false,"rental_uris":{"android":"levelo://app?vid=0a1ed316-4ee4-4f0c-8ff1-2f7b901c2e4f","ios":"levelo://app?vid=0a1ed316-4ee4-4f0c-8ff1-2f7b901c2e4f"},"vehicle_type_id":"4","last_reported":1739480942,"current_range_meters":38800,"station_id":"ce4bhnh2rcd13ifvqgug","pricing_plan_id":"cebpf4jnsgd1na2vs0mg"},{"bike_id":"f502111f-7748-48e8-918b-58ab12805627","system_id":"levelo_inurba_marseille","lat":43.27941,"lon":5.41036,"is_reserved":false,"is_disabled":false,"rental_uris":{"android":"levelo://app?vid=f502111f-7748-48e8-918b-58ab12805627","ios":"levelo://app?vid=f502111f-7748-48e8-918b-58ab12805627"},"vehicle_type_id":"4","last_reported":1739480942,"current_range_meters":38800,"station_id":"ce4bhnp2rcd13ifvqh0g","pricing_plan_id":"cebpf4jnsgd1na2vs0mg"},{"bike_id":"5e174c38-593c-4c54-8a50-8ce84af0465c","system_id":"levelo_inurba_marseille","lat":43.2481,"lon":5.37455,"is_reserved":false,"is_disabled":false,"rental_uris":{"android":"levelo://app?vid=5e174c38-593c-4c54-8a50-8ce84af0465c","ios":"levelo://app?vid=5e174c38-593c-4c54-8a50-8ce84af0465c"},"vehicle_type_id":"4","last_reported":1739480942,"current_range_meters":38400,"station_id":"ce4bhgh2rcd13ifvqfb0","pricing_plan_id":"cebpf4jnsgd1na2vs0mg"},{"bike_id":"4905e5df-d72b-4022-9334-58bc01823618","system_id":"levelo_inurba_marseille","lat":43.24815,"lon":5.37473,"is_reserved":false,"is_disabled":false,"rental_uris":{"android":"levelo://app?vid=4905e5df-d72b-4022-9334-58bc01823618","ios":"levelo://app?vid=4905e5df-d72b-4022-9334-58bc01823618"},"vehicle_type_id":"4","last_reported":1739480942,"current_range_meters":36000,"station_id":"ce4bhgh2rcd13ifvqfb0","pricing_plan_id":"cebpf4jnsgd1na2vs0mg"},{"bike_id":"3ea65334-425f-4a48-b99c-a619debf2ad5","system_id":"levelo_inurba_marseille","lat":43.29899,"lon":5.43644,"is_reserved":false,"is_disabled":false,"rental_uris":{"android":"levelo://app?vid=3ea65334-425f-4a48-b99c-a619debf2ad5","ios":"levelo://app?vid=3ea65334-425f-4a48-b99c-a619debf2ad5"},"vehicle_type_id":"4","last_reported":1739480942,"current_range_meters":37600,"station_id":"ce4bhpp2rcd13ifvqhfg","pricing_plan_id":"cebpf4jnsgd1na2vs0mg"},{"bike_id":"60b4b24c-997c-42e2-b2f9-ef7d673c1e51","system_id":"levelo_inurba_marseille","lat":43.28459,"lon":5.35881,"is_reserved":false,"is_disabled":false,"rental_uris":{"android":"levelo://app?vid=60b4b24c-997c-42e2-b2f9-ef7d673c1e51","ios":"levelo://app?vid=60b4b24c-997c-42e2-b2f9-ef7d673c1e51"},"vehicle_type_id":"4","last_reported":1739480942,"current_range_meters":27600,"station_id":"ce4bhah2rcd13ifvqei0","pricing_plan_id":"cebpf4jnsgd1na2vs0mg"},{"bike_id":"f20fd97a-04ab-4e82-9d63-f14979b56cbc","system_id":"levelo_inurba_marseille","lat":43.29707,"lon":5.36616,"is_reserved":false,"is_disabled":false,"rental_uris":{"android":"levelo://app?vid=f20fd97a-04ab-4e82-9d63-f14979b56cbc","ios":"levelo://app?vid=f20fd97a-04ab-4e82-9d63-f14979b56cbc"},"vehicle_type_id":"4","last_reported":1739480942,"current_range_meters":38400,"station_id":"ce4bgn12rcd13ifvqbt0","pricing_plan_id":"cebpf4jnsgd1na2vs0mg"},{"bike_id":"013b7198-3a23-4670-b81d-2a16ab61e9f9","system_id":"levelo_inurba_marseille","lat":43.29579,"lon":5.37516,"is_reserved":false,"is_disabled":false,"rental_uris":{"android":"levelo://app?vid=013b7198-3a23-4670-b81d-2a16ab61e9f9","ios":"levelo://app?vid=013b7198-3a23-4670-b81d-2a16ab61e9f9"},"vehicle_type_id":"4","last_reported":1739480942,"current_range_meters":8000,"station_id":"ce4bgh92rcd13ifvqb50","pricing_plan_id":"cebpf4jnsgd1na2vs0mg"},{"bike_id":"282158b2-3007-4563-a413-a5a45c9b434e","system_id":"levelo_inurba_marseille","lat":43.28035,"lon":5.36945,"is_reserved":false,"is_disabled":false,"rental_uris":{"android":"levelo://app?vid=282158b2-3007-4563-a413-a5a45c9b434e","ios":"levelo://app?vid=282158b2-3007-4563-a413-a5a45c9b434e"},"vehicle_type_id":"4","last_reported":1739480942,"current_range_meters":23200,"station_id":"ce4bha12rcd13ifvqef0","pricing_plan_id":"cebpf4jnsgd1na2vs0mg"},{"bike_id":"4d77db09-905c-49b4-96d1-a6c7bd4303b6","system_id":"levelo_inurba_marseille","lat":43.27379,"lon":5.36234,"is_reserved":false,"is_disabled":false,"rental_uris":{"android":"levelo://app?vid=4d77db09-905c-49b4-96d1-a6c7bd4303b6","ios":"levelo://app?vid=4d77db09-905c-49b4-96d1-a6c7bd4303b6"},"vehicle_type_id":"4","last_reported":1739480942,"current_range_meters":32800,"station_id":"ce4bhbh2rcd13ifvqeo0","pricing_plan_id":"cebpf4jnsgd1na2vs0mg"},{"bike_id":"d11b0b08-9f51-4e8d-a22a-eff7c43afd04","system_id":"levelo_inurba_marseille","lat":43.27605,"lon":5.36121,"is_reserved":false,"is_disabled":false,"rental_uris":{"android":"levelo://app?vid=d11b0b08-9f51-4e8d-a22a-eff7c43afd04","ios":"levelo://app?vid=d11b0b08-9f51-4e8d-a22a-eff7c43afd04"},"vehicle_type_id":"4","last_reported":1739480942,"current_range_meters":30000,"station_id":"ce4bgj92rcd13ifvqbe0","pricing_plan_id":"cebpf4jnsgd1na2vs0mg"},{"bike_id":"79e5ad63-abd5-4d07-9e51-60dc9e7253cd","system_id":"levelo_inurba_marseille","lat":43.23191,"lon":5.399895,"is_reserved":false,"is_disabled":true,"rental_uris":{"android":"levelo://app?vid=79e5ad63-abd5-4d07-9e51-60dc9e7253cd","ios":"levelo://app?vid=79e5ad63-abd5-4d07-9e51-60dc9e7253cd"},"vehicle_type_id":"4","last_reported":1739480942,"current_range_meters":0,"station_id":"ce4bhn12rcd13ifvqgqg","pricing_plan_id":"cebpf4jnsgd1na2vs0mg"},{"bike_id":"62abc36d-a1ea-4cf4-b3b1-40bd4b3957e1","system_id":"levelo_inurba_marseille","lat":43.27376,"lon":5.36255,"is_reserved":false,"is_disabled":false,"rental_uris":{"android":"levelo://app?vid=62abc36d-a1ea-4cf4-b3b1-40bd4b3957e1","ios":"levelo://app?vid=62abc36d-a1ea-4cf4-b3b1-40bd4b3957e1"},"vehicle_type_id":"4","last_reported":1739480942,"current_range_meters":4400,"station_id":"ce4bhbh2rcd13ifvqeo0","pricing_plan_id":"cebpf4jnsgd1na2vs0mg"},{"bike_id":"492e558b-0ce5-4984-b6b1-1d33f225a96b","system_id":"levelo_inurba_marseille","lat":43.24161,"lon":5.364,"is_reserved":false,"is_disabled":false,"rental_uris":{"android":"levelo://app?vid=492e558b-0ce5-4984-b6b1-1d33f225a96b","ios":"levelo://app?vid=492e558b-0ce5-4984-b6b1-1d33f225a96b"},"vehicle_type_id":"4","last_reported":1739480942,"current_range_meters":38800,"station_id":"cpo36qri1sfpv3e86is0","pricing_plan_id":"cebpf4jnsgd1na2vs0mg"},{"bike_id":"6bf99e3e-9f10-4617-93f9-2e16108e33a0","system_id":"levelo_inurba_marseille","lat":43.23139,"lon":5.43677,"is_reserved":false,"is_disabled":false,"rental_uris":{"android":"levelo://app?vid=6bf99e3e-9f10-4617-93f9-2e16108e33a0","ios":"levelo://app?vid=6bf99e3e-9f10-4617-93f9-2e16108e33a0"},"vehicle_type_id":"4","last_reported":1739480942,"current_range_meters":38800,"station_id":"ce4bhmp2rcd13ifvqgog","pricing_plan_id":"cebpf4jnsgd1na2vs0mg"},{"bike_id":"3d17da82-f609-4b40-93f1-1e2486e3e48f","system_id":"levelo_inurba_marseille","lat":43.29093,"lon":5.38141,"is_reserved":false,"is_disabled":false,"rental_uris":{"android":"levelo://app?vid=3d17da82-f609-4b40-93f1-1e2486e3e48f","ios":"levelo://app?vid=3d17da82-f609-4b40-93f1-1e2486e3e48f"},"vehicle_type_id":"4","last_reported":1739480942,"current_range_meters":38000,"station_id":"ce4bh512rcd13ifvqe2g","pricing_plan_id":"cebpf4jnsgd1na2vs0mg"},{"bike_id":"069b441a-3fd9-4959-8a02-ec410f21c709","system_id":"levelo_inurba_marseille","lat":43.28938,"lon":5.36649,"is_reserved":false,"is_disabled":false,"rental_uris":{"android":"levelo://app?vid=069b441a-3fd9-4959-8a02-ec410f21c709","ios":"levelo://app?vid=069b441a-3fd9-4959-8a02-ec410f21c709"},"vehicle_type_id":"4","last_reported":1739480942,"current_range_meters":16000,"station_id":"ce4bhap2rcd13ifvqek0","pricing_plan_id":"cebpf4jnsgd1na2vs0mg"},{"bike_id":"5c07b678-3ca8-45fb-a40a-40bf46307afb","system_id":"levelo_inurba_marseille","lat":43.30959,"lon":5.39023,"is_reserved":false,"is_disabled":false,"rental_uris":{"android":"levelo://app?vid=5c07b678-3ca8-45fb-a40a-40bf46307afb","ios":"levelo://app?vid=5c07b678-3ca8-45fb-a40a-40bf46307afb"},"vehicle_type_id":"4","last_reported":1739480942,"current_range_meters":26000,"station_id":"ce4bgup2rcd13ifvqco0","pricing_plan_id":"cebpf4jnsgd1na2vs0mg"},{"bike_id":"13ba3871-b56c-49d0-b46f-3e06d29994b6","system_id":"levelo_inurba_marseille","lat":43.28089,"lon":5.39652,"is_reserved":false,"is_disabled":false,"rental_uris":{"android":"levelo://app?vid=13ba3871-b56c-49d0-b46f-3e06d29994b6","ios":"levelo://app?vid=13ba3871-b56c-49d0-b46f-3e06d29994b6"},"vehicle_type_id":"4","last_reported":1739480942,"current_range_meters":38000,"station_id":"ce4bho12rcd13ifvqh2g","pricing_plan_id":"cebpf4jnsgd1na2vs0mg"},{"bike_id":"ff489825-db76-49d3-aa98-c1c0aaa6bdad","system_id":"levelo_inurba_marseille","lat":43.2925,"lon":5.36665,"is_reserved":false,"is_disabled":false,"rental_uris":{"android":"levelo://app?vid=ff489825-db76-49d3-aa98-c1c0aaa6bdad","ios":"levelo://app?vid=ff489825-db76-49d3-aa98-c1c0aaa6bdad"},"vehicle_type_id":"4","last_reported":1739480942,"current_range_meters":8400,"station_id":"","pricing_plan_id":"cebpf4jnsgd1na2vs0mg"},{"bike_id":"de3a9cf4-8e51-4851-80b5-6932ae669b1d","system_id":"levelo_inurba_marseille","lat":43.28722,"lon":5.36095,"is_reserved":false,"is_disabled":false,"rental_uris":{"android":"levelo://app?vid=de3a9cf4-8e51-4851-80b5-6932ae669b1d","ios":"levelo://app?vid=de3a9cf4-8e51-4851-80b5-6932ae669b1d"},"vehicle_type_id":"4","last_reported":1739480942,"current_range_meters":30800,"station_id":"cki0cbj6b192h4jlfktg","pricing_plan_id":"cebpf4jnsgd1na2vs0mg"},{"bike_id":"b05188c1-c27a-4360-a55b-799ca6e034cf","system_id":"levelo_inurba_marseille","lat":43.28036,"lon":5.36936,"is_reserved":false,"is_disabled":false,"rental_uris":{"android":"levelo://app?vid=b05188c1-c27a-4360-a55b-799ca6e034cf","ios":"levelo://app?vid=b05188c1-c27a-4360-a55b-799ca6e034cf"},"vehicle_type_id":"4","last_reported":1739480942,"current_range_meters":12400,"station_id":"ce4bha12rcd13ifvqef0","pricing_plan_id":"cebpf4jnsgd1na2vs0mg"},{"bike_id":"bace8bf9-f802-4769-a1ab-149feec80afe","system_id":"levelo_inurba_marseille","lat":43.28863,"lon":5.35848,"is_reserved":false,"is_disabled":false,"rental_uris":{"android":"levelo://app?vid=bace8bf9-f802-4769-a1ab-149feec80afe","ios":"levelo://app?vid=bace8bf9-f802-4769-a1ab-149feec80afe"},"vehicle_type_id":"4","last_reported":1739480942,"current_range_meters":30400,"station_id":"ce4bhb12rcd13ifvqem0","pricing_plan_id":"cebpf4jnsgd1na2vs0mg"},{"bike_id":"696cf135-f594-4ebe-9761-65a94f5684af","system_id":"levelo_inurba_marseille","lat":43.28444,"lon":5.39196,"is_reserved":false,"is_disabled":false,"rental_uris":{"android":"levelo://app?vid=696cf135-f594-4ebe-9761-65a94f5684af","ios":"levelo://app?vid=696cf135-f594-4ebe-9761-65a94f5684af"},"vehicle_type_id":"4","last_reported":1739480942,"current_range_meters":37600,"station_id":"ce4bhoh2rcd13ifvqh5g","pricing_plan_id":"cebpf4jnsgd1na2vs0mg"},{"bike_id":"45d5e433-a786-4531-8b89-e911162341ed","system_id":"levelo_inurba_marseille","lat":43.30417,"lon":5.41292,"is_reserved":false,"is_disabled":false,"rental_uris":{"android":"levelo://app?vid=45d5e433-a786-4531-8b89-e911162341ed","ios":"levelo://app?vid=45d5e433-a786-4531-8b89-e911162341ed"},"vehicle_type_id":"4","last_reported":1739480942,"current_range_meters":31200,"station_id":"ce4bhop2rcd13ifvqh8g","pricing_plan_id":"cebpf4jnsgd1na2vs0mg"},{"bike_id":"af7ae1e3-87b2-4cd3-9b8f-a973c351af89","system_id":"levelo_inurba_marseille","lat":43.23187,"lon":5.39989,"is_reserved":false,"is_disabled":false,"rental_uris":{"android":"levelo://app?vid=af7ae1e3-87b2-4cd3-9b8f-a973c351af89","ios":"levelo://app?vid=af7ae1e3-87b2-4cd3-9b8f-a973c351af89"},"vehicle_type_id":"4","last_reported":1739480942,"current_range_meters":36800,"station_id":"ce4bhn12rcd13ifvqgqg","pricing_plan_id":"cebpf4jnsgd1na2vs0mg"},{"bike_id":"004dcd9f-fe33-47bd-93fa-19bdccc4b89f","system_id":"levelo_inurba_marseille","lat":43.251181,"lon":5.403092,"is_reserved":false,"is_disabled":false,"rental_uris":{"android":"levelo://app?vid=004dcd9f-fe33-47bd-93fa-19bdccc4b89f","ios":"levelo://app?vid=004dcd9f-fe33-47bd-93fa-19bdccc4b89f"},"vehicle_type_id":"4","last_reported":1739480942,"current_range_meters":38800,"station_id":"ce4bhm12rcd13ifvqgkg","pricing_plan_id":"cebpf4jnsgd1na2vs0mg"},{"bike_id":"4dbc26c6-2a15-45e7-b1cd-4e0586d88b2f","system_id":"levelo_inurba_marseille","lat":43.27381,"lon":5.36255,"is_reserved":false,"is_disabled":true,"rental_uris":{"android":"levelo://app?vid=4dbc26c6-2a15-45e7-b1cd-4e0586d88b2f","ios":"levelo://app?vid=4dbc26c6-2a15-45e7-b1cd-4e0586d88b2f"},"vehicle_type_id":"4","last_reported":1739480942,"current_range_meters":37600,"station_id":"ce4bhbh2rcd13ifvqeo0","pricing_plan_id":"cebpf4jnsgd1na2vs0mg"},{"bike_id":"2a8d5b38-12c7-43ca-969a-fe7b4ef5b359","system_id":"levelo_inurba_marseille","lat":43.31695,"lon":5.37746,"is_reserved":false,"is_disabled":true,"rental_uris":{"android":"levelo://app?vid=2a8d5b38-12c7-43ca-969a-fe7b4ef5b359","ios":"levelo://app?vid=2a8d5b38-12c7-43ca-969a-fe7b4ef5b359"},"vehicle_type_id":"4","last_reported":1739480942,"current_range_meters":1200,"station_id":"ce4bgth2rcd13ifvqch0","pricing_plan_id":"cebpf4jnsgd1na2vs0mg"},{"bike_id":"6667b4d4-ceb0-4435-a527-8fea93b7d41b","system_id":"levelo_inurba_marseille","lat":43.24819,"lon":5.37443,"is_reserved":false,"is_disabled":false,"rental_uris":{"android":"levelo://app?vid=6667b4d4-ceb0-4435-a527-8fea93b7d41b","ios":"levelo://app?vid=6667b4d4-ceb0-4435-a527-8fea93b7d41b"},"vehicle_type_id":"4","last_reported":1739480942,"current_range_meters":35200,"station_id":"ce4bhgh2rcd13ifvqfb0","pricing_plan_id":"cebpf4jnsgd1na2vs0mg"},{"bike_id":"a679c3c7-ae46-4558-bb10-4bb5766a2a31","system_id":"levelo_inurba_marseille","lat":43.24804,"lon":5.37458,"is_reserved":false,"is_disabled":false,"rental_uris":{"android":"levelo://app?vid=a679c3c7-ae46-4558-bb10-4bb5766a2a31","ios":"levelo://app?vid=a679c3c7-ae46-4558-bb10-4bb5766a2a31"},"vehicle_type_id":"4","last_reported":1739480942,"current_range_meters":9600,"station_id":"ce4bhgh2rcd13ifvqfb0","pricing_plan_id":"cebpf4jnsgd1na2vs0mg"},{"bike_id":"00f8a0ff-c4e3-42da-8103-f17cc4b1ba0d","system_id":"levelo_inurba_marseille","lat":43.28152,"lon":5.42645,"is_reserved":false,"is_disabled":false,"rental_uris":{"android":"levelo://app?vid=00f8a0ff-c4e3-42da-8103-f17cc4b1ba0d","ios":"levelo://app?vid=00f8a0ff-c4e3-42da-8103-f17cc4b1ba0d"},"vehicle_type_id":"4","last_reported":1739480942,"current_range_meters":20400,"station_id":"ce4bhnh2rcd13ifvqgug","pricing_plan_id":"cebpf4jnsgd1na2vs0mg"},{"bike_id":"4ea43258-6f7b-488f-b74f-68c10779b742","system_id":"levelo_inurba_marseille","lat":43.29101,"lon":5.38137,"is_reserved":false,"is_disabled":true,"rental_uris":{"android":"levelo://app?vid=4ea43258-6f7b-488f-b74f-68c10779b742","ios":"levelo://app?vid=4ea43258-6f7b-488f-b74f-68c10779b742"},"vehicle_type_id":"4","last_reported":1739480942,"current_range_meters":1200,"station_id":"ce4bh512rcd13ifvqe2g","pricing_plan_id":"cebpf4jnsgd1na2vs0mg"},{"bike_id":"d7211194-703e-4d7b-b1fc-6a1467a41aa6","system_id":"levelo_inurba_marseille","lat":43.28031,"lon":5.36959,"is_reserved":false,"is_disabled":false,"rental_uris":{"android":"levelo://app?vid=d7211194-703e-4d7b-b1fc-6a1467a41aa6","ios":"levelo://app?vid=d7211194-703e-4d7b-b1fc-6a1467a41aa6"},"vehicle_type_id":"4","last_reported":1739480942,"current_range_meters":38400,"station_id":"ce4bha12rcd13ifvqef0","pricing_plan_id":"cebpf4jnsgd1na2vs0mg"},{"bike_id":"5429a055-5c17-4863-ac08-ee7234bc7af8","system_id":"levelo_inurba_marseille","lat":43.32265,"lon":5.36835,"is_reserved":false,"is_disabled":false,"rental_uris":{"android":"levelo://app?vid=5429a055-5c17-4863-ac08-ee7234bc7af8","ios":"levelo://app?vid=5429a055-5c17-4863-ac08-ee7234bc7af8"},"vehicle_type_id":"4","last_reported":1739480942,"current_range_meters":38800,"station_id":"","pricing_plan_id":"cebpf4jnsgd1na2vs0mg"},{"bike_id":"e9bb0490-eac7-4b0a-984e-8eb264924955","system_id":"levelo_inurba_marseille","lat":43.28353,"lon":5.38101,"is_reserved":false,"is_disabled":false,"rental_uris":{"android":"levelo://app?vid=e9bb0490-eac7-4b0a-984e-8eb264924955","ios":"levelo://app?vid=e9bb0490-eac7-4b0a-984e-8eb264924955"},"vehicle_type_id":"4","last_reported":1739480942,"current_range_meters":34000,"station_id":"ce4bh412rcd13ifvqdr0","pricing_plan_id":"cebpf4jnsgd1na2vs0mg"},{"bike_id":"9183921d-8e97-4c4b-a98e-67fb34e43b27","system_id":"levelo_inurba_marseille","lat":43.2862,"lon":5.3511,"is_reserved":false,"is_disabled":false,"rental_uris":{"android":"levelo://app?vid=9183921d-8e97-4c4b-a98e-67fb34e43b27","ios":"levelo://app?vid=9183921d-8e97-4c4b-a98e-67fb34e43b27"},"vehicle_type_id":"4","last_reported":1739480942,"current_range_meters":14800,"station_id":"ce4bhch2rcd13ifvqeug","pricing_plan_id":"cebpf4jnsgd1na2vs0mg"},{"bike_id":"e067571b-67a4-4767-99d2-aec18283f7e1","system_id":"levelo_inurba_marseille","lat":43.29622,"lon":5.37159,"is_reserved":false,"is_disabled":true,"rental_uris":{"android":"levelo://app?vid=e067571b-67a4-4767-99d2-aec18283f7e1","ios":"levelo://app?vid=e067571b-67a4-4767-99d2-aec18283f7e1"},"vehicle_type_id":"4","last_reported":1739480942,"current_range_meters":38800,"station_id":"ce4bgnh2rcd13ifvqc0g","pricing_plan_id":"cebpf4jnsgd1na2vs0mg"},{"bike_id":"acc39daa-3a4d-4c95-b5a8-16360a611402","system_id":"levelo_inurba_marseille","lat":43.29621,"lon":5.37155,"is_reserved":false,"is_disabled":true,"rental_uris":{"android":"levelo://app?vid=acc39daa-3a4d-4c95-b5a8-16360a611402","ios":"levelo://app?vid=acc39daa-3a4d-4c95-b5a8-16360a611402"},"vehicle_type_id":"4","last_reported":1739480942,"current_range_meters":38000,"station_id":"ce4bgnh2rcd13ifvqc0g","pricing_plan_id":"cebpf4jnsgd1na2vs0mg"},{"bike_id":"859c79c3-9c5b-47b3-94ad-94355d1f1457","system_id":"levelo_inurba_marseille","lat":43.24397,"lon":5.37054,"is_reserved":false,"is_disabled":false,"rental_uris":{"android":"levelo://app?vid=859c79c3-9c5b-47b3-94ad-94355d1f1457","ios":"levelo://app?vid=859c79c3-9c5b-47b3-94ad-94355d1f1457"},"vehicle_type_id":"4","last_reported":1739480942,"current_range_meters":16800,"station_id":"ce4bhhh2rcd13ifvqfk0","pricing_plan_id":"cebpf4jnsgd1na2vs0mg"},{"bike_id":"cf73e322-554b-4367-90da-4094aa8d4425","system_id":"levelo_inurba_marseille","lat":43.296,"lon":5.38096,"is_reserved":false,"is_disabled":false,"rental_uris":{"android":"levelo://app?vid=cf73e322-554b-4367-90da-4094aa8d4425","ios":"levelo://app?vid=cf73e322-554b-4367-90da-4094aa8d4425"},"vehicle_type_id":"4","last_reported":1739480942,"current_range_meters":24000,"station_id":"ce4bgl12rcd13ifvqbo0","pricing_plan_id":"cebpf4jnsgd1na2vs0mg"},{"bike_id":"ac3c044a-925a-417d-af51-4bf440a88281","system_id":"levelo_inurba_marseille","lat":43.29532,"lon":5.38546,"is_reserved":false,"is_disabled":false,"rental_uris":{"android":"levelo://app?vid=ac3c044a-925a-417d-af51-4bf440a88281","ios":"levelo://app?vid=ac3c044a-925a-417d-af51-4bf440a88281"},"vehicle_type_id":"4","last_reported":1739480942,"current_range_meters":20800,"station_id":"ce4bgih2rcd13ifvqba0","pricing_plan_id":"cebpf4jnsgd1na2vs0mg"},{"bike_id":"49cecf1b-5be7-4a56-8381-5afa240e30ce","system_id":"levelo_inurba_marseille","lat":43.31081,"lon":5.42439,"is_reserved":false,"is_disabled":false,"rental_uris":{"android":"levelo://app?vid=49cecf1b-5be7-4a56-8381-5afa240e30ce","ios":"levelo://app?vid=49cecf1b-5be7-4a56-8381-5afa240e30ce"},"vehicle_type_id":"4","last_reported":1739480942,"current_range_meters":23200,"station_id":"ce4bhp92rcd13ifvqhag","pricing_plan_id":"cebpf4jnsgd1na2vs0mg"},{"bike_id":"0e7b7964-ea54-42c5-bc2b-8ebf34f8cbe5","system_id":"levelo_inurba_marseille","lat":43.27608,"lon":5.36118,"is_reserved":false,"is_disabled":false,"rental_uris":{"android":"levelo://app?vid=0e7b7964-ea54-42c5-bc2b-8ebf34f8cbe5","ios":"levelo://app?vid=0e7b7964-ea54-42c5-bc2b-8ebf34f8cbe5"},"vehicle_type_id":"4","last_reported":1739480942,"current_range_meters":31200,"station_id":"ce4bgj92rcd13ifvqbe0","pricing_plan_id":"cebpf4jnsgd1na2vs0mg"},{"bike_id":"26f0985e-a357-471e-b223-f3f92b194cf2","system_id":"levelo_inurba_marseille","lat":43.29419,"lon":5.38611,"is_reserved":false,"is_disabled":false,"rental_uris":{"android":"levelo://app?vid=26f0985e-a357-471e-b223-f3f92b194cf2","ios":"levelo://app?vid=26f0985e-a357-471e-b223-f3f92b194cf2"},"vehicle_type_id":"4","last_reported":1739480942,"current_range_meters":21600,"station_id":"ce4bh2h2rcd13ifvqdh0","pricing_plan_id":"cebpf4jnsgd1na2vs0mg"},{"bike_id":"461adab4-122d-4728-a5a3-e5e54925a223","system_id":"levelo_inurba_marseille","lat":43.29535,"lon":5.39037,"is_reserved":false,"is_disabled":false,"rental_uris":{"android":"levelo://app?vid=461adab4-122d-4728-a5a3-e5e54925a223","ios":"levelo://app?vid=461adab4-122d-4728-a5a3-e5e54925a223"},"vehicle_type_id":"4","last_reported":1739480942,"current_range_meters":29600,"station_id":"ce4bh3p2rcd13ifvqdp0","pricing_plan_id":"cebpf4jnsgd1na2vs0mg"},{"bike_id":"2013cac2-eba1-4d23-a520-58986dfc296d","system_id":"levelo_inurba_marseille","lat":43.29414,"lon":5.38624,"is_reserved":false,"is_disabled":false,"rental_uris":{"android":"levelo://app?vid=2013cac2-eba1-4d23-a520-58986dfc296d","ios":"levelo://app?vid=2013cac2-eba1-4d23-a520-58986dfc296d"},"vehicle_type_id":"4","last_reported":1739480942,"current_range_meters":16000,"station_id":"ce4bh2h2rcd13ifvqdh0","pricing_plan_id":"cebpf4jnsgd1na2vs0mg"},{"bike_id":"a40e6477-f581-46a3-9649-1a7492848197","system_id":"levelo_inurba_marseille","lat":43.31876,"lon":5.40755,"is_reserved":false,"is_disabled":false,"rental_uris":{"android":"levelo://app?vid=a40e6477-f581-46a3-9649-1a7492848197","ios":"levelo://app?vid=a40e6477-f581-46a3-9649-1a7492848197"},"vehicle_type_id":"4","last_reported":1739480942,"current_range_meters":14400,"station_id":"ce4bhq12rcd13ifvqhig","pricing_plan_id":"cebpf4jnsgd1na2vs0mg"},{"bike_id":"d6f38d8d-bb5a-4b27-b5d4-6029f0946ece","system_id":"levelo_inurba_marseille","lat":43.27463,"lon":5.43531,"is_reserved":false,"is_disabled":false,"rental_uris":{"android":"levelo://app?vid=d6f38d8d-bb5a-4b27-b5d4-6029f0946ece","ios":"levelo://app?vid=d6f38d8d-bb5a-4b27-b5d4-6029f0946ece"},"vehicle_type_id":"4","last_reported":1739480942,"current_range_meters":10800,"station_id":"","pricing_plan_id":"cebpf4jnsgd1na2vs0mg"},{"bike_id":"537454ac-80e7-4925-a511-c1d8a661a1ca","system_id":"levelo_inurba_marseille","lat":43.28429,"lon":5.39186,"is_reserved":false,"is_disabled":false,"rental_uris":{"android":"levelo://app?vid=537454ac-80e7-4925-a511-c1d8a661a1ca","ios":"levelo://app?vid=537454ac-80e7-4925-a511-c1d8a661a1ca"},"vehicle_type_id":"4","last_reported":1739480942,"current_range_meters":38800,"station_id":"ce4bhoh2rcd13ifvqh5g","pricing_plan_id":"cebpf4jnsgd1na2vs0mg"},{"bike_id":"9e8fe326-5d76-4691-9e64-acf86b994dab","system_id":"levelo_inurba_marseille","lat":43.27609,"lon":5.3611,"is_reserved":false,"is_disabled":false,"rental_uris":{"android":"levelo://app?vid=9e8fe326-5d76-4691-9e64-acf86b994dab","ios":"levelo://app?vid=9e8fe326-5d76-4691-9e64-acf86b994dab"},"vehicle_type_id":"4","last_reported":1739480942,"current_range_meters":30000,"station_id":"ce4bgj92rcd13ifvqbe0","pricing_plan_id":"cebpf4jnsgd1na2vs0mg"},{"bike_id":"eb74081f-8035-495f-a073-abb8444b5eb2","system_id":"levelo_inurba_marseille","lat":43.23961,"lon":5.36615,"is_reserved":false,"is_disabled":false,"rental_uris":{"android":"levelo://app?vid=eb74081f-8035-495f-a073-abb8444b5eb2","ios":"levelo://app?vid=eb74081f-8035-495f-a073-abb8444b5eb2"},"vehicle_type_id":"4","last_reported":1739480942,"current_range_meters":38000,"station_id":"ce4bhi12rcd13ifvqfp0","pricing_plan_id":"cebpf4jnsgd1na2vs0mg"},{"bike_id":"213e7ed3-b6c6-470c-8e37-ca6ffb58bff8","system_id":"levelo_inurba_marseille","lat":43.27498,"lon":5.42465,"is_reserved":false,"is_disabled":true,"rental_uris":{"android":"levelo://app?vid=213e7ed3-b6c6-470c-8e37-ca6ffb58bff8","ios":"levelo://app?vid=213e7ed3-b6c6-470c-8e37-ca6ffb58bff8"},"vehicle_type_id":"4","last_reported":1739480942,"current_range_meters":26800,"station_id":"ce4bhn92rcd13ifvqgrg","pricing_plan_id":"cebpf4jnsgd1na2vs0mg"},{"bike_id":"9e9a6714-3fc9-40fa-9906-8520375a2b7c","system_id":"levelo_inurba_marseille","lat":43.23148,"lon":5.43721,"is_reserved":false,"is_disabled":false,"rental_uris":{"android":"levelo://app?vid=9e9a6714-3fc9-40fa-9906-8520375a2b7c","ios":"levelo://app?vid=9e9a6714-3fc9-40fa-9906-8520375a2b7c"},"vehicle_type_id":"4","last_reported":1739480942,"current_range_meters":38000,"station_id":"ce4bhmp2rcd13ifvqgog","pricing_plan_id":"cebpf4jnsgd1na2vs0mg"},{"bike_id":"861e94fe-13dc-4381-880a-a34620fe78bc","system_id":"levelo_inurba_marseille","lat":43.31535,"lon":5.38034,"is_reserved":false,"is_disabled":false,"rental_uris":{"android":"levelo://app?vid=861e94fe-13dc-4381-880a-a34620fe78bc","ios":"levelo://app?vid=861e94fe-13dc-4381-880a-a34620fe78bc"},"vehicle_type_id":"4","last_reported":1739480942,"current_range_meters":25600,"station_id":"ce4bhsp2rcd13ifvqi50","pricing_plan_id":"cebpf4jnsgd1na2vs0mg"},{"bike_id":"1d59eb4d-eac6-4772-a8ee-d443954ded39","system_id":"levelo_inurba_marseille","lat":43.29414,"lon":5.38639,"is_reserved":false,"is_disabled":false,"rental_uris":{"android":"levelo://app?vid=1d59eb4d-eac6-4772-a8ee-d443954ded39","ios":"levelo://app?vid=1d59eb4d-eac6-4772-a8ee-d443954ded39"},"vehicle_type_id":"4","last_reported":1739480942,"current_range_meters":18000,"station_id":"ce4bh2h2rcd13ifvqdh0","pricing_plan_id":"cebpf4jnsgd1na2vs0mg"},{"bike_id":"3b92acd6-3254-4254-8822-55a356dbb932","system_id":"levelo_inurba_marseille","lat":43.29527,"lon":5.38546,"is_reserved":false,"is_disabled":false,"rental_uris":{"android":"levelo://app?vid=3b92acd6-3254-4254-8822-55a356dbb932","ios":"levelo://app?vid=3b92acd6-3254-4254-8822-55a356dbb932"},"vehicle_type_id":"4","last_reported":1739480942,"current_range_meters":27600,"station_id":"ce4bgih2rcd13ifvqba0","pricing_plan_id":"cebpf4jnsgd1na2vs0mg"},{"bike_id":"1ec14052-2d33-4aa1-9ab8-58cc71db74d1","system_id":"levelo_inurba_marseille","lat":43.24158,"lon":5.36424,"is_reserved":false,"is_disabled":true,"rental_uris":{"android":"levelo://app?vid=1ec14052-2d33-4aa1-9ab8-58cc71db74d1","ios":"levelo://app?vid=1ec14052-2d33-4aa1-9ab8-58cc71db74d1"},"vehicle_type_id":"4","last_reported":1739480942,"current_range_meters":4400,"station_id":"cpo36qri1sfpv3e86is0","pricing_plan_id":"cebpf4jnsgd1na2vs0mg"},{"bike_id":"6e58a69c-2a4e-4c49-840d-6e728a603acb","system_id":"levelo_inurba_marseille","lat":43.23067,"lon":5.35509,"is_reserved":false,"is_disabled":false,"rental_uris":{"android":"levelo://app?vid=6e58a69c-2a4e-4c49-840d-6e728a603acb","ios":"levelo://app?vid=6e58a69c-2a4e-4c49-840d-6e728a603acb"},"vehicle_type_id":"4","last_reported":1739480942,"current_range_meters":38800,"station_id":"cpo3342slgdg3j2ifvpg","pricing_plan_id":"cebpf4jnsgd1na2vs0mg"},{"bike_id":"4e01ce0b-738c-4105-bce0-e6deef90d0d4","system_id":"levelo_inurba_marseille","lat":43.28161,"lon":5.42657,"is_reserved":false,"is_disabled":false,"rental_uris":{"android":"levelo://app?vid=4e01ce0b-738c-4105-bce0-e6deef90d0d4","ios":"levelo://app?vid=4e01ce0b-738c-4105-bce0-e6deef90d0d4"},"vehicle_type_id":"4","last_reported":1739480942,"current_range_meters":38800,"station_id":"ce4bhnh2rcd13ifvqgug","pricing_plan_id":"cebpf4jnsgd1na2vs0mg"},{"bike_id":"cdd384b0-278a-4f91-b9e6-35c402322f3a","system_id":"levelo_inurba_marseille","lat":43.29513,"lon":5.39395,"is_reserved":false,"is_disabled":false,"rental_uris":{"android":"levelo://app?vid=cdd384b0-278a-4f91-b9e6-35c402322f3a","ios":"levelo://app?vid=cdd384b0-278a-4f91-b9e6-35c402322f3a"},"vehicle_type_id":"4","last_reported":1739480942,"current_range_meters":38800,"station_id":"ce4bh292rcd13ifvqdf0","pricing_plan_id":"cebpf4jnsgd1na2vs0mg"},{"bike_id":"ad8f6ef4-cc35-4977-9039-32a61f9200e5","system_id":"levelo_inurba_marseille","lat":43.28613,"lon":5.35114,"is_reserved":false,"is_disabled":false,"rental_uris":{"android":"levelo://app?vid=ad8f6ef4-cc35-4977-9039-32a61f9200e5","ios":"levelo://app?vid=ad8f6ef4-cc35-4977-9039-32a61f9200e5"},"vehicle_type_id":"4","last_reported":1739480942,"current_range_meters":38800,"station_id":"ce4bhch2rcd13ifvqeug","pricing_plan_id":"cebpf4jnsgd1na2vs0mg"},{"bike_id":"0734d612-ef77-4b2c-aaa6-bce46c2274cc","system_id":"levelo_inurba_marseille","lat":43.29943,"lon":5.36554,"is_reserved":false,"is_disabled":true,"rental_uris":{"android":"levelo://app?vid=0734d612-ef77-4b2c-aaa6-bce46c2274cc","ios":"levelo://app?vid=0734d612-ef77-4b2c-aaa6-bce46c2274cc"},"vehicle_type_id":"4","last_reported":1739480942,"current_range_meters":33200,"station_id":"ce4bgm92rcd13ifvqbr0","pricing_plan_id":"cebpf4jnsgd1na2vs0mg"},{"bike_id":"f50eff07-a8c4-4cc6-b46b-160543be4a0c","system_id":"levelo_inurba_marseille","lat":43.28419,"lon":5.3751,"is_reserved":false,"is_disabled":false,"rental_uris":{"android":"levelo://app?vid=f50eff07-a8c4-4cc6-b46b-160543be4a0c","ios":"levelo://app?vid=f50eff07-a8c4-4cc6-b46b-160543be4a0c"},"vehicle_type_id":"4","last_reported":1739480942,"current_range_meters":17600,"station_id":"ce4bh412rcd13ifvqds0","pricing_plan_id":"cebpf4jnsgd1na2vs0mg"},{"bike_id":"4450d397-c7c4-4c68-aed9-fa811598c082","system_id":"levelo_inurba_marseille","lat":43.32528,"lon":5.36507,"is_reserved":false,"is_disabled":false,"rental_uris":{"android":"levelo://app?vid=4450d397-c7c4-4c68-aed9-fa811598c082","ios":"levelo://app?vid=4450d397-c7c4-4c68-aed9-fa811598c082"},"vehicle_type_id":"4","last_reported":1739480942,"current_range_meters":35600,"station_id":"","pricing_plan_id":"cebpf4jnsgd1na2vs0mg"},{"bike_id":"4e5f4522-f8ff-44eb-a5fd-5b55c1a95e03","system_id":"levelo_inurba_marseille","lat":43.29246,"lon":5.38448,"is_reserved":false,"is_disabled":false,"rental_uris":{"android":"levelo://app?vid=4e5f4522-f8ff-44eb-a5fd-5b55c1a95e03","ios":"levelo://app?vid=4e5f4522-f8ff-44eb-a5fd-5b55c1a95e03"},"vehicle_type_id":"4","last_reported":1739480942,"current_range_meters":14000,"station_id":"ce4bh692rcd13ifvqea0","pricing_plan_id":"cebpf4jnsgd1na2vs0mg"},{"bike_id":"f692e2a9-f61b-4756-b34f-0b932f852eba","system_id":"levelo_inurba_marseille","lat":43.29424,"lon":5.38607,"is_reserved":false,"is_disabled":false,"rental_uris":{"android":"levelo://app?vid=f692e2a9-f61b-4756-b34f-0b932f852eba","ios":"levelo://app?vid=f692e2a9-f61b-4756-b34f-0b932f852eba"},"vehicle_type_id":"4","last_reported":1739480942,"current_range_meters":33200,"station_id":"ce4bh2h2rcd13ifvqdh0","pricing_plan_id":"cebpf4jnsgd1na2vs0mg"},{"bike_id":"97eb59e8-9229-4c3f-bb4a-3cddb70ead00","system_id":"levelo_inurba_marseille","lat":43.30324,"lon":5.40432,"is_reserved":false,"is_disabled":false,"rental_uris":{"android":"levelo://app?vid=97eb59e8-9229-4c3f-bb4a-3cddb70ead00","ios":"levelo://app?vid=97eb59e8-9229-4c3f-bb4a-3cddb70ead00"},"vehicle_type_id":"4","last_reported":1739480942,"current_range_meters":16800,"station_id":"ce4bh012rcd13ifvqd10","pricing_plan_id":"cebpf4jnsgd1na2vs0mg"},{"bike_id":"04e79b02-26b7-408e-8d07-a04361b8a27a","system_id":"levelo_inurba_marseille","lat":43.23178,"lon":5.39989,"is_reserved":false,"is_disabled":false,"rental_uris":{"android":"levelo://app?vid=04e79b02-26b7-408e-8d07-a04361b8a27a","ios":"levelo://app?vid=04e79b02-26b7-408e-8d07-a04361b8a27a"},"vehicle_type_id":"4","last_reported":1739480942,"current_range_meters":38800,"station_id":"ce4bhn12rcd13ifvqgqg","pricing_plan_id":"cebpf4jnsgd1na2vs0mg"},{"bike_id":"02ed9ecf-6481-4888-bb85-5082d846accd","system_id":"levelo_inurba_marseille","lat":43.25128,"lon":5.40338,"is_reserved":false,"is_disabled":false,"rental_uris":{"android":"levelo://app?vid=02ed9ecf-6481-4888-bb85-5082d846accd","ios":"levelo://app?vid=02ed9ecf-6481-4888-bb85-5082d846accd"},"vehicle_type_id":"4","last_reported":1739480942,"current_range_meters":38800,"station_id":"ce4bhlh2rcd13ifvqgig","pricing_plan_id":"cebpf4jnsgd1na2vs0mg"},{"bike_id":"6df977a4-cfff-47fd-9045-52a9bd9516f0","system_id":"levelo_inurba_marseille","lat":43.29016,"lon":5.38127,"is_reserved":false,"is_disabled":false,"rental_uris":{"android":"levelo://app?vid=6df977a4-cfff-47fd-9045-52a9bd9516f0","ios":"levelo://app?vid=6df977a4-cfff-47fd-9045-52a9bd9516f0"},"vehicle_type_id":"4","last_reported":1739480942,"current_range_meters":14400,"station_id":"ce4bh4p2rcd13ifvqe1g","pricing_plan_id":"cebpf4jnsgd1na2vs0mg"},{"bike_id":"b64cb318-9a9d-45df-b9e1-d16ce258851f","system_id":"levelo_inurba_marseille","lat":43.28155,"lon":5.42648,"is_reserved":false,"is_disabled":true,"rental_uris":{"android":"levelo://app?vid=b64cb318-9a9d-45df-b9e1-d16ce258851f","ios":"levelo://app?vid=b64cb318-9a9d-45df-b9e1-d16ce258851f"},"vehicle_type_id":"4","last_reported":1739480942,"current_range_meters":5600,"station_id":"ce4bhnh2rcd13ifvqgug","pricing_plan_id":"cebpf4jnsgd1na2vs0mg"},{"bike_id":"152fd37b-faf3-480e-a36f-94e6a745b61a","system_id":"levelo_inurba_marseille","lat":43.292989,"lon":5.371783,"is_reserved":false,"is_disabled":true,"rental_uris":{"android":"levelo://app?vid=152fd37b-faf3-480e-a36f-94e6a745b61a","ios":"levelo://app?vid=152fd37b-faf3-480e-a36f-94e6a745b61a"},"vehicle_type_id":"4","last_reported":1739480942,"current_range_meters":38800,"station_id":"ce4bgh92rcd13ifvqb40","pricing_plan_id":"cebpf4jnsgd1na2vs0mg"},{"bike_id":"cdacc5a7-75d8-41b3-b6fe-5c39a0e17503","system_id":"levelo_inurba_marseille","lat":43.292555,"lon":5.384413,"is_reserved":false,"is_disabled":false,"rental_uris":{"android":"levelo://app?vid=cdacc5a7-75d8-41b3-b6fe-5c39a0e17503","ios":"levelo://app?vid=cdacc5a7-75d8-41b3-b6fe-5c39a0e17503"},"vehicle_type_id":"4","last_reported":1739480942,"current_range_meters":38800,"station_id":"ce4bh692rcd13ifvqea0","pricing_plan_id":"cebpf4jnsgd1na2vs0mg"},{"bike_id":"45770c62-fa16-46cc-bf8d-53bdc911ee89","system_id":"levelo_inurba_marseille","lat":43.29866,"lon":5.39732,"is_reserved":false,"is_disabled":false,"rental_uris":{"android":"levelo://app?vid=45770c62-fa16-46cc-bf8d-53bdc911ee89","ios":"levelo://app?vid=45770c62-fa16-46cc-bf8d-53bdc911ee89"},"vehicle_type_id":"4","last_reported":1739480942,"current_range_meters":3600,"station_id":"ce4bh0h2rcd13ifvqd50","pricing_plan_id":"cebpf4jnsgd1na2vs0mg"},{"bike_id":"37f74419-ccf5-47cc-94a4-9cebdc5c37ad","system_id":"levelo_inurba_marseille","lat":43.30585,"lon":5.39354,"is_reserved":false,"is_disabled":false,"rental_uris":{"android":"levelo://app?vid=37f74419-ccf5-47cc-94a4-9cebdc5c37ad","ios":"levelo://app?vid=37f74419-ccf5-47cc-94a4-9cebdc5c37ad"},"vehicle_type_id":"4","last_reported":1739480942,"current_range_meters":9200,"station_id":"ce4bh0p2rcd13ifvqd80","pricing_plan_id":"cebpf4jnsgd1na2vs0mg"},{"bike_id":"af7adf50-b494-4a51-934b-6d78f2292b69","system_id":"levelo_inurba_marseille","lat":43.29416,"lon":5.38626,"is_reserved":false,"is_disabled":false,"rental_uris":{"android":"levelo://app?vid=af7adf50-b494-4a51-934b-6d78f2292b69","ios":"levelo://app?vid=af7adf50-b494-4a51-934b-6d78f2292b69"},"vehicle_type_id":"4","last_reported":1739480942,"current_range_meters":30800,"station_id":"ce4bh2h2rcd13ifvqdh0","pricing_plan_id":"cebpf4jnsgd1na2vs0mg"},{"bike_id":"78859df7-09af-4b3d-9738-6841c8767f38","system_id":"levelo_inurba_marseille","lat":43.29411,"lon":5.38642,"is_reserved":false,"is_disabled":false,"rental_uris":{"android":"levelo://app?vid=78859df7-09af-4b3d-9738-6841c8767f38","ios":"levelo://app?vid=78859df7-09af-4b3d-9738-6841c8767f38"},"vehicle_type_id":"4","last_reported":1739480942,"current_range_meters":20800,"station_id":"ce4bh2h2rcd13ifvqdh0","pricing_plan_id":"cebpf4jnsgd1na2vs0mg"},{"bike_id":"bbb6f758-ef12-4737-861c-2da510dfe0ae","system_id":"levelo_inurba_marseille","lat":43.30041,"lon":5.37506,"is_reserved":false,"is_disabled":false,"rental_uris":{"android":"levelo://app?vid=bbb6f758-ef12-4737-861c-2da510dfe0ae","ios":"levelo://app?vid=bbb6f758-ef12-4737-861c-2da510dfe0ae"},"vehicle_type_id":"4","last_reported":1739480942,"current_range_meters":22800,"station_id":"","pricing_plan_id":"cebpf4jnsgd1na2vs0mg"},{"bike_id":"973ad2a7-44d0-4dfc-aabe-779b9eeced18","system_id":"levelo_inurba_marseille","lat":43.30772,"lon":5.37631,"is_reserved":false,"is_disabled":false,"rental_uris":{"android":"levelo://app?vid=973ad2a7-44d0-4dfc-aabe-779b9eeced18","ios":"levelo://app?vid=973ad2a7-44d0-4dfc-aabe-779b9eeced18"},"vehicle_type_id":"4","last_reported":1739480942,"current_range_meters":31200,"station_id":"ce4bgv92rcd13ifvqcq0","pricing_plan_id":"cebpf4jnsgd1na2vs0mg"},{"bike_id":"fddacff4-091c-4d29-9920-133d2823ebbd","system_id":"levelo_inurba_marseille","lat":43.284553,"lon":5.381051,"is_reserved":false,"is_disabled":false,"rental_uris":{"android":"levelo://app?vid=fddacff4-091c-4d29-9920-133d2823ebbd","ios":"levelo://app?vid=fddacff4-091c-4d29-9920-133d2823ebbd"},"vehicle_type_id":"4","last_reported":1739480942,"current_range_meters":28800,"station_id":"ce4bh412rcd13ifvqdr0","pricing_plan_id":"cebpf4jnsgd1na2vs0mg"},{"bike_id":"d38cdbe8-a8af-4066-8a7b-efc3320f9786","system_id":"levelo_inurba_marseille","lat":43.30806,"lon":5.37418,"is_reserved":false,"is_disabled":false,"rental_uris":{"android":"levelo://app?vid=d38cdbe8-a8af-4066-8a7b-efc3320f9786","ios":"levelo://app?vid=d38cdbe8-a8af-4066-8a7b-efc3320f9786"},"vehicle_type_id":"4","last_reported":1739480942,"current_range_meters":29600,"station_id":"","pricing_plan_id":"cebpf4jnsgd1na2vs0mg"},{"bike_id":"814598d6-cbf9-4e0b-a6e1-98120f845f42","system_id":"levelo_inurba_marseille","lat":43.30432,"lon":5.38893,"is_reserved":false,"is_disabled":false,"rental_uris":{"android":"levelo://app?vid=814598d6-cbf9-4e0b-a6e1-98120f845f42","ios":"levelo://app?vid=814598d6-cbf9-4e0b-a6e1-98120f845f42"},"vehicle_type_id":"4","last_reported":1739480942,"current_range_meters":28400,"station_id":"ce4bgk12rcd13ifvqbi0","pricing_plan_id":"cebpf4jnsgd1na2vs0mg"},{"bike_id":"b75124e2-ba1b-4483-be55-83c993879b4b","system_id":"levelo_inurba_marseille","lat":43.30101,"lon":5.39081,"is_reserved":false,"is_disabled":false,"rental_uris":{"android":"levelo://app?vid=b75124e2-ba1b-4483-be55-83c993879b4b","ios":"levelo://app?vid=b75124e2-ba1b-4483-be55-83c993879b4b"},"vehicle_type_id":"4","last_reported":1739480942,"current_range_meters":28000,"station_id":"ce4bh192rcd13ifvqdb0","pricing_plan_id":"cebpf4jnsgd1na2vs0mg"},{"bike_id":"259c009c-3c83-4ff5-a62b-43abc035ef94","system_id":"levelo_inurba_marseille","lat":43.2941,"lon":5.38711,"is_reserved":false,"is_disabled":false,"rental_uris":{"android":"levelo://app?vid=259c009c-3c83-4ff5-a62b-43abc035ef94","ios":"levelo://app?vid=259c009c-3c83-4ff5-a62b-43abc035ef94"},"vehicle_type_id":"4","last_reported":1739480942,"current_range_meters":10800,"station_id":"ce4bh2h2rcd13ifvqdh0","pricing_plan_id":"cebpf4jnsgd1na2vs0mg"},{"bike_id":"ee566f3d-0e78-4ced-ac1b-e3b33c18e89e","system_id":"levelo_inurba_marseille","lat":43.24394,"lon":5.37048,"is_reserved":false,"is_disabled":false,"rental_uris":{"android":"levelo://app?vid=ee566f3d-0e78-4ced-ac1b-e3b33c18e89e","ios":"levelo://app?vid=ee566f3d-0e78-4ced-ac1b-e3b33c18e89e"},"vehicle_type_id":"4","last_reported":1739480942,"current_range_meters":20400,"station_id":"ce4bhhh2rcd13ifvqfk0","pricing_plan_id":"cebpf4jnsgd1na2vs0mg"},{"bike_id":"6078af5b-90c4-4707-8a91-a7e0efb98397","system_id":"levelo_inurba_marseille","lat":43.29297,"lon":5.37458,"is_reserved":false,"is_disabled":false,"rental_uris":{"android":"levelo://app?vid=6078af5b-90c4-4707-8a91-a7e0efb98397","ios":"levelo://app?vid=6078af5b-90c4-4707-8a91-a7e0efb98397"},"vehicle_type_id":"4","last_reported":1739480942,"current_range_meters":38800,"station_id":"ce4bgi12rcd13ifvqb70","pricing_plan_id":"cebpf4jnsgd1na2vs0mg"},{"bike_id":"0522f794-1232-4c9b-bc22-b0243233d03c","system_id":"levelo_inurba_marseille","lat":43.27938,"lon":5.41042,"is_reserved":false,"is_disabled":false,"rental_uris":{"android":"levelo://app?vid=0522f794-1232-4c9b-bc22-b0243233d03c","ios":"levelo://app?vid=0522f794-1232-4c9b-bc22-b0243233d03c"},"vehicle_type_id":"4","last_reported":1739480942,"current_range_meters":38800,"station_id":"ce4bhnp2rcd13ifvqh0g","pricing_plan_id":"cebpf4jnsgd1na2vs0mg"},{"bike_id":"2650d8a5-cef0-45cb-a033-98f311f7956b","system_id":"levelo_inurba_marseille","lat":43.30126,"lon":5.38783,"is_reserved":false,"is_disabled":false,"rental_uris":{"android":"levelo://app?vid=2650d8a5-cef0-45cb-a033-98f311f7956b","ios":"levelo://app?vid=2650d8a5-cef0-45cb-a033-98f311f7956b"},"vehicle_type_id":"4","last_reported":1739480942,"current_range_meters":28800,"station_id":"ce4bghh2rcd13ifvqb60","pricing_plan_id":"cebpf4jnsgd1na2vs0mg"},{"bike_id":"54ce597b-1ca1-4d62-923d-d4b29eec04b3","system_id":"levelo_inurba_marseille","lat":43.31131,"lon":5.38261,"is_reserved":false,"is_disabled":false,"rental_uris":{"android":"levelo://app?vid=54ce597b-1ca1-4d62-923d-d4b29eec04b3","ios":"levelo://app?vid=54ce597b-1ca1-4d62-923d-d4b29eec04b3"},"vehicle_type_id":"4","last_reported":1739480942,"current_range_meters":8800,"station_id":"","pricing_plan_id":"cebpf4jnsgd1na2vs0mg"},{"bike_id":"5900da6e-6ade-4e81-b9ef-ce2685f5a5b4","system_id":"levelo_inurba_marseille","lat":43.28855,"lon":5.39326,"is_reserved":false,"is_disabled":true,"rental_uris":{"android":"levelo://app?vid=5900da6e-6ade-4e81-b9ef-ce2685f5a5b4","ios":"levelo://app?vid=5900da6e-6ade-4e81-b9ef-ce2685f5a5b4"},"vehicle_type_id":"4","last_reported":1739480942,"current_range_meters":7200,"station_id":"ce4bh2p2rcd13ifvqdi0","pricing_plan_id":"cebpf4jnsgd1na2vs0mg"},{"bike_id":"402369da-661e-404a-928c-d7b4f9814877","system_id":"levelo_inurba_marseille","lat":43.3156,"lon":5.38002,"is_reserved":false,"is_disabled":false,"rental_uris":{"android":"levelo://app?vid=402369da-661e-404a-928c-d7b4f9814877","ios":"levelo://app?vid=402369da-661e-404a-928c-d7b4f9814877"},"vehicle_type_id":"4","last_reported":1739480942,"current_range_meters":28800,"station_id":"ce4bhsp2rcd13ifvqi50","pricing_plan_id":"cebpf4jnsgd1na2vs0mg"},{"bike_id":"1ee49351-a32d-42a5-8df5-b60e302d37e7","system_id":"levelo_inurba_marseille","lat":43.28853,"lon":5.35852,"is_reserved":false,"is_disabled":false,"rental_uris":{"android":"levelo://app?vid=1ee49351-a32d-42a5-8df5-b60e302d37e7","ios":"levelo://app?vid=1ee49351-a32d-42a5-8df5-b60e302d37e7"},"vehicle_type_id":"4","last_reported":1739480942,"current_range_meters":34000,"station_id":"ce4bhb12rcd13ifvqem0","pricing_plan_id":"cebpf4jnsgd1na2vs0mg"},{"bike_id":"6384698d-6efa-40d8-b371-125ef988348a","system_id":"levelo_inurba_marseille","lat":43.29969,"lon":5.38509,"is_reserved":false,"is_disabled":false,"rental_uris":{"android":"levelo://app?vid=6384698d-6efa-40d8-b371-125ef988348a","ios":"levelo://app?vid=6384698d-6efa-40d8-b371-125ef988348a"},"vehicle_type_id":"4","last_reported":1739480942,"current_range_meters":30000,"station_id":"ce4bgj92rcd13ifvqbd0","pricing_plan_id":"cebpf4jnsgd1na2vs0mg"},{"bike_id":"808c4efd-140e-40c8-9fa7-cbc579b492ed","system_id":"levelo_inurba_marseille","lat":43.289353,"lon":5.36402,"is_reserved":false,"is_disabled":false,"rental_uris":{"android":"levelo://app?vid=808c4efd-140e-40c8-9fa7-cbc579b492ed","ios":"levelo://app?vid=808c4efd-140e-40c8-9fa7-cbc579b492ed"},"vehicle_type_id":"4","last_reported":1739480942,"current_range_meters":26800,"station_id":"ce4bhc92rcd13ifvqetg","pricing_plan_id":"cebpf4jnsgd1na2vs0mg"},{"bike_id":"996995bd-649b-47b5-bcf8-5e8ef238bd97","system_id":"levelo_inurba_marseille","lat":43.31483,"lon":5.37306,"is_reserved":false,"is_disabled":false,"rental_uris":{"android":"levelo://app?vid=996995bd-649b-47b5-bcf8-5e8ef238bd97","ios":"levelo://app?vid=996995bd-649b-47b5-bcf8-5e8ef238bd97"},"vehicle_type_id":"4","last_reported":1739480942,"current_range_meters":8800,"station_id":"ce4bgt12rcd13ifvqcd0","pricing_plan_id":"cebpf4jnsgd1na2vs0mg"},{"bike_id":"ac2b836d-2eda-40d2-b2de-2c3cd7803e24","system_id":"levelo_inurba_marseille","lat":43.30329,"lon":5.40432,"is_reserved":false,"is_disabled":false,"rental_uris":{"android":"levelo://app?vid=ac2b836d-2eda-40d2-b2de-2c3cd7803e24","ios":"levelo://app?vid=ac2b836d-2eda-40d2-b2de-2c3cd7803e24"},"vehicle_type_id":"4","last_reported":1739480942,"current_range_meters":7200,"station_id":"ce4bh012rcd13ifvqd10","pricing_plan_id":"cebpf4jnsgd1na2vs0mg"},{"bike_id":"e5ef80dd-4702-46bb-bfde-5dd61590a716","system_id":"levelo_inurba_marseille","lat":43.2926,"lon":5.40895,"is_reserved":false,"is_disabled":false,"rental_uris":{"android":"levelo://app?vid=e5ef80dd-4702-46bb-bfde-5dd61590a716","ios":"levelo://app?vid=e5ef80dd-4702-46bb-bfde-5dd61590a716"},"vehicle_type_id":"4","last_reported":1739480942,"current_range_meters":38400,"station_id":"ce4bh192rcd13ifvqdc0","pricing_plan_id":"cebpf4jnsgd1na2vs0mg"},{"bike_id":"48296354-c1b9-4701-919e-f78762984268","system_id":"levelo_inurba_marseille","lat":43.31695,"lon":5.37774,"is_reserved":false,"is_disabled":false,"rental_uris":{"android":"levelo://app?vid=48296354-c1b9-4701-919e-f78762984268","ios":"levelo://app?vid=48296354-c1b9-4701-919e-f78762984268"},"vehicle_type_id":"4","last_reported":1739480942,"current_range_meters":36800,"station_id":"ce4bgth2rcd13ifvqch0","pricing_plan_id":"cebpf4jnsgd1na2vs0mg"},{"bike_id":"d5759068-1fad-4f54-9856-d87ead305c76","system_id":"levelo_inurba_marseille","lat":43.29269,"lon":5.40118,"is_reserved":false,"is_disabled":false,"rental_uris":{"android":"levelo://app?vid=d5759068-1fad-4f54-9856-d87ead305c76","ios":"levelo://app?vid=d5759068-1fad-4f54-9856-d87ead305c76"},"vehicle_type_id":"4","last_reported":1739480942,"current_range_meters":9200,"station_id":"ce4bh312rcd13ifvqdk0","pricing_plan_id":"cebpf4jnsgd1na2vs0mg"},{"bike_id":"8366fb7c-0063-4186-8d36-8b24404479fb","system_id":"levelo_inurba_marseille","lat":43.31358,"lon":5.38515,"is_reserved":false,"is_disabled":true,"rental_uris":{"android":"levelo://app?vid=8366fb7c-0063-4186-8d36-8b24404479fb","ios":"levelo://app?vid=8366fb7c-0063-4186-8d36-8b24404479fb"},"vehicle_type_id":"4","last_reported":1739480942,"current_range_meters":1200,"station_id":"ce4bgt92rcd13ifvqcf0","pricing_plan_id":"cebpf4jnsgd1na2vs0mg"},{"bike_id":"85b449e1-9639-4874-8936-d256042de63d","system_id":"levelo_inurba_marseille","lat":43.29255,"lon":5.38439,"is_reserved":false,"is_disabled":false,"rental_uris":{"android":"levelo://app?vid=85b449e1-9639-4874-8936-d256042de63d","ios":"levelo://app?vid=85b449e1-9639-4874-8936-d256042de63d"},"vehicle_type_id":"4","last_reported":1739480942,"current_range_meters":38400,"station_id":"ce4bh692rcd13ifvqea0","pricing_plan_id":"cebpf4jnsgd1na2vs0mg"},{"bike_id":"a89e9c9e-975d-4b29-96d5-796c13dbac73","system_id":"levelo_inurba_marseille","lat":43.29424,"lon":5.38636,"is_reserved":false,"is_disabled":false,"rental_uris":{"android":"levelo://app?vid=a89e9c9e-975d-4b29-96d5-796c13dbac73","ios":"levelo://app?vid=a89e9c9e-975d-4b29-96d5-796c13dbac73"},"vehicle_type_id":"4","last_reported":1739480942,"current_range_meters":27600,"station_id":"ce4bh2h2rcd13ifvqdh0","pricing_plan_id":"cebpf4jnsgd1na2vs0mg"},{"bike_id":"59681ca3-08bb-44b7-936c-357406e933bf","system_id":"levelo_inurba_marseille","lat":43.25865,"lon":5.39907,"is_reserved":false,"is_disabled":false,"rental_uris":{"android":"levelo://app?vid=59681ca3-08bb-44b7-936c-357406e933bf","ios":"levelo://app?vid=59681ca3-08bb-44b7-936c-357406e933bf"},"vehicle_type_id":"4","last_reported":1739480942,"current_range_meters":38000,"station_id":"ce4bhl92rcd13ifvqghg","pricing_plan_id":"cebpf4jnsgd1na2vs0mg"},{"bike_id":"b8a4c6fb-5aef-4871-8769-f0f985186c26","system_id":"levelo_inurba_marseille","lat":43.29537,"lon":5.38532,"is_reserved":false,"is_disabled":false,"rental_uris":{"android":"levelo://app?vid=b8a4c6fb-5aef-4871-8769-f0f985186c26","ios":"levelo://app?vid=b8a4c6fb-5aef-4871-8769-f0f985186c26"},"vehicle_type_id":"4","last_reported":1739480942,"current_range_meters":35600,"station_id":"ce4bgih2rcd13ifvqba0","pricing_plan_id":"cebpf4jnsgd1na2vs0mg"},{"bike_id":"5799683b-0df1-48a8-b611-35c1dd436b66","system_id":"levelo_inurba_marseille","lat":43.29235,"lon":5.38421,"is_reserved":false,"is_disabled":false,"rental_uris":{"android":"levelo://app?vid=5799683b-0df1-48a8-b611-35c1dd436b66","ios":"levelo://app?vid=5799683b-0df1-48a8-b611-35c1dd436b66"},"vehicle_type_id":"4","last_reported":1739480942,"current_range_meters":27200,"station_id":"ce4bh692rcd13ifvqea0","pricing_plan_id":"cebpf4jnsgd1na2vs0mg"},{"bike_id":"eed51985-6abc-4136-9c70-f0994b322ee2","system_id":"levelo_inurba_marseille","lat":43.29425,"lon":5.38628,"is_reserved":false,"is_disabled":true,"rental_uris":{"android":"levelo://app?vid=eed51985-6abc-4136-9c70-f0994b322ee2","ios":"levelo://app?vid=eed51985-6abc-4136-9c70-f0994b322ee2"},"vehicle_type_id":"4","last_reported":1739480942,"current_range_meters":0,"station_id":"ce4bh2h2rcd13ifvqdh0","pricing_plan_id":"cebpf4jnsgd1na2vs0mg"},{"bike_id":"58ca8d36-3abf-4f9b-bf3f-e62ed0e7a978","system_id":"levelo_inurba_marseille","lat":43.23959,"lon":5.36623,"is_reserved":false,"is_disabled":false,"rental_uris":{"android":"levelo://app?vid=58ca8d36-3abf-4f9b-bf3f-e62ed0e7a978","ios":"levelo://app?vid=58ca8d36-3abf-4f9b-bf3f-e62ed0e7a978"},"vehicle_type_id":"4","last_reported":1739480942,"current_range_meters":12800,"station_id":"ce4bhi12rcd13ifvqfp0","pricing_plan_id":"cebpf4jnsgd1na2vs0mg"},{"bike_id":"05753aab-2a5e-492a-80c0-4434a5f0cd7d","system_id":"levelo_inurba_marseille","lat":43.299381,"lon":5.365488,"is_reserved":false,"is_disabled":false,"rental_uris":{"android":"levelo://app?vid=05753aab-2a5e-492a-80c0-4434a5f0cd7d","ios":"levelo://app?vid=05753aab-2a5e-492a-80c0-4434a5f0cd7d"},"vehicle_type_id":"4","last_reported":1739480942,"current_range_meters":38800,"station_id":"ce4bgm92rcd13ifvqbr0","pricing_plan_id":"cebpf4jnsgd1na2vs0mg"},