{"last_updated":1767629784,"ttl":60,"version":"2.2","data":{"bikes":[{"bike_id":"c6d6ad17-1d8b-442a-add7-3e598447810c","system_id":"levelo_inurba_marseille","lat":43.27916,"lon":5.39597,"is_reserved":false,"is_disabled":false,"rental_uris":{"android":"levelo://app?vid=c6d6ad17-1d8b-442a-add7-3e598447810c","ios":"levelo://app?vid=c6d6ad17-1d8b-442a-add7-3e598447810c"},"vehicle_type_id":"4","last_reported":1767629785,"current_range_meters":2800,"station_id":"ce4bhf92rcd13ifvqf40","pricing_plan_id":"cebpf4jnsgd1na2vs0mg"},{"bike_id":"1d00a4cb-00d9-4b5d-9884-747e6dfb334b","system_id":"levelo_inurba_marseille","lat":43.24666,"lon":5.38164,"is_reserved":false,"is_disabled":false,"rental_uris":{"android":"levelo://app?vid=1d00a4cb-00d9-4b5d-9884-747e6dfb334b","ios":"levelo://app?vid=1d00a4cb-00d9-4b5d-9884-747e6dfb334b"},"vehicle_type_id":"4","last_reported":1767629785,"current_range_meters":2800,"station_id":"ce4bhih2rcd13ifvqfr0","pricing_plan_id":"cebpf4jnsgd1na2vs0mg"},{"bike_id":"051ac01f-c395-4a6a-927f-07fa52e538f2","system_id":"levelo_inurba_marseille","lat":43.31064,"lon":5.37152,"is_reserved":false,"is_disabled":true,"rental_uris":{"android":"levelo://app?vid=051ac01f-c395-4a6a-927f-07fa52e538f2","ios":"levelo://app?vid=051ac01f-c395-4a6a-927f-07fa52e538f2"},"vehicle_type_id":"4","last_reported":1767629785,"current_range_meters":2800,"station_id":"st_d4kl2rp97mjs73e7tdfg","pricing_plan_id":"cebpf4jnsgd1na2vs0mg"},{"bike_id":"3289b887-0235-458b-9f2a-a7cfac24d206","system_id":"levelo_inurba_marseille","lat":43.29789,"lon":5.3934,"is_reserved":false,"is_disabled":false,"rental_uris":{"android":"levelo://app?vid=3289b887-0235-458b-9f2a-a7cfac24d206","ios":"levelo://app?vid=3289b887-0235-458b-9f2a-a7cfac24d206"},"vehicle_type_id":"4","last_reported":1767629785,"current_range_meters":2800,"station_id":"chh1huq6cuj3fo74tm60","pricing_plan_id":"cebpf4jnsgd1na2vs0mg"},{"bike_id":"1344b698-8650-40c6-84ae-c77983c95c2f","system_id":"levelo_inurba_marseille","lat":43.289264,"lon":5.361914,"is_reserved":false,"is_disabled":false,"rental_uris":{"android":"levelo://app?vid=1344b698-8650-40c6-84ae-c77983c95c2f","ios":"levelo://app?vid=1344b698-8650-40c6-84ae-c77983c95c2f"},"vehicle_type_id":"4","last_reported":1767629785,"current_range_meters":2800,"station_id":"","pricing_plan_id":"cebpf4jnsgd1na2vs0mg"},{"bike_id":"7a467056-b5c5-4725-a9d9-bea3151a7eb9","system_id":"levelo_inurba_marseille","lat":43.29491,"lon":5.43296,"is_reserved":false,"is_disabled":false,"rental_uris":{"android":"levelo://app?vid=7a467056-b5c5-4725-a9d9-bea3151a7eb9","ios":"levelo://app?vid=7a467056-b5c5-4725-a9d9-bea3151a7eb9"},"vehicle_type_id":"4","last_reported":1767629785,"current_range_meters":2800,"station_id":"st_d3j5ugp08ojc73fj9d10","pricing_plan_id":"cebpf4jnsgd1na2vs0mg"},{"bike_id":"30b8b232-0149-43fe-aeaf-d6f987f833ea","system_id":"levelo_inurba_marseille","lat":43.26225,"lon":5.37433,"is_reserved":false,"is_disabled":false,"rental_uris":{"android":"levelo://app?vid=30b8b232-0149-43fe-aeaf-d6f987f833ea","ios":"levelo://app?vid=30b8b232-0149-43fe-aeaf-d6f987f833ea"},"vehicle_type_id":"4","last_reported":1767629785,"current_range_meters":2800,"station_id":"ce4bhgp2rcd13ifvqfc0","pricing_plan_id":"cebpf4jnsgd1na2vs0mg"},{"bike_id":"322ed97b-7456-4c78-b0fa-08f92ae0ea59","system_id":"levelo_inurba_marseille","lat":43.272,"lon":5.41004,"is_reserved":false,"is_disabled":false,"rental_uris":{"android":"levelo://app?vid=322ed97b-7456-4c78-b0fa-08f92ae0ea59","ios":"levelo://app?vid=322ed97b-7456-4c78-b0fa-08f92ae0ea59"},"vehicle_type_id":"4","last_reported":1767629785,"current_range_meters":2800,"station_id":"ce4bhl12rcd13ifvqgf0","pricing_plan_id":"cebpf4jnsgd1na2vs0mg"},{"bike_id":"7552c46c-a04b-4659-9dd9-77ff8200c7e9","system_id":"levelo_inurba_marseille","lat":43.30307,"lon":5.36895,"is_reserved":false,"is_disabled":false,"rental_uris":{"android":"levelo://app?vid=7552c46c-a04b-4659-9dd9-77ff8200c7e9","ios":"levelo://app?vid=7552c46c-a04b-4659-9dd9-77ff8200c7e9"},"vehicle_type_id":"4","last_reported":1767629785,"current_range_meters":2800,"station_id":"ce4bgqh2rcd13ifvqc5g","pricing_plan_id":"cebpf4jnsgd1na2vs0mg"},{"bike_id":"264da7e9-b94b-457e-bbe3-d2bced63c83f","system_id":"levelo_inurba_marseille","lat":43.29892,"lon":5.38902,"is_reserved":false,"is_disabled":false,"rental_uris":{"android":"levelo://app?vid=264da7e9-b94b-457e-bbe3-d2bced63c83f","ios":"levelo://app?vid=264da7e9-b94b-457e-bbe3-d2bced63c83f"},"vehicle_type_id":"4","last_reported":1767629785,"current_range_meters":2800,"station_id":"ce4bh392rcd13ifvqdl0","pricing_plan_id":"cebpf4jnsgd1na2vs0mg"},{"bike_id":"9266c9ee-84f2-41f3-ba5f-42f44b708c8b","system_id":"levelo_inurba_marseille","lat":43.24629,"lon":5.43146,"is_reserved":false,"is_disabled":false,"rental_uris":{"android":"levelo://app?vid=9266c9ee-84f2-41f3-ba5f-42f44b708c8b","ios":"levelo://app?vid=9266c9ee-84f2-41f3-ba5f-42f44b708c8b"},"vehicle_type_id":"4","last_reported":1767629785,"current_range_meters":2800,"station_id":"st_d2m6c4gdas8pm72e190g","pricing_plan_id":"cebpf4jnsgd1na2vs0mg"},{"bike_id":"e9f3270a-d88a-4cb3-a37f-6048c91f446c","system_id":"levelo_inurba_marseille","lat":43.26218,"lon":5.37438,"is_reserved":false,"is_disabled":false,"rental_uris":{"android":"levelo://app?vid=e9f3270a-d88a-4cb3-a37f-6048c91f446c","ios":"levelo://app?vid=e9f3270a-d88a-4cb3-a37f-6048c91f446c"},"vehicle_type_id":"4","last_reported":1767629785,"current_range_meters":3200,"station_id":"ce4bhgp2rcd13ifvqfc0","pricing_plan_id":"cebpf4jnsgd1na2vs0mg"},{"bike_id":"516a123f-8ec4-4481-9462-57e58439c274","system_id":"levelo_inurba_marseille","lat":43.29979,"lon":5.38499,"is_reserved":false,"is_disabled":false,"rental_uris":{"android":"levelo://app?vid=516a123f-8ec4-4481-9462-57e58439c274","ios":"levelo://app?vid=516a123f-8ec4-4481-9462-57e58439c274"},"vehicle_type_id":"4","last_reported":1767629785,"current_range_meters":3200,"station_id":"ce4bgj92rcd13ifvqbd0","pricing_plan_id":"cebpf4jnsgd1na2vs0mg"},{"bike_id":"3bea29dc-bfbc-46d1-b3a6-e2bf44ee4334","system_id":"levelo_inurba_marseille","lat":43.2994,"lon":5.36518,"is_reserved":false,"is_disabled":false,"rental_uris":{"android":"levelo://app?vid=3bea29dc-bfbc-46d1-b3a6-e2bf44ee4334","ios":"levelo://app?vid=3bea29dc-bfbc-46d1-b3a6-e2bf44ee4334"},"vehicle_type_id":"4","last_reported":1767629785,"current_range_meters":3200,"station_id":"ce4bgm92rcd13ifvqbr0","pricing_plan_id":"cebpf4jnsgd1na2vs0mg"},{"bike_id":"f0c1deb2-eba3-4d8c-868f-c557271f2f4f","system_id":"levelo_inurba_marseille","lat":43.286176,"lon":5.351052,"is_reserved":false,"is_disabled":false,"rental_uris":{"android":"levelo://app?vid=f0c1deb2-eba3-4d8c-868f-c557271f2f4f","ios":"levelo://app?vid=f0c1deb2-eba3-4d8c-868f-c557271f2f4f"},"vehicle_type_id":"4","last_reported":1767629785,"current_range_meters":3200,"station_id":"ce4bhch2rcd13ifvqeug","pricing_plan_id":"cebpf4jnsgd1na2vs0mg"},{"bike_id":"52027431-8160-4d6e-aaa6-6920729dc1ad","system_id":"levelo_inurba_marseille","lat":43.2417,"lon":5.36371,"is_reserved":false,"is_disabled":false,"rental_uris":{"android":"levelo://app?vid=52027431-8160-4d6e-aaa6-6920729dc1ad","ios":"levelo://app?vid=52027431-8160-4d6e-aaa6-6920729dc1ad"},"vehicle_type_id":"4","last_reported":1767629785,"current_range_meters":3200,"station_id":"cpo36qri1sfpv3e86is0","pricing_plan_id":"cebpf4jnsgd1na2vs0mg"},{"bike_id":"074722cb-2569-4df8-9492-e46ca66ccdc6","system_id":"levelo_inurba_marseille","lat":43.32614,"lon":5.36161,"is_reserved":false,"is_disabled":false,"rental_uris":{"android":"levelo://app?vid=074722cb-2569-4df8-9492-e46ca66ccdc6","ios":"levelo://app?vid=074722cb-2569-4df8-9492-e46ca66ccdc6"},"vehicle_type_id":"4","last_reported":1767629785,"current_range_meters":3600,"station_id":"","pricing_plan_id":"cebpf4jnsgd1na2vs0mg"},{"bike_id":"c72a78cd-fdc9-4de4-b657-88590534f7d8","system_id":"levelo_inurba_marseille","lat":43.2594,"lon":5.40894,"is_reserved":false,"is_disabled":false,"rental_uris":{"android":"levelo://app?vid=c72a78cd-fdc9-4de4-b657-88590534f7d8","ios":"levelo://app?vid=c72a78cd-fdc9-4de4-b657-88590534f7d8"},"vehicle_type_id":"4","last_reported":1767629785,"current_range_meters":3600,"station_id":"ce4bhm92rcd13ifvqglg","pricing_plan_id":"cebpf4jnsgd1na2vs0mg"},{"bike_id":"067249c4-fb35-421e-9a6c-c895241c197a","system_id":"levelo_inurba_marseille","lat":43.295,"lon":5.393,"is_reserved":false,"is_disabled":false,"rental_uris":{"android":"levelo://app?vid=067249c4-fb35-421e-9a6c-c895241c197a","ios":"levelo://app?vid=067249c4-fb35-421e-9a6c-c895241c197a"},"vehicle_type_id":"4","last_reported":1767629785,"current_range_meters":3600,"station_id":"","pricing_plan_id":"cebpf4jnsgd1na2vs0mg"},{"bike_id":"088ffd9e-e621-46be-9471-ab036728f8c5","system_id":"levelo_inurba_marseille","lat":43.31065,"lon":5.3719,"is_reserved":false,"is_disabled":true,"rental_uris":{"android":"levelo://app?vid=088ffd9e-e621-46be-9471-ab036728f8c5","ios":"levelo://app?vid=088ffd9e-e621-46be-9471-ab036728f8c5"},"vehicle_type_id":"4","last_reported":1767629785,"current_range_meters":3600,"station_id":"st_d4kl2rp97mjs73e7tdfg","pricing_plan_id":"cebpf4jnsgd1na2vs0mg"},{"bike_id":"63447985-41e3-43a3-92a4-1e959fa40808","system_id":"levelo_inurba_marseille","lat":43.26573,"lon":5.40333,"is_reserved":false,"is_disabled":false,"rental_uris":{"android":"levelo://app?vid=63447985-41e3-43a3-92a4-1e959fa40808","ios":"levelo://app?vid=63447985-41e3-43a3-92a4-1e959fa40808"},"vehicle_type_id":"4","last_reported":1767629785,"current_range_meters":3600,"station_id":"ce4bhmp2rcd13ifvqgng","pricing_plan_id":"cebpf4jnsgd1na2vs0mg"},{"bike_id":"fc35f572-933a-493d-9321-401f18a2b795","system_id":"levelo_inurba_marseille","lat":43.31057,"lon":5.38335,"is_reserved":false,"is_disabled":false,"rental_uris":{"android":"levelo://app?vid=fc35f572-933a-493d-9321-401f18a2b795","ios":"levelo://app?vid=fc35f572-933a-493d-9321-401f18a2b795"},"vehicle_type_id":"4","last_reported":1767629785,"current_range_meters":3600,"station_id":"ce4bgv92rcd13ifvqcr0","pricing_plan_id":"cebpf4jnsgd1na2vs0mg"},{"bike_id":"d2df27ca-92f1-4b65-9c2d-6b3818da01e0","system_id":"levelo_inurba_marseille","lat":43.2953,"lon":5.39038,"is_reserved":false,"is_disabled":false,"rental_uris":{"android":"levelo://app?vid=d2df27ca-92f1-4b65-9c2d-6b3818da01e0","ios":"levelo://app?vid=d2df27ca-92f1-4b65-9c2d-6b3818da01e0"},"vehicle_type_id":"4","last_reported":1767629785,"current_range_meters":3600,"station_id":"ce4bh3p2rcd13ifvqdp0","pricing_plan_id":"cebpf4jnsgd1na2vs0mg"},{"bike_id":"746607d7-0d50-445a-b435-314ed89afc68","system_id":"levelo_inurba_marseille","lat":43.299,"lon":5.43675,"is_reserved":false,"is_disabled":false,"rental_uris":{"android":"levelo://app?vid=746607d7-0d50-445a-b435-314ed89afc68","ios":"levelo://app?vid=746607d7-0d50-445a-b435-314ed89afc68"},"vehicle_type_id":"4","last_reported":1767629785,"current_range_meters":3600,"station_id":"ce4bhpp2rcd13ifvqhfg","pricing_plan_id":"cebpf4jnsgd1na2vs0mg"},{"bike_id":"ecfba3ac-804e-418b-a7fa-cc102335e836","system_id":"levelo_inurba_marseille","lat":43.30308,"lon":5.45647,"is_reserved":false,"is_disabled":false,"rental_uris":{"android":"levelo://app?vid=ecfba3ac-804e-418b-a7fa-cc102335e836","ios":"levelo://app?vid=ecfba3ac-804e-418b-a7fa-cc102335e836"},"vehicle_type_id":"4","last_reported":1767629785,"current_range_meters":3600,"station_id":"","pricing_plan_id":"cebpf4jnsgd1na2vs0mg"},{"bike_id":"8c4753f4-24e5-4d4e-8077-ca368a46321d","system_id":"levelo_inurba_marseille","lat":43.27963,"lon":5.38723,"is_reserved":false,"is_disabled":false,"rental_uris":{"android":"levelo://app?vid=8c4753f4-24e5-4d4e-8077-ca368a46321d","ios":"levelo://app?vid=8c4753f4-24e5-4d4e-8077-ca368a46321d"},"vehicle_type_id":"4","last_reported":1767629785,"current_range_meters":3600,"station_id":"ce4bhg12rcd13ifvqf80","pricing_plan_id":"cebpf4jnsgd1na2vs0mg"},{"bike_id":"26f44727-0949-47e3-aefe-831f3033f5d6","system_id":"levelo_inurba_marseille","lat":43.278119,"lon":5.40703,"is_reserved":false,"is_disabled":false,"rental_uris":{"android":"levelo://app?vid=26f44727-0949-47e3-aefe-831f3033f5d6","ios":"levelo://app?vid=26f44727-0949-47e3-aefe-831f3033f5d6"},"vehicle_type_id":"4","last_reported":1767629785,"current_range_meters":4000,"station_id":"ce4bhnh2rcd13ifvqgtg","pricing_plan_id":"cebpf4jnsgd1na2vs0mg"},{"bike_id":"e2083d0d-c732-4a18-8f85-ce8985924577","system_id":"levelo_inurba_marseille","lat":43.29598,"lon":5.38108,"is_reserved":false,"is_disabled":false,"rental_uris":{"android":"levelo://app?vid=e2083d0d-c732-4a18-8f85-ce8985924577","ios":"levelo://app?vid=e2083d0d-c732-4a18-8f85-ce8985924577"},"vehicle_type_id":"4","last_reported":1767629785,"current_range_meters":4000,"station_id":"ce4bgl12rcd13ifvqbo0","pricing_plan_id":"cebpf4jnsgd1na2vs0mg"},{"bike_id":"c966fa7f-540d-4e2a-bc2b-5644b9dfd18d","system_id":"levelo_inurba_marseille","lat":43.30532,"lon":5.36726,"is_reserved":false,"is_disabled":false,"rental_uris":{"android":"levelo://app?vid=c966fa7f-540d-4e2a-bc2b-5644b9dfd18d","ios":"levelo://app?vid=c966fa7f-540d-4e2a-bc2b-5644b9dfd18d"},"vehicle_type_id":"4","last_reported":1767629785,"current_range_meters":4000,"station_id":"ce4bgrp2rcd13ifvqc9g","pricing_plan_id":"cebpf4jnsgd1na2vs0mg"},{"bike_id":"278b026d-7c90-4296-9421-3e0684d777fa","system_id":"levelo_inurba_marseille","lat":43.29706,"lon":5.376858,"is_reserved":false,"is_disabled":false,"rental_uris":{"android":"levelo://app?vid=278b026d-7c90-4296-9421-3e0684d777fa","ios":"levelo://app?vid=278b026d-7c90-4296-9421-3e0684d777fa"},"vehicle_type_id":"4","last_reported":1767629785,"current_range_meters":4000,"station_id":"ce4bgkh2rcd13ifvqbl0","pricing_plan_id":"cebpf4jnsgd1na2vs0mg"},{"bike_id":"5f1c2fc2-8ce9-40ca-b90b-4d0952e524f8","system_id":"levelo_inurba_marseille","lat":43.30906,"lon":5.3685,"is_reserved":false,"is_disabled":false,"rental_uris":{"android":"levelo://app?vid=5f1c2fc2-8ce9-40ca-b90b-4d0952e524f8","ios":"levelo://app?vid=5f1c2fc2-8ce9-40ca-b90b-4d0952e524f8"},"vehicle_type_id":"4","last_reported":1767629785,"current_range_meters":4000,"station_id":"ce4bgn92rcd13ifvqbvg","pricing_plan_id":"cebpf4jnsgd1na2vs0mg"},{"bike_id":"efd33062-2cef-445f-af98-648f578e9c2a","system_id":"levelo_inurba_marseille","lat":43.32622,"lon":5.41931,"is_reserved":false,"is_disabled":false,"rental_uris":{"android":"levelo://app?vid=efd33062-2cef-445f-af98-648f578e9c2a","ios":"levelo://app?vid=efd33062-2cef-445f-af98-648f578e9c2a"},"vehicle_type_id":"4","last_reported":1767629785,"current_range_meters":4400,"station_id":"","pricing_plan_id":"cebpf4jnsgd1na2vs0mg"},{"bike_id":"6362d2e9-b1aa-4dc0-b92d-936be0445a44","system_id":"levelo_inurba_marseille","lat":43.247757,"lon":5.37418,"is_reserved":false,"is_disabled":false,"rental_uris":{"android":"levelo://app?vid=6362d2e9-b1aa-4dc0-b92d-936be0445a44","ios":"levelo://app?vid=6362d2e9-b1aa-4dc0-b92d-936be0445a44"},"vehicle_type_id":"4","last_reported":1767629785,"current_range_meters":4400,"station_id":"","pricing_plan_id":"cebpf4jnsgd1na2vs0mg"},{"bike_id":"f9841b6f-46e7-447f-a46b-342ae756d9ac","system_id":"levelo_inurba_marseille","lat":43.27203,"lon":5.39188,"is_reserved":false,"is_disabled":false,"rental_uris":{"android":"levelo://app?vid=f9841b6f-46e7-447f-a46b-342ae756d9ac","ios":"levelo://app?vid=f9841b6f-46e7-447f-a46b-342ae756d9ac"},"vehicle_type_id":"4","last_reported":1767629785,"current_range_meters":4400,"station_id":"ce4bhhp2rcd13ifvqfm0","pricing_plan_id":"cebpf4jnsgd1na2vs0mg"},{"bike_id":"cb73c3aa-ed94-40fe-8d26-eb486dfb43da","system_id":"levelo_inurba_marseille","lat":43.264991,"lon":5.3954,"is_reserved":false,"is_disabled":false,"rental_uris":{"android":"levelo://app?vid=cb73c3aa-ed94-40fe-8d26-eb486dfb43da","ios":"levelo://app?vid=cb73c3aa-ed94-40fe-8d26-eb486dfb43da"},"vehicle_type_id":"4","last_reported":1767629785,"current_range_meters":4400,"station_id":"ce4bhi12rcd13ifvqfq0","pricing_plan_id":"cebpf4jnsgd1na2vs0mg"},{"bike_id":"ea433994-4165-420a-9223-37582f30485d","system_id":"levelo_inurba_marseille","lat":43.30555,"lon":5.3755,"is_reserved":false,"is_disabled":false,"rental_uris":{"android":"levelo://app?vid=ea433994-4165-420a-9223-37582f30485d","ios":"levelo://app?vid=ea433994-4165-420a-9223-37582f30485d"},"vehicle_type_id":"4","last_reported":1767629785,"current_range_meters":4400,"station_id":"","pricing_plan_id":"cebpf4jnsgd1na2vs0mg"},{"bike_id":"20600a83-ffb2-4ea6-adcc-6f03f7742df5","system_id":"levelo_inurba_marseille","lat":43.270623,"lon":5.422781,"is_reserved":false,"is_disabled":false,"rental_uris":{"android":"levelo://app?vid=20600a83-ffb2-4ea6-adcc-6f03f7742df5","ios":"levelo://app?vid=20600a83-ffb2-4ea6-adcc-6f03f7742df5"},"vehicle_type_id":"4","last_reported":1767629785,"current_range_meters":4400,"station_id":"ce4bhk92rcd13ifvqgb0","pricing_plan_id":"cebpf4jnsgd1na2vs0mg"},{"bike_id":"8e000377-6bb2-46ca-84e4-f3d2a4baf08c","system_id":"levelo_inurba_marseille","lat":43.239629,"lon":5.366348,"is_reserved":false,"is_disabled":false,"rental_uris":{"android":"levelo://app?vid=8e000377-6bb2-46ca-84e4-f3d2a4baf08c","ios":"levelo://app?vid=8e000377-6bb2-46ca-84e4-f3d2a4baf08c"},"vehicle_type_id":"4","last_reported":1767629785,"current_range_meters":4400,"station_id":"ce4bhi12rcd13ifvqfp0","pricing_plan_id":"cebpf4jnsgd1na2vs0mg"},{"bike_id":"f37c8ab2-4055-4d0c-bc22-679bade32c8c","system_id":"levelo_inurba_marseille","lat":43.30663,"lon":5.37199,"is_reserved":false,"is_disabled":false,"rental_uris":{"android":"levelo://app?vid=f37c8ab2-4055-4d0c-bc22-679bade32c8c","ios":"levelo://app?vid=f37c8ab2-4055-4d0c-bc22-679bade32c8c"},"vehicle_type_id":"4","last_reported":1767629785,"current_range_meters":4400,"station_id":"","pricing_plan_id":"cebpf4jnsgd1na2vs0mg"},{"bike_id":"38478ce1-a447-4641-99f3-89c5bb836bdb","system_id":"levelo_inurba_marseille","lat":43.27428,"lon":5.41861,"is_reserved":false,"is_disabled":false,"rental_uris":{"android":"levelo://app?vid=38478ce1-a447-4641-99f3-89c5bb836bdb","ios":"levelo://app?vid=38478ce1-a447-4641-99f3-89c5bb836bdb"},"vehicle_type_id":"4","last_reported":1767629785,"current_range_meters":4400,"station_id":"","pricing_plan_id":"cebpf4jnsgd1na2vs0mg"},{"bike_id":"47f5f321-0859-44a5-a3e2-7e35572c8bac","system_id":"levelo_inurba_marseille","lat":43.27095,"lon":5.42244,"is_reserved":false,"is_disabled":false,"rental_uris":{"android":"levelo://app?vid=47f5f321-0859-44a5-a3e2-7e35572c8bac","ios":"levelo://app?vid=47f5f321-0859-44a5-a3e2-7e35572c8bac"},"vehicle_type_id":"4","last_reported":1767629785,"current_range_meters":4400,"station_id":"ce4bhk92rcd13ifvqgb0","pricing_plan_id":"cebpf4jnsgd1na2vs0mg"},{"bike_id":"9b4021cf-15f5-49ee-bfc4-492922ebf4c9","system_id":"levelo_inurba_marseille","lat":43.3028,"lon":5.37261,"is_reserved":false,"is_disabled":false,"rental_uris":{"android":"levelo://app?vid=9b4021cf-15f5-49ee-bfc4-492922ebf4c9","ios":"levelo://app?vid=9b4021cf-15f5-49ee-bfc4-492922ebf4c9"},"vehicle_type_id":"4","last_reported":1767629785,"current_range_meters":4400,"station_id":"","pricing_plan_id":"cebpf4jnsgd1na2vs0mg"},{"bike_id":"cf41050d-eecb-473e-b11b-6022087dbfd5","system_id":"levelo_inurba_marseille","lat":43.29704,"lon":5.36614,"is_reserved":false,"is_disabled":false,"rental_uris":{"android":"levelo://app?vid=cf41050d-eecb-473e-b11b-6022087dbfd5","ios":"levelo://app?vid=cf41050d-eecb-473e-b11b-6022087dbfd5"},"vehicle_type_id":"4","last_reported":1767629785,"current_range_meters":4400,"station_id":"ce4bgn12rcd13ifvqbt0","pricing_plan_id":"cebpf4jnsgd1na2vs0mg"},{"bike_id":"6931475d-2e9f-45d6-89bf-e7806014b592","system_id":"levelo_inurba_marseille","lat":43.30792,"lon":5.37655,"is_reserved":false,"is_disabled":false,"rental_uris":{"android":"levelo://app?vid=6931475d-2e9f-45d6-89bf-e7806014b592","ios":"levelo://app?vid=6931475d-2e9f-45d6-89bf-e7806014b592"},"vehicle_type_id":"4","last_reported":1767629785,"current_range_meters":4800,"station_id":"ce4bgv92rcd13ifvqcq0","pricing_plan_id":"cebpf4jnsgd1na2vs0mg"},{"bike_id":"3115bbd7-1c85-4603-a617-db0a037ecab5","system_id":"levelo_inurba_marseille","lat":43.29408,"lon":5.43275,"is_reserved":false,"is_disabled":false,"rental_uris":{"android":"levelo://app?vid=3115bbd7-1c85-4603-a617-db0a037ecab5","ios":"levelo://app?vid=3115bbd7-1c85-4603-a617-db0a037ecab5"},"vehicle_type_id":"4","last_reported":1767629785,"current_range_meters":4800,"station_id":"","pricing_plan_id":"cebpf4jnsgd1na2vs0mg"},{"bike_id":"fa425a2b-b01f-4040-b6da-de1021f8b95c","system_id":"levelo_inurba_marseille","lat":43.29442,"lon":5.37945,"is_reserved":false,"is_disabled":false,"rental_uris":{"android":"levelo://app?vid=fa425a2b-b01f-4040-b6da-de1021f8b95c","ios":"levelo://app?vid=fa425a2b-b01f-4040-b6da-de1021f8b95c"},"vehicle_type_id":"4","last_reported":1767629785,"current_range_meters":4800,"station_id":"","pricing_plan_id":"cebpf4jnsgd1na2vs0mg"},{"bike_id":"86f4117e-bfd7-4a5f-b403-eeb9a7153bb3","system_id":"levelo_inurba_marseille","lat":43.225324,"lon":5.348299,"is_reserved":false,"is_disabled":false,"rental_uris":{"android":"levelo://app?vid=86f4117e-bfd7-4a5f-b403-eeb9a7153bb3","ios":"levelo://app?vid=86f4117e-bfd7-4a5f-b403-eeb9a7153bb3"},"vehicle_type_id":"4","last_reported":1767629785,"current_range_meters":4800,"station_id":"","pricing_plan_id":"cebpf4jnsgd1na2vs0mg"},{"bike_id":"8f67289a-c445-41d3-a7c1-2b5874f96ec2","system_id":"levelo_inurba_marseille","lat":43.31329,"lon":5.40446,"is_reserved":false,"is_disabled":false,"rental_uris":{"android":"levelo://app?vid=8f67289a-c445-41d3-a7c1-2b5874f96ec2","ios":"levelo://app?vid=8f67289a-c445-41d3-a7c1-2b5874f96ec2"},"vehicle_type_id":"4","last_reported":1767629785,"current_range_meters":4800,"station_id":"","pricing_plan_id":"cebpf4jnsgd1na2vs0mg"},{"bike_id":"3fedbda4-18fb-4459-8990-789e6012cbd1","system_id":"levelo_inurba_marseille","lat":43.29375,"lon":5.3787,"is_reserved":false,"is_disabled":false,"rental_uris":{"android":"levelo://app?vid=3fedbda4-18fb-4459-8990-789e6012cbd1","ios":"levelo://app?vid=3fedbda4-18fb-4459-8990-789e6012cbd1"},"vehicle_type_id":"4","last_reported":1767629785,"current_range_meters":4800,"station_id":"ce4bgjh2rcd13ifvqbf0","pricing_plan_id":"cebpf4jnsgd1na2vs0mg"},{"bike_id":"225bdd2a-0ec2-4312-a816-23bf65227ab6","system_id":"levelo_inurba_marseille","lat":43.263727,"lon":5.410842,"is_reserved":false,"is_disabled":false,"rental_uris":{"android":"levelo://app?vid=225bdd2a-0ec2-4312-a816-23bf65227ab6","ios":"levelo://app?vid=225bdd2a-0ec2-4312-a816-23bf65227ab6"},"vehicle_type_id":"4","last_reported":1767629785,"current_range_meters":4800,"station_id":"","pricing_plan_id":"cebpf4jnsgd1na2vs0mg"},{"bike_id":"6f875f75-8b03-4f9b-8a31-6d84c7de06e9","system_id":"levelo_inurba_marseille","lat":43.31999,"lon":5.38157,"is_reserved":false,"is_disabled":false,"rental_uris":{"android":"levelo://app?vid=6f875f75-8b03-4f9b-8a31-6d84c7de06e9","ios":"levelo://app?vid=6f875f75-8b03-4f9b-8a31-6d84c7de06e9"},"vehicle_type_id":"4","last_reported":1767629785,"current_range_meters":4800,"station_id":"ce4bhr12rcd13ifvqhpg","pricing_plan_id":"cebpf4jnsgd1na2vs0mg"},{"bike_id":"61bede02-2851-4fcf-827d-afeac7ac0523","system_id":"levelo_inurba_marseille","lat":43.29858,"lon":5.3766,"is_reserved":false,"is_disabled":false,"rental_uris":{"android":"levelo://app?vid=61bede02-2851-4fcf-827d-afeac7ac0523","ios":"levelo://app?vid=61bede02-2851-4fcf-827d-afeac7ac0523"},"vehicle_type_id":"4","last_reported":1767629785,"current_range_meters":4800,"station_id":"ce4bhr92rcd13ifvqhrg","pricing_plan_id":"cebpf4jnsgd1na2vs0mg"},{"bike_id":"a760cecb-cecf-4e00-b774-d875d9bc98d9","system_id":"levelo_inurba_marseille","lat":43.25824,"lon":5.39428,"is_reserved":false,"is_disabled":false,"rental_uris":{"android":"levelo://app?vid=a760cecb-cecf-4e00-b774-d875d9bc98d9","ios":"levelo://app?vid=a760cecb-cecf-4e00-b774-d875d9bc98d9"},"vehicle_type_id":"4","last_reported":1767629785,"current_range_meters":4800,"station_id":"ce4bhip2rcd13ifvqft0","pricing_plan_id":"cebpf4jnsgd1na2vs0mg"},{"bike_id":"024748c2-b554-4be1-8c70-dca9e903d76f","system_id":"levelo_inurba_marseille","lat":43.30144,"lon":5.39882,"is_reserved":false,"is_disabled":false,"rental_uris":{"android":"levelo://app?vid=024748c2-b554-4be1-8c70-dca9e903d76f","ios":"levelo://app?vid=024748c2-b554-4be1-8c70-dca9e903d76f"},"vehicle_type_id":"4","last_reported":1767629785,"current_range_meters":4800,"station_id":"ce4bh0h2rcd13ifvqd40","pricing_plan_id":"cebpf4jnsgd1na2vs0mg"},{"bike_id":"8c3e87fb-1d28-47b4-8c2c-d2b9f5aa74c7","system_id":"levelo_inurba_marseille","lat":43.28157,"lon":5.4265,"is_reserved":false,"is_disabled":false,"rental_uris":{"android":"levelo://app?vid=8c3e87fb-1d28-47b4-8c2c-d2b9f5aa74c7","ios":"levelo://app?vid=8c3e87fb-1d28-47b4-8c2c-d2b9f5aa74c7"},"vehicle_type_id":"4","last_reported":1767629785,"current_range_meters":4800,"station_id":"ce4bhnh2rcd13ifvqgug","pricing_plan_id":"cebpf4jnsgd1na2vs0mg"},{"bike_id":"60d372c8-2289-4add-8426-9c78f571e586","system_id":"levelo_inurba_marseille","lat":43.27209,"lon":5.39181,"is_reserved":false,"is_disabled":false,"rental_uris":{"android":"levelo://app?vid=60d372c8-2289-4add-8426-9c78f571e586","ios":"levelo://app?vid=60d372c8-2289-4add-8426-9c78f571e586"},"vehicle_type_id":"4","last_reported":1767629785,"current_range_meters":4800,"station_id":"ce4bhhp2rcd13ifvqfm0","pricing_plan_id":"cebpf4jnsgd1na2vs0mg"},{"bike_id":"b638425e-f8e4-49a1-9c09-1fc288c24970","system_id":"levelo_inurba_marseille","lat":43.32379,"lon":5.36702,"is_reserved":false,"is_disabled":false,"rental_uris":{"android":"levelo://app?vid=b638425e-f8e4-49a1-9c09-1fc288c24970","ios":"levelo://app?vid=b638425e-f8e4-49a1-9c09-1fc288c24970"},"vehicle_type_id":"4","last_reported":1767629785,"current_range_meters":4800,"station_id":"ce4bhsh2rcd13ifvqi2g","pricing_plan_id":"cebpf4jnsgd1na2vs0mg"},{"bike_id":"ce5b50c4-8b7f-4836-923c-9b6bb4694e91","system_id":"levelo_inurba_marseille","lat":43.29911,"lon":5.37562,"is_reserved":false,"is_disabled":false,"rental_uris":{"android":"levelo://app?vid=ce5b50c4-8b7f-4836-923c-9b6bb4694e91","ios":"levelo://app?vid=ce5b50c4-8b7f-4836-923c-9b6bb4694e91"},"vehicle_type_id":"4","last_reported":1767629785,"current_range_meters":4800,"station_id":"","pricing_plan_id":"cebpf4jnsgd1na2vs0mg"},{"bike_id":"8d12e143-53ab-41c2-932c-c721f685728d","system_id":"levelo_inurba_marseille","lat":43.27826,"lon":5.39213,"is_reserved":false,"is_disabled":false,"rental_uris":{"android":"levelo://app?vid=8d12e143-53ab-41c2-932c-c721f685728d","ios":"levelo://app?vid=8d12e143-53ab-41c2-932c-c721f685728d"},"vehicle_type_id":"4","last_reported":1767629785,"current_range_meters":5600,"station_id":"ce4bhjp2rcd13ifvqga0","pricing_plan_id":"cebpf4jnsgd1na2vs0mg"},{"bike_id":"0e471836-29c5-4d70-93bc-4b375d486538","system_id":"levelo_inurba_marseille","lat":43.29452,"lon":5.39705,"is_reserved":false,"is_disabled":false,"rental_uris":{"android":"levelo://app?vid=0e471836-29c5-4d70-93bc-4b375d486538","ios":"levelo://app?vid=0e471836-29c5-4d70-93bc-4b375d486538"},"vehicle_type_id":"4","last_reported":1767629785,"current_range_meters":5600,"station_id":"ce4bh3h2rcd13ifvqdo0","pricing_plan_id":"cebpf4jnsgd1na2vs0mg"},{"bike_id":"3f8b91dc-4190-44ac-a53a-0db98b9d9ad9","system_id":"levelo_inurba_marseille","lat":43.243939,"lon":5.370652,"is_reserved":false,"is_disabled":false,"rental_uris":{"android":"levelo://app?vid=3f8b91dc-4190-44ac-a53a-0db98b9d9ad9","ios":"levelo://app?vid=3f8b91dc-4190-44ac-a53a-0db98b9d9ad9"},"vehicle_type_id":"4","last_reported":1767629785,"current_range_meters":5600,"station_id":"ce4bhhh2rcd13ifvqfk0","pricing_plan_id":"cebpf4jnsgd1na2vs0mg"},{"bike_id":"ec2e2d97-541d-4f0e-9289-f85c25486ad3","system_id":"levelo_inurba_marseille","lat":43.2572,"lon":5.41094,"is_reserved":false,"is_disabled":false,"rental_uris":{"android":"levelo://app?vid=ec2e2d97-541d-4f0e-9289-f85c25486ad3","ios":"levelo://app?vid=ec2e2d97-541d-4f0e-9289-f85c25486ad3"},"vehicle_type_id":"4","last_reported":1767629785,"current_range_meters":5600,"station_id":"ce4bhkp2rcd13ifvqgd0","pricing_plan_id":"cebpf4jnsgd1na2vs0mg"},{"bike_id":"d034fb7b-31d0-4ad8-b543-57112d60b0bf","system_id":"levelo_inurba_marseille","lat":43.28222,"lon":5.3907,"is_reserved":false,"is_disabled":false,"rental_uris":{"android":"levelo://app?vid=d034fb7b-31d0-4ad8-b543-57112d60b0bf","ios":"levelo://app?vid=d034fb7b-31d0-4ad8-b543-57112d60b0bf"},"vehicle_type_id":"4","last_reported":1767629785,"current_range_meters":5600,"station_id":"ce4bhn92rcd13ifvqgsg","pricing_plan_id":"cebpf4jnsgd1na2vs0mg"},{"bike_id":"17122469-6fe8-44cc-83aa-2add588c9ff0","system_id":"levelo_inurba_marseille","lat":43.27061,"lon":5.422778,"is_reserved":false,"is_disabled":false,"rental_uris":{"android":"levelo://app?vid=17122469-6fe8-44cc-83aa-2add588c9ff0","ios":"levelo://app?vid=17122469-6fe8-44cc-83aa-2add588c9ff0"},"vehicle_type_id":"4","last_reported":1767629785,"current_range_meters":5600,"station_id":"ce4bhk92rcd13ifvqgb0","pricing_plan_id":"cebpf4jnsgd1na2vs0mg"},{"bike_id":"1448aa72-9c17-4619-b6e4-5401226ce27b","system_id":"levelo_inurba_marseille","lat":43.2417,"lon":5.39722,"is_reserved":false,"is_disabled":false,"rental_uris":{"android":"levelo://app?vid=1448aa72-9c17-4619-b6e4-5401226ce27b","ios":"levelo://app?vid=1448aa72-9c17-4619-b6e4-5401226ce27b"},"vehicle_type_id":"4","last_reported":1767629785,"current_range_meters":5600,"station_id":"ce4bhn12rcd13ifvqgpg","pricing_plan_id":"cebpf4jnsgd1na2vs0mg"},{"bike_id":"edbb502a-babb-4b56-b7b2-69e8e10c7c11","system_id":"levelo_inurba_marseille","lat":43.2852,"lon":5.48363,"is_reserved":false,"is_disabled":false,"rental_uris":{"android":"levelo://app?vid=edbb502a-babb-4b56-b7b2-69e8e10c7c11","ios":"levelo://app?vid=edbb502a-babb-4b56-b7b2-69e8e10c7c11"},"vehicle_type_id":"4","last_reported":1767629785,"current_range_meters":5600,"station_id":"","pricing_plan_id":"cebpf4jnsgd1na2vs0mg"},{"bike_id":"59bca459-f8ba-4ca0-be09-8ae241edab81","system_id":"levelo_inurba_marseille","lat":43.33337,"lon":5.41144,"is_reserved":false,"is_disabled":false,"rental_uris":{"android":"levelo://app?vid=59bca459-f8ba-4ca0-be09-8ae241edab81","ios":"levelo://app?vid=59bca459-f8ba-4ca0-be09-8ae241edab81"},"vehicle_type_id":"4","last_reported":1767629785,"current_range_meters":5600,"station_id":"","pricing_plan_id":"cebpf4jnsgd1na2vs0mg"},{"bike_id":"7320252b-d479-4819-9a8b-85aa365a8f12","system_id":"levelo_inurba_marseille","lat":43.28688,"lon":5.39984,"is_reserved":false,"is_disabled":false,"rental_uris":{"android":"levelo://app?vid=7320252b-d479-4819-9a8b-85aa365a8f12","ios":"levelo://app?vid=7320252b-d479-4819-9a8b-85aa365a8f12"},"vehicle_type_id":"4","last_reported":1767629785,"current_range_meters":5600,"station_id":"ce4bho92rcd13ifvqh3g","pricing_plan_id":"cebpf4jnsgd1na2vs0mg"},{"bike_id":"e3be8e5a-02de-4cdd-a4cc-991bb3d1ee3e","system_id":"levelo_inurba_marseille","lat":43.30173,"lon":5.36624,"is_reserved":false,"is_disabled":false,"rental_uris":{"android":"levelo://app?vid=e3be8e5a-02de-4cdd-a4cc-991bb3d1ee3e","ios":"levelo://app?vid=e3be8e5a-02de-4cdd-a4cc-991bb3d1ee3e"},"vehicle_type_id":"4","last_reported":1767629785,"current_range_meters":5600,"station_id":"ce4bgrh2rcd13ifvqc8g","pricing_plan_id":"cebpf4jnsgd1na2vs0mg"},{"bike_id":"689e1e25-96b9-418c-bbe1-0e8f9558c52f","system_id":"levelo_inurba_marseille","lat":43.31335,"lon":5.37634,"is_reserved":false,"is_disabled":false,"rental_uris":{"android":"levelo://app?vid=689e1e25-96b9-418c-bbe1-0e8f9558c52f","ios":"levelo://app?vid=689e1e25-96b9-418c-bbe1-0e8f9558c52f"},"vehicle_type_id":"4","last_reported":1767629785,"current_range_meters":5600,"station_id":"","pricing_plan_id":"cebpf4jnsgd1na2vs0mg"},{"bike_id":"9eb9f2a9-0def-423d-bc04-f48d9e280ab5","system_id":"levelo_inurba_marseille","lat":43.30537,"lon":5.36708,"is_reserved":false,"is_disabled":false,"rental_uris":{"android":"levelo://app?vid=9eb9f2a9-0def-423d-bc04-f48d9e280ab5","ios":"levelo://app?vid=9eb9f2a9-0def-423d-bc04-f48d9e280ab5"},"vehicle_type_id":"4","last_reported":1767629785,"current_range_meters":6000,"station_id":"ce4bgrp2rcd13ifvqc9g","pricing_plan_id":"cebpf4jnsgd1na2vs0mg"},{"bike_id":"2d00e765-c5e3-4921-bdc3-7b346757eae1","system_id":"levelo_inurba_marseille","lat":43.28374,"lon":5.43299,"is_reserved":false,"is_disabled":false,"rental_uris":{"android":"levelo://app?vid=2d00e765-c5e3-4921-bdc3-7b346757eae1","ios":"levelo://app?vid=2d00e765-c5e3-4921-bdc3-7b346757eae1"},"vehicle_type_id":"4","last_reported":1767629785,"current_range_meters":6000,"station_id":"","pricing_plan_id":"cebpf4jnsgd1na2vs0mg"},{"bike_id":"72c0aff9-fcf5-4414-a776-96bce150769e","system_id":"levelo_inurba_marseille","lat":43.27071,"lon":5.42257,"is_reserved":false,"is_disabled":false,"rental_uris":{"android":"levelo://app?vid=72c0aff9-fcf5-4414-a776-96bce150769e","ios":"levelo://app?vid=72c0aff9-fcf5-4414-a776-96bce150769e"},"vehicle_type_id":"4","last_reported":1767629785,"current_range_meters":6000,"station_id":"ce4bhk92rcd13ifvqgb0","pricing_plan_id":"cebpf4jnsgd1na2vs0mg"},{"bike_id":"bc307922-877e-4043-a0f7-9b4ce25883b6","system_id":"levelo_inurba_marseille","lat":43.29277,"lon":5.40119,"is_reserved":false,"is_disabled":false,"rental_uris":{"android":"levelo://app?vid=bc307922-877e-4043-a0f7-9b4ce25883b6","ios":"levelo://app?vid=bc307922-877e-4043-a0f7-9b4ce25883b6"},"vehicle_type_id":"4","last_reported":1767629785,"current_range_meters":6000,"station_id":"ce4bh312rcd13ifvqdk0","pricing_plan_id":"cebpf4jnsgd1na2vs0mg"},{"bike_id":"d7927a0c-acc6-4dbc-b121-3fe1c24d45cd","system_id":"levelo_inurba_marseille","lat":43.23967,"lon":5.36618,"is_reserved":false,"is_disabled":false,"rental_uris":{"android":"levelo://app?vid=d7927a0c-acc6-4dbc-b121-3fe1c24d45cd","ios":"levelo://app?vid=d7927a0c-acc6-4dbc-b121-3fe1c24d45cd"},"vehicle_type_id":"4","last_reported":1767629785,"current_range_meters":6000,"station_id":"ce4bhi12rcd13ifvqfp0","pricing_plan_id":"cebpf4jnsgd1na2vs0mg"},{"bike_id":"55b52402-4006-49a0-9aa6-a3f57789218e","system_id":"levelo_inurba_marseille","lat":43.3043,"lon":5.38893,"is_reserved":false,"is_disabled":false,"rental_uris":{"android":"levelo://app?vid=55b52402-4006-49a0-9aa6-a3f57789218e","ios":"levelo://app?vid=55b52402-4006-49a0-9aa6-a3f57789218e"},"vehicle_type_id":"4","last_reported":1767629785,"current_range_meters":6000,"station_id":"ce4bgk12rcd13ifvqbi0","pricing_plan_id":"cebpf4jnsgd1na2vs0mg"},{"bike_id":"6ee431c7-4e74-4dd8-ad5d-c3ceb8300bdd","system_id":"levelo_inurba_marseille","lat":43.292,"lon":5.358148,"is_reserved":false,"is_disabled":false,"rental_uris":{"android":"levelo://app?vid=6ee431c7-4e74-4dd8-ad5d-c3ceb8300bdd","ios":"levelo://app?vid=6ee431c7-4e74-4dd8-ad5d-c3ceb8300bdd"},"vehicle_type_id":"4","last_reported":1767629785,"current_range_meters":6000,"station_id":"ce4bhb12rcd13ifvqel0","pricing_plan_id":"cebpf4jnsgd1na2vs0mg"},{"bike_id":"ee980c0f-3431-4d86-9cf8-cea1174d2c65","system_id":"levelo_inurba_marseille","lat":43.23784,"lon":5.36624,"is_reserved":false,"is_disabled":false,"rental_uris":{"android":"levelo://app?vid=ee980c0f-3431-4d86-9cf8-cea1174d2c65","ios":"levelo://app?vid=ee980c0f-3431-4d86-9cf8-cea1174d2c65"},"vehicle_type_id":"4","last_reported":1767629785,"current_range_meters":6000,"station_id":"st_d3nk18o9ro0c73en2l3g","pricing_plan_id":"cebpf4jnsgd1na2vs0mg"},{"bike_id":"2a61f7a8-d2f7-4b6f-8828-528b5bab141c","system_id":"levelo_inurba_marseille","lat":43.27187,"lon":5.40988,"is_reserved":false,"is_disabled":false,"rental_uris":{"android":"levelo://app?vid=2a61f7a8-d2f7-4b6f-8828-528b5bab141c","ios":"levelo://app?vid=2a61f7a8-d2f7-4b6f-8828-528b5bab141c"},"vehicle_type_id":"4","last_reported":1767629785,"current_range_meters":6000,"station_id":"ce4bhl12rcd13ifvqgf0","pricing_plan_id":"cebpf4jnsgd1na2vs0mg"},{"bike_id":"3bc151a5-6a42-4f15-984e-e4dbbdbf3b09","system_id":"levelo_inurba_marseille","lat":43.32339,"lon":5.36739,"is_reserved":false,"is_disabled":false,"rental_uris":{"android":"levelo://app?vid=3bc151a5-6a42-4f15-984e-e4dbbdbf3b09","ios":"levelo://app?vid=3bc151a5-6a42-4f15-984e-e4dbbdbf3b09"},"vehicle_type_id":"4","last_reported":1767629785,"current_range_meters":6000,"station_id":"ce4bhsh2rcd13ifvqi2g","pricing_plan_id":"cebpf4jnsgd1na2vs0mg"},{"bike_id":"22905312-c1d0-4fd5-95fd-6a659c223909","system_id":"levelo_inurba_marseille","lat":43.290953,"lon":5.381298,"is_reserved":false,"is_disabled":false,"rental_uris":{"android":"levelo://app?vid=22905312-c1d0-4fd5-95fd-6a659c223909","ios":"levelo://app?vid=22905312-c1d0-4fd5-95fd-6a659c223909"},"vehicle_type_id":"4","last_reported":1767629785,"current_range_meters":6000,"station_id":"ce4bh512rcd13ifvqe2g","pricing_plan_id":"cebpf4jnsgd1na2vs0mg"},{"bike_id":"1c4b2bf4-ceba-465d-8191-639338c588e3","system_id":"levelo_inurba_marseille","lat":43.27064,"lon":5.42289,"is_reserved":false,"is_disabled":false,"rental_uris":{"android":"levelo://app?vid=1c4b2bf4-ceba-465d-8191-639338c588e3","ios":"levelo://app?vid=1c4b2bf4-ceba-465d-8191-639338c588e3"},"vehicle_type_id":"4","last_reported":1767629785,"current_range_meters":6000,"station_id":"ce4bhk92rcd13ifvqgb0","pricing_plan_id":"cebpf4jnsgd1na2vs0mg"},{"bike_id":"91d58f0e-afb9-4d84-ae6a-583dc961cac7","system_id":"levelo_inurba_marseille","lat":43.27913,"lon":5.39579,"is_reserved":false,"is_disabled":false,"rental_uris":{"android":"levelo://app?vid=91d58f0e-afb9-4d84-ae6a-583dc961cac7","ios":"levelo://app?vid=91d58f0e-afb9-4d84-ae6a-583dc961cac7"},"vehicle_type_id":"4","last_reported":1767629785,"current_range_meters":6000,"station_id":"ce4bhf92rcd13ifvqf40","pricing_plan_id":"cebpf4jnsgd1na2vs0mg"},{"bike_id":"cffe489e-fe7a-4837-8f07-f4dcbd976290","system_id":"levelo_inurba_marseille","lat":43.29973,"lon":5.38481,"is_reserved":false,"is_disabled":false,"rental_uris":{"android":"levelo://app?vid=cffe489e-fe7a-4837-8f07-f4dcbd976290","ios":"levelo://app?vid=cffe489e-fe7a-4837-8f07-f4dcbd976290"},"vehicle_type_id":"4","last_reported":1767629785,"current_range_meters":6000,"station_id":"ce4bgj92rcd13ifvqbd0","pricing_plan_id":"cebpf4jnsgd1na2vs0mg"},{"bike_id":"577a8429-e907-45de-a0fc-b8c3d38163f6","system_id":"levelo_inurba_marseille","lat":43.279,"lon":5.38033,"is_reserved":false,"is_disabled":false,"rental_uris":{"android":"levelo://app?vid=577a8429-e907-45de-a0fc-b8c3d38163f6","ios":"levelo://app?vid=577a8429-e907-45de-a0fc-b8c3d38163f6"},"vehicle_type_id":"4","last_reported":1767629785,"current_range_meters":6000,"station_id":"ce4bhf92rcd13ifvqf50","pricing_plan_id":"cebpf4jnsgd1na2vs0mg"},{"bike_id":"e3aa32d8-6703-4bb5-89dd-c6404061fee0","system_id":"levelo_inurba_marseille","lat":43.31377,"lon":5.38048,"is_reserved":false,"is_disabled":false,"rental_uris":{"android":"levelo://app?vid=e3aa32d8-6703-4bb5-89dd-c6404061fee0","ios":"levelo://app?vid=e3aa32d8-6703-4bb5-89dd-c6404061fee0"},"vehicle_type_id":"4","last_reported":1767629785,"current_range_meters":6000,"station_id":"","pricing_plan_id":"cebpf4jnsgd1na2vs0mg"},{"bike_id":"0e920fea-401a-4fec-a702-867e99d7a0b7","system_id":"levelo_inurba_marseille","lat":43.26236,"lon":5.4046,"is_reserved":false,"is_disabled":false,"rental_uris":{"android":"levelo://app?vid=0e920fea-401a-4fec-a702-867e99d7a0b7","ios":"levelo://app?vid=0e920fea-401a-4fec-a702-867e99d7a0b7"},"vehicle_type_id":"4","last_reported":1767629785,"current_range_meters":6000,"station_id":"ce4bhmh2rcd13ifvqgmg","pricing_plan_id":"cebpf4jnsgd1na2vs0mg"},{"bike_id":"da5c5a0f-95ef-4de5-9f48-33641c70fc23","system_id":"levelo_inurba_marseille","lat":43.26362,"lon":5.41071,"is_reserved":false,"is_disabled":false,"rental_uris":{"android":"levelo://app?vid=da5c5a0f-95ef-4de5-9f48-33641c70fc23","ios":"levelo://app?vid=da5c5a0f-95ef-4de5-9f48-33641c70fc23"},"vehicle_type_id":"4","last_reported":1767629785,"current_range_meters":6000,"station_id":"st_d4e5ca6na9uc73bfl5fg","pricing_plan_id":"cebpf4jnsgd1na2vs0mg"},{"bike_id":"a37d40f7-6a7a-463a-8f5a-b25737a5a4f2","system_id":"levelo_inurba_marseille","lat":43.299,"lon":5.38004,"is_reserved":false,"is_disabled":false,"rental_uris":{"android":"levelo://app?vid=a37d40f7-6a7a-463a-8f5a-b25737a5a4f2","ios":"levelo://app?vid=a37d40f7-6a7a-463a-8f5a-b25737a5a4f2"},"vehicle_type_id":"4","last_reported":1767629785,"current_range_meters":6000,"station_id":"","pricing_plan_id":"cebpf4jnsgd1na2vs0mg"},{"bike_id":"27deac45-e711-41b2-b7a5-98c7278bfea1","system_id":"levelo_inurba_marseille","lat":43.25333,"lon":5.42167,"is_reserved":false,"is_disabled":false,"rental_uris":{"android":"levelo://app?vid=27deac45-e711-41b2-b7a5-98c7278bfea1","ios":"levelo://app?vid=27deac45-e711-41b2-b7a5-98c7278bfea1"},"vehicle_type_id":"4","last_reported":1767629785,"current_range_meters":6000,"station_id":"st_d2m65c5bi1j21697t3ng","pricing_plan_id":"cebpf4jnsgd1na2vs0mg"},{"bike_id":"c48b8ab0-3aed-485b-9e87-5ea8f52478d4","system_id":"levelo_inurba_marseille","lat":43.31597,"lon":5.38411,"is_reserved":false,"is_disabled":false,"rental_uris":{"android":"levelo://app?vid=c48b8ab0-3aed-485b-9e87-5ea8f52478d4","ios":"levelo://app?vid=c48b8ab0-3aed-485b-9e87-5ea8f52478d4"},"vehicle_type_id":"4","last_reported":1767629785,"current_range_meters":6000,"station_id":"","pricing_plan_id":"cebpf4jnsgd1na2vs0mg"},{"bike_id":"8e966076-728c-4fc2-8b4e-2d327805a27b","system_id":"levelo_inurba_marseille","lat":43.269294,"lon":5.389161,"is_reserved":false,"is_disabled":false,"rental_uris":{"android":"levelo://app?vid=8e966076-728c-4fc2-8b4e-2d327805a27b","ios":"levelo://app?vid=8e966076-728c-4fc2-8b4e-2d327805a27b"},"vehicle_type_id":"4","last_reported":1767629785,"current_range_meters":6000,"station_id":"ce4bhhh2rcd13ifvqfl0","pricing_plan_id":"cebpf4jnsgd1na2vs0mg"},{"bike_id":"254a6c59-5f0c-4c52-8628-8e7efad88c7e","system_id":"levelo_inurba_marseille","lat":43.24162,"lon":5.3639,"is_reserved":false,"is_disabled":false,"rental_uris":{"android":"levelo://app?vid=254a6c59-5f0c-4c52-8628-8e7efad88c7e","ios":"levelo://app?vid=254a6c59-5f0c-4c52-8628-8e7efad88c7e"},"vehicle_type_id":"4","last_reported":1767629785,"current_range_meters":6000,"station_id":"cpo36qri1sfpv3e86is0","pricing_plan_id":"cebpf4jnsgd1na2vs0mg"},{"bike_id":"711ac434-d9f1-4681-9ad2-e83d5d14d99b","system_id":"levelo_inurba_marseille","lat":43.295999,"lon":5.367957,"is_reserved":false,"is_disabled":false,"rental_uris":{"android":"levelo://app?vid=711ac434-d9f1-4681-9ad2-e83d5d14d99b","ios":"levelo://app?vid=711ac434-d9f1-4681-9ad2-e83d5d14d99b"},"vehicle_type_id":"4","last_reported":1767629785,"current_range_meters":6000,"station_id":"ce4bgph2rcd13ifvqc2g","pricing_plan_id":"cebpf4jnsgd1na2vs0mg"},{"bike_id":"2f24aeb5-4f7b-418f-9bc7-097a894b599c","system_id":"levelo_inurba_marseille","lat":43.28266,"lon":5.35057,"is_reserved":false,"is_disabled":false,"rental_uris":{"android":"levelo://app?vid=2f24aeb5-4f7b-418f-9bc7-097a894b599c","ios":"levelo://app?vid=2f24aeb5-4f7b-418f-9bc7-097a894b599c"},"vehicle_type_id":"4","last_reported":1767629785,"current_range_meters":6400,"station_id":"ce4bhbp2rcd13ifvqerg","pricing_plan_id":"cebpf4jnsgd1na2vs0mg"},{"bike_id":"8c1916f3-9874-4eb0-8987-deefc3073e14","system_id":"levelo_inurba_marseille","lat":43.29105,"lon":5.3814,"is_reserved":false,"is_disabled":false,"rental_uris":{"android":"levelo://app?vid=8c1916f3-9874-4eb0-8987-deefc3073e14","ios":"levelo://app?vid=8c1916f3-9874-4eb0-8987-deefc3073e14"},"vehicle_type_id":"4","last_reported":1767629785,"current_range_meters":6400,"station_id":"ce4bh512rcd13ifvqe2g","pricing_plan_id":"cebpf4jnsgd1na2vs0mg"},{"bike_id":"ddb04fa1-fdee-4548-9e0d-7f639fee9bf2","system_id":"levelo_inurba_marseille","lat":43.28709,"lon":5.37936,"is_reserved":false,"is_disabled":false,"rental_uris":{"android":"levelo://app?vid=ddb04fa1-fdee-4548-9e0d-7f639fee9bf2","ios":"levelo://app?vid=ddb04fa1-fdee-4548-9e0d-7f639fee9bf2"},"vehicle_type_id":"4","last_reported":1767629785,"current_range_meters":6400,"station_id":"ce4bh9p2rcd13ifvqec0","pricing_plan_id":"cebpf4jnsgd1na2vs0mg"},{"bike_id":"8797d0e0-3f72-4cce-b6f6-fa9e7c04cd9b","system_id":"levelo_inurba_marseille","lat":43.29524,"lon":5.37493,"is_reserved":false,"is_disabled":false,"rental_uris":{"android":"levelo://app?vid=8797d0e0-3f72-4cce-b6f6-fa9e7c04cd9b","ios":"levelo://app?vid=8797d0e0-3f72-4cce-b6f6-fa9e7c04cd9b"},"vehicle_type_id":"4","last_reported":1767629785,"current_range_meters":6400,"station_id":"ce4bgkp2rcd13ifvqbmg","pricing_plan_id":"cebpf4jnsgd1na2vs0mg"},{"bike_id":"a414d67b-9afa-4a87-9fac-f67cdff12698","system_id":"levelo_inurba_marseille","lat":43.29067,"lon":5.37711,"is_reserved":false,"is_disabled":false,"rental_uris":{"android":"levelo://app?vid=a414d67b-9afa-4a87-9fac-f67cdff12698","ios":"levelo://app?vid=a414d67b-9afa-4a87-9fac-f67cdff12698"},"vehicle_type_id":"4","last_reported":1767629785,"current_range_meters":6400,"station_id":"","pricing_plan_id":"cebpf4jnsgd1na2vs0mg"},{"bike_id":"fad88370-eff2-40ad-91f9-be30e2fbd51d","system_id":"levelo_inurba_marseille","lat":43.294344,"lon":5.397606,"is_reserved":false,"is_disabled":true,"rental_uris":{"android":"levelo://app?vid=fad88370-eff2-40ad-91f9-be30e2fbd51d","ios":"levelo://app?vid=fad88370-eff2-40ad-91f9-be30e2fbd51d"},"vehicle_type_id":"4","last_reported":1767629785,"current_range_meters":6400,"station_id":"ce4bh3h2rcd13ifvqdo0","pricing_plan_id":"cebpf4jnsgd1na2vs0mg"},{"bike_id":"d1a8582c-3d84-4b4e-ace7-3ba06413c6cb","system_id":"levelo_inurba_marseille","lat":43.31188,"lon":5.36855,"is_reserved":false,"is_disabled":false,"rental_uris":{"android":"levelo://app?vid=d1a8582c-3d84-4b4e-ace7-3ba06413c6cb","ios":"levelo://app?vid=d1a8582c-3d84-4b4e-ace7-3ba06413c6cb"},"vehicle_type_id":"4","last_reported":1767629785,"current_range_meters":6400,"station_id":"ce4bgl92rcd13ifvqbq0","pricing_plan_id":"cebpf4jnsgd1na2vs0mg"},{"bike_id":"13a148c5-a1fd-4e51-be3e-efc9d5f353fa","system_id":"levelo_inurba_marseille","lat":43.25516,"lon":5.37649,"is_reserved":false,"is_disabled":false,"rental_uris":{"android":"levelo://app?vid=13a148c5-a1fd-4e51-be3e-efc9d5f353fa","ios":"levelo://app?vid=13a148c5-a1fd-4e51-be3e-efc9d5f353fa"},"vehicle_type_id":"4","last_reported":1767629785,"current_range_meters":6400,"station_id":"ce4bhh12rcd13ifvqff0","pricing_plan_id":"cebpf4jnsgd1na2vs0mg"},{"bike_id":"a8cd7802-144d-4c11-af29-be2259acf14c","system_id":"levelo_inurba_marseille","lat":43.243922,"lon":5.370663,"is_reserved":false,"is_disabled":false,"rental_uris":{"android":"levelo://app?vid=a8cd7802-144d-4c11-af29-be2259acf14c","ios":"levelo://app?vid=a8cd7802-144d-4c11-af29-be2259acf14c"},"vehicle_type_id":"4","last_reported":1767629785,"current_range_meters":6400,"station_id":"","pricing_plan_id":"cebpf4jnsgd1na2vs0mg"},{"bike_id":"fd8f368a-790a-472f-8659-a02b635b9f3b","system_id":"levelo_inurba_marseille","lat":43.31063,"lon":5.37465,"is_reserved":false,"is_disabled":false,"rental_uris":{"android":"levelo://app?vid=fd8f368a-790a-472f-8659-a02b635b9f3b","ios":"levelo://app?vid=fd8f368a-790a-472f-8659-a02b635b9f3b"},"vehicle_type_id":"4","last_reported":1767629785,"current_range_meters":6400,"station_id":"","pricing_plan_id":"cebpf4jnsgd1na2vs0mg"},{"bike_id":"c5365846-c619-4f12-8c92-97c9f9725a15","system_id":"levelo_inurba_marseille","lat":43.2952,"lon":5.37897,"is_reserved":false,"is_disabled":false,"rental_uris":{"android":"levelo://app?vid=c5365846-c619-4f12-8c92-97c9f9725a15","ios":"levelo://app?vid=c5365846-c619-4f12-8c92-97c9f9725a15"},"vehicle_type_id":"4","last_reported":1767629785,"current_range_meters":6400,"station_id":"","pricing_plan_id":"cebpf4jnsgd1na2vs0mg"},{"bike_id":"0abda507-827b-4ba6-b5d5-a4467158d662","system_id":"levelo_inurba_marseille","lat":43.23182,"lon":5.400064,"is_reserved":false,"is_disabled":false,"rental_uris":{"android":"levelo://app?vid=0abda507-827b-4ba6-b5d5-a4467158d662","ios":"levelo://app?vid=0abda507-827b-4ba6-b5d5-a4467158d662"},"vehicle_type_id":"4","last_reported":1767629785,"current_range_meters":6400,"station_id":"ce4bhn12rcd13ifvqgqg","pricing_plan_id":"cebpf4jnsgd1na2vs0mg"},{"bike_id":"4b9a2d91-350c-4548-8a5a-7627026cf056","system_id":"levelo_inurba_marseille","lat":43.28722,"lon":5.37922,"is_reserved":false,"is_disabled":false,"rental_uris":{"android":"levelo://app?vid=4b9a2d91-350c-4548-8a5a-7627026cf056","ios":"levelo://app?vid=4b9a2d91-350c-4548-8a5a-7627026cf056"},"vehicle_type_id":"4","last_reported":1767629785,"current_range_meters":6400,"station_id":"ce4bh9p2rcd13ifvqec0","pricing_plan_id":"cebpf4jnsgd1na2vs0mg"},{"bike_id":"d938298d-16c1-4fcf-a2a1-90f5a487d129","system_id":"levelo_inurba_marseille","lat":43.28128,"lon":5.35982,"is_reserved":false,"is_disabled":false,"rental_uris":{"android":"levelo://app?vid=d938298d-16c1-4fcf-a2a1-90f5a487d129","ios":"levelo://app?vid=d938298d-16c1-4fcf-a2a1-90f5a487d129"},"vehicle_type_id":"4","last_reported":1767629785,"current_range_meters":6400,"station_id":"","pricing_plan_id":"cebpf4jnsgd1na2vs0mg"},{"bike_id":"44d3f94c-dd0c-4f61-b423-c6c94efb1e23","system_id":"levelo_inurba_marseille","lat":43.27916,"lon":5.39576,"is_reserved":false,"is_disabled":false,"rental_uris":{"android":"levelo://app?vid=44d3f94c-dd0c-4f61-b423-c6c94efb1e23","ios":"levelo://app?vid=44d3f94c-dd0c-4f61-b423-c6c94efb1e23"},"vehicle_type_id":"4","last_reported":1767629785,"current_range_meters":6400,"station_id":"ce4bhf92rcd13ifvqf40","pricing_plan_id":"cebpf4jnsgd1na2vs0mg"},{"bike_id":"bb20fce4-d02b-4ec1-a2f9-e33a7624d70c","system_id":"levelo_inurba_marseille","lat":43.26574,"lon":5.3903,"is_reserved":false,"is_disabled":false,"rental_uris":{"android":"levelo://app?vid=bb20fce4-d02b-4ec1-a2f9-e33a7624d70c","ios":"levelo://app?vid=bb20fce4-d02b-4ec1-a2f9-e33a7624d70c"},"vehicle_type_id":"4","last_reported":1767629785,"current_range_meters":6800,"station_id":"ce4bhe12rcd13ifvqf30","pricing_plan_id":"cebpf4jnsgd1na2vs0mg"},{"bike_id":"50fc6b08-8ec1-4b86-945f-0af87cfd18c5","system_id":"levelo_inurba_marseille","lat":43.24175,"lon":5.39716,"is_reserved":false,"is_disabled":false,"rental_uris":{"android":"levelo://app?vid=50fc6b08-8ec1-4b86-945f-0af87cfd18c5","ios":"levelo://app?vid=50fc6b08-8ec1-4b86-945f-0af87cfd18c5"},"vehicle_type_id":"4","last_reported":1767629785,"current_range_meters":6800,"station_id":"ce4bhn12rcd13ifvqgpg","pricing_plan_id":"cebpf4jnsgd1na2vs0mg"},{"bike_id":"85f65327-244d-4e0f-989f-0ca631a03630","system_id":"levelo_inurba_marseille","lat":43.28144,"lon":5.4264,"is_reserved":false,"is_disabled":false,"rental_uris":{"android":"levelo://app?vid=85f65327-244d-4e0f-989f-0ca631a03630","ios":"levelo://app?vid=85f65327-244d-4e0f-989f-0ca631a03630"},"vehicle_type_id":"4","last_reported":1767629785,"current_range_meters":6800,"station_id":"ce4bhnh2rcd13ifvqgug","pricing_plan_id":"cebpf4jnsgd1na2vs0mg"},{"bike_id":"13588b82-272e-4400-af96-5365185f6624","system_id":"levelo_inurba_marseille","lat":43.295571,"lon":5.375304,"is_reserved":false,"is_disabled":false,"rental_uris":{"android":"levelo://app?vid=13588b82-272e-4400-af96-5365185f6624","ios":"levelo://app?vid=13588b82-272e-4400-af96-5365185f6624"},"vehicle_type_id":"4","last_reported":1767629785,"current_range_meters":6800,"station_id":"ce4bgh92rcd13ifvqb50","pricing_plan_id":"cebpf4jnsgd1na2vs0mg"},{"bike_id":"5096ae1e-3a09-4d36-94b2-3a4c172f106c","system_id":"levelo_inurba_marseille","lat":43.29707,"lon":5.36607,"is_reserved":false,"is_disabled":false,"rental_uris":{"android":"levelo://app?vid=5096ae1e-3a09-4d36-94b2-3a4c172f106c","ios":"levelo://app?vid=5096ae1e-3a09-4d36-94b2-3a4c172f106c"},"vehicle_type_id":"4","last_reported":1767629785,"current_range_meters":6800,"station_id":"ce4bgn12rcd13ifvqbt0","pricing_plan_id":"cebpf4jnsgd1na2vs0mg"},{"bike_id":"58fdae85-8d47-4e41-bb91-d79cc2f232b1","system_id":"levelo_inurba_marseille","lat":43.28463,"lon":5.38403,"is_reserved":false,"is_disabled":false,"rental_uris":{"android":"levelo://app?vid=58fdae85-8d47-4e41-bb91-d79cc2f232b1","ios":"levelo://app?vid=58fdae85-8d47-4e41-bb91-d79cc2f232b1"},"vehicle_type_id":"4","last_reported":1767629785,"current_range_meters":6800,"station_id":"ce4bh512rcd13ifvqe3g","pricing_plan_id":"cebpf4jnsgd1na2vs0mg"},{"bike_id":"d19e7d8f-8d39-4e32-b60a-b3305948b30b","system_id":"levelo_inurba_marseille","lat":43.24165,"lon":5.36392,"is_reserved":false,"is_disabled":false,"rental_uris":{"android":"levelo://app?vid=d19e7d8f-8d39-4e32-b60a-b3305948b30b","ios":"levelo://app?vid=d19e7d8f-8d39-4e32-b60a-b3305948b30b"},"vehicle_type_id":"4","last_reported":1767629785,"current_range_meters":6800,"station_id":"cpo36qri1sfpv3e86is0","pricing_plan_id":"cebpf4jnsgd1na2vs0mg"},{"bike_id":"a137c454-3770-4b8e-bfad-84ac4178de91","system_id":"levelo_inurba_marseille","lat":43.30362,"lon":5.43064,"is_reserved":false,"is_disabled":false,"rental_uris":{"android":"levelo://app?vid=a137c454-3770-4b8e-bfad-84ac4178de91","ios":"levelo://app?vid=a137c454-3770-4b8e-bfad-84ac4178de91"},"vehicle_type_id":"4","last_reported":1767629785,"current_range_meters":6800,"station_id":"","pricing_plan_id":"cebpf4jnsgd1na2vs0mg"},{"bike_id":"cd597364-b673-46fd-b347-0d015623b97f","system_id":"levelo_inurba_marseille","lat":43.3041,"lon":5.41291,"is_reserved":false,"is_disabled":false,"rental_uris":{"android":"levelo://app?vid=cd597364-b673-46fd-b347-0d015623b97f","ios":"levelo://app?vid=cd597364-b673-46fd-b347-0d015623b97f"},"vehicle_type_id":"4","last_reported":1767629785,"current_range_meters":6800,"station_id":"ce4bhop2rcd13ifvqh8g","pricing_plan_id":"cebpf4jnsgd1na2vs0mg"},{"bike_id":"831294d3-0f66-4ca1-a706-138b980b5682","system_id":"levelo_inurba_marseille","lat":43.30584,"lon":5.37105,"is_reserved":false,"is_disabled":false,"rental_uris":{"android":"levelo://app?vid=831294d3-0f66-4ca1-a706-138b980b5682","ios":"levelo://app?vid=831294d3-0f66-4ca1-a706-138b980b5682"},"vehicle_type_id":"4","last_reported":1767629785,"current_range_meters":6800,"station_id":"","pricing_plan_id":"cebpf4jnsgd1na2vs0mg"},{"bike_id":"5c752d77-7b25-48ba-99ef-9b278d0c9e59","system_id":"levelo_inurba_marseille","lat":43.24385,"lon":5.37044,"is_reserved":false,"is_disabled":false,"rental_uris":{"android":"levelo://app?vid=5c752d77-7b25-48ba-99ef-9b278d0c9e59","ios":"levelo://app?vid=5c752d77-7b25-48ba-99ef-9b278d0c9e59"},"vehicle_type_id":"4","last_reported":1767629785,"current_range_meters":6800,"station_id":"ce4bhhh2rcd13ifvqfk0","pricing_plan_id":"cebpf4jnsgd1na2vs0mg"},{"bike_id":"55654a27-5cd8-4223-b844-2fc4c9f1600a","system_id":"levelo_inurba_marseille","lat":43.31349,"lon":5.38003,"is_reserved":false,"is_disabled":false,"rental_uris":{"android":"levelo://app?vid=55654a27-5cd8-4223-b844-2fc4c9f1600a","ios":"levelo://app?vid=55654a27-5cd8-4223-b844-2fc4c9f1600a"},"vehicle_type_id":"4","last_reported":1767629785,"current_range_meters":6800,"station_id":"","pricing_plan_id":"cebpf4jnsgd1na2vs0mg"},{"bike_id":"78ee9e26-5faa-4a59-b860-4f40e4a8324f","system_id":"levelo_inurba_marseille","lat":43.30537,"lon":5.36701,"is_reserved":false,"is_disabled":false,"rental_uris":{"android":"levelo://app?vid=78ee9e26-5faa-4a59-b860-4f40e4a8324f","ios":"levelo://app?vid=78ee9e26-5faa-4a59-b860-4f40e4a8324f"},"vehicle_type_id":"4","last_reported":1767629785,"current_range_meters":6800,"station_id":"ce4bgrp2rcd13ifvqc9g","pricing_plan_id":"cebpf4jnsgd1na2vs0mg"},{"bike_id":"c49e27b4-a5f9-4c71-aa66-1ae8ec3b129e","system_id":"levelo_inurba_marseille","lat":43.29276,"lon":5.38904,"is_reserved":false,"is_disabled":false,"rental_uris":{"android":"levelo://app?vid=c49e27b4-a5f9-4c71-aa66-1ae8ec3b129e","ios":"levelo://app?vid=c49e27b4-a5f9-4c71-aa66-1ae8ec3b129e"},"vehicle_type_id":"4","last_reported":1767629785,"current_range_meters":6800,"station_id":"","pricing_plan_id":"cebpf4jnsgd1na2vs0mg"},{"bike_id":"72b51e1a-4811-4ff6-b105-75ed71629328","system_id":"levelo_inurba_marseille","lat":43.24949,"lon":5.40508,"is_reserved":false,"is_disabled":false,"rental_uris":{"android":"levelo://app?vid=72b51e1a-4811-4ff6-b105-75ed71629328","ios":"levelo://app?vid=72b51e1a-4811-4ff6-b105-75ed71629328"},"vehicle_type_id":"4","last_reported":1767629785,"current_range_meters":6800,"station_id":"st_d2ngiaodas8pm72gd1h0","pricing_plan_id":"cebpf4jnsgd1na2vs0mg"},{"bike_id":"fc24e154-126f-487a-abd8-81f2874cd1b6","system_id":"levelo_inurba_marseille","lat":43.27174,"lon":5.40994,"is_reserved":false,"is_disabled":false,"rental_uris":{"android":"levelo://app?vid=fc24e154-126f-487a-abd8-81f2874cd1b6","ios":"levelo://app?vid=fc24e154-126f-487a-abd8-81f2874cd1b6"},"vehicle_type_id":"4","last_reported":1767629785,"current_range_meters":7200,"station_id":"ce4bhl12rcd13ifvqgf0","pricing_plan_id":"cebpf4jnsgd1na2vs0mg"},{"bike_id":"801e0e40-fac2-4fbc-9636-b8eb982b0989","system_id":"levelo_inurba_marseille","lat":43.23953,"lon":5.36627,"is_reserved":false,"is_disabled":false,"rental_uris":{"android":"levelo://app?vid=801e0e40-fac2-4fbc-9636-b8eb982b0989","ios":"levelo://app?vid=801e0e40-fac2-4fbc-9636-b8eb982b0989"},"vehicle_type_id":"4","last_reported":1767629785,"current_range_meters":7200,"station_id":"ce4bhi12rcd13ifvqfp0","pricing_plan_id":"cebpf4jnsgd1na2vs0mg"},{"bike_id":"49d2b632-8364-4f72-a0e1-2846dfcaf55c","system_id":"levelo_inurba_marseille","lat":43.238112,"lon":5.365895,"is_reserved":false,"is_disabled":false,"rental_uris":{"android":"levelo://app?vid=49d2b632-8364-4f72-a0e1-2846dfcaf55c","ios":"levelo://app?vid=49d2b632-8364-4f72-a0e1-2846dfcaf55c"},"vehicle_type_id":"4","last_reported":1767629785,"current_range_meters":7200,"station_id":"","pricing_plan_id":"cebpf4jnsgd1na2vs0mg"},{"bike_id":"58aa433d-6523-48fb-83cc-9676ed151533","system_id":"levelo_inurba_marseille","lat":43.27916,"lon":5.39581,"is_reserved":false,"is_disabled":false,"rental_uris":{"android":"levelo://app?vid=58aa433d-6523-48fb-83cc-9676ed151533","ios":"levelo://app?vid=58aa433d-6523-48fb-83cc-9676ed151533"},"vehicle_type_id":"4","last_reported":1767629785,"current_range_meters":7200,"station_id":"ce4bhf92rcd13ifvqf40","pricing_plan_id":"cebpf4jnsgd1na2vs0mg"},{"bike_id":"2d22a657-4015-46c7-921f-a80bd533101c","system_id":"levelo_inurba_marseille","lat":43.2893,"lon":5.38395,"is_reserved":false,"is_disabled":false,"rental_uris":{"android":"levelo://app?vid=2d22a657-4015-46c7-921f-a80bd533101c","ios":"levelo://app?vid=2d22a657-4015-46c7-921f-a80bd533101c"},"vehicle_type_id":"4","last_reported":1767629785,"current_range_meters":7200,"station_id":"ce4bh612rcd13ifvqe6g","pricing_plan_id":"cebpf4jnsgd1na2vs0mg"},{"bike_id":"78b11bb5-5700-4fb6-b0c1-d37e13475e71","system_id":"levelo_inurba_marseille","lat":43.293689,"lon":5.378617,"is_reserved":false,"is_disabled":false,"rental_uris":{"android":"levelo://app?vid=78b11bb5-5700-4fb6-b0c1-d37e13475e71","ios":"levelo://app?vid=78b11bb5-5700-4fb6-b0c1-d37e13475e71"},"vehicle_type_id":"4","last_reported":1767629785,"current_range_meters":7200,"station_id":"ce4bgjh2rcd13ifvqbf0","pricing_plan_id":"cebpf4jnsgd1na2vs0mg"},{"bike_id":"799baf21-a08b-4a99-a9eb-bb046d6f86b1","system_id":"levelo_inurba_marseille","lat":43.28422,"lon":5.34997,"is_reserved":false,"is_disabled":false,"rental_uris":{"android":"levelo://app?vid=799baf21-a08b-4a99-a9eb-bb046d6f86b1","ios":"levelo://app?vid=799baf21-a08b-4a99-a9eb-bb046d6f86b1"},"vehicle_type_id":"4","last_reported":1767629785,"current_range_meters":7200,"station_id":"ce4bhbh2rcd13ifvqepg","pricing_plan_id":"cebpf4jnsgd1na2vs0mg"},{"bike_id":"624def88-3290-4b1b-8e34-827eb7187f9b","system_id":"levelo_inurba_marseille","lat":43.27064,"lon":5.42267,"is_reserved":false,"is_disabled":false,"rental_uris":{"android":"levelo://app?vid=624def88-3290-4b1b-8e34-827eb7187f9b","ios":"levelo://app?vid=624def88-3290-4b1b-8e34-827eb7187f9b"},"vehicle_type_id":"4","last_reported":1767629785,"current_range_meters":7200,"station_id":"ce4bhk92rcd13ifvqgb0","pricing_plan_id":"cebpf4jnsgd1na2vs0mg"},{"bike_id":"e3a366e7-432a-4c86-8fda-c24791fb1ce5","system_id":"levelo_inurba_marseille","lat":43.29796,"lon":5.37752,"is_reserved":false,"is_disabled":false,"rental_uris":{"android":"levelo://app?vid=e3a366e7-432a-4c86-8fda-c24791fb1ce5","ios":"levelo://app?vid=e3a366e7-432a-4c86-8fda-c24791fb1ce5"},"vehicle_type_id":"4","last_reported":1767629785,"current_range_meters":7200,"station_id":"","pricing_plan_id":"cebpf4jnsgd1na2vs0mg"},{"bike_id":"8888b60a-8078-401c-9213-eda80077f961","system_id":"levelo_inurba_marseille","lat":43.28613,"lon":5.35103,"is_reserved":false,"is_disabled":false,"rental_uris":{"android":"levelo://app?vid=8888b60a-8078-401c-9213-eda80077f961","ios":"levelo://app?vid=8888b60a-8078-401c-9213-eda80077f961"},"vehicle_type_id":"4","last_reported":1767629785,"current_range_meters":7200,"station_id":"ce4bhch2rcd13ifvqeug","pricing_plan_id":"cebpf4jnsgd1na2vs0mg"},{"bike_id":"1e10dcce-a010-467a-a316-8a67faec7426","system_id":"levelo_inurba_marseille","lat":43.29758,"lon":5.42776,"is_reserved":false,"is_disabled":false,"rental_uris":{"android":"levelo://app?vid=1e10dcce-a010-467a-a316-8a67faec7426","ios":"levelo://app?vid=1e10dcce-a010-467a-a316-8a67faec7426"},"vehicle_type_id":"4","last_reported":1767629785,"current_range_meters":7200,"station_id":"st_d3md5207bmas73dh9klg","pricing_plan_id":"cebpf4jnsgd1na2vs0mg"},{"bike_id":"0bb50464-ce96-4c77-bc35-a36d4c839068","system_id":"levelo_inurba_marseille","lat":43.302641,"lon":5.377255,"is_reserved":false,"is_disabled":false,"rental_uris":{"android":"levelo://app?vid=0bb50464-ce96-4c77-bc35-a36d4c839068","ios":"levelo://app?vid=0bb50464-ce96-4c77-bc35-a36d4c839068"},"vehicle_type_id":"4","last_reported":1767629785,"current_range_meters":7200,"station_id":"ce4bgt12rcd13ifvqce0","pricing_plan_id":"cebpf4jnsgd1na2vs0mg"},{"bike_id":"7409f8d2-dfa9-4964-9bc6-c3a46a1923df","system_id":"levelo_inurba_marseille","lat":43.27381,"lon":5.36257,"is_reserved":false,"is_disabled":false,"rental_uris":{"android":"levelo://app?vid=7409f8d2-dfa9-4964-9bc6-c3a46a1923df","ios":"levelo://app?vid=7409f8d2-dfa9-4964-9bc6-c3a46a1923df"},"vehicle_type_id":"4","last_reported":1767629785,"current_range_meters":7200,"station_id":"ce4bhbh2rcd13ifvqeo0","pricing_plan_id":"cebpf4jnsgd1na2vs0mg"},{"bike_id":"9a898d8c-cf91-4640-acfb-d3be64781fb9","system_id":"levelo_inurba_marseille","lat":43.284699,"lon":5.484008,"is_reserved":false,"is_disabled":false,"rental_uris":{"android":"levelo://app?vid=9a898d8c-cf91-4640-acfb-d3be64781fb9","ios":"levelo://app?vid=9a898d8c-cf91-4640-acfb-d3be64781fb9"},"vehicle_type_id":"4","last_reported":1767629785,"current_range_meters":7200,"station_id":"","pricing_plan_id":"cebpf4jnsgd1na2vs0mg"},{"bike_id":"e5080626-6fd3-465a-95fc-ffeeb81121ed","system_id":"levelo_inurba_marseille","lat":43.30545,"lon":5.36696,"is_reserved":false,"is_disabled":false,"rental_uris":{"android":"levelo://app?vid=e5080626-6fd3-465a-95fc-ffeeb81121ed","ios":"levelo://app?vid=e5080626-6fd3-465a-95fc-ffeeb81121ed"},"vehicle_type_id":"4","last_reported":1767629785,"current_range_meters":8000,"station_id":"ce4bgrp2rcd13ifvqc9g","pricing_plan_id":"cebpf4jnsgd1na2vs0mg"},{"bike_id":"f97c9d69-08f3-4e6e-837a-e318a0cb9742","system_id":"levelo_inurba_marseille","lat":43.29268,"lon":5.36842,"is_reserved":false,"is_disabled":false,"rental_uris":{"android":"levelo://app?vid=f97c9d69-08f3-4e6e-837a-e318a0cb9742","ios":"levelo://app?vid=f97c9d69-08f3-4e6e-837a-e318a0cb9742"},"vehicle_type_id":"4","last_reported":1767629785,"current_range_meters":8000,"station_id":"ce4bhbp2rcd13ifvqesg","pricing_plan_id":"cebpf4jnsgd1na2vs0mg"},{"bike_id":"78a43024-7816-4673-a14d-33f092f7b7ea","system_id":"levelo_inurba_marseille","lat":43.31349,"lon":5.36725,"is_reserved":false,"is_disabled":false,"rental_uris":{"android":"levelo://app?vid=78a43024-7816-4673-a14d-33f092f7b7ea","ios":"levelo://app?vid=78a43024-7816-4673-a14d-33f092f7b7ea"},"vehicle_type_id":"4","last_reported":1767629785,"current_range_meters":8000,"station_id":"ce4bgr92rcd13ifvqc6g","pricing_plan_id":"cebpf4jnsgd1na2vs0mg"},{"bike_id":"00da6500-68b4-4b45-be1f-48d675212bd1","system_id":"levelo_inurba_marseille","lat":43.30537,"lon":5.3654,"is_reserved":false,"is_disabled":false,"rental_uris":{"android":"levelo://app?vid=00da6500-68b4-4b45-be1f-48d675212bd1","ios":"levelo://app?vid=00da6500-68b4-4b45-be1f-48d675212bd1"},"vehicle_type_id":"4","last_reported":1767629785,"current_range_meters":8000,"station_id":"ce4bgs12rcd13ifvqcag","pricing_plan_id":"cebpf4jnsgd1na2vs0mg"},{"bike_id":"9b6d4335-5c89-40cd-a57b-155467c3599f","system_id":"levelo_inurba_marseille","lat":43.28088,"lon":5.39599,"is_reserved":false,"is_disabled":false,"rental_uris":{"android":"levelo://app?vid=9b6d4335-5c89-40cd-a57b-155467c3599f","ios":"levelo://app?vid=9b6d4335-5c89-40cd-a57b-155467c3599f"},"vehicle_type_id":"4","last_reported":1767629785,"current_range_meters":8000,"station_id":"","pricing_plan_id":"cebpf4jnsgd1na2vs0mg"},{"bike_id":"139e13a1-e72b-4a5d-ab11-5f421c44da57","system_id":"levelo_inurba_marseille","lat":43.30384,"lon":5.42539,"is_reserved":false,"is_disabled":false,"rental_uris":{"android":"levelo://app?vid=139e13a1-e72b-4a5d-ab11-5f421c44da57","ios":"levelo://app?vid=139e13a1-e72b-4a5d-ab11-5f421c44da57"},"vehicle_type_id":"4","last_reported":1767629785,"current_range_meters":8000,"station_id":"","pricing_plan_id":"cebpf4jnsgd1na2vs0mg"},{"bike_id":"cfd96779-ac06-41e3-84f7-a5ca7fe9eaab","system_id":"levelo_inurba_marseille","lat":43.2848,"lon":5.4839,"is_reserved":false,"is_disabled":false,"rental_uris":{"android":"levelo://app?vid=cfd96779-ac06-41e3-84f7-a5ca7fe9eaab","ios":"levelo://app?vid=cfd96779-ac06-41e3-84f7-a5ca7fe9eaab"},"vehicle_type_id":"4","last_reported":1767629785,"current_range_meters":8000,"station_id":"","pricing_plan_id":"cebpf4jnsgd1na2vs0mg"},{"bike_id":"504c62db-8dc0-4d03-9c83-c1acce2e5fab","system_id":"levelo_inurba_marseille","lat":43.29147,"lon":5.37972,"is_reserved":false,"is_disabled":false,"rental_uris":{"android":"levelo://app?vid=504c62db-8dc0-4d03-9c83-c1acce2e5fab","ios":"levelo://app?vid=504c62db-8dc0-4d03-9c83-c1acce2e5fab"},"vehicle_type_id":"4","last_reported":1767629785,"current_range_meters":8000,"station_id":"","pricing_plan_id":"cebpf4jnsgd1na2vs0mg"},{"bike_id":"4bd23ea9-b05f-4fa4-b129-e810a0577ee2","system_id":"levelo_inurba_marseille","lat":43.29857,"lon":5.36237,"is_reserved":false,"is_disabled":false,"rental_uris":{"android":"levelo://app?vid=4bd23ea9-b05f-4fa4-b129-e810a0577ee2","ios":"levelo://app?vid=4bd23ea9-b05f-4fa4-b129-e810a0577ee2"},"vehicle_type_id":"4","last_reported":1767629785,"current_range_meters":8000,"station_id":"ce4bgpp2rcd13ifvqc3g","pricing_plan_id":"cebpf4jnsgd1na2vs0mg"},{"bike_id":"21144d34-a71e-4c20-a0db-c4151161d0d8","system_id":"levelo_inurba_marseille","lat":43.28715,"lon":5.37923,"is_reserved":false,"is_disabled":false,"rental_uris":{"android":"levelo://app?vid=21144d34-a71e-4c20-a0db-c4151161d0d8","ios":"levelo://app?vid=21144d34-a71e-4c20-a0db-c4151161d0d8"},"vehicle_type_id":"4","last_reported":1767629785,"current_range_meters":8000,"station_id":"ce4bh9p2rcd13ifvqec0","pricing_plan_id":"cebpf4jnsgd1na2vs0mg"},{"bike_id":"ac148974-ee63-4511-9513-af1eee66931e","system_id":"levelo_inurba_marseille","lat":43.30314,"lon":5.36898,"is_reserved":false,"is_disabled":false,"rental_uris":{"android":"levelo://app?vid=ac148974-ee63-4511-9513-af1eee66931e","ios":"levelo://app?vid=ac148974-ee63-4511-9513-af1eee66931e"},"vehicle_type_id":"4","last_reported":1767629785,"current_range_meters":8000,"station_id":"ce4bgqh2rcd13ifvqc5g","pricing_plan_id":"cebpf4jnsgd1na2vs0mg"},{"bike_id":"49a70347-36ae-4442-a0c3-32c4ed4b4ff4","system_id":"levelo_inurba_marseille","lat":43.28856,"lon":5.42524,"is_reserved":false,"is_disabled":false,"rental_uris":{"android":"levelo://app?vid=49a70347-36ae-4442-a0c3-32c4ed4b4ff4","ios":"levelo://app?vid=49a70347-36ae-4442-a0c3-32c4ed4b4ff4"},"vehicle_type_id":"4","last_reported":1767629785,"current_range_meters":8400,"station_id":"st_d3b462108ojc7389ooeg","pricing_plan_id":"cebpf4jnsgd1na2vs0mg"},{"bike_id":"dca9a712-a982-44b1-8cbd-17efb24372eb","system_id":"levelo_inurba_marseille","lat":43.30184,"lon":5.36623,"is_reserved":false,"is_disabled":false,"rental_uris":{"android":"levelo://app?vid=dca9a712-a982-44b1-8cbd-17efb24372eb","ios":"levelo://app?vid=dca9a712-a982-44b1-8cbd-17efb24372eb"},"vehicle_type_id":"4","last_reported":1767629785,"current_range_meters":8400,"station_id":"ce4bgrh2rcd13ifvqc8g","pricing_plan_id":"cebpf4jnsgd1na2vs0mg"},{"bike_id":"363d24ec-7f56-48ba-afb4-d6a61684329e","system_id":"levelo_inurba_marseille","lat":43.304887,"lon":5.41061,"is_reserved":false,"is_disabled":false,"rental_uris":{"android":"levelo://app?vid=363d24ec-7f56-48ba-afb4-d6a61684329e","ios":"levelo://app?vid=363d24ec-7f56-48ba-afb4-d6a61684329e"},"vehicle_type_id":"4","last_reported":1767629785,"current_range_meters":8400,"station_id":"","pricing_plan_id":"cebpf4jnsgd1na2vs0mg"},{"bike_id":"2ad11e8b-6525-4219-97fa-e942c570f9bd","system_id":"levelo_inurba_marseille","lat":43.27062,"lon":5.3828,"is_reserved":false,"is_disabled":false,"rental_uris":{"android":"levelo://app?vid=2ad11e8b-6525-4219-97fa-e942c570f9bd","ios":"levelo://app?vid=2ad11e8b-6525-4219-97fa-e942c570f9bd"},"vehicle_type_id":"4","last_reported":1767629785,"current_range_meters":8400,"station_id":"st_d3n2fo6cfp8s73cte1j0","pricing_plan_id":"cebpf4jnsgd1na2vs0mg"},{"bike_id":"0f7eefdf-8972-4dc8-89aa-952cc1944736","system_id":"levelo_inurba_marseille","lat":43.27812,"lon":5.40718,"is_reserved":false,"is_disabled":false,"rental_uris":{"android":"levelo://app?vid=0f7eefdf-8972-4dc8-89aa-952cc1944736","ios":"levelo://app?vid=0f7eefdf-8972-4dc8-89aa-952cc1944736"},"vehicle_type_id":"4","last_reported":1767629785,"current_range_meters":8400,"station_id":"ce4bhnh2rcd13ifvqgtg","pricing_plan_id":"cebpf4jnsgd1na2vs0mg"},{"bike_id":"246c6b83-d7eb-487f-b32f-aeb3bf09ab9b","system_id":"levelo_inurba_marseille","lat":43.274295,"lon":5.393975,"is_reserved":false,"is_disabled":false,"rental_uris":{"android":"levelo://app?vid=246c6b83-d7eb-487f-b32f-aeb3bf09ab9b","ios":"levelo://app?vid=246c6b83-d7eb-487f-b32f-aeb3bf09ab9b"},"vehicle_type_id":"4","last_reported":1767629785,"current_range_meters":8400,"station_id":"ce4bhdp2rcd13ifvqf20","pricing_plan_id":"cebpf4jnsgd1na2vs0mg"},{"bike_id":"fb8690e4-7bf8-40b2-86ae-cc6b72716ee9","system_id":"levelo_inurba_marseille","lat":43.29264,"lon":5.36855,"is_reserved":false,"is_disabled":false,"rental_uris":{"android":"levelo://app?vid=fb8690e4-7bf8-40b2-86ae-cc6b72716ee9","ios":"levelo://app?vid=fb8690e4-7bf8-40b2-86ae-cc6b72716ee9"},"vehicle_type_id":"4","last_reported":1767629785,"current_range_meters":8400,"station_id":"ce4bhbp2rcd13ifvqesg","pricing_plan_id":"cebpf4jnsgd1na2vs0mg"},{"bike_id":"fde24df3-addb-4a7b-b0e7-f2e289c22e5d","system_id":"levelo_inurba_marseille","lat":43.31028,"lon":5.39337,"is_reserved":false,"is_disabled":false,"rental_uris":{"android":"levelo://app?vid=fde24df3-addb-4a7b-b0e7-f2e289c22e5d","ios":"levelo://app?vid=fde24df3-addb-4a7b-b0e7-f2e289c22e5d"},"vehicle_type_id":"4","last_reported":1767629785,"current_range_meters":8400,"station_id":"","pricing_plan_id":"cebpf4jnsgd1na2vs0mg"},{"bike_id":"76bec599-971c-48cf-b2ac-2350af051e20","system_id":"levelo_inurba_marseille","lat":43.2791,"lon":5.39577,"is_reserved":false,"is_disabled":false,"rental_uris":{"android":"levelo://app?vid=76bec599-971c-48cf-b2ac-2350af051e20","ios":"levelo://app?vid=76bec599-971c-48cf-b2ac-2350af051e20"},"vehicle_type_id":"4","last_reported":1767629785,"current_range_meters":8400,"station_id":"ce4bhf92rcd13ifvqf40","pricing_plan_id":"cebpf4jnsgd1na2vs0mg"},{"bike_id":"7d36967b-8ce1-41f9-868f-3636826c49a4","system_id":"levelo_inurba_marseille","lat":43.33161,"lon":5.37699,"is_reserved":false,"is_disabled":false,"rental_uris":{"android":"levelo://app?vid=7d36967b-8ce1-41f9-868f-3636826c49a4","ios":"levelo://app?vid=7d36967b-8ce1-41f9-868f-3636826c49a4"},"vehicle_type_id":"4","last_reported":1767629785,"current_range_meters":8400,"station_id":"st_d46cu089ee8s73dldbu0","pricing_plan_id":"cebpf4jnsgd1na2vs0mg"},{"bike_id":"9a2d8ae7-2937-4020-926e-3f7c68bbe134","system_id":"levelo_inurba_marseille","lat":43.32058,"lon":5.41555,"is_reserved":false,"is_disabled":false,"rental_uris":{"android":"levelo://app?vid=9a2d8ae7-2937-4020-926e-3f7c68bbe134","ios":"levelo://app?vid=9a2d8ae7-2937-4020-926e-3f7c68bbe134"},"vehicle_type_id":"4","last_reported":1767629785,"current_range_meters":8400,"station_id":"ce4bhq92rcd13ifvqhkg","pricing_plan_id":"cebpf4jnsgd1na2vs0mg"},{"bike_id":"531ba190-2d4e-4722-99ab-7185252e6433","system_id":"levelo_inurba_marseille","lat":43.22563,"lon":5.41623,"is_reserved":false,"is_disabled":false,"rental_uris":{"android":"levelo://app?vid=531ba190-2d4e-4722-99ab-7185252e6433","ios":"levelo://app?vid=531ba190-2d4e-4722-99ab-7185252e6433"},"vehicle_type_id":"4","last_reported":1767629785,"current_range_meters":8400,"station_id":"st_d2o4gvlbi1j2169b742g","pricing_plan_id":"cebpf4jnsgd1na2vs0mg"},{"bike_id":"0e56497d-2fdb-4797-b5b0-2fbc698bc20a","system_id":"levelo_inurba_marseille","lat":43.29378,"lon":5.37848,"is_reserved":false,"is_disabled":false,"rental_uris":{"android":"levelo://app?vid=0e56497d-2fdb-4797-b5b0-2fbc698bc20a","ios":"levelo://app?vid=0e56497d-2fdb-4797-b5b0-2fbc698bc20a"},"vehicle_type_id":"4","last_reported":1767629785,"current_range_meters":8400,"station_id":"ce4bgjh2rcd13ifvqbf0","pricing_plan_id":"cebpf4jnsgd1na2vs0mg"},{"bike_id":"6978fec3-7553-4c88-b8a0-53d7a29ef142","system_id":"levelo_inurba_marseille","lat":43.26264,"lon":5.39781,"is_reserved":false,"is_disabled":false,"rental_uris":{"android":"levelo://app?vid=6978fec3-7553-4c88-b8a0-53d7a29ef142","ios":"levelo://app?vid=6978fec3-7553-4c88-b8a0-53d7a29ef142"},"vehicle_type_id":"4","last_reported":1767629785,"current_range_meters":8400,"station_id":"","pricing_plan_id":"cebpf4jnsgd1na2vs0mg"},{"bike_id":"8f968c9d-e057-45ea-898c-8595b6240a39","system_id":"levelo_inurba_marseille","lat":43.29743,"lon":5.37921,"is_reserved":false,"is_disabled":false,"rental_uris":{"android":"levelo://app?vid=8f968c9d-e057-45ea-898c-8595b6240a39","ios":"levelo://app?vid=8f968c9d-e057-45ea-898c-8595b6240a39"},"vehicle_type_id":"4","last_reported":1767629785,"current_range_meters":8800,"station_id":"","pricing_plan_id":"cebpf4jnsgd1na2vs0mg"},{"bike_id":"7fc5f048-8c81-4b1a-b920-9d81a71ba14a","system_id":"levelo_inurba_marseille","lat":43.29576,"lon":5.37511,"is_reserved":false,"is_disabled":false,"rental_uris":{"android":"levelo://app?vid=7fc5f048-8c81-4b1a-b920-9d81a71ba14a","ios":"levelo://app?vid=7fc5f048-8c81-4b1a-b920-9d81a71ba14a"},"vehicle_type_id":"4","last_reported":1767629785,"current_range_meters":8800,"station_id":"ce4bgh92rcd13ifvqb50","pricing_plan_id":"cebpf4jnsgd1na2vs0mg"},{"bike_id":"d82bb0e5-290e-412a-8a0d-b5c3858cfef1","system_id":"levelo_inurba_marseille","lat":43.255014,"lon":5.376497,"is_reserved":false,"is_disabled":false,"rental_uris":{"android":"levelo://app?vid=d82bb0e5-290e-412a-8a0d-b5c3858cfef1","ios":"levelo://app?vid=d82bb0e5-290e-412a-8a0d-b5c3858cfef1"},"vehicle_type_id":"4","last_reported":1767629785,"current_range_meters":8800,"station_id":"ce4bhh12rcd13ifvqff0","pricing_plan_id":"cebpf4jnsgd1na2vs0mg"},{"bike_id":"5dc99c44-926c-440f-9be2-f4a3e40634d8","system_id":"levelo_inurba_marseille","lat":43.31486,"lon":5.37305,"is_reserved":false,"is_disabled":false,"rental_uris":{"android":"levelo://app?vid=5dc99c44-926c-440f-9be2-f4a3e40634d8","ios":"levelo://app?vid=5dc99c44-926c-440f-9be2-f4a3e40634d8"},"vehicle_type_id":"4","last_reported":1767629785,"current_range_meters":8800,"station_id":"ce4bgt12rcd13ifvqcd0","pricing_plan_id":"cebpf4jnsgd1na2vs0mg"},{"bike_id":"b653fbd4-7886-4bb6-bacf-cc2077001c84","system_id":"levelo_inurba_marseille","lat":43.30537,"lon":5.3671,"is_reserved":false,"is_disabled":false,"rental_uris":{"android":"levelo://app?vid=b653fbd4-7886-4bb6-bacf-cc2077001c84","ios":"levelo://app?vid=b653fbd4-7886-4bb6-bacf-cc2077001c84"},"vehicle_type_id":"4","last_reported":1767629785,"current_range_meters":8800,"station_id":"ce4bgrp2rcd13ifvqc9g","pricing_plan_id":"cebpf4jnsgd1na2vs0mg"},{"bike_id":"1e8f5205-973a-43e9-90dc-afde1e68dc83","system_id":"levelo_inurba_marseille","lat":43.31057,"lon":5.40075,"is_reserved":false,"is_disabled":false,"rental_uris":{"android":"levelo://app?vid=1e8f5205-973a-43e9-90dc-afde1e68dc83","ios":"levelo://app?vid=1e8f5205-973a-43e9-90dc-afde1e68dc83"},"vehicle_type_id":"4","last_reported":1767629785,"current_range_meters":8800,"station_id":"","pricing_plan_id":"cebpf4jnsgd1na2vs0mg"},{"bike_id":"1ae92490-659a-4b31-9282-3be4a846553c","system_id":"levelo_inurba_marseille","lat":43.3169,"lon":5.39851,"is_reserved":false,"is_disabled":false,"rental_uris":{"android":"levelo://app?vid=1ae92490-659a-4b31-9282-3be4a846553c","ios":"levelo://app?vid=1ae92490-659a-4b31-9282-3be4a846553c"},"vehicle_type_id":"4","last_reported":1767629785,"current_range_meters":8800,"station_id":"","pricing_plan_id":"cebpf4jnsgd1na2vs0mg"},{"bike_id":"150aba92-ff82-4e7d-aa4f-4d9583997907","system_id":"levelo_inurba_marseille","lat":43.22919,"lon":5.35372,"is_reserved":false,"is_disabled":false,"rental_uris":{"android":"levelo://app?vid=150aba92-ff82-4e7d-aa4f-4d9583997907","ios":"levelo://app?vid=150aba92-ff82-4e7d-aa4f-4d9583997907"},"vehicle_type_id":"4","last_reported":1767629785,"current_range_meters":8800,"station_id":"cpo3532slgdg3j2ikp40","pricing_plan_id":"cebpf4jnsgd1na2vs0mg"},{"bike_id":"7fb60e4c-351d-4c82-b949-05a0c6795968","system_id":"levelo_inurba_marseille","lat":43.29981,"lon":5.3717,"is_reserved":false,"is_disabled":false,"rental_uris":{"android":"levelo://app?vid=7fb60e4c-351d-4c82-b949-05a0c6795968","ios":"levelo://app?vid=7fb60e4c-351d-4c82-b949-05a0c6795968"},"vehicle_type_id":"4","last_reported":1767629785,"current_range_meters":8800,"station_id":"ce4bgr92rcd13ifvqc7g","pricing_plan_id":"cebpf4jnsgd1na2vs0mg"},{"bike_id":"bd8a5144-b642-4427-a262-81697077b5a2","system_id":"levelo_inurba_marseille","lat":43.30798,"lon":5.3815,"is_reserved":false,"is_disabled":false,"rental_uris":{"android":"levelo://app?vid=bd8a5144-b642-4427-a262-81697077b5a2","ios":"levelo://app?vid=bd8a5144-b642-4427-a262-81697077b5a2"},"vehicle_type_id":"4","last_reported":1767629785,"current_range_meters":8800,"station_id":"ce4bgt12rcd13ifvqce0","pricing_plan_id":"cebpf4jnsgd1na2vs0mg"},{"bike_id":"7c66cd5b-1ea7-4bc0-8234-30b50d6f8f8b","system_id":"levelo_inurba_marseille","lat":43.33146,"lon":5.37696,"is_reserved":false,"is_disabled":false,"rental_uris":{"android":"levelo://app?vid=7c66cd5b-1ea7-4bc0-8234-30b50d6f8f8b","ios":"levelo://app?vid=7c66cd5b-1ea7-4bc0-8234-30b50d6f8f8b"},"vehicle_type_id":"4","last_reported":1767629785,"current_range_meters":8800,"station_id":"st_d46cu089ee8s73dldbu0","pricing_plan_id":"cebpf4jnsgd1na2vs0mg"},{"bike_id":"28abf1e2-a38c-4481-b948-880e95850eb2","system_id":"levelo_inurba_marseille","lat":43.30553,"lon":5.36683,"is_reserved":false,"is_disabled":false,"rental_uris":{"android":"levelo://app?vid=28abf1e2-a38c-4481-b948-880e95850eb2","ios":"levelo://app?vid=28abf1e2-a38c-4481-b948-880e95850eb2"},"vehicle_type_id":"4","last_reported":1767629785,"current_range_meters":8800,"station_id":"ce4bgrp2rcd13ifvqc9g","pricing_plan_id":"cebpf4jnsgd1na2vs0mg"},{"bike_id":"9645f65a-5cc6-494d-89f5-c60be2e5f5fe","system_id":"levelo_inurba_marseille","lat":43.313553,"lon":5.367027,"is_reserved":false,"is_disabled":false,"rental_uris":{"android":"levelo://app?vid=9645f65a-5cc6-494d-89f5-c60be2e5f5fe","ios":"levelo://app?vid=9645f65a-5cc6-494d-89f5-c60be2e5f5fe"},"vehicle_type_id":"4","last_reported":1767629785,"current_range_meters":8800,"station_id":"ce4bgr92rcd13ifvqc6g","pricing_plan_id":"cebpf4jnsgd1na2vs0mg"},{"bike_id":"6e958bc0-f8dc-4642-bbc9-2404989338c3","system_id":"levelo_inurba_marseille","lat":43.26362,"lon":5.41063,"is_reserved":false,"is_disabled":false,"rental_uris":{"android":"levelo://app?vid=6e958bc0-f8dc-4642-bbc9-2404989338c3","ios":"levelo://app?vid=6e958bc0-f8dc-4642-bbc9-2404989338c3"},"vehicle_type_id":"4","last_reported":1767629785,"current_range_meters":8800,"station_id":"st_d4e5ca6na9uc73bfl5fg","pricing_plan_id":"cebpf4jnsgd1na2vs0mg"},{"bike_id":"dca7f4fa-9374-49e3-b9a3-ba379be10847","system_id":"levelo_inurba_marseille","lat":43.2989,"lon":5.3891,"is_reserved":false,"is_disabled":false,"rental_uris":{"android":"levelo://app?vid=dca7f4fa-9374-49e3-b9a3-ba379be10847","ios":"levelo://app?vid=dca7f4fa-9374-49e3-b9a3-ba379be10847"},"vehicle_type_id":"4","last_reported":1767629785,"current_range_meters":8800,"station_id":"ce4bh392rcd13ifvqdl0","pricing_plan_id":"cebpf4jnsgd1na2vs0mg"},{"bike_id":"da033954-77a4-4a42-af93-ddd0b90806cb","system_id":"levelo_inurba_marseille","lat":43.31276,"lon":5.37368,"is_reserved":false,"is_disabled":false,"rental_uris":{"android":"levelo://app?vid=da033954-77a4-4a42-af93-ddd0b90806cb","ios":"levelo://app?vid=da033954-77a4-4a42-af93-ddd0b90806cb"},"vehicle_type_id":"4","last_reported":1767629785,"current_range_meters":9200,"station_id":"","pricing_plan_id":"cebpf4jnsgd1na2vs0mg"},{"bike_id":"ec8adf02-88a4-4e94-91e9-5a413ac8f5b2","system_id":"levelo_inurba_marseille","lat":43.30148,"lon":5.37431,"is_reserved":false,"is_disabled":false,"rental_uris":{"android":"levelo://app?vid=ec8adf02-88a4-4e94-91e9-5a413ac8f5b2","ios":"levelo://app?vid=ec8adf02-88a4-4e94-91e9-5a413ac8f5b2"},"vehicle_type_id":"4","last_reported":1767629785,"current_range_meters":9200,"station_id":"ce4bgs92rcd13ifvqcc0","pricing_plan_id":"cebpf4jnsgd1na2vs0mg"},{"bike_id":"b54e5aa3-f80c-415f-8398-f57ed95bfed2","system_id":"levelo_inurba_marseille","lat":43.22554,"lon":5.41633,"is_reserved":false,"is_disabled":false,"rental_uris":{"android":"levelo://app?vid=b54e5aa3-f80c-415f-8398-f57ed95bfed2","ios":"levelo://app?vid=b54e5aa3-f80c-415f-8398-f57ed95bfed2"},"vehicle_type_id":"4","last_reported":1767629785,"current_range_meters":9200,"station_id":"st_d2o4gvlbi1j2169b742g","pricing_plan_id":"cebpf4jnsgd1na2vs0mg"},{"bike_id":"355c1d25-ff0d-43f2-abc7-da11db998286","system_id":"levelo_inurba_marseille","lat":43.23191,"lon":5.35562,"is_reserved":false,"is_disabled":false,"rental_uris":{"android":"levelo://app?vid=355c1d25-ff0d-43f2-abc7-da11db998286","ios":"levelo://app?vid=355c1d25-ff0d-43f2-abc7-da11db998286"},"vehicle_type_id":"4","last_reported":1767629785,"current_range_meters":9200,"station_id":"ce4bhu92rcd13ifvqi70","pricing_plan_id":"cebpf4jnsgd1na2vs0mg"},{"bike_id":"6d144e18-c317-45d2-a70f-5ce6eec5adda","system_id":"levelo_inurba_marseille","lat":43.26719,"lon":5.40214,"is_reserved":false,"is_disabled":false,"rental_uris":{"android":"levelo://app?vid=6d144e18-c317-45d2-a70f-5ce6eec5adda","ios":"levelo://app?vid=6d144e18-c317-45d2-a70f-5ce6eec5adda"},"vehicle_type_id":"4","last_reported":1767629785,"current_range_meters":9200,"station_id":"","pricing_plan_id":"cebpf4jnsgd1na2vs0mg"},{"bike_id":"2375141c-46f9-4ef6-890b-4fbb983a553c","system_id":"levelo_inurba_marseille","lat":43.29295,"lon":5.37155,"is_reserved":false,"is_disabled":true,"rental_uris":{"android":"levelo://app?vid=2375141c-46f9-4ef6-890b-4fbb983a553c","ios":"levelo://app?vid=2375141c-46f9-4ef6-890b-4fbb983a553c"},"vehicle_type_id":"4","last_reported":1767629785,"current_range_meters":9200,"station_id":"ce4bgh92rcd13ifvqb40","pricing_plan_id":"cebpf4jnsgd1na2vs0mg"},{"bike_id":"7f0effc9-a455-4ad1-9f50-585d68dccc8b","system_id":"levelo_inurba_marseille","lat":43.288131,"lon":5.363781,"is_reserved":false,"is_disabled":false,"rental_uris":{"android":"levelo://app?vid=7f0effc9-a455-4ad1-9f50-585d68dccc8b","ios":"levelo://app?vid=7f0effc9-a455-4ad1-9f50-585d68dccc8b"},"vehicle_type_id":"4","last_reported":1767629785,"current_range_meters":9200,"station_id":"","pricing_plan_id":"cebpf4jnsgd1na2vs0mg"},{"bike_id":"3f40a5f2-fac1-4f8c-b601-5ab221d91cf7","system_id":"levelo_inurba_marseille","lat":43.27428,"lon":5.39418,"is_reserved":false,"is_disabled":false,"rental_uris":{"android":"levelo://app?vid=3f40a5f2-fac1-4f8c-b601-5ab221d91cf7","ios":"levelo://app?vid=3f40a5f2-fac1-4f8c-b601-5ab221d91cf7"},"vehicle_type_id":"4","last_reported":1767629785,"current_range_meters":9200,"station_id":"ce4bhdp2rcd13ifvqf20","pricing_plan_id":"cebpf4jnsgd1na2vs0mg"},{"bike_id":"39bf0acd-4f70-47d3-a144-ba9f5f687ddd","system_id":"levelo_inurba_marseille","lat":43.25526,"lon":5.37663,"is_reserved":false,"is_disabled":false,"rental_uris":{"android":"levelo://app?vid=39bf0acd-4f70-47d3-a144-ba9f5f687ddd","ios":"levelo://app?vid=39bf0acd-4f70-47d3-a144-ba9f5f687ddd"},"vehicle_type_id":"4","last_reported":1767629785,"current_range_meters":9200,"station_id":"ce4bhh12rcd13ifvqff0","pricing_plan_id":"cebpf4jnsgd1na2vs0mg"},{"bike_id":"3a8eae66-603b-4cc6-a47a-5e999d573fad","system_id":"levelo_inurba_marseille","lat":43.27013,"lon":5.3874,"is_reserved":false,"is_disabled":false,"rental_uris":{"android":"levelo://app?vid=3a8eae66-603b-4cc6-a47a-5e999d573fad","ios":"levelo://app?vid=3a8eae66-603b-4cc6-a47a-5e999d573fad"},"vehicle_type_id":"4","last_reported":1767629785,"current_range_meters":9200,"station_id":"","pricing_plan_id":"cebpf4jnsgd1na2vs0mg"},{"bike_id":"6f46e1b4-663e-4c43-9cc4-4c8a983f164f","system_id":"levelo_inurba_marseille","lat":43.23144,"lon":5.43722,"is_reserved":false,"is_disabled":false,"rental_uris":{"android":"levelo://app?vid=6f46e1b4-663e-4c43-9cc4-4c8a983f164f","ios":"levelo://app?vid=6f46e1b4-663e-4c43-9cc4-4c8a983f164f"},"vehicle_type_id":"4","last_reported":1767629785,"current_range_meters":9200,"station_id":"ce4bhmp2rcd13ifvqgog","pricing_plan_id":"cebpf4jnsgd1na2vs0mg"},{"bike_id":"23d1602c-a47e-48e7-813b-03d60c356b05","system_id":"levelo_inurba_marseille","lat":43.30078,"lon":5.37391,"is_reserved":false,"is_disabled":false,"rental_uris":{"android":"levelo://app?vid=23d1602c-a47e-48e7-813b-03d60c356b05","ios":"levelo://app?vid=23d1602c-a47e-48e7-813b-03d60c356b05"},"vehicle_type_id":"4","last_reported":1767629785,"current_range_meters":9200,"station_id":"","pricing_plan_id":"cebpf4jnsgd1na2vs0mg"},{"bike_id":"1a2813d5-d6c9-4ab7-995b-dd7864d7e0a5","system_id":"levelo_inurba_marseille","lat":43.28678,"lon":5.39969,"is_reserved":false,"is_disabled":false,"rental_uris":{"android":"levelo://app?vid=1a2813d5-d6c9-4ab7-995b-dd7864d7e0a5","ios":"levelo://app?vid=1a2813d5-d6c9-4ab7-995b-dd7864d7e0a5"},"vehicle_type_id":"4","last_reported":1767629785,"current_range_meters":9200,"station_id":"ce4bho92rcd13ifvqh3g","pricing_plan_id":"cebpf4jnsgd1na2vs0mg"},{"bike_id":"a7240e87-4038-4c94-bf0f-aa2d39501092","system_id":"levelo_inurba_marseille","lat":43.31714,"lon":5.37754,"is_reserved":false,"is_disabled":false,"rental_uris":{"android":"levelo://app?vid=a7240e87-4038-4c94-bf0f-aa2d39501092","ios":"levelo://app?vid=a7240e87-4038-4c94-bf0f-aa2d39501092"},"vehicle_type_id":"4","last_reported":1767629785,"current_range_meters":9200,"station_id":"ce4bgth2rcd13ifvqch0","pricing_plan_id":"cebpf4jnsgd1na2vs0mg"},{"bike_id":"5ea8c758-8d88-4a0d-8adf-3234df9934ae","system_id":"levelo_inurba_marseille","lat":43.29758,"lon":5.37769,"is_reserved":false,"is_disabled":false,"rental_uris":{"android":"levelo://app?vid=5ea8c758-8d88-4a0d-8adf-3234df9934ae","ios":"levelo://app?vid=5ea8c758-8d88-4a0d-8adf-3234df9934ae"},"vehicle_type_id":"4","last_reported":1767629785,"current_range_meters":9200,"station_id":"","pricing_plan_id":"cebpf4jnsgd1na2vs0mg"},{"bike_id":"ff938a04-c543-4b45-8b46-391abbbcd6ef","system_id":"levelo_inurba_marseille","lat":43.30549,"lon":5.36722,"is_reserved":false,"is_disabled":false,"rental_uris":{"android":"levelo://app?vid=ff938a04-c543-4b45-8b46-391abbbcd6ef","ios":"levelo://app?vid=ff938a04-c543-4b45-8b46-391abbbcd6ef"},"vehicle_type_id":"4","last_reported":1767629785,"current_range_meters":9200,"station_id":"ce4bgrp2rcd13ifvqc9g","pricing_plan_id":"cebpf4jnsgd1na2vs0mg"},{"bike_id":"e95ce2d0-07e6-408c-94e5-1989f12b6691","system_id":"levelo_inurba_marseille","lat":43.24394,"lon":5.37062,"is_reserved":false,"is_disabled":false,"rental_uris":{"android":"levelo://app?vid=e95ce2d0-07e6-408c-94e5-1989f12b6691","ios":"levelo://app?vid=e95ce2d0-07e6-408c-94e5-1989f12b6691"},"vehicle_type_id":"4","last_reported":1767629785,"current_range_meters":9200,"station_id":"ce4bhhh2rcd13ifvqfk0","pricing_plan_id":"cebpf4jnsgd1na2vs0mg"},{"bike_id":"08597d3b-78bf-4d1d-84e3-67cebc91408d","system_id":"levelo_inurba_marseille","lat":43.25586,"lon":5.38236,"is_reserved":false,"is_disabled":false,"rental_uris":{"android":"levelo://app?vid=08597d3b-78bf-4d1d-84e3-67cebc91408d","ios":"levelo://app?vid=08597d3b-78bf-4d1d-84e3-67cebc91408d"},"vehicle_type_id":"4","last_reported":1767629785,"current_range_meters":9200,"station_id":"ce4bhih2rcd13ifvqfs0","pricing_plan_id":"cebpf4jnsgd1na2vs0mg"},{"bike_id":"f96d9448-b77f-434b-8c61-0a6d4704e14f","system_id":"levelo_inurba_marseille","lat":43.25341,"lon":5.42169,"is_reserved":false,"is_disabled":false,"rental_uris":{"android":"levelo://app?vid=f96d9448-b77f-434b-8c61-0a6d4704e14f","ios":"levelo://app?vid=f96d9448-b77f-434b-8c61-0a6d4704e14f"},"vehicle_type_id":"4","last_reported":1767629785,"current_range_meters":9200,"station_id":"st_d2m65c5bi1j21697t3ng","pricing_plan_id":"cebpf4jnsgd1na2vs0mg"},{"bike_id":"d63adab8-fe33-47d0-bef7-72b9f680ef30","system_id":"levelo_inurba_marseille","lat":43.28861,"lon":5.42516,"is_reserved":false,"is_disabled":false,"rental_uris":{"android":"levelo://app?vid=d63adab8-fe33-47d0-bef7-72b9f680ef30","ios":"levelo://app?vid=d63adab8-fe33-47d0-bef7-72b9f680ef30"},"vehicle_type_id":"4","last_reported":1767629785,"current_range_meters":9200,"station_id":"st_d3b462108ojc7389ooeg","pricing_plan_id":"cebpf4jnsgd1na2vs0mg"},{"bike_id":"6a933c42-f7b0-48e3-893e-e65da0d359e9","system_id":"levelo_inurba_marseille","lat":43.26225,"lon":5.40451,"is_reserved":false,"is_disabled":false,"rental_uris":{"android":"levelo://app?vid=6a933c42-f7b0-48e3-893e-e65da0d359e9","ios":"levelo://app?vid=6a933c42-f7b0-48e3-893e-e65da0d359e9"},"vehicle_type_id":"4","last_reported":1767629785,"current_range_meters":9200,"station_id":"ce4bhmh2rcd13ifvqgmg","pricing_plan_id":"cebpf4jnsgd1na2vs0mg"},{"bike_id":"e618656f-64ca-482c-bbae-e8cfd46840de","system_id":"levelo_inurba_marseille","lat":43.278198,"lon":5.406917,"is_reserved":false,"is_disabled":false,"rental_uris":{"android":"levelo://app?vid=e618656f-64ca-482c-bbae-e8cfd46840de","ios":"levelo://app?vid=e618656f-64ca-482c-bbae-e8cfd46840de"},"vehicle_type_id":"4","last_reported":1767629785,"current_range_meters":9200,"station_id":"ce4bhnh2rcd13ifvqgtg","pricing_plan_id":"cebpf4jnsgd1na2vs0mg"},{"bike_id":"7691ecae-e3bc-4c1e-bb4e-7b24a1d8adc3","system_id":"levelo_inurba_marseille","lat":43.2397,"lon":5.36617,"is_reserved":false,"is_disabled":false,"rental_uris":{"android":"levelo://app?vid=7691ecae-e3bc-4c1e-bb4e-7b24a1d8adc3","ios":"levelo://app?vid=7691ecae-e3bc-4c1e-bb4e-7b24a1d8adc3"},"vehicle_type_id":"4","last_reported":1767629785,"current_range_meters":9200,"station_id":"ce4bhi12rcd13ifvqfp0","pricing_plan_id":"cebpf4jnsgd1na2vs0mg"},{"bike_id":"ece91064-8675-490a-b853-1cfa2d016560","system_id":"levelo_inurba_marseille","lat":43.23967,"lon":5.36624,"is_reserved":false,"is_disabled":false,"rental_uris":{"android":"levelo://app?vid=ece91064-8675-490a-b853-1cfa2d016560","ios":"levelo://app?vid=ece91064-8675-490a-b853-1cfa2d016560"},"vehicle_type_id":"4","last_reported":1767629785,"current_range_meters":9600,"station_id":"ce4bhi12rcd13ifvqfp0","pricing_plan_id":"cebpf4jnsgd1na2vs0mg"},{"bike_id":"f195a72e-e4f7-4129-808a-cab5b6257fad","system_id":"levelo_inurba_marseille","lat":43.21192,"lon":5.35075,"is_reserved":false,"is_disabled":false,"rental_uris":{"android":"levelo://app?vid=f195a72e-e4f7-4129-808a-cab5b6257fad","ios":"levelo://app?vid=f195a72e-e4f7-4129-808a-cab5b6257fad"},"vehicle_type_id":"4","last_reported":1767629785,"current_range_meters":9600,"station_id":"st_cvj6sg6p6f1abm77japg","pricing_plan_id":"cebpf4jnsgd1na2vs0mg"},{"bike_id":"1a6e1c7c-9ed2-4166-8162-ade6bcac84e8","system_id":"levelo_inurba_marseille","lat":43.23953,"lon":5.36646,"is_reserved":false,"is_disabled":false,"rental_uris":{"android":"levelo://app?vid=1a6e1c7c-9ed2-4166-8162-ade6bcac84e8","ios":"levelo://app?vid=1a6e1c7c-9ed2-4166-8162-ade6bcac84e8"},"vehicle_type_id":"4","last_reported":1767629785,"current_range_meters":9600,"station_id":"ce4bhi12rcd13ifvqfp0","pricing_plan_id":"cebpf4jnsgd1na2vs0mg"},{"bike_id":"5ed51bc0-851e-44e4-9f66-c5e3e5c8f26a","system_id":"levelo_inurba_marseille","lat":43.27208,"lon":5.39184,"is_reserved":false,"is_disabled":false,"rental_uris":{"android":"levelo://app?vid=5ed51bc0-851e-44e4-9f66-c5e3e5c8f26a","ios":"levelo://app?vid=5ed51bc0-851e-44e4-9f66-c5e3e5c8f26a"},"vehicle_type_id":"4","last_reported":1767629785,"current_range_meters":9600,"station_id":"ce4bhhp2rcd13ifvqfm0","pricing_plan_id":"cebpf4jnsgd1na2vs0mg"},{"bike_id":"69b54c5e-99fd-4b4a-a8fa-07e156c09108","system_id":"levelo_inurba_marseille","lat":43.27949,"lon":5.41055,"is_reserved":false,"is_disabled":false,"rental_uris":{"android":"levelo://app?vid=69b54c5e-99fd-4b4a-a8fa-07e156c09108","ios":"levelo://app?vid=69b54c5e-99fd-4b4a-a8fa-07e156c09108"},"vehicle_type_id":"4","last_reported":1767629785,"current_range_meters":9600,"station_id":"ce4bhnp2rcd13ifvqh0g","pricing_plan_id":"cebpf4jnsgd1na2vs0mg"},{"bike_id":"d479a5e7-3cbe-4ebf-a3e1-182f6667dcef","system_id":"levelo_inurba_marseille","lat":43.24376,"lon":5.37069,"is_reserved":false,"is_disabled":false,"rental_uris":{"android":"levelo://app?vid=d479a5e7-3cbe-4ebf-a3e1-182f6667dcef","ios":"levelo://app?vid=d479a5e7-3cbe-4ebf-a3e1-182f6667dcef"},"vehicle_type_id":"4","last_reported":1767629785,"current_range_meters":9600,"station_id":"ce4bhhh2rcd13ifvqfk0","pricing_plan_id":"cebpf4jnsgd1na2vs0mg"},{"bike_id":"1b152ae5-9ff7-4d57-b381-b6d23a851225","system_id":"levelo_inurba_marseille","lat":43.3353,"lon":5.37451,"is_reserved":false,"is_disabled":false,"rental_uris":{"android":"levelo://app?vid=1b152ae5-9ff7-4d57-b381-b6d23a851225","ios":"levelo://app?vid=1b152ae5-9ff7-4d57-b381-b6d23a851225"},"vehicle_type_id":"4","last_reported":1767629785,"current_range_meters":9600,"station_id":"st_d46tts09ee8s73dlu43g","pricing_plan_id":"cebpf4jnsgd1na2vs0mg"},{"bike_id":"40f2de2e-f0cb-4446-9f43-80012f17f8ce","system_id":"levelo_inurba_marseille","lat":43.32333,"lon":5.36742,"is_reserved":false,"is_disabled":false,"rental_uris":{"android":"levelo://app?vid=40f2de2e-f0cb-4446-9f43-80012f17f8ce","ios":"levelo://app?vid=40f2de2e-f0cb-4446-9f43-80012f17f8ce"},"vehicle_type_id":"4","last_reported":1767629785,"current_range_meters":9600,"station_id":"ce4bhsh2rcd13ifvqi2g","pricing_plan_id":"cebpf4jnsgd1na2vs0mg"},{"bike_id":"49c3db34-dd53-40d8-abc9-7c34b4ef923d","system_id":"levelo_inurba_marseille","lat":43.28412,"lon":5.374968,"is_reserved":false,"is_disabled":false,"rental_uris":{"android":"levelo://app?vid=49c3db34-dd53-40d8-abc9-7c34b4ef923d","ios":"levelo://app?vid=49c3db34-dd53-40d8-abc9-7c34b4ef923d"},"vehicle_type_id":"4","last_reported":1767629785,"current_range_meters":9600,"station_id":"ce4bh412rcd13ifvqds0","pricing_plan_id":"cebpf4jnsgd1na2vs0mg"},{"bike_id":"7213f801-8035-4d92-8a3f-13fbdf97c210","system_id":"levelo_inurba_marseille","lat":43.31357,"lon":5.36715,"is_reserved":false,"is_disabled":false,"rental_uris":{"android":"levelo://app?vid=7213f801-8035-4d92-8a3f-13fbdf97c210","ios":"levelo://app?vid=7213f801-8035-4d92-8a3f-13fbdf97c210"},"vehicle_type_id":"4","last_reported":1767629785,"current_range_meters":9600,"station_id":"ce4bgr92rcd13ifvqc6g","pricing_plan_id":"cebpf4jnsgd1na2vs0mg"},{"bike_id":"5eb9d049-497c-49ad-9dab-0cd5459065b5","system_id":"levelo_inurba_marseille","lat":43.28483,"lon":5.3839,"is_reserved":false,"is_disabled":false,"rental_uris":{"android":"levelo://app?vid=5eb9d049-497c-49ad-9dab-0cd5459065b5","ios":"levelo://app?vid=5eb9d049-497c-49ad-9dab-0cd5459065b5"},"vehicle_type_id":"4","last_reported":1767629785,"current_range_meters":9600,"station_id":"ce4bh512rcd13ifvqe3g","pricing_plan_id":"cebpf4jnsgd1na2vs0mg"},{"bike_id":"c1694b41-e18e-46a6-ad0f-1cad09925867","system_id":"levelo_inurba_marseille","lat":43.28867,"lon":5.42507,"is_reserved":false,"is_disabled":false,"rental_uris":{"android":"levelo://app?vid=c1694b41-e18e-46a6-ad0f-1cad09925867","ios":"levelo://app?vid=c1694b41-e18e-46a6-ad0f-1cad09925867"},"vehicle_type_id":"4","last_reported":1767629785,"current_range_meters":9600,"station_id":"st_d3b462108ojc7389ooeg","pricing_plan_id":"cebpf4jnsgd1na2vs0mg"},{"bike_id":"f3085532-c820-4ee5-8fb7-55e6df518667","system_id":"levelo_inurba_marseille","lat":43.25336,"lon":5.42171,"is_reserved":false,"is_disabled":false,"rental_uris":{"android":"levelo://app?vid=f3085532-c820-4ee5-8fb7-55e6df518667","ios":"levelo://app?vid=f3085532-c820-4ee5-8fb7-55e6df518667"},"vehicle_type_id":"4","last_reported":1767629785,"current_range_meters":9600,"station_id":"st_d2m65c5bi1j21697t3ng","pricing_plan_id":"cebpf4jnsgd1na2vs0mg"},{"bike_id":"e99dab34-17f6-423d-b33b-48ac939b33ed","system_id":"levelo_inurba_marseille","lat":43.24007,"lon":5.40713,"is_reserved":false,"is_disabled":false,"rental_uris":{"android":"levelo://app?vid=e99dab34-17f6-423d-b33b-48ac939b33ed","ios":"levelo://app?vid=e99dab34-17f6-423d-b33b-48ac939b33ed"},"vehicle_type_id":"4","last_reported":1767629785,"current_range_meters":9600,"station_id":"","pricing_plan_id":"cebpf4jnsgd1na2vs0mg"},{"bike_id":"61f49521-8b5c-4174-93f3-ac307392a905","system_id":"levelo_inurba_marseille","lat":43.31412,"lon":5.37119,"is_reserved":false,"is_disabled":false,"rental_uris":{"android":"levelo://app?vid=61f49521-8b5c-4174-93f3-ac307392a905","ios":"levelo://app?vid=61f49521-8b5c-4174-93f3-ac307392a905"},"vehicle_type_id":"4","last_reported":1767629785,"current_range_meters":9600,"station_id":"","pricing_plan_id":"cebpf4jnsgd1na2vs0mg"},{"bike_id":"2f5b2683-cc17-43cd-b347-62d474c3880f","system_id":"levelo_inurba_marseille","lat":43.29198,"lon":5.39319,"is_reserved":false,"is_disabled":false,"rental_uris":{"android":"levelo://app?vid=2f5b2683-cc17-43cd-b347-62d474c3880f","ios":"levelo://app?vid=2f5b2683-cc17-43cd-b347-62d474c3880f"},"vehicle_type_id":"4","last_reported":1767629785,"current_range_meters":9600,"station_id":"ce4bh192rcd13ifvqdd0","pricing_plan_id":"cebpf4jnsgd1na2vs0mg"},{"bike_id":"3d69e60f-ec1c-46ef-9ea5-494905e38e08","system_id":"levelo_inurba_marseille","lat":43.30161,"lon":5.36632,"is_reserved":false,"is_disabled":false,"rental_uris":{"android":"levelo://app?vid=3d69e60f-ec1c-46ef-9ea5-494905e38e08","ios":"levelo://app?vid=3d69e60f-ec1c-46ef-9ea5-494905e38e08"},"vehicle_type_id":"4","last_reported":1767629785,"current_range_meters":9600,"station_id":"ce4bgrh2rcd13ifvqc8g","pricing_plan_id":"cebpf4jnsgd1na2vs0mg"},{"bike_id":"48cb5e65-0874-43c1-81b7-43be0bcb9709","system_id":"levelo_inurba_marseille","lat":43.24847,"lon":5.37438,"is_reserved":false,"is_disabled":false,"rental_uris":{"android":"levelo://app?vid=48cb5e65-0874-43c1-81b7-43be0bcb9709","ios":"levelo://app?vid=48cb5e65-0874-43c1-81b7-43be0bcb9709"},"vehicle_type_id":"4","last_reported":1767629785,"current_range_meters":9600,"station_id":"","pricing_plan_id":"cebpf4jnsgd1na2vs0mg"},{"bike_id":"0e1237f5-c526-48aa-8d6e-d4762d4905eb","system_id":"levelo_inurba_marseille","lat":43.28856,"lon":5.4251,"is_reserved":false,"is_disabled":false,"rental_uris":{"android":"levelo://app?vid=0e1237f5-c526-48aa-8d6e-d4762d4905eb","ios":"levelo://app?vid=0e1237f5-c526-48aa-8d6e-d4762d4905eb"},"vehicle_type_id":"4","last_reported":1767629785,"current_range_meters":10000,"station_id":"st_d3b462108ojc7389ooeg","pricing_plan_id":"cebpf4jnsgd1na2vs0mg"},{"bike_id":"9c1f964b-63f3-482b-b8aa-946aa8840ac2","system_id":"levelo_inurba_marseille","lat":43.246343,"lon":5.431363,"is_reserved":false,"is_disabled":false,"rental_uris":{"android":"levelo://app?vid=9c1f964b-63f3-482b-b8aa-946aa8840ac2","ios":"levelo://app?vid=9c1f964b-63f3-482b-b8aa-946aa8840ac2"},"vehicle_type_id":"4","last_reported":1767629785,"current_range_meters":10000,"station_id":"st_d2m6c4gdas8pm72e190g","pricing_plan_id":"cebpf4jnsgd1na2vs0mg"},