{"last_updated":1716116784,"ttl":30,"version":"2.2","data":{"bikes":[{"bike_id":"1f4698c9-642f-4725-bc2a-bf02000088a4","system_id":"levelo_inurba_marseille","lat":43.31341,"lon":5.367098,"is_reserved":false,"is_disabled":false,"rental_uris":{"android":"levelo://app?vid=1f4698c9-642f-4725-bc2a-bf02000088a4","ios":"levelo://app?vid=1f4698c9-642f-4725-bc2a-bf02000088a4"},"vehicle_type_id":"4","last_reported":1716116784,"current_range_meters":22000,"station_id":"ce4bgr92rcd13ifvqc6g","pricing_plan_id":"cebpf4jnsgd1na2vs0mg"},{"bike_id":"56879e0a-357a-4ca8-b1b5-64b6c06b001d","system_id":"levelo_inurba_marseille","lat":43.312239,"lon":5.368562,"is_reserved":false,"is_disabled":false,"rental_uris":{"android":"levelo://app?vid=56879e0a-357a-4ca8-b1b5-64b6c06b001d","ios":"levelo://app?vid=56879e0a-357a-4ca8-b1b5-64b6c06b001d"},"vehicle_type_id":"4","last_reported":1716116784,"current_range_meters":25600,"station_id":"ce4bgl92rcd13ifvqbq0","pricing_plan_id":"cebpf4jnsgd1na2vs0mg"},{"bike_id":"b72c9cf2-b316-40b2-8250-df590f6b1c6d","system_id":"levelo_inurba_marseille","lat":43.312239,"lon":5.368562,"is_reserved":false,"is_disabled":false,"rental_uris":{"android":"levelo://app?vid=b72c9cf2-b316-40b2-8250-df590f6b1c6d","ios":"levelo://app?vid=b72c9cf2-b316-40b2-8250-df590f6b1c6d"},"vehicle_type_id":"4","last_reported":1716116784,"current_range_meters":24000,"station_id":"ce4bgl92rcd13ifvqbq0","pricing_plan_id":"cebpf4jnsgd1na2vs0mg"},{"bike_id":"a4951b9d-1d73-4cd0-8f35-8f2f51c9496d","system_id":"levelo_inurba_marseille","lat":43.30906,"lon":5.36853,"is_reserved":false,"is_disabled":false,"rental_uris":{"android":"levelo://app?vid=a4951b9d-1d73-4cd0-8f35-8f2f51c9496d","ios":"levelo://app?vid=a4951b9d-1d73-4cd0-8f35-8f2f51c9496d"},"vehicle_type_id":"4","last_reported":1716116784,"current_range_meters":31200,"station_id":"ce4bgn92rcd13ifvqbvg","pricing_plan_id":"cebpf4jnsgd1na2vs0mg"},{"bike_id":"004c27cb-ab9f-4deb-a0fb-c2eb0481b0c4","system_id":"levelo_inurba_marseille","lat":43.309055,"lon":5.368538,"is_reserved":false,"is_disabled":false,"rental_uris":{"android":"levelo://app?vid=004c27cb-ab9f-4deb-a0fb-c2eb0481b0c4","ios":"levelo://app?vid=004c27cb-ab9f-4deb-a0fb-c2eb0481b0c4"},"vehicle_type_id":"4","last_reported":1716116784,"current_range_meters":31200,"station_id":"ce4bgn92rcd13ifvqbvg","pricing_plan_id":"cebpf4jnsgd1na2vs0mg"},{"bike_id":"114a8e1f-267f-4124-9f3b-bd605eee1e75","system_id":"levelo_inurba_marseille","lat":43.314811,"lon":5.373104,"is_reserved":false,"is_disabled":false,"rental_uris":{"android":"levelo://app?vid=114a8e1f-267f-4124-9f3b-bd605eee1e75","ios":"levelo://app?vid=114a8e1f-267f-4124-9f3b-bd605eee1e75"},"vehicle_type_id":"4","last_reported":1716116784,"current_range_meters":29600,"station_id":"ce4bgt12rcd13ifvqcd0","pricing_plan_id":"cebpf4jnsgd1na2vs0mg"},{"bike_id":"83c688ac-8adf-4919-8a8f-04775d1d4966","system_id":"levelo_inurba_marseille","lat":43.309034,"lon":5.371783,"is_reserved":false,"is_disabled":false,"rental_uris":{"android":"levelo://app?vid=83c688ac-8adf-4919-8a8f-04775d1d4966","ios":"levelo://app?vid=83c688ac-8adf-4919-8a8f-04775d1d4966"},"vehicle_type_id":"4","last_reported":1716116784,"current_range_meters":25200,"station_id":"ce4bguh2rcd13ifvqckg","pricing_plan_id":"cebpf4jnsgd1na2vs0mg"},{"bike_id":"b912d7c4-6654-4319-998d-7440717e845f","system_id":"levelo_inurba_marseille","lat":43.309039,"lon":5.371797,"is_reserved":false,"is_disabled":false,"rental_uris":{"android":"levelo://app?vid=b912d7c4-6654-4319-998d-7440717e845f","ios":"levelo://app?vid=b912d7c4-6654-4319-998d-7440717e845f"},"vehicle_type_id":"4","last_reported":1716116784,"current_range_meters":4800,"station_id":"ce4bguh2rcd13ifvqckg","pricing_plan_id":"cebpf4jnsgd1na2vs0mg"},{"bike_id":"afab2cc5-130e-4bbc-976b-ed8f91749591","system_id":"levelo_inurba_marseille","lat":43.306,"lon":5.36539,"is_reserved":false,"is_disabled":false,"rental_uris":{"android":"levelo://app?vid=afab2cc5-130e-4bbc-976b-ed8f91749591","ios":"levelo://app?vid=afab2cc5-130e-4bbc-976b-ed8f91749591"},"vehicle_type_id":"4","last_reported":1716116784,"current_range_meters":16400,"station_id":"ce4bgs12rcd13ifvqcag","pricing_plan_id":"cebpf4jnsgd1na2vs0mg"},{"bike_id":"81e1aaed-7822-4b9f-be6f-d6baf62cfe30","system_id":"levelo_inurba_marseille","lat":43.305435,"lon":5.365422,"is_reserved":false,"is_disabled":false,"rental_uris":{"android":"levelo://app?vid=81e1aaed-7822-4b9f-be6f-d6baf62cfe30","ios":"levelo://app?vid=81e1aaed-7822-4b9f-be6f-d6baf62cfe30"},"vehicle_type_id":"4","last_reported":1716116784,"current_range_meters":28000,"station_id":"ce4bgs12rcd13ifvqcag","pricing_plan_id":"cebpf4jnsgd1na2vs0mg"},{"bike_id":"50e3cb15-bb50-42f7-b039-0ba2dfe3af2a","system_id":"levelo_inurba_marseille","lat":43.305436,"lon":5.365366,"is_reserved":false,"is_disabled":false,"rental_uris":{"android":"levelo://app?vid=50e3cb15-bb50-42f7-b039-0ba2dfe3af2a","ios":"levelo://app?vid=50e3cb15-bb50-42f7-b039-0ba2dfe3af2a"},"vehicle_type_id":"4","last_reported":1716116784,"current_range_meters":20400,"station_id":"ce4bgs12rcd13ifvqcag","pricing_plan_id":"cebpf4jnsgd1na2vs0mg"},{"bike_id":"2e341882-000e-496c-9ca6-1a7253b3c2b4","system_id":"levelo_inurba_marseille","lat":43.305368,"lon":5.367343,"is_reserved":false,"is_disabled":false,"rental_uris":{"android":"levelo://app?vid=2e341882-000e-496c-9ca6-1a7253b3c2b4","ios":"levelo://app?vid=2e341882-000e-496c-9ca6-1a7253b3c2b4"},"vehicle_type_id":"4","last_reported":1716116784,"current_range_meters":27600,"station_id":"ce4bgrp2rcd13ifvqc9g","pricing_plan_id":"cebpf4jnsgd1na2vs0mg"},{"bike_id":"62d0337d-11d2-4ed4-864b-422f13973c2f","system_id":"levelo_inurba_marseille","lat":43.305706,"lon":5.365654,"is_reserved":false,"is_disabled":false,"rental_uris":{"android":"levelo://app?vid=62d0337d-11d2-4ed4-864b-422f13973c2f","ios":"levelo://app?vid=62d0337d-11d2-4ed4-864b-422f13973c2f"},"vehicle_type_id":"4","last_reported":1716116784,"current_range_meters":12400,"station_id":"ce4bgs12rcd13ifvqcag","pricing_plan_id":"cebpf4jnsgd1na2vs0mg"},{"bike_id":"377c2e78-5de1-4050-8601-a56ab3e59be6","system_id":"levelo_inurba_marseille","lat":43.305706,"lon":5.365654,"is_reserved":false,"is_disabled":false,"rental_uris":{"android":"levelo://app?vid=377c2e78-5de1-4050-8601-a56ab3e59be6","ios":"levelo://app?vid=377c2e78-5de1-4050-8601-a56ab3e59be6"},"vehicle_type_id":"4","last_reported":1716116784,"current_range_meters":8400,"station_id":"ce4bgs12rcd13ifvqcag","pricing_plan_id":"cebpf4jnsgd1na2vs0mg"},{"bike_id":"7f971d23-2f4b-417f-83b6-6bc1c0061b2f","system_id":"levelo_inurba_marseille","lat":43.305706,"lon":5.365654,"is_reserved":false,"is_disabled":false,"rental_uris":{"android":"levelo://app?vid=7f971d23-2f4b-417f-83b6-6bc1c0061b2f","ios":"levelo://app?vid=7f971d23-2f4b-417f-83b6-6bc1c0061b2f"},"vehicle_type_id":"4","last_reported":1716116784,"current_range_meters":1200,"station_id":"ce4bgs12rcd13ifvqcag","pricing_plan_id":"cebpf4jnsgd1na2vs0mg"},{"bike_id":"d022b751-3330-479c-a447-b8d476deff3b","system_id":"levelo_inurba_marseille","lat":43.305706,"lon":5.365654,"is_reserved":false,"is_disabled":false,"rental_uris":{"android":"levelo://app?vid=d022b751-3330-479c-a447-b8d476deff3b","ios":"levelo://app?vid=d022b751-3330-479c-a447-b8d476deff3b"},"vehicle_type_id":"4","last_reported":1716116784,"current_range_meters":10800,"station_id":"ce4bgs12rcd13ifvqcag","pricing_plan_id":"cebpf4jnsgd1na2vs0mg"},{"bike_id":"0ffa9566-49e2-4703-9268-b68e5943c6f9","system_id":"levelo_inurba_marseille","lat":43.305706,"lon":5.365654,"is_reserved":false,"is_disabled":false,"rental_uris":{"android":"levelo://app?vid=0ffa9566-49e2-4703-9268-b68e5943c6f9","ios":"levelo://app?vid=0ffa9566-49e2-4703-9268-b68e5943c6f9"},"vehicle_type_id":"4","last_reported":1716116784,"current_range_meters":22400,"station_id":"ce4bgs12rcd13ifvqcag","pricing_plan_id":"cebpf4jnsgd1na2vs0mg"},{"bike_id":"80a7e5eb-b5b8-4826-ab5e-67597f8ca4f2","system_id":"levelo_inurba_marseille","lat":43.305989,"lon":5.37225,"is_reserved":false,"is_disabled":false,"rental_uris":{"android":"levelo://app?vid=80a7e5eb-b5b8-4826-ab5e-67597f8ca4f2","ios":"levelo://app?vid=80a7e5eb-b5b8-4826-ab5e-67597f8ca4f2"},"vehicle_type_id":"4","last_reported":1716116784,"current_range_meters":30000,"station_id":"ce4bgqh2rcd13ifvqc4g","pricing_plan_id":"cebpf4jnsgd1na2vs0mg"},{"bike_id":"6132ddfe-779b-44fb-abd4-534e3141dd66","system_id":"levelo_inurba_marseille","lat":43.30605,"lon":5.37238,"is_reserved":false,"is_disabled":false,"rental_uris":{"android":"levelo://app?vid=6132ddfe-779b-44fb-abd4-534e3141dd66","ios":"levelo://app?vid=6132ddfe-779b-44fb-abd4-534e3141dd66"},"vehicle_type_id":"4","last_reported":1716116784,"current_range_meters":24000,"station_id":"ce4bgqh2rcd13ifvqc4g","pricing_plan_id":"cebpf4jnsgd1na2vs0mg"},{"bike_id":"8a53070c-4c7b-4558-90ab-f183039ca01f","system_id":"levelo_inurba_marseille","lat":43.305368,"lon":5.367343,"is_reserved":false,"is_disabled":false,"rental_uris":{"android":"levelo://app?vid=8a53070c-4c7b-4558-90ab-f183039ca01f","ios":"levelo://app?vid=8a53070c-4c7b-4558-90ab-f183039ca01f"},"vehicle_type_id":"4","last_reported":1716116784,"current_range_meters":6800,"station_id":"ce4bgrp2rcd13ifvqc9g","pricing_plan_id":"cebpf4jnsgd1na2vs0mg"},{"bike_id":"67c2641b-2f07-4c51-a70c-09cb16fbdb36","system_id":"levelo_inurba_marseille","lat":43.306007,"lon":5.372393,"is_reserved":false,"is_disabled":false,"rental_uris":{"android":"levelo://app?vid=67c2641b-2f07-4c51-a70c-09cb16fbdb36","ios":"levelo://app?vid=67c2641b-2f07-4c51-a70c-09cb16fbdb36"},"vehicle_type_id":"4","last_reported":1716116784,"current_range_meters":29200,"station_id":"ce4bgqh2rcd13ifvqc4g","pricing_plan_id":"cebpf4jnsgd1na2vs0mg"},{"bike_id":"40da81d8-3057-456d-8044-cc7042afc8ac","system_id":"levelo_inurba_marseille","lat":43.311144,"lon":5.377726,"is_reserved":false,"is_disabled":false,"rental_uris":{"android":"levelo://app?vid=40da81d8-3057-456d-8044-cc7042afc8ac","ios":"levelo://app?vid=40da81d8-3057-456d-8044-cc7042afc8ac"},"vehicle_type_id":"4","last_reported":1716116784,"current_range_meters":7200,"station_id":"ce4bgt92rcd13ifvqcg0","pricing_plan_id":"cebpf4jnsgd1na2vs0mg"},{"bike_id":"52547dc4-f235-4b7d-9833-41bc26d7629f","system_id":"levelo_inurba_marseille","lat":43.311125,"lon":5.377624,"is_reserved":false,"is_disabled":false,"rental_uris":{"android":"levelo://app?vid=52547dc4-f235-4b7d-9833-41bc26d7629f","ios":"levelo://app?vid=52547dc4-f235-4b7d-9833-41bc26d7629f"},"vehicle_type_id":"4","last_reported":1716116784,"current_range_meters":19200,"station_id":"ce4bgt92rcd13ifvqcg0","pricing_plan_id":"cebpf4jnsgd1na2vs0mg"},{"bike_id":"6ac66701-2c46-49db-814e-7357853f6ec2","system_id":"levelo_inurba_marseille","lat":43.30784,"lon":5.37644,"is_reserved":false,"is_disabled":false,"rental_uris":{"android":"levelo://app?vid=6ac66701-2c46-49db-814e-7357853f6ec2","ios":"levelo://app?vid=6ac66701-2c46-49db-814e-7357853f6ec2"},"vehicle_type_id":"4","last_reported":1716116784,"current_range_meters":2000,"station_id":"ce4bgv92rcd13ifvqcq0","pricing_plan_id":"cebpf4jnsgd1na2vs0mg"},{"bike_id":"fb7f544b-41fd-4ac5-8a41-2e59aff56017","system_id":"levelo_inurba_marseille","lat":43.317075,"lon":5.377367,"is_reserved":false,"is_disabled":false,"rental_uris":{"android":"levelo://app?vid=fb7f544b-41fd-4ac5-8a41-2e59aff56017","ios":"levelo://app?vid=fb7f544b-41fd-4ac5-8a41-2e59aff56017"},"vehicle_type_id":"4","last_reported":1716116784,"current_range_meters":20800,"station_id":"ce4bgth2rcd13ifvqch0","pricing_plan_id":"cebpf4jnsgd1na2vs0mg"},{"bike_id":"8ca9f66e-2ed9-4138-b6e8-a60ea1567813","system_id":"levelo_inurba_marseille","lat":43.30304,"lon":5.368987,"is_reserved":false,"is_disabled":false,"rental_uris":{"android":"levelo://app?vid=8ca9f66e-2ed9-4138-b6e8-a60ea1567813","ios":"levelo://app?vid=8ca9f66e-2ed9-4138-b6e8-a60ea1567813"},"vehicle_type_id":"4","last_reported":1716116784,"current_range_meters":15600,"station_id":"ce4bgqh2rcd13ifvqc5g","pricing_plan_id":"cebpf4jnsgd1na2vs0mg"},{"bike_id":"1815ea9f-1905-4086-a657-d1eae465036c","system_id":"levelo_inurba_marseille","lat":43.30304,"lon":5.368987,"is_reserved":false,"is_disabled":false,"rental_uris":{"android":"levelo://app?vid=1815ea9f-1905-4086-a657-d1eae465036c","ios":"levelo://app?vid=1815ea9f-1905-4086-a657-d1eae465036c"},"vehicle_type_id":"4","last_reported":1716116784,"current_range_meters":14800,"station_id":"ce4bgqh2rcd13ifvqc5g","pricing_plan_id":"cebpf4jnsgd1na2vs0mg"},{"bike_id":"08dbd023-8f33-43cd-8ecc-d2175532858b","system_id":"levelo_inurba_marseille","lat":43.301939,"lon":5.366286,"is_reserved":false,"is_disabled":false,"rental_uris":{"android":"levelo://app?vid=08dbd023-8f33-43cd-8ecc-d2175532858b","ios":"levelo://app?vid=08dbd023-8f33-43cd-8ecc-d2175532858b"},"vehicle_type_id":"4","last_reported":1716116784,"current_range_meters":400,"station_id":"ce4bgrh2rcd13ifvqc8g","pricing_plan_id":"cebpf4jnsgd1na2vs0mg"},{"bike_id":"65e9b930-bfcd-4d8b-b077-78e0d1a99f20","system_id":"levelo_inurba_marseille","lat":43.301939,"lon":5.366286,"is_reserved":false,"is_disabled":false,"rental_uris":{"android":"levelo://app?vid=65e9b930-bfcd-4d8b-b077-78e0d1a99f20","ios":"levelo://app?vid=65e9b930-bfcd-4d8b-b077-78e0d1a99f20"},"vehicle_type_id":"4","last_reported":1716116784,"current_range_meters":5200,"station_id":"ce4bgrh2rcd13ifvqc8g","pricing_plan_id":"cebpf4jnsgd1na2vs0mg"},{"bike_id":"59c8b377-f224-4771-a4f8-2173efd2aa0b","system_id":"levelo_inurba_marseille","lat":43.291994,"lon":5.357886,"is_reserved":false,"is_disabled":false,"rental_uris":{"android":"levelo://app?vid=59c8b377-f224-4771-a4f8-2173efd2aa0b","ios":"levelo://app?vid=59c8b377-f224-4771-a4f8-2173efd2aa0b"},"vehicle_type_id":"4","last_reported":1716116784,"current_range_meters":19200,"station_id":"ce4bhb12rcd13ifvqel0","pricing_plan_id":"cebpf4jnsgd1na2vs0mg"},{"bike_id":"04deba30-105f-4c22-84b0-b580a65b8192","system_id":"levelo_inurba_marseille","lat":43.304606,"lon":5.379026,"is_reserved":false,"is_disabled":false,"rental_uris":{"android":"levelo://app?vid=04deba30-105f-4c22-84b0-b580a65b8192","ios":"levelo://app?vid=04deba30-105f-4c22-84b0-b580a65b8192"},"vehicle_type_id":"4","last_reported":1716116784,"current_range_meters":18400,"station_id":"ce4bgup2rcd13ifvqcn0","pricing_plan_id":"cebpf4jnsgd1na2vs0mg"},{"bike_id":"97250c96-623f-46ca-95d9-b57def78d271","system_id":"levelo_inurba_marseille","lat":43.304606,"lon":5.379026,"is_reserved":false,"is_disabled":false,"rental_uris":{"android":"levelo://app?vid=97250c96-623f-46ca-95d9-b57def78d271","ios":"levelo://app?vid=97250c96-623f-46ca-95d9-b57def78d271"},"vehicle_type_id":"4","last_reported":1716116784,"current_range_meters":23200,"station_id":"ce4bgup2rcd13ifvqcn0","pricing_plan_id":"cebpf4jnsgd1na2vs0mg"},{"bike_id":"5828ca0c-6300-4942-9b3e-2bc20bee1561","system_id":"levelo_inurba_marseille","lat":43.304606,"lon":5.379026,"is_reserved":false,"is_disabled":false,"rental_uris":{"android":"levelo://app?vid=5828ca0c-6300-4942-9b3e-2bc20bee1561","ios":"levelo://app?vid=5828ca0c-6300-4942-9b3e-2bc20bee1561"},"vehicle_type_id":"4","last_reported":1716116784,"current_range_meters":23600,"station_id":"ce4bgup2rcd13ifvqcn0","pricing_plan_id":"cebpf4jnsgd1na2vs0mg"},{"bike_id":"b750a889-6c41-40c9-aef1-278615a45998","system_id":"levelo_inurba_marseille","lat":43.304606,"lon":5.379026,"is_reserved":false,"is_disabled":false,"rental_uris":{"android":"levelo://app?vid=b750a889-6c41-40c9-aef1-278615a45998","ios":"levelo://app?vid=b750a889-6c41-40c9-aef1-278615a45998"},"vehicle_type_id":"4","last_reported":1716116784,"current_range_meters":10400,"station_id":"ce4bgup2rcd13ifvqcn0","pricing_plan_id":"cebpf4jnsgd1na2vs0mg"},{"bike_id":"7d7473a1-4448-4006-9dc3-7760e51a5ecc","system_id":"levelo_inurba_marseille","lat":43.304606,"lon":5.379026,"is_reserved":false,"is_disabled":false,"rental_uris":{"android":"levelo://app?vid=7d7473a1-4448-4006-9dc3-7760e51a5ecc","ios":"levelo://app?vid=7d7473a1-4448-4006-9dc3-7760e51a5ecc"},"vehicle_type_id":"4","last_reported":1716116784,"current_range_meters":29600,"station_id":"ce4bgup2rcd13ifvqcn0","pricing_plan_id":"cebpf4jnsgd1na2vs0mg"},{"bike_id":"9cb91192-e079-4efb-a686-dea1ca18fbf7","system_id":"levelo_inurba_marseille","lat":43.304606,"lon":5.379026,"is_reserved":false,"is_disabled":false,"rental_uris":{"android":"levelo://app?vid=9cb91192-e079-4efb-a686-dea1ca18fbf7","ios":"levelo://app?vid=9cb91192-e079-4efb-a686-dea1ca18fbf7"},"vehicle_type_id":"4","last_reported":1716116784,"current_range_meters":16400,"station_id":"ce4bgup2rcd13ifvqcn0","pricing_plan_id":"cebpf4jnsgd1na2vs0mg"},{"bike_id":"ee83915c-69a8-43d3-977f-9a3d124a57a0","system_id":"levelo_inurba_marseille","lat":43.304606,"lon":5.379026,"is_reserved":false,"is_disabled":false,"rental_uris":{"android":"levelo://app?vid=ee83915c-69a8-43d3-977f-9a3d124a57a0","ios":"levelo://app?vid=ee83915c-69a8-43d3-977f-9a3d124a57a0"},"vehicle_type_id":"4","last_reported":1716116784,"current_range_meters":29200,"station_id":"ce4bgup2rcd13ifvqcn0","pricing_plan_id":"cebpf4jnsgd1na2vs0mg"},{"bike_id":"3baa3550-6035-4597-bfc5-f9308f1addca","system_id":"levelo_inurba_marseille","lat":43.304606,"lon":5.379026,"is_reserved":false,"is_disabled":false,"rental_uris":{"android":"levelo://app?vid=3baa3550-6035-4597-bfc5-f9308f1addca","ios":"levelo://app?vid=3baa3550-6035-4597-bfc5-f9308f1addca"},"vehicle_type_id":"4","last_reported":1716116784,"current_range_meters":27600,"station_id":"ce4bgup2rcd13ifvqcn0","pricing_plan_id":"cebpf4jnsgd1na2vs0mg"},{"bike_id":"6641bde5-9324-49e7-bda8-ef4a4be5dfd2","system_id":"levelo_inurba_marseille","lat":43.304606,"lon":5.379026,"is_reserved":false,"is_disabled":false,"rental_uris":{"android":"levelo://app?vid=6641bde5-9324-49e7-bda8-ef4a4be5dfd2","ios":"levelo://app?vid=6641bde5-9324-49e7-bda8-ef4a4be5dfd2"},"vehicle_type_id":"4","last_reported":1716116784,"current_range_meters":5200,"station_id":"ce4bgup2rcd13ifvqcn0","pricing_plan_id":"cebpf4jnsgd1na2vs0mg"},{"bike_id":"00d698e7-ecfb-4c87-be33-308fed4d86e2","system_id":"levelo_inurba_marseille","lat":43.324771,"lon":5.36557,"is_reserved":false,"is_disabled":false,"rental_uris":{"android":"levelo://app?vid=00d698e7-ecfb-4c87-be33-308fed4d86e2","ios":"levelo://app?vid=00d698e7-ecfb-4c87-be33-308fed4d86e2"},"vehicle_type_id":"4","last_reported":1716116784,"current_range_meters":31200,"station_id":"ce4bhs12rcd13ifvqhvg","pricing_plan_id":"cebpf4jnsgd1na2vs0mg"},{"bike_id":"0130a61e-5214-4352-8551-08f3b9c737d9","system_id":"levelo_inurba_marseille","lat":43.324771,"lon":5.36557,"is_reserved":false,"is_disabled":false,"rental_uris":{"android":"levelo://app?vid=0130a61e-5214-4352-8551-08f3b9c737d9","ios":"levelo://app?vid=0130a61e-5214-4352-8551-08f3b9c737d9"},"vehicle_type_id":"4","last_reported":1716116784,"current_range_meters":27600,"station_id":"ce4bhs12rcd13ifvqhvg","pricing_plan_id":"cebpf4jnsgd1na2vs0mg"},{"bike_id":"87f82b93-47ca-4c7d-8ed2-b8370cde4e16","system_id":"levelo_inurba_marseille","lat":43.324771,"lon":5.36557,"is_reserved":false,"is_disabled":false,"rental_uris":{"android":"levelo://app?vid=87f82b93-47ca-4c7d-8ed2-b8370cde4e16","ios":"levelo://app?vid=87f82b93-47ca-4c7d-8ed2-b8370cde4e16"},"vehicle_type_id":"4","last_reported":1716116784,"current_range_meters":5600,"station_id":"ce4bhs12rcd13ifvqhvg","pricing_plan_id":"cebpf4jnsgd1na2vs0mg"},{"bike_id":"e4f64341-361f-41e8-840a-7c495fff1a91","system_id":"levelo_inurba_marseille","lat":43.324771,"lon":5.36557,"is_reserved":false,"is_disabled":false,"rental_uris":{"android":"levelo://app?vid=e4f64341-361f-41e8-840a-7c495fff1a91","ios":"levelo://app?vid=e4f64341-361f-41e8-840a-7c495fff1a91"},"vehicle_type_id":"4","last_reported":1716116784,"current_range_meters":14400,"station_id":"ce4bhs12rcd13ifvqhvg","pricing_plan_id":"cebpf4jnsgd1na2vs0mg"},{"bike_id":"e2c798d6-0783-401b-b632-e4a3e6db8597","system_id":"levelo_inurba_marseille","lat":43.324771,"lon":5.36557,"is_reserved":false,"is_disabled":false,"rental_uris":{"android":"levelo://app?vid=e2c798d6-0783-401b-b632-e4a3e6db8597","ios":"levelo://app?vid=e2c798d6-0783-401b-b632-e4a3e6db8597"},"vehicle_type_id":"4","last_reported":1716116784,"current_range_meters":26800,"station_id":"ce4bhs12rcd13ifvqhvg","pricing_plan_id":"cebpf4jnsgd1na2vs0mg"},{"bike_id":"15d3df71-50ff-4376-ab9c-c8e2dada8b0a","system_id":"levelo_inurba_marseille","lat":43.324771,"lon":5.36557,"is_reserved":false,"is_disabled":false,"rental_uris":{"android":"levelo://app?vid=15d3df71-50ff-4376-ab9c-c8e2dada8b0a","ios":"levelo://app?vid=15d3df71-50ff-4376-ab9c-c8e2dada8b0a"},"vehicle_type_id":"4","last_reported":1716116784,"current_range_meters":29600,"station_id":"ce4bhs12rcd13ifvqhvg","pricing_plan_id":"cebpf4jnsgd1na2vs0mg"},{"bike_id":"cf220634-4d7f-40ef-911d-79e2db8acf7c","system_id":"levelo_inurba_marseille","lat":43.324771,"lon":5.36557,"is_reserved":false,"is_disabled":false,"rental_uris":{"android":"levelo://app?vid=cf220634-4d7f-40ef-911d-79e2db8acf7c","ios":"levelo://app?vid=cf220634-4d7f-40ef-911d-79e2db8acf7c"},"vehicle_type_id":"4","last_reported":1716116784,"current_range_meters":16800,"station_id":"ce4bhs12rcd13ifvqhvg","pricing_plan_id":"cebpf4jnsgd1na2vs0mg"},{"bike_id":"71cea51b-d8d2-4618-9837-09ef71145359","system_id":"levelo_inurba_marseille","lat":43.302784,"lon":5.377158,"is_reserved":false,"is_disabled":false,"rental_uris":{"android":"levelo://app?vid=71cea51b-d8d2-4618-9837-09ef71145359","ios":"levelo://app?vid=71cea51b-d8d2-4618-9837-09ef71145359"},"vehicle_type_id":"4","last_reported":1716116784,"current_range_meters":22000,"station_id":"ce4bguh2rcd13ifvqcj0","pricing_plan_id":"cebpf4jnsgd1na2vs0mg"},{"bike_id":"11ab981e-ecaf-4aa1-82d8-f28bb47cd1e1","system_id":"levelo_inurba_marseille","lat":43.302784,"lon":5.377158,"is_reserved":false,"is_disabled":false,"rental_uris":{"android":"levelo://app?vid=11ab981e-ecaf-4aa1-82d8-f28bb47cd1e1","ios":"levelo://app?vid=11ab981e-ecaf-4aa1-82d8-f28bb47cd1e1"},"vehicle_type_id":"4","last_reported":1716116784,"current_range_meters":14400,"station_id":"ce4bguh2rcd13ifvqcj0","pricing_plan_id":"cebpf4jnsgd1na2vs0mg"},{"bike_id":"f9382358-889a-49d6-a7ce-90bab6839440","system_id":"levelo_inurba_marseille","lat":43.302784,"lon":5.377158,"is_reserved":false,"is_disabled":false,"rental_uris":{"android":"levelo://app?vid=f9382358-889a-49d6-a7ce-90bab6839440","ios":"levelo://app?vid=f9382358-889a-49d6-a7ce-90bab6839440"},"vehicle_type_id":"4","last_reported":1716116784,"current_range_meters":11200,"station_id":"ce4bguh2rcd13ifvqcj0","pricing_plan_id":"cebpf4jnsgd1na2vs0mg"},{"bike_id":"5a5ab0de-c0f1-426f-b14f-4bc40bc29c0d","system_id":"levelo_inurba_marseille","lat":43.302784,"lon":5.377158,"is_reserved":false,"is_disabled":false,"rental_uris":{"android":"levelo://app?vid=5a5ab0de-c0f1-426f-b14f-4bc40bc29c0d","ios":"levelo://app?vid=5a5ab0de-c0f1-426f-b14f-4bc40bc29c0d"},"vehicle_type_id":"4","last_reported":1716116784,"current_range_meters":12800,"station_id":"ce4bguh2rcd13ifvqcj0","pricing_plan_id":"cebpf4jnsgd1na2vs0mg"},{"bike_id":"892b0f6b-a9d8-4f89-8873-befdcffbc1b7","system_id":"levelo_inurba_marseille","lat":43.302784,"lon":5.377158,"is_reserved":false,"is_disabled":false,"rental_uris":{"android":"levelo://app?vid=892b0f6b-a9d8-4f89-8873-befdcffbc1b7","ios":"levelo://app?vid=892b0f6b-a9d8-4f89-8873-befdcffbc1b7"},"vehicle_type_id":"4","last_reported":1716116784,"current_range_meters":31600,"station_id":"ce4bguh2rcd13ifvqcj0","pricing_plan_id":"cebpf4jnsgd1na2vs0mg"},{"bike_id":"e8749ee8-7d25-42f2-a15b-5edf35bb69a9","system_id":"levelo_inurba_marseille","lat":43.302784,"lon":5.377158,"is_reserved":false,"is_disabled":false,"rental_uris":{"android":"levelo://app?vid=e8749ee8-7d25-42f2-a15b-5edf35bb69a9","ios":"levelo://app?vid=e8749ee8-7d25-42f2-a15b-5edf35bb69a9"},"vehicle_type_id":"4","last_reported":1716116784,"current_range_meters":31600,"station_id":"ce4bguh2rcd13ifvqcj0","pricing_plan_id":"cebpf4jnsgd1na2vs0mg"},{"bike_id":"a36935f1-7d6b-43d9-a022-3801a11a66c3","system_id":"levelo_inurba_marseille","lat":43.302784,"lon":5.377158,"is_reserved":false,"is_disabled":false,"rental_uris":{"android":"levelo://app?vid=a36935f1-7d6b-43d9-a022-3801a11a66c3","ios":"levelo://app?vid=a36935f1-7d6b-43d9-a022-3801a11a66c3"},"vehicle_type_id":"4","last_reported":1716116784,"current_range_meters":3600,"station_id":"ce4bguh2rcd13ifvqcj0","pricing_plan_id":"cebpf4jnsgd1na2vs0mg"},{"bike_id":"eebf2124-9a76-4641-b367-120fa3223d08","system_id":"levelo_inurba_marseille","lat":43.30143,"lon":5.37413,"is_reserved":false,"is_disabled":false,"rental_uris":{"android":"levelo://app?vid=eebf2124-9a76-4641-b367-120fa3223d08","ios":"levelo://app?vid=eebf2124-9a76-4641-b367-120fa3223d08"},"vehicle_type_id":"4","last_reported":1716116784,"current_range_meters":15200,"station_id":"ce4bgs92rcd13ifvqcc0","pricing_plan_id":"cebpf4jnsgd1na2vs0mg"},{"bike_id":"124dc3a0-84aa-446b-bc98-ed39e0678728","system_id":"levelo_inurba_marseille","lat":43.301429,"lon":5.37413,"is_reserved":false,"is_disabled":false,"rental_uris":{"android":"levelo://app?vid=124dc3a0-84aa-446b-bc98-ed39e0678728","ios":"levelo://app?vid=124dc3a0-84aa-446b-bc98-ed39e0678728"},"vehicle_type_id":"4","last_reported":1716116784,"current_range_meters":31200,"station_id":"ce4bgs92rcd13ifvqcc0","pricing_plan_id":"cebpf4jnsgd1na2vs0mg"},{"bike_id":"1b749d9d-516f-419b-9ef5-0cd17d7b5034","system_id":"levelo_inurba_marseille","lat":43.319892,"lon":5.381344,"is_reserved":false,"is_disabled":false,"rental_uris":{"android":"levelo://app?vid=1b749d9d-516f-419b-9ef5-0cd17d7b5034","ios":"levelo://app?vid=1b749d9d-516f-419b-9ef5-0cd17d7b5034"},"vehicle_type_id":"4","last_reported":1716116784,"current_range_meters":22000,"station_id":"ce4bhr12rcd13ifvqhpg","pricing_plan_id":"cebpf4jnsgd1na2vs0mg"},{"bike_id":"70a32d8e-a20f-4949-bd39-ff113ec9e3e2","system_id":"levelo_inurba_marseille","lat":43.319935,"lon":5.381699,"is_reserved":false,"is_disabled":false,"rental_uris":{"android":"levelo://app?vid=70a32d8e-a20f-4949-bd39-ff113ec9e3e2","ios":"levelo://app?vid=70a32d8e-a20f-4949-bd39-ff113ec9e3e2"},"vehicle_type_id":"4","last_reported":1716116784,"current_range_meters":31200,"station_id":"ce4bhr12rcd13ifvqhpg","pricing_plan_id":"cebpf4jnsgd1na2vs0mg"},{"bike_id":"9add5509-f510-454b-a00b-cfedac868c43","system_id":"levelo_inurba_marseille","lat":43.319935,"lon":5.381699,"is_reserved":false,"is_disabled":false,"rental_uris":{"android":"levelo://app?vid=9add5509-f510-454b-a00b-cfedac868c43","ios":"levelo://app?vid=9add5509-f510-454b-a00b-cfedac868c43"},"vehicle_type_id":"4","last_reported":1716116784,"current_range_meters":28000,"station_id":"ce4bhr12rcd13ifvqhpg","pricing_plan_id":"cebpf4jnsgd1na2vs0mg"},{"bike_id":"3bd009a4-82e3-4728-b984-dbfb46a11ee4","system_id":"levelo_inurba_marseille","lat":43.319935,"lon":5.381699,"is_reserved":false,"is_disabled":false,"rental_uris":{"android":"levelo://app?vid=3bd009a4-82e3-4728-b984-dbfb46a11ee4","ios":"levelo://app?vid=3bd009a4-82e3-4728-b984-dbfb46a11ee4"},"vehicle_type_id":"4","last_reported":1716116784,"current_range_meters":30800,"station_id":"ce4bhr12rcd13ifvqhpg","pricing_plan_id":"cebpf4jnsgd1na2vs0mg"},{"bike_id":"8f5c5c22-3194-4339-9a9a-5249b75cef31","system_id":"levelo_inurba_marseille","lat":43.319935,"lon":5.381699,"is_reserved":false,"is_disabled":false,"rental_uris":{"android":"levelo://app?vid=8f5c5c22-3194-4339-9a9a-5249b75cef31","ios":"levelo://app?vid=8f5c5c22-3194-4339-9a9a-5249b75cef31"},"vehicle_type_id":"4","last_reported":1716116784,"current_range_meters":27600,"station_id":"ce4bhr12rcd13ifvqhpg","pricing_plan_id":"cebpf4jnsgd1na2vs0mg"},{"bike_id":"f4084352-e8bf-4462-8167-6cbb5da9ffe4","system_id":"levelo_inurba_marseille","lat":43.319935,"lon":5.381699,"is_reserved":false,"is_disabled":false,"rental_uris":{"android":"levelo://app?vid=f4084352-e8bf-4462-8167-6cbb5da9ffe4","ios":"levelo://app?vid=f4084352-e8bf-4462-8167-6cbb5da9ffe4"},"vehicle_type_id":"4","last_reported":1716116784,"current_range_meters":2000,"station_id":"ce4bhr12rcd13ifvqhpg","pricing_plan_id":"cebpf4jnsgd1na2vs0mg"},{"bike_id":"85dab76a-148e-4d32-b750-fe92d63f7f86","system_id":"levelo_inurba_marseille","lat":43.313571,"lon":5.384829,"is_reserved":false,"is_disabled":false,"rental_uris":{"android":"levelo://app?vid=85dab76a-148e-4d32-b750-fe92d63f7f86","ios":"levelo://app?vid=85dab76a-148e-4d32-b750-fe92d63f7f86"},"vehicle_type_id":"4","last_reported":1716116784,"current_range_meters":18000,"station_id":"ce4bgt92rcd13ifvqcf0","pricing_plan_id":"cebpf4jnsgd1na2vs0mg"},{"bike_id":"0aabcadd-e32b-4145-867a-545dae069fd4","system_id":"levelo_inurba_marseille","lat":43.312239,"lon":5.368562,"is_reserved":false,"is_disabled":false,"rental_uris":{"android":"levelo://app?vid=0aabcadd-e32b-4145-867a-545dae069fd4","ios":"levelo://app?vid=0aabcadd-e32b-4145-867a-545dae069fd4"},"vehicle_type_id":"4","last_reported":1716116784,"current_range_meters":26800,"station_id":"ce4bgl92rcd13ifvqbq0","pricing_plan_id":"cebpf4jnsgd1na2vs0mg"},{"bike_id":"8f9c34c0-7120-40b6-aef6-ffe68053d7e0","system_id":"levelo_inurba_marseille","lat":43.313571,"lon":5.384829,"is_reserved":false,"is_disabled":false,"rental_uris":{"android":"levelo://app?vid=8f9c34c0-7120-40b6-aef6-ffe68053d7e0","ios":"levelo://app?vid=8f9c34c0-7120-40b6-aef6-ffe68053d7e0"},"vehicle_type_id":"4","last_reported":1716116784,"current_range_meters":5600,"station_id":"ce4bgt92rcd13ifvqcf0","pricing_plan_id":"cebpf4jnsgd1na2vs0mg"},{"bike_id":"558063da-3fd4-42da-b82c-0582df1fbee8","system_id":"levelo_inurba_marseille","lat":43.313571,"lon":5.384829,"is_reserved":false,"is_disabled":false,"rental_uris":{"android":"levelo://app?vid=558063da-3fd4-42da-b82c-0582df1fbee8","ios":"levelo://app?vid=558063da-3fd4-42da-b82c-0582df1fbee8"},"vehicle_type_id":"4","last_reported":1716116784,"current_range_meters":1200,"station_id":"ce4bgt92rcd13ifvqcf0","pricing_plan_id":"cebpf4jnsgd1na2vs0mg"},{"bike_id":"f704b525-ce20-4003-a92d-beba5a58a4de","system_id":"levelo_inurba_marseille","lat":43.313571,"lon":5.384829,"is_reserved":false,"is_disabled":false,"rental_uris":{"android":"levelo://app?vid=f704b525-ce20-4003-a92d-beba5a58a4de","ios":"levelo://app?vid=f704b525-ce20-4003-a92d-beba5a58a4de"},"vehicle_type_id":"4","last_reported":1716116784,"current_range_meters":14800,"station_id":"ce4bgt92rcd13ifvqcf0","pricing_plan_id":"cebpf4jnsgd1na2vs0mg"},{"bike_id":"60ac5c05-5a03-4d70-ac1c-b51a3d0498bb","system_id":"levelo_inurba_marseille","lat":43.299222,"lon":5.365554,"is_reserved":false,"is_disabled":false,"rental_uris":{"android":"levelo://app?vid=60ac5c05-5a03-4d70-ac1c-b51a3d0498bb","ios":"levelo://app?vid=60ac5c05-5a03-4d70-ac1c-b51a3d0498bb"},"vehicle_type_id":"4","last_reported":1716116784,"current_range_meters":21600,"station_id":"ce4bgm92rcd13ifvqbr0","pricing_plan_id":"cebpf4jnsgd1na2vs0mg"},{"bike_id":"8a207ec3-16bf-4d9e-8e76-507b297b4d0b","system_id":"levelo_inurba_marseille","lat":43.29922,"lon":5.36534,"is_reserved":false,"is_disabled":false,"rental_uris":{"android":"levelo://app?vid=8a207ec3-16bf-4d9e-8e76-507b297b4d0b","ios":"levelo://app?vid=8a207ec3-16bf-4d9e-8e76-507b297b4d0b"},"vehicle_type_id":"4","last_reported":1716116784,"current_range_meters":0,"station_id":"ce4bgm92rcd13ifvqbr0","pricing_plan_id":"cebpf4jnsgd1na2vs0mg"},{"bike_id":"04ef84c7-3280-437c-a97e-3cc07edd2a54","system_id":"levelo_inurba_marseille","lat":43.30562,"lon":5.38377,"is_reserved":false,"is_disabled":false,"rental_uris":{"android":"levelo://app?vid=04ef84c7-3280-437c-a97e-3cc07edd2a54","ios":"levelo://app?vid=04ef84c7-3280-437c-a97e-3cc07edd2a54"},"vehicle_type_id":"4","last_reported":1716116784,"current_range_meters":20400,"station_id":"ce4bgg92rcd13ifvqb30","pricing_plan_id":"cebpf4jnsgd1na2vs0mg"},{"bike_id":"678d998a-faf8-4ae1-85e7-e9d08ba29ee3","system_id":"levelo_inurba_marseille","lat":43.305364,"lon":5.384119,"is_reserved":false,"is_disabled":false,"rental_uris":{"android":"levelo://app?vid=678d998a-faf8-4ae1-85e7-e9d08ba29ee3","ios":"levelo://app?vid=678d998a-faf8-4ae1-85e7-e9d08ba29ee3"},"vehicle_type_id":"4","last_reported":1716116784,"current_range_meters":10000,"station_id":"ce4bgg92rcd13ifvqb30","pricing_plan_id":"cebpf4jnsgd1na2vs0mg"},{"bike_id":"74c37159-4fb8-430b-81cf-eabd778eab71","system_id":"levelo_inurba_marseille","lat":43.305364,"lon":5.384119,"is_reserved":false,"is_disabled":false,"rental_uris":{"android":"levelo://app?vid=74c37159-4fb8-430b-81cf-eabd778eab71","ios":"levelo://app?vid=74c37159-4fb8-430b-81cf-eabd778eab71"},"vehicle_type_id":"4","last_reported":1716116784,"current_range_meters":31200,"station_id":"ce4bgg92rcd13ifvqb30","pricing_plan_id":"cebpf4jnsgd1na2vs0mg"},{"bike_id":"93596071-53b0-4847-9a70-5e0d23a1af03","system_id":"levelo_inurba_marseille","lat":43.29851,"lon":5.3629,"is_reserved":false,"is_disabled":false,"rental_uris":{"android":"levelo://app?vid=93596071-53b0-4847-9a70-5e0d23a1af03","ios":"levelo://app?vid=93596071-53b0-4847-9a70-5e0d23a1af03"},"vehicle_type_id":"4","last_reported":1716116784,"current_range_meters":18400,"station_id":"ce4bgpp2rcd13ifvqc3g","pricing_plan_id":"cebpf4jnsgd1na2vs0mg"},{"bike_id":"f9b44d9e-5452-4edb-8844-71717fc78b3f","system_id":"levelo_inurba_marseille","lat":43.29851,"lon":5.36282,"is_reserved":false,"is_disabled":false,"rental_uris":{"android":"levelo://app?vid=f9b44d9e-5452-4edb-8844-71717fc78b3f","ios":"levelo://app?vid=f9b44d9e-5452-4edb-8844-71717fc78b3f"},"vehicle_type_id":"4","last_reported":1716116784,"current_range_meters":12400,"station_id":"ce4bgpp2rcd13ifvqc3g","pricing_plan_id":"cebpf4jnsgd1na2vs0mg"},{"bike_id":"ee1edae4-fed5-4484-b6f8-91b7947439a6","system_id":"levelo_inurba_marseille","lat":43.29848,"lon":5.36294,"is_reserved":false,"is_disabled":false,"rental_uris":{"android":"levelo://app?vid=ee1edae4-fed5-4484-b6f8-91b7947439a6","ios":"levelo://app?vid=ee1edae4-fed5-4484-b6f8-91b7947439a6"},"vehicle_type_id":"4","last_reported":1716116784,"current_range_meters":13200,"station_id":"ce4bgpp2rcd13ifvqc3g","pricing_plan_id":"cebpf4jnsgd1na2vs0mg"},{"bike_id":"66290081-d684-48fa-9200-1e8d8a149c66","system_id":"levelo_inurba_marseille","lat":43.29848,"lon":5.36287,"is_reserved":false,"is_disabled":false,"rental_uris":{"android":"levelo://app?vid=66290081-d684-48fa-9200-1e8d8a149c66","ios":"levelo://app?vid=66290081-d684-48fa-9200-1e8d8a149c66"},"vehicle_type_id":"4","last_reported":1716116784,"current_range_meters":27200,"station_id":"ce4bgpp2rcd13ifvqc3g","pricing_plan_id":"cebpf4jnsgd1na2vs0mg"},{"bike_id":"d38b0c0f-f22f-4508-a432-02f69f8b86f1","system_id":"levelo_inurba_marseille","lat":43.298433,"lon":5.362774,"is_reserved":false,"is_disabled":false,"rental_uris":{"android":"levelo://app?vid=d38b0c0f-f22f-4508-a432-02f69f8b86f1","ios":"levelo://app?vid=d38b0c0f-f22f-4508-a432-02f69f8b86f1"},"vehicle_type_id":"4","last_reported":1716116784,"current_range_meters":23600,"station_id":"ce4bgpp2rcd13ifvqc3g","pricing_plan_id":"cebpf4jnsgd1na2vs0mg"},{"bike_id":"9376c64d-2b56-4c4d-ae13-c99d573af99b","system_id":"levelo_inurba_marseille","lat":43.298433,"lon":5.362774,"is_reserved":false,"is_disabled":false,"rental_uris":{"android":"levelo://app?vid=9376c64d-2b56-4c4d-ae13-c99d573af99b","ios":"levelo://app?vid=9376c64d-2b56-4c4d-ae13-c99d573af99b"},"vehicle_type_id":"4","last_reported":1716116784,"current_range_meters":28000,"station_id":"ce4bgpp2rcd13ifvqc3g","pricing_plan_id":"cebpf4jnsgd1na2vs0mg"},{"bike_id":"a4613ab8-2211-46ca-abb5-1f21c0cb8720","system_id":"levelo_inurba_marseille","lat":43.29847,"lon":5.36273,"is_reserved":false,"is_disabled":false,"rental_uris":{"android":"levelo://app?vid=a4613ab8-2211-46ca-abb5-1f21c0cb8720","ios":"levelo://app?vid=a4613ab8-2211-46ca-abb5-1f21c0cb8720"},"vehicle_type_id":"4","last_reported":1716116784,"current_range_meters":22800,"station_id":"ce4bgpp2rcd13ifvqc3g","pricing_plan_id":"cebpf4jnsgd1na2vs0mg"},{"bike_id":"68ef3adb-bb26-4f12-9a91-da1eb17addfc","system_id":"levelo_inurba_marseille","lat":43.3026,"lon":5.38135,"is_reserved":false,"is_disabled":false,"rental_uris":{"android":"levelo://app?vid=68ef3adb-bb26-4f12-9a91-da1eb17addfc","ios":"levelo://app?vid=68ef3adb-bb26-4f12-9a91-da1eb17addfc"},"vehicle_type_id":"4","last_reported":1716116784,"current_range_meters":9200,"station_id":"","pricing_plan_id":"cebpf4jnsgd1na2vs0mg"},{"bike_id":"c75895ba-eda2-44d1-8644-264aa9bb4e3c","system_id":"levelo_inurba_marseille","lat":43.29845,"lon":5.36283,"is_reserved":false,"is_disabled":false,"rental_uris":{"android":"levelo://app?vid=c75895ba-eda2-44d1-8644-264aa9bb4e3c","ios":"levelo://app?vid=c75895ba-eda2-44d1-8644-264aa9bb4e3c"},"vehicle_type_id":"4","last_reported":1716116784,"current_range_meters":31200,"station_id":"ce4bgpp2rcd13ifvqc3g","pricing_plan_id":"cebpf4jnsgd1na2vs0mg"},{"bike_id":"d3488c14-03d3-4936-b14d-2613782ba11f","system_id":"levelo_inurba_marseille","lat":43.298433,"lon":5.362774,"is_reserved":false,"is_disabled":false,"rental_uris":{"android":"levelo://app?vid=d3488c14-03d3-4936-b14d-2613782ba11f","ios":"levelo://app?vid=d3488c14-03d3-4936-b14d-2613782ba11f"},"vehicle_type_id":"4","last_reported":1716116784,"current_range_meters":18400,"station_id":"ce4bgpp2rcd13ifvqc3g","pricing_plan_id":"cebpf4jnsgd1na2vs0mg"},{"bike_id":"b6d7c99c-e704-46f7-b3b1-c50d7e01bcbd","system_id":"levelo_inurba_marseille","lat":43.298433,"lon":5.362774,"is_reserved":false,"is_disabled":false,"rental_uris":{"android":"levelo://app?vid=b6d7c99c-e704-46f7-b3b1-c50d7e01bcbd","ios":"levelo://app?vid=b6d7c99c-e704-46f7-b3b1-c50d7e01bcbd"},"vehicle_type_id":"4","last_reported":1716116784,"current_range_meters":20400,"station_id":"ce4bgpp2rcd13ifvqc3g","pricing_plan_id":"cebpf4jnsgd1na2vs0mg"},{"bike_id":"dc8b35c9-c033-4f66-b15c-9e0370a84ded","system_id":"levelo_inurba_marseille","lat":43.30258,"lon":5.38136,"is_reserved":false,"is_disabled":false,"rental_uris":{"android":"levelo://app?vid=dc8b35c9-c033-4f66-b15c-9e0370a84ded","ios":"levelo://app?vid=dc8b35c9-c033-4f66-b15c-9e0370a84ded"},"vehicle_type_id":"4","last_reported":1716116784,"current_range_meters":17600,"station_id":"","pricing_plan_id":"cebpf4jnsgd1na2vs0mg"},{"bike_id":"781e6637-fe4f-4a41-97ed-df9d5f57d354","system_id":"levelo_inurba_marseille","lat":43.30258,"lon":5.38137,"is_reserved":false,"is_disabled":false,"rental_uris":{"android":"levelo://app?vid=781e6637-fe4f-4a41-97ed-df9d5f57d354","ios":"levelo://app?vid=781e6637-fe4f-4a41-97ed-df9d5f57d354"},"vehicle_type_id":"4","last_reported":1716116784,"current_range_meters":18400,"station_id":"","pricing_plan_id":"cebpf4jnsgd1na2vs0mg"},{"bike_id":"8628bb9c-960a-4efd-a6a8-e2263f47287e","system_id":"levelo_inurba_marseille","lat":43.298433,"lon":5.362774,"is_reserved":false,"is_disabled":false,"rental_uris":{"android":"levelo://app?vid=8628bb9c-960a-4efd-a6a8-e2263f47287e","ios":"levelo://app?vid=8628bb9c-960a-4efd-a6a8-e2263f47287e"},"vehicle_type_id":"4","last_reported":1716116784,"current_range_meters":13200,"station_id":"ce4bgpp2rcd13ifvqc3g","pricing_plan_id":"cebpf4jnsgd1na2vs0mg"},{"bike_id":"fedf1b77-a730-4f6e-8b19-e1384d8232f4","system_id":"levelo_inurba_marseille","lat":43.29843,"lon":5.36276,"is_reserved":false,"is_disabled":false,"rental_uris":{"android":"levelo://app?vid=fedf1b77-a730-4f6e-8b19-e1384d8232f4","ios":"levelo://app?vid=fedf1b77-a730-4f6e-8b19-e1384d8232f4"},"vehicle_type_id":"4","last_reported":1716116784,"current_range_meters":10800,"station_id":"ce4bgpp2rcd13ifvqc3g","pricing_plan_id":"cebpf4jnsgd1na2vs0mg"},{"bike_id":"4e910541-218f-47f1-bee9-a3cdcab45edb","system_id":"levelo_inurba_marseille","lat":43.299243,"lon":5.374807,"is_reserved":false,"is_disabled":false,"rental_uris":{"android":"levelo://app?vid=4e910541-218f-47f1-bee9-a3cdcab45edb","ios":"levelo://app?vid=4e910541-218f-47f1-bee9-a3cdcab45edb"},"vehicle_type_id":"4","last_reported":1716116784,"current_range_meters":23200,"station_id":"ce4bgjh2rcd13ifvqbg0","pricing_plan_id":"cebpf4jnsgd1na2vs0mg"},{"bike_id":"3e08a4f9-95bf-4361-a550-ffbb09a1d5a5","system_id":"levelo_inurba_marseille","lat":43.31183,"lon":5.38706,"is_reserved":false,"is_disabled":false,"rental_uris":{"android":"levelo://app?vid=3e08a4f9-95bf-4361-a550-ffbb09a1d5a5","ios":"levelo://app?vid=3e08a4f9-95bf-4361-a550-ffbb09a1d5a5"},"vehicle_type_id":"4","last_reported":1716116784,"current_range_meters":0,"station_id":"ce4bgv12rcd13ifvqcp0","pricing_plan_id":"cebpf4jnsgd1na2vs0mg"},{"bike_id":"2e4ba53c-d790-41e5-b64d-95d6cc231dd4","system_id":"levelo_inurba_marseille","lat":43.29839,"lon":5.36267,"is_reserved":false,"is_disabled":false,"rental_uris":{"android":"levelo://app?vid=2e4ba53c-d790-41e5-b64d-95d6cc231dd4","ios":"levelo://app?vid=2e4ba53c-d790-41e5-b64d-95d6cc231dd4"},"vehicle_type_id":"4","last_reported":1716116784,"current_range_meters":26000,"station_id":"ce4bgpp2rcd13ifvqc3g","pricing_plan_id":"cebpf4jnsgd1na2vs0mg"},{"bike_id":"d59286e1-c705-40d7-8584-d3121ce849de","system_id":"levelo_inurba_marseille","lat":43.298433,"lon":5.362774,"is_reserved":false,"is_disabled":false,"rental_uris":{"android":"levelo://app?vid=d59286e1-c705-40d7-8584-d3121ce849de","ios":"levelo://app?vid=d59286e1-c705-40d7-8584-d3121ce849de"},"vehicle_type_id":"4","last_reported":1716116784,"current_range_meters":28800,"station_id":"ce4bgpp2rcd13ifvqc3g","pricing_plan_id":"cebpf4jnsgd1na2vs0mg"},{"bike_id":"bca2e5ba-a93a-4b95-affb-668e0ef7313d","system_id":"levelo_inurba_marseille","lat":43.299243,"lon":5.37481,"is_reserved":false,"is_disabled":false,"rental_uris":{"android":"levelo://app?vid=bca2e5ba-a93a-4b95-affb-668e0ef7313d","ios":"levelo://app?vid=bca2e5ba-a93a-4b95-affb-668e0ef7313d"},"vehicle_type_id":"4","last_reported":1716116784,"current_range_meters":22400,"station_id":"ce4bgjh2rcd13ifvqbg0","pricing_plan_id":"cebpf4jnsgd1na2vs0mg"},{"bike_id":"61d56cdb-cd6b-4b3a-8534-d61dd7fc9a8f","system_id":"levelo_inurba_marseille","lat":43.30252,"lon":5.38158,"is_reserved":false,"is_disabled":false,"rental_uris":{"android":"levelo://app?vid=61d56cdb-cd6b-4b3a-8534-d61dd7fc9a8f","ios":"levelo://app?vid=61d56cdb-cd6b-4b3a-8534-d61dd7fc9a8f"},"vehicle_type_id":"4","last_reported":1716116784,"current_range_meters":4800,"station_id":"","pricing_plan_id":"cebpf4jnsgd1na2vs0mg"},{"bike_id":"2cb7e220-0e47-40a8-a95c-972165194eb4","system_id":"levelo_inurba_marseille","lat":43.311685,"lon":5.387174,"is_reserved":false,"is_disabled":false,"rental_uris":{"android":"levelo://app?vid=2cb7e220-0e47-40a8-a95c-972165194eb4","ios":"levelo://app?vid=2cb7e220-0e47-40a8-a95c-972165194eb4"},"vehicle_type_id":"4","last_reported":1716116784,"current_range_meters":29600,"station_id":"ce4bgv12rcd13ifvqcp0","pricing_plan_id":"cebpf4jnsgd1na2vs0mg"},{"bike_id":"606f8b43-6510-48b6-88b9-5dbbe1c44b2c","system_id":"levelo_inurba_marseille","lat":43.30218,"lon":5.38162,"is_reserved":false,"is_disabled":false,"rental_uris":{"android":"levelo://app?vid=606f8b43-6510-48b6-88b9-5dbbe1c44b2c","ios":"levelo://app?vid=606f8b43-6510-48b6-88b9-5dbbe1c44b2c"},"vehicle_type_id":"4","last_reported":1716116784,"current_range_meters":17600,"station_id":"","pricing_plan_id":"cebpf4jnsgd1na2vs0mg"},{"bike_id":"b22379ec-8777-4dcd-8c0e-9642bdad8cfd","system_id":"levelo_inurba_marseille","lat":43.297774,"lon":5.370875,"is_reserved":false,"is_disabled":false,"rental_uris":{"android":"levelo://app?vid=b22379ec-8777-4dcd-8c0e-9642bdad8cfd","ios":"levelo://app?vid=b22379ec-8777-4dcd-8c0e-9642bdad8cfd"},"vehicle_type_id":"4","last_reported":1716116784,"current_range_meters":30000,"station_id":"ce4bgop2rcd13ifvqc1g","pricing_plan_id":"cebpf4jnsgd1na2vs0mg"},{"bike_id":"a78c0371-18a7-4609-8a16-1a99a180568a","system_id":"levelo_inurba_marseille","lat":43.297794,"lon":5.370888,"is_reserved":false,"is_disabled":false,"rental_uris":{"android":"levelo://app?vid=a78c0371-18a7-4609-8a16-1a99a180568a","ios":"levelo://app?vid=a78c0371-18a7-4609-8a16-1a99a180568a"},"vehicle_type_id":"4","last_reported":1716116784,"current_range_meters":29600,"station_id":"ce4bgop2rcd13ifvqc1g","pricing_plan_id":"cebpf4jnsgd1na2vs0mg"},{"bike_id":"49bcf57f-cc4c-43f2-ba0f-303de55d40dc","system_id":"levelo_inurba_marseille","lat":43.322849,"lon":5.382573,"is_reserved":false,"is_disabled":false,"rental_uris":{"android":"levelo://app?vid=49bcf57f-cc4c-43f2-ba0f-303de55d40dc","ios":"levelo://app?vid=49bcf57f-cc4c-43f2-ba0f-303de55d40dc"},"vehicle_type_id":"4","last_reported":1716116784,"current_range_meters":12000,"station_id":"ce4bhr12rcd13ifvqhqg","pricing_plan_id":"cebpf4jnsgd1na2vs0mg"},{"bike_id":"a0832526-408d-4d81-b3fd-c55242f8a03a","system_id":"levelo_inurba_marseille","lat":43.322872,"lon":5.382756,"is_reserved":false,"is_disabled":false,"rental_uris":{"android":"levelo://app?vid=a0832526-408d-4d81-b3fd-c55242f8a03a","ios":"levelo://app?vid=a0832526-408d-4d81-b3fd-c55242f8a03a"},"vehicle_type_id":"4","last_reported":1716116784,"current_range_meters":12000,"station_id":"ce4bhr12rcd13ifvqhqg","pricing_plan_id":"cebpf4jnsgd1na2vs0mg"},{"bike_id":"20a219a4-15d8-4496-9559-cd12f79d5c85","system_id":"levelo_inurba_marseille","lat":43.322886,"lon":5.382743,"is_reserved":false,"is_disabled":false,"rental_uris":{"android":"levelo://app?vid=20a219a4-15d8-4496-9559-cd12f79d5c85","ios":"levelo://app?vid=20a219a4-15d8-4496-9559-cd12f79d5c85"},"vehicle_type_id":"4","last_reported":1716116784,"current_range_meters":28800,"station_id":"ce4bhr12rcd13ifvqhqg","pricing_plan_id":"cebpf4jnsgd1na2vs0mg"},{"bike_id":"9385d173-06b2-4fde-8d3d-ba7b1bec39da","system_id":"levelo_inurba_marseille","lat":43.322879,"lon":5.382806,"is_reserved":false,"is_disabled":false,"rental_uris":{"android":"levelo://app?vid=9385d173-06b2-4fde-8d3d-ba7b1bec39da","ios":"levelo://app?vid=9385d173-06b2-4fde-8d3d-ba7b1bec39da"},"vehicle_type_id":"4","last_reported":1716116784,"current_range_meters":0,"station_id":"ce4bhr12rcd13ifvqhqg","pricing_plan_id":"cebpf4jnsgd1na2vs0mg"},{"bike_id":"4dbd6109-2a33-4a5f-8876-0447c1c68e2a","system_id":"levelo_inurba_marseille","lat":43.297163,"lon":5.365866,"is_reserved":false,"is_disabled":false,"rental_uris":{"android":"levelo://app?vid=4dbd6109-2a33-4a5f-8876-0447c1c68e2a","ios":"levelo://app?vid=4dbd6109-2a33-4a5f-8876-0447c1c68e2a"},"vehicle_type_id":"4","last_reported":1716116784,"current_range_meters":15600,"station_id":"ce4bgn12rcd13ifvqbt0","pricing_plan_id":"cebpf4jnsgd1na2vs0mg"},{"bike_id":"66cf390c-ec01-43b9-bda5-6761aa126bde","system_id":"levelo_inurba_marseille","lat":43.297163,"lon":5.365866,"is_reserved":false,"is_disabled":false,"rental_uris":{"android":"levelo://app?vid=66cf390c-ec01-43b9-bda5-6761aa126bde","ios":"levelo://app?vid=66cf390c-ec01-43b9-bda5-6761aa126bde"},"vehicle_type_id":"4","last_reported":1716116784,"current_range_meters":16800,"station_id":"ce4bgn12rcd13ifvqbt0","pricing_plan_id":"cebpf4jnsgd1na2vs0mg"},{"bike_id":"4ba1b3bf-5860-478a-9a67-d31d300191ee","system_id":"levelo_inurba_marseille","lat":43.297163,"lon":5.365866,"is_reserved":false,"is_disabled":false,"rental_uris":{"android":"levelo://app?vid=4ba1b3bf-5860-478a-9a67-d31d300191ee","ios":"levelo://app?vid=4ba1b3bf-5860-478a-9a67-d31d300191ee"},"vehicle_type_id":"4","last_reported":1716116784,"current_range_meters":17200,"station_id":"ce4bgn12rcd13ifvqbt0","pricing_plan_id":"cebpf4jnsgd1na2vs0mg"},{"bike_id":"3e01bb52-9964-49c3-9d95-11cd09feee44","system_id":"levelo_inurba_marseille","lat":43.297163,"lon":5.365866,"is_reserved":false,"is_disabled":false,"rental_uris":{"android":"levelo://app?vid=3e01bb52-9964-49c3-9d95-11cd09feee44","ios":"levelo://app?vid=3e01bb52-9964-49c3-9d95-11cd09feee44"},"vehicle_type_id":"4","last_reported":1716116784,"current_range_meters":27600,"station_id":"ce4bgn12rcd13ifvqbt0","pricing_plan_id":"cebpf4jnsgd1na2vs0mg"},{"bike_id":"12ff3962-4645-4ab6-bf44-9f0546a9df03","system_id":"levelo_inurba_marseille","lat":43.297163,"lon":5.365866,"is_reserved":false,"is_disabled":false,"rental_uris":{"android":"levelo://app?vid=12ff3962-4645-4ab6-bf44-9f0546a9df03","ios":"levelo://app?vid=12ff3962-4645-4ab6-bf44-9f0546a9df03"},"vehicle_type_id":"4","last_reported":1716116784,"current_range_meters":18400,"station_id":"ce4bgn12rcd13ifvqbt0","pricing_plan_id":"cebpf4jnsgd1na2vs0mg"},{"bike_id":"3670bb87-3578-4cd7-ad14-c76d6171967f","system_id":"levelo_inurba_marseille","lat":43.297163,"lon":5.365866,"is_reserved":false,"is_disabled":false,"rental_uris":{"android":"levelo://app?vid=3670bb87-3578-4cd7-ad14-c76d6171967f","ios":"levelo://app?vid=3670bb87-3578-4cd7-ad14-c76d6171967f"},"vehicle_type_id":"4","last_reported":1716116784,"current_range_meters":18000,"station_id":"ce4bgn12rcd13ifvqbt0","pricing_plan_id":"cebpf4jnsgd1na2vs0mg"},{"bike_id":"1254f63c-fe64-422e-a397-a87593279eae","system_id":"levelo_inurba_marseille","lat":43.29837,"lon":5.37685,"is_reserved":false,"is_disabled":false,"rental_uris":{"android":"levelo://app?vid=1254f63c-fe64-422e-a397-a87593279eae","ios":"levelo://app?vid=1254f63c-fe64-422e-a397-a87593279eae"},"vehicle_type_id":"4","last_reported":1716116784,"current_range_meters":0,"station_id":"","pricing_plan_id":"cebpf4jnsgd1na2vs0mg"},{"bike_id":"a1ca81a6-2613-40d3-9286-136c83e58c1a","system_id":"levelo_inurba_marseille","lat":43.29682,"lon":5.37292,"is_reserved":false,"is_disabled":false,"rental_uris":{"android":"levelo://app?vid=a1ca81a6-2613-40d3-9286-136c83e58c1a","ios":"levelo://app?vid=a1ca81a6-2613-40d3-9286-136c83e58c1a"},"vehicle_type_id":"4","last_reported":1716116784,"current_range_meters":30800,"station_id":"ce4bgk12rcd13ifvqbj0","pricing_plan_id":"cebpf4jnsgd1na2vs0mg"},{"bike_id":"c0b498e0-13a8-4048-9ad1-239a98ef44f9","system_id":"levelo_inurba_marseille","lat":43.298839,"lon":5.379945,"is_reserved":false,"is_disabled":false,"rental_uris":{"android":"levelo://app?vid=c0b498e0-13a8-4048-9ad1-239a98ef44f9","ios":"levelo://app?vid=c0b498e0-13a8-4048-9ad1-239a98ef44f9"},"vehicle_type_id":"4","last_reported":1716116784,"current_range_meters":15200,"station_id":"","pricing_plan_id":"cebpf4jnsgd1na2vs0mg"},{"bike_id":"5a7f54db-3359-4332-92f1-3428ad3effad","system_id":"levelo_inurba_marseille","lat":43.29623,"lon":5.37165,"is_reserved":false,"is_disabled":false,"rental_uris":{"android":"levelo://app?vid=5a7f54db-3359-4332-92f1-3428ad3effad","ios":"levelo://app?vid=5a7f54db-3359-4332-92f1-3428ad3effad"},"vehicle_type_id":"4","last_reported":1716116784,"current_range_meters":29200,"station_id":"ce4bgnh2rcd13ifvqc0g","pricing_plan_id":"cebpf4jnsgd1na2vs0mg"},{"bike_id":"2125be70-369c-42e5-a327-b9ebba7a81cd","system_id":"levelo_inurba_marseille","lat":43.29573,"lon":5.367355,"is_reserved":false,"is_disabled":false,"rental_uris":{"android":"levelo://app?vid=2125be70-369c-42e5-a327-b9ebba7a81cd","ios":"levelo://app?vid=2125be70-369c-42e5-a327-b9ebba7a81cd"},"vehicle_type_id":"4","last_reported":1716116784,"current_range_meters":8800,"station_id":"ce4bgph2rcd13ifvqc2g","pricing_plan_id":"cebpf4jnsgd1na2vs0mg"},{"bike_id":"7a411e29-24e1-409a-9c9e-b26524118f2e","system_id":"levelo_inurba_marseille","lat":43.29573,"lon":5.367355,"is_reserved":false,"is_disabled":false,"rental_uris":{"android":"levelo://app?vid=7a411e29-24e1-409a-9c9e-b26524118f2e","ios":"levelo://app?vid=7a411e29-24e1-409a-9c9e-b26524118f2e"},"vehicle_type_id":"4","last_reported":1716116784,"current_range_meters":1600,"station_id":"ce4bgph2rcd13ifvqc2g","pricing_plan_id":"cebpf4jnsgd1na2vs0mg"},{"bike_id":"f2cef251-457c-4d14-825b-d86cfdb4faa1","system_id":"levelo_inurba_marseille","lat":43.29573,"lon":5.367355,"is_reserved":false,"is_disabled":false,"rental_uris":{"android":"levelo://app?vid=f2cef251-457c-4d14-825b-d86cfdb4faa1","ios":"levelo://app?vid=f2cef251-457c-4d14-825b-d86cfdb4faa1"},"vehicle_type_id":"4","last_reported":1716116784,"current_range_meters":0,"station_id":"ce4bgph2rcd13ifvqc2g","pricing_plan_id":"cebpf4jnsgd1na2vs0mg"},{"bike_id":"746040ce-ce4c-43d4-8566-5ec351175e20","system_id":"levelo_inurba_marseille","lat":43.29573,"lon":5.367355,"is_reserved":false,"is_disabled":false,"rental_uris":{"android":"levelo://app?vid=746040ce-ce4c-43d4-8566-5ec351175e20","ios":"levelo://app?vid=746040ce-ce4c-43d4-8566-5ec351175e20"},"vehicle_type_id":"4","last_reported":1716116784,"current_range_meters":2000,"station_id":"ce4bgph2rcd13ifvqc2g","pricing_plan_id":"cebpf4jnsgd1na2vs0mg"},{"bike_id":"a5351cfc-4e67-4eb7-ac70-435ed26f5047","system_id":"levelo_inurba_marseille","lat":43.309589,"lon":5.390258,"is_reserved":false,"is_disabled":false,"rental_uris":{"android":"levelo://app?vid=a5351cfc-4e67-4eb7-ac70-435ed26f5047","ios":"levelo://app?vid=a5351cfc-4e67-4eb7-ac70-435ed26f5047"},"vehicle_type_id":"4","last_reported":1716116784,"current_range_meters":15600,"station_id":"ce4bgup2rcd13ifvqco0","pricing_plan_id":"cebpf4jnsgd1na2vs0mg"},{"bike_id":"f368d2b4-15a8-4de5-91d8-3a1b00d446ce","system_id":"levelo_inurba_marseille","lat":43.30957,"lon":5.3903,"is_reserved":false,"is_disabled":false,"rental_uris":{"android":"levelo://app?vid=f368d2b4-15a8-4de5-91d8-3a1b00d446ce","ios":"levelo://app?vid=f368d2b4-15a8-4de5-91d8-3a1b00d446ce"},"vehicle_type_id":"4","last_reported":1716116784,"current_range_meters":31200,"station_id":"ce4bgup2rcd13ifvqco0","pricing_plan_id":"cebpf4jnsgd1na2vs0mg"},{"bike_id":"261ae03e-7f06-4172-b197-02af70d3ef05","system_id":"levelo_inurba_marseille","lat":43.317557,"lon":5.390173,"is_reserved":false,"is_disabled":false,"rental_uris":{"android":"levelo://app?vid=261ae03e-7f06-4172-b197-02af70d3ef05","ios":"levelo://app?vid=261ae03e-7f06-4172-b197-02af70d3ef05"},"vehicle_type_id":"4","last_reported":1716116784,"current_range_meters":31600,"station_id":"ce4bhqp2rcd13ifvqhng","pricing_plan_id":"cebpf4jnsgd1na2vs0mg"},{"bike_id":"2f5f3a97-979b-43eb-8587-583774b7dd74","system_id":"levelo_inurba_marseille","lat":43.317557,"lon":5.390173,"is_reserved":false,"is_disabled":false,"rental_uris":{"android":"levelo://app?vid=2f5f3a97-979b-43eb-8587-583774b7dd74","ios":"levelo://app?vid=2f5f3a97-979b-43eb-8587-583774b7dd74"},"vehicle_type_id":"4","last_reported":1716116784,"current_range_meters":800,"station_id":"ce4bhqp2rcd13ifvqhng","pricing_plan_id":"cebpf4jnsgd1na2vs0mg"},{"bike_id":"bd7f18ca-ab17-4f3c-8481-3e22ac12cd8c","system_id":"levelo_inurba_marseille","lat":43.31753,"lon":5.39018,"is_reserved":false,"is_disabled":false,"rental_uris":{"android":"levelo://app?vid=bd7f18ca-ab17-4f3c-8481-3e22ac12cd8c","ios":"levelo://app?vid=bd7f18ca-ab17-4f3c-8481-3e22ac12cd8c"},"vehicle_type_id":"4","last_reported":1716116784,"current_range_meters":18000,"station_id":"ce4bhqp2rcd13ifvqhng","pricing_plan_id":"cebpf4jnsgd1na2vs0mg"},{"bike_id":"76089a60-4919-4c7b-a4de-08d772ae6191","system_id":"levelo_inurba_marseille","lat":43.298037,"lon":5.381066,"is_reserved":false,"is_disabled":false,"rental_uris":{"android":"levelo://app?vid=76089a60-4919-4c7b-a4de-08d772ae6191","ios":"levelo://app?vid=76089a60-4919-4c7b-a4de-08d772ae6191"},"vehicle_type_id":"4","last_reported":1716116784,"current_range_meters":0,"station_id":"ce4bgip2rcd13ifvqbb0","pricing_plan_id":"cebpf4jnsgd1na2vs0mg"},{"bike_id":"59d6b088-0124-45cf-ba28-cb201aae1e48","system_id":"levelo_inurba_marseille","lat":43.298037,"lon":5.381066,"is_reserved":false,"is_disabled":false,"rental_uris":{"android":"levelo://app?vid=59d6b088-0124-45cf-ba28-cb201aae1e48","ios":"levelo://app?vid=59d6b088-0124-45cf-ba28-cb201aae1e48"},"vehicle_type_id":"4","last_reported":1716116784,"current_range_meters":22000,"station_id":"ce4bgip2rcd13ifvqbb0","pricing_plan_id":"cebpf4jnsgd1na2vs0mg"},{"bike_id":"c8db00fe-2bfd-4fdb-ad00-23f2d2e0ef28","system_id":"levelo_inurba_marseille","lat":43.298037,"lon":5.381066,"is_reserved":false,"is_disabled":false,"rental_uris":{"android":"levelo://app?vid=c8db00fe-2bfd-4fdb-ad00-23f2d2e0ef28","ios":"levelo://app?vid=c8db00fe-2bfd-4fdb-ad00-23f2d2e0ef28"},"vehicle_type_id":"4","last_reported":1716116784,"current_range_meters":3600,"station_id":"ce4bgip2rcd13ifvqbb0","pricing_plan_id":"cebpf4jnsgd1na2vs0mg"},{"bike_id":"f25d7a86-2cb1-4d3c-9aa6-4f29166bd2fa","system_id":"levelo_inurba_marseille","lat":43.295748,"lon":5.37522,"is_reserved":false,"is_disabled":false,"rental_uris":{"android":"levelo://app?vid=f25d7a86-2cb1-4d3c-9aa6-4f29166bd2fa","ios":"levelo://app?vid=f25d7a86-2cb1-4d3c-9aa6-4f29166bd2fa"},"vehicle_type_id":"4","last_reported":1716116784,"current_range_meters":23600,"station_id":"ce4bgh92rcd13ifvqb50","pricing_plan_id":"cebpf4jnsgd1na2vs0mg"},{"bike_id":"a91894b0-2d27-4c89-83ef-14823992e9b3","system_id":"levelo_inurba_marseille","lat":43.295279,"lon":5.375048,"is_reserved":false,"is_disabled":false,"rental_uris":{"android":"levelo://app?vid=a91894b0-2d27-4c89-83ef-14823992e9b3","ios":"levelo://app?vid=a91894b0-2d27-4c89-83ef-14823992e9b3"},"vehicle_type_id":"4","last_reported":1716116784,"current_range_meters":22400,"station_id":"ce4bgkp2rcd13ifvqbmg","pricing_plan_id":"cebpf4jnsgd1na2vs0mg"},{"bike_id":"659165ae-c747-4600-a8cb-a26fe9719cf4","system_id":"levelo_inurba_marseille","lat":43.299717,"lon":5.384845,"is_reserved":false,"is_disabled":false,"rental_uris":{"android":"levelo://app?vid=659165ae-c747-4600-a8cb-a26fe9719cf4","ios":"levelo://app?vid=659165ae-c747-4600-a8cb-a26fe9719cf4"},"vehicle_type_id":"4","last_reported":1716116784,"current_range_meters":23600,"station_id":"ce4bgj92rcd13ifvqbd0","pricing_plan_id":"cebpf4jnsgd1na2vs0mg"},{"bike_id":"9e4588d5-d041-410d-a11d-3902ecfedc0f","system_id":"levelo_inurba_marseille","lat":43.299724,"lon":5.384848,"is_reserved":false,"is_disabled":false,"rental_uris":{"android":"levelo://app?vid=9e4588d5-d041-410d-a11d-3902ecfedc0f","ios":"levelo://app?vid=9e4588d5-d041-410d-a11d-3902ecfedc0f"},"vehicle_type_id":"4","last_reported":1716116784,"current_range_meters":24000,"station_id":"ce4bgj92rcd13ifvqbd0","pricing_plan_id":"cebpf4jnsgd1na2vs0mg"},{"bike_id":"a52d094b-9f75-4881-b942-0033f196106d","system_id":"levelo_inurba_marseille","lat":43.299717,"lon":5.384845,"is_reserved":false,"is_disabled":false,"rental_uris":{"android":"levelo://app?vid=a52d094b-9f75-4881-b942-0033f196106d","ios":"levelo://app?vid=a52d094b-9f75-4881-b942-0033f196106d"},"vehicle_type_id":"4","last_reported":1716116784,"current_range_meters":21200,"station_id":"ce4bgj92rcd13ifvqbd0","pricing_plan_id":"cebpf4jnsgd1na2vs0mg"},{"bike_id":"cfbd4d2f-b8ae-4679-9bca-6100d657121e","system_id":"levelo_inurba_marseille","lat":43.295279,"lon":5.375048,"is_reserved":false,"is_disabled":false,"rental_uris":{"android":"levelo://app?vid=cfbd4d2f-b8ae-4679-9bca-6100d657121e","ios":"levelo://app?vid=cfbd4d2f-b8ae-4679-9bca-6100d657121e"},"vehicle_type_id":"4","last_reported":1716116784,"current_range_meters":0,"station_id":"ce4bgkp2rcd13ifvqbmg","pricing_plan_id":"cebpf4jnsgd1na2vs0mg"},{"bike_id":"d5d2eea5-1adb-4a93-8baa-386795011fc2","system_id":"levelo_inurba_marseille","lat":43.325594,"lon":5.386439,"is_reserved":false,"is_disabled":false,"rental_uris":{"android":"levelo://app?vid=d5d2eea5-1adb-4a93-8baa-386795011fc2","ios":"levelo://app?vid=d5d2eea5-1adb-4a93-8baa-386795011fc2"},"vehicle_type_id":"4","last_reported":1716116784,"current_range_meters":0,"station_id":"","pricing_plan_id":"cebpf4jnsgd1na2vs0mg"},{"bike_id":"4cb6d14e-95dc-4bf7-8fdd-9fead4ef2e9a","system_id":"levelo_inurba_marseille","lat":43.32367,"lon":5.388836,"is_reserved":false,"is_disabled":false,"rental_uris":{"android":"levelo://app?vid=4cb6d14e-95dc-4bf7-8fdd-9fead4ef2e9a","ios":"levelo://app?vid=4cb6d14e-95dc-4bf7-8fdd-9fead4ef2e9a"},"vehicle_type_id":"4","last_reported":1716116784,"current_range_meters":14000,"station_id":"ce4bhqp2rcd13ifvqhog","pricing_plan_id":"cebpf4jnsgd1na2vs0mg"},{"bike_id":"461981fa-eb9c-4ef2-b7b1-6af2f23d76d7","system_id":"levelo_inurba_marseille","lat":43.32367,"lon":5.388836,"is_reserved":false,"is_disabled":false,"rental_uris":{"android":"levelo://app?vid=461981fa-eb9c-4ef2-b7b1-6af2f23d76d7","ios":"levelo://app?vid=461981fa-eb9c-4ef2-b7b1-6af2f23d76d7"},"vehicle_type_id":"4","last_reported":1716116784,"current_range_meters":4800,"station_id":"ce4bhqp2rcd13ifvqhog","pricing_plan_id":"cebpf4jnsgd1na2vs0mg"},{"bike_id":"62e5c05a-d327-4f39-82da-430175b55242","system_id":"levelo_inurba_marseille","lat":43.293249,"lon":5.371578,"is_reserved":false,"is_disabled":false,"rental_uris":{"android":"levelo://app?vid=62e5c05a-d327-4f39-82da-430175b55242","ios":"levelo://app?vid=62e5c05a-d327-4f39-82da-430175b55242"},"vehicle_type_id":"4","last_reported":1716116784,"current_range_meters":5200,"station_id":"ce4bgh92rcd13ifvqb40","pricing_plan_id":"cebpf4jnsgd1na2vs0mg"},{"bike_id":"bce2e0bb-e93d-4696-8be5-a9fbfbe3c97d","system_id":"levelo_inurba_marseille","lat":43.293259,"lon":5.371586,"is_reserved":false,"is_disabled":false,"rental_uris":{"android":"levelo://app?vid=bce2e0bb-e93d-4696-8be5-a9fbfbe3c97d","ios":"levelo://app?vid=bce2e0bb-e93d-4696-8be5-a9fbfbe3c97d"},"vehicle_type_id":"4","last_reported":1716116784,"current_range_meters":28400,"station_id":"ce4bgh92rcd13ifvqb40","pricing_plan_id":"cebpf4jnsgd1na2vs0mg"},{"bike_id":"87be5721-86a0-47f5-9374-ec7251c45a0e","system_id":"levelo_inurba_marseille","lat":43.293259,"lon":5.371586,"is_reserved":false,"is_disabled":false,"rental_uris":{"android":"levelo://app?vid=87be5721-86a0-47f5-9374-ec7251c45a0e","ios":"levelo://app?vid=87be5721-86a0-47f5-9374-ec7251c45a0e"},"vehicle_type_id":"4","last_reported":1716116784,"current_range_meters":24400,"station_id":"ce4bgh92rcd13ifvqb40","pricing_plan_id":"cebpf4jnsgd1na2vs0mg"},{"bike_id":"24ba049b-9222-4321-aed3-739926a16a07","system_id":"levelo_inurba_marseille","lat":43.303002,"lon":5.392142,"is_reserved":false,"is_disabled":false,"rental_uris":{"android":"levelo://app?vid=24ba049b-9222-4321-aed3-739926a16a07","ios":"levelo://app?vid=24ba049b-9222-4321-aed3-739926a16a07"},"vehicle_type_id":"4","last_reported":1716116784,"current_range_meters":14800,"station_id":"ce4bgkh2rcd13ifvqbk0","pricing_plan_id":"cebpf4jnsgd1na2vs0mg"},{"bike_id":"26ffa9f8-73ed-4a0e-b24d-96115236e7b1","system_id":"levelo_inurba_marseille","lat":43.2936,"lon":5.37835,"is_reserved":false,"is_disabled":false,"rental_uris":{"android":"levelo://app?vid=26ffa9f8-73ed-4a0e-b24d-96115236e7b1","ios":"levelo://app?vid=26ffa9f8-73ed-4a0e-b24d-96115236e7b1"},"vehicle_type_id":"4","last_reported":1716116784,"current_range_meters":3600,"station_id":"ce4bgjh2rcd13ifvqbf0","pricing_plan_id":"cebpf4jnsgd1na2vs0mg"},{"bike_id":"473d83d8-b00b-4b1f-8803-e441ad3d7f2b","system_id":"levelo_inurba_marseille","lat":43.292311,"lon":5.360731,"is_reserved":false,"is_disabled":false,"rental_uris":{"android":"levelo://app?vid=473d83d8-b00b-4b1f-8803-e441ad3d7f2b","ios":"levelo://app?vid=473d83d8-b00b-4b1f-8803-e441ad3d7f2b"},"vehicle_type_id":"4","last_reported":1716116784,"current_range_meters":11600,"station_id":"ce4bhbh2rcd13ifvqeqg","pricing_plan_id":"cebpf4jnsgd1na2vs0mg"},{"bike_id":"a7ace431-7cbf-42ba-96f1-a932c01644a2","system_id":"levelo_inurba_marseille","lat":43.292311,"lon":5.360731,"is_reserved":false,"is_disabled":false,"rental_uris":{"android":"levelo://app?vid=a7ace431-7cbf-42ba-96f1-a932c01644a2","ios":"levelo://app?vid=a7ace431-7cbf-42ba-96f1-a932c01644a2"},"vehicle_type_id":"4","last_reported":1716116784,"current_range_meters":2800,"station_id":"ce4bhbh2rcd13ifvqeqg","pricing_plan_id":"cebpf4jnsgd1na2vs0mg"},{"bike_id":"f0c3f893-446d-480e-abb6-515ea37bb42d","system_id":"levelo_inurba_marseille","lat":43.30085,"lon":5.390856,"is_reserved":false,"is_disabled":false,"rental_uris":{"android":"levelo://app?vid=f0c3f893-446d-480e-abb6-515ea37bb42d","ios":"levelo://app?vid=f0c3f893-446d-480e-abb6-515ea37bb42d"},"vehicle_type_id":"4","last_reported":1716116784,"current_range_meters":18400,"station_id":"ce4bh192rcd13ifvqdb0","pricing_plan_id":"cebpf4jnsgd1na2vs0mg"},{"bike_id":"98b38326-f17e-4fa8-9d9e-ebb82af6b5ba","system_id":"levelo_inurba_marseille","lat":43.29219,"lon":5.3606,"is_reserved":false,"is_disabled":false,"rental_uris":{"android":"levelo://app?vid=98b38326-f17e-4fa8-9d9e-ebb82af6b5ba","ios":"levelo://app?vid=98b38326-f17e-4fa8-9d9e-ebb82af6b5ba"},"vehicle_type_id":"4","last_reported":1716116784,"current_range_meters":14000,"station_id":"ce4bhbh2rcd13ifvqeqg","pricing_plan_id":"cebpf4jnsgd1na2vs0mg"},{"bike_id":"2a148bea-baa2-4bde-86ac-9fa09e8acfa3","system_id":"levelo_inurba_marseille","lat":43.30085,"lon":5.390856,"is_reserved":false,"is_disabled":false,"rental_uris":{"android":"levelo://app?vid=2a148bea-baa2-4bde-86ac-9fa09e8acfa3","ios":"levelo://app?vid=2a148bea-baa2-4bde-86ac-9fa09e8acfa3"},"vehicle_type_id":"4","last_reported":1716116784,"current_range_meters":24800,"station_id":"ce4bh192rcd13ifvqdb0","pricing_plan_id":"cebpf4jnsgd1na2vs0mg"},{"bike_id":"e2154395-8272-4fe0-90a0-0d2bff98a3a0","system_id":"levelo_inurba_marseille","lat":43.292311,"lon":5.360731,"is_reserved":false,"is_disabled":false,"rental_uris":{"android":"levelo://app?vid=e2154395-8272-4fe0-90a0-0d2bff98a3a0","ios":"levelo://app?vid=e2154395-8272-4fe0-90a0-0d2bff98a3a0"},"vehicle_type_id":"4","last_reported":1716116784,"current_range_meters":1600,"station_id":"ce4bhbh2rcd13ifvqeqg","pricing_plan_id":"cebpf4jnsgd1na2vs0mg"},{"bike_id":"1286852a-99bf-445d-9fe9-c3c4534a2fea","system_id":"levelo_inurba_marseille","lat":43.29181,"lon":5.37131,"is_reserved":false,"is_disabled":false,"rental_uris":{"android":"levelo://app?vid=1286852a-99bf-445d-9fe9-c3c4534a2fea","ios":"levelo://app?vid=1286852a-99bf-445d-9fe9-c3c4534a2fea"},"vehicle_type_id":"4","last_reported":1716116784,"current_range_meters":27200,"station_id":"ce4bha92rcd13ifvqeh0","pricing_plan_id":"cebpf4jnsgd1na2vs0mg"},{"bike_id":"1f3e7094-272b-4556-8d17-ae3505035d12","system_id":"levelo_inurba_marseille","lat":43.293009,"lon":5.374584,"is_reserved":false,"is_disabled":false,"rental_uris":{"android":"levelo://app?vid=1f3e7094-272b-4556-8d17-ae3505035d12","ios":"levelo://app?vid=1f3e7094-272b-4556-8d17-ae3505035d12"},"vehicle_type_id":"4","last_reported":1716116784,"current_range_meters":1200,"station_id":"ce4bgi12rcd13ifvqb70","pricing_plan_id":"cebpf4jnsgd1na2vs0mg"},{"bike_id":"cee364fc-dfd8-48c8-afd1-e0acf1f99f9d","system_id":"levelo_inurba_marseille","lat":43.292005,"lon":5.357875,"is_reserved":false,"is_disabled":false,"rental_uris":{"android":"levelo://app?vid=cee364fc-dfd8-48c8-afd1-e0acf1f99f9d","ios":"levelo://app?vid=cee364fc-dfd8-48c8-afd1-e0acf1f99f9d"},"vehicle_type_id":"4","last_reported":1716116784,"current_range_meters":20800,"station_id":"ce4bhb12rcd13ifvqel0","pricing_plan_id":"cebpf4jnsgd1na2vs0mg"},{"bike_id":"0f490b87-af7f-44aa-8c57-981499571ddd","system_id":"levelo_inurba_marseille","lat":43.29197,"lon":5.35802,"is_reserved":false,"is_disabled":false,"rental_uris":{"android":"levelo://app?vid=0f490b87-af7f-44aa-8c57-981499571ddd","ios":"levelo://app?vid=0f490b87-af7f-44aa-8c57-981499571ddd"},"vehicle_type_id":"4","last_reported":1716116784,"current_range_meters":29600,"station_id":"ce4bhb12rcd13ifvqel0","pricing_plan_id":"cebpf4jnsgd1na2vs0mg"},{"bike_id":"b55b5a50-6138-424e-9a41-6f385fbaa0c1","system_id":"levelo_inurba_marseille","lat":43.29194,"lon":5.35802,"is_reserved":false,"is_disabled":false,"rental_uris":{"android":"levelo://app?vid=b55b5a50-6138-424e-9a41-6f385fbaa0c1","ios":"levelo://app?vid=b55b5a50-6138-424e-9a41-6f385fbaa0c1"},"vehicle_type_id":"4","last_reported":1716116784,"current_range_meters":31200,"station_id":"ce4bhb12rcd13ifvqel0","pricing_plan_id":"cebpf4jnsgd1na2vs0mg"},{"bike_id":"1c151b78-1826-40dc-81dc-639f940b8397","system_id":"levelo_inurba_marseille","lat":43.30881,"lon":5.396387,"is_reserved":false,"is_disabled":false,"rental_uris":{"android":"levelo://app?vid=1c151b78-1826-40dc-81dc-639f940b8397","ios":"levelo://app?vid=1c151b78-1826-40dc-81dc-639f940b8397"},"vehicle_type_id":"4","last_reported":1716116784,"current_range_meters":0,"station_id":"ce4bh012rcd13ifvqcv0","pricing_plan_id":"cebpf4jnsgd1na2vs0mg"},{"bike_id":"be488931-e68c-4d98-bd77-87fe2de41753","system_id":"levelo_inurba_marseille","lat":43.29194,"lon":5.35797,"is_reserved":false,"is_disabled":false,"rental_uris":{"android":"levelo://app?vid=be488931-e68c-4d98-bd77-87fe2de41753","ios":"levelo://app?vid=be488931-e68c-4d98-bd77-87fe2de41753"},"vehicle_type_id":"4","last_reported":1716116784,"current_range_meters":22000,"station_id":"ce4bhb12rcd13ifvqel0","pricing_plan_id":"cebpf4jnsgd1na2vs0mg"},{"bike_id":"77293110-e162-43bb-9f2e-a9d5963fbeda","system_id":"levelo_inurba_marseille","lat":43.292005,"lon":5.357875,"is_reserved":false,"is_disabled":false,"rental_uris":{"android":"levelo://app?vid=77293110-e162-43bb-9f2e-a9d5963fbeda","ios":"levelo://app?vid=77293110-e162-43bb-9f2e-a9d5963fbeda"},"vehicle_type_id":"4","last_reported":1716116784,"current_range_meters":28800,"station_id":"ce4bhb12rcd13ifvqel0","pricing_plan_id":"cebpf4jnsgd1na2vs0mg"},{"bike_id":"1ac47c3d-5fc6-4967-97f1-7ce62991cd54","system_id":"levelo_inurba_marseille","lat":43.291908,"lon":5.357959,"is_reserved":false,"is_disabled":false,"rental_uris":{"android":"levelo://app?vid=1ac47c3d-5fc6-4967-97f1-7ce62991cd54","ios":"levelo://app?vid=1ac47c3d-5fc6-4967-97f1-7ce62991cd54"},"vehicle_type_id":"4","last_reported":1716116784,"current_range_meters":21600,"station_id":"ce4bhb12rcd13ifvqel0","pricing_plan_id":"cebpf4jnsgd1na2vs0mg"},{"bike_id":"dabee0ca-6844-4fb2-bcb0-ccbe3e639e30","system_id":"levelo_inurba_marseille","lat":43.29191,"lon":5.3579,"is_reserved":false,"is_disabled":false,"rental_uris":{"android":"levelo://app?vid=dabee0ca-6844-4fb2-bcb0-ccbe3e639e30","ios":"levelo://app?vid=dabee0ca-6844-4fb2-bcb0-ccbe3e639e30"},"vehicle_type_id":"4","last_reported":1716116784,"current_range_meters":18400,"station_id":"ce4bhb12rcd13ifvqel0","pricing_plan_id":"cebpf4jnsgd1na2vs0mg"},{"bike_id":"118d00c5-4703-4463-838c-43882fad5ee3","system_id":"levelo_inurba_marseille","lat":43.309047,"lon":5.396551,"is_reserved":false,"is_disabled":false,"rental_uris":{"android":"levelo://app?vid=118d00c5-4703-4463-838c-43882fad5ee3","ios":"levelo://app?vid=118d00c5-4703-4463-838c-43882fad5ee3"},"vehicle_type_id":"4","last_reported":1716116784,"current_range_meters":23600,"station_id":"ce4bh012rcd13ifvqcv0","pricing_plan_id":"cebpf4jnsgd1na2vs0mg"},{"bike_id":"1862a557-0188-47eb-bafe-29539ee33618","system_id":"levelo_inurba_marseille","lat":43.309038,"lon":5.396546,"is_reserved":false,"is_disabled":false,"rental_uris":{"android":"levelo://app?vid=1862a557-0188-47eb-bafe-29539ee33618","ios":"levelo://app?vid=1862a557-0188-47eb-bafe-29539ee33618"},"vehicle_type_id":"4","last_reported":1716116784,"current_range_meters":11600,"station_id":"ce4bh012rcd13ifvqcv0","pricing_plan_id":"cebpf4jnsgd1na2vs0mg"},{"bike_id":"47625bf2-386c-46d9-a431-23f5512ba7b6","system_id":"levelo_inurba_marseille","lat":43.29181,"lon":5.35799,"is_reserved":false,"is_disabled":false,"rental_uris":{"android":"levelo://app?vid=47625bf2-386c-46d9-a431-23f5512ba7b6","ios":"levelo://app?vid=47625bf2-386c-46d9-a431-23f5512ba7b6"},"vehicle_type_id":"4","last_reported":1716116784,"current_range_meters":22000,"station_id":"ce4bhb12rcd13ifvqel0","pricing_plan_id":"cebpf4jnsgd1na2vs0mg"},{"bike_id":"89b5c133-dd2f-466e-b9aa-55db7403a976","system_id":"levelo_inurba_marseille","lat":43.29181,"lon":5.35784,"is_reserved":false,"is_disabled":false,"rental_uris":{"android":"levelo://app?vid=89b5c133-dd2f-466e-b9aa-55db7403a976","ios":"levelo://app?vid=89b5c133-dd2f-466e-b9aa-55db7403a976"},"vehicle_type_id":"4","last_reported":1716116784,"current_range_meters":30000,"station_id":"ce4bhb12rcd13ifvqel0","pricing_plan_id":"cebpf4jnsgd1na2vs0mg"},{"bike_id":"24968520-0154-4e6b-a13c-f855eb34a37e","system_id":"levelo_inurba_marseille","lat":43.286593,"lon":5.363346,"is_reserved":false,"is_disabled":false,"rental_uris":{"android":"levelo://app?vid=24968520-0154-4e6b-a13c-f855eb34a37e","ios":"levelo://app?vid=24968520-0154-4e6b-a13c-f855eb34a37e"},"vehicle_type_id":"4","last_reported":1716116784,"current_range_meters":2800,"station_id":"ce4bhah2rcd13ifvqej0","pricing_plan_id":"cebpf4jnsgd1na2vs0mg"},{"bike_id":"4e718ff8-4340-4d2d-b634-7701e67e4be8","system_id":"levelo_inurba_marseille","lat":43.290624,"lon":5.359245,"is_reserved":false,"is_disabled":false,"rental_uris":{"android":"levelo://app?vid=4e718ff8-4340-4d2d-b634-7701e67e4be8","ios":"levelo://app?vid=4e718ff8-4340-4d2d-b634-7701e67e4be8"},"vehicle_type_id":"4","last_reported":1716116784,"current_range_meters":0,"station_id":"ce4bha92rcd13ifvqeg0","pricing_plan_id":"cebpf4jnsgd1na2vs0mg"},{"bike_id":"7ee7486d-f9ed-45c5-af8e-b14497d414ff","system_id":"levelo_inurba_marseille","lat":43.290624,"lon":5.359245,"is_reserved":false,"is_disabled":false,"rental_uris":{"android":"levelo://app?vid=7ee7486d-f9ed-45c5-af8e-b14497d414ff","ios":"levelo://app?vid=7ee7486d-f9ed-45c5-af8e-b14497d414ff"},"vehicle_type_id":"4","last_reported":1716116784,"current_range_meters":26800,"station_id":"ce4bha92rcd13ifvqeg0","pricing_plan_id":"cebpf4jnsgd1na2vs0mg"},{"bike_id":"3ccf7d4c-263d-4521-a89a-4ed3ed16044c","system_id":"levelo_inurba_marseille","lat":43.290631,"lon":5.359244,"is_reserved":false,"is_disabled":false,"rental_uris":{"android":"levelo://app?vid=3ccf7d4c-263d-4521-a89a-4ed3ed16044c","ios":"levelo://app?vid=3ccf7d4c-263d-4521-a89a-4ed3ed16044c"},"vehicle_type_id":"4","last_reported":1716116784,"current_range_meters":24800,"station_id":"ce4bha92rcd13ifvqeg0","pricing_plan_id":"cebpf4jnsgd1na2vs0mg"},{"bike_id":"858100e4-0a08-41a6-bd45-b1723f056148","system_id":"levelo_inurba_marseille","lat":43.290367,"lon":5.359123,"is_reserved":false,"is_disabled":false,"rental_uris":{"android":"levelo://app?vid=858100e4-0a08-41a6-bd45-b1723f056148","ios":"levelo://app?vid=858100e4-0a08-41a6-bd45-b1723f056148"},"vehicle_type_id":"4","last_reported":1716116784,"current_range_meters":22400,"station_id":"ce4bha92rcd13ifvqeg0","pricing_plan_id":"cebpf4jnsgd1na2vs0mg"},{"bike_id":"dfb92f2a-0650-4b24-84ba-c1a7aa6d1978","system_id":"levelo_inurba_marseille","lat":43.294162,"lon":5.386292,"is_reserved":false,"is_disabled":false,"rental_uris":{"android":"levelo://app?vid=dfb92f2a-0650-4b24-84ba-c1a7aa6d1978","ios":"levelo://app?vid=dfb92f2a-0650-4b24-84ba-c1a7aa6d1978"},"vehicle_type_id":"4","last_reported":1716116784,"current_range_meters":0,"station_id":"ce4bh2h2rcd13ifvqdh0","pricing_plan_id":"cebpf4jnsgd1na2vs0mg"},{"bike_id":"35aee639-7efe-4781-9b17-6f6cbf55c0b2","system_id":"levelo_inurba_marseille","lat":43.294153,"lon":5.386305,"is_reserved":false,"is_disabled":false,"rental_uris":{"android":"levelo://app?vid=35aee639-7efe-4781-9b17-6f6cbf55c0b2","ios":"levelo://app?vid=35aee639-7efe-4781-9b17-6f6cbf55c0b2"},"vehicle_type_id":"4","last_reported":1716116784,"current_range_meters":13600,"station_id":"ce4bh2h2rcd13ifvqdh0","pricing_plan_id":"cebpf4jnsgd1na2vs0mg"},{"bike_id":"d157aad7-b196-4105-bb3d-9b5358be7cf8","system_id":"levelo_inurba_marseille","lat":43.289184,"lon":5.366408,"is_reserved":false,"is_disabled":false,"rental_uris":{"android":"levelo://app?vid=d157aad7-b196-4105-bb3d-9b5358be7cf8","ios":"levelo://app?vid=d157aad7-b196-4105-bb3d-9b5358be7cf8"},"vehicle_type_id":"4","last_reported":1716116784,"current_range_meters":23200,"station_id":"ce4bhap2rcd13ifvqek0","pricing_plan_id":"cebpf4jnsgd1na2vs0mg"},{"bike_id":"7171ea8d-c5b7-4e2b-834b-fff7e808cce6","system_id":"levelo_inurba_marseille","lat":43.289349,"lon":5.364005,"is_reserved":false,"is_disabled":false,"rental_uris":{"android":"levelo://app?vid=7171ea8d-c5b7-4e2b-834b-fff7e808cce6","ios":"levelo://app?vid=7171ea8d-c5b7-4e2b-834b-fff7e808cce6"},"vehicle_type_id":"4","last_reported":1716116784,"current_range_meters":23200,"station_id":"ce4bhc92rcd13ifvqetg","pricing_plan_id":"cebpf4jnsgd1na2vs0mg"},{"bike_id":"6cdeaf7f-8845-4a86-b9ae-3bdc911a28b4","system_id":"levelo_inurba_marseille","lat":43.289468,"lon":5.363719,"is_reserved":false,"is_disabled":false,"rental_uris":{"android":"levelo://app?vid=6cdeaf7f-8845-4a86-b9ae-3bdc911a28b4","ios":"levelo://app?vid=6cdeaf7f-8845-4a86-b9ae-3bdc911a28b4"},"vehicle_type_id":"4","last_reported":1716116784,"current_range_meters":30800,"station_id":"ce4bhc92rcd13ifvqetg","pricing_plan_id":"cebpf4jnsgd1na2vs0mg"},{"bike_id":"746b8704-0987-45db-9709-f1ac11f3115e","system_id":"levelo_inurba_marseille","lat":43.304274,"lon":5.397513,"is_reserved":false,"is_disabled":false,"rental_uris":{"android":"levelo://app?vid=746b8704-0987-45db-9709-f1ac11f3115e","ios":"levelo://app?vid=746b8704-0987-45db-9709-f1ac11f3115e"},"vehicle_type_id":"4","last_reported":1716116784,"current_range_meters":1200,"station_id":"ce4bh092rcd13ifvqd20","pricing_plan_id":"cebpf4jnsgd1na2vs0mg"},{"bike_id":"8d38e0c5-2ab3-403c-9cdc-5e56537fc461","system_id":"levelo_inurba_marseille","lat":43.292644,"lon":5.384257,"is_reserved":false,"is_disabled":false,"rental_uris":{"android":"levelo://app?vid=8d38e0c5-2ab3-403c-9cdc-5e56537fc461","ios":"levelo://app?vid=8d38e0c5-2ab3-403c-9cdc-5e56537fc461"},"vehicle_type_id":"4","last_reported":1716116784,"current_range_meters":22400,"station_id":"ce4bh692rcd13ifvqea0","pricing_plan_id":"cebpf4jnsgd1na2vs0mg"},{"bike_id":"2f4d9591-6f1b-4173-b369-92aaf71690f5","system_id":"levelo_inurba_marseille","lat":43.29009,"lon":5.35618,"is_reserved":false,"is_disabled":false,"rental_uris":{"android":"levelo://app?vid=2f4d9591-6f1b-4173-b369-92aaf71690f5","ios":"levelo://app?vid=2f4d9591-6f1b-4173-b369-92aaf71690f5"},"vehicle_type_id":"4","last_reported":1716116784,"current_range_meters":30000,"station_id":"ce4bhb92rcd13ifvqen0","pricing_plan_id":"cebpf4jnsgd1na2vs0mg"},{"bike_id":"a2a865b6-ca14-49c7-b274-dcd8bef652bc","system_id":"levelo_inurba_marseille","lat":43.29007,"lon":5.35613,"is_reserved":false,"is_disabled":false,"rental_uris":{"android":"levelo://app?vid=a2a865b6-ca14-49c7-b274-dcd8bef652bc","ios":"levelo://app?vid=a2a865b6-ca14-49c7-b274-dcd8bef652bc"},"vehicle_type_id":"4","last_reported":1716116784,"current_range_meters":24800,"station_id":"ce4bgs12rcd13ifvqcag","pricing_plan_id":"cebpf4jnsgd1na2vs0mg"},{"bike_id":"558a8235-848c-40b6-b52e-17052d255d9d","system_id":"levelo_inurba_marseille","lat":43.290104,"lon":5.356111,"is_reserved":false,"is_disabled":false,"rental_uris":{"android":"levelo://app?vid=558a8235-848c-40b6-b52e-17052d255d9d","ios":"levelo://app?vid=558a8235-848c-40b6-b52e-17052d255d9d"},"vehicle_type_id":"4","last_reported":1716116784,"current_range_meters":25600,"station_id":"ce4bhb92rcd13ifvqen0","pricing_plan_id":"cebpf4jnsgd1na2vs0mg"},{"bike_id":"3d1eebc9-230a-49f4-8c96-ec559dfb7f6f","system_id":"levelo_inurba_marseille","lat":43.295169,"lon":5.390426,"is_reserved":false,"is_disabled":false,"rental_uris":{"android":"levelo://app?vid=3d1eebc9-230a-49f4-8c96-ec559dfb7f6f","ios":"levelo://app?vid=3d1eebc9-230a-49f4-8c96-ec559dfb7f6f"},"vehicle_type_id":"4","last_reported":1716116784,"current_range_meters":0,"station_id":"ce4bh3p2rcd13ifvqdp0","pricing_plan_id":"cebpf4jnsgd1na2vs0mg"},{"bike_id":"002c40b9-5017-4964-bd08-24a568a9502f","system_id":"levelo_inurba_marseille","lat":43.2979,"lon":5.39353,"is_reserved":false,"is_disabled":false,"rental_uris":{"android":"levelo://app?vid=002c40b9-5017-4964-bd08-24a568a9502f","ios":"levelo://app?vid=002c40b9-5017-4964-bd08-24a568a9502f"},"vehicle_type_id":"4","last_reported":1716116784,"current_range_meters":9600,"station_id":"chh1huq6cuj3fo74tm60","pricing_plan_id":"cebpf4jnsgd1na2vs0mg"},{"bike_id":"9ae0059e-3066-4625-abdc-f2901f53c50b","system_id":"levelo_inurba_marseille","lat":43.295169,"lon":5.390426,"is_reserved":false,"is_disabled":false,"rental_uris":{"android":"levelo://app?vid=9ae0059e-3066-4625-abdc-f2901f53c50b","ios":"levelo://app?vid=9ae0059e-3066-4625-abdc-f2901f53c50b"},"vehicle_type_id":"4","last_reported":1716116784,"current_range_meters":23600,"station_id":"ce4bh3p2rcd13ifvqdp0","pricing_plan_id":"cebpf4jnsgd1na2vs0mg"},{"bike_id":"8931e82c-8668-49fc-8dcc-eec7e9bea515","system_id":"levelo_inurba_marseille","lat":43.330442,"lon":5.389148,"is_reserved":false,"is_disabled":false,"rental_uris":{"android":"levelo://app?vid=8931e82c-8668-49fc-8dcc-eec7e9bea515","ios":"levelo://app?vid=8931e82c-8668-49fc-8dcc-eec7e9bea515"},"vehicle_type_id":"4","last_reported":1716116784,"current_range_meters":24400,"station_id":"ce4bhr92rcd13ifvqhrg","pricing_plan_id":"cebpf4jnsgd1na2vs0mg"},{"bike_id":"3a184be6-58f3-4b82-aed6-7f21bfb2fb06","system_id":"levelo_inurba_marseille","lat":43.295169,"lon":5.390426,"is_reserved":false,"is_disabled":false,"rental_uris":{"android":"levelo://app?vid=3a184be6-58f3-4b82-aed6-7f21bfb2fb06","ios":"levelo://app?vid=3a184be6-58f3-4b82-aed6-7f21bfb2fb06"},"vehicle_type_id":"4","last_reported":1716116784,"current_range_meters":400,"station_id":"ce4bh3p2rcd13ifvqdp0","pricing_plan_id":"cebpf4jnsgd1na2vs0mg"},{"bike_id":"c0379b48-3c34-4944-919d-7ec1b50b4b47","system_id":"levelo_inurba_marseille","lat":43.289743,"lon":5.378304,"is_reserved":false,"is_disabled":false,"rental_uris":{"android":"levelo://app?vid=c0379b48-3c34-4944-919d-7ec1b50b4b47","ios":"levelo://app?vid=c0379b48-3c34-4944-919d-7ec1b50b4b47"},"vehicle_type_id":"4","last_reported":1716116784,"current_range_meters":11600,"station_id":"ce4bh9p2rcd13ifvqed0","pricing_plan_id":"cebpf4jnsgd1na2vs0mg"},{"bike_id":"9aaea9e5-75d9-4831-bfbe-9797c1bb6fbe","system_id":"levelo_inurba_marseille","lat":43.290094,"lon":5.381264,"is_reserved":false,"is_disabled":false,"rental_uris":{"android":"levelo://app?vid=9aaea9e5-75d9-4831-bfbe-9797c1bb6fbe","ios":"levelo://app?vid=9aaea9e5-75d9-4831-bfbe-9797c1bb6fbe"},"vehicle_type_id":"4","last_reported":1716116784,"current_range_meters":9200,"station_id":"ce4bh4p2rcd13ifvqe1g","pricing_plan_id":"cebpf4jnsgd1na2vs0mg"},{"bike_id":"8eea9216-f022-4c79-b91e-71700f454204","system_id":"levelo_inurba_marseille","lat":43.29015,"lon":5.38121,"is_reserved":false,"is_disabled":false,"rental_uris":{"android":"levelo://app?vid=8eea9216-f022-4c79-b91e-71700f454204","ios":"levelo://app?vid=8eea9216-f022-4c79-b91e-71700f454204"},"vehicle_type_id":"4","last_reported":1716116784,"current_range_meters":28000,"station_id":"ce4bh4p2rcd13ifvqe1g","pricing_plan_id":"cebpf4jnsgd1na2vs0mg"},{"bike_id":"83152bfc-5baf-471b-aefc-51f956b5fd40","system_id":"levelo_inurba_marseille","lat":43.29017,"lon":5.38138,"is_reserved":false,"is_disabled":false,"rental_uris":{"android":"levelo://app?vid=83152bfc-5baf-471b-aefc-51f956b5fd40","ios":"levelo://app?vid=83152bfc-5baf-471b-aefc-51f956b5fd40"},"vehicle_type_id":"4","last_reported":1716116784,"current_range_meters":31200,"station_id":"ce4bh4p2rcd13ifvqe1g","pricing_plan_id":"cebpf4jnsgd1na2vs0mg"},{"bike_id":"b2119436-9d8e-4e9d-a76b-c51c94e507b3","system_id":"levelo_inurba_marseille","lat":43.290184,"lon":5.381429,"is_reserved":false,"is_disabled":false,"rental_uris":{"android":"levelo://app?vid=b2119436-9d8e-4e9d-a76b-c51c94e507b3","ios":"levelo://app?vid=b2119436-9d8e-4e9d-a76b-c51c94e507b3"},"vehicle_type_id":"4","last_reported":1716116784,"current_range_meters":31200,"station_id":"ce4bh4p2rcd13ifvqe1g","pricing_plan_id":"cebpf4jnsgd1na2vs0mg"},{"bike_id":"94143fe8-9fd0-427a-916b-16921cf2188b","system_id":"levelo_inurba_marseille","lat":43.28856,"lon":5.358371,"is_reserved":false,"is_disabled":false,"rental_uris":{"android":"levelo://app?vid=94143fe8-9fd0-427a-916b-16921cf2188b","ios":"levelo://app?vid=94143fe8-9fd0-427a-916b-16921cf2188b"},"vehicle_type_id":"4","last_reported":1716116784,"current_range_meters":18400,"station_id":"ce4bhb12rcd13ifvqem0","pricing_plan_id":"cebpf4jnsgd1na2vs0mg"},{"bike_id":"df012b71-6213-419b-88a4-e36f69a040cf","system_id":"levelo_inurba_marseille","lat":43.309371,"lon":5.401449,"is_reserved":false,"is_disabled":false,"rental_uris":{"android":"levelo://app?vid=df012b71-6213-419b-88a4-e36f69a040cf","ios":"levelo://app?vid=df012b71-6213-419b-88a4-e36f69a040cf"},"vehicle_type_id":"4","last_reported":1716116784,"current_range_meters":19200,"station_id":"ce4bgvp2rcd13ifvqct0","pricing_plan_id":"cebpf4jnsgd1na2vs0mg"},{"bike_id":"4fa81c91-a39d-4160-93d7-b314e9fd0ee8","system_id":"levelo_inurba_marseille","lat":43.33745,"lon":5.37453,"is_reserved":false,"is_disabled":false,"rental_uris":{"android":"levelo://app?vid=4fa81c91-a39d-4160-93d7-b314e9fd0ee8","ios":"levelo://app?vid=4fa81c91-a39d-4160-93d7-b314e9fd0ee8"},"vehicle_type_id":"4","last_reported":1716116784,"current_range_meters":10000,"station_id":"","pricing_plan_id":"cebpf4jnsgd1na2vs0mg"},{"bike_id":"8fc6ebe8-68ab-4991-9aa7-185ef6592e71","system_id":"levelo_inurba_marseille","lat":43.337568,"lon":5.37449,"is_reserved":false,"is_disabled":false,"rental_uris":{"android":"levelo://app?vid=8fc6ebe8-68ab-4991-9aa7-185ef6592e71","ios":"levelo://app?vid=8fc6ebe8-68ab-4991-9aa7-185ef6592e71"},"vehicle_type_id":"4","last_reported":1716116784,"current_range_meters":8400,"station_id":"","pricing_plan_id":"cebpf4jnsgd1na2vs0mg"},{"bike_id":"91d9714b-b35f-47ce-8f34-022bf351236f","system_id":"levelo_inurba_marseille","lat":43.337642,"lon":5.374393,"is_reserved":false,"is_disabled":false,"rental_uris":{"android":"levelo://app?vid=91d9714b-b35f-47ce-8f34-022bf351236f","ios":"levelo://app?vid=91d9714b-b35f-47ce-8f34-022bf351236f"},"vehicle_type_id":"4","last_reported":1716116784,"current_range_meters":17600,"station_id":"","pricing_plan_id":"cebpf4jnsgd1na2vs0mg"},{"bike_id":"d8de2bf5-c1bb-4590-a977-795c4fb93e39","system_id":"levelo_inurba_marseille","lat":43.301117,"lon":5.398795,"is_reserved":false,"is_disabled":false,"rental_uris":{"android":"levelo://app?vid=d8de2bf5-c1bb-4590-a977-795c4fb93e39","ios":"levelo://app?vid=d8de2bf5-c1bb-4590-a977-795c4fb93e39"},"vehicle_type_id":"4","last_reported":1716116784,"current_range_meters":11200,"station_id":"ce4bh0h2rcd13ifvqd40","pricing_plan_id":"cebpf4jnsgd1na2vs0mg"},{"bike_id":"d9e2ab39-f729-4b98-ab30-e5096eafd4c8","system_id":"levelo_inurba_marseille","lat":43.301117,"lon":5.398795,"is_reserved":false,"is_disabled":false,"rental_uris":{"android":"levelo://app?vid=d9e2ab39-f729-4b98-ab30-e5096eafd4c8","ios":"levelo://app?vid=d9e2ab39-f729-4b98-ab30-e5096eafd4c8"},"vehicle_type_id":"4","last_reported":1716116784,"current_range_meters":5200,"station_id":"ce4bh0h2rcd13ifvqd40","pricing_plan_id":"cebpf4jnsgd1na2vs0mg"},{"bike_id":"4540fb43-c43b-44f9-aa18-ad1e96003438","system_id":"levelo_inurba_marseille","lat":43.28727,"lon":5.36078,"is_reserved":false,"is_disabled":false,"rental_uris":{"android":"levelo://app?vid=4540fb43-c43b-44f9-aa18-ad1e96003438","ios":"levelo://app?vid=4540fb43-c43b-44f9-aa18-ad1e96003438"},"vehicle_type_id":"4","last_reported":1716116784,"current_range_meters":20400,"station_id":"cki0cbj6b192h4jlfktg","pricing_plan_id":"cebpf4jnsgd1na2vs0mg"},{"bike_id":"71f674c4-8550-4369-87e6-f62c08580cab","system_id":"levelo_inurba_marseille","lat":43.28727,"lon":5.36078,"is_reserved":false,"is_disabled":false,"rental_uris":{"android":"levelo://app?vid=71f674c4-8550-4369-87e6-f62c08580cab","ios":"levelo://app?vid=71f674c4-8550-4369-87e6-f62c08580cab"},"vehicle_type_id":"4","last_reported":1716116784,"current_range_meters":14800,"station_id":"cki0cbj6b192h4jlfktg","pricing_plan_id":"cebpf4jnsgd1na2vs0mg"},{"bike_id":"a60750de-d16f-4ece-89f6-2c96d2dd5a51","system_id":"levelo_inurba_marseille","lat":43.28727,"lon":5.36078,"is_reserved":false,"is_disabled":false,"rental_uris":{"android":"levelo://app?vid=a60750de-d16f-4ece-89f6-2c96d2dd5a51","ios":"levelo://app?vid=a60750de-d16f-4ece-89f6-2c96d2dd5a51"},"vehicle_type_id":"4","last_reported":1716116784,"current_range_meters":8800,"station_id":"cki0cbj6b192h4jlfktg","pricing_plan_id":"cebpf4jnsgd1na2vs0mg"},{"bike_id":"8fd10f5f-68ab-405b-a05e-8f3b2059dc92","system_id":"levelo_inurba_marseille","lat":43.29875,"lon":5.39723,"is_reserved":false,"is_disabled":false,"rental_uris":{"android":"levelo://app?vid=8fd10f5f-68ab-405b-a05e-8f3b2059dc92","ios":"levelo://app?vid=8fd10f5f-68ab-405b-a05e-8f3b2059dc92"},"vehicle_type_id":"4","last_reported":1716116784,"current_range_meters":21600,"station_id":"ce4bh0h2rcd13ifvqd50","pricing_plan_id":"cebpf4jnsgd1na2vs0mg"},{"bike_id":"9a979db7-4e40-42f3-b929-1d9514931da3","system_id":"levelo_inurba_marseille","lat":43.298681,"lon":5.397225,"is_reserved":false,"is_disabled":false,"rental_uris":{"android":"levelo://app?vid=9a979db7-4e40-42f3-b929-1d9514931da3","ios":"levelo://app?vid=9a979db7-4e40-42f3-b929-1d9514931da3"},"vehicle_type_id":"4","last_reported":1716116784,"current_range_meters":0,"station_id":"ce4bh0h2rcd13ifvqd50","pricing_plan_id":"cebpf4jnsgd1na2vs0mg"},{"bike_id":"36fcd3f8-b362-45e8-908c-47a419397abf","system_id":"levelo_inurba_marseille","lat":43.286961,"lon":5.373785,"is_reserved":false,"is_disabled":false,"rental_uris":{"android":"levelo://app?vid=36fcd3f8-b362-45e8-908c-47a419397abf","ios":"levelo://app?vid=36fcd3f8-b362-45e8-908c-47a419397abf"},"vehicle_type_id":"4","last_reported":1716116784,"current_range_meters":16000,"station_id":"ce4bh3p2rcd13ifvqdq0","pricing_plan_id":"cebpf4jnsgd1na2vs0mg"},{"bike_id":"aa20852e-007a-49cc-8710-afdddfc4ed90","system_id":"levelo_inurba_marseille","lat":43.28663,"lon":5.36343,"is_reserved":false,"is_disabled":false,"rental_uris":{"android":"levelo://app?vid=aa20852e-007a-49cc-8710-afdddfc4ed90","ios":"levelo://app?vid=aa20852e-007a-49cc-8710-afdddfc4ed90"},"vehicle_type_id":"4","last_reported":1716116784,"current_range_meters":2800,"station_id":"ce4bhah2rcd13ifvqej0","pricing_plan_id":"cebpf4jnsgd1na2vs0mg"},{"bike_id":"29d4b311-e383-4260-95d4-f322c5509b76","system_id":"levelo_inurba_marseille","lat":43.298681,"lon":5.397225,"is_reserved":false,"is_disabled":false,"rental_uris":{"android":"levelo://app?vid=29d4b311-e383-4260-95d4-f322c5509b76","ios":"levelo://app?vid=29d4b311-e383-4260-95d4-f322c5509b76"},"vehicle_type_id":"4","last_reported":1716116784,"current_range_meters":21200,"station_id":"ce4bh0h2rcd13ifvqd50","pricing_plan_id":"cebpf4jnsgd1na2vs0mg"},{"bike_id":"2944ee93-ef5d-4ebc-8396-49d4bab7285a","system_id":"levelo_inurba_marseille","lat":43.286961,"lon":5.373785,"is_reserved":false,"is_disabled":false,"rental_uris":{"android":"levelo://app?vid=2944ee93-ef5d-4ebc-8396-49d4bab7285a","ios":"levelo://app?vid=2944ee93-ef5d-4ebc-8396-49d4bab7285a"},"vehicle_type_id":"4","last_reported":1716116784,"current_range_meters":15600,"station_id":"ce4bh3p2rcd13ifvqdq0","pricing_plan_id":"cebpf4jnsgd1na2vs0mg"},{"bike_id":"8c0b6092-4336-4037-affe-bed83b704c5f","system_id":"levelo_inurba_marseille","lat":43.286961,"lon":5.373785,"is_reserved":false,"is_disabled":false,"rental_uris":{"android":"levelo://app?vid=8c0b6092-4336-4037-affe-bed83b704c5f","ios":"levelo://app?vid=8c0b6092-4336-4037-affe-bed83b704c5f"},"vehicle_type_id":"4","last_reported":1716116784,"current_range_meters":31200,"station_id":"ce4bh3p2rcd13ifvqdq0","pricing_plan_id":"cebpf4jnsgd1na2vs0mg"},{"bike_id":"af4b86b7-6366-4cea-89bc-5b48dbc9841b","system_id":"levelo_inurba_marseille","lat":43.289307,"lon":5.38406,"is_reserved":false,"is_disabled":false,"rental_uris":{"android":"levelo://app?vid=af4b86b7-6366-4cea-89bc-5b48dbc9841b","ios":"levelo://app?vid=af4b86b7-6366-4cea-89bc-5b48dbc9841b"},"vehicle_type_id":"4","last_reported":1716116784,"current_range_meters":0,"station_id":"ce4bh612rcd13ifvqe6g","pricing_plan_id":"cebpf4jnsgd1na2vs0mg"},{"bike_id":"d2db513b-0b24-4fc4-b16b-fc20b50167ea","system_id":"levelo_inurba_marseille","lat":43.282744,"lon":5.350533,"is_reserved":false,"is_disabled":false,"rental_uris":{"android":"levelo://app?vid=d2db513b-0b24-4fc4-b16b-fc20b50167ea","ios":"levelo://app?vid=d2db513b-0b24-4fc4-b16b-fc20b50167ea"},"vehicle_type_id":"4","last_reported":1716116784,"current_range_meters":16000,"station_id":"ce4bhbp2rcd13ifvqerg","pricing_plan_id":"cebpf4jnsgd1na2vs0mg"},{"bike_id":"88de02f2-05ec-4754-a4d6-40f89a72a817","system_id":"levelo_inurba_marseille","lat":43.302759,"lon":5.400793,"is_reserved":false,"is_disabled":false,"rental_uris":{"android":"levelo://app?vid=88de02f2-05ec-4754-a4d6-40f89a72a817","ios":"levelo://app?vid=88de02f2-05ec-4754-a4d6-40f89a72a817"},"vehicle_type_id":"4","last_reported":1716116784,"current_range_meters":25600,"station_id":"ce4bgvh2rcd13ifvqcs0","pricing_plan_id":"cebpf4jnsgd1na2vs0mg"},{"bike_id":"2ce3f21c-695f-4527-aa52-7421ab0c7ebe","system_id":"levelo_inurba_marseille","lat":43.302759,"lon":5.400793,"is_reserved":false,"is_disabled":false,"rental_uris":{"android":"levelo://app?vid=2ce3f21c-695f-4527-aa52-7421ab0c7ebe","ios":"levelo://app?vid=2ce3f21c-695f-4527-aa52-7421ab0c7ebe"},"vehicle_type_id":"4","last_reported":1716116784,"current_range_meters":28800,"station_id":"ce4bgvh2rcd13ifvqcs0","pricing_plan_id":"cebpf4jnsgd1na2vs0mg"},{"bike_id":"1fa11121-aad4-404f-a34a-38150c107b8b","system_id":"levelo_inurba_marseille","lat":43.290345,"lon":5.38646,"is_reserved":false,"is_disabled":false,"rental_uris":{"android":"levelo://app?vid=1fa11121-aad4-404f-a34a-38150c107b8b","ios":"levelo://app?vid=1fa11121-aad4-404f-a34a-38150c107b8b"},"vehicle_type_id":"4","last_reported":1716116784,"current_range_meters":0,"station_id":"ce4bh4p2rcd13ifvqe0g","pricing_plan_id":"cebpf4jnsgd1na2vs0mg"},{"bike_id":"dbfa50a5-1a38-4095-9bc3-4576b403c6b1","system_id":"levelo_inurba_marseille","lat":43.290345,"lon":5.38646,"is_reserved":false,"is_disabled":false,"rental_uris":{"android":"levelo://app?vid=dbfa50a5-1a38-4095-9bc3-4576b403c6b1","ios":"levelo://app?vid=dbfa50a5-1a38-4095-9bc3-4576b403c6b1"},"vehicle_type_id":"4","last_reported":1716116784,"current_range_meters":0,"station_id":"ce4bh4p2rcd13ifvqe0g","pricing_plan_id":"cebpf4jnsgd1na2vs0mg"},{"bike_id":"f3dcbddc-aaf2-4a67-8760-5d827de82d39","system_id":"levelo_inurba_marseille","lat":43.316861,"lon":5.404589,"is_reserved":false,"is_disabled":false,"rental_uris":{"android":"levelo://app?vid=f3dcbddc-aaf2-4a67-8760-5d827de82d39","ios":"levelo://app?vid=f3dcbddc-aaf2-4a67-8760-5d827de82d39"},"vehicle_type_id":"4","last_reported":1716116784,"current_range_meters":2800,"station_id":"ce4bh012rcd13ifvqd00","pricing_plan_id":"cebpf4jnsgd1na2vs0mg"},{"bike_id":"16e7929a-ce5a-4fbd-b9c9-99783f9060f9","system_id":"levelo_inurba_marseille","lat":43.316947,"lon":5.404639,"is_reserved":false,"is_disabled":false,"rental_uris":{"android":"levelo://app?vid=16e7929a-ce5a-4fbd-b9c9-99783f9060f9","ios":"levelo://app?vid=16e7929a-ce5a-4fbd-b9c9-99783f9060f9"},"vehicle_type_id":"4","last_reported":1716116784,"current_range_meters":6800,"station_id":"ce4bh012rcd13ifvqd00","pricing_plan_id":"cebpf4jnsgd1na2vs0mg"},{"bike_id":"60877f29-3dcd-4de9-8300-2966d8059c41","system_id":"levelo_inurba_marseille","lat":43.316821,"lon":5.404737,"is_reserved":false,"is_disabled":false,"rental_uris":{"android":"levelo://app?vid=60877f29-3dcd-4de9-8300-2966d8059c41","ios":"levelo://app?vid=60877f29-3dcd-4de9-8300-2966d8059c41"},"vehicle_type_id":"4","last_reported":1716116784,"current_range_meters":15200,"station_id":"ce4bh012rcd13ifvqd00","pricing_plan_id":"cebpf4jnsgd1na2vs0mg"},{"bike_id":"4afac2b8-f4b1-477e-89fa-7b8cc89f1d0a","system_id":"levelo_inurba_marseille","lat":43.316821,"lon":5.404737,"is_reserved":false,"is_disabled":false,"rental_uris":{"android":"levelo://app?vid=4afac2b8-f4b1-477e-89fa-7b8cc89f1d0a","ios":"levelo://app?vid=4afac2b8-f4b1-477e-89fa-7b8cc89f1d0a"},"vehicle_type_id":"4","last_reported":1716116784,"current_range_meters":29600,"station_id":"ce4bh012rcd13ifvqd00","pricing_plan_id":"cebpf4jnsgd1na2vs0mg"},{"bike_id":"0fd3e518-0249-46dd-bcbf-12a606328563","system_id":"levelo_inurba_marseille","lat":43.316821,"lon":5.404737,"is_reserved":false,"is_disabled":false,"rental_uris":{"android":"levelo://app?vid=0fd3e518-0249-46dd-bcbf-12a606328563","ios":"levelo://app?vid=0fd3e518-0249-46dd-bcbf-12a606328563"},"vehicle_type_id":"4","last_reported":1716116784,"current_range_meters":19600,"station_id":"ce4bh012rcd13ifvqd00","pricing_plan_id":"cebpf4jnsgd1na2vs0mg"},{"bike_id":"f67763a0-82a8-4bdb-9dcf-03a79428c85f","system_id":"levelo_inurba_marseille","lat":43.316821,"lon":5.404737,"is_reserved":false,"is_disabled":false,"rental_uris":{"android":"levelo://app?vid=f67763a0-82a8-4bdb-9dcf-03a79428c85f","ios":"levelo://app?vid=f67763a0-82a8-4bdb-9dcf-03a79428c85f"},"vehicle_type_id":"4","last_reported":1716116784,"current_range_meters":13600,"station_id":"ce4bh012rcd13ifvqd00","pricing_plan_id":"cebpf4jnsgd1na2vs0mg"},{"bike_id":"ed17bbf5-7c1b-424d-8b06-6398b99a5dd2","system_id":"levelo_inurba_marseille","lat":43.316828,"lon":5.404723,"is_reserved":false,"is_disabled":false,"rental_uris":{"android":"levelo://app?vid=ed17bbf5-7c1b-424d-8b06-6398b99a5dd2","ios":"levelo://app?vid=ed17bbf5-7c1b-424d-8b06-6398b99a5dd2"},"vehicle_type_id":"4","last_reported":1716116784,"current_range_meters":23600,"station_id":"ce4bh012rcd13ifvqd00","pricing_plan_id":"cebpf4jnsgd1na2vs0mg"},{"bike_id":"f4ef908d-a565-4bc5-8333-07a33b103cdd","system_id":"levelo_inurba_marseille","lat":43.316821,"lon":5.404737,"is_reserved":false,"is_disabled":false,"rental_uris":{"android":"levelo://app?vid=f4ef908d-a565-4bc5-8333-07a33b103cdd","ios":"levelo://app?vid=f4ef908d-a565-4bc5-8333-07a33b103cdd"},"vehicle_type_id":"4","last_reported":1716116784,"current_range_meters":1600,"station_id":"ce4bh012rcd13ifvqd00","pricing_plan_id":"cebpf4jnsgd1na2vs0mg"},{"bike_id":"aef1b405-40b7-4213-a235-a5b25b57ef0d","system_id":"levelo_inurba_marseille","lat":43.303331,"lon":5.403969,"is_reserved":false,"is_disabled":false,"rental_uris":{"android":"levelo://app?vid=aef1b405-40b7-4213-a235-a5b25b57ef0d","ios":"levelo://app?vid=aef1b405-40b7-4213-a235-a5b25b57ef0d"},"vehicle_type_id":"4","last_reported":1716116784,"current_range_meters":5200,"station_id":"","pricing_plan_id":"cebpf4jnsgd1na2vs0mg"},{"bike_id":"15cf9322-cfa6-4735-8bca-4e7e73f4e13a","system_id":"levelo_inurba_marseille","lat":43.28463,"lon":5.359,"is_reserved":false,"is_disabled":false,"rental_uris":{"android":"levelo://app?vid=15cf9322-cfa6-4735-8bca-4e7e73f4e13a","ios":"levelo://app?vid=15cf9322-cfa6-4735-8bca-4e7e73f4e13a"},"vehicle_type_id":"4","last_reported":1716116784,"current_range_meters":18800,"station_id":"ce4bhah2rcd13ifvqei0","pricing_plan_id":"cebpf4jnsgd1na2vs0mg"},{"bike_id":"3bc3b231-867e-4b69-ac65-3a8bf81ef314","system_id":"levelo_inurba_marseille","lat":43.284538,"lon":5.358657,"is_reserved":false,"is_disabled":false,"rental_uris":{"android":"levelo://app?vid=3bc3b231-867e-4b69-ac65-3a8bf81ef314","ios":"levelo://app?vid=3bc3b231-867e-4b69-ac65-3a8bf81ef314"},"vehicle_type_id":"4","last_reported":1716116784,"current_range_meters":31200,"station_id":"ce4bhah2rcd13ifvqei0","pricing_plan_id":"cebpf4jnsgd1na2vs0mg"},{"bike_id":"897fafef-a8ec-4a84-8132-2fdc0e07948d","system_id":"levelo_inurba_marseille","lat":43.284538,"lon":5.358657,"is_reserved":false,"is_disabled":false,"rental_uris":{"android":"levelo://app?vid=897fafef-a8ec-4a84-8132-2fdc0e07948d","ios":"levelo://app?vid=897fafef-a8ec-4a84-8132-2fdc0e07948d"},"vehicle_type_id":"4","last_reported":1716116784,"current_range_meters":19200,"station_id":"ce4bhah2rcd13ifvqei0","pricing_plan_id":"cebpf4jnsgd1na2vs0mg"},{"bike_id":"0a9f0e45-ffb2-423d-ba7d-b465b2b33dd6","system_id":"levelo_inurba_marseille","lat":43.285856,"lon":5.350771,"is_reserved":false,"is_disabled":false,"rental_uris":{"android":"levelo://app?vid=0a9f0e45-ffb2-423d-ba7d-b465b2b33dd6","ios":"levelo://app?vid=0a9f0e45-ffb2-423d-ba7d-b465b2b33dd6"},"vehicle_type_id":"4","last_reported":1716116784,"current_range_meters":20400,"station_id":"ce4bhch2rcd13ifvqeug","pricing_plan_id":"cebpf4jnsgd1na2vs0mg"},{"bike_id":"b1279736-183f-478d-9751-9a450ccfda89","system_id":"levelo_inurba_marseille","lat":43.285856,"lon":5.350771,"is_reserved":false,"is_disabled":false,"rental_uris":{"android":"levelo://app?vid=b1279736-183f-478d-9751-9a450ccfda89","ios":"levelo://app?vid=b1279736-183f-478d-9751-9a450ccfda89"},"vehicle_type_id":"4","last_reported":1716116784,"current_range_meters":26800,"station_id":"ce4bhch2rcd13ifvqeug","pricing_plan_id":"cebpf4jnsgd1na2vs0mg"},{"bike_id":"8cae6dc1-a884-4530-897c-46cb40f18aae","system_id":"levelo_inurba_marseille","lat":43.285856,"lon":5.350771,"is_reserved":false,"is_disabled":false,"rental_uris":{"android":"levelo://app?vid=8cae6dc1-a884-4530-897c-46cb40f18aae","ios":"levelo://app?vid=8cae6dc1-a884-4530-897c-46cb40f18aae"},