{"last_updated":1779389462,"ttl":60,"version":"2.2","data":{"bikes":[{"bike_id":"7d641315-6110-49cb-a9dd-d637ff032de1","system_id":"levelo_inurba_marseille","lat":43.337444,"lon":5.374475,"is_reserved":false,"is_disabled":false,"rental_uris":{"android":"levelo://app?vid=7d641315-6110-49cb-a9dd-d637ff032de1","ios":"levelo://app?vid=7d641315-6110-49cb-a9dd-d637ff032de1"},"vehicle_type_id":"4","last_reported":1779389463,"current_range_meters":0,"station_id":"","pricing_plan_id":"cebpf4jnsgd1na2vs0mg"},{"bike_id":"33f03feb-5a9a-4aef-9050-eb913c6351c7","system_id":"levelo_inurba_marseille","lat":43.22931,"lon":5.35364,"is_reserved":false,"is_disabled":true,"rental_uris":{"android":"levelo://app?vid=33f03feb-5a9a-4aef-9050-eb913c6351c7","ios":"levelo://app?vid=33f03feb-5a9a-4aef-9050-eb913c6351c7"},"vehicle_type_id":"4","last_reported":1779389463,"current_range_meters":2800,"station_id":"cpo3532slgdg3j2ikp40","pricing_plan_id":"cebpf4jnsgd1na2vs0mg"},{"bike_id":"441d269e-bb3e-424d-8adc-c4b7be1098a3","system_id":"levelo_inurba_marseille","lat":43.28927,"lon":5.36578,"is_reserved":false,"is_disabled":false,"rental_uris":{"android":"levelo://app?vid=441d269e-bb3e-424d-8adc-c4b7be1098a3","ios":"levelo://app?vid=441d269e-bb3e-424d-8adc-c4b7be1098a3"},"vehicle_type_id":"4","last_reported":1779389463,"current_range_meters":2800,"station_id":"ce4bhap2rcd13ifvqek0","pricing_plan_id":"cebpf4jnsgd1na2vs0mg"},{"bike_id":"b86de42e-fb9a-4ece-9264-c49ba92dd8db","system_id":"levelo_inurba_marseille","lat":43.29207,"lon":5.35795,"is_reserved":false,"is_disabled":false,"rental_uris":{"android":"levelo://app?vid=b86de42e-fb9a-4ece-9264-c49ba92dd8db","ios":"levelo://app?vid=b86de42e-fb9a-4ece-9264-c49ba92dd8db"},"vehicle_type_id":"4","last_reported":1779389463,"current_range_meters":2800,"station_id":"ce4bhb12rcd13ifvqel0","pricing_plan_id":"cebpf4jnsgd1na2vs0mg"},{"bike_id":"7c615258-27a5-41b5-87ac-042002cbded3","system_id":"levelo_inurba_marseille","lat":43.29274,"lon":5.36847,"is_reserved":false,"is_disabled":false,"rental_uris":{"android":"levelo://app?vid=7c615258-27a5-41b5-87ac-042002cbded3","ios":"levelo://app?vid=7c615258-27a5-41b5-87ac-042002cbded3"},"vehicle_type_id":"4","last_reported":1779389463,"current_range_meters":2800,"station_id":"ce4bhbp2rcd13ifvqesg","pricing_plan_id":"cebpf4jnsgd1na2vs0mg"},{"bike_id":"16747671-4327-438b-aaad-88ae61f47f94","system_id":"levelo_inurba_marseille","lat":43.26962,"lon":5.38637,"is_reserved":false,"is_disabled":false,"rental_uris":{"android":"levelo://app?vid=16747671-4327-438b-aaad-88ae61f47f94","ios":"levelo://app?vid=16747671-4327-438b-aaad-88ae61f47f94"},"vehicle_type_id":"4","last_reported":1779389463,"current_range_meters":2800,"station_id":"ce4bhh92rcd13ifvqfh0","pricing_plan_id":"cebpf4jnsgd1na2vs0mg"},{"bike_id":"ebfb0dc1-87a6-41e7-98c6-f4ff983e6b91","system_id":"levelo_inurba_marseille","lat":43.2717,"lon":5.41005,"is_reserved":false,"is_disabled":false,"rental_uris":{"android":"levelo://app?vid=ebfb0dc1-87a6-41e7-98c6-f4ff983e6b91","ios":"levelo://app?vid=ebfb0dc1-87a6-41e7-98c6-f4ff983e6b91"},"vehicle_type_id":"4","last_reported":1779389463,"current_range_meters":2800,"station_id":"ce4bhl12rcd13ifvqgf0","pricing_plan_id":"cebpf4jnsgd1na2vs0mg"},{"bike_id":"c202bc15-6fd2-4b5b-b9f8-fe2a7981a9a0","system_id":"levelo_inurba_marseille","lat":43.23324,"lon":5.35904,"is_reserved":false,"is_disabled":false,"rental_uris":{"android":"levelo://app?vid=c202bc15-6fd2-4b5b-b9f8-fe2a7981a9a0","ios":"levelo://app?vid=c202bc15-6fd2-4b5b-b9f8-fe2a7981a9a0"},"vehicle_type_id":"4","last_reported":1779389463,"current_range_meters":2800,"station_id":"","pricing_plan_id":"cebpf4jnsgd1na2vs0mg"},{"bike_id":"b2ba0f3c-0154-46c6-a530-5784dd92135a","system_id":"levelo_inurba_marseille","lat":43.28707,"lon":5.37388,"is_reserved":false,"is_disabled":false,"rental_uris":{"android":"levelo://app?vid=b2ba0f3c-0154-46c6-a530-5784dd92135a","ios":"levelo://app?vid=b2ba0f3c-0154-46c6-a530-5784dd92135a"},"vehicle_type_id":"4","last_reported":1779389463,"current_range_meters":2800,"station_id":"ce4bh3p2rcd13ifvqdq0","pricing_plan_id":"cebpf4jnsgd1na2vs0mg"},{"bike_id":"c7e4acb9-ca6b-4503-8547-0d69196b7a6c","system_id":"levelo_inurba_marseille","lat":43.2439,"lon":5.37056,"is_reserved":false,"is_disabled":false,"rental_uris":{"android":"levelo://app?vid=c7e4acb9-ca6b-4503-8547-0d69196b7a6c","ios":"levelo://app?vid=c7e4acb9-ca6b-4503-8547-0d69196b7a6c"},"vehicle_type_id":"4","last_reported":1779389463,"current_range_meters":2800,"station_id":"ce4bhhh2rcd13ifvqfk0","pricing_plan_id":"cebpf4jnsgd1na2vs0mg"},{"bike_id":"eab9c9a3-952f-4e83-906b-4aad3c6d46e5","system_id":"levelo_inurba_marseille","lat":43.28461,"lon":5.35884,"is_reserved":false,"is_disabled":false,"rental_uris":{"android":"levelo://app?vid=eab9c9a3-952f-4e83-906b-4aad3c6d46e5","ios":"levelo://app?vid=eab9c9a3-952f-4e83-906b-4aad3c6d46e5"},"vehicle_type_id":"4","last_reported":1779389463,"current_range_meters":2800,"station_id":"ce4bhah2rcd13ifvqei0","pricing_plan_id":"cebpf4jnsgd1na2vs0mg"},{"bike_id":"1ec001e2-985a-4fe7-becf-bf0c5576d192","system_id":"levelo_inurba_marseille","lat":43.30901,"lon":5.39635,"is_reserved":false,"is_disabled":false,"rental_uris":{"android":"levelo://app?vid=1ec001e2-985a-4fe7-becf-bf0c5576d192","ios":"levelo://app?vid=1ec001e2-985a-4fe7-becf-bf0c5576d192"},"vehicle_type_id":"4","last_reported":1779389463,"current_range_meters":2800,"station_id":"ce4bh012rcd13ifvqcv0","pricing_plan_id":"cebpf4jnsgd1na2vs0mg"},{"bike_id":"af4c42c0-5317-4bfa-b840-8f4241eb681f","system_id":"levelo_inurba_marseille","lat":43.29978,"lon":5.37186,"is_reserved":false,"is_disabled":false,"rental_uris":{"android":"levelo://app?vid=af4c42c0-5317-4bfa-b840-8f4241eb681f","ios":"levelo://app?vid=af4c42c0-5317-4bfa-b840-8f4241eb681f"},"vehicle_type_id":"4","last_reported":1779389463,"current_range_meters":2800,"station_id":"ce4bgr92rcd13ifvqc7g","pricing_plan_id":"cebpf4jnsgd1na2vs0mg"},{"bike_id":"74fe1e51-c8c1-48c7-87a3-bd97254ab7ff","system_id":"levelo_inurba_marseille","lat":43.27176,"lon":5.4099,"is_reserved":false,"is_disabled":false,"rental_uris":{"android":"levelo://app?vid=74fe1e51-c8c1-48c7-87a3-bd97254ab7ff","ios":"levelo://app?vid=74fe1e51-c8c1-48c7-87a3-bd97254ab7ff"},"vehicle_type_id":"4","last_reported":1779389463,"current_range_meters":2800,"station_id":"ce4bhl12rcd13ifvqgf0","pricing_plan_id":"cebpf4jnsgd1na2vs0mg"},{"bike_id":"1d1bc311-6653-4ac8-9c7f-057af6f2e0a2","system_id":"levelo_inurba_marseille","lat":43.29191,"lon":5.37146,"is_reserved":false,"is_disabled":false,"rental_uris":{"android":"levelo://app?vid=1d1bc311-6653-4ac8-9c7f-057af6f2e0a2","ios":"levelo://app?vid=1d1bc311-6653-4ac8-9c7f-057af6f2e0a2"},"vehicle_type_id":"4","last_reported":1779389463,"current_range_meters":2800,"station_id":"ce4bha92rcd13ifvqeh0","pricing_plan_id":"cebpf4jnsgd1na2vs0mg"},{"bike_id":"362dde3d-e55b-43d3-a257-fc879c078dae","system_id":"levelo_inurba_marseille","lat":43.26192,"lon":5.37448,"is_reserved":false,"is_disabled":true,"rental_uris":{"android":"levelo://app?vid=362dde3d-e55b-43d3-a257-fc879c078dae","ios":"levelo://app?vid=362dde3d-e55b-43d3-a257-fc879c078dae"},"vehicle_type_id":"4","last_reported":1779389463,"current_range_meters":2800,"station_id":"ce4bhgp2rcd13ifvqfc0","pricing_plan_id":"cebpf4jnsgd1na2vs0mg"},{"bike_id":"1945c429-a6b3-4afe-8b4e-c989148ef8b4","system_id":"levelo_inurba_marseille","lat":43.2864,"lon":5.37769,"is_reserved":false,"is_disabled":false,"rental_uris":{"android":"levelo://app?vid=1945c429-a6b3-4afe-8b4e-c989148ef8b4","ios":"levelo://app?vid=1945c429-a6b3-4afe-8b4e-c989148ef8b4"},"vehicle_type_id":"4","last_reported":1779389463,"current_range_meters":2800,"station_id":"","pricing_plan_id":"cebpf4jnsgd1na2vs0mg"},{"bike_id":"3d54b928-d845-4a36-8e3a-2a36df2deea3","system_id":"levelo_inurba_marseille","lat":43.27371,"lon":5.36251,"is_reserved":false,"is_disabled":false,"rental_uris":{"android":"levelo://app?vid=3d54b928-d845-4a36-8e3a-2a36df2deea3","ios":"levelo://app?vid=3d54b928-d845-4a36-8e3a-2a36df2deea3"},"vehicle_type_id":"4","last_reported":1779389463,"current_range_meters":3200,"station_id":"ce4bhbh2rcd13ifvqeo0","pricing_plan_id":"cebpf4jnsgd1na2vs0mg"},{"bike_id":"86e454ec-4358-4876-8cdb-176930c99154","system_id":"levelo_inurba_marseille","lat":43.2893,"lon":5.38401,"is_reserved":false,"is_disabled":false,"rental_uris":{"android":"levelo://app?vid=86e454ec-4358-4876-8cdb-176930c99154","ios":"levelo://app?vid=86e454ec-4358-4876-8cdb-176930c99154"},"vehicle_type_id":"4","last_reported":1779389463,"current_range_meters":3200,"station_id":"ce4bh612rcd13ifvqe6g","pricing_plan_id":"cebpf4jnsgd1na2vs0mg"},{"bike_id":"c5e693a5-5aee-4f2f-b3d3-ad6fe1a5da64","system_id":"levelo_inurba_marseille","lat":43.3246,"lon":5.36574,"is_reserved":false,"is_disabled":false,"rental_uris":{"android":"levelo://app?vid=c5e693a5-5aee-4f2f-b3d3-ad6fe1a5da64","ios":"levelo://app?vid=c5e693a5-5aee-4f2f-b3d3-ad6fe1a5da64"},"vehicle_type_id":"4","last_reported":1779389463,"current_range_meters":3200,"station_id":"ce4bhs12rcd13ifvqhvg","pricing_plan_id":"cebpf4jnsgd1na2vs0mg"},{"bike_id":"e38caa21-a14a-4197-88a1-db68aad57c56","system_id":"levelo_inurba_marseille","lat":43.28704,"lon":5.46682,"is_reserved":false,"is_disabled":false,"rental_uris":{"android":"levelo://app?vid=e38caa21-a14a-4197-88a1-db68aad57c56","ios":"levelo://app?vid=e38caa21-a14a-4197-88a1-db68aad57c56"},"vehicle_type_id":"4","last_reported":1779389463,"current_range_meters":3200,"station_id":"st_d6tc3vkotcvc738tfjhg","pricing_plan_id":"cebpf4jnsgd1na2vs0mg"},{"bike_id":"4d8b5c28-e400-4dff-8d4e-ab3d7b63d11e","system_id":"levelo_inurba_marseille","lat":43.27629,"lon":5.36112,"is_reserved":false,"is_disabled":true,"rental_uris":{"android":"levelo://app?vid=4d8b5c28-e400-4dff-8d4e-ab3d7b63d11e","ios":"levelo://app?vid=4d8b5c28-e400-4dff-8d4e-ab3d7b63d11e"},"vehicle_type_id":"4","last_reported":1779389463,"current_range_meters":3200,"station_id":"ce4bgj92rcd13ifvqbe0","pricing_plan_id":"cebpf4jnsgd1na2vs0mg"},{"bike_id":"c73a9cf5-7d1a-4e0c-a908-c51bf0da8c23","system_id":"levelo_inurba_marseille","lat":43.30914,"lon":5.4163,"is_reserved":false,"is_disabled":false,"rental_uris":{"android":"levelo://app?vid=c73a9cf5-7d1a-4e0c-a908-c51bf0da8c23","ios":"levelo://app?vid=c73a9cf5-7d1a-4e0c-a908-c51bf0da8c23"},"vehicle_type_id":"4","last_reported":1779389463,"current_range_meters":3200,"station_id":"","pricing_plan_id":"cebpf4jnsgd1na2vs0mg"},{"bike_id":"aac398da-63ff-4710-9b25-89b48f28a9b4","system_id":"levelo_inurba_marseille","lat":43.28665,"lon":5.38666,"is_reserved":false,"is_disabled":false,"rental_uris":{"android":"levelo://app?vid=aac398da-63ff-4710-9b25-89b48f28a9b4","ios":"levelo://app?vid=aac398da-63ff-4710-9b25-89b48f28a9b4"},"vehicle_type_id":"4","last_reported":1779389463,"current_range_meters":3200,"station_id":"ce4bh492rcd13ifvqdug","pricing_plan_id":"cebpf4jnsgd1na2vs0mg"},{"bike_id":"9f5e3ac5-8023-4b89-bcaf-bac16149897b","system_id":"levelo_inurba_marseille","lat":43.29506,"lon":5.39042,"is_reserved":false,"is_disabled":false,"rental_uris":{"android":"levelo://app?vid=9f5e3ac5-8023-4b89-bcaf-bac16149897b","ios":"levelo://app?vid=9f5e3ac5-8023-4b89-bcaf-bac16149897b"},"vehicle_type_id":"4","last_reported":1779389463,"current_range_meters":3200,"station_id":"ce4bh3p2rcd13ifvqdp0","pricing_plan_id":"cebpf4jnsgd1na2vs0mg"},{"bike_id":"a41869b1-45da-4d44-b05c-5a1d368f9f1e","system_id":"levelo_inurba_marseille","lat":43.23382,"lon":5.41244,"is_reserved":false,"is_disabled":false,"rental_uris":{"android":"levelo://app?vid=a41869b1-45da-4d44-b05c-5a1d368f9f1e","ios":"levelo://app?vid=a41869b1-45da-4d44-b05c-5a1d368f9f1e"},"vehicle_type_id":"4","last_reported":1779389463,"current_range_meters":3200,"station_id":"st_d75pvndhf9lc73cqq3eg","pricing_plan_id":"cebpf4jnsgd1na2vs0mg"},{"bike_id":"38555a91-c8ca-4b2f-a436-ea0a0796b081","system_id":"levelo_inurba_marseille","lat":43.30966,"lon":5.39028,"is_reserved":false,"is_disabled":false,"rental_uris":{"android":"levelo://app?vid=38555a91-c8ca-4b2f-a436-ea0a0796b081","ios":"levelo://app?vid=38555a91-c8ca-4b2f-a436-ea0a0796b081"},"vehicle_type_id":"4","last_reported":1779389463,"current_range_meters":3200,"station_id":"ce4bgup2rcd13ifvqco0","pricing_plan_id":"cebpf4jnsgd1na2vs0mg"},{"bike_id":"10937bac-215b-4eb9-99dc-987d256328f8","system_id":"levelo_inurba_marseille","lat":43.292761,"lon":5.368417,"is_reserved":false,"is_disabled":false,"rental_uris":{"android":"levelo://app?vid=10937bac-215b-4eb9-99dc-987d256328f8","ios":"levelo://app?vid=10937bac-215b-4eb9-99dc-987d256328f8"},"vehicle_type_id":"4","last_reported":1779389463,"current_range_meters":3200,"station_id":"ce4bhbp2rcd13ifvqesg","pricing_plan_id":"cebpf4jnsgd1na2vs0mg"},{"bike_id":"428cc564-4c6d-4956-8efc-8c0bfd7080c5","system_id":"levelo_inurba_marseille","lat":43.336003,"lon":5.410249,"is_reserved":false,"is_disabled":false,"rental_uris":{"android":"levelo://app?vid=428cc564-4c6d-4956-8efc-8c0bfd7080c5","ios":"levelo://app?vid=428cc564-4c6d-4956-8efc-8c0bfd7080c5"},"vehicle_type_id":"4","last_reported":1779389463,"current_range_meters":3200,"station_id":"ce4bhqh2rcd13ifvqhmg","pricing_plan_id":"cebpf4jnsgd1na2vs0mg"},{"bike_id":"8a0dc731-2fcb-41f9-8c7d-3c07ea626aeb","system_id":"levelo_inurba_marseille","lat":43.23965,"lon":5.36633,"is_reserved":false,"is_disabled":true,"rental_uris":{"android":"levelo://app?vid=8a0dc731-2fcb-41f9-8c7d-3c07ea626aeb","ios":"levelo://app?vid=8a0dc731-2fcb-41f9-8c7d-3c07ea626aeb"},"vehicle_type_id":"4","last_reported":1779389463,"current_range_meters":3200,"station_id":"ce4bhi12rcd13ifvqfp0","pricing_plan_id":"cebpf4jnsgd1na2vs0mg"},{"bike_id":"87ebd666-525c-4cba-8e06-28cf6ec8a4ea","system_id":"levelo_inurba_marseille","lat":43.26579,"lon":5.4035,"is_reserved":false,"is_disabled":false,"rental_uris":{"android":"levelo://app?vid=87ebd666-525c-4cba-8e06-28cf6ec8a4ea","ios":"levelo://app?vid=87ebd666-525c-4cba-8e06-28cf6ec8a4ea"},"vehicle_type_id":"4","last_reported":1779389463,"current_range_meters":3200,"station_id":"ce4bhmp2rcd13ifvqgng","pricing_plan_id":"cebpf4jnsgd1na2vs0mg"},{"bike_id":"1765e246-f0ce-499f-ae34-2fa867d2d33c","system_id":"levelo_inurba_marseille","lat":43.24652,"lon":5.38894,"is_reserved":false,"is_disabled":false,"rental_uris":{"android":"levelo://app?vid=1765e246-f0ce-499f-ae34-2fa867d2d33c","ios":"levelo://app?vid=1765e246-f0ce-499f-ae34-2fa867d2d33c"},"vehicle_type_id":"4","last_reported":1779389463,"current_range_meters":3200,"station_id":"ce4bhg12rcd13ifvqf60","pricing_plan_id":"cebpf4jnsgd1na2vs0mg"},{"bike_id":"ca5b8b13-5373-4377-b925-1d87c55b34ee","system_id":"levelo_inurba_marseille","lat":43.2738,"lon":5.36259,"is_reserved":false,"is_disabled":true,"rental_uris":{"android":"levelo://app?vid=ca5b8b13-5373-4377-b925-1d87c55b34ee","ios":"levelo://app?vid=ca5b8b13-5373-4377-b925-1d87c55b34ee"},"vehicle_type_id":"4","last_reported":1779389463,"current_range_meters":3600,"station_id":"ce4bhbh2rcd13ifvqeo0","pricing_plan_id":"cebpf4jnsgd1na2vs0mg"},{"bike_id":"b81956c8-fd1b-4763-9391-185259219d91","system_id":"levelo_inurba_marseille","lat":43.29527,"lon":5.3905,"is_reserved":false,"is_disabled":false,"rental_uris":{"android":"levelo://app?vid=b81956c8-fd1b-4763-9391-185259219d91","ios":"levelo://app?vid=b81956c8-fd1b-4763-9391-185259219d91"},"vehicle_type_id":"4","last_reported":1779389463,"current_range_meters":3600,"station_id":"ce4bh3p2rcd13ifvqdp0","pricing_plan_id":"cebpf4jnsgd1na2vs0mg"},{"bike_id":"aaf89674-8182-489c-bbb0-80c24f6e4ab3","system_id":"levelo_inurba_marseille","lat":43.24398,"lon":5.37079,"is_reserved":false,"is_disabled":false,"rental_uris":{"android":"levelo://app?vid=aaf89674-8182-489c-bbb0-80c24f6e4ab3","ios":"levelo://app?vid=aaf89674-8182-489c-bbb0-80c24f6e4ab3"},"vehicle_type_id":"4","last_reported":1779389463,"current_range_meters":3600,"station_id":"ce4bhhh2rcd13ifvqfk0","pricing_plan_id":"cebpf4jnsgd1na2vs0mg"},{"bike_id":"7975b169-5677-4dff-9b59-bed9c727a531","system_id":"levelo_inurba_marseille","lat":43.31088,"lon":5.3779,"is_reserved":false,"is_disabled":true,"rental_uris":{"android":"levelo://app?vid=7975b169-5677-4dff-9b59-bed9c727a531","ios":"levelo://app?vid=7975b169-5677-4dff-9b59-bed9c727a531"},"vehicle_type_id":"4","last_reported":1779389463,"current_range_meters":3600,"station_id":"ce4bgt92rcd13ifvqcg0","pricing_plan_id":"cebpf4jnsgd1na2vs0mg"},{"bike_id":"54cf749c-171a-41c5-93f1-1f7979f6535d","system_id":"levelo_inurba_marseille","lat":43.25512,"lon":5.37663,"is_reserved":false,"is_disabled":true,"rental_uris":{"android":"levelo://app?vid=54cf749c-171a-41c5-93f1-1f7979f6535d","ios":"levelo://app?vid=54cf749c-171a-41c5-93f1-1f7979f6535d"},"vehicle_type_id":"4","last_reported":1779389463,"current_range_meters":3600,"station_id":"ce4bhh12rcd13ifvqff0","pricing_plan_id":"cebpf4jnsgd1na2vs0mg"},{"bike_id":"a3071a58-220a-49d7-933f-639eaa20dffd","system_id":"levelo_inurba_marseille","lat":43.28731,"lon":5.42716,"is_reserved":false,"is_disabled":false,"rental_uris":{"android":"levelo://app?vid=a3071a58-220a-49d7-933f-639eaa20dffd","ios":"levelo://app?vid=a3071a58-220a-49d7-933f-639eaa20dffd"},"vehicle_type_id":"4","last_reported":1779389463,"current_range_meters":3600,"station_id":"","pricing_plan_id":"cebpf4jnsgd1na2vs0mg"},{"bike_id":"553619dc-d839-4e00-bc6d-eecc5ecdba79","system_id":"levelo_inurba_marseille","lat":43.28163,"lon":5.42625,"is_reserved":false,"is_disabled":true,"rental_uris":{"android":"levelo://app?vid=553619dc-d839-4e00-bc6d-eecc5ecdba79","ios":"levelo://app?vid=553619dc-d839-4e00-bc6d-eecc5ecdba79"},"vehicle_type_id":"4","last_reported":1779389463,"current_range_meters":3600,"station_id":"ce4bhnh2rcd13ifvqgug","pricing_plan_id":"cebpf4jnsgd1na2vs0mg"},{"bike_id":"7a2f1dda-1ee5-4773-966b-1d83ab772ccf","system_id":"levelo_inurba_marseille","lat":43.24808,"lon":5.37448,"is_reserved":false,"is_disabled":false,"rental_uris":{"android":"levelo://app?vid=7a2f1dda-1ee5-4773-966b-1d83ab772ccf","ios":"levelo://app?vid=7a2f1dda-1ee5-4773-966b-1d83ab772ccf"},"vehicle_type_id":"4","last_reported":1779389463,"current_range_meters":3600,"station_id":"ce4bhgh2rcd13ifvqfb0","pricing_plan_id":"cebpf4jnsgd1na2vs0mg"},{"bike_id":"2167dd50-e6e2-421b-8f38-e80ecdf9e44a","system_id":"levelo_inurba_marseille","lat":43.2502,"lon":5.38919,"is_reserved":false,"is_disabled":false,"rental_uris":{"android":"levelo://app?vid=2167dd50-e6e2-421b-8f38-e80ecdf9e44a","ios":"levelo://app?vid=2167dd50-e6e2-421b-8f38-e80ecdf9e44a"},"vehicle_type_id":"4","last_reported":1779389463,"current_range_meters":3600,"station_id":"ce4bhgp2rcd13ifvqfd0","pricing_plan_id":"cebpf4jnsgd1na2vs0mg"},{"bike_id":"dbde8c89-4d57-4e04-81ea-bfaed78bcbac","system_id":"levelo_inurba_marseille","lat":43.29276,"lon":5.38446,"is_reserved":false,"is_disabled":false,"rental_uris":{"android":"levelo://app?vid=dbde8c89-4d57-4e04-81ea-bfaed78bcbac","ios":"levelo://app?vid=dbde8c89-4d57-4e04-81ea-bfaed78bcbac"},"vehicle_type_id":"4","last_reported":1779389463,"current_range_meters":3600,"station_id":"ce4bh692rcd13ifvqea0","pricing_plan_id":"cebpf4jnsgd1na2vs0mg"},{"bike_id":"4581f6a7-79e9-44cd-b96e-06f3561662b8","system_id":"levelo_inurba_marseille","lat":43.22537,"lon":5.34825,"is_reserved":false,"is_disabled":true,"rental_uris":{"android":"levelo://app?vid=4581f6a7-79e9-44cd-b96e-06f3561662b8","ios":"levelo://app?vid=4581f6a7-79e9-44cd-b96e-06f3561662b8"},"vehicle_type_id":"4","last_reported":1779389463,"current_range_meters":3600,"station_id":"st_cvj5dfep6f1abm77gieg","pricing_plan_id":"cebpf4jnsgd1na2vs0mg"},{"bike_id":"b293a712-75e3-44ee-8362-9418df85367c","system_id":"levelo_inurba_marseille","lat":43.26222,"lon":5.38759,"is_reserved":false,"is_disabled":false,"rental_uris":{"android":"levelo://app?vid=b293a712-75e3-44ee-8362-9418df85367c","ios":"levelo://app?vid=b293a712-75e3-44ee-8362-9418df85367c"},"vehicle_type_id":"4","last_reported":1779389463,"current_range_meters":3600,"station_id":"","pricing_plan_id":"cebpf4jnsgd1na2vs0mg"},{"bike_id":"9622595a-6170-452f-a251-68423639e7b6","system_id":"levelo_inurba_marseille","lat":43.2959,"lon":5.36742,"is_reserved":false,"is_disabled":false,"rental_uris":{"android":"levelo://app?vid=9622595a-6170-452f-a251-68423639e7b6","ios":"levelo://app?vid=9622595a-6170-452f-a251-68423639e7b6"},"vehicle_type_id":"4","last_reported":1779389463,"current_range_meters":3600,"station_id":"ce4bgph2rcd13ifvqc2g","pricing_plan_id":"cebpf4jnsgd1na2vs0mg"},{"bike_id":"282c9669-7dad-469f-b087-8dbbc861bbc4","system_id":"levelo_inurba_marseille","lat":43.274223,"lon":5.394069,"is_reserved":false,"is_disabled":true,"rental_uris":{"android":"levelo://app?vid=282c9669-7dad-469f-b087-8dbbc861bbc4","ios":"levelo://app?vid=282c9669-7dad-469f-b087-8dbbc861bbc4"},"vehicle_type_id":"4","last_reported":1779389463,"current_range_meters":4000,"station_id":"ce4bhdp2rcd13ifvqf20","pricing_plan_id":"cebpf4jnsgd1na2vs0mg"},{"bike_id":"2f5164af-975a-4fc4-879a-eaff4c6a2f38","system_id":"levelo_inurba_marseille","lat":43.29531,"lon":5.38539,"is_reserved":false,"is_disabled":false,"rental_uris":{"android":"levelo://app?vid=2f5164af-975a-4fc4-879a-eaff4c6a2f38","ios":"levelo://app?vid=2f5164af-975a-4fc4-879a-eaff4c6a2f38"},"vehicle_type_id":"4","last_reported":1779389463,"current_range_meters":4000,"station_id":"ce4bgih2rcd13ifvqba0","pricing_plan_id":"cebpf4jnsgd1na2vs0mg"},{"bike_id":"018bc1b8-394d-4284-aee9-f1a543d506c1","system_id":"levelo_inurba_marseille","lat":43.26548,"lon":5.37288,"is_reserved":false,"is_disabled":true,"rental_uris":{"android":"levelo://app?vid=018bc1b8-394d-4284-aee9-f1a543d506c1","ios":"levelo://app?vid=018bc1b8-394d-4284-aee9-f1a543d506c1"},"vehicle_type_id":"4","last_reported":1779389463,"current_range_meters":4000,"station_id":"ce4bhg12rcd13ifvqf70","pricing_plan_id":"cebpf4jnsgd1na2vs0mg"},{"bike_id":"381a1687-3b4c-4e43-ada7-0b296f458493","system_id":"levelo_inurba_marseille","lat":43.28756,"lon":5.46691,"is_reserved":false,"is_disabled":false,"rental_uris":{"android":"levelo://app?vid=381a1687-3b4c-4e43-ada7-0b296f458493","ios":"levelo://app?vid=381a1687-3b4c-4e43-ada7-0b296f458493"},"vehicle_type_id":"4","last_reported":1779389463,"current_range_meters":4000,"station_id":"","pricing_plan_id":"cebpf4jnsgd1na2vs0mg"},{"bike_id":"051eb476-a462-40f5-811f-71276f1a8d25","system_id":"levelo_inurba_marseille","lat":43.28464,"lon":5.48405,"is_reserved":false,"is_disabled":false,"rental_uris":{"android":"levelo://app?vid=051eb476-a462-40f5-811f-71276f1a8d25","ios":"levelo://app?vid=051eb476-a462-40f5-811f-71276f1a8d25"},"vehicle_type_id":"4","last_reported":1779389463,"current_range_meters":4000,"station_id":"st_d3svhcjqgbts73a3dn0g","pricing_plan_id":"cebpf4jnsgd1na2vs0mg"},{"bike_id":"924fb5a7-6478-4e31-9ad7-34a2292df595","system_id":"levelo_inurba_marseille","lat":43.28478,"lon":5.43753,"is_reserved":false,"is_disabled":false,"rental_uris":{"android":"levelo://app?vid=924fb5a7-6478-4e31-9ad7-34a2292df595","ios":"levelo://app?vid=924fb5a7-6478-4e31-9ad7-34a2292df595"},"vehicle_type_id":"4","last_reported":1779389463,"current_range_meters":4000,"station_id":"","pricing_plan_id":"cebpf4jnsgd1na2vs0mg"},{"bike_id":"95d972f4-45f2-492b-961f-60c0203c235c","system_id":"levelo_inurba_marseille","lat":43.29013,"lon":5.356145,"is_reserved":false,"is_disabled":false,"rental_uris":{"android":"levelo://app?vid=95d972f4-45f2-492b-961f-60c0203c235c","ios":"levelo://app?vid=95d972f4-45f2-492b-961f-60c0203c235c"},"vehicle_type_id":"4","last_reported":1779389463,"current_range_meters":4000,"station_id":"ce4bhb92rcd13ifvqen0","pricing_plan_id":"cebpf4jnsgd1na2vs0mg"},{"bike_id":"9c7b01cb-3130-4dfa-9e9d-1b3fbc0bd680","system_id":"levelo_inurba_marseille","lat":43.2494,"lon":5.40494,"is_reserved":false,"is_disabled":false,"rental_uris":{"android":"levelo://app?vid=9c7b01cb-3130-4dfa-9e9d-1b3fbc0bd680","ios":"levelo://app?vid=9c7b01cb-3130-4dfa-9e9d-1b3fbc0bd680"},"vehicle_type_id":"4","last_reported":1779389463,"current_range_meters":4000,"station_id":"st_d2ngiaodas8pm72gd1h0","pricing_plan_id":"cebpf4jnsgd1na2vs0mg"},{"bike_id":"31dd9f20-a20e-4842-a0ad-eaf0448b2e0d","system_id":"levelo_inurba_marseille","lat":43.24953,"lon":5.405,"is_reserved":false,"is_disabled":false,"rental_uris":{"android":"levelo://app?vid=31dd9f20-a20e-4842-a0ad-eaf0448b2e0d","ios":"levelo://app?vid=31dd9f20-a20e-4842-a0ad-eaf0448b2e0d"},"vehicle_type_id":"4","last_reported":1779389463,"current_range_meters":4000,"station_id":"st_d2ngiaodas8pm72gd1h0","pricing_plan_id":"cebpf4jnsgd1na2vs0mg"},{"bike_id":"c72d4f0a-47c5-49f4-b7e3-6f0b737de851","system_id":"levelo_inurba_marseille","lat":43.29841,"lon":5.36268,"is_reserved":false,"is_disabled":false,"rental_uris":{"android":"levelo://app?vid=c72d4f0a-47c5-49f4-b7e3-6f0b737de851","ios":"levelo://app?vid=c72d4f0a-47c5-49f4-b7e3-6f0b737de851"},"vehicle_type_id":"4","last_reported":1779389463,"current_range_meters":4000,"station_id":"ce4bgpp2rcd13ifvqc3g","pricing_plan_id":"cebpf4jnsgd1na2vs0mg"},{"bike_id":"8c39b6dd-b754-48e2-823c-6f28d51803e0","system_id":"levelo_inurba_marseille","lat":43.29272,"lon":5.39823,"is_reserved":false,"is_disabled":false,"rental_uris":{"android":"levelo://app?vid=8c39b6dd-b754-48e2-823c-6f28d51803e0","ios":"levelo://app?vid=8c39b6dd-b754-48e2-823c-6f28d51803e0"},"vehicle_type_id":"4","last_reported":1779389463,"current_range_meters":4000,"station_id":"","pricing_plan_id":"cebpf4jnsgd1na2vs0mg"},{"bike_id":"92e53ea4-c972-4d4d-957d-e0bbb2053e64","system_id":"levelo_inurba_marseille","lat":43.27371,"lon":5.36258,"is_reserved":false,"is_disabled":false,"rental_uris":{"android":"levelo://app?vid=92e53ea4-c972-4d4d-957d-e0bbb2053e64","ios":"levelo://app?vid=92e53ea4-c972-4d4d-957d-e0bbb2053e64"},"vehicle_type_id":"4","last_reported":1779389463,"current_range_meters":4000,"station_id":"ce4bhbh2rcd13ifvqeo0","pricing_plan_id":"cebpf4jnsgd1na2vs0mg"},{"bike_id":"f7cad48c-5c1a-4d67-94c9-18752e134d03","system_id":"levelo_inurba_marseille","lat":43.23964,"lon":5.36627,"is_reserved":false,"is_disabled":true,"rental_uris":{"android":"levelo://app?vid=f7cad48c-5c1a-4d67-94c9-18752e134d03","ios":"levelo://app?vid=f7cad48c-5c1a-4d67-94c9-18752e134d03"},"vehicle_type_id":"4","last_reported":1779389463,"current_range_meters":4400,"station_id":"ce4bhi12rcd13ifvqfp0","pricing_plan_id":"cebpf4jnsgd1na2vs0mg"},{"bike_id":"74bb0400-bb66-433c-82b8-e3e134eb337f","system_id":"levelo_inurba_marseille","lat":43.30133,"lon":5.39851,"is_reserved":false,"is_disabled":false,"rental_uris":{"android":"levelo://app?vid=74bb0400-bb66-433c-82b8-e3e134eb337f","ios":"levelo://app?vid=74bb0400-bb66-433c-82b8-e3e134eb337f"},"vehicle_type_id":"4","last_reported":1779389463,"current_range_meters":4400,"station_id":"ce4bh0h2rcd13ifvqd40","pricing_plan_id":"cebpf4jnsgd1na2vs0mg"},{"bike_id":"5aee5052-f82b-48a3-9797-313893695311","system_id":"levelo_inurba_marseille","lat":43.28415,"lon":5.3499,"is_reserved":false,"is_disabled":false,"rental_uris":{"android":"levelo://app?vid=5aee5052-f82b-48a3-9797-313893695311","ios":"levelo://app?vid=5aee5052-f82b-48a3-9797-313893695311"},"vehicle_type_id":"4","last_reported":1779389463,"current_range_meters":4400,"station_id":"ce4bhbh2rcd13ifvqepg","pricing_plan_id":"cebpf4jnsgd1na2vs0mg"},{"bike_id":"6096ca9f-e19d-43dc-b67b-43fb4d7990f2","system_id":"levelo_inurba_marseille","lat":43.29979,"lon":5.41314,"is_reserved":false,"is_disabled":false,"rental_uris":{"android":"levelo://app?vid=6096ca9f-e19d-43dc-b67b-43fb4d7990f2","ios":"levelo://app?vid=6096ca9f-e19d-43dc-b67b-43fb4d7990f2"},"vehicle_type_id":"4","last_reported":1779389463,"current_range_meters":4400,"station_id":"ce4bhp12rcd13ifvqh9g","pricing_plan_id":"cebpf4jnsgd1na2vs0mg"},{"bike_id":"effa193b-9535-4ba8-a8b7-a78132cf8cb2","system_id":"levelo_inurba_marseille","lat":43.29055,"lon":5.35901,"is_reserved":false,"is_disabled":false,"rental_uris":{"android":"levelo://app?vid=effa193b-9535-4ba8-a8b7-a78132cf8cb2","ios":"levelo://app?vid=effa193b-9535-4ba8-a8b7-a78132cf8cb2"},"vehicle_type_id":"4","last_reported":1779389463,"current_range_meters":4400,"station_id":"ce4bha92rcd13ifvqeg0","pricing_plan_id":"cebpf4jnsgd1na2vs0mg"},{"bike_id":"86a0fb52-613b-4a6c-942d-1abbde400b19","system_id":"levelo_inurba_marseille","lat":43.28425,"lon":5.34974,"is_reserved":false,"is_disabled":true,"rental_uris":{"android":"levelo://app?vid=86a0fb52-613b-4a6c-942d-1abbde400b19","ios":"levelo://app?vid=86a0fb52-613b-4a6c-942d-1abbde400b19"},"vehicle_type_id":"4","last_reported":1779389463,"current_range_meters":4400,"station_id":"ce4bhbh2rcd13ifvqepg","pricing_plan_id":"cebpf4jnsgd1na2vs0mg"},{"bike_id":"967d8da3-73ae-4460-88db-5d2c59fdae82","system_id":"levelo_inurba_marseille","lat":43.24665,"lon":5.38168,"is_reserved":false,"is_disabled":false,"rental_uris":{"android":"levelo://app?vid=967d8da3-73ae-4460-88db-5d2c59fdae82","ios":"levelo://app?vid=967d8da3-73ae-4460-88db-5d2c59fdae82"},"vehicle_type_id":"4","last_reported":1779389463,"current_range_meters":4400,"station_id":"ce4bhih2rcd13ifvqfr0","pricing_plan_id":"cebpf4jnsgd1na2vs0mg"},{"bike_id":"bdbd43e1-2c65-4fde-9d2b-1ca888a9e392","system_id":"levelo_inurba_marseille","lat":43.29042,"lon":5.35908,"is_reserved":false,"is_disabled":false,"rental_uris":{"android":"levelo://app?vid=bdbd43e1-2c65-4fde-9d2b-1ca888a9e392","ios":"levelo://app?vid=bdbd43e1-2c65-4fde-9d2b-1ca888a9e392"},"vehicle_type_id":"4","last_reported":1779389463,"current_range_meters":4400,"station_id":"ce4bha92rcd13ifvqeg0","pricing_plan_id":"cebpf4jnsgd1na2vs0mg"},{"bike_id":"3a8bf2dd-1d04-4ee7-9d7d-732a70692881","system_id":"levelo_inurba_marseille","lat":43.30888,"lon":5.3684,"is_reserved":false,"is_disabled":false,"rental_uris":{"android":"levelo://app?vid=3a8bf2dd-1d04-4ee7-9d7d-732a70692881","ios":"levelo://app?vid=3a8bf2dd-1d04-4ee7-9d7d-732a70692881"},"vehicle_type_id":"4","last_reported":1779389463,"current_range_meters":4400,"station_id":"ce4bgn92rcd13ifvqbvg","pricing_plan_id":"cebpf4jnsgd1na2vs0mg"},{"bike_id":"21fb01df-56f4-4bee-8faa-88ef094f3e6b","system_id":"levelo_inurba_marseille","lat":43.21743,"lon":5.34601,"is_reserved":false,"is_disabled":true,"rental_uris":{"android":"levelo://app?vid=21fb01df-56f4-4bee-8faa-88ef094f3e6b","ios":"levelo://app?vid=21fb01df-56f4-4bee-8faa-88ef094f3e6b"},"vehicle_type_id":"4","last_reported":1779389463,"current_range_meters":4400,"station_id":"st_cvj6r9ubvosntc0bgbag","pricing_plan_id":"cebpf4jnsgd1na2vs0mg"},{"bike_id":"038e4133-0300-478d-96e9-87f70c20fa38","system_id":"levelo_inurba_marseille","lat":43.27393,"lon":5.36257,"is_reserved":false,"is_disabled":false,"rental_uris":{"android":"levelo://app?vid=038e4133-0300-478d-96e9-87f70c20fa38","ios":"levelo://app?vid=038e4133-0300-478d-96e9-87f70c20fa38"},"vehicle_type_id":"4","last_reported":1779389463,"current_range_meters":4400,"station_id":"ce4bhbh2rcd13ifvqeo0","pricing_plan_id":"cebpf4jnsgd1na2vs0mg"},{"bike_id":"308a5ed0-5ca3-4a2a-ad6b-e14b286a23bb","system_id":"levelo_inurba_marseille","lat":43.28226,"lon":5.39075,"is_reserved":false,"is_disabled":false,"rental_uris":{"android":"levelo://app?vid=308a5ed0-5ca3-4a2a-ad6b-e14b286a23bb","ios":"levelo://app?vid=308a5ed0-5ca3-4a2a-ad6b-e14b286a23bb"},"vehicle_type_id":"4","last_reported":1779389463,"current_range_meters":4400,"station_id":"ce4bhn92rcd13ifvqgsg","pricing_plan_id":"cebpf4jnsgd1na2vs0mg"},{"bike_id":"482430b5-2631-4146-b9cb-fe4593b87c48","system_id":"levelo_inurba_marseille","lat":43.29263,"lon":5.40911,"is_reserved":false,"is_disabled":false,"rental_uris":{"android":"levelo://app?vid=482430b5-2631-4146-b9cb-fe4593b87c48","ios":"levelo://app?vid=482430b5-2631-4146-b9cb-fe4593b87c48"},"vehicle_type_id":"4","last_reported":1779389463,"current_range_meters":4400,"station_id":"ce4bh192rcd13ifvqdc0","pricing_plan_id":"cebpf4jnsgd1na2vs0mg"},{"bike_id":"85aa7030-1d2d-4efc-851d-09155d499f3c","system_id":"levelo_inurba_marseille","lat":43.31975,"lon":5.40937,"is_reserved":false,"is_disabled":false,"rental_uris":{"android":"levelo://app?vid=85aa7030-1d2d-4efc-851d-09155d499f3c","ios":"levelo://app?vid=85aa7030-1d2d-4efc-851d-09155d499f3c"},"vehicle_type_id":"4","last_reported":1779389463,"current_range_meters":4400,"station_id":"","pricing_plan_id":"cebpf4jnsgd1na2vs0mg"},{"bike_id":"2001df22-e101-425c-8661-c56c7465046c","system_id":"levelo_inurba_marseille","lat":43.26572,"lon":5.39021,"is_reserved":false,"is_disabled":false,"rental_uris":{"android":"levelo://app?vid=2001df22-e101-425c-8661-c56c7465046c","ios":"levelo://app?vid=2001df22-e101-425c-8661-c56c7465046c"},"vehicle_type_id":"4","last_reported":1779389463,"current_range_meters":4400,"station_id":"ce4bhe12rcd13ifvqf30","pricing_plan_id":"cebpf4jnsgd1na2vs0mg"},{"bike_id":"1d1371af-930b-4bb2-a69d-74bda00db512","system_id":"levelo_inurba_marseille","lat":43.24379,"lon":5.37052,"is_reserved":false,"is_disabled":true,"rental_uris":{"android":"levelo://app?vid=1d1371af-930b-4bb2-a69d-74bda00db512","ios":"levelo://app?vid=1d1371af-930b-4bb2-a69d-74bda00db512"},"vehicle_type_id":"4","last_reported":1779389463,"current_range_meters":4400,"station_id":"ce4bhhh2rcd13ifvqfk0","pricing_plan_id":"cebpf4jnsgd1na2vs0mg"},{"bike_id":"8469d1a0-22a0-4a38-b4f0-257aa335e59a","system_id":"levelo_inurba_marseille","lat":43.255123,"lon":5.376482,"is_reserved":false,"is_disabled":false,"rental_uris":{"android":"levelo://app?vid=8469d1a0-22a0-4a38-b4f0-257aa335e59a","ios":"levelo://app?vid=8469d1a0-22a0-4a38-b4f0-257aa335e59a"},"vehicle_type_id":"4","last_reported":1779389463,"current_range_meters":4400,"station_id":"ce4bhh12rcd13ifvqff0","pricing_plan_id":"cebpf4jnsgd1na2vs0mg"},{"bike_id":"062d1a2c-a3f4-4d4d-8a6a-b7c114b5e3a9","system_id":"levelo_inurba_marseille","lat":43.29896,"lon":5.38141,"is_reserved":false,"is_disabled":false,"rental_uris":{"android":"levelo://app?vid=062d1a2c-a3f4-4d4d-8a6a-b7c114b5e3a9","ios":"levelo://app?vid=062d1a2c-a3f4-4d4d-8a6a-b7c114b5e3a9"},"vehicle_type_id":"4","last_reported":1779389463,"current_range_meters":4400,"station_id":"ce4bgj12rcd13ifvqbc0","pricing_plan_id":"cebpf4jnsgd1na2vs0mg"},{"bike_id":"f84233c9-1839-49ca-b044-e9400d7b4760","system_id":"levelo_inurba_marseille","lat":43.295789,"lon":5.367439,"is_reserved":false,"is_disabled":false,"rental_uris":{"android":"levelo://app?vid=f84233c9-1839-49ca-b044-e9400d7b4760","ios":"levelo://app?vid=f84233c9-1839-49ca-b044-e9400d7b4760"},"vehicle_type_id":"4","last_reported":1779389463,"current_range_meters":4800,"station_id":"ce4bgph2rcd13ifvqc2g","pricing_plan_id":"cebpf4jnsgd1na2vs0mg"},{"bike_id":"15a8d13c-fc9e-4e13-9398-c1cbd662c288","system_id":"levelo_inurba_marseille","lat":43.29679,"lon":5.38552,"is_reserved":false,"is_disabled":false,"rental_uris":{"android":"levelo://app?vid=15a8d13c-fc9e-4e13-9398-c1cbd662c288","ios":"levelo://app?vid=15a8d13c-fc9e-4e13-9398-c1cbd662c288"},"vehicle_type_id":"4","last_reported":1779389463,"current_range_meters":4800,"station_id":"","pricing_plan_id":"cebpf4jnsgd1na2vs0mg"},{"bike_id":"76fcc732-de67-460f-aa31-f3a3dddaf111","system_id":"levelo_inurba_marseille","lat":43.28719,"lon":5.37383,"is_reserved":false,"is_disabled":false,"rental_uris":{"android":"levelo://app?vid=76fcc732-de67-460f-aa31-f3a3dddaf111","ios":"levelo://app?vid=76fcc732-de67-460f-aa31-f3a3dddaf111"},"vehicle_type_id":"4","last_reported":1779389463,"current_range_meters":4800,"station_id":"ce4bh3p2rcd13ifvqdq0","pricing_plan_id":"cebpf4jnsgd1na2vs0mg"},{"bike_id":"54ebc614-4655-4582-83f2-3a009523bce0","system_id":"levelo_inurba_marseille","lat":43.25516,"lon":5.37655,"is_reserved":false,"is_disabled":false,"rental_uris":{"android":"levelo://app?vid=54ebc614-4655-4582-83f2-3a009523bce0","ios":"levelo://app?vid=54ebc614-4655-4582-83f2-3a009523bce0"},"vehicle_type_id":"4","last_reported":1779389463,"current_range_meters":4800,"station_id":"ce4bhh12rcd13ifvqff0","pricing_plan_id":"cebpf4jnsgd1na2vs0mg"},{"bike_id":"8c3ef4fc-e8b4-4200-8230-655ebc76defe","system_id":"levelo_inurba_marseille","lat":43.28274,"lon":5.35068,"is_reserved":false,"is_disabled":true,"rental_uris":{"android":"levelo://app?vid=8c3ef4fc-e8b4-4200-8230-655ebc76defe","ios":"levelo://app?vid=8c3ef4fc-e8b4-4200-8230-655ebc76defe"},"vehicle_type_id":"4","last_reported":1779389463,"current_range_meters":4800,"station_id":"ce4bhbp2rcd13ifvqerg","pricing_plan_id":"cebpf4jnsgd1na2vs0mg"},{"bike_id":"3a7237ae-b3a6-4a20-b1be-a8ec335b2b7a","system_id":"levelo_inurba_marseille","lat":43.28461,"lon":5.35895,"is_reserved":false,"is_disabled":true,"rental_uris":{"android":"levelo://app?vid=3a7237ae-b3a6-4a20-b1be-a8ec335b2b7a","ios":"levelo://app?vid=3a7237ae-b3a6-4a20-b1be-a8ec335b2b7a"},"vehicle_type_id":"4","last_reported":1779389463,"current_range_meters":4800,"station_id":"ce4bhah2rcd13ifvqei0","pricing_plan_id":"cebpf4jnsgd1na2vs0mg"},{"bike_id":"7755d2cf-b4de-46bb-b5f3-22ae35d89d63","system_id":"levelo_inurba_marseille","lat":43.29853,"lon":5.36284,"is_reserved":false,"is_disabled":false,"rental_uris":{"android":"levelo://app?vid=7755d2cf-b4de-46bb-b5f3-22ae35d89d63","ios":"levelo://app?vid=7755d2cf-b4de-46bb-b5f3-22ae35d89d63"},"vehicle_type_id":"4","last_reported":1779389463,"current_range_meters":4800,"station_id":"ce4bgpp2rcd13ifvqc3g","pricing_plan_id":"cebpf4jnsgd1na2vs0mg"},{"bike_id":"0b9fb95c-cf6b-4ed5-8bf4-759fc5a571cc","system_id":"levelo_inurba_marseille","lat":43.26855,"lon":5.40671,"is_reserved":false,"is_disabled":false,"rental_uris":{"android":"levelo://app?vid=0b9fb95c-cf6b-4ed5-8bf4-759fc5a571cc","ios":"levelo://app?vid=0b9fb95c-cf6b-4ed5-8bf4-759fc5a571cc"},"vehicle_type_id":"4","last_reported":1779389463,"current_range_meters":4800,"station_id":"","pricing_plan_id":"cebpf4jnsgd1na2vs0mg"},{"bike_id":"03a7f831-6491-4311-abfb-a096ad8a1bcc","system_id":"levelo_inurba_marseille","lat":43.29514,"lon":5.39033,"is_reserved":false,"is_disabled":false,"rental_uris":{"android":"levelo://app?vid=03a7f831-6491-4311-abfb-a096ad8a1bcc","ios":"levelo://app?vid=03a7f831-6491-4311-abfb-a096ad8a1bcc"},"vehicle_type_id":"4","last_reported":1779389463,"current_range_meters":4800,"station_id":"ce4bh3p2rcd13ifvqdp0","pricing_plan_id":"cebpf4jnsgd1na2vs0mg"},{"bike_id":"b3c58742-0569-4988-8f74-9982023b97a6","system_id":"levelo_inurba_marseille","lat":43.31882,"lon":5.36793,"is_reserved":false,"is_disabled":false,"rental_uris":{"android":"levelo://app?vid=b3c58742-0569-4988-8f74-9982023b97a6","ios":"levelo://app?vid=b3c58742-0569-4988-8f74-9982023b97a6"},"vehicle_type_id":"4","last_reported":1779389463,"current_range_meters":5600,"station_id":"st_d6o2h0d0559c73evc1b0","pricing_plan_id":"cebpf4jnsgd1na2vs0mg"},{"bike_id":"94c49980-82e9-40c1-8742-79af726fe66b","system_id":"levelo_inurba_marseille","lat":43.2987,"lon":5.421,"is_reserved":false,"is_disabled":false,"rental_uris":{"android":"levelo://app?vid=94c49980-82e9-40c1-8742-79af726fe66b","ios":"levelo://app?vid=94c49980-82e9-40c1-8742-79af726fe66b"},"vehicle_type_id":"4","last_reported":1779389463,"current_range_meters":5600,"station_id":"st_d6tc004otcvc738tfe70","pricing_plan_id":"cebpf4jnsgd1na2vs0mg"},{"bike_id":"038f2d62-fe4c-4553-81fb-80fe1260fee6","system_id":"levelo_inurba_marseille","lat":43.29191,"lon":5.35799,"is_reserved":false,"is_disabled":false,"rental_uris":{"android":"levelo://app?vid=038f2d62-fe4c-4553-81fb-80fe1260fee6","ios":"levelo://app?vid=038f2d62-fe4c-4553-81fb-80fe1260fee6"},"vehicle_type_id":"4","last_reported":1779389463,"current_range_meters":5600,"station_id":"ce4bhb12rcd13ifvqel0","pricing_plan_id":"cebpf4jnsgd1na2vs0mg"},{"bike_id":"fce1622d-58e2-4586-b9af-7d62fba4688b","system_id":"levelo_inurba_marseille","lat":43.2846,"lon":5.35884,"is_reserved":false,"is_disabled":false,"rental_uris":{"android":"levelo://app?vid=fce1622d-58e2-4586-b9af-7d62fba4688b","ios":"levelo://app?vid=fce1622d-58e2-4586-b9af-7d62fba4688b"},"vehicle_type_id":"4","last_reported":1779389463,"current_range_meters":5600,"station_id":"ce4bhah2rcd13ifvqei0","pricing_plan_id":"cebpf4jnsgd1na2vs0mg"},{"bike_id":"e7b2834d-0414-4c8b-95bb-dbeba87a5cba","system_id":"levelo_inurba_marseille","lat":43.32928,"lon":5.38936,"is_reserved":false,"is_disabled":false,"rental_uris":{"android":"levelo://app?vid=e7b2834d-0414-4c8b-95bb-dbeba87a5cba","ios":"levelo://app?vid=e7b2834d-0414-4c8b-95bb-dbeba87a5cba"},"vehicle_type_id":"4","last_reported":1779389463,"current_range_meters":5600,"station_id":"","pricing_plan_id":"cebpf4jnsgd1na2vs0mg"},{"bike_id":"aad75fce-f297-4a66-8546-74ab6bfcd851","system_id":"levelo_inurba_marseille","lat":43.24177,"lon":5.36404,"is_reserved":false,"is_disabled":false,"rental_uris":{"android":"levelo://app?vid=aad75fce-f297-4a66-8546-74ab6bfcd851","ios":"levelo://app?vid=aad75fce-f297-4a66-8546-74ab6bfcd851"},"vehicle_type_id":"4","last_reported":1779389463,"current_range_meters":5600,"station_id":"cpo36qri1sfpv3e86is0","pricing_plan_id":"cebpf4jnsgd1na2vs0mg"},{"bike_id":"c875a7e9-2618-4513-afdb-eab6789bb50d","system_id":"levelo_inurba_marseille","lat":43.282232,"lon":5.39078,"is_reserved":false,"is_disabled":false,"rental_uris":{"android":"levelo://app?vid=c875a7e9-2618-4513-afdb-eab6789bb50d","ios":"levelo://app?vid=c875a7e9-2618-4513-afdb-eab6789bb50d"},"vehicle_type_id":"4","last_reported":1779389463,"current_range_meters":5600,"station_id":"ce4bhn92rcd13ifvqgsg","pricing_plan_id":"cebpf4jnsgd1na2vs0mg"},{"bike_id":"5beac760-c1c6-42e5-bac2-c5e6beab0922","system_id":"levelo_inurba_marseille","lat":43.32461,"lon":5.40394,"is_reserved":false,"is_disabled":false,"rental_uris":{"android":"levelo://app?vid=5beac760-c1c6-42e5-bac2-c5e6beab0922","ios":"levelo://app?vid=5beac760-c1c6-42e5-bac2-c5e6beab0922"},"vehicle_type_id":"4","last_reported":1779389463,"current_range_meters":5600,"station_id":"","pricing_plan_id":"cebpf4jnsgd1na2vs0mg"},{"bike_id":"5f60720a-74e8-4de5-8632-27700a3a18fd","system_id":"levelo_inurba_marseille","lat":43.28622,"lon":5.35091,"is_reserved":false,"is_disabled":false,"rental_uris":{"android":"levelo://app?vid=5f60720a-74e8-4de5-8632-27700a3a18fd","ios":"levelo://app?vid=5f60720a-74e8-4de5-8632-27700a3a18fd"},"vehicle_type_id":"4","last_reported":1779389463,"current_range_meters":5600,"station_id":"ce4bhch2rcd13ifvqeug","pricing_plan_id":"cebpf4jnsgd1na2vs0mg"},{"bike_id":"4fa0521d-5744-4365-a06a-c2c83719732e","system_id":"levelo_inurba_marseille","lat":43.28992,"lon":5.35614,"is_reserved":false,"is_disabled":true,"rental_uris":{"android":"levelo://app?vid=4fa0521d-5744-4365-a06a-c2c83719732e","ios":"levelo://app?vid=4fa0521d-5744-4365-a06a-c2c83719732e"},"vehicle_type_id":"4","last_reported":1779389463,"current_range_meters":5600,"station_id":"ce4bhb92rcd13ifvqen0","pricing_plan_id":"cebpf4jnsgd1na2vs0mg"},{"bike_id":"2417956b-f325-4b75-806c-e42e7b7f598c","system_id":"levelo_inurba_marseille","lat":43.24958,"lon":5.41755,"is_reserved":false,"is_disabled":false,"rental_uris":{"android":"levelo://app?vid=2417956b-f325-4b75-806c-e42e7b7f598c","ios":"levelo://app?vid=2417956b-f325-4b75-806c-e42e7b7f598c"},"vehicle_type_id":"4","last_reported":1779389463,"current_range_meters":5600,"station_id":"","pricing_plan_id":"cebpf4jnsgd1na2vs0mg"},{"bike_id":"616259e1-99b9-477f-9be8-a931d2e539ff","system_id":"levelo_inurba_marseille","lat":43.231941,"lon":5.355529,"is_reserved":false,"is_disabled":false,"rental_uris":{"android":"levelo://app?vid=616259e1-99b9-477f-9be8-a931d2e539ff","ios":"levelo://app?vid=616259e1-99b9-477f-9be8-a931d2e539ff"},"vehicle_type_id":"4","last_reported":1779389463,"current_range_meters":6000,"station_id":"ce4bgi92rcd13ifvqb90","pricing_plan_id":"cebpf4jnsgd1na2vs0mg"},{"bike_id":"a55a1589-15b6-44a6-8155-c5f0154b6235","system_id":"levelo_inurba_marseille","lat":43.29002,"lon":5.35616,"is_reserved":false,"is_disabled":false,"rental_uris":{"android":"levelo://app?vid=a55a1589-15b6-44a6-8155-c5f0154b6235","ios":"levelo://app?vid=a55a1589-15b6-44a6-8155-c5f0154b6235"},"vehicle_type_id":"4","last_reported":1779389463,"current_range_meters":6000,"station_id":"ce4bhb92rcd13ifvqen0","pricing_plan_id":"cebpf4jnsgd1na2vs0mg"},{"bike_id":"375ee5aa-b3a4-4687-9cb5-9ce27e5d544e","system_id":"levelo_inurba_marseille","lat":43.3108,"lon":5.42434,"is_reserved":false,"is_disabled":false,"rental_uris":{"android":"levelo://app?vid=375ee5aa-b3a4-4687-9cb5-9ce27e5d544e","ios":"levelo://app?vid=375ee5aa-b3a4-4687-9cb5-9ce27e5d544e"},"vehicle_type_id":"4","last_reported":1779389463,"current_range_meters":6000,"station_id":"ce4bhp92rcd13ifvqhag","pricing_plan_id":"cebpf4jnsgd1na2vs0mg"},{"bike_id":"96f840f9-dbe0-4c31-8b5c-7cc65fe147eb","system_id":"levelo_inurba_marseille","lat":43.308899,"lon":5.396589,"is_reserved":false,"is_disabled":false,"rental_uris":{"android":"levelo://app?vid=96f840f9-dbe0-4c31-8b5c-7cc65fe147eb","ios":"levelo://app?vid=96f840f9-dbe0-4c31-8b5c-7cc65fe147eb"},"vehicle_type_id":"4","last_reported":1779389463,"current_range_meters":6000,"station_id":"ce4bh012rcd13ifvqcv0","pricing_plan_id":"cebpf4jnsgd1na2vs0mg"},{"bike_id":"0c89afcf-654a-497a-b601-5c5244c24554","system_id":"levelo_inurba_marseille","lat":43.21735,"lon":5.34625,"is_reserved":false,"is_disabled":false,"rental_uris":{"android":"levelo://app?vid=0c89afcf-654a-497a-b601-5c5244c24554","ios":"levelo://app?vid=0c89afcf-654a-497a-b601-5c5244c24554"},"vehicle_type_id":"4","last_reported":1779389463,"current_range_meters":6000,"station_id":"st_cvj6r9ubvosntc0bgbag","pricing_plan_id":"cebpf4jnsgd1na2vs0mg"},{"bike_id":"9f851e0d-2bc6-43e8-9dbb-3054f97344b0","system_id":"levelo_inurba_marseille","lat":43.30095,"lon":5.37268,"is_reserved":false,"is_disabled":false,"rental_uris":{"android":"levelo://app?vid=9f851e0d-2bc6-43e8-9dbb-3054f97344b0","ios":"levelo://app?vid=9f851e0d-2bc6-43e8-9dbb-3054f97344b0"},"vehicle_type_id":"4","last_reported":1779389463,"current_range_meters":6000,"station_id":"","pricing_plan_id":"cebpf4jnsgd1na2vs0mg"},{"bike_id":"73a798df-836a-4328-a7a5-04a179acf898","system_id":"levelo_inurba_marseille","lat":43.29058,"lon":5.35924,"is_reserved":false,"is_disabled":false,"rental_uris":{"android":"levelo://app?vid=73a798df-836a-4328-a7a5-04a179acf898","ios":"levelo://app?vid=73a798df-836a-4328-a7a5-04a179acf898"},"vehicle_type_id":"4","last_reported":1779389463,"current_range_meters":6000,"station_id":"ce4bha92rcd13ifvqeg0","pricing_plan_id":"cebpf4jnsgd1na2vs0mg"},{"bike_id":"51592541-fe14-47f5-8fe6-a5f8af935d34","system_id":"levelo_inurba_marseille","lat":43.28402,"lon":5.37516,"is_reserved":false,"is_disabled":false,"rental_uris":{"android":"levelo://app?vid=51592541-fe14-47f5-8fe6-a5f8af935d34","ios":"levelo://app?vid=51592541-fe14-47f5-8fe6-a5f8af935d34"},"vehicle_type_id":"4","last_reported":1779389463,"current_range_meters":6000,"station_id":"ce4bh412rcd13ifvqds0","pricing_plan_id":"cebpf4jnsgd1na2vs0mg"},{"bike_id":"8e7115e5-afd0-482b-bfd7-f75a7925e115","system_id":"levelo_inurba_marseille","lat":43.3025,"lon":5.41227,"is_reserved":false,"is_disabled":false,"rental_uris":{"android":"levelo://app?vid=8e7115e5-afd0-482b-bfd7-f75a7925e115","ios":"levelo://app?vid=8e7115e5-afd0-482b-bfd7-f75a7925e115"},"vehicle_type_id":"4","last_reported":1779389463,"current_range_meters":6000,"station_id":"","pricing_plan_id":"cebpf4jnsgd1na2vs0mg"},{"bike_id":"043b7781-bf1a-4abc-a16b-fd2f60ad88f6","system_id":"levelo_inurba_marseille","lat":43.26209,"lon":5.37455,"is_reserved":false,"is_disabled":false,"rental_uris":{"android":"levelo://app?vid=043b7781-bf1a-4abc-a16b-fd2f60ad88f6","ios":"levelo://app?vid=043b7781-bf1a-4abc-a16b-fd2f60ad88f6"},"vehicle_type_id":"4","last_reported":1779389463,"current_range_meters":6000,"station_id":"ce4bhgp2rcd13ifvqfc0","pricing_plan_id":"cebpf4jnsgd1na2vs0mg"},{"bike_id":"acab3900-3c73-413d-8f74-0eb463b05e49","system_id":"levelo_inurba_marseille","lat":43.30421,"lon":5.38906,"is_reserved":false,"is_disabled":false,"rental_uris":{"android":"levelo://app?vid=acab3900-3c73-413d-8f74-0eb463b05e49","ios":"levelo://app?vid=acab3900-3c73-413d-8f74-0eb463b05e49"},"vehicle_type_id":"4","last_reported":1779389463,"current_range_meters":6000,"station_id":"ce4bgk12rcd13ifvqbi0","pricing_plan_id":"cebpf4jnsgd1na2vs0mg"},{"bike_id":"21ae792d-bd85-45eb-834a-ad40fdc09e1b","system_id":"levelo_inurba_marseille","lat":43.29273,"lon":5.37172,"is_reserved":false,"is_disabled":false,"rental_uris":{"android":"levelo://app?vid=21ae792d-bd85-45eb-834a-ad40fdc09e1b","ios":"levelo://app?vid=21ae792d-bd85-45eb-834a-ad40fdc09e1b"},"vehicle_type_id":"4","last_reported":1779389463,"current_range_meters":6000,"station_id":"ce4bgh92rcd13ifvqb40","pricing_plan_id":"cebpf4jnsgd1na2vs0mg"},{"bike_id":"4de86316-01ac-4848-ac96-7b93e3411351","system_id":"levelo_inurba_marseille","lat":43.28738,"lon":5.36076,"is_reserved":false,"is_disabled":false,"rental_uris":{"android":"levelo://app?vid=4de86316-01ac-4848-ac96-7b93e3411351","ios":"levelo://app?vid=4de86316-01ac-4848-ac96-7b93e3411351"},"vehicle_type_id":"4","last_reported":1779389463,"current_range_meters":6000,"station_id":"cki0cbj6b192h4jlfktg","pricing_plan_id":"cebpf4jnsgd1na2vs0mg"},{"bike_id":"20a1a58a-0ce9-4903-8caf-13239357b776","system_id":"levelo_inurba_marseille","lat":43.29011,"lon":5.35492,"is_reserved":false,"is_disabled":false,"rental_uris":{"android":"levelo://app?vid=20a1a58a-0ce9-4903-8caf-13239357b776","ios":"levelo://app?vid=20a1a58a-0ce9-4903-8caf-13239357b776"},"vehicle_type_id":"4","last_reported":1779389463,"current_range_meters":6000,"station_id":"ce4bhb92rcd13ifvqen0","pricing_plan_id":"cebpf4jnsgd1na2vs0mg"},{"bike_id":"ba500815-2af2-4949-a01a-ce2c02f73453","system_id":"levelo_inurba_marseille","lat":43.26916,"lon":5.38925,"is_reserved":false,"is_disabled":false,"rental_uris":{"android":"levelo://app?vid=ba500815-2af2-4949-a01a-ce2c02f73453","ios":"levelo://app?vid=ba500815-2af2-4949-a01a-ce2c02f73453"},"vehicle_type_id":"4","last_reported":1779389463,"current_range_meters":6000,"station_id":"ce4bhhh2rcd13ifvqfl0","pricing_plan_id":"cebpf4jnsgd1na2vs0mg"},{"bike_id":"54414197-7a79-46ce-891d-758db7720b8c","system_id":"levelo_inurba_marseille","lat":43.2732,"lon":5.39067,"is_reserved":false,"is_disabled":true,"rental_uris":{"android":"levelo://app?vid=54414197-7a79-46ce-891d-758db7720b8c","ios":"levelo://app?vid=54414197-7a79-46ce-891d-758db7720b8c"},"vehicle_type_id":"4","last_reported":1779389463,"current_range_meters":6000,"station_id":"ce4bhgp2rcd13ifvqfe0","pricing_plan_id":"cebpf4jnsgd1na2vs0mg"},{"bike_id":"c16a5562-3c1d-4462-927c-904510c81e5f","system_id":"levelo_inurba_marseille","lat":43.29004,"lon":5.35617,"is_reserved":false,"is_disabled":false,"rental_uris":{"android":"levelo://app?vid=c16a5562-3c1d-4462-927c-904510c81e5f","ios":"levelo://app?vid=c16a5562-3c1d-4462-927c-904510c81e5f"},"vehicle_type_id":"4","last_reported":1779389463,"current_range_meters":6000,"station_id":"ce4bhb92rcd13ifvqen0","pricing_plan_id":"cebpf4jnsgd1na2vs0mg"},{"bike_id":"1ca97ddb-c455-4d8d-a690-c0d58404f7ae","system_id":"levelo_inurba_marseille","lat":43.29311,"lon":5.37156,"is_reserved":false,"is_disabled":false,"rental_uris":{"android":"levelo://app?vid=1ca97ddb-c455-4d8d-a690-c0d58404f7ae","ios":"levelo://app?vid=1ca97ddb-c455-4d8d-a690-c0d58404f7ae"},"vehicle_type_id":"4","last_reported":1779389463,"current_range_meters":6000,"station_id":"ce4bgh92rcd13ifvqb40","pricing_plan_id":"cebpf4jnsgd1na2vs0mg"},{"bike_id":"03b1ccbc-0c67-498c-9519-dabf7ef47bb5","system_id":"levelo_inurba_marseille","lat":43.29261,"lon":5.38439,"is_reserved":false,"is_disabled":false,"rental_uris":{"android":"levelo://app?vid=03b1ccbc-0c67-498c-9519-dabf7ef47bb5","ios":"levelo://app?vid=03b1ccbc-0c67-498c-9519-dabf7ef47bb5"},"vehicle_type_id":"4","last_reported":1779389463,"current_range_meters":6000,"station_id":"ce4bh692rcd13ifvqea0","pricing_plan_id":"cebpf4jnsgd1na2vs0mg"},{"bike_id":"c9e56caa-8dd5-4f89-85bb-05a336968771","system_id":"levelo_inurba_marseille","lat":43.29578,"lon":5.39967,"is_reserved":false,"is_disabled":false,"rental_uris":{"android":"levelo://app?vid=c9e56caa-8dd5-4f89-85bb-05a336968771","ios":"levelo://app?vid=c9e56caa-8dd5-4f89-85bb-05a336968771"},"vehicle_type_id":"4","last_reported":1779389463,"current_range_meters":6000,"station_id":"ce4bh312rcd13ifvqdj0","pricing_plan_id":"cebpf4jnsgd1na2vs0mg"},{"bike_id":"c3dfd449-9dd7-434a-ae13-db82f92d3790","system_id":"levelo_inurba_marseille","lat":43.29007,"lon":5.35611,"is_reserved":false,"is_disabled":false,"rental_uris":{"android":"levelo://app?vid=c3dfd449-9dd7-434a-ae13-db82f92d3790","ios":"levelo://app?vid=c3dfd449-9dd7-434a-ae13-db82f92d3790"},"vehicle_type_id":"4","last_reported":1779389463,"current_range_meters":6000,"station_id":"ce4bhb92rcd13ifvqen0","pricing_plan_id":"cebpf4jnsgd1na2vs0mg"},{"bike_id":"b482cc12-7c05-48d4-97b0-14c8a0eee35e","system_id":"levelo_inurba_marseille","lat":43.28617,"lon":5.35103,"is_reserved":false,"is_disabled":false,"rental_uris":{"android":"levelo://app?vid=b482cc12-7c05-48d4-97b0-14c8a0eee35e","ios":"levelo://app?vid=b482cc12-7c05-48d4-97b0-14c8a0eee35e"},"vehicle_type_id":"4","last_reported":1779389463,"current_range_meters":6400,"station_id":"ce4bhch2rcd13ifvqeug","pricing_plan_id":"cebpf4jnsgd1na2vs0mg"},{"bike_id":"f88b5d38-6656-4c62-bcd2-aaafac9462e0","system_id":"levelo_inurba_marseille","lat":43.29029,"lon":5.38644,"is_reserved":false,"is_disabled":false,"rental_uris":{"android":"levelo://app?vid=f88b5d38-6656-4c62-bcd2-aaafac9462e0","ios":"levelo://app?vid=f88b5d38-6656-4c62-bcd2-aaafac9462e0"},"vehicle_type_id":"4","last_reported":1779389463,"current_range_meters":6400,"station_id":"ce4bh4p2rcd13ifvqe0g","pricing_plan_id":"cebpf4jnsgd1na2vs0mg"},{"bike_id":"5195998f-29c0-451a-9b35-063ca4547e00","system_id":"levelo_inurba_marseille","lat":43.2417,"lon":5.36398,"is_reserved":false,"is_disabled":false,"rental_uris":{"android":"levelo://app?vid=5195998f-29c0-451a-9b35-063ca4547e00","ios":"levelo://app?vid=5195998f-29c0-451a-9b35-063ca4547e00"},"vehicle_type_id":"4","last_reported":1779389463,"current_range_meters":6400,"station_id":"cpo36qri1sfpv3e86is0","pricing_plan_id":"cebpf4jnsgd1na2vs0mg"},{"bike_id":"70bd1697-29a9-464f-a79a-74a540437e6e","system_id":"levelo_inurba_marseille","lat":43.33754,"lon":5.37469,"is_reserved":false,"is_disabled":false,"rental_uris":{"android":"levelo://app?vid=70bd1697-29a9-464f-a79a-74a540437e6e","ios":"levelo://app?vid=70bd1697-29a9-464f-a79a-74a540437e6e"},"vehicle_type_id":"4","last_reported":1779389463,"current_range_meters":6400,"station_id":"","pricing_plan_id":"cebpf4jnsgd1na2vs0mg"},{"bike_id":"e7d55ff2-76c8-4b77-819b-53f9e3aa018a","system_id":"levelo_inurba_marseille","lat":43.23208,"lon":5.35544,"is_reserved":false,"is_disabled":false,"rental_uris":{"android":"levelo://app?vid=e7d55ff2-76c8-4b77-819b-53f9e3aa018a","ios":"levelo://app?vid=e7d55ff2-76c8-4b77-819b-53f9e3aa018a"},"vehicle_type_id":"4","last_reported":1779389463,"current_range_meters":6400,"station_id":"ce4bhu92rcd13ifvqi70","pricing_plan_id":"cebpf4jnsgd1na2vs0mg"},{"bike_id":"f22a0749-9df8-4118-97ad-50c93c3e7c2d","system_id":"levelo_inurba_marseille","lat":43.26566,"lon":5.39031,"is_reserved":false,"is_disabled":false,"rental_uris":{"android":"levelo://app?vid=f22a0749-9df8-4118-97ad-50c93c3e7c2d","ios":"levelo://app?vid=f22a0749-9df8-4118-97ad-50c93c3e7c2d"},"vehicle_type_id":"4","last_reported":1779389463,"current_range_meters":6400,"station_id":"ce4bhe12rcd13ifvqf30","pricing_plan_id":"cebpf4jnsgd1na2vs0mg"},{"bike_id":"72c448e1-1b04-4276-9c93-0bc997384711","system_id":"levelo_inurba_marseille","lat":43.25506,"lon":5.37654,"is_reserved":false,"is_disabled":false,"rental_uris":{"android":"levelo://app?vid=72c448e1-1b04-4276-9c93-0bc997384711","ios":"levelo://app?vid=72c448e1-1b04-4276-9c93-0bc997384711"},"vehicle_type_id":"4","last_reported":1779389463,"current_range_meters":6400,"station_id":"ce4bhh12rcd13ifvqff0","pricing_plan_id":"cebpf4jnsgd1na2vs0mg"},{"bike_id":"8157d7f0-4ca8-4b62-ad2b-8c365be299bf","system_id":"levelo_inurba_marseille","lat":43.29039,"lon":5.35914,"is_reserved":false,"is_disabled":true,"rental_uris":{"android":"levelo://app?vid=8157d7f0-4ca8-4b62-ad2b-8c365be299bf","ios":"levelo://app?vid=8157d7f0-4ca8-4b62-ad2b-8c365be299bf"},"vehicle_type_id":"4","last_reported":1779389463,"current_range_meters":6400,"station_id":"ce4bha92rcd13ifvqeg0","pricing_plan_id":"cebpf4jnsgd1na2vs0mg"},{"bike_id":"b54a0860-ff04-4417-9804-a7525879c950","system_id":"levelo_inurba_marseille","lat":43.29499,"lon":5.37503,"is_reserved":false,"is_disabled":false,"rental_uris":{"android":"levelo://app?vid=b54a0860-ff04-4417-9804-a7525879c950","ios":"levelo://app?vid=b54a0860-ff04-4417-9804-a7525879c950"},"vehicle_type_id":"4","last_reported":1779389463,"current_range_meters":6400,"station_id":"ce4bgkp2rcd13ifvqbmg","pricing_plan_id":"cebpf4jnsgd1na2vs0mg"},{"bike_id":"fcfa6669-e9a2-44fe-a665-353fcc9ddd96","system_id":"levelo_inurba_marseille","lat":43.27547,"lon":5.38425,"is_reserved":false,"is_disabled":false,"rental_uris":{"android":"levelo://app?vid=fcfa6669-e9a2-44fe-a665-353fcc9ddd96","ios":"levelo://app?vid=fcfa6669-e9a2-44fe-a665-353fcc9ddd96"},"vehicle_type_id":"4","last_reported":1779389463,"current_range_meters":6400,"station_id":"ce4bhh92rcd13ifvqfi0","pricing_plan_id":"cebpf4jnsgd1na2vs0mg"},{"bike_id":"88100a59-4207-4b6d-8a44-6588fa780e81","system_id":"levelo_inurba_marseille","lat":43.28405,"lon":5.3752,"is_reserved":false,"is_disabled":false,"rental_uris":{"android":"levelo://app?vid=88100a59-4207-4b6d-8a44-6588fa780e81","ios":"levelo://app?vid=88100a59-4207-4b6d-8a44-6588fa780e81"},"vehicle_type_id":"4","last_reported":1779389463,"current_range_meters":6400,"station_id":"ce4bh412rcd13ifvqds0","pricing_plan_id":"cebpf4jnsgd1na2vs0mg"},{"bike_id":"d7b1d80e-ee26-4f2a-8580-16b04d1e386f","system_id":"levelo_inurba_marseille","lat":43.28381,"lon":5.38626,"is_reserved":false,"is_disabled":false,"rental_uris":{"android":"levelo://app?vid=d7b1d80e-ee26-4f2a-8580-16b04d1e386f","ios":"levelo://app?vid=d7b1d80e-ee26-4f2a-8580-16b04d1e386f"},"vehicle_type_id":"4","last_reported":1779389463,"current_range_meters":6400,"station_id":"ce4bh492rcd13ifvqdvg","pricing_plan_id":"cebpf4jnsgd1na2vs0mg"},{"bike_id":"12481d7b-ca53-44d2-a72d-3641cbe06950","system_id":"levelo_inurba_marseille","lat":43.29911,"lon":5.40996,"is_reserved":false,"is_disabled":false,"rental_uris":{"android":"levelo://app?vid=12481d7b-ca53-44d2-a72d-3641cbe06950","ios":"levelo://app?vid=12481d7b-ca53-44d2-a72d-3641cbe06950"},"vehicle_type_id":"4","last_reported":1779389463,"current_range_meters":6400,"station_id":"","pricing_plan_id":"cebpf4jnsgd1na2vs0mg"},{"bike_id":"ecaf1ab7-25b3-4e05-bad2-f131c2c0d10a","system_id":"levelo_inurba_marseille","lat":43.272123,"lon":5.391539,"is_reserved":false,"is_disabled":false,"rental_uris":{"android":"levelo://app?vid=ecaf1ab7-25b3-4e05-bad2-f131c2c0d10a","ios":"levelo://app?vid=ecaf1ab7-25b3-4e05-bad2-f131c2c0d10a"},"vehicle_type_id":"4","last_reported":1779389463,"current_range_meters":6400,"station_id":"ce4bhhp2rcd13ifvqfm0","pricing_plan_id":"cebpf4jnsgd1na2vs0mg"},{"bike_id":"883418ce-d76e-41a9-9917-d0c7df1d2039","system_id":"levelo_inurba_marseille","lat":43.29521,"lon":5.38539,"is_reserved":false,"is_disabled":false,"rental_uris":{"android":"levelo://app?vid=883418ce-d76e-41a9-9917-d0c7df1d2039","ios":"levelo://app?vid=883418ce-d76e-41a9-9917-d0c7df1d2039"},"vehicle_type_id":"4","last_reported":1779389463,"current_range_meters":6400,"station_id":"ce4bgih2rcd13ifvqba0","pricing_plan_id":"cebpf4jnsgd1na2vs0mg"},{"bike_id":"e6921cd2-c8fa-4b2a-bba2-bb0d41c54c4f","system_id":"levelo_inurba_marseille","lat":43.24386,"lon":5.3706,"is_reserved":false,"is_disabled":false,"rental_uris":{"android":"levelo://app?vid=e6921cd2-c8fa-4b2a-bba2-bb0d41c54c4f","ios":"levelo://app?vid=e6921cd2-c8fa-4b2a-bba2-bb0d41c54c4f"},"vehicle_type_id":"4","last_reported":1779389463,"current_range_meters":6400,"station_id":"ce4bhhh2rcd13ifvqfk0","pricing_plan_id":"cebpf4jnsgd1na2vs0mg"},{"bike_id":"5a44ed25-e687-4037-acc9-04e7b806c46c","system_id":"levelo_inurba_marseille","lat":43.29582,"lon":5.36743,"is_reserved":false,"is_disabled":false,"rental_uris":{"android":"levelo://app?vid=5a44ed25-e687-4037-acc9-04e7b806c46c","ios":"levelo://app?vid=5a44ed25-e687-4037-acc9-04e7b806c46c"},"vehicle_type_id":"4","last_reported":1779389463,"current_range_meters":6400,"station_id":"ce4bgph2rcd13ifvqc2g","pricing_plan_id":"cebpf4jnsgd1na2vs0mg"},{"bike_id":"2f07cee4-f00b-40cc-8d51-00b8a29e58c5","system_id":"levelo_inurba_marseille","lat":43.27175,"lon":5.40997,"is_reserved":false,"is_disabled":false,"rental_uris":{"android":"levelo://app?vid=2f07cee4-f00b-40cc-8d51-00b8a29e58c5","ios":"levelo://app?vid=2f07cee4-f00b-40cc-8d51-00b8a29e58c5"},"vehicle_type_id":"4","last_reported":1779389463,"current_range_meters":6400,"station_id":"ce4bhl12rcd13ifvqgf0","pricing_plan_id":"cebpf4jnsgd1na2vs0mg"},{"bike_id":"07396d01-ca01-4e2e-8d77-db6989e3f4b0","system_id":"levelo_inurba_marseille","lat":43.298578,"lon":5.362947,"is_reserved":false,"is_disabled":false,"rental_uris":{"android":"levelo://app?vid=07396d01-ca01-4e2e-8d77-db6989e3f4b0","ios":"levelo://app?vid=07396d01-ca01-4e2e-8d77-db6989e3f4b0"},"vehicle_type_id":"4","last_reported":1779389463,"current_range_meters":6400,"station_id":"ce4bgpp2rcd13ifvqc3g","pricing_plan_id":"cebpf4jnsgd1na2vs0mg"},{"bike_id":"0563bbd1-4e67-4606-b02a-645274a72f7e","system_id":"levelo_inurba_marseille","lat":43.309446,"lon":5.390232,"is_reserved":false,"is_disabled":false,"rental_uris":{"android":"levelo://app?vid=0563bbd1-4e67-4606-b02a-645274a72f7e","ios":"levelo://app?vid=0563bbd1-4e67-4606-b02a-645274a72f7e"},"vehicle_type_id":"4","last_reported":1779389463,"current_range_meters":6400,"station_id":"ce4bgup2rcd13ifvqco0","pricing_plan_id":"cebpf4jnsgd1na2vs0mg"},{"bike_id":"19ea709c-70d8-493b-80d1-ef11b72f918f","system_id":"levelo_inurba_marseille","lat":43.27839,"lon":5.39212,"is_reserved":false,"is_disabled":false,"rental_uris":{"android":"levelo://app?vid=19ea709c-70d8-493b-80d1-ef11b72f918f","ios":"levelo://app?vid=19ea709c-70d8-493b-80d1-ef11b72f918f"},"vehicle_type_id":"4","last_reported":1779389463,"current_range_meters":6400,"station_id":"ce4bhjp2rcd13ifvqga0","pricing_plan_id":"cebpf4jnsgd1na2vs0mg"},{"bike_id":"d55447ac-707e-4c54-b02b-54c43ff3e8eb","system_id":"levelo_inurba_marseille","lat":43.24545,"lon":5.39521,"is_reserved":false,"is_disabled":false,"rental_uris":{"android":"levelo://app?vid=d55447ac-707e-4c54-b02b-54c43ff3e8eb","ios":"levelo://app?vid=d55447ac-707e-4c54-b02b-54c43ff3e8eb"},"vehicle_type_id":"4","last_reported":1779389463,"current_range_meters":6400,"station_id":"ce4bhlp2rcd13ifvqgjg","pricing_plan_id":"cebpf4jnsgd1na2vs0mg"},{"bike_id":"c61107f3-82ac-478b-b1c7-f4b69d04a864","system_id":"levelo_inurba_marseille","lat":43.29162,"lon":5.39306,"is_reserved":false,"is_disabled":false,"rental_uris":{"android":"levelo://app?vid=c61107f3-82ac-478b-b1c7-f4b69d04a864","ios":"levelo://app?vid=c61107f3-82ac-478b-b1c7-f4b69d04a864"},"vehicle_type_id":"4","last_reported":1779389463,"current_range_meters":6400,"station_id":"ce4bh192rcd13ifvqdd0","pricing_plan_id":"cebpf4jnsgd1na2vs0mg"},{"bike_id":"541139c6-3195-43ee-942a-48d2b9afe0d1","system_id":"levelo_inurba_marseille","lat":43.29287,"lon":5.38436,"is_reserved":false,"is_disabled":false,"rental_uris":{"android":"levelo://app?vid=541139c6-3195-43ee-942a-48d2b9afe0d1","ios":"levelo://app?vid=541139c6-3195-43ee-942a-48d2b9afe0d1"},"vehicle_type_id":"4","last_reported":1779389463,"current_range_meters":6400,"station_id":"ce4bh692rcd13ifvqea0","pricing_plan_id":"cebpf4jnsgd1na2vs0mg"},{"bike_id":"c60f1b62-4074-40b7-ae4b-660f0d010e10","system_id":"levelo_inurba_marseille","lat":43.28458,"lon":5.35892,"is_reserved":false,"is_disabled":false,"rental_uris":{"android":"levelo://app?vid=c60f1b62-4074-40b7-ae4b-660f0d010e10","ios":"levelo://app?vid=c60f1b62-4074-40b7-ae4b-660f0d010e10"},"vehicle_type_id":"4","last_reported":1779389463,"current_range_meters":6400,"station_id":"ce4bhah2rcd13ifvqei0","pricing_plan_id":"cebpf4jnsgd1na2vs0mg"},{"bike_id":"e27feea1-9bc4-4f71-870f-9ba99b38e6d2","system_id":"levelo_inurba_marseille","lat":43.29161,"lon":5.37264,"is_reserved":false,"is_disabled":false,"rental_uris":{"android":"levelo://app?vid=e27feea1-9bc4-4f71-870f-9ba99b38e6d2","ios":"levelo://app?vid=e27feea1-9bc4-4f71-870f-9ba99b38e6d2"},"vehicle_type_id":"4","last_reported":1779389463,"current_range_meters":6400,"station_id":"","pricing_plan_id":"cebpf4jnsgd1na2vs0mg"},{"bike_id":"11bafefd-e82d-4ce1-b53f-0fb7c8b5cacf","system_id":"levelo_inurba_marseille","lat":43.27179,"lon":5.40976,"is_reserved":false,"is_disabled":false,"rental_uris":{"android":"levelo://app?vid=11bafefd-e82d-4ce1-b53f-0fb7c8b5cacf","ios":"levelo://app?vid=11bafefd-e82d-4ce1-b53f-0fb7c8b5cacf"},"vehicle_type_id":"4","last_reported":1779389463,"current_range_meters":6400,"station_id":"ce4bhl12rcd13ifvqgf0","pricing_plan_id":"cebpf4jnsgd1na2vs0mg"},{"bike_id":"e32793be-64fc-49de-b726-d7c3c4a0e683","system_id":"levelo_inurba_marseille","lat":43.29529,"lon":5.38541,"is_reserved":false,"is_disabled":false,"rental_uris":{"android":"levelo://app?vid=e32793be-64fc-49de-b726-d7c3c4a0e683","ios":"levelo://app?vid=e32793be-64fc-49de-b726-d7c3c4a0e683"},"vehicle_type_id":"4","last_reported":1779389463,"current_range_meters":6400,"station_id":"ce4bgih2rcd13ifvqba0","pricing_plan_id":"cebpf4jnsgd1na2vs0mg"},{"bike_id":"c64cc640-9562-400a-a282-5dabd4df8085","system_id":"levelo_inurba_marseille","lat":43.29841,"lon":5.36269,"is_reserved":false,"is_disabled":false,"rental_uris":{"android":"levelo://app?vid=c64cc640-9562-400a-a282-5dabd4df8085","ios":"levelo://app?vid=c64cc640-9562-400a-a282-5dabd4df8085"},"vehicle_type_id":"4","last_reported":1779389463,"current_range_meters":6400,"station_id":"ce4bgpp2rcd13ifvqc3g","pricing_plan_id":"cebpf4jnsgd1na2vs0mg"},{"bike_id":"816db666-0a95-4c3c-bb7d-76dc8ee957fd","system_id":"levelo_inurba_marseille","lat":43.29584,"lon":5.36729,"is_reserved":false,"is_disabled":false,"rental_uris":{"android":"levelo://app?vid=816db666-0a95-4c3c-bb7d-76dc8ee957fd","ios":"levelo://app?vid=816db666-0a95-4c3c-bb7d-76dc8ee957fd"},"vehicle_type_id":"4","last_reported":1779389463,"current_range_meters":6400,"station_id":"ce4bgph2rcd13ifvqc2g","pricing_plan_id":"cebpf4jnsgd1na2vs0mg"},{"bike_id":"8aaab36d-ad23-4f64-875f-a260c8f070f8","system_id":"levelo_inurba_marseille","lat":43.23964,"lon":5.36633,"is_reserved":false,"is_disabled":false,"rental_uris":{"android":"levelo://app?vid=8aaab36d-ad23-4f64-875f-a260c8f070f8","ios":"levelo://app?vid=8aaab36d-ad23-4f64-875f-a260c8f070f8"},"vehicle_type_id":"4","last_reported":1779389463,"current_range_meters":6800,"station_id":"ce4bhi12rcd13ifvqfp0","pricing_plan_id":"cebpf4jnsgd1na2vs0mg"},{"bike_id":"d479ddba-8114-4520-894e-96f677d5f730","system_id":"levelo_inurba_marseille","lat":43.29786,"lon":5.37092,"is_reserved":false,"is_disabled":false,"rental_uris":{"android":"levelo://app?vid=d479ddba-8114-4520-894e-96f677d5f730","ios":"levelo://app?vid=d479ddba-8114-4520-894e-96f677d5f730"},"vehicle_type_id":"4","last_reported":1779389463,"current_range_meters":6800,"station_id":"ce4bgop2rcd13ifvqc1g","pricing_plan_id":"cebpf4jnsgd1na2vs0mg"},{"bike_id":"d7d48381-947d-4a72-828b-665922112042","system_id":"levelo_inurba_marseille","lat":43.29261,"lon":5.36858,"is_reserved":false,"is_disabled":true,"rental_uris":{"android":"levelo://app?vid=d7d48381-947d-4a72-828b-665922112042","ios":"levelo://app?vid=d7d48381-947d-4a72-828b-665922112042"},"vehicle_type_id":"4","last_reported":1779389463,"current_range_meters":6800,"station_id":"ce4bhbp2rcd13ifvqesg","pricing_plan_id":"cebpf4jnsgd1na2vs0mg"},{"bike_id":"17c6ba16-debf-4641-ae7b-866323bfb918","system_id":"levelo_inurba_marseille","lat":43.28663,"lon":5.38667,"is_reserved":false,"is_disabled":false,"rental_uris":{"android":"levelo://app?vid=17c6ba16-debf-4641-ae7b-866323bfb918","ios":"levelo://app?vid=17c6ba16-debf-4641-ae7b-866323bfb918"},"vehicle_type_id":"4","last_reported":1779389463,"current_range_meters":6800,"station_id":"ce4bh492rcd13ifvqdug","pricing_plan_id":"cebpf4jnsgd1na2vs0mg"},{"bike_id":"9c4521f1-b414-4b4a-8769-c16b8f3c97e7","system_id":"levelo_inurba_marseille","lat":43.25341,"lon":5.4217,"is_reserved":false,"is_disabled":false,"rental_uris":{"android":"levelo://app?vid=9c4521f1-b414-4b4a-8769-c16b8f3c97e7","ios":"levelo://app?vid=9c4521f1-b414-4b4a-8769-c16b8f3c97e7"},"vehicle_type_id":"4","last_reported":1779389463,"current_range_meters":6800,"station_id":"st_d2m65c5bi1j21697t3ng","pricing_plan_id":"cebpf4jnsgd1na2vs0mg"},{"bike_id":"df287353-7a60-4efb-bfe1-86b595f29ba9","system_id":"levelo_inurba_marseille","lat":43.30155,"lon":5.39847,"is_reserved":false,"is_disabled":false,"rental_uris":{"android":"levelo://app?vid=df287353-7a60-4efb-bfe1-86b595f29ba9","ios":"levelo://app?vid=df287353-7a60-4efb-bfe1-86b595f29ba9"},"vehicle_type_id":"4","last_reported":1779389463,"current_range_meters":6800,"station_id":"ce4bh0h2rcd13ifvqd40","pricing_plan_id":"cebpf4jnsgd1na2vs0mg"},{"bike_id":"cb8fb2ed-c179-4c07-b6b8-57ffb06a659b","system_id":"levelo_inurba_marseille","lat":43.22537,"lon":5.34838,"is_reserved":false,"is_disabled":true,"rental_uris":{"android":"levelo://app?vid=cb8fb2ed-c179-4c07-b6b8-57ffb06a659b","ios":"levelo://app?vid=cb8fb2ed-c179-4c07-b6b8-57ffb06a659b"},"vehicle_type_id":"4","last_reported":1779389463,"current_range_meters":6800,"station_id":"st_cvj5dfep6f1abm77gieg","pricing_plan_id":"cebpf4jnsgd1na2vs0mg"},{"bike_id":"f30cc7e9-3f3a-4c4c-ac9e-f1d4151053f1","system_id":"levelo_inurba_marseille","lat":43.23191,"lon":5.35553,"is_reserved":false,"is_disabled":false,"rental_uris":{"android":"levelo://app?vid=f30cc7e9-3f3a-4c4c-ac9e-f1d4151053f1","ios":"levelo://app?vid=f30cc7e9-3f3a-4c4c-ac9e-f1d4151053f1"},"vehicle_type_id":"4","last_reported":1779389463,"current_range_meters":6800,"station_id":"ce4bhu92rcd13ifvqi70","pricing_plan_id":"cebpf4jnsgd1na2vs0mg"},{"bike_id":"6654de5e-5711-417c-a330-0356161377f4","system_id":"levelo_inurba_marseille","lat":43.27204,"lon":5.39177,"is_reserved":false,"is_disabled":false,"rental_uris":{"android":"levelo://app?vid=6654de5e-5711-417c-a330-0356161377f4","ios":"levelo://app?vid=6654de5e-5711-417c-a330-0356161377f4"},"vehicle_type_id":"4","last_reported":1779389463,"current_range_meters":6800,"station_id":"ce4bhhp2rcd13ifvqfm0","pricing_plan_id":"cebpf4jnsgd1na2vs0mg"},{"bike_id":"dfebc9fb-b2d3-45ff-bb5b-836ef93c0806","system_id":"levelo_inurba_marseille","lat":43.28621,"lon":5.35106,"is_reserved":false,"is_disabled":false,"rental_uris":{"android":"levelo://app?vid=dfebc9fb-b2d3-45ff-bb5b-836ef93c0806","ios":"levelo://app?vid=dfebc9fb-b2d3-45ff-bb5b-836ef93c0806"},"vehicle_type_id":"4","last_reported":1779389463,"current_range_meters":6800,"station_id":"ce4bhch2rcd13ifvqeug","pricing_plan_id":"cebpf4jnsgd1na2vs0mg"},{"bike_id":"50224d34-a060-4491-a4d0-da52184c0586","system_id":"levelo_inurba_marseille","lat":43.27372,"lon":5.36269,"is_reserved":false,"is_disabled":false,"rental_uris":{"android":"levelo://app?vid=50224d34-a060-4491-a4d0-da52184c0586","ios":"levelo://app?vid=50224d34-a060-4491-a4d0-da52184c0586"},"vehicle_type_id":"4","last_reported":1779389463,"current_range_meters":6800,"station_id":"ce4bhbh2rcd13ifvqeo0","pricing_plan_id":"cebpf4jnsgd1na2vs0mg"},{"bike_id":"3164d9e8-c839-4029-b458-2d3d9b344e5f","system_id":"levelo_inurba_marseille","lat":43.275716,"lon":5.396434,"is_reserved":false,"is_disabled":false,"rental_uris":{"android":"levelo://app?vid=3164d9e8-c839-4029-b458-2d3d9b344e5f","ios":"levelo://app?vid=3164d9e8-c839-4029-b458-2d3d9b344e5f"},"vehicle_type_id":"4","last_reported":1779389463,"current_range_meters":6800,"station_id":"","pricing_plan_id":"cebpf4jnsgd1na2vs0mg"},{"bike_id":"d876f250-8123-419d-a895-9645003d3c01","system_id":"levelo_inurba_marseille","lat":43.27256,"lon":5.41638,"is_reserved":false,"is_disabled":false,"rental_uris":{"android":"levelo://app?vid=d876f250-8123-419d-a895-9645003d3c01","ios":"levelo://app?vid=d876f250-8123-419d-a895-9645003d3c01"},"vehicle_type_id":"4","last_reported":1779389463,"current_range_meters":6800,"station_id":"","pricing_plan_id":"cebpf4jnsgd1na2vs0mg"},{"bike_id":"1bb24f07-9675-4464-b7a1-fada4f25d469","system_id":"levelo_inurba_marseille","lat":43.27384,"lon":5.36259,"is_reserved":false,"is_disabled":false,"rental_uris":{"android":"levelo://app?vid=1bb24f07-9675-4464-b7a1-fada4f25d469","ios":"levelo://app?vid=1bb24f07-9675-4464-b7a1-fada4f25d469"},"vehicle_type_id":"4","last_reported":1779389463,"current_range_meters":6800,"station_id":"ce4bhbh2rcd13ifvqeo0","pricing_plan_id":"cebpf4jnsgd1na2vs0mg"},{"bike_id":"9cf12d3b-4e6e-4825-a4b6-1a2036f84f57","system_id":"levelo_inurba_marseille","lat":43.29033,"lon":5.38646,"is_reserved":false,"is_disabled":false,"rental_uris":{"android":"levelo://app?vid=9cf12d3b-4e6e-4825-a4b6-1a2036f84f57","ios":"levelo://app?vid=9cf12d3b-4e6e-4825-a4b6-1a2036f84f57"},"vehicle_type_id":"4","last_reported":1779389463,"current_range_meters":6800,"station_id":"ce4bh4p2rcd13ifvqe0g","pricing_plan_id":"cebpf4jnsgd1na2vs0mg"},{"bike_id":"8c5974d2-5e79-461d-8181-7d4f70120306","system_id":"levelo_inurba_marseille","lat":43.3074,"lon":5.42443,"is_reserved":false,"is_disabled":false,"rental_uris":{"android":"levelo://app?vid=8c5974d2-5e79-461d-8181-7d4f70120306","ios":"levelo://app?vid=8c5974d2-5e79-461d-8181-7d4f70120306"},"vehicle_type_id":"4","last_reported":1779389463,"current_range_meters":6800,"station_id":"st_cvj6ca6bvosntc0bfgr0","pricing_plan_id":"cebpf4jnsgd1na2vs0mg"},{"bike_id":"72752fdd-52f2-457a-b029-8c255bb8f68c","system_id":"levelo_inurba_marseille","lat":43.29314,"lon":5.37177,"is_reserved":false,"is_disabled":false,"rental_uris":{"android":"levelo://app?vid=72752fdd-52f2-457a-b029-8c255bb8f68c","ios":"levelo://app?vid=72752fdd-52f2-457a-b029-8c255bb8f68c"},"vehicle_type_id":"4","last_reported":1779389463,"current_range_meters":6800,"station_id":"ce4bgh92rcd13ifvqb40","pricing_plan_id":"cebpf4jnsgd1na2vs0mg"},{"bike_id":"0b4d6b5c-6455-4048-8165-f658e493f2dc","system_id":"levelo_inurba_marseille","lat":43.29173,"lon":5.37161,"is_reserved":false,"is_disabled":false,"rental_uris":{"android":"levelo://app?vid=0b4d6b5c-6455-4048-8165-f658e493f2dc","ios":"levelo://app?vid=0b4d6b5c-6455-4048-8165-f658e493f2dc"},"vehicle_type_id":"4","last_reported":1779389463,"current_range_meters":6800,"station_id":"ce4bha92rcd13ifvqeh0","pricing_plan_id":"cebpf4jnsgd1na2vs0mg"},{"bike_id":"bd6864bb-c074-4fe7-b863-12369d6725c5","system_id":"levelo_inurba_marseille","lat":43.31348,"lon":5.38491,"is_reserved":false,"is_disabled":false,"rental_uris":{"android":"levelo://app?vid=bd6864bb-c074-4fe7-b863-12369d6725c5","ios":"levelo://app?vid=bd6864bb-c074-4fe7-b863-12369d6725c5"},"vehicle_type_id":"4","last_reported":1779389463,"current_range_meters":6800,"station_id":"ce4bgt92rcd13ifvqcf0","pricing_plan_id":"cebpf4jnsgd1na2vs0mg"},{"bike_id":"ad6d8b73-6259-410d-979f-09e40ec16dc9","system_id":"levelo_inurba_marseille","lat":43.3082,"lon":5.37198,"is_reserved":false,"is_disabled":false,"rental_uris":{"android":"levelo://app?vid=ad6d8b73-6259-410d-979f-09e40ec16dc9","ios":"levelo://app?vid=ad6d8b73-6259-410d-979f-09e40ec16dc9"},"vehicle_type_id":"4","last_reported":1779389463,"current_range_meters":7200,"station_id":"","pricing_plan_id":"cebpf4jnsgd1na2vs0mg"},{"bike_id":"cde0d002-2a1c-4391-8dbc-966864dd69f7","system_id":"levelo_inurba_marseille","lat":43.2841,"lon":5.39508,"is_reserved":false,"is_disabled":false,"rental_uris":{"android":"levelo://app?vid=cde0d002-2a1c-4391-8dbc-966864dd69f7","ios":"levelo://app?vid=cde0d002-2a1c-4391-8dbc-966864dd69f7"},"vehicle_type_id":"4","last_reported":1779389463,"current_range_meters":7200,"station_id":"","pricing_plan_id":"cebpf4jnsgd1na2vs0mg"},{"bike_id":"831fadaf-468d-41fc-8135-c6b3d694d376","system_id":"levelo_inurba_marseille","lat":43.29547,"lon":5.38534,"is_reserved":false,"is_disabled":false,"rental_uris":{"android":"levelo://app?vid=831fadaf-468d-41fc-8135-c6b3d694d376","ios":"levelo://app?vid=831fadaf-468d-41fc-8135-c6b3d694d376"},"vehicle_type_id":"4","last_reported":1779389463,"current_range_meters":7200,"station_id":"ce4bgih2rcd13ifvqba0","pricing_plan_id":"cebpf4jnsgd1na2vs0mg"},{"bike_id":"1f23276f-640a-45b0-96ab-5c9b5282ccf4","system_id":"levelo_inurba_marseille","lat":43.31256,"lon":5.38934,"is_reserved":false,"is_disabled":false,"rental_uris":{"android":"levelo://app?vid=1f23276f-640a-45b0-96ab-5c9b5282ccf4","ios":"levelo://app?vid=1f23276f-640a-45b0-96ab-5c9b5282ccf4"},"vehicle_type_id":"4","last_reported":1779389463,"current_range_meters":7200,"station_id":"","pricing_plan_id":"cebpf4jnsgd1na2vs0mg"},{"bike_id":"7cd911f2-d93f-4aa2-877e-1d430080e518","system_id":"levelo_inurba_marseille","lat":43.30856,"lon":5.39599,"is_reserved":false,"is_disabled":false,"rental_uris":{"android":"levelo://app?vid=7cd911f2-d93f-4aa2-877e-1d430080e518","ios":"levelo://app?vid=7cd911f2-d93f-4aa2-877e-1d430080e518"},"vehicle_type_id":"4","last_reported":1779389463,"current_range_meters":7200,"station_id":"","pricing_plan_id":"cebpf4jnsgd1na2vs0mg"},{"bike_id":"41bc5b59-db15-4de8-b53b-84a4e29e31f8","system_id":"levelo_inurba_marseille","lat":43.2843,"lon":5.34994,"is_reserved":false,"is_disabled":false,"rental_uris":{"android":"levelo://app?vid=41bc5b59-db15-4de8-b53b-84a4e29e31f8","ios":"levelo://app?vid=41bc5b59-db15-4de8-b53b-84a4e29e31f8"},"vehicle_type_id":"4","last_reported":1779389463,"current_range_meters":7200,"station_id":"ce4bhbh2rcd13ifvqepg","pricing_plan_id":"cebpf4jnsgd1na2vs0mg"},{"bike_id":"96f5a2da-5f92-4d4c-8b8e-3f68a0c33fde","system_id":"levelo_inurba_marseille","lat":43.25512,"lon":5.37688,"is_reserved":false,"is_disabled":true,"rental_uris":{"android":"levelo://app?vid=96f5a2da-5f92-4d4c-8b8e-3f68a0c33fde","ios":"levelo://app?vid=96f5a2da-5f92-4d4c-8b8e-3f68a0c33fde"},"vehicle_type_id":"4","last_reported":1779389463,"current_range_meters":7200,"station_id":"ce4bhh12rcd13ifvqff0","pricing_plan_id":"cebpf4jnsgd1na2vs0mg"},{"bike_id":"5f70e21c-7de6-4706-9055-de0c61005f3f","system_id":"levelo_inurba_marseille","lat":43.29526,"lon":5.38551,"is_reserved":false,"is_disabled":false,"rental_uris":{"android":"levelo://app?vid=5f70e21c-7de6-4706-9055-de0c61005f3f","ios":"levelo://app?vid=5f70e21c-7de6-4706-9055-de0c61005f3f"},"vehicle_type_id":"4","last_reported":1779389463,"current_range_meters":7200,"station_id":"ce4bgih2rcd13ifvqba0","pricing_plan_id":"cebpf4jnsgd1na2vs0mg"},{"bike_id":"b94f374d-430d-454d-9be4-f585f6926860","system_id":"levelo_inurba_marseille","lat":43.31166,"lon":5.38076,"is_reserved":false,"is_disabled":false,"rental_uris":{"android":"levelo://app?vid=b94f374d-430d-454d-9be4-f585f6926860","ios":"levelo://app?vid=b94f374d-430d-454d-9be4-f585f6926860"},"vehicle_type_id":"4","last_reported":1779389463,"current_range_meters":7200,"station_id":"","pricing_plan_id":"cebpf4jnsgd1na2vs0mg"},{"bike_id":"7ec93175-8d9c-4b31-b534-34e06405c4e0","system_id":"levelo_inurba_marseille","lat":43.29618,"lon":5.44704,"is_reserved":false,"is_disabled":false,"rental_uris":{"android":"levelo://app?vid=7ec93175-8d9c-4b31-b534-34e06405c4e0","ios":"levelo://app?vid=7ec93175-8d9c-4b31-b534-34e06405c4e0"},"vehicle_type_id":"4","last_reported":1779389463,"current_range_meters":7200,"station_id":"","pricing_plan_id":"cebpf4jnsgd1na2vs0mg"},{"bike_id":"72590b29-8f39-4f42-b2c9-5f2961731930","system_id":"levelo_inurba_marseille","lat":43.28621,"lon":5.351,"is_reserved":false,"is_disabled":false,"rental_uris":{"android":"levelo://app?vid=72590b29-8f39-4f42-b2c9-5f2961731930","ios":"levelo://app?vid=72590b29-8f39-4f42-b2c9-5f2961731930"},"vehicle_type_id":"4","last_reported":1779389463,"current_range_meters":7200,"station_id":"ce4bhch2rcd13ifvqeug","pricing_plan_id":"cebpf4jnsgd1na2vs0mg"},{"bike_id":"97fdb174-2bcd-45b8-8e95-563bd1b7f684","system_id":"levelo_inurba_marseille","lat":43.29533,"lon":5.38545,"is_reserved":false,"is_disabled":false,"rental_uris":{"android":"levelo://app?vid=97fdb174-2bcd-45b8-8e95-563bd1b7f684","ios":"levelo://app?vid=97fdb174-2bcd-45b8-8e95-563bd1b7f684"},"vehicle_type_id":"4","last_reported":1779389463,"current_range_meters":7200,"station_id":"ce4bgih2rcd13ifvqba0","pricing_plan_id":"cebpf4jnsgd1na2vs0mg"},{"bike_id":"f27f5d1c-82ad-4e4f-a373-4edc18ad831a","system_id":"levelo_inurba_marseille","lat":43.286879,"lon":5.400012,"is_reserved":false,"is_disabled":false,"rental_uris":{"android":"levelo://app?vid=f27f5d1c-82ad-4e4f-a373-4edc18ad831a","ios":"levelo://app?vid=f27f5d1c-82ad-4e4f-a373-4edc18ad831a"},"vehicle_type_id":"4","last_reported":1779389463,"current_range_meters":7200,"station_id":"ce4bho92rcd13ifvqh3g","pricing_plan_id":"cebpf4jnsgd1na2vs0mg"},{"bike_id":"8ae01fbd-13ec-4abe-9b2c-1050445b111f","system_id":"levelo_inurba_marseille","lat":43.22535,"lon":5.34831,"is_reserved":false,"is_disabled":false,"rental_uris":{"android":"levelo://app?vid=8ae01fbd-13ec-4abe-9b2c-1050445b111f","ios":"levelo://app?vid=8ae01fbd-13ec-4abe-9b2c-1050445b111f"},"vehicle_type_id":"4","last_reported":1779389463,"current_range_meters":7200,"station_id":"st_cvj5dfep6f1abm77gieg","pricing_plan_id":"cebpf4jnsgd1na2vs0mg"},{"bike_id":"d4ddfd06-aa54-4e84-8399-9a2c03d7797e","system_id":"levelo_inurba_marseille","lat":43.2993,"lon":5.36549,"is_reserved":false,"is_disabled":false,"rental_uris":{"android":"levelo://app?vid=d4ddfd06-aa54-4e84-8399-9a2c03d7797e","ios":"levelo://app?vid=d4ddfd06-aa54-4e84-8399-9a2c03d7797e"},"vehicle_type_id":"4","last_reported":1779389463,"current_range_meters":7200,"station_id":"ce4bgm92rcd13ifvqbr0","pricing_plan_id":"cebpf4jnsgd1na2vs0mg"},{"bike_id":"a7dcb7e6-59b7-4ada-a9a0-eb00b3467d13","system_id":"levelo_inurba_marseille","lat":43.24651,"lon":5.3889,"is_reserved":false,"is_disabled":true,"rental_uris":{"android":"levelo://app?vid=a7dcb7e6-59b7-4ada-a9a0-eb00b3467d13","ios":"levelo://app?vid=a7dcb7e6-59b7-4ada-a9a0-eb00b3467d13"},"vehicle_type_id":"4","last_reported":1779389463,"current_range_meters":7200,"station_id":"ce4bhg12rcd13ifvqf60","pricing_plan_id":"cebpf4jnsgd1na2vs0mg"},{"bike_id":"e93a01e1-b858-4ef5-89fa-d5a67d0d3ba8","system_id":"levelo_inurba_marseille","lat":43.2318,"lon":5.39984,"is_reserved":false,"is_disabled":false,"rental_uris":{"android":"levelo://app?vid=e93a01e1-b858-4ef5-89fa-d5a67d0d3ba8","ios":"levelo://app?vid=e93a01e1-b858-4ef5-89fa-d5a67d0d3ba8"},"vehicle_type_id":"4","last_reported":1779389463,"current_range_meters":7200,"station_id":"ce4bhn12rcd13ifvqgqg","pricing_plan_id":"cebpf4jnsgd1na2vs0mg"},{"bike_id":"6176dd16-a9d7-4120-bf2a-b28a1914c54d","system_id":"levelo_inurba_marseille","lat":43.29519,"lon":5.37466,"is_reserved":false,"is_disabled":true,"rental_uris":{"android":"levelo://app?vid=6176dd16-a9d7-4120-bf2a-b28a1914c54d","ios":"levelo://app?vid=6176dd16-a9d7-4120-bf2a-b28a1914c54d"},"vehicle_type_id":"4","last_reported":1779389463,"current_range_meters":7200,"station_id":"ce4bgkp2rcd13ifvqbmg","pricing_plan_id":"cebpf4jnsgd1na2vs0mg"},{"bike_id":"7926970b-b546-4bd9-8ad0-0c1e21624b17","system_id":"levelo_inurba_marseille","lat":43.29595,"lon":5.38096,"is_reserved":false,"is_disabled":true,"rental_uris":{"android":"levelo://app?vid=7926970b-b546-4bd9-8ad0-0c1e21624b17","ios":"levelo://app?vid=7926970b-b546-4bd9-8ad0-0c1e21624b17"},"vehicle_type_id":"4","last_reported":1779389463,"current_range_meters":7200,"station_id":"ce4bgl12rcd13ifvqbo0","pricing_plan_id":"cebpf4jnsgd1na2vs0mg"},{"bike_id":"8cf33a2b-1dad-428d-847d-334577e31477","system_id":"levelo_inurba_marseille","lat":43.29302,"lon":5.37457,"is_reserved":false,"is_disabled":false,"rental_uris":{"android":"levelo://app?vid=8cf33a2b-1dad-428d-847d-334577e31477","ios":"levelo://app?vid=8cf33a2b-1dad-428d-847d-334577e31477"},"vehicle_type_id":"4","last_reported":1779389463,"current_range_meters":7200,"station_id":"ce4bgi12rcd13ifvqb70","pricing_plan_id":"cebpf4jnsgd1na2vs0mg"},{"bike_id":"088dac73-a3c1-474c-8654-10cb1571ed45","system_id":"levelo_inurba_marseille","lat":43.290088,"lon":5.356082,"is_reserved":false,"is_disabled":false,"rental_uris":{"android":"levelo://app?vid=088dac73-a3c1-474c-8654-10cb1571ed45","ios":"levelo://app?vid=088dac73-a3c1-474c-8654-10cb1571ed45"},"vehicle_type_id":"4","last_reported":1779389463,"current_range_meters":7200,"station_id":"ce4bhb92rcd13ifvqen0","pricing_plan_id":"cebpf4jnsgd1na2vs0mg"},{"bike_id":"fdbce866-353b-406f-91cd-c19c8dac4960","system_id":"levelo_inurba_marseille","lat":43.31689,"lon":5.40473,"is_reserved":false,"is_disabled":false,"rental_uris":{"android":"levelo://app?vid=fdbce866-353b-406f-91cd-c19c8dac4960","ios":"levelo://app?vid=fdbce866-353b-406f-91cd-c19c8dac4960"},"vehicle_type_id":"4","last_reported":1779389463,"current_range_meters":7200,"station_id":"ce4bh012rcd13ifvqd00","pricing_plan_id":"cebpf4jnsgd1na2vs0mg"},{"bike_id":"f98730e4-750e-4fb1-8b10-adc87f0c5064","system_id":"levelo_inurba_marseille","lat":43.29795,"lon":5.38106,"is_reserved":false,"is_disabled":false,"rental_uris":{"android":"levelo://app?vid=f98730e4-750e-4fb1-8b10-adc87f0c5064","ios":"levelo://app?vid=f98730e4-750e-4fb1-8b10-adc87f0c5064"},"vehicle_type_id":"4","last_reported":1779389463,"current_range_meters":7200,"station_id":"ce4bgip2rcd13ifvqbb0","pricing_plan_id":"cebpf4jnsgd1na2vs0mg"},{"bike_id":"7c4b6d95-abda-43cd-9ff7-74397623ce48","system_id":"levelo_inurba_marseille","lat":43.29259,"lon":5.38454,"is_reserved":false,"is_disabled":false,"rental_uris":{"android":"levelo://app?vid=7c4b6d95-abda-43cd-9ff7-74397623ce48","ios":"levelo://app?vid=7c4b6d95-abda-43cd-9ff7-74397623ce48"},"vehicle_type_id":"4","last_reported":1779389463,"current_range_meters":7200,"station_id":"ce4bh692rcd13ifvqea0","pricing_plan_id":"cebpf4jnsgd1na2vs0mg"},{"bike_id":"5de97924-bdac-4383-95aa-37ed8247ba33","system_id":"levelo_inurba_marseille","lat":43.303232,"lon":5.40439,"is_reserved":false,"is_disabled":false,"rental_uris":{"android":"levelo://app?vid=5de97924-bdac-4383-95aa-37ed8247ba33","ios":"levelo://app?vid=5de97924-bdac-4383-95aa-37ed8247ba33"},"vehicle_type_id":"4","last_reported":1779389463,"current_range_meters":7200,"station_id":"ce4bh012rcd13ifvqd10","pricing_plan_id":"cebpf4jnsgd1na2vs0mg"},{"bike_id":"3b7c6a7c-8def-4f67-896d-b1ec9dfb83ed","system_id":"levelo_inurba_marseille","lat":43.32355,"lon":5.38458,"is_reserved":false,"is_disabled":true,"rental_uris":{"android":"levelo://app?vid=3b7c6a7c-8def-4f67-896d-b1ec9dfb83ed","ios":"levelo://app?vid=3b7c6a7c-8def-4f67-896d-b1ec9dfb83ed"},"vehicle_type_id":"4","last_reported":1779389463,"current_range_meters":7200,"station_id":"st_d45171o9ee8s73djdqug","pricing_plan_id":"cebpf4jnsgd1na2vs0mg"},{"bike_id":"6774f205-2ee3-4625-997b-63c588f833ce","system_id":"levelo_inurba_marseille","lat":43.2602,"lon":5.37557,"is_reserved":false,"is_disabled":true,"rental_uris":{"android":"levelo://app?vid=6774f205-2ee3-4625-997b-63c588f833ce","ios":"levelo://app?vid=6774f205-2ee3-4625-997b-63c588f833ce"},"vehicle_type_id":"4","last_reported":1779389463,"current_range_meters":7200,"station_id":"ce4bhgh2rcd13ifvqfa0","pricing_plan_id":"cebpf4jnsgd1na2vs0mg"},{"bike_id":"bed19dd0-eb96-4af7-8d6e-de2d06fb8601","system_id":"levelo_inurba_marseille","lat":43.2534,"lon":5.42176,"is_reserved":false,"is_disabled":false,"rental_uris":{"android":"levelo://app?vid=bed19dd0-eb96-4af7-8d6e-de2d06fb8601","ios":"levelo://app?vid=bed19dd0-eb96-4af7-8d6e-de2d06fb8601"},"vehicle_type_id":"4","last_reported":1779389463,"current_range_meters":7200,"station_id":"st_d2m65c5bi1j21697t3ng","pricing_plan_id":"cebpf4jnsgd1na2vs0mg"},{"bike_id":"a88b9c4b-9252-417d-a5fb-743f0cf14466","system_id":"levelo_inurba_marseille","lat":43.286123,"lon":5.351146,"is_reserved":false,"is_disabled":false,"rental_uris":{"android":"levelo://app?vid=a88b9c4b-9252-417d-a5fb-743f0cf14466","ios":"levelo://app?vid=a88b9c4b-9252-417d-a5fb-743f0cf14466"},"vehicle_type_id":"4","last_reported":1779389463,"current_range_meters":7200,"station_id":"ce4bhch2rcd13ifvqeug","pricing_plan_id":"cebpf4jnsgd1na2vs0mg"},{"bike_id":"fc90e784-043f-409e-a0a5-40df412c8d0e","system_id":"levelo_inurba_marseille","lat":43.29266,"lon":5.38404,"is_reserved":false,"is_disabled":false,"rental_uris":{"android":"levelo://app?vid=fc90e784-043f-409e-a0a5-40df412c8d0e","ios":"levelo://app?vid=fc90e784-043f-409e-a0a5-40df412c8d0e"},"vehicle_type_id":"4","last_reported":1779389463,"current_range_meters":8000,"station_id":"ce4bh692rcd13ifvqea0","pricing_plan_id":"cebpf4jnsgd1na2vs0mg"},{"bike_id":"f4b805d4-30ca-4f1e-bc0b-58b10592edce","system_id":"levelo_inurba_marseille","lat":43.2922,"lon":5.37477,"is_reserved":false,"is_disabled":false,"rental_uris":{"android":"levelo://app?vid=f4b805d4-30ca-4f1e-bc0b-58b10592edce","ios":"levelo://app?vid=f4b805d4-30ca-4f1e-bc0b-58b10592edce"},"vehicle_type_id":"4","last_reported":1779389463,"current_range_meters":8000,"station_id":"","pricing_plan_id":"cebpf4jnsgd1na2vs0mg"},{"bike_id":"47786595-b402-43f0-81d5-a02a10a5cfd1","system_id":"levelo_inurba_marseille","lat":43.25826,"lon":5.3943,"is_reserved":false,"is_disabled":false,"rental_uris":{"android":"levelo://app?vid=47786595-b402-43f0-81d5-a02a10a5cfd1","ios":"levelo://app?vid=47786595-b402-43f0-81d5-a02a10a5cfd1"},"vehicle_type_id":"4","last_reported":1779389463,"current_range_meters":8000,"station_id":"ce4bhip2rcd13ifvqft0","pricing_plan_id":"cebpf4jnsgd1na2vs0mg"},{"bike_id":"6ecace9b-c16d-43aa-9c1a-0ebc2e7bcfc4","system_id":"levelo_inurba_marseille","lat":43.32101,"lon":5.36768,"is_reserved":false,"is_disabled":false,"rental_uris":{"android":"levelo://app?vid=6ecace9b-c16d-43aa-9c1a-0ebc2e7bcfc4","ios":"levelo://app?vid=6ecace9b-c16d-43aa-9c1a-0ebc2e7bcfc4"},"vehicle_type_id":"4","last_reported":1779389463,"current_range_meters":8000,"station_id":"ce4bhrh2rcd13ifvqhug","pricing_plan_id":"cebpf4jnsgd1na2vs0mg"},{"bike_id":"9f3d2748-5acf-4dcd-8402-a8acceb0363a","system_id":"levelo_inurba_marseille","lat":43.2455,"lon":5.3952,"is_reserved":false,"is_disabled":false,"rental_uris":{"android":"levelo://app?vid=9f3d2748-5acf-4dcd-8402-a8acceb0363a","ios":"levelo://app?vid=9f3d2748-5acf-4dcd-8402-a8acceb0363a"},"vehicle_type_id":"4","last_reported":1779389463,"current_range_meters":8000,"station_id":"ce4bhlp2rcd13ifvqgjg","pricing_plan_id":"cebpf4jnsgd1na2vs0mg"},{"bike_id":"678c2486-f208-445a-a253-9dfac60b0dc7","system_id":"levelo_inurba_marseille","lat":43.32423,"lon":5.36906,"is_reserved":false,"is_disabled":false,"rental_uris":{"android":"levelo://app?vid=678c2486-f208-445a-a253-9dfac60b0dc7","ios":"levelo://app?vid=678c2486-f208-445a-a253-9dfac60b0dc7"},"vehicle_type_id":"4","last_reported":1779389463,"current_range_meters":8000,"station_id":"","pricing_plan_id":"cebpf4jnsgd1na2vs0mg"},{"bike_id":"6cdd1f1b-787d-46e1-bce6-0afd35f09763","system_id":"levelo_inurba_marseille","lat":43.28608,"lon":5.37065,"is_reserved":false,"is_disabled":false,"rental_uris":{"android":"levelo://app?vid=6cdd1f1b-787d-46e1-bce6-0afd35f09763","ios":"levelo://app?vid=6cdd1f1b-787d-46e1-bce6-0afd35f09763"},"vehicle_type_id":"4","last_reported":1779389463,"current_range_meters":8000,"station_id":"ce4bht12rcd13ifvqi60","pricing_plan_id":"cebpf4jnsgd1na2vs0mg"},{"bike_id":"abd44017-c84e-4cb0-a4c6-f3e577662708","system_id":"levelo_inurba_marseille","lat":43.29265,"lon":5.40895,"is_reserved":false,"is_disabled":false,"rental_uris":{"android":"levelo://app?vid=abd44017-c84e-4cb0-a4c6-f3e577662708","ios":"levelo://app?vid=abd44017-c84e-4cb0-a4c6-f3e577662708"},"vehicle_type_id":"4","last_reported":1779389463,"current_range_meters":8000,"station_id":"ce4bh192rcd13ifvqdc0","pricing_plan_id":"cebpf4jnsgd1na2vs0mg"},{"bike_id":"b04ee6bf-b6e5-441d-82a5-749df314e482","system_id":"levelo_inurba_marseille","lat":43.31429,"lon":5.4512,"is_reserved":false,"is_disabled":false,"rental_uris":{"android":"levelo://app?vid=b04ee6bf-b6e5-441d-82a5-749df314e482","ios":"levelo://app?vid=b04ee6bf-b6e5-441d-82a5-749df314e482"},"vehicle_type_id":"4","last_reported":1779389463,"current_range_meters":8000,"station_id":"","pricing_plan_id":"cebpf4jnsgd1na2vs0mg"},{"bike_id":"21446c33-4740-42f3-9e08-ca64ab9dbcaa","system_id":"levelo_inurba_marseille","lat":43.28406,"lon":5.37516,"is_reserved":false,"is_disabled":false,"rental_uris":{"android":"levelo://app?vid=21446c33-4740-42f3-9e08-ca64ab9dbcaa","ios":"levelo://app?vid=21446c33-4740-42f3-9e08-ca64ab9dbcaa"},"vehicle_type_id":"4","last_reported":1779389463,"current_range_meters":8000,"station_id":"ce4bh412rcd13ifvqds0","pricing_plan_id":"cebpf4jnsgd1na2vs0mg"},{"bike_id":"b1f8e745-20cc-4e84-acf0-d5220eea7662","system_id":"levelo_inurba_marseille","lat":43.28637,"lon":5.35087,"is_reserved":false,"is_disabled":false,"rental_uris":{"android":"levelo://app?vid=b1f8e745-20cc-4e84-acf0-d5220eea7662","ios":"levelo://app?vid=b1f8e745-20cc-4e84-acf0-d5220eea7662"},"vehicle_type_id":"4","last_reported":1779389463,"current_range_meters":8000,"station_id":"ce4bhch2rcd13ifvqeug","pricing_plan_id":"cebpf4jnsgd1na2vs0mg"},{"bike_id":"65df618d-d891-4956-bc2a-1dbb6920ac59","system_id":"levelo_inurba_marseille","lat":43.2938,"lon":5.37825,"is_reserved":false,"is_disabled":false,"rental_uris":{"android":"levelo://app?vid=65df618d-d891-4956-bc2a-1dbb6920ac59","ios":"levelo://app?vid=65df618d-d891-4956-bc2a-1dbb6920ac59"},"vehicle_type_id":"4","last_reported":1779389463,"current_range_meters":8000,"station_id":"ce4bgjh2rcd13ifvqbf0","pricing_plan_id":"cebpf4jnsgd1na2vs0mg"},{"bike_id":"013939bc-c53d-4e6f-be2a-05c79303cd52","system_id":"levelo_inurba_marseille","lat":43.30974,"lon":5.36663,"is_reserved":false,"is_disabled":false,"rental_uris":{"android":"levelo://app?vid=013939bc-c53d-4e6f-be2a-05c79303cd52","ios":"levelo://app?vid=013939bc-c53d-4e6f-be2a-05c79303cd52"},"vehicle_type_id":"4","last_reported":1779389463,"current_range_meters":8000,"station_id":"","pricing_plan_id":"cebpf4jnsgd1na2vs0mg"},{"bike_id":"dc8b29bf-cf00-4d91-9386-85680325d9ce","system_id":"levelo_inurba_marseille","lat":43.28619,"lon":5.35107,"is_reserved":false,"is_disabled":false,"rental_uris":{"android":"levelo://app?vid=dc8b29bf-cf00-4d91-9386-85680325d9ce","ios":"levelo://app?vid=dc8b29bf-cf00-4d91-9386-85680325d9ce"},"vehicle_type_id":"4","last_reported":1779389463,"current_range_meters":8000,"station_id":"ce4bhch2rcd13ifvqeug","pricing_plan_id":"cebpf4jnsgd1na2vs0mg"},{"bike_id":"69ebca06-d718-42a0-a01a-6483b0463da6","system_id":"levelo_inurba_marseille","lat":43.27515,"lon":5.42463,"is_reserved":false,"is_disabled":false,"rental_uris":{"android":"levelo://app?vid=69ebca06-d718-42a0-a01a-6483b0463da6","ios":"levelo://app?vid=69ebca06-d718-42a0-a01a-6483b0463da6"},"vehicle_type_id":"4","last_reported":1779389463,"current_range_meters":8000,"station_id":"ce4bhn92rcd13ifvqgrg","pricing_plan_id":"cebpf4jnsgd1na2vs0mg"},{"bike_id":"04f6042d-1486-4a8d-9760-f0f7661a7209","system_id":"levelo_inurba_marseille","lat":43.293048,"lon":5.401381,"is_reserved":false,"is_disabled":false,"rental_uris":{"android":"levelo://app?vid=04f6042d-1486-4a8d-9760-f0f7661a7209","ios":"levelo://app?vid=04f6042d-1486-4a8d-9760-f0f7661a7209"},"vehicle_type_id":"4","last_reported":1779389463,"current_range_meters":8000,"station_id":"ce4bh312rcd13ifvqdk0","pricing_plan_id":"cebpf4jnsgd1na2vs0mg"},{"bike_id":"ab8afdb1-6440-465f-9d72-bf186b260819","system_id":"levelo_inurba_marseille","lat":43.29886,"lon":5.38917,"is_reserved":false,"is_disabled":false,"rental_uris":{"android":"levelo://app?vid=ab8afdb1-6440-465f-9d72-bf186b260819","ios":"levelo://app?vid=ab8afdb1-6440-465f-9d72-bf186b260819"},"vehicle_type_id":"4","last_reported":1779389463,"current_range_meters":8000,"station_id":"ce4bh392rcd13ifvqdl0","pricing_plan_id":"cebpf4jnsgd1na2vs0mg"},{"bike_id":"fc76b3f1-0306-4517-8969-7dbbe2b29aa8","system_id":"levelo_inurba_marseille","lat":43.29035,"lon":5.38622,"is_reserved":false,"is_disabled":false,"rental_uris":{"android":"levelo://app?vid=fc76b3f1-0306-4517-8969-7dbbe2b29aa8","ios":"levelo://app?vid=fc76b3f1-0306-4517-8969-7dbbe2b29aa8"},"vehicle_type_id":"4","last_reported":1779389463,"current_range_meters":8000,"station_id":"ce4bh4p2rcd13ifvqe0g","pricing_plan_id":"cebpf4jnsgd1na2vs0mg"},{"bike_id":"b292611d-9b17-4c78-bb30-efd64e7eb3b6","system_id":"levelo_inurba_marseille","lat":43.29607,"lon":5.38102,"is_reserved":false,"is_disabled":false,"rental_uris":{"android":"levelo://app?vid=b292611d-9b17-4c78-bb30-efd64e7eb3b6","ios":"levelo://app?vid=b292611d-9b17-4c78-bb30-efd64e7eb3b6"},"vehicle_type_id":"4","last_reported":1779389463,"current_range_meters":8000,"station_id":"ce4bgl12rcd13ifvqbo0","pricing_plan_id":"cebpf4jnsgd1na2vs0mg"},{"bike_id":"c1ed57f6-f105-460c-8703-1c2eae17785a","system_id":"levelo_inurba_marseille","lat":43.22539,"lon":5.34833,"is_reserved":false,"is_disabled":false,"rental_uris":{"android":"levelo://app?vid=c1ed57f6-f105-460c-8703-1c2eae17785a","ios":"levelo://app?vid=c1ed57f6-f105-460c-8703-1c2eae17785a"},"vehicle_type_id":"4","last_reported":1779389463,"current_range_meters":8000,"station_id":"st_cvj5dfep6f1abm77gieg","pricing_plan_id":"cebpf4jnsgd1na2vs0mg"},{"bike_id":"462b95e6-d4ea-4465-b068-0c42267851aa","system_id":"levelo_inurba_marseille","lat":43.30098,"lon":5.39075,"is_reserved":false,"is_disabled":false,"rental_uris":{"android":"levelo://app?vid=462b95e6-d4ea-4465-b068-0c42267851aa","ios":"levelo://app?vid=462b95e6-d4ea-4465-b068-0c42267851aa"},"vehicle_type_id":"4","last_reported":1779389463,"current_range_meters":8000,"station_id":"ce4bh192rcd13ifvqdb0","pricing_plan_id":"cebpf4jnsgd1na2vs0mg"},{"bike_id":"d8bfc46c-890f-43d2-8d4e-99ed6e6427b2","system_id":"levelo_inurba_marseille","lat":43.25569,"lon":5.38248,"is_reserved":false,"is_disabled":false,"rental_uris":{"android":"levelo://app?vid=d8bfc46c-890f-43d2-8d4e-99ed6e6427b2","ios":"levelo://app?vid=d8bfc46c-890f-43d2-8d4e-99ed6e6427b2"},"vehicle_type_id":"4","last_reported":1779389463,"current_range_meters":8000,"station_id":"ce4bhih2rcd13ifvqfs0","pricing_plan_id":"cebpf4jnsgd1na2vs0mg"},{"bike_id":"b544528a-6ce4-4225-b55f-c5208ea5333a","system_id":"levelo_inurba_marseille","lat":43.28407,"lon":5.34991,"is_reserved":false,"is_disabled":false,"rental_uris":{"android":"levelo://app?vid=b544528a-6ce4-4225-b55f-c5208ea5333a","ios":"levelo://app?vid=b544528a-6ce4-4225-b55f-c5208ea5333a"},"vehicle_type_id":"4","last_reported":1779389463,"current_range_meters":8000,"station_id":"ce4bhbh2rcd13ifvqepg","pricing_plan_id":"cebpf4jnsgd1na2vs0mg"},{"bike_id":"2784b41b-7698-4ba3-b4bc-e218b40eef8b","system_id":"levelo_inurba_marseille","lat":43.29887,"lon":5.38895,"is_reserved":false,"is_disabled":false,"rental_uris":{"android":"levelo://app?vid=2784b41b-7698-4ba3-b4bc-e218b40eef8b","ios":"levelo://app?vid=2784b41b-7698-4ba3-b4bc-e218b40eef8b"},"vehicle_type_id":"4","last_reported":1779389463,"current_range_meters":8000,"station_id":"ce4bh392rcd13ifvqdl0","pricing_plan_id":"cebpf4jnsgd1na2vs0mg"},{"bike_id":"ae56e8d5-e0fd-4c9b-9107-60b53f8336a6","system_id":"levelo_inurba_marseille","lat":43.28416,"lon":5.34981,"is_reserved":false,"is_disabled":false,"rental_uris":{"android":"levelo://app?vid=ae56e8d5-e0fd-4c9b-9107-60b53f8336a6","ios":"levelo://app?vid=ae56e8d5-e0fd-4c9b-9107-60b53f8336a6"},"vehicle_type_id":"4","last_reported":1779389463,"current_range_meters":8000,"station_id":"ce4bhbh2rcd13ifvqepg","pricing_plan_id":"cebpf4jnsgd1na2vs0mg"},{"bike_id":"3b3648bc-114e-4573-b5a4-e0750016f792","system_id":"levelo_inurba_marseille","lat":43.2384,"lon":5.41332,"is_reserved":false,"is_disabled":false,"rental_uris":{"android":"levelo://app?vid=3b3648bc-114e-4573-b5a4-e0750016f792","ios":"levelo://app?vid=3b3648bc-114e-4573-b5a4-e0750016f792"},"vehicle_type_id":"4","last_reported":1779389463,"current_range_meters":8000,"station_id":"","pricing_plan_id":"cebpf4jnsgd1na2vs0mg"},