{"last_updated":1726952831,"ttl":30,"version":"2.2","data":{"bikes":[{"bike_id":"0d544cb3-5db5-4a21-b3c2-34479d641154","system_id":"levelo_inurba_marseille","lat":43.23964,"lon":5.3663,"is_reserved":false,"is_disabled":false,"rental_uris":{"android":"levelo://app?vid=0d544cb3-5db5-4a21-b3c2-34479d641154","ios":"levelo://app?vid=0d544cb3-5db5-4a21-b3c2-34479d641154"},"vehicle_type_id":"4","last_reported":1726952831,"current_range_meters":18000,"station_id":"ce4bhi12rcd13ifvqfp0","pricing_plan_id":"cebpf4jnsgd1na2vs0mg"},{"bike_id":"fd84f170-c075-4570-a556-c5e617e29406","system_id":"levelo_inurba_marseille","lat":43.28269,"lon":5.40909,"is_reserved":false,"is_disabled":false,"rental_uris":{"android":"levelo://app?vid=fd84f170-c075-4570-a556-c5e617e29406","ios":"levelo://app?vid=fd84f170-c075-4570-a556-c5e617e29406"},"vehicle_type_id":"4","last_reported":1726952831,"current_range_meters":20800,"station_id":"","pricing_plan_id":"cebpf4jnsgd1na2vs0mg"},{"bike_id":"5a54b612-489f-4fbe-8501-cb9fd58c10d6","system_id":"levelo_inurba_marseille","lat":43.28001,"lon":5.40042,"is_reserved":false,"is_disabled":false,"rental_uris":{"android":"levelo://app?vid=5a54b612-489f-4fbe-8501-cb9fd58c10d6","ios":"levelo://app?vid=5a54b612-489f-4fbe-8501-cb9fd58c10d6"},"vehicle_type_id":"4","last_reported":1726952831,"current_range_meters":38800,"station_id":"ce4bho92rcd13ifvqh4g","pricing_plan_id":"cebpf4jnsgd1na2vs0mg"},{"bike_id":"206576c8-8596-491b-a10e-b37220fe15d4","system_id":"levelo_inurba_marseille","lat":43.285521,"lon":5.360104,"is_reserved":false,"is_disabled":false,"rental_uris":{"android":"levelo://app?vid=206576c8-8596-491b-a10e-b37220fe15d4","ios":"levelo://app?vid=206576c8-8596-491b-a10e-b37220fe15d4"},"vehicle_type_id":"4","last_reported":1726952831,"current_range_meters":38800,"station_id":"ce4bhah2rcd13ifvqei0","pricing_plan_id":"cebpf4jnsgd1na2vs0mg"},{"bike_id":"65024be6-3ee3-4980-8a6f-c38ab9536e89","system_id":"levelo_inurba_marseille","lat":43.29091,"lon":5.3814,"is_reserved":false,"is_disabled":false,"rental_uris":{"android":"levelo://app?vid=65024be6-3ee3-4980-8a6f-c38ab9536e89","ios":"levelo://app?vid=65024be6-3ee3-4980-8a6f-c38ab9536e89"},"vehicle_type_id":"4","last_reported":1726952831,"current_range_meters":36000,"station_id":"ce4bh512rcd13ifvqe2g","pricing_plan_id":"cebpf4jnsgd1na2vs0mg"},{"bike_id":"9e921221-89f4-4813-ab71-b523acba55c9","system_id":"levelo_inurba_marseille","lat":43.30879,"lon":5.39648,"is_reserved":false,"is_disabled":false,"rental_uris":{"android":"levelo://app?vid=9e921221-89f4-4813-ab71-b523acba55c9","ios":"levelo://app?vid=9e921221-89f4-4813-ab71-b523acba55c9"},"vehicle_type_id":"4","last_reported":1726952831,"current_range_meters":7200,"station_id":"ce4bh012rcd13ifvqcv0","pricing_plan_id":"cebpf4jnsgd1na2vs0mg"},{"bike_id":"8bb9f58a-7025-4e9c-802b-91c900607241","system_id":"levelo_inurba_marseille","lat":43.29412,"lon":5.38632,"is_reserved":false,"is_disabled":false,"rental_uris":{"android":"levelo://app?vid=8bb9f58a-7025-4e9c-802b-91c900607241","ios":"levelo://app?vid=8bb9f58a-7025-4e9c-802b-91c900607241"},"vehicle_type_id":"4","last_reported":1726952831,"current_range_meters":19600,"station_id":"ce4bh2h2rcd13ifvqdh0","pricing_plan_id":"cebpf4jnsgd1na2vs0mg"},{"bike_id":"a63cc781-8da1-49c5-9c2b-ecc00c0bade3","system_id":"levelo_inurba_marseille","lat":43.31164,"lon":5.38727,"is_reserved":false,"is_disabled":false,"rental_uris":{"android":"levelo://app?vid=a63cc781-8da1-49c5-9c2b-ecc00c0bade3","ios":"levelo://app?vid=a63cc781-8da1-49c5-9c2b-ecc00c0bade3"},"vehicle_type_id":"4","last_reported":1726952831,"current_range_meters":23200,"station_id":"ce4bgv12rcd13ifvqcp0","pricing_plan_id":"cebpf4jnsgd1na2vs0mg"},{"bike_id":"e01f609a-d9fa-4874-8ed2-b49cd724355e","system_id":"levelo_inurba_marseille","lat":43.30183,"lon":5.36606,"is_reserved":false,"is_disabled":false,"rental_uris":{"android":"levelo://app?vid=e01f609a-d9fa-4874-8ed2-b49cd724355e","ios":"levelo://app?vid=e01f609a-d9fa-4874-8ed2-b49cd724355e"},"vehicle_type_id":"4","last_reported":1726952831,"current_range_meters":38000,"station_id":"ce4bgrh2rcd13ifvqc8g","pricing_plan_id":"cebpf4jnsgd1na2vs0mg"},{"bike_id":"edbb5496-0c94-4700-a91b-1965b1b6dd03","system_id":"levelo_inurba_marseille","lat":43.2903,"lon":5.38627,"is_reserved":false,"is_disabled":false,"rental_uris":{"android":"levelo://app?vid=edbb5496-0c94-4700-a91b-1965b1b6dd03","ios":"levelo://app?vid=edbb5496-0c94-4700-a91b-1965b1b6dd03"},"vehicle_type_id":"4","last_reported":1726952831,"current_range_meters":27200,"station_id":"ce4bh4p2rcd13ifvqe0g","pricing_plan_id":"cebpf4jnsgd1na2vs0mg"},{"bike_id":"f388f8dd-bd23-4558-834a-fd13f49822df","system_id":"levelo_inurba_marseille","lat":43.28466,"lon":5.35886,"is_reserved":false,"is_disabled":false,"rental_uris":{"android":"levelo://app?vid=f388f8dd-bd23-4558-834a-fd13f49822df","ios":"levelo://app?vid=f388f8dd-bd23-4558-834a-fd13f49822df"},"vehicle_type_id":"4","last_reported":1726952831,"current_range_meters":38400,"station_id":"ce4bhah2rcd13ifvqei0","pricing_plan_id":"cebpf4jnsgd1na2vs0mg"},{"bike_id":"f6d16a38-db77-4a3a-85fb-4c9d76923093","system_id":"levelo_inurba_marseille","lat":43.30266,"lon":5.37703,"is_reserved":false,"is_disabled":false,"rental_uris":{"android":"levelo://app?vid=f6d16a38-db77-4a3a-85fb-4c9d76923093","ios":"levelo://app?vid=f6d16a38-db77-4a3a-85fb-4c9d76923093"},"vehicle_type_id":"4","last_reported":1726952831,"current_range_meters":38000,"station_id":"ce4bguh2rcd13ifvqcj0","pricing_plan_id":"cebpf4jnsgd1na2vs0mg"},{"bike_id":"f931dce2-ba59-45d0-ba7c-7690ec111770","system_id":"levelo_inurba_marseille","lat":43.29422,"lon":5.38625,"is_reserved":false,"is_disabled":false,"rental_uris":{"android":"levelo://app?vid=f931dce2-ba59-45d0-ba7c-7690ec111770","ios":"levelo://app?vid=f931dce2-ba59-45d0-ba7c-7690ec111770"},"vehicle_type_id":"4","last_reported":1726952831,"current_range_meters":37600,"station_id":"ce4bh2h2rcd13ifvqdh0","pricing_plan_id":"cebpf4jnsgd1na2vs0mg"},{"bike_id":"e0bce922-4df3-4df1-936a-fc243f82f763","system_id":"levelo_inurba_marseille","lat":43.29271,"lon":5.38447,"is_reserved":false,"is_disabled":false,"rental_uris":{"android":"levelo://app?vid=e0bce922-4df3-4df1-936a-fc243f82f763","ios":"levelo://app?vid=e0bce922-4df3-4df1-936a-fc243f82f763"},"vehicle_type_id":"4","last_reported":1726952831,"current_range_meters":8000,"station_id":"ce4bh692rcd13ifvqea0","pricing_plan_id":"cebpf4jnsgd1na2vs0mg"},{"bike_id":"f7d9c8c0-512e-4533-b4ee-666b76405ac2","system_id":"levelo_inurba_marseille","lat":43.29881,"lon":5.389,"is_reserved":false,"is_disabled":false,"rental_uris":{"android":"levelo://app?vid=f7d9c8c0-512e-4533-b4ee-666b76405ac2","ios":"levelo://app?vid=f7d9c8c0-512e-4533-b4ee-666b76405ac2"},"vehicle_type_id":"4","last_reported":1726952831,"current_range_meters":16400,"station_id":"ce4bh392rcd13ifvqdl0","pricing_plan_id":"cebpf4jnsgd1na2vs0mg"},{"bike_id":"f6153498-302e-48b7-ac4d-b25f8d056815","system_id":"levelo_inurba_marseille","lat":43.29704,"lon":5.37395,"is_reserved":false,"is_disabled":false,"rental_uris":{"android":"levelo://app?vid=f6153498-302e-48b7-ac4d-b25f8d056815","ios":"levelo://app?vid=f6153498-302e-48b7-ac4d-b25f8d056815"},"vehicle_type_id":"4","last_reported":1726952831,"current_range_meters":20000,"station_id":"","pricing_plan_id":"cebpf4jnsgd1na2vs0mg"},{"bike_id":"a5122c3f-2c7d-4d61-99c7-bb836378f016","system_id":"levelo_inurba_marseille","lat":43.280055,"lon":5.400215,"is_reserved":false,"is_disabled":false,"rental_uris":{"android":"levelo://app?vid=a5122c3f-2c7d-4d61-99c7-bb836378f016","ios":"levelo://app?vid=a5122c3f-2c7d-4d61-99c7-bb836378f016"},"vehicle_type_id":"4","last_reported":1726952831,"current_range_meters":11200,"station_id":"ce4bho92rcd13ifvqh4g","pricing_plan_id":"cebpf4jnsgd1na2vs0mg"},{"bike_id":"797bf7f9-3a34-4b7c-9ca4-f3086ed9d032","system_id":"levelo_inurba_marseille","lat":43.29029,"lon":5.3865,"is_reserved":false,"is_disabled":false,"rental_uris":{"android":"levelo://app?vid=797bf7f9-3a34-4b7c-9ca4-f3086ed9d032","ios":"levelo://app?vid=797bf7f9-3a34-4b7c-9ca4-f3086ed9d032"},"vehicle_type_id":"4","last_reported":1726952831,"current_range_meters":38800,"station_id":"ce4bh4p2rcd13ifvqe0g","pricing_plan_id":"cebpf4jnsgd1na2vs0mg"},{"bike_id":"f1a1b266-38cd-4948-a071-219f89de7e58","system_id":"levelo_inurba_marseille","lat":43.28703,"lon":5.37394,"is_reserved":false,"is_disabled":false,"rental_uris":{"android":"levelo://app?vid=f1a1b266-38cd-4948-a071-219f89de7e58","ios":"levelo://app?vid=f1a1b266-38cd-4948-a071-219f89de7e58"},"vehicle_type_id":"4","last_reported":1726952831,"current_range_meters":29600,"station_id":"ce4bh3p2rcd13ifvqdq0","pricing_plan_id":"cebpf4jnsgd1na2vs0mg"},{"bike_id":"29c3801a-7b4c-47aa-a6ad-d81b447de9a5","system_id":"levelo_inurba_marseille","lat":43.30417,"lon":5.4129,"is_reserved":false,"is_disabled":false,"rental_uris":{"android":"levelo://app?vid=29c3801a-7b4c-47aa-a6ad-d81b447de9a5","ios":"levelo://app?vid=29c3801a-7b4c-47aa-a6ad-d81b447de9a5"},"vehicle_type_id":"4","last_reported":1726952831,"current_range_meters":28400,"station_id":"ce4bhop2rcd13ifvqh8g","pricing_plan_id":"cebpf4jnsgd1na2vs0mg"},{"bike_id":"139813f4-74c8-4e15-a7df-8ee61537a030","system_id":"levelo_inurba_marseille","lat":43.23965,"lon":5.36634,"is_reserved":false,"is_disabled":false,"rental_uris":{"android":"levelo://app?vid=139813f4-74c8-4e15-a7df-8ee61537a030","ios":"levelo://app?vid=139813f4-74c8-4e15-a7df-8ee61537a030"},"vehicle_type_id":"4","last_reported":1726952831,"current_range_meters":20400,"station_id":"ce4bhi12rcd13ifvqfp0","pricing_plan_id":"cebpf4jnsgd1na2vs0mg"},{"bike_id":"b9043ee7-1b51-4205-a7f8-061a93eb7c50","system_id":"levelo_inurba_marseille","lat":43.31887,"lon":5.4073,"is_reserved":false,"is_disabled":false,"rental_uris":{"android":"levelo://app?vid=b9043ee7-1b51-4205-a7f8-061a93eb7c50","ios":"levelo://app?vid=b9043ee7-1b51-4205-a7f8-061a93eb7c50"},"vehicle_type_id":"4","last_reported":1726952831,"current_range_meters":32400,"station_id":"ce4bhq12rcd13ifvqhig","pricing_plan_id":"cebpf4jnsgd1na2vs0mg"},{"bike_id":"3f3a1968-161c-4281-9dac-b1f6f3f79cd0","system_id":"levelo_inurba_marseille","lat":43.27494,"lon":5.42449,"is_reserved":false,"is_disabled":false,"rental_uris":{"android":"levelo://app?vid=3f3a1968-161c-4281-9dac-b1f6f3f79cd0","ios":"levelo://app?vid=3f3a1968-161c-4281-9dac-b1f6f3f79cd0"},"vehicle_type_id":"4","last_reported":1726952831,"current_range_meters":19600,"station_id":"ce4bhn92rcd13ifvqgrg","pricing_plan_id":"cebpf4jnsgd1na2vs0mg"},{"bike_id":"5555a5b5-088d-4c14-9b11-5b965fcc3403","system_id":"levelo_inurba_marseille","lat":43.2953,"lon":5.3855,"is_reserved":false,"is_disabled":false,"rental_uris":{"android":"levelo://app?vid=5555a5b5-088d-4c14-9b11-5b965fcc3403","ios":"levelo://app?vid=5555a5b5-088d-4c14-9b11-5b965fcc3403"},"vehicle_type_id":"4","last_reported":1726952831,"current_range_meters":34800,"station_id":"ce4bgih2rcd13ifvqba0","pricing_plan_id":"cebpf4jnsgd1na2vs0mg"},{"bike_id":"2c828423-5b62-42c9-b7d4-07c75a2f992a","system_id":"levelo_inurba_marseille","lat":43.29307,"lon":5.37171,"is_reserved":false,"is_disabled":false,"rental_uris":{"android":"levelo://app?vid=2c828423-5b62-42c9-b7d4-07c75a2f992a","ios":"levelo://app?vid=2c828423-5b62-42c9-b7d4-07c75a2f992a"},"vehicle_type_id":"4","last_reported":1726952831,"current_range_meters":25600,"station_id":"ce4bgh92rcd13ifvqb40","pricing_plan_id":"cebpf4jnsgd1na2vs0mg"},{"bike_id":"531f0eec-09e9-4336-ab86-75b3ba124fb9","system_id":"levelo_inurba_marseille","lat":43.29517,"lon":5.39403,"is_reserved":false,"is_disabled":false,"rental_uris":{"android":"levelo://app?vid=531f0eec-09e9-4336-ab86-75b3ba124fb9","ios":"levelo://app?vid=531f0eec-09e9-4336-ab86-75b3ba124fb9"},"vehicle_type_id":"4","last_reported":1726952831,"current_range_meters":38000,"station_id":"ce4bh292rcd13ifvqdf0","pricing_plan_id":"cebpf4jnsgd1na2vs0mg"},{"bike_id":"769aa380-47af-43dd-aae0-a3742784d091","system_id":"levelo_inurba_marseille","lat":43.295288,"lon":5.392416,"is_reserved":false,"is_disabled":false,"rental_uris":{"android":"levelo://app?vid=769aa380-47af-43dd-aae0-a3742784d091","ios":"levelo://app?vid=769aa380-47af-43dd-aae0-a3742784d091"},"vehicle_type_id":"4","last_reported":1726952831,"current_range_meters":29600,"station_id":"","pricing_plan_id":"cebpf4jnsgd1na2vs0mg"},{"bike_id":"ebabfaca-3986-4d00-be3b-c82a93b1fd1c","system_id":"levelo_inurba_marseille","lat":43.31365,"lon":5.38495,"is_reserved":false,"is_disabled":false,"rental_uris":{"android":"levelo://app?vid=ebabfaca-3986-4d00-be3b-c82a93b1fd1c","ios":"levelo://app?vid=ebabfaca-3986-4d00-be3b-c82a93b1fd1c"},"vehicle_type_id":"4","last_reported":1726952831,"current_range_meters":8800,"station_id":"ce4bgt92rcd13ifvqcf0","pricing_plan_id":"cebpf4jnsgd1na2vs0mg"},{"bike_id":"3cdbf2d7-bbfd-4bfc-872d-26e3d23bc7cf","system_id":"levelo_inurba_marseille","lat":43.3266,"lon":5.40994,"is_reserved":false,"is_disabled":false,"rental_uris":{"android":"levelo://app?vid=3cdbf2d7-bbfd-4bfc-872d-26e3d23bc7cf","ios":"levelo://app?vid=3cdbf2d7-bbfd-4bfc-872d-26e3d23bc7cf"},"vehicle_type_id":"4","last_reported":1726952831,"current_range_meters":24400,"station_id":"ce4bhpp2rcd13ifvqhgg","pricing_plan_id":"cebpf4jnsgd1na2vs0mg"},{"bike_id":"3b8759cb-099f-4f34-b097-2cf5e438f2b6","system_id":"levelo_inurba_marseille","lat":43.267947,"lon":5.394217,"is_reserved":false,"is_disabled":false,"rental_uris":{"android":"levelo://app?vid=3b8759cb-099f-4f34-b097-2cf5e438f2b6","ios":"levelo://app?vid=3b8759cb-099f-4f34-b097-2cf5e438f2b6"},"vehicle_type_id":"4","last_reported":1726952831,"current_range_meters":4000,"station_id":"ce4bhh12rcd13ifvqfg0","pricing_plan_id":"cebpf4jnsgd1na2vs0mg"},{"bike_id":"bc263bf5-20a1-4ba2-aabd-537a1ca16121","system_id":"levelo_inurba_marseille","lat":43.29419,"lon":5.38629,"is_reserved":false,"is_disabled":false,"rental_uris":{"android":"levelo://app?vid=bc263bf5-20a1-4ba2-aabd-537a1ca16121","ios":"levelo://app?vid=bc263bf5-20a1-4ba2-aabd-537a1ca16121"},"vehicle_type_id":"4","last_reported":1726952831,"current_range_meters":8400,"station_id":"ce4bh2h2rcd13ifvqdh0","pricing_plan_id":"cebpf4jnsgd1na2vs0mg"},{"bike_id":"da57ae02-d152-406c-b030-4332356ab16d","system_id":"levelo_inurba_marseille","lat":43.29214,"lon":5.36052,"is_reserved":false,"is_disabled":false,"rental_uris":{"android":"levelo://app?vid=da57ae02-d152-406c-b030-4332356ab16d","ios":"levelo://app?vid=da57ae02-d152-406c-b030-4332356ab16d"},"vehicle_type_id":"4","last_reported":1726952831,"current_range_meters":36400,"station_id":"ce4bhbh2rcd13ifvqeqg","pricing_plan_id":"cebpf4jnsgd1na2vs0mg"},{"bike_id":"ca3b7afa-847c-402c-8294-d17899d2225b","system_id":"levelo_inurba_marseille","lat":43.27966,"lon":5.38741,"is_reserved":false,"is_disabled":false,"rental_uris":{"android":"levelo://app?vid=ca3b7afa-847c-402c-8294-d17899d2225b","ios":"levelo://app?vid=ca3b7afa-847c-402c-8294-d17899d2225b"},"vehicle_type_id":"4","last_reported":1726952831,"current_range_meters":28000,"station_id":"ce4bhg12rcd13ifvqf80","pricing_plan_id":"cebpf4jnsgd1na2vs0mg"},{"bike_id":"6f1ebe60-fb80-480a-9eec-b69e669e9336","system_id":"levelo_inurba_marseille","lat":43.25503,"lon":5.37651,"is_reserved":false,"is_disabled":false,"rental_uris":{"android":"levelo://app?vid=6f1ebe60-fb80-480a-9eec-b69e669e9336","ios":"levelo://app?vid=6f1ebe60-fb80-480a-9eec-b69e669e9336"},"vehicle_type_id":"4","last_reported":1726952831,"current_range_meters":6000,"station_id":"ce4bhh12rcd13ifvqff0","pricing_plan_id":"cebpf4jnsgd1na2vs0mg"},{"bike_id":"2abfd0da-52ff-49fd-a5cb-a8f4dd818089","system_id":"levelo_inurba_marseille","lat":43.28158,"lon":5.42653,"is_reserved":false,"is_disabled":false,"rental_uris":{"android":"levelo://app?vid=2abfd0da-52ff-49fd-a5cb-a8f4dd818089","ios":"levelo://app?vid=2abfd0da-52ff-49fd-a5cb-a8f4dd818089"},"vehicle_type_id":"4","last_reported":1726952831,"current_range_meters":38800,"station_id":"ce4bhnh2rcd13ifvqgug","pricing_plan_id":"cebpf4jnsgd1na2vs0mg"},{"bike_id":"edfb1ff5-b81b-4225-8da9-100a9115b1e3","system_id":"levelo_inurba_marseille","lat":43.29735,"lon":5.36561,"is_reserved":false,"is_disabled":false,"rental_uris":{"android":"levelo://app?vid=edfb1ff5-b81b-4225-8da9-100a9115b1e3","ios":"levelo://app?vid=edfb1ff5-b81b-4225-8da9-100a9115b1e3"},"vehicle_type_id":"4","last_reported":1726952831,"current_range_meters":6800,"station_id":"","pricing_plan_id":"cebpf4jnsgd1na2vs0mg"},{"bike_id":"8fbbcdce-7e5a-416e-9a2c-f2453666cae6","system_id":"levelo_inurba_marseille","lat":43.28109,"lon":5.37841,"is_reserved":false,"is_disabled":false,"rental_uris":{"android":"levelo://app?vid=8fbbcdce-7e5a-416e-9a2c-f2453666cae6","ios":"levelo://app?vid=8fbbcdce-7e5a-416e-9a2c-f2453666cae6"},"vehicle_type_id":"4","last_reported":1726952831,"current_range_meters":36400,"station_id":"ce4bha12rcd13ifvqee0","pricing_plan_id":"cebpf4jnsgd1na2vs0mg"},{"bike_id":"631488bc-ca0a-465d-b540-dc0fc292dcb4","system_id":"levelo_inurba_marseille","lat":43.294159,"lon":5.386254,"is_reserved":false,"is_disabled":false,"rental_uris":{"android":"levelo://app?vid=631488bc-ca0a-465d-b540-dc0fc292dcb4","ios":"levelo://app?vid=631488bc-ca0a-465d-b540-dc0fc292dcb4"},"vehicle_type_id":"4","last_reported":1726952831,"current_range_meters":18000,"station_id":"ce4bgt92rcd13ifvqcf0","pricing_plan_id":"cebpf4jnsgd1na2vs0mg"},{"bike_id":"59ab40c5-10d5-49e8-9273-40aaf6fe404d","system_id":"levelo_inurba_marseille","lat":43.29421,"lon":5.38622,"is_reserved":false,"is_disabled":false,"rental_uris":{"android":"levelo://app?vid=59ab40c5-10d5-49e8-9273-40aaf6fe404d","ios":"levelo://app?vid=59ab40c5-10d5-49e8-9273-40aaf6fe404d"},"vehicle_type_id":"4","last_reported":1726952831,"current_range_meters":6800,"station_id":"ce4bh2h2rcd13ifvqdh0","pricing_plan_id":"cebpf4jnsgd1na2vs0mg"},{"bike_id":"01c50c87-8768-4070-b73a-7fa48e9b8c4f","system_id":"levelo_inurba_marseille","lat":43.29621,"lon":5.37155,"is_reserved":false,"is_disabled":false,"rental_uris":{"android":"levelo://app?vid=01c50c87-8768-4070-b73a-7fa48e9b8c4f","ios":"levelo://app?vid=01c50c87-8768-4070-b73a-7fa48e9b8c4f"},"vehicle_type_id":"4","last_reported":1726952831,"current_range_meters":4000,"station_id":"ce4bgnh2rcd13ifvqc0g","pricing_plan_id":"cebpf4jnsgd1na2vs0mg"},{"bike_id":"2a078445-4245-41e8-a2ec-aad2d864a707","system_id":"levelo_inurba_marseille","lat":43.2791,"lon":5.38004,"is_reserved":false,"is_disabled":false,"rental_uris":{"android":"levelo://app?vid=2a078445-4245-41e8-a2ec-aad2d864a707","ios":"levelo://app?vid=2a078445-4245-41e8-a2ec-aad2d864a707"},"vehicle_type_id":"4","last_reported":1726952831,"current_range_meters":14000,"station_id":"ce4bhf92rcd13ifvqf50","pricing_plan_id":"cebpf4jnsgd1na2vs0mg"},{"bike_id":"eb51972c-e901-47c9-aa4c-bb287b81e5fb","system_id":"levelo_inurba_marseille","lat":43.31757,"lon":5.3902,"is_reserved":false,"is_disabled":false,"rental_uris":{"android":"levelo://app?vid=eb51972c-e901-47c9-aa4c-bb287b81e5fb","ios":"levelo://app?vid=eb51972c-e901-47c9-aa4c-bb287b81e5fb"},"vehicle_type_id":"4","last_reported":1726952831,"current_range_meters":38800,"station_id":"ce4bhqp2rcd13ifvqhng","pricing_plan_id":"cebpf4jnsgd1na2vs0mg"},{"bike_id":"ea219450-0551-484e-bdfc-3c198bec9523","system_id":"levelo_inurba_marseille","lat":43.25871,"lon":5.39897,"is_reserved":false,"is_disabled":false,"rental_uris":{"android":"levelo://app?vid=ea219450-0551-484e-bdfc-3c198bec9523","ios":"levelo://app?vid=ea219450-0551-484e-bdfc-3c198bec9523"},"vehicle_type_id":"4","last_reported":1726952831,"current_range_meters":24400,"station_id":"ce4bhl92rcd13ifvqghg","pricing_plan_id":"cebpf4jnsgd1na2vs0mg"},{"bike_id":"1acee133-f313-4d90-8b46-80ddf8fa5494","system_id":"levelo_inurba_marseille","lat":43.24655,"lon":5.38891,"is_reserved":false,"is_disabled":false,"rental_uris":{"android":"levelo://app?vid=1acee133-f313-4d90-8b46-80ddf8fa5494","ios":"levelo://app?vid=1acee133-f313-4d90-8b46-80ddf8fa5494"},"vehicle_type_id":"4","last_reported":1726952831,"current_range_meters":12800,"station_id":"ce4bhg12rcd13ifvqf60","pricing_plan_id":"cebpf4jnsgd1na2vs0mg"},{"bike_id":"21cbc733-337f-498a-941f-dd8c739f3bb0","system_id":"levelo_inurba_marseille","lat":43.29023,"lon":5.38643,"is_reserved":false,"is_disabled":false,"rental_uris":{"android":"levelo://app?vid=21cbc733-337f-498a-941f-dd8c739f3bb0","ios":"levelo://app?vid=21cbc733-337f-498a-941f-dd8c739f3bb0"},"vehicle_type_id":"4","last_reported":1726952831,"current_range_meters":22400,"station_id":"ce4bh4p2rcd13ifvqe0g","pricing_plan_id":"cebpf4jnsgd1na2vs0mg"},{"bike_id":"8ac83ac5-773a-4b70-9e8f-29b6cae94b65","system_id":"levelo_inurba_marseille","lat":43.29526,"lon":5.38545,"is_reserved":false,"is_disabled":false,"rental_uris":{"android":"levelo://app?vid=8ac83ac5-773a-4b70-9e8f-29b6cae94b65","ios":"levelo://app?vid=8ac83ac5-773a-4b70-9e8f-29b6cae94b65"},"vehicle_type_id":"4","last_reported":1726952831,"current_range_meters":38800,"station_id":"ce4bgih2rcd13ifvqba0","pricing_plan_id":"cebpf4jnsgd1na2vs0mg"},{"bike_id":"73c7be31-c09e-4d3b-a821-d101f9423d42","system_id":"levelo_inurba_marseille","lat":43.29522,"lon":5.39407,"is_reserved":false,"is_disabled":false,"rental_uris":{"android":"levelo://app?vid=73c7be31-c09e-4d3b-a821-d101f9423d42","ios":"levelo://app?vid=73c7be31-c09e-4d3b-a821-d101f9423d42"},"vehicle_type_id":"4","last_reported":1726952831,"current_range_meters":24400,"station_id":"ce4bh292rcd13ifvqdf0","pricing_plan_id":"cebpf4jnsgd1na2vs0mg"},{"bike_id":"9e0efb9e-b74c-46c1-b670-2ef9a6e39873","system_id":"levelo_inurba_marseille","lat":43.29419,"lon":5.38627,"is_reserved":false,"is_disabled":false,"rental_uris":{"android":"levelo://app?vid=9e0efb9e-b74c-46c1-b670-2ef9a6e39873","ios":"levelo://app?vid=9e0efb9e-b74c-46c1-b670-2ef9a6e39873"},"vehicle_type_id":"4","last_reported":1726952831,"current_range_meters":9600,"station_id":"ce4bh2h2rcd13ifvqdh0","pricing_plan_id":"cebpf4jnsgd1na2vs0mg"},{"bike_id":"b8551741-31d4-463a-9ee0-5ca196eb1a9b","system_id":"levelo_inurba_marseille","lat":43.30301,"lon":5.36893,"is_reserved":false,"is_disabled":false,"rental_uris":{"android":"levelo://app?vid=b8551741-31d4-463a-9ee0-5ca196eb1a9b","ios":"levelo://app?vid=b8551741-31d4-463a-9ee0-5ca196eb1a9b"},"vehicle_type_id":"4","last_reported":1726952831,"current_range_meters":38800,"station_id":"ce4bgqh2rcd13ifvqc5g","pricing_plan_id":"cebpf4jnsgd1na2vs0mg"},{"bike_id":"69a0448c-62ca-4d59-accd-22ee47f945ef","system_id":"levelo_inurba_marseille","lat":43.26061,"lon":5.394033,"is_reserved":false,"is_disabled":false,"rental_uris":{"android":"levelo://app?vid=69a0448c-62ca-4d59-accd-22ee47f945ef","ios":"levelo://app?vid=69a0448c-62ca-4d59-accd-22ee47f945ef"},"vehicle_type_id":"4","last_reported":1726952831,"current_range_meters":38800,"station_id":"ce4bhh92rcd13ifvqfj0","pricing_plan_id":"cebpf4jnsgd1na2vs0mg"},{"bike_id":"54b7f973-33ed-4b77-bfc3-7847058bc7a6","system_id":"levelo_inurba_marseille","lat":43.31726,"lon":5.42398,"is_reserved":false,"is_disabled":false,"rental_uris":{"android":"levelo://app?vid=54b7f973-33ed-4b77-bfc3-7847058bc7a6","ios":"levelo://app?vid=54b7f973-33ed-4b77-bfc3-7847058bc7a6"},"vehicle_type_id":"4","last_reported":1726952831,"current_range_meters":38800,"station_id":"ce4bhp92rcd13ifvqhbg","pricing_plan_id":"cebpf4jnsgd1na2vs0mg"},{"bike_id":"160e2616-1af0-4b85-a695-734560a2e61f","system_id":"levelo_inurba_marseille","lat":43.24389,"lon":5.37061,"is_reserved":false,"is_disabled":false,"rental_uris":{"android":"levelo://app?vid=160e2616-1af0-4b85-a695-734560a2e61f","ios":"levelo://app?vid=160e2616-1af0-4b85-a695-734560a2e61f"},"vehicle_type_id":"4","last_reported":1726952831,"current_range_meters":16400,"station_id":"ce4bhhh2rcd13ifvqfk0","pricing_plan_id":"cebpf4jnsgd1na2vs0mg"},{"bike_id":"eb9f67ff-4867-449f-b00d-9cbb0674363e","system_id":"levelo_inurba_marseille","lat":43.29022,"lon":5.38112,"is_reserved":false,"is_disabled":false,"rental_uris":{"android":"levelo://app?vid=eb9f67ff-4867-449f-b00d-9cbb0674363e","ios":"levelo://app?vid=eb9f67ff-4867-449f-b00d-9cbb0674363e"},"vehicle_type_id":"4","last_reported":1726952831,"current_range_meters":38800,"station_id":"ce4bh4p2rcd13ifvqe1g","pricing_plan_id":"cebpf4jnsgd1na2vs0mg"},{"bike_id":"423f020e-2129-42e2-848b-369681b4cc36","system_id":"levelo_inurba_marseille","lat":43.29189,"lon":5.39326,"is_reserved":false,"is_disabled":false,"rental_uris":{"android":"levelo://app?vid=423f020e-2129-42e2-848b-369681b4cc36","ios":"levelo://app?vid=423f020e-2129-42e2-848b-369681b4cc36"},"vehicle_type_id":"4","last_reported":1726952831,"current_range_meters":34000,"station_id":"ce4bh192rcd13ifvqdd0","pricing_plan_id":"cebpf4jnsgd1na2vs0mg"},{"bike_id":"5419b1bf-d37c-4076-a34c-52ede101758e","system_id":"levelo_inurba_marseille","lat":43.337444,"lon":5.374475,"is_reserved":false,"is_disabled":false,"rental_uris":{"android":"levelo://app?vid=5419b1bf-d37c-4076-a34c-52ede101758e","ios":"levelo://app?vid=5419b1bf-d37c-4076-a34c-52ede101758e"},"vehicle_type_id":"4","last_reported":1726952831,"current_range_meters":30800,"station_id":"","pricing_plan_id":"cebpf4jnsgd1na2vs0mg"},{"bike_id":"1db49527-aa73-40b9-9cc1-e0cad2245de1","system_id":"levelo_inurba_marseille","lat":43.291046,"lon":5.375706,"is_reserved":false,"is_disabled":false,"rental_uris":{"android":"levelo://app?vid=1db49527-aa73-40b9-9cc1-e0cad2245de1","ios":"levelo://app?vid=1db49527-aa73-40b9-9cc1-e0cad2245de1"},"vehicle_type_id":"4","last_reported":1726952831,"current_range_meters":10000,"station_id":"ce4bh692rcd13ifvqe90","pricing_plan_id":"cebpf4jnsgd1na2vs0mg"},{"bike_id":"013a1a54-8c71-4d7d-ad66-178705a1f09a","system_id":"levelo_inurba_marseille","lat":43.2587,"lon":5.39898,"is_reserved":false,"is_disabled":false,"rental_uris":{"android":"levelo://app?vid=013a1a54-8c71-4d7d-ad66-178705a1f09a","ios":"levelo://app?vid=013a1a54-8c71-4d7d-ad66-178705a1f09a"},"vehicle_type_id":"4","last_reported":1726952831,"current_range_meters":24800,"station_id":"ce4bhl92rcd13ifvqghg","pricing_plan_id":"cebpf4jnsgd1na2vs0mg"},{"bike_id":"3d11801b-4666-46ed-99aa-aabfb05b911e","system_id":"levelo_inurba_marseille","lat":43.31997,"lon":5.38148,"is_reserved":false,"is_disabled":false,"rental_uris":{"android":"levelo://app?vid=3d11801b-4666-46ed-99aa-aabfb05b911e","ios":"levelo://app?vid=3d11801b-4666-46ed-99aa-aabfb05b911e"},"vehicle_type_id":"4","last_reported":1726952831,"current_range_meters":30800,"station_id":"ce4bhr12rcd13ifvqhpg","pricing_plan_id":"cebpf4jnsgd1na2vs0mg"},{"bike_id":"41ee961b-4aaa-4ac0-ad2e-205246d953ad","system_id":"levelo_inurba_marseille","lat":43.28097,"lon":5.37843,"is_reserved":false,"is_disabled":false,"rental_uris":{"android":"levelo://app?vid=41ee961b-4aaa-4ac0-ad2e-205246d953ad","ios":"levelo://app?vid=41ee961b-4aaa-4ac0-ad2e-205246d953ad"},"vehicle_type_id":"4","last_reported":1726952831,"current_range_meters":14800,"station_id":"ce4bha12rcd13ifvqee0","pricing_plan_id":"cebpf4jnsgd1na2vs0mg"},{"bike_id":"55cd627f-d4dc-46e6-b7b8-c6d502a08fbb","system_id":"levelo_inurba_marseille","lat":43.30134,"lon":5.39877,"is_reserved":false,"is_disabled":false,"rental_uris":{"android":"levelo://app?vid=55cd627f-d4dc-46e6-b7b8-c6d502a08fbb","ios":"levelo://app?vid=55cd627f-d4dc-46e6-b7b8-c6d502a08fbb"},"vehicle_type_id":"4","last_reported":1726952831,"current_range_meters":38400,"station_id":"ce4bh0h2rcd13ifvqd40","pricing_plan_id":"cebpf4jnsgd1na2vs0mg"},{"bike_id":"0789c753-7296-4e61-9942-17d9551f6f04","system_id":"levelo_inurba_marseille","lat":43.29093,"lon":5.38144,"is_reserved":false,"is_disabled":false,"rental_uris":{"android":"levelo://app?vid=0789c753-7296-4e61-9942-17d9551f6f04","ios":"levelo://app?vid=0789c753-7296-4e61-9942-17d9551f6f04"},"vehicle_type_id":"4","last_reported":1726952831,"current_range_meters":38800,"station_id":"ce4bh512rcd13ifvqe2g","pricing_plan_id":"cebpf4jnsgd1na2vs0mg"},{"bike_id":"efe12098-1752-458d-925d-bda16cc5f089","system_id":"levelo_inurba_marseille","lat":43.29265,"lon":5.38454,"is_reserved":false,"is_disabled":false,"rental_uris":{"android":"levelo://app?vid=efe12098-1752-458d-925d-bda16cc5f089","ios":"levelo://app?vid=efe12098-1752-458d-925d-bda16cc5f089"},"vehicle_type_id":"4","last_reported":1726952831,"current_range_meters":7200,"station_id":"ce4bh692rcd13ifvqea0","pricing_plan_id":"cebpf4jnsgd1na2vs0mg"},{"bike_id":"470259e3-b1c4-4a86-b9be-ae3f1006b367","system_id":"levelo_inurba_marseille","lat":43.31331,"lon":5.39689,"is_reserved":false,"is_disabled":false,"rental_uris":{"android":"levelo://app?vid=470259e3-b1c4-4a86-b9be-ae3f1006b367","ios":"levelo://app?vid=470259e3-b1c4-4a86-b9be-ae3f1006b367"},"vehicle_type_id":"4","last_reported":1726952831,"current_range_meters":38800,"station_id":"ce4bgvp2rcd13ifvqcu0","pricing_plan_id":"cebpf4jnsgd1na2vs0mg"},{"bike_id":"6e2fd8fb-799c-468d-a60b-38d2bf81aa37","system_id":"levelo_inurba_marseille","lat":43.23957,"lon":5.36625,"is_reserved":false,"is_disabled":false,"rental_uris":{"android":"levelo://app?vid=6e2fd8fb-799c-468d-a60b-38d2bf81aa37","ios":"levelo://app?vid=6e2fd8fb-799c-468d-a60b-38d2bf81aa37"},"vehicle_type_id":"4","last_reported":1726952831,"current_range_meters":37600,"station_id":"ce4bhi12rcd13ifvqfp0","pricing_plan_id":"cebpf4jnsgd1na2vs0mg"},{"bike_id":"5f970973-f4f4-4937-9fbe-7af0359838f0","system_id":"levelo_inurba_marseille","lat":43.32345,"lon":5.4062,"is_reserved":false,"is_disabled":false,"rental_uris":{"android":"levelo://app?vid=5f970973-f4f4-4937-9fbe-7af0359838f0","ios":"levelo://app?vid=5f970973-f4f4-4937-9fbe-7af0359838f0"},"vehicle_type_id":"4","last_reported":1726952831,"current_range_meters":29600,"station_id":"ce4bhq92rcd13ifvqhjg","pricing_plan_id":"cebpf4jnsgd1na2vs0mg"},{"bike_id":"d1182685-572a-4f17-af06-4ec180e329d5","system_id":"levelo_inurba_marseille","lat":43.29418,"lon":5.38618,"is_reserved":false,"is_disabled":false,"rental_uris":{"android":"levelo://app?vid=d1182685-572a-4f17-af06-4ec180e329d5","ios":"levelo://app?vid=d1182685-572a-4f17-af06-4ec180e329d5"},"vehicle_type_id":"4","last_reported":1726952831,"current_range_meters":14400,"station_id":"ce4bh2h2rcd13ifvqdh0","pricing_plan_id":"cebpf4jnsgd1na2vs0mg"},{"bike_id":"f59f9f07-2020-454d-8f62-ca65292624a4","system_id":"levelo_inurba_marseille","lat":43.31327,"lon":5.39689,"is_reserved":false,"is_disabled":false,"rental_uris":{"android":"levelo://app?vid=f59f9f07-2020-454d-8f62-ca65292624a4","ios":"levelo://app?vid=f59f9f07-2020-454d-8f62-ca65292624a4"},"vehicle_type_id":"4","last_reported":1726952831,"current_range_meters":38800,"station_id":"ce4bgvp2rcd13ifvqcu0","pricing_plan_id":"cebpf4jnsgd1na2vs0mg"},{"bike_id":"e96e7b5c-dbb7-4beb-b982-279c38ac7b2d","system_id":"levelo_inurba_marseille","lat":43.29578,"lon":5.36739,"is_reserved":false,"is_disabled":false,"rental_uris":{"android":"levelo://app?vid=e96e7b5c-dbb7-4beb-b982-279c38ac7b2d","ios":"levelo://app?vid=e96e7b5c-dbb7-4beb-b982-279c38ac7b2d"},"vehicle_type_id":"4","last_reported":1726952831,"current_range_meters":16400,"station_id":"ce4bgph2rcd13ifvqc2g","pricing_plan_id":"cebpf4jnsgd1na2vs0mg"},{"bike_id":"f196cae4-4da8-4191-8e3a-3f8fcdaa11a6","system_id":"levelo_inurba_marseille","lat":43.31065,"lon":5.38359,"is_reserved":false,"is_disabled":false,"rental_uris":{"android":"levelo://app?vid=f196cae4-4da8-4191-8e3a-3f8fcdaa11a6","ios":"levelo://app?vid=f196cae4-4da8-4191-8e3a-3f8fcdaa11a6"},"vehicle_type_id":"4","last_reported":1726952831,"current_range_meters":36800,"station_id":"ce4bgv92rcd13ifvqcr0","pricing_plan_id":"cebpf4jnsgd1na2vs0mg"},{"bike_id":"f54e40c1-afa4-4d7b-863a-cb9f2cb31a04","system_id":"levelo_inurba_marseille","lat":43.29532,"lon":5.38539,"is_reserved":false,"is_disabled":false,"rental_uris":{"android":"levelo://app?vid=f54e40c1-afa4-4d7b-863a-cb9f2cb31a04","ios":"levelo://app?vid=f54e40c1-afa4-4d7b-863a-cb9f2cb31a04"},"vehicle_type_id":"4","last_reported":1726952831,"current_range_meters":26000,"station_id":"ce4bgih2rcd13ifvqba0","pricing_plan_id":"cebpf4jnsgd1na2vs0mg"},{"bike_id":"149779fc-bc45-458a-857f-33707eedaf6a","system_id":"levelo_inurba_marseille","lat":43.23189,"lon":5.35554,"is_reserved":false,"is_disabled":false,"rental_uris":{"android":"levelo://app?vid=149779fc-bc45-458a-857f-33707eedaf6a","ios":"levelo://app?vid=149779fc-bc45-458a-857f-33707eedaf6a"},"vehicle_type_id":"4","last_reported":1726952831,"current_range_meters":18800,"station_id":"ce4bhu92rcd13ifvqi70","pricing_plan_id":"cebpf4jnsgd1na2vs0mg"},{"bike_id":"adea4142-201e-4d62-8b5f-c33b95d4ba3b","system_id":"levelo_inurba_marseille","lat":43.29426,"lon":5.39755,"is_reserved":false,"is_disabled":false,"rental_uris":{"android":"levelo://app?vid=adea4142-201e-4d62-8b5f-c33b95d4ba3b","ios":"levelo://app?vid=adea4142-201e-4d62-8b5f-c33b95d4ba3b"},"vehicle_type_id":"4","last_reported":1726952831,"current_range_meters":29600,"station_id":"ce4bh3h2rcd13ifvqdo0","pricing_plan_id":"cebpf4jnsgd1na2vs0mg"},{"bike_id":"61a9b8a7-9ccd-441e-9f1c-f2b68a748f3f","system_id":"levelo_inurba_marseille","lat":43.26488,"lon":5.39551,"is_reserved":false,"is_disabled":false,"rental_uris":{"android":"levelo://app?vid=61a9b8a7-9ccd-441e-9f1c-f2b68a748f3f","ios":"levelo://app?vid=61a9b8a7-9ccd-441e-9f1c-f2b68a748f3f"},"vehicle_type_id":"4","last_reported":1726952831,"current_range_meters":38800,"station_id":"ce4bhi12rcd13ifvqfq0","pricing_plan_id":"cebpf4jnsgd1na2vs0mg"},{"bike_id":"f2826cdc-7638-4ffc-bb08-a612586ce316","system_id":"levelo_inurba_marseille","lat":43.25109,"lon":5.40321,"is_reserved":false,"is_disabled":false,"rental_uris":{"android":"levelo://app?vid=f2826cdc-7638-4ffc-bb08-a612586ce316","ios":"levelo://app?vid=f2826cdc-7638-4ffc-bb08-a612586ce316"},"vehicle_type_id":"4","last_reported":1726952831,"current_range_meters":26000,"station_id":"ce4bhlh2rcd13ifvqgig","pricing_plan_id":"cebpf4jnsgd1na2vs0mg"},{"bike_id":"039d98d7-7c59-426e-931f-998890f6dd69","system_id":"levelo_inurba_marseille","lat":43.231506,"lon":5.437126,"is_reserved":false,"is_disabled":false,"rental_uris":{"android":"levelo://app?vid=039d98d7-7c59-426e-931f-998890f6dd69","ios":"levelo://app?vid=039d98d7-7c59-426e-931f-998890f6dd69"},"vehicle_type_id":"4","last_reported":1726952831,"current_range_meters":8800,"station_id":"ce4bhmp2rcd13ifvqgog","pricing_plan_id":"cebpf4jnsgd1na2vs0mg"},{"bike_id":"0bff4859-77b1-42a2-9c32-91343f14c13b","system_id":"levelo_inurba_marseille","lat":43.2893,"lon":5.38407,"is_reserved":false,"is_disabled":false,"rental_uris":{"android":"levelo://app?vid=0bff4859-77b1-42a2-9c32-91343f14c13b","ios":"levelo://app?vid=0bff4859-77b1-42a2-9c32-91343f14c13b"},"vehicle_type_id":"4","last_reported":1726952831,"current_range_meters":12400,"station_id":"ce4bh612rcd13ifvqe6g","pricing_plan_id":"cebpf4jnsgd1na2vs0mg"},{"bike_id":"ca6b1ca6-b285-4dc5-ae06-f1139491d957","system_id":"levelo_inurba_marseille","lat":43.29963,"lon":5.41319,"is_reserved":false,"is_disabled":false,"rental_uris":{"android":"levelo://app?vid=ca6b1ca6-b285-4dc5-ae06-f1139491d957","ios":"levelo://app?vid=ca6b1ca6-b285-4dc5-ae06-f1139491d957"},"vehicle_type_id":"4","last_reported":1726952831,"current_range_meters":32000,"station_id":"ce4bhp12rcd13ifvqh9g","pricing_plan_id":"cebpf4jnsgd1na2vs0mg"},{"bike_id":"879794cd-479d-48a7-ac14-6fd2862a520c","system_id":"levelo_inurba_marseille","lat":43.29874,"lon":5.39713,"is_reserved":false,"is_disabled":false,"rental_uris":{"android":"levelo://app?vid=879794cd-479d-48a7-ac14-6fd2862a520c","ios":"levelo://app?vid=879794cd-479d-48a7-ac14-6fd2862a520c"},"vehicle_type_id":"4","last_reported":1726952831,"current_range_meters":34000,"station_id":"ce4bh0h2rcd13ifvqd50","pricing_plan_id":"cebpf4jnsgd1na2vs0mg"},{"bike_id":"3029a821-4f09-426b-9136-c97c9c0dcd3a","system_id":"levelo_inurba_marseille","lat":43.26485,"lon":5.39549,"is_reserved":false,"is_disabled":false,"rental_uris":{"android":"levelo://app?vid=3029a821-4f09-426b-9136-c97c9c0dcd3a","ios":"levelo://app?vid=3029a821-4f09-426b-9136-c97c9c0dcd3a"},"vehicle_type_id":"4","last_reported":1726952831,"current_range_meters":38800,"station_id":"ce4bhi12rcd13ifvqfq0","pricing_plan_id":"cebpf4jnsgd1na2vs0mg"},{"bike_id":"dba11bef-3b64-4e42-a0da-6bbdef2f47a9","system_id":"levelo_inurba_marseille","lat":43.31489,"lon":5.37283,"is_reserved":false,"is_disabled":false,"rental_uris":{"android":"levelo://app?vid=dba11bef-3b64-4e42-a0da-6bbdef2f47a9","ios":"levelo://app?vid=dba11bef-3b64-4e42-a0da-6bbdef2f47a9"},"vehicle_type_id":"4","last_reported":1726952831,"current_range_meters":28800,"station_id":"ce4bgt12rcd13ifvqcd0","pricing_plan_id":"cebpf4jnsgd1na2vs0mg"},{"bike_id":"604c9531-be4f-4974-bfe2-bd7828d7386f","system_id":"levelo_inurba_marseille","lat":43.29896,"lon":5.43674,"is_reserved":false,"is_disabled":false,"rental_uris":{"android":"levelo://app?vid=604c9531-be4f-4974-bfe2-bd7828d7386f","ios":"levelo://app?vid=604c9531-be4f-4974-bfe2-bd7828d7386f"},"vehicle_type_id":"4","last_reported":1726952831,"current_range_meters":22000,"station_id":"ce4bhpp2rcd13ifvqhfg","pricing_plan_id":"cebpf4jnsgd1na2vs0mg"},{"bike_id":"a7d63b72-ee6a-49eb-8e0b-3617f886d07e","system_id":"levelo_inurba_marseille","lat":43.28939,"lon":5.36623,"is_reserved":false,"is_disabled":false,"rental_uris":{"android":"levelo://app?vid=a7d63b72-ee6a-49eb-8e0b-3617f886d07e","ios":"levelo://app?vid=a7d63b72-ee6a-49eb-8e0b-3617f886d07e"},"vehicle_type_id":"4","last_reported":1726952831,"current_range_meters":1600,"station_id":"ce4bhap2rcd13ifvqek0","pricing_plan_id":"cebpf4jnsgd1na2vs0mg"},{"bike_id":"920517af-9d9d-412a-a645-e0e00b1b13cc","system_id":"levelo_inurba_marseille","lat":43.23966,"lon":5.36628,"is_reserved":false,"is_disabled":false,"rental_uris":{"android":"levelo://app?vid=920517af-9d9d-412a-a645-e0e00b1b13cc","ios":"levelo://app?vid=920517af-9d9d-412a-a645-e0e00b1b13cc"},"vehicle_type_id":"4","last_reported":1726952831,"current_range_meters":4800,"station_id":"ce4bhi12rcd13ifvqfp0","pricing_plan_id":"cebpf4jnsgd1na2vs0mg"},{"bike_id":"90d8a09e-2181-4187-81ec-24698bc4e496","system_id":"levelo_inurba_marseille","lat":43.28706,"lon":5.39989,"is_reserved":false,"is_disabled":false,"rental_uris":{"android":"levelo://app?vid=90d8a09e-2181-4187-81ec-24698bc4e496","ios":"levelo://app?vid=90d8a09e-2181-4187-81ec-24698bc4e496"},"vehicle_type_id":"4","last_reported":1726952831,"current_range_meters":11200,"station_id":"ce4bho92rcd13ifvqh3g","pricing_plan_id":"cebpf4jnsgd1na2vs0mg"},{"bike_id":"3a5e6f89-f5c7-4457-940d-af909d334a9e","system_id":"levelo_inurba_marseille","lat":43.31267,"lon":5.36964,"is_reserved":false,"is_disabled":false,"rental_uris":{"android":"levelo://app?vid=3a5e6f89-f5c7-4457-940d-af909d334a9e","ios":"levelo://app?vid=3a5e6f89-f5c7-4457-940d-af909d334a9e"},"vehicle_type_id":"4","last_reported":1726952831,"current_range_meters":24400,"station_id":"","pricing_plan_id":"cebpf4jnsgd1na2vs0mg"},{"bike_id":"5a96d137-3c99-45d1-9554-3f37aef1d397","system_id":"levelo_inurba_marseille","lat":43.301392,"lon":5.387759,"is_reserved":false,"is_disabled":false,"rental_uris":{"android":"levelo://app?vid=5a96d137-3c99-45d1-9554-3f37aef1d397","ios":"levelo://app?vid=5a96d137-3c99-45d1-9554-3f37aef1d397"},"vehicle_type_id":"4","last_reported":1726952831,"current_range_meters":33600,"station_id":"ce4bghh2rcd13ifvqb60","pricing_plan_id":"cebpf4jnsgd1na2vs0mg"},{"bike_id":"0dd26f86-116d-44a9-935c-7c20ef5d66bb","system_id":"levelo_inurba_marseille","lat":43.29415,"lon":5.3863,"is_reserved":false,"is_disabled":false,"rental_uris":{"android":"levelo://app?vid=0dd26f86-116d-44a9-935c-7c20ef5d66bb","ios":"levelo://app?vid=0dd26f86-116d-44a9-935c-7c20ef5d66bb"},"vehicle_type_id":"4","last_reported":1726952831,"current_range_meters":9600,"station_id":"ce4bh2h2rcd13ifvqdh0","pricing_plan_id":"cebpf4jnsgd1na2vs0mg"},{"bike_id":"b99ebf49-11ad-4e21-b922-fe3a40a38fa5","system_id":"levelo_inurba_marseille","lat":43.30887,"lon":5.39654,"is_reserved":false,"is_disabled":false,"rental_uris":{"android":"levelo://app?vid=b99ebf49-11ad-4e21-b922-fe3a40a38fa5","ios":"levelo://app?vid=b99ebf49-11ad-4e21-b922-fe3a40a38fa5"},"vehicle_type_id":"4","last_reported":1726952831,"current_range_meters":9200,"station_id":"ce4bh012rcd13ifvqcv0","pricing_plan_id":"cebpf4jnsgd1na2vs0mg"},{"bike_id":"a8d42cf3-65fd-4e73-93d7-47142c435399","system_id":"levelo_inurba_marseille","lat":43.34387,"lon":5.40841,"is_reserved":false,"is_disabled":false,"rental_uris":{"android":"levelo://app?vid=a8d42cf3-65fd-4e73-93d7-47142c435399","ios":"levelo://app?vid=a8d42cf3-65fd-4e73-93d7-47142c435399"},"vehicle_type_id":"4","last_reported":1726952831,"current_range_meters":24800,"station_id":"","pricing_plan_id":"cebpf4jnsgd1na2vs0mg"},{"bike_id":"70c59413-39ae-491c-b378-e84d6bd04937","system_id":"levelo_inurba_marseille","lat":43.29523,"lon":5.38537,"is_reserved":false,"is_disabled":false,"rental_uris":{"android":"levelo://app?vid=70c59413-39ae-491c-b378-e84d6bd04937","ios":"levelo://app?vid=70c59413-39ae-491c-b378-e84d6bd04937"},"vehicle_type_id":"4","last_reported":1726952831,"current_range_meters":8400,"station_id":"ce4bgih2rcd13ifvqba0","pricing_plan_id":"cebpf4jnsgd1na2vs0mg"},{"bike_id":"2747e2c1-9ef7-4c7f-b359-70679c357edc","system_id":"levelo_inurba_marseille","lat":43.304565,"lon":5.379065,"is_reserved":false,"is_disabled":false,"rental_uris":{"android":"levelo://app?vid=2747e2c1-9ef7-4c7f-b359-70679c357edc","ios":"levelo://app?vid=2747e2c1-9ef7-4c7f-b359-70679c357edc"},"vehicle_type_id":"4","last_reported":1726952831,"current_range_meters":37600,"station_id":"ce4bgup2rcd13ifvqcn0","pricing_plan_id":"cebpf4jnsgd1na2vs0mg"},{"bike_id":"eb0e566e-7d71-4cc0-bc76-de33a9fd73a8","system_id":"levelo_inurba_marseille","lat":43.23199,"lon":5.3555,"is_reserved":false,"is_disabled":false,"rental_uris":{"android":"levelo://app?vid=eb0e566e-7d71-4cc0-bc76-de33a9fd73a8","ios":"levelo://app?vid=eb0e566e-7d71-4cc0-bc76-de33a9fd73a8"},"vehicle_type_id":"4","last_reported":1726952831,"current_range_meters":38800,"station_id":"ce4bhu92rcd13ifvqi70","pricing_plan_id":"cebpf4jnsgd1na2vs0mg"},{"bike_id":"42e543f6-0d9d-4851-9a90-2869936d9ef5","system_id":"levelo_inurba_marseille","lat":43.29176,"lon":5.39323,"is_reserved":false,"is_disabled":false,"rental_uris":{"android":"levelo://app?vid=42e543f6-0d9d-4851-9a90-2869936d9ef5","ios":"levelo://app?vid=42e543f6-0d9d-4851-9a90-2869936d9ef5"},"vehicle_type_id":"4","last_reported":1726952831,"current_range_meters":23200,"station_id":"ce4bh192rcd13ifvqdd0","pricing_plan_id":"cebpf4jnsgd1na2vs0mg"},{"bike_id":"37b9f058-c8e7-4643-aa44-65576a6c29ec","system_id":"levelo_inurba_marseille","lat":43.29532,"lon":5.3854,"is_reserved":false,"is_disabled":false,"rental_uris":{"android":"levelo://app?vid=37b9f058-c8e7-4643-aa44-65576a6c29ec","ios":"levelo://app?vid=37b9f058-c8e7-4643-aa44-65576a6c29ec"},"vehicle_type_id":"4","last_reported":1726952831,"current_range_meters":36800,"station_id":"ce4bgih2rcd13ifvqba0","pricing_plan_id":"cebpf4jnsgd1na2vs0mg"},{"bike_id":"04999a37-2436-4404-8c16-cd85cf9b7a10","system_id":"levelo_inurba_marseille","lat":43.33024,"lon":5.39045,"is_reserved":false,"is_disabled":false,"rental_uris":{"android":"levelo://app?vid=04999a37-2436-4404-8c16-cd85cf9b7a10","ios":"levelo://app?vid=04999a37-2436-4404-8c16-cd85cf9b7a10"},"vehicle_type_id":"4","last_reported":1726952831,"current_range_meters":38800,"station_id":"ce4bhr92rcd13ifvqhrg","pricing_plan_id":"cebpf4jnsgd1na2vs0mg"},{"bike_id":"3fbf41e5-61ac-43e4-b61d-239be8b751eb","system_id":"levelo_inurba_marseille","lat":43.29014,"lon":5.38627,"is_reserved":false,"is_disabled":false,"rental_uris":{"android":"levelo://app?vid=3fbf41e5-61ac-43e4-b61d-239be8b751eb","ios":"levelo://app?vid=3fbf41e5-61ac-43e4-b61d-239be8b751eb"},"vehicle_type_id":"4","last_reported":1726952831,"current_range_meters":38800,"station_id":"ce4bh4p2rcd13ifvqe0g","pricing_plan_id":"cebpf4jnsgd1na2vs0mg"},{"bike_id":"c90889c6-4c61-48f2-b140-89043e514d7b","system_id":"levelo_inurba_marseille","lat":43.25939,"lon":5.40903,"is_reserved":false,"is_disabled":false,"rental_uris":{"android":"levelo://app?vid=c90889c6-4c61-48f2-b140-89043e514d7b","ios":"levelo://app?vid=c90889c6-4c61-48f2-b140-89043e514d7b"},"vehicle_type_id":"4","last_reported":1726952831,"current_range_meters":4800,"station_id":"ce4bhm92rcd13ifvqglg","pricing_plan_id":"cebpf4jnsgd1na2vs0mg"},{"bike_id":"b9ed473c-04e3-4cf6-84bf-28bfa3738b26","system_id":"levelo_inurba_marseille","lat":43.26217,"lon":5.37448,"is_reserved":false,"is_disabled":false,"rental_uris":{"android":"levelo://app?vid=b9ed473c-04e3-4cf6-84bf-28bfa3738b26","ios":"levelo://app?vid=b9ed473c-04e3-4cf6-84bf-28bfa3738b26"},"vehicle_type_id":"4","last_reported":1726952831,"current_range_meters":30800,"station_id":"","pricing_plan_id":"cebpf4jnsgd1na2vs0mg"},{"bike_id":"ed564cd2-38af-4711-af4b-cfb81096839b","system_id":"levelo_inurba_marseille","lat":43.31167,"lon":5.38709,"is_reserved":false,"is_disabled":false,"rental_uris":{"android":"levelo://app?vid=ed564cd2-38af-4711-af4b-cfb81096839b","ios":"levelo://app?vid=ed564cd2-38af-4711-af4b-cfb81096839b"},"vehicle_type_id":"4","last_reported":1726952831,"current_range_meters":8800,"station_id":"ce4bgv12rcd13ifvqcp0","pricing_plan_id":"cebpf4jnsgd1na2vs0mg"},{"bike_id":"dcdf3c64-949d-451b-907a-1557d65708d6","system_id":"levelo_inurba_marseille","lat":43.29521,"lon":5.39406,"is_reserved":false,"is_disabled":false,"rental_uris":{"android":"levelo://app?vid=dcdf3c64-949d-451b-907a-1557d65708d6","ios":"levelo://app?vid=dcdf3c64-949d-451b-907a-1557d65708d6"},"vehicle_type_id":"4","last_reported":1726952831,"current_range_meters":11200,"station_id":"ce4bh292rcd13ifvqdf0","pricing_plan_id":"cebpf4jnsgd1na2vs0mg"},{"bike_id":"5d991e98-79d5-4dc0-9a6a-d2306ad42c9d","system_id":"levelo_inurba_marseille","lat":43.29571,"lon":5.42303,"is_reserved":false,"is_disabled":false,"rental_uris":{"android":"levelo://app?vid=5d991e98-79d5-4dc0-9a6a-d2306ad42c9d","ios":"levelo://app?vid=5d991e98-79d5-4dc0-9a6a-d2306ad42c9d"},"vehicle_type_id":"4","last_reported":1726952831,"current_range_meters":38800,"station_id":"ce4bhph2rcd13ifvqhdg","pricing_plan_id":"cebpf4jnsgd1na2vs0mg"},{"bike_id":"3588ed4b-a839-4c36-8772-3fa913acb2d5","system_id":"levelo_inurba_marseille","lat":43.30331,"lon":5.40442,"is_reserved":false,"is_disabled":false,"rental_uris":{"android":"levelo://app?vid=3588ed4b-a839-4c36-8772-3fa913acb2d5","ios":"levelo://app?vid=3588ed4b-a839-4c36-8772-3fa913acb2d5"},"vehicle_type_id":"4","last_reported":1726952831,"current_range_meters":38800,"station_id":"ce4bh012rcd13ifvqd10","pricing_plan_id":"cebpf4jnsgd1na2vs0mg"},{"bike_id":"3dd17e4b-8029-444d-bb1b-ae88ec3c7852","system_id":"levelo_inurba_marseille","lat":43.26956,"lon":5.38633,"is_reserved":false,"is_disabled":false,"rental_uris":{"android":"levelo://app?vid=3dd17e4b-8029-444d-bb1b-ae88ec3c7852","ios":"levelo://app?vid=3dd17e4b-8029-444d-bb1b-ae88ec3c7852"},"vehicle_type_id":"4","last_reported":1726952831,"current_range_meters":30000,"station_id":"ce4bhh92rcd13ifvqfh0","pricing_plan_id":"cebpf4jnsgd1na2vs0mg"},{"bike_id":"68e302b1-525a-4c41-b6fc-6de609f4cbb6","system_id":"levelo_inurba_marseille","lat":43.26943,"lon":5.40258,"is_reserved":false,"is_disabled":false,"rental_uris":{"android":"levelo://app?vid=68e302b1-525a-4c41-b6fc-6de609f4cbb6","ios":"levelo://app?vid=68e302b1-525a-4c41-b6fc-6de609f4cbb6"},"vehicle_type_id":"4","last_reported":1726952831,"current_range_meters":38800,"station_id":"cjm6bp8fraef2m0cb0m0","pricing_plan_id":"cebpf4jnsgd1na2vs0mg"},{"bike_id":"db3e6781-6aaf-49ab-a69b-f951f8ee4f70","system_id":"levelo_inurba_marseille","lat":43.31356,"lon":5.3849,"is_reserved":false,"is_disabled":false,"rental_uris":{"android":"levelo://app?vid=db3e6781-6aaf-49ab-a69b-f951f8ee4f70","ios":"levelo://app?vid=db3e6781-6aaf-49ab-a69b-f951f8ee4f70"},"vehicle_type_id":"4","last_reported":1726952831,"current_range_meters":23200,"station_id":"ce4bgt92rcd13ifvqcf0","pricing_plan_id":"cebpf4jnsgd1na2vs0mg"},{"bike_id":"7b9dd459-340b-4978-bfb0-6c163a5263e8","system_id":"levelo_inurba_marseille","lat":43.23193,"lon":5.35547,"is_reserved":false,"is_disabled":false,"rental_uris":{"android":"levelo://app?vid=7b9dd459-340b-4978-bfb0-6c163a5263e8","ios":"levelo://app?vid=7b9dd459-340b-4978-bfb0-6c163a5263e8"},"vehicle_type_id":"4","last_reported":1726952831,"current_range_meters":38800,"station_id":"ce4bhu92rcd13ifvqi70","pricing_plan_id":"cebpf4jnsgd1na2vs0mg"},{"bike_id":"82596a06-ff6c-4fb5-be3f-fd6ac5718f7c","system_id":"levelo_inurba_marseille","lat":43.31327,"lon":5.39693,"is_reserved":false,"is_disabled":false,"rental_uris":{"android":"levelo://app?vid=82596a06-ff6c-4fb5-be3f-fd6ac5718f7c","ios":"levelo://app?vid=82596a06-ff6c-4fb5-be3f-fd6ac5718f7c"},"vehicle_type_id":"4","last_reported":1726952831,"current_range_meters":23200,"station_id":"ce4bgvp2rcd13ifvqcu0","pricing_plan_id":"cebpf4jnsgd1na2vs0mg"},{"bike_id":"4ffe9673-4769-49f4-9c33-2e748e3dd1be","system_id":"levelo_inurba_marseille","lat":43.28439,"lon":5.39183,"is_reserved":false,"is_disabled":false,"rental_uris":{"android":"levelo://app?vid=4ffe9673-4769-49f4-9c33-2e748e3dd1be","ios":"levelo://app?vid=4ffe9673-4769-49f4-9c33-2e748e3dd1be"},"vehicle_type_id":"4","last_reported":1726952831,"current_range_meters":37600,"station_id":"ce4bhoh2rcd13ifvqh5g","pricing_plan_id":"cebpf4jnsgd1na2vs0mg"},{"bike_id":"71aa8592-ddf7-4343-aed4-c00d3433340f","system_id":"levelo_inurba_marseille","lat":43.337444,"lon":5.374475,"is_reserved":false,"is_disabled":false,"rental_uris":{"android":"levelo://app?vid=71aa8592-ddf7-4343-aed4-c00d3433340f","ios":"levelo://app?vid=71aa8592-ddf7-4343-aed4-c00d3433340f"},"vehicle_type_id":"4","last_reported":1726952831,"current_range_meters":34800,"station_id":"","pricing_plan_id":"cebpf4jnsgd1na2vs0mg"},{"bike_id":"3740c6df-06cd-419b-9ae6-b8d9e5eff548","system_id":"levelo_inurba_marseille","lat":43.2753,"lon":5.40935,"is_reserved":false,"is_disabled":false,"rental_uris":{"android":"levelo://app?vid=3740c6df-06cd-419b-9ae6-b8d9e5eff548","ios":"levelo://app?vid=3740c6df-06cd-419b-9ae6-b8d9e5eff548"},"vehicle_type_id":"4","last_reported":1726952831,"current_range_meters":16400,"station_id":"","pricing_plan_id":"cebpf4jnsgd1na2vs0mg"},{"bike_id":"808c22e1-2e20-447d-9765-d67116bb0dda","system_id":"levelo_inurba_marseille","lat":43.297089,"lon":5.376962,"is_reserved":false,"is_disabled":false,"rental_uris":{"android":"levelo://app?vid=808c22e1-2e20-447d-9765-d67116bb0dda","ios":"levelo://app?vid=808c22e1-2e20-447d-9765-d67116bb0dda"},"vehicle_type_id":"4","last_reported":1726952831,"current_range_meters":19200,"station_id":"ce4bgkh2rcd13ifvqbl0","pricing_plan_id":"cebpf4jnsgd1na2vs0mg"},{"bike_id":"815b7816-11fe-4f3c-82f5-62f9f164fe31","system_id":"levelo_inurba_marseille","lat":43.26565,"lon":5.39012,"is_reserved":false,"is_disabled":false,"rental_uris":{"android":"levelo://app?vid=815b7816-11fe-4f3c-82f5-62f9f164fe31","ios":"levelo://app?vid=815b7816-11fe-4f3c-82f5-62f9f164fe31"},"vehicle_type_id":"4","last_reported":1726952831,"current_range_meters":38800,"station_id":"ce4bhe12rcd13ifvqf30","pricing_plan_id":"cebpf4jnsgd1na2vs0mg"},{"bike_id":"69e87ad1-6813-43d1-9e13-95c60e03a938","system_id":"levelo_inurba_marseille","lat":43.2955,"lon":5.4228,"is_reserved":false,"is_disabled":false,"rental_uris":{"android":"levelo://app?vid=69e87ad1-6813-43d1-9e13-95c60e03a938","ios":"levelo://app?vid=69e87ad1-6813-43d1-9e13-95c60e03a938"},"vehicle_type_id":"4","last_reported":1726952831,"current_range_meters":38800,"station_id":"ce4bhph2rcd13ifvqhdg","pricing_plan_id":"cebpf4jnsgd1na2vs0mg"},{"bike_id":"031c7f84-a43a-4deb-9b43-a573dd4a878e","system_id":"levelo_inurba_marseille","lat":43.30532,"lon":5.3667,"is_reserved":false,"is_disabled":false,"rental_uris":{"android":"levelo://app?vid=031c7f84-a43a-4deb-9b43-a573dd4a878e","ios":"levelo://app?vid=031c7f84-a43a-4deb-9b43-a573dd4a878e"},"vehicle_type_id":"4","last_reported":1726952831,"current_range_meters":28800,"station_id":"","pricing_plan_id":"cebpf4jnsgd1na2vs0mg"},{"bike_id":"1de5a332-ecc8-4166-b2bb-a60de45f557a","system_id":"levelo_inurba_marseille","lat":43.2952,"lon":5.3903,"is_reserved":false,"is_disabled":false,"rental_uris":{"android":"levelo://app?vid=1de5a332-ecc8-4166-b2bb-a60de45f557a","ios":"levelo://app?vid=1de5a332-ecc8-4166-b2bb-a60de45f557a"},"vehicle_type_id":"4","last_reported":1726952831,"current_range_meters":28400,"station_id":"ce4bh3p2rcd13ifvqdp0","pricing_plan_id":"cebpf4jnsgd1na2vs0mg"},{"bike_id":"461fe284-eae3-49fe-a8c9-7ed58c2e4f86","system_id":"levelo_inurba_marseille","lat":43.28102,"lon":5.37839,"is_reserved":false,"is_disabled":false,"rental_uris":{"android":"levelo://app?vid=461fe284-eae3-49fe-a8c9-7ed58c2e4f86","ios":"levelo://app?vid=461fe284-eae3-49fe-a8c9-7ed58c2e4f86"},"vehicle_type_id":"4","last_reported":1726952831,"current_range_meters":37600,"station_id":"ce4bha12rcd13ifvqee0","pricing_plan_id":"cebpf4jnsgd1na2vs0mg"},{"bike_id":"a472b3e6-3e82-4ad8-9d53-70d35f67fe2f","system_id":"levelo_inurba_marseille","lat":43.28456,"lon":5.38573,"is_reserved":false,"is_disabled":false,"rental_uris":{"android":"levelo://app?vid=a472b3e6-3e82-4ad8-9d53-70d35f67fe2f","ios":"levelo://app?vid=a472b3e6-3e82-4ad8-9d53-70d35f67fe2f"},"vehicle_type_id":"4","last_reported":1726952831,"current_range_meters":38800,"station_id":"ce4bh8p2rcd13ifvqeb0","pricing_plan_id":"cebpf4jnsgd1na2vs0mg"},{"bike_id":"6528ea46-21d2-4392-8d15-a2e18652b29e","system_id":"levelo_inurba_marseille","lat":43.29198,"lon":5.39324,"is_reserved":false,"is_disabled":false,"rental_uris":{"android":"levelo://app?vid=6528ea46-21d2-4392-8d15-a2e18652b29e","ios":"levelo://app?vid=6528ea46-21d2-4392-8d15-a2e18652b29e"},"vehicle_type_id":"4","last_reported":1726952831,"current_range_meters":38800,"station_id":"ce4bh192rcd13ifvqdd0","pricing_plan_id":"cebpf4jnsgd1na2vs0mg"},{"bike_id":"314fbbe9-5fd9-4d9d-bd10-270759356c42","system_id":"levelo_inurba_marseille","lat":43.31366,"lon":5.38497,"is_reserved":false,"is_disabled":false,"rental_uris":{"android":"levelo://app?vid=314fbbe9-5fd9-4d9d-bd10-270759356c42","ios":"levelo://app?vid=314fbbe9-5fd9-4d9d-bd10-270759356c42"},"vehicle_type_id":"4","last_reported":1726952831,"current_range_meters":38400,"station_id":"ce4bgt92rcd13ifvqcf0","pricing_plan_id":"cebpf4jnsgd1na2vs0mg"},{"bike_id":"241e2c01-a65a-410b-ab27-432829a871bc","system_id":"levelo_inurba_marseille","lat":43.284,"lon":5.37838,"is_reserved":false,"is_disabled":false,"rental_uris":{"android":"levelo://app?vid=241e2c01-a65a-410b-ab27-432829a871bc","ios":"levelo://app?vid=241e2c01-a65a-410b-ab27-432829a871bc"},"vehicle_type_id":"4","last_reported":1726952831,"current_range_meters":30400,"station_id":"ce4bha12rcd13ifvqee0","pricing_plan_id":"cebpf4jnsgd1na2vs0mg"},{"bike_id":"c6ece7c7-4ec5-4120-b681-3c568db59171","system_id":"levelo_inurba_marseille","lat":43.30593,"lon":5.37219,"is_reserved":false,"is_disabled":false,"rental_uris":{"android":"levelo://app?vid=c6ece7c7-4ec5-4120-b681-3c568db59171","ios":"levelo://app?vid=c6ece7c7-4ec5-4120-b681-3c568db59171"},"vehicle_type_id":"4","last_reported":1726952831,"current_range_meters":38800,"station_id":"ce4bgqh2rcd13ifvqc4g","pricing_plan_id":"cebpf4jnsgd1na2vs0mg"},{"bike_id":"7d68fb99-0b20-4e75-a30a-8a5c92fad725","system_id":"levelo_inurba_marseille","lat":43.3019,"lon":5.36627,"is_reserved":false,"is_disabled":false,"rental_uris":{"android":"levelo://app?vid=7d68fb99-0b20-4e75-a30a-8a5c92fad725","ios":"levelo://app?vid=7d68fb99-0b20-4e75-a30a-8a5c92fad725"},"vehicle_type_id":"4","last_reported":1726952831,"current_range_meters":28800,"station_id":"ce4bgrh2rcd13ifvqc8g","pricing_plan_id":"cebpf4jnsgd1na2vs0mg"},{"bike_id":"6675652a-a49f-4cdd-8b00-bbb354b7a039","system_id":"levelo_inurba_marseille","lat":43.30644,"lon":5.40086,"is_reserved":false,"is_disabled":false,"rental_uris":{"android":"levelo://app?vid=6675652a-a49f-4cdd-8b00-bbb354b7a039","ios":"levelo://app?vid=6675652a-a49f-4cdd-8b00-bbb354b7a039"},"vehicle_type_id":"4","last_reported":1726952831,"current_range_meters":17600,"station_id":"ce4bh112rcd13ifvqda0","pricing_plan_id":"cebpf4jnsgd1na2vs0mg"},{"bike_id":"ecd0ebba-fa56-49b9-9428-de5978579c4c","system_id":"levelo_inurba_marseille","lat":43.301392,"lon":5.387693,"is_reserved":false,"is_disabled":false,"rental_uris":{"android":"levelo://app?vid=ecd0ebba-fa56-49b9-9428-de5978579c4c","ios":"levelo://app?vid=ecd0ebba-fa56-49b9-9428-de5978579c4c"},"vehicle_type_id":"4","last_reported":1726952831,"current_range_meters":28400,"station_id":"ce4bghh2rcd13ifvqb60","pricing_plan_id":"cebpf4jnsgd1na2vs0mg"},{"bike_id":"64d59947-2b4d-48a9-8691-cf18804761e7","system_id":"levelo_inurba_marseille","lat":43.29531,"lon":5.38537,"is_reserved":false,"is_disabled":false,"rental_uris":{"android":"levelo://app?vid=64d59947-2b4d-48a9-8691-cf18804761e7","ios":"levelo://app?vid=64d59947-2b4d-48a9-8691-cf18804761e7"},"vehicle_type_id":"4","last_reported":1726952831,"current_range_meters":36000,"station_id":"ce4bgih2rcd13ifvqba0","pricing_plan_id":"cebpf4jnsgd1na2vs0mg"},{"bike_id":"7c20fd33-ebd0-4043-94d4-59df37dc0702","system_id":"levelo_inurba_marseille","lat":43.27941,"lon":5.41039,"is_reserved":false,"is_disabled":false,"rental_uris":{"android":"levelo://app?vid=7c20fd33-ebd0-4043-94d4-59df37dc0702","ios":"levelo://app?vid=7c20fd33-ebd0-4043-94d4-59df37dc0702"},"vehicle_type_id":"4","last_reported":1726952831,"current_range_meters":22400,"station_id":"ce4bhnp2rcd13ifvqh0g","pricing_plan_id":"cebpf4jnsgd1na2vs0mg"},{"bike_id":"3c22d18d-cc67-43da-9f9d-d4761fc3ecd1","system_id":"levelo_inurba_marseille","lat":43.28626,"lon":5.37054,"is_reserved":false,"is_disabled":false,"rental_uris":{"android":"levelo://app?vid=3c22d18d-cc67-43da-9f9d-d4761fc3ecd1","ios":"levelo://app?vid=3c22d18d-cc67-43da-9f9d-d4761fc3ecd1"},"vehicle_type_id":"4","last_reported":1726952831,"current_range_meters":32800,"station_id":"ce4bht12rcd13ifvqi60","pricing_plan_id":"cebpf4jnsgd1na2vs0mg"},{"bike_id":"1bdfa939-db47-49f3-b653-7c0951adbfc4","system_id":"levelo_inurba_marseille","lat":43.260653,"lon":5.394005,"is_reserved":false,"is_disabled":false,"rental_uris":{"android":"levelo://app?vid=1bdfa939-db47-49f3-b653-7c0951adbfc4","ios":"levelo://app?vid=1bdfa939-db47-49f3-b653-7c0951adbfc4"},"vehicle_type_id":"4","last_reported":1726952831,"current_range_meters":38800,"station_id":"ce4bhh92rcd13ifvqfj0","pricing_plan_id":"cebpf4jnsgd1na2vs0mg"},{"bike_id":"8b2cf52a-cc3e-4abe-8268-8348c592fdee","system_id":"levelo_inurba_marseille","lat":43.29416,"lon":5.3863,"is_reserved":false,"is_disabled":false,"rental_uris":{"android":"levelo://app?vid=8b2cf52a-cc3e-4abe-8268-8348c592fdee","ios":"levelo://app?vid=8b2cf52a-cc3e-4abe-8268-8348c592fdee"},"vehicle_type_id":"4","last_reported":1726952831,"current_range_meters":38000,"station_id":"ce4bh2h2rcd13ifvqdh0","pricing_plan_id":"cebpf4jnsgd1na2vs0mg"},{"bike_id":"1c64a6ae-7621-46d3-a7c9-3863d1efb13a","system_id":"levelo_inurba_marseille","lat":43.288452,"lon":5.384401,"is_reserved":false,"is_disabled":false,"rental_uris":{"android":"levelo://app?vid=1c64a6ae-7621-46d3-a7c9-3863d1efb13a","ios":"levelo://app?vid=1c64a6ae-7621-46d3-a7c9-3863d1efb13a"},"vehicle_type_id":"4","last_reported":1726952831,"current_range_meters":28000,"station_id":"ce4bh612rcd13ifvqe6g","pricing_plan_id":"cebpf4jnsgd1na2vs0mg"},{"bike_id":"1575e777-51f8-479e-bd95-714cef91a125","system_id":"levelo_inurba_marseille","lat":43.24177,"lon":5.39708,"is_reserved":false,"is_disabled":false,"rental_uris":{"android":"levelo://app?vid=1575e777-51f8-479e-bd95-714cef91a125","ios":"levelo://app?vid=1575e777-51f8-479e-bd95-714cef91a125"},"vehicle_type_id":"4","last_reported":1726952831,"current_range_meters":29600,"station_id":"ce4bhn12rcd13ifvqgpg","pricing_plan_id":"cebpf4jnsgd1na2vs0mg"},{"bike_id":"000ef738-c63e-4149-b792-6bf8c5d29df9","system_id":"levelo_inurba_marseille","lat":43.27678,"lon":5.38893,"is_reserved":false,"is_disabled":false,"rental_uris":{"android":"levelo://app?vid=000ef738-c63e-4149-b792-6bf8c5d29df9","ios":"levelo://app?vid=000ef738-c63e-4149-b792-6bf8c5d29df9"},"vehicle_type_id":"4","last_reported":1726952831,"current_range_meters":22000,"station_id":"ce4bhi12rcd13ifvqfo0","pricing_plan_id":"cebpf4jnsgd1na2vs0mg"},{"bike_id":"4f6cd953-65f5-4d4f-a052-70118d864e1d","system_id":"levelo_inurba_marseille","lat":43.29894,"lon":5.43675,"is_reserved":false,"is_disabled":false,"rental_uris":{"android":"levelo://app?vid=4f6cd953-65f5-4d4f-a052-70118d864e1d","ios":"levelo://app?vid=4f6cd953-65f5-4d4f-a052-70118d864e1d"},"vehicle_type_id":"4","last_reported":1726952831,"current_range_meters":6800,"station_id":"ce4bhpp2rcd13ifvqhfg","pricing_plan_id":"cebpf4jnsgd1na2vs0mg"},{"bike_id":"ab03fbd4-771e-4097-be15-28a0898ddabb","system_id":"levelo_inurba_marseille","lat":43.31888,"lon":5.40748,"is_reserved":false,"is_disabled":false,"rental_uris":{"android":"levelo://app?vid=ab03fbd4-771e-4097-be15-28a0898ddabb","ios":"levelo://app?vid=ab03fbd4-771e-4097-be15-28a0898ddabb"},"vehicle_type_id":"4","last_reported":1726952831,"current_range_meters":36800,"station_id":"ce4bhq12rcd13ifvqhig","pricing_plan_id":"cebpf4jnsgd1na2vs0mg"},{"bike_id":"d8bf198b-7124-4d31-94b6-051ea922367f","system_id":"levelo_inurba_marseille","lat":43.298371,"lon":5.362624,"is_reserved":false,"is_disabled":false,"rental_uris":{"android":"levelo://app?vid=d8bf198b-7124-4d31-94b6-051ea922367f","ios":"levelo://app?vid=d8bf198b-7124-4d31-94b6-051ea922367f"},"vehicle_type_id":"4","last_reported":1726952831,"current_range_meters":4000,"station_id":"ce4bgpp2rcd13ifvqc3g","pricing_plan_id":"cebpf4jnsgd1na2vs0mg"},{"bike_id":"d9e213ca-e541-459d-93e9-f901cb508c67","system_id":"levelo_inurba_marseille","lat":43.31705,"lon":5.37752,"is_reserved":false,"is_disabled":false,"rental_uris":{"android":"levelo://app?vid=d9e213ca-e541-459d-93e9-f901cb508c67","ios":"levelo://app?vid=d9e213ca-e541-459d-93e9-f901cb508c67"},"vehicle_type_id":"4","last_reported":1726952831,"current_range_meters":6400,"station_id":"ce4bgth2rcd13ifvqch0","pricing_plan_id":"cebpf4jnsgd1na2vs0mg"},{"bike_id":"742fe014-1f5e-499c-bbc5-66a0cbb87904","system_id":"levelo_inurba_marseille","lat":43.23196,"lon":5.35551,"is_reserved":false,"is_disabled":false,"rental_uris":{"android":"levelo://app?vid=742fe014-1f5e-499c-bbc5-66a0cbb87904","ios":"levelo://app?vid=742fe014-1f5e-499c-bbc5-66a0cbb87904"},"vehicle_type_id":"4","last_reported":1726952831,"current_range_meters":36800,"station_id":"ce4bhu92rcd13ifvqi70","pricing_plan_id":"cebpf4jnsgd1na2vs0mg"},{"bike_id":"8dea4094-9b4d-4380-aa80-9a18e3973a1c","system_id":"levelo_inurba_marseille","lat":43.29264,"lon":5.38445,"is_reserved":false,"is_disabled":false,"rental_uris":{"android":"levelo://app?vid=8dea4094-9b4d-4380-aa80-9a18e3973a1c","ios":"levelo://app?vid=8dea4094-9b4d-4380-aa80-9a18e3973a1c"},"vehicle_type_id":"4","last_reported":1726952831,"current_range_meters":18800,"station_id":"ce4bh692rcd13ifvqea0","pricing_plan_id":"cebpf4jnsgd1na2vs0mg"},{"bike_id":"320a348b-312f-4667-86c9-a1598946795f","system_id":"levelo_inurba_marseille","lat":43.32365,"lon":5.38887,"is_reserved":false,"is_disabled":false,"rental_uris":{"android":"levelo://app?vid=320a348b-312f-4667-86c9-a1598946795f","ios":"levelo://app?vid=320a348b-312f-4667-86c9-a1598946795f"},"vehicle_type_id":"4","last_reported":1726952831,"current_range_meters":36000,"station_id":"ce4bhqp2rcd13ifvqhog","pricing_plan_id":"cebpf4jnsgd1na2vs0mg"},{"bike_id":"cebd7cfe-01b4-4f94-af93-a3f48d2562dd","system_id":"levelo_inurba_marseille","lat":43.29866,"lon":5.39729,"is_reserved":false,"is_disabled":false,"rental_uris":{"android":"levelo://app?vid=cebd7cfe-01b4-4f94-af93-a3f48d2562dd","ios":"levelo://app?vid=cebd7cfe-01b4-4f94-af93-a3f48d2562dd"},"vehicle_type_id":"4","last_reported":1726952831,"current_range_meters":30800,"station_id":"ce4bh0h2rcd13ifvqd50","pricing_plan_id":"cebpf4jnsgd1na2vs0mg"},{"bike_id":"34659329-99d1-4f82-b38d-291d0f9bff60","system_id":"levelo_inurba_marseille","lat":43.295288,"lon":5.390412,"is_reserved":false,"is_disabled":false,"rental_uris":{"android":"levelo://app?vid=34659329-99d1-4f82-b38d-291d0f9bff60","ios":"levelo://app?vid=34659329-99d1-4f82-b38d-291d0f9bff60"},"vehicle_type_id":"4","last_reported":1726952831,"current_range_meters":37600,"station_id":"ce4bh3p2rcd13ifvqdp0","pricing_plan_id":"cebpf4jnsgd1na2vs0mg"},{"bike_id":"0f66bcb3-e9fb-4877-a3f1-439cf89272d2","system_id":"levelo_inurba_marseille","lat":43.29878,"lon":5.38913,"is_reserved":false,"is_disabled":false,"rental_uris":{"android":"levelo://app?vid=0f66bcb3-e9fb-4877-a3f1-439cf89272d2","ios":"levelo://app?vid=0f66bcb3-e9fb-4877-a3f1-439cf89272d2"},"vehicle_type_id":"4","last_reported":1726952831,"current_range_meters":8800,"station_id":"ce4bh392rcd13ifvqdl0","pricing_plan_id":"cebpf4jnsgd1na2vs0mg"},{"bike_id":"feb42740-c719-4916-9efa-d99f861e0e6d","system_id":"levelo_inurba_marseille","lat":43.32482,"lon":5.36574,"is_reserved":false,"is_disabled":false,"rental_uris":{"android":"levelo://app?vid=feb42740-c719-4916-9efa-d99f861e0e6d","ios":"levelo://app?vid=feb42740-c719-4916-9efa-d99f861e0e6d"},"vehicle_type_id":"4","last_reported":1726952831,"current_range_meters":38000,"station_id":"ce4bhs12rcd13ifvqhvg","pricing_plan_id":"cebpf4jnsgd1na2vs0mg"},{"bike_id":"49bef121-5c64-4fc0-93d9-adfa4d941f86","system_id":"levelo_inurba_marseille","lat":43.28926,"lon":5.3839,"is_reserved":false,"is_disabled":false,"rental_uris":{"android":"levelo://app?vid=49bef121-5c64-4fc0-93d9-adfa4d941f86","ios":"levelo://app?vid=49bef121-5c64-4fc0-93d9-adfa4d941f86"},"vehicle_type_id":"4","last_reported":1726952831,"current_range_meters":27200,"station_id":"ce4bh612rcd13ifvqe6g","pricing_plan_id":"cebpf4jnsgd1na2vs0mg"},{"bike_id":"6ab6933a-1d40-4dbd-8eb1-cb7ef6a30762","system_id":"levelo_inurba_marseille","lat":43.29193,"lon":5.39329,"is_reserved":false,"is_disabled":false,"rental_uris":{"android":"levelo://app?vid=6ab6933a-1d40-4dbd-8eb1-cb7ef6a30762","ios":"levelo://app?vid=6ab6933a-1d40-4dbd-8eb1-cb7ef6a30762"},"vehicle_type_id":"4","last_reported":1726952831,"current_range_meters":10800,"station_id":"ce4bh192rcd13ifvqdd0","pricing_plan_id":"cebpf4jnsgd1na2vs0mg"},{"bike_id":"8a5f19b2-b930-44ff-ba36-e74b9e6cfce7","system_id":"levelo_inurba_marseille","lat":43.29268,"lon":5.3845,"is_reserved":false,"is_disabled":false,"rental_uris":{"android":"levelo://app?vid=8a5f19b2-b930-44ff-ba36-e74b9e6cfce7","ios":"levelo://app?vid=8a5f19b2-b930-44ff-ba36-e74b9e6cfce7"},"vehicle_type_id":"4","last_reported":1726952831,"current_range_meters":26000,"station_id":"ce4bh692rcd13ifvqea0","pricing_plan_id":"cebpf4jnsgd1na2vs0mg"},{"bike_id":"fce734b4-6c36-4cb6-983c-c95238702258","system_id":"levelo_inurba_marseille","lat":43.31067,"lon":5.38114,"is_reserved":false,"is_disabled":false,"rental_uris":{"android":"levelo://app?vid=fce734b4-6c36-4cb6-983c-c95238702258","ios":"levelo://app?vid=fce734b4-6c36-4cb6-983c-c95238702258"},"vehicle_type_id":"4","last_reported":1726952831,"current_range_meters":16800,"station_id":"","pricing_plan_id":"cebpf4jnsgd1na2vs0mg"},{"bike_id":"3c72fad3-67fd-4590-93d4-44d01e4eab02","system_id":"levelo_inurba_marseille","lat":43.30889,"lon":5.37185,"is_reserved":false,"is_disabled":false,"rental_uris":{"android":"levelo://app?vid=3c72fad3-67fd-4590-93d4-44d01e4eab02","ios":"levelo://app?vid=3c72fad3-67fd-4590-93d4-44d01e4eab02"},"vehicle_type_id":"4","last_reported":1726952831,"current_range_meters":24800,"station_id":"ce4bguh2rcd13ifvqckg","pricing_plan_id":"cebpf4jnsgd1na2vs0mg"},{"bike_id":"c775ecb7-3eaa-4b15-938b-cc10bd0e2ff0","system_id":"levelo_inurba_marseille","lat":43.29269,"lon":5.38449,"is_reserved":false,"is_disabled":false,"rental_uris":{"android":"levelo://app?vid=c775ecb7-3eaa-4b15-938b-cc10bd0e2ff0","ios":"levelo://app?vid=c775ecb7-3eaa-4b15-938b-cc10bd0e2ff0"},"vehicle_type_id":"4","last_reported":1726952831,"current_range_meters":38800,"station_id":"ce4bh692rcd13ifvqea0","pricing_plan_id":"cebpf4jnsgd1na2vs0mg"},{"bike_id":"641f5b3a-0958-49cd-babc-8214d157118d","system_id":"levelo_inurba_marseille","lat":43.28437,"lon":5.39191,"is_reserved":false,"is_disabled":false,"rental_uris":{"android":"levelo://app?vid=641f5b3a-0958-49cd-babc-8214d157118d","ios":"levelo://app?vid=641f5b3a-0958-49cd-babc-8214d157118d"},"vehicle_type_id":"4","last_reported":1726952831,"current_range_meters":32400,"station_id":"ce4bhoh2rcd13ifvqh5g","pricing_plan_id":"cebpf4jnsgd1na2vs0mg"},{"bike_id":"f74941be-f473-4ce7-9230-0799526567ae","system_id":"levelo_inurba_marseille","lat":43.23199,"lon":5.35552,"is_reserved":false,"is_disabled":false,"rental_uris":{"android":"levelo://app?vid=f74941be-f473-4ce7-9230-0799526567ae","ios":"levelo://app?vid=f74941be-f473-4ce7-9230-0799526567ae"},"vehicle_type_id":"4","last_reported":1726952831,"current_range_meters":38800,"station_id":"ce4bhu92rcd13ifvqi70","pricing_plan_id":"cebpf4jnsgd1na2vs0mg"},{"bike_id":"c1ac3a25-dfa3-4df9-a68d-7bda117294da","system_id":"levelo_inurba_marseille","lat":43.29027,"lon":5.38652,"is_reserved":false,"is_disabled":false,"rental_uris":{"android":"levelo://app?vid=c1ac3a25-dfa3-4df9-a68d-7bda117294da","ios":"levelo://app?vid=c1ac3a25-dfa3-4df9-a68d-7bda117294da"},"vehicle_type_id":"4","last_reported":1726952831,"current_range_meters":38800,"station_id":"ce4bh4p2rcd13ifvqe0g","pricing_plan_id":"cebpf4jnsgd1na2vs0mg"},{"bike_id":"1b0377f1-d878-4328-a741-9dcdd239aabf","system_id":"levelo_inurba_marseille","lat":43.31361,"lon":5.38485,"is_reserved":false,"is_disabled":false,"rental_uris":{"android":"levelo://app?vid=1b0377f1-d878-4328-a741-9dcdd239aabf","ios":"levelo://app?vid=1b0377f1-d878-4328-a741-9dcdd239aabf"},"vehicle_type_id":"4","last_reported":1726952831,"current_range_meters":24000,"station_id":"ce4bgt92rcd13ifvqcf0","pricing_plan_id":"cebpf4jnsgd1na2vs0mg"},{"bike_id":"c4e00223-06f1-4363-892d-a5984715e68f","system_id":"levelo_inurba_marseille","lat":43.29017,"lon":5.36856,"is_reserved":false,"is_disabled":false,"rental_uris":{"android":"levelo://app?vid=c4e00223-06f1-4363-892d-a5984715e68f","ios":"levelo://app?vid=c4e00223-06f1-4363-892d-a5984715e68f"},"vehicle_type_id":"4","last_reported":1726952831,"current_range_meters":36400,"station_id":"ce4bh5p2rcd13ifvqe4g","pricing_plan_id":"cebpf4jnsgd1na2vs0mg"},{"bike_id":"bc2224ad-a18e-479e-9927-fa7d79220cd4","system_id":"levelo_inurba_marseille","lat":43.32338,"lon":5.40619,"is_reserved":false,"is_disabled":false,"rental_uris":{"android":"levelo://app?vid=bc2224ad-a18e-479e-9927-fa7d79220cd4","ios":"levelo://app?vid=bc2224ad-a18e-479e-9927-fa7d79220cd4"},"vehicle_type_id":"4","last_reported":1726952831,"current_range_meters":32400,"station_id":"ce4bhq92rcd13ifvqhjg","pricing_plan_id":"cebpf4jnsgd1na2vs0mg"},{"bike_id":"12192bae-b946-45ee-a101-a31562296d5b","system_id":"levelo_inurba_marseille","lat":43.2909,"lon":5.3814,"is_reserved":false,"is_disabled":false,"rental_uris":{"android":"levelo://app?vid=12192bae-b946-45ee-a101-a31562296d5b","ios":"levelo://app?vid=12192bae-b946-45ee-a101-a31562296d5b"},"vehicle_type_id":"4","last_reported":1726952831,"current_range_meters":32000,"station_id":"ce4bh512rcd13ifvqe2g","pricing_plan_id":"cebpf4jnsgd1na2vs0mg"},{"bike_id":"b87884b0-c862-4eff-8dc0-2abe1fa5c659","system_id":"levelo_inurba_marseille","lat":43.298469,"lon":5.362709,"is_reserved":false,"is_disabled":false,"rental_uris":{"android":"levelo://app?vid=b87884b0-c862-4eff-8dc0-2abe1fa5c659","ios":"levelo://app?vid=b87884b0-c862-4eff-8dc0-2abe1fa5c659"},"vehicle_type_id":"4","last_reported":1726952831,"current_range_meters":24400,"station_id":"ce4bgpp2rcd13ifvqc3g","pricing_plan_id":"cebpf4jnsgd1na2vs0mg"},{"bike_id":"26b91c4f-6972-4dc1-bb12-c22b305e06fd","system_id":"levelo_inurba_marseille","lat":43.29268,"lon":5.36844,"is_reserved":false,"is_disabled":false,"rental_uris":{"android":"levelo://app?vid=26b91c4f-6972-4dc1-bb12-c22b305e06fd","ios":"levelo://app?vid=26b91c4f-6972-4dc1-bb12-c22b305e06fd"},"vehicle_type_id":"4","last_reported":1726952831,"current_range_meters":28800,"station_id":"ce4bhbp2rcd13ifvqesg","pricing_plan_id":"cebpf4jnsgd1na2vs0mg"},{"bike_id":"6a27e725-2d8c-4144-8185-44daee5ca0de","system_id":"levelo_inurba_marseille","lat":43.31756,"lon":5.3902,"is_reserved":false,"is_disabled":false,"rental_uris":{"android":"levelo://app?vid=6a27e725-2d8c-4144-8185-44daee5ca0de","ios":"levelo://app?vid=6a27e725-2d8c-4144-8185-44daee5ca0de"},"vehicle_type_id":"4","last_reported":1726952831,"current_range_meters":22400,"station_id":"ce4bhqp2rcd13ifvqhng","pricing_plan_id":"cebpf4jnsgd1na2vs0mg"},{"bike_id":"ba27dee9-d4bf-4647-b218-d8c79b3ff915","system_id":"levelo_inurba_marseille","lat":43.30592,"lon":5.37221,"is_reserved":false,"is_disabled":false,"rental_uris":{"android":"levelo://app?vid=ba27dee9-d4bf-4647-b218-d8c79b3ff915","ios":"levelo://app?vid=ba27dee9-d4bf-4647-b218-d8c79b3ff915"},"vehicle_type_id":"4","last_reported":1726952831,"current_range_meters":2000,"station_id":"ce4bgqh2rcd13ifvqc4g","pricing_plan_id":"cebpf4jnsgd1na2vs0mg"},{"bike_id":"aa18d1b9-803b-47fa-bea1-cb0edab5554a","system_id":"levelo_inurba_marseille","lat":43.28697,"lon":5.39974,"is_reserved":false,"is_disabled":false,"rental_uris":{"android":"levelo://app?vid=aa18d1b9-803b-47fa-bea1-cb0edab5554a","ios":"levelo://app?vid=aa18d1b9-803b-47fa-bea1-cb0edab5554a"},"vehicle_type_id":"4","last_reported":1726952831,"current_range_meters":16000,"station_id":"ce4bho92rcd13ifvqh3g","pricing_plan_id":"cebpf4jnsgd1na2vs0mg"},{"bike_id":"5b4c3f4c-0bc2-447a-ae2a-362f300c7f4b","system_id":"levelo_inurba_marseille","lat":43.30532,"lon":5.38427,"is_reserved":false,"is_disabled":false,"rental_uris":{"android":"levelo://app?vid=5b4c3f4c-0bc2-447a-ae2a-362f300c7f4b","ios":"levelo://app?vid=5b4c3f4c-0bc2-447a-ae2a-362f300c7f4b"},"vehicle_type_id":"4","last_reported":1726952831,"current_range_meters":27200,"station_id":"ce4bgg92rcd13ifvqb30","pricing_plan_id":"cebpf4jnsgd1na2vs0mg"},{"bike_id":"2ce07468-9b3e-42a6-a2fd-7625bfc9d4c1","system_id":"levelo_inurba_marseille","lat":43.28281,"lon":5.35064,"is_reserved":false,"is_disabled":false,"rental_uris":{"android":"levelo://app?vid=2ce07468-9b3e-42a6-a2fd-7625bfc9d4c1","ios":"levelo://app?vid=2ce07468-9b3e-42a6-a2fd-7625bfc9d4c1"},"vehicle_type_id":"4","last_reported":1726952831,"current_range_meters":4800,"station_id":"ce4bhbp2rcd13ifvqerg","pricing_plan_id":"cebpf4jnsgd1na2vs0mg"},{"bike_id":"6c4c3607-82cf-4fe2-8301-90c894cc563f","system_id":"levelo_inurba_marseille","lat":43.31363,"lon":5.38494,"is_reserved":false,"is_disabled":false,"rental_uris":{"android":"levelo://app?vid=6c4c3607-82cf-4fe2-8301-90c894cc563f","ios":"levelo://app?vid=6c4c3607-82cf-4fe2-8301-90c894cc563f"},"vehicle_type_id":"4","last_reported":1726952831,"current_range_meters":35600,"station_id":"ce4bgt92rcd13ifvqcf0","pricing_plan_id":"cebpf4jnsgd1na2vs0mg"},{"bike_id":"fb2b63d9-4a26-4602-9a57-d2caab531ee7","system_id":"levelo_inurba_marseille","lat":43.33727,"lon":5.39186,"is_reserved":false,"is_disabled":false,"rental_uris":{"android":"levelo://app?vid=fb2b63d9-4a26-4602-9a57-d2caab531ee7","ios":"levelo://app?vid=fb2b63d9-4a26-4602-9a57-d2caab531ee7"},"vehicle_type_id":"4","last_reported":1726952831,"current_range_meters":36800,"station_id":"ce4bhr92rcd13ifvqhsg","pricing_plan_id":"cebpf4jnsgd1na2vs0mg"},{"bike_id":"d541ed92-cfeb-48b8-b34c-853ebcc5b103","system_id":"levelo_inurba_marseille","lat":43.2902,"lon":5.3864,"is_reserved":false,"is_disabled":false,"rental_uris":{"android":"levelo://app?vid=d541ed92-cfeb-48b8-b34c-853ebcc5b103","ios":"levelo://app?vid=d541ed92-cfeb-48b8-b34c-853ebcc5b103"},"vehicle_type_id":"4","last_reported":1726952831,"current_range_meters":38800,"station_id":"ce4bh4p2rcd13ifvqe0g","pricing_plan_id":"cebpf4jnsgd1na2vs0mg"},{"bike_id":"f783e93b-35a6-4c96-a417-f5cb58c7485b","system_id":"levelo_inurba_marseille","lat":43.29525,"lon":5.39401,"is_reserved":false,"is_disabled":false,"rental_uris":{"android":"levelo://app?vid=f783e93b-35a6-4c96-a417-f5cb58c7485b","ios":"levelo://app?vid=f783e93b-35a6-4c96-a417-f5cb58c7485b"},"vehicle_type_id":"4","last_reported":1726952831,"current_range_meters":8800,"station_id":"ce4bh292rcd13ifvqdf0","pricing_plan_id":"cebpf4jnsgd1na2vs0mg"},{"bike_id":"0a4a170b-8354-485f-965d-6099d682251f","system_id":"levelo_inurba_marseille","lat":43.254547,"lon":5.378991,"is_reserved":false,"is_disabled":false,"rental_uris":{"android":"levelo://app?vid=0a4a170b-8354-485f-965d-6099d682251f","ios":"levelo://app?vid=0a4a170b-8354-485f-965d-6099d682251f"},"vehicle_type_id":"4","last_reported":1726952831,"current_range_meters":14400,"station_id":"ce4bhh12rcd13ifvqff0","pricing_plan_id":"cebpf4jnsgd1na2vs0mg"},{"bike_id":"f912d310-0e2c-4735-bbd9-fb6e1fa616bb","system_id":"levelo_inurba_marseille","lat":43.2928,"lon":5.40118,"is_reserved":false,"is_disabled":false,"rental_uris":{"android":"levelo://app?vid=f912d310-0e2c-4735-bbd9-fb6e1fa616bb","ios":"levelo://app?vid=f912d310-0e2c-4735-bbd9-fb6e1fa616bb"},"vehicle_type_id":"4","last_reported":1726952831,"current_range_meters":29600,"station_id":"ce4bh312rcd13ifvqdk0","pricing_plan_id":"cebpf4jnsgd1na2vs0mg"},{"bike_id":"93db116e-03dc-445e-afc1-24502c13201e","system_id":"levelo_inurba_marseille","lat":43.29528,"lon":5.38536,"is_reserved":false,"is_disabled":false,"rental_uris":{"android":"levelo://app?vid=93db116e-03dc-445e-afc1-24502c13201e","ios":"levelo://app?vid=93db116e-03dc-445e-afc1-24502c13201e"},"vehicle_type_id":"4","last_reported":1726952831,"current_range_meters":8400,"station_id":"ce4bgih2rcd13ifvqba0","pricing_plan_id":"cebpf4jnsgd1na2vs0mg"},{"bike_id":"dec699ed-0c0d-4727-a171-8b9ebae751fb","system_id":"levelo_inurba_marseille","lat":43.29028,"lon":5.38652,"is_reserved":false,"is_disabled":false,"rental_uris":{"android":"levelo://app?vid=dec699ed-0c0d-4727-a171-8b9ebae751fb","ios":"levelo://app?vid=dec699ed-0c0d-4727-a171-8b9ebae751fb"},"vehicle_type_id":"4","last_reported":1726952831,"current_range_meters":38800,"station_id":"ce4bh4p2rcd13ifvqe0g","pricing_plan_id":"cebpf4jnsgd1na2vs0mg"},{"bike_id":"7823953f-a87d-4a55-877d-377392edca88","system_id":"levelo_inurba_marseille","lat":43.31261,"lon":5.40168,"is_reserved":false,"is_disabled":false,"rental_uris":{"android":"levelo://app?vid=7823953f-a87d-4a55-877d-377392edca88","ios":"levelo://app?vid=7823953f-a87d-4a55-877d-377392edca88"},"vehicle_type_id":"4","last_reported":1726952831,"current_range_meters":13600,"station_id":"ce4bh092rcd13ifvqd30","pricing_plan_id":"cebpf4jnsgd1na2vs0mg"},{"bike_id":"ac433075-cea9-4f92-b444-ccd3e0887e60","system_id":"levelo_inurba_marseille","lat":43.29022,"lon":5.38624,"is_reserved":false,"is_disabled":false,"rental_uris":{"android":"levelo://app?vid=ac433075-cea9-4f92-b444-ccd3e0887e60","ios":"levelo://app?vid=ac433075-cea9-4f92-b444-ccd3e0887e60"},"vehicle_type_id":"4","last_reported":1726952831,"current_range_meters":38800,"station_id":"ce4bh4p2rcd13ifvqe0g","pricing_plan_id":"cebpf4jnsgd1na2vs0mg"},{"bike_id":"4b5d80be-7d82-4609-828a-348ad471e00f","system_id":"levelo_inurba_marseille","lat":43.33602,"lon":5.41038,"is_reserved":false,"is_disabled":false,"rental_uris":{"android":"levelo://app?vid=4b5d80be-7d82-4609-828a-348ad471e00f","ios":"levelo://app?vid=4b5d80be-7d82-4609-828a-348ad471e00f"},"vehicle_type_id":"4","last_reported":1726952831,"current_range_meters":21600,"station_id":"ce4bhqh2rcd13ifvqhmg","pricing_plan_id":"cebpf4jnsgd1na2vs0mg"},{"bike_id":"644c96c8-8412-48f2-9fb6-4dfcacb0a2e1","system_id":"levelo_inurba_marseille","lat":43.29419,"lon":5.38626,"is_reserved":false,"is_disabled":false,"rental_uris":{"android":"levelo://app?vid=644c96c8-8412-48f2-9fb6-4dfcacb0a2e1","ios":"levelo://app?vid=644c96c8-8412-48f2-9fb6-4dfcacb0a2e1"},"vehicle_type_id":"4","last_reported":1726952831,"current_range_meters":4000,"station_id":"ce4bh2h2rcd13ifvqdh0","pricing_plan_id":"cebpf4jnsgd1na2vs0mg"},{"bike_id":"fa690805-233a-4a70-a9f3-33f1b67cdb1f","system_id":"levelo_inurba_marseille","lat":43.32285,"lon":5.38269,"is_reserved":false,"is_disabled":false,"rental_uris":{"android":"levelo://app?vid=fa690805-233a-4a70-a9f3-33f1b67cdb1f","ios":"levelo://app?vid=fa690805-233a-4a70-a9f3-33f1b67cdb1f"},"vehicle_type_id":"4","last_reported":1726952831,"current_range_meters":10000,"station_id":"ce4bhr12rcd13ifvqhqg","pricing_plan_id":"cebpf4jnsgd1na2vs0mg"},{"bike_id":"69cf606e-21f6-4a46-9d4b-1cf16e1a2ff5","system_id":"levelo_inurba_marseille","lat":43.2952,"lon":5.39414,"is_reserved":false,"is_disabled":false,"rental_uris":{"android":"levelo://app?vid=69cf606e-21f6-4a46-9d4b-1cf16e1a2ff5","ios":"levelo://app?vid=69cf606e-21f6-4a46-9d4b-1cf16e1a2ff5"},"vehicle_type_id":"4","last_reported":1726952831,"current_range_meters":38800,"station_id":"ce4bh292rcd13ifvqdf0","pricing_plan_id":"cebpf4jnsgd1na2vs0mg"},{"bike_id":"fc14eaec-4880-450f-a711-81cf4d3a877b","system_id":"levelo_inurba_marseille","lat":43.27424,"lon":5.39416,"is_reserved":false,"is_disabled":false,"rental_uris":{"android":"levelo://app?vid=fc14eaec-4880-450f-a711-81cf4d3a877b","ios":"levelo://app?vid=fc14eaec-4880-450f-a711-81cf4d3a877b"},"vehicle_type_id":"4","last_reported":1726952831,"current_range_meters":38000,"station_id":"ce4bhdp2rcd13ifvqf20","pricing_plan_id":"cebpf4jnsgd1na2vs0mg"},{"bike_id":"716f07ae-c32a-4cb1-9661-c039e55fa02f","system_id":"levelo_inurba_marseille","lat":43.29925,"lon":5.38537,"is_reserved":false,"is_disabled":false,"rental_uris":{"android":"levelo://app?vid=716f07ae-c32a-4cb1-9661-c039e55fa02f","ios":"levelo://app?vid=716f07ae-c32a-4cb1-9661-c039e55fa02f"},"vehicle_type_id":"4","last_reported":1726952831,"current_range_meters":16000,"station_id":"ce4bh392rcd13ifvqdl0","pricing_plan_id":"cebpf4jnsgd1na2vs0mg"},{"bike_id":"991ba83f-c726-437d-8486-e12ff1d0bba0","system_id":"levelo_inurba_marseille","lat":43.296082,"lon":5.369663,"is_reserved":false,"is_disabled":false,"rental_uris":{"android":"levelo://app?vid=991ba83f-c726-437d-8486-e12ff1d0bba0","ios":"levelo://app?vid=991ba83f-c726-437d-8486-e12ff1d0bba0"},"vehicle_type_id":"4","last_reported":1726952831,"current_range_meters":28800,"station_id":"","pricing_plan_id":"cebpf4jnsgd1na2vs0mg"},{"bike_id":"0dcbdf9b-b017-4388-ae84-819950e6823b","system_id":"levelo_inurba_marseille","lat":43.29265,"lon":5.38443,"is_reserved":false,"is_disabled":false,"rental_uris":{"android":"levelo://app?vid=0dcbdf9b-b017-4388-ae84-819950e6823b","ios":"levelo://app?vid=0dcbdf9b-b017-4388-ae84-819950e6823b"},"vehicle_type_id":"4","last_reported":1726952831,"current_range_meters":38800,"station_id":"ce4bh692rcd13ifvqea0","pricing_plan_id":"cebpf4jnsgd1na2vs0mg"},{"bike_id":"c9d2a6e1-4730-453b-a071-a1ec3ae87e05","system_id":"levelo_inurba_marseille","lat":43.29262,"lon":5.38447,"is_reserved":false,"is_disabled":false,"rental_uris":{"android":"levelo://app?vid=c9d2a6e1-4730-453b-a071-a1ec3ae87e05","ios":"levelo://app?vid=c9d2a6e1-4730-453b-a071-a1ec3ae87e05"},"vehicle_type_id":"4","last_reported":1726952831,"current_range_meters":38800,"station_id":"ce4bh692rcd13ifvqea0","pricing_plan_id":"cebpf4jnsgd1na2vs0mg"},{"bike_id":"b2763354-ec6c-4733-8de6-6c4493759ae9","system_id":"levelo_inurba_marseille","lat":43.29074,"lon":5.40152,"is_reserved":false,"is_disabled":false,"rental_uris":{"android":"levelo://app?vid=b2763354-ec6c-4733-8de6-6c4493759ae9","ios":"levelo://app?vid=b2763354-ec6c-4733-8de6-6c4493759ae9"},"vehicle_type_id":"4","last_reported":1726952831,"current_range_meters":11600,"station_id":"","pricing_plan_id":"cebpf4jnsgd1na2vs0mg"},{"bike_id":"e29dd9ba-63d8-42a3-ab51-ca0c5a1b149c","system_id":"levelo_inurba_marseille","lat":43.25934,"lon":5.40912,"is_reserved":false,"is_disabled":false,"rental_uris":{"android":"levelo://app?vid=e29dd9ba-63d8-42a3-ab51-ca0c5a1b149c","ios":"levelo://app?vid=e29dd9ba-63d8-42a3-ab51-ca0c5a1b149c"},"vehicle_type_id":"4","last_reported":1726952831,"current_range_meters":32400,"station_id":"ce4bhm92rcd13ifvqglg","pricing_plan_id":"cebpf4jnsgd1na2vs0mg"},{"bike_id":"7507f644-3548-4f39-bc85-a6db10d5302c","system_id":"levelo_inurba_marseille","lat":43.23955,"lon":5.36631,"is_reserved":false,"is_disabled":false,"rental_uris":{"android":"levelo://app?vid=7507f644-3548-4f39-bc85-a6db10d5302c","ios":"levelo://app?vid=7507f644-3548-4f39-bc85-a6db10d5302c"},"vehicle_type_id":"4","last_reported":1726952831,"current_range_meters":10000,"station_id":"ce4bhi12rcd13ifvqfp0","pricing_plan_id":"cebpf4jnsgd1na2vs0mg"},{"bike_id":"25132b35-4706-43bb-a221-fa452b170781","system_id":"levelo_inurba_marseille","lat":43.30301,"lon":5.40349,"is_reserved":false,"is_disabled":false,"rental_uris":{"android":"levelo://app?vid=25132b35-4706-43bb-a221-fa452b170781","ios":"levelo://app?vid=25132b35-4706-43bb-a221-fa452b170781"},"vehicle_type_id":"4","last_reported":1726952831,"current_range_meters":3200,"station_id":"","pricing_plan_id":"cebpf4jnsgd1na2vs0mg"},{"bike_id":"27647e7e-ffb5-4268-b96f-98e8829957be","system_id":"levelo_inurba_marseille","lat":43.30906,"lon":5.36851,"is_reserved":false,"is_disabled":false,"rental_uris":{"android":"levelo://app?vid=27647e7e-ffb5-4268-b96f-98e8829957be","ios":"levelo://app?vid=27647e7e-ffb5-4268-b96f-98e8829957be"},"vehicle_type_id":"4","last_reported":1726952831,"current_range_meters":37600,"station_id":"ce4bgn92rcd13ifvqbvg","pricing_plan_id":"cebpf4jnsgd1na2vs0mg"},{"bike_id":"e31de2a4-85fb-467d-a504-2f3cf4294688","system_id":"levelo_inurba_marseille","lat":43.25824,"lon":5.39427,"is_reserved":false,"is_disabled":false,"rental_uris":{"android":"levelo://app?vid=e31de2a4-85fb-467d-a504-2f3cf4294688","ios":"levelo://app?vid=e31de2a4-85fb-467d-a504-2f3cf4294688"},"vehicle_type_id":"4","last_reported":1726952831,"current_range_meters":27600,"station_id":"ce4bhip2rcd13ifvqft0","pricing_plan_id":"cebpf4jnsgd1na2vs0mg"},{"bike_id":"5fc49b3e-7dcd-40d6-ae21-541b99de832a","system_id":"levelo_inurba_marseille","lat":43.29534,"lon":5.38552,"is_reserved":false,"is_disabled":false,"rental_uris":{"android":"levelo://app?vid=5fc49b3e-7dcd-40d6-ae21-541b99de832a","ios":"levelo://app?vid=5fc49b3e-7dcd-40d6-ae21-541b99de832a"},"vehicle_type_id":"4","last_reported":1726952831,"current_range_meters":19200,"station_id":"ce4bgih2rcd13ifvqba0","pricing_plan_id":"cebpf4jnsgd1na2vs0mg"},{"bike_id":"ab3f375e-e673-4ae2-a215-82b0475511da","system_id":"levelo_inurba_marseille","lat":43.29525,"lon":5.38538,"is_reserved":false,"is_disabled":false,"rental_uris":{"android":"levelo://app?vid=ab3f375e-e673-4ae2-a215-82b0475511da","ios":"levelo://app?vid=ab3f375e-e673-4ae2-a215-82b0475511da"},"vehicle_type_id":"4","last_reported":1726952831,"current_range_meters":20400,"station_id":"ce4bgih2rcd13ifvqba0","pricing_plan_id":"cebpf4jnsgd1na2vs0mg"},{"bike_id":"00856b94-5898-4e45-86cf-02ab007d94f5","system_id":"levelo_inurba_marseille","lat":43.29537,"lon":5.38545,"is_reserved":false,"is_disabled":false,"rental_uris":{"android":"levelo://app?vid=00856b94-5898-4e45-86cf-02ab007d94f5","ios":"levelo://app?vid=00856b94-5898-4e45-86cf-02ab007d94f5"},"vehicle_type_id":"4","last_reported":1726952831,"current_range_meters":6400,"station_id":"ce4bgih2rcd13ifvqba0","pricing_plan_id":"cebpf4jnsgd1na2vs0mg"},{"bike_id":"5659d333-b841-44a4-819b-e49fc2c64344","system_id":"levelo_inurba_marseille","lat":43.29526,"lon":5.38539,"is_reserved":false,"is_disabled":false,"rental_uris":{"android":"levelo://app?vid=5659d333-b841-44a4-819b-e49fc2c64344","ios":"levelo://app?vid=5659d333-b841-44a4-819b-e49fc2c64344"},"vehicle_type_id":"4","last_reported":1726952831,"current_range_meters":16400,"station_id":"ce4bgih2rcd13ifvqba0","pricing_plan_id":"cebpf4jnsgd1na2vs0mg"},{"bike_id":"2b40b9d7-323b-4207-b2de-d3cf4cff3e1f","system_id":"levelo_inurba_marseille","lat":43.23197,"lon":5.35552,"is_reserved":false,"is_disabled":false,"rental_uris":{"android":"levelo://app?vid=2b40b9d7-323b-4207-b2de-d3cf4cff3e1f","ios":"levelo://app?vid=2b40b9d7-323b-4207-b2de-d3cf4cff3e1f"},"vehicle_type_id":"4","last_reported":1726952831,"current_range_meters":18800,"station_id":"ce4bhu92rcd13ifvqi70","pricing_plan_id":"cebpf4jnsgd1na2vs0mg"},{"bike_id":"f1c65647-c1b0-4c23-bf04-752b6fa29535","system_id":"levelo_inurba_marseille","lat":43.31702,"lon":5.37747,"is_reserved":false,"is_disabled":false,"rental_uris":{"android":"levelo://app?vid=f1c65647-c1b0-4c23-bf04-752b6fa29535","ios":"levelo://app?vid=f1c65647-c1b0-4c23-bf04-752b6fa29535"},"vehicle_type_id":"4","last_reported":1726952831,"current_range_meters":38800,"station_id":"ce4bgth2rcd13ifvqch0","pricing_plan_id":"cebpf4jnsgd1na2vs0mg"},{"bike_id":"a3d2ed8b-d701-4635-8c95-5b457c7ce42b","system_id":"levelo_inurba_marseille","lat":43.29028,"lon":5.38643,"is_reserved":false,"is_disabled":false,"rental_uris":{"android":"levelo://app?vid=a3d2ed8b-d701-4635-8c95-5b457c7ce42b","ios":"levelo://app?vid=a3d2ed8b-d701-4635-8c95-5b457c7ce42b"},"vehicle_type_id":"4","last_reported":1726952831,"current_range_meters":38800,"station_id":"ce4bh4p2rcd13ifvqe0g","pricing_plan_id":"cebpf4jnsgd1na2vs0mg"},{"bike_id":"2b41edf9-54e9-4d40-af53-48178afd32f9","system_id":"levelo_inurba_marseille","lat":43.29532,"lon":5.3855,"is_reserved":false,"is_disabled":false,"rental_uris":{"android":"levelo://app?vid=2b41edf9-54e9-4d40-af53-48178afd32f9","ios":"levelo://app?vid=2b41edf9-54e9-4d40-af53-48178afd32f9"},"vehicle_type_id":"4","last_reported":1726952831,"current_range_meters":8400,"station_id":"ce4bgih2rcd13ifvqba0","pricing_plan_id":"cebpf4jnsgd1na2vs0mg"},{"bike_id":"9f125b04-9b15-4419-bd68-031fb7013f27","system_id":"levelo_inurba_marseille","lat":43.32369,"lon":5.38886,"is_reserved":false,"is_disabled":false,"rental_uris":{"android":"levelo://app?vid=9f125b04-9b15-4419-bd68-031fb7013f27","ios":"levelo://app?vid=9f125b04-9b15-4419-bd68-031fb7013f27"},"vehicle_type_id":"4","last_reported":1726952831,"current_range_meters":22400,"station_id":"ce4bhqp2rcd13ifvqhog","pricing_plan_id":"cebpf4jnsgd1na2vs0mg"},{"bike_id":"356a8421-8494-4de4-8b4d-7e126a095577","system_id":"levelo_inurba_marseille","lat":43.29096,"lon":5.38156,"is_reserved":false,"is_disabled":false,"rental_uris":{"android":"levelo://app?vid=356a8421-8494-4de4-8b4d-7e126a095577","ios":"levelo://app?vid=356a8421-8494-4de4-8b4d-7e126a095577"},"vehicle_type_id":"4","last_reported":1726952831,"current_range_meters":36800,"station_id":"ce4bh512rcd13ifvqe2g","pricing_plan_id":"cebpf4jnsgd1na2vs0mg"},{"bike_id":"f20f670c-aa2a-442b-ad2a-1debbdde948f","system_id":"levelo_inurba_marseille","lat":43.24807,"lon":5.37458,"is_reserved":false,"is_disabled":false,"rental_uris":{"android":"levelo://app?vid=f20f670c-aa2a-442b-ad2a-1debbdde948f","ios":"levelo://app?vid=f20f670c-aa2a-442b-ad2a-1debbdde948f"},"vehicle_type_id":"4","last_reported":1726952831,"current_range_meters":26000,"station_id":"ce4bhgh2rcd13ifvqfb0","pricing_plan_id":"cebpf4jnsgd1na2vs0mg"},{"bike_id":"05aa6e59-2466-4d0c-8b20-ecd8c2d3b2e1","system_id":"levelo_inurba_marseille","lat":43.24998,"lon":5.38933,"is_reserved":false,"is_disabled":false,"rental_uris":{"android":"levelo://app?vid=05aa6e59-2466-4d0c-8b20-ecd8c2d3b2e1","ios":"levelo://app?vid=05aa6e59-2466-4d0c-8b20-ecd8c2d3b2e1"},"vehicle_type_id":"4","last_reported":1726952831,"current_range_meters":2800,"station_id":"ce4bhgp2rcd13ifvqfd0","pricing_plan_id":"cebpf4jnsgd1na2vs0mg"},{"bike_id":"6aede442-f703-45a4-81fb-6724ab8adc1b","system_id":"levelo_inurba_marseille","lat":43.29038,"lon":5.39977,"is_reserved":false,"is_disabled":false,"rental_uris":{"android":"levelo://app?vid=6aede442-f703-45a4-81fb-6724ab8adc1b","ios":"levelo://app?vid=6aede442-f703-45a4-81fb-6724ab8adc1b"},"vehicle_type_id":"4","last_reported":1726952831,"current_range_meters":6000,"station_id":"ce4bh392rcd13ifvqdm0","pricing_plan_id":"cebpf4jnsgd1na2vs0mg"},{"bike_id":"fcdbecf9-c036-4033-9bec-0d008ce97e98","system_id":"levelo_inurba_marseille","lat":43.297821,"lon":5.371004,"is_reserved":false,"is_disabled":false,"rental_uris":{"android":"levelo://app?vid=fcdbecf9-c036-4033-9bec-0d008ce97e98","ios":"levelo://app?vid=fcdbecf9-c036-4033-9bec-0d008ce97e98"},"vehicle_type_id":"4","last_reported":1726952831,"current_range_meters":9200,"station_id":"ce4bgop2rcd13ifvqc1g","pricing_plan_id":"cebpf4jnsgd1na2vs0mg"},{"bike_id":"fd75d0de-64a6-4bd1-ba82-21e5b5669e46","system_id":"levelo_inurba_marseille","lat":43.29021,"lon":5.38636,"is_reserved":false,"is_disabled":false,"rental_uris":{"android":"levelo://app?vid=fd75d0de-64a6-4bd1-ba82-21e5b5669e46","ios":"levelo://app?vid=fd75d0de-64a6-4bd1-ba82-21e5b5669e46"},"vehicle_type_id":"4","last_reported":1726952831,"current_range_meters":27200,"station_id":"ce4bh4p2rcd13ifvqe0g","pricing_plan_id":"cebpf4jnsgd1na2vs0mg"},{"bike_id":"da048515-ba92-4349-b7d4-e67776331e61","system_id":"levelo_inurba_marseille","lat":43.29526,"lon":5.38545,"is_reserved":false,"is_disabled":false,"rental_uris":{"android":"levelo://app?vid=da048515-ba92-4349-b7d4-e67776331e61","ios":"levelo://app?vid=da048515-ba92-4349-b7d4-e67776331e61"},"vehicle_type_id":"4","last_reported":1726952831,"current_range_meters":14800,"station_id":"ce4bgih2rcd13ifvqba0","pricing_plan_id":"cebpf4jnsgd1na2vs0mg"},{"bike_id":"6b698505-7354-4bdb-8fb9-7591c6164327","system_id":"levelo_inurba_marseille","lat":43.25726,"lon":5.41108,"is_reserved":false,"is_disabled":false,"rental_uris":{"android":"levelo://app?vid=6b698505-7354-4bdb-8fb9-7591c6164327","ios":"levelo://app?vid=6b698505-7354-4bdb-8fb9-7591c6164327"},"vehicle_type_id":"4","last_reported":1726952831,"current_range_meters":17200,"station_id":"ce4bhkp2rcd13ifvqgd0","pricing_plan_id":"cebpf4jnsgd1na2vs0mg"},{"bike_id":"112cae3d-3c83-4d8a-88f2-a07902322ba4","system_id":"levelo_inurba_marseille","lat":43.29028,"lon":5.38144,"is_reserved":false,"is_disabled":false,"rental_uris":{"android":"levelo://app?vid=112cae3d-3c83-4d8a-88f2-a07902322ba4","ios":"levelo://app?vid=112cae3d-3c83-4d8a-88f2-a07902322ba4"},"vehicle_type_id":"4","last_reported":1726952831,"current_range_meters":38800,"station_id":"ce4bh4p2rcd13ifvqe1g","pricing_plan_id":"cebpf4jnsgd1na2vs0mg"},{"bike_id":"cc7ad9ef-322d-4096-9bb5-bdd7e2683284","system_id":"levelo_inurba_marseille","lat":43.30582,"lon":5.39358,"is_reserved":false,"is_disabled":false,"rental_uris":{"android":"levelo://app?vid=cc7ad9ef-322d-4096-9bb5-bdd7e2683284","ios":"levelo://app?vid=cc7ad9ef-322d-4096-9bb5-bdd7e2683284"},"vehicle_type_id":"4","last_reported":1726952831,"current_range_meters":7200,"station_id":"ce4bh0p2rcd13ifvqd80","pricing_plan_id":"cebpf4jnsgd1na2vs0mg"},{"bike_id":"c2f3dc81-df34-4dc6-ad0b-eb66a561f59d","system_id":"levelo_inurba_marseille","lat":43.309418,"lon":5.390375,"is_reserved":false,"is_disabled":false,"rental_uris":{"android":"levelo://app?vid=c2f3dc81-df34-4dc6-ad0b-eb66a561f59d","ios":"levelo://app?vid=c2f3dc81-df34-4dc6-ad0b-eb66a561f59d"},"vehicle_type_id":"4","last_reported":1726952831,"current_range_meters":35600,"station_id":"ce4bhah2rcd13ifvqei0","pricing_plan_id":"cebpf4jnsgd1na2vs0mg"},{"bike_id":"e6fe0570-7c91-4dae-8564-032a556abdc0","system_id":"levelo_inurba_marseille","lat":43.30306,"lon":5.36899,"is_reserved":false,"is_disabled":false,"rental_uris":{"android":"levelo://app?vid=e6fe0570-7c91-4dae-8564-032a556abdc0","ios":"levelo://app?vid=e6fe0570-7c91-4dae-8564-032a556abdc0"},"vehicle_type_id":"4","last_reported":1726952831,"current_range_meters":38000,"station_id":"ce4bgqh2rcd13ifvqc5g","pricing_plan_id":"cebpf4jnsgd1na2vs0mg"},{"bike_id":"55e2529a-bd46-4675-8c94-1029de65dc6f","system_id":"levelo_inurba_marseille","lat":43.231548,"lon":5.437115,"is_reserved":false,"is_disabled":false,"rental_uris":{"android":"levelo://app?vid=55e2529a-bd46-4675-8c94-1029de65dc6f","ios":"levelo://app?vid=55e2529a-bd46-4675-8c94-1029de65dc6f"},"vehicle_type_id":"4","last_reported":1726952831,"current_range_meters":32000,"station_id":"ce4bhmp2rcd13ifvqgog","pricing_plan_id":"cebpf4jnsgd1na2vs0mg"},{"bike_id":"7d966694-e905-440b-b89f-d0cf9fb0c0b9","system_id":"levelo_inurba_marseille","lat":43.29605,"lon":5.37701,"is_reserved":false,"is_disabled":false,"rental_uris":{"android":"levelo://app?vid=7d966694-e905-440b-b89f-d0cf9fb0c0b9","ios":"levelo://app?vid=7d966694-e905-440b-b89f-d0cf9fb0c0b9"},"vehicle_type_id":"4","last_reported":1726952831,"current_range_meters":38800,"station_id":"ce4bgi92rcd13ifvqb90","pricing_plan_id":"cebpf4jnsgd1na2vs0mg"},{"bike_id":"31444d97-ada7-4c14-9ccc-e8d8f546def7","system_id":"levelo_inurba_marseille","lat":43.26934,"lon":5.36668,"is_reserved":false,"is_disabled":false,"rental_uris":{"android":"levelo://app?vid=31444d97-ada7-4c14-9ccc-e8d8f546def7","ios":"levelo://app?vid=31444d97-ada7-4c14-9ccc-e8d8f546def7"},"vehicle_type_id":"4","last_reported":1726952831,"current_range_meters":8000,"station_id":"","pricing_plan_id":"cebpf4jnsgd1na2vs0mg"},{"bike_id":"ab97f218-9f41-4ea3-89b0-ec4db0a4d3b4","system_id":"levelo_inurba_marseille","lat":43.25488,"lon":5.37651,"is_reserved":false,"is_disabled":false,"rental_uris":{"android":"levelo://app?vid=ab97f218-9f41-4ea3-89b0-ec4db0a4d3b4","ios":"levelo://app?vid=ab97f218-9f41-4ea3-89b0-ec4db0a4d3b4"},"vehicle_type_id":"4","last_reported":1726952831,"current_range_meters":38800,"station_id":"ce4bhh12rcd13ifvqff0","pricing_plan_id":"cebpf4jnsgd1na2vs0mg"},{"bike_id":"244dd254-79fe-45d7-8154-b8ea8a331c9e","system_id":"levelo_inurba_marseille","lat":43.31322,"lon":5.39692,"is_reserved":false,"is_disabled":false,"rental_uris":{"android":"levelo://app?vid=244dd254-79fe-45d7-8154-b8ea8a331c9e","ios":"levelo://app?vid=244dd254-79fe-45d7-8154-b8ea8a331c9e"},"vehicle_type_id":"4","last_reported":1726952831,"current_range_meters":36800,"station_id":"ce4bgvp2rcd13ifvqcu0","pricing_plan_id":"cebpf4jnsgd1na2vs0mg"},{"bike_id":"345d07e9-16fc-4c1c-b280-730da9dc83fb","system_id":"levelo_inurba_marseille","lat":43.24078,"lon":5.3775,"is_reserved":false,"is_disabled":false,"rental_uris":{"android":"levelo://app?vid=345d07e9-16fc-4c1c-b280-730da9dc83fb","ios":"levelo://app?vid=345d07e9-16fc-4c1c-b280-730da9dc83fb"},"vehicle_type_id":"4","last_reported":1726952831,"current_range_meters":3200,"station_id":"ce4bhnp2rcd13ifvqgvg","pricing_plan_id":"cebpf4jnsgd1na2vs0mg"},{"bike_id":"19c441af-6d0f-426a-ac12-4fd8aa7d5a19","system_id":"levelo_inurba_marseille","lat":43.299755,"lon":5.384945,"is_reserved":false,"is_disabled":false,"rental_uris":{"android":"levelo://app?vid=19c441af-6d0f-426a-ac12-4fd8aa7d5a19","ios":"levelo://app?vid=19c441af-6d0f-426a-ac12-4fd8aa7d5a19"},"vehicle_type_id":"4","last_reported":1726952831,"current_range_meters":6000,"station_id":"ce4bgt92rcd13ifvqcf0","pricing_plan_id":"cebpf4jnsgd1na2vs0mg"},{"bike_id":"ced66daf-26e0-4b39-8b77-077c35fd4e71","system_id":"levelo_inurba_marseille","lat":43.31078,"lon":5.38357,"is_reserved":false,"is_disabled":false,"rental_uris":{"android":"levelo://app?vid=ced66daf-26e0-4b39-8b77-077c35fd4e71","ios":"levelo://app?vid=ced66daf-26e0-4b39-8b77-077c35fd4e71"},"vehicle_type_id":"4","last_reported":1726952831,"current_range_meters":27600,"station_id":"ce4bgv92rcd13ifvqcr0","pricing_plan_id":"cebpf4jnsgd1na2vs0mg"},{"bike_id":"b8986172-070d-4b74-af70-5e73f8896b7b","system_id":"levelo_inurba_marseille","lat":43.29031,"lon":5.38648,"is_reserved":false,"is_disabled":false,"rental_uris":{"android":"levelo://app?vid=b8986172-070d-4b74-af70-5e73f8896b7b","ios":"levelo://app?vid=b8986172-070d-4b74-af70-5e73f8896b7b"},"vehicle_type_id":"4","last_reported":1726952831,"current_range_meters":28400,"station_id":"ce4bh4p2rcd13ifvqe0g","pricing_plan_id":"cebpf4jnsgd1na2vs0mg"},{"bike_id":"af65f514-5cc5-4901-9b32-4d09979b53a5","system_id":"levelo_inurba_marseille","lat":43.29846,"lon":5.36274,"is_reserved":false,"is_disabled":false,"rental_uris":{"android":"levelo://app?vid=af65f514-5cc5-4901-9b32-4d09979b53a5","ios":"levelo://app?vid=af65f514-5cc5-4901-9b32-4d09979b53a5"},"vehicle_type_id":"4","last_reported":1726952831,"current_range_meters":8800,"station_id":"ce4bgpp2rcd13ifvqc3g","pricing_plan_id":"cebpf4jnsgd1na2vs0mg"},