{"last_updated":1703109971,"ttl":30,"version":"2.2","data":{"bikes":[{"bike_id":"b6cb0808-4276-411f-b1a9-769199a384c5","system_id":"levelo_inurba_marseille","lat":43.313391,"lon":5.36706,"is_reserved":false,"is_disabled":false,"rental_uris":{"android":"levelo://app?vid=b6cb0808-4276-411f-b1a9-769199a384c5","ios":"levelo://app?vid=b6cb0808-4276-411f-b1a9-769199a384c5"},"vehicle_type_id":"4","last_reported":1703109972,"current_range_meters":20800,"station_id":"ce4bgr92rcd13ifvqc6g","pricing_plan_id":"free"},{"bike_id":"63e20fad-1285-4b66-bd8f-d3605b03361b","system_id":"levelo_inurba_marseille","lat":43.31341,"lon":5.367098,"is_reserved":false,"is_disabled":false,"rental_uris":{"android":"levelo://app?vid=63e20fad-1285-4b66-bd8f-d3605b03361b","ios":"levelo://app?vid=63e20fad-1285-4b66-bd8f-d3605b03361b"},"vehicle_type_id":"4","last_reported":1703109972,"current_range_meters":26800,"station_id":"ce4bgr92rcd13ifvqc6g","pricing_plan_id":"free"},{"bike_id":"935b3241-2df6-4187-8ce9-fa9a431453f4","system_id":"levelo_inurba_marseille","lat":43.309039,"lon":5.371797,"is_reserved":false,"is_disabled":false,"rental_uris":{"android":"levelo://app?vid=935b3241-2df6-4187-8ce9-fa9a431453f4","ios":"levelo://app?vid=935b3241-2df6-4187-8ce9-fa9a431453f4"},"vehicle_type_id":"4","last_reported":1703109972,"current_range_meters":12400,"station_id":"ce4bguh2rcd13ifvqckg","pricing_plan_id":"free"},{"bike_id":"044fb60b-41f1-4d45-ac78-a005f4ffd2d1","system_id":"levelo_inurba_marseille","lat":43.309039,"lon":5.371797,"is_reserved":false,"is_disabled":false,"rental_uris":{"android":"levelo://app?vid=044fb60b-41f1-4d45-ac78-a005f4ffd2d1","ios":"levelo://app?vid=044fb60b-41f1-4d45-ac78-a005f4ffd2d1"},"vehicle_type_id":"4","last_reported":1703109972,"current_range_meters":21600,"station_id":"ce4bguh2rcd13ifvqckg","pricing_plan_id":"free"},{"bike_id":"98d0b434-bb66-4081-993e-7cb3cbef7ec5","system_id":"levelo_inurba_marseille","lat":43.309039,"lon":5.371797,"is_reserved":false,"is_disabled":false,"rental_uris":{"android":"levelo://app?vid=98d0b434-bb66-4081-993e-7cb3cbef7ec5","ios":"levelo://app?vid=98d0b434-bb66-4081-993e-7cb3cbef7ec5"},"vehicle_type_id":"4","last_reported":1703109972,"current_range_meters":20400,"station_id":"ce4bguh2rcd13ifvqckg","pricing_plan_id":"free"},{"bike_id":"3cf12d02-5c13-435d-8950-6f18202f760d","system_id":"levelo_inurba_marseille","lat":43.309039,"lon":5.371797,"is_reserved":false,"is_disabled":false,"rental_uris":{"android":"levelo://app?vid=3cf12d02-5c13-435d-8950-6f18202f760d","ios":"levelo://app?vid=3cf12d02-5c13-435d-8950-6f18202f760d"},"vehicle_type_id":"4","last_reported":1703109972,"current_range_meters":22000,"station_id":"ce4bguh2rcd13ifvqckg","pricing_plan_id":"free"},{"bike_id":"c30439e2-ba2b-4272-a77c-54b57d043782","system_id":"levelo_inurba_marseille","lat":43.309039,"lon":5.371797,"is_reserved":false,"is_disabled":false,"rental_uris":{"android":"levelo://app?vid=c30439e2-ba2b-4272-a77c-54b57d043782","ios":"levelo://app?vid=c30439e2-ba2b-4272-a77c-54b57d043782"},"vehicle_type_id":"4","last_reported":1703109972,"current_range_meters":18400,"station_id":"ce4bguh2rcd13ifvqckg","pricing_plan_id":"free"},{"bike_id":"577c5d2f-836a-40bb-b27f-04ed951e0f10","system_id":"levelo_inurba_marseille","lat":43.30602,"lon":5.37216,"is_reserved":false,"is_disabled":false,"rental_uris":{"android":"levelo://app?vid=577c5d2f-836a-40bb-b27f-04ed951e0f10","ios":"levelo://app?vid=577c5d2f-836a-40bb-b27f-04ed951e0f10"},"vehicle_type_id":"4","last_reported":1703109972,"current_range_meters":0,"station_id":"ce4bgqh2rcd13ifvqc4g","pricing_plan_id":"free"},{"bike_id":"2e62151a-223f-4f2b-a611-f2776d6c1e22","system_id":"levelo_inurba_marseille","lat":43.311174,"lon":5.377619,"is_reserved":false,"is_disabled":false,"rental_uris":{"android":"levelo://app?vid=2e62151a-223f-4f2b-a611-f2776d6c1e22","ios":"levelo://app?vid=2e62151a-223f-4f2b-a611-f2776d6c1e22"},"vehicle_type_id":"4","last_reported":1703109972,"current_range_meters":31200,"station_id":"ce4bgt92rcd13ifvqcg0","pricing_plan_id":"free"},{"bike_id":"fe786052-10bc-4bc0-946e-47f4cbb03a53","system_id":"levelo_inurba_marseille","lat":43.311125,"lon":5.377624,"is_reserved":false,"is_disabled":false,"rental_uris":{"android":"levelo://app?vid=fe786052-10bc-4bc0-946e-47f4cbb03a53","ios":"levelo://app?vid=fe786052-10bc-4bc0-946e-47f4cbb03a53"},"vehicle_type_id":"4","last_reported":1703109972,"current_range_meters":1600,"station_id":"ce4bgt92rcd13ifvqcg0","pricing_plan_id":"free"},{"bike_id":"656e6892-d1a0-475f-8594-d81f912904f0","system_id":"levelo_inurba_marseille","lat":43.311131,"lon":5.377651,"is_reserved":false,"is_disabled":false,"rental_uris":{"android":"levelo://app?vid=656e6892-d1a0-475f-8594-d81f912904f0","ios":"levelo://app?vid=656e6892-d1a0-475f-8594-d81f912904f0"},"vehicle_type_id":"4","last_reported":1703109972,"current_range_meters":1600,"station_id":"ce4bgt92rcd13ifvqcg0","pricing_plan_id":"free"},{"bike_id":"a1209e15-3224-42ac-a892-60ed6e96467f","system_id":"levelo_inurba_marseille","lat":43.307945,"lon":5.376487,"is_reserved":false,"is_disabled":false,"rental_uris":{"android":"levelo://app?vid=a1209e15-3224-42ac-a892-60ed6e96467f","ios":"levelo://app?vid=a1209e15-3224-42ac-a892-60ed6e96467f"},"vehicle_type_id":"4","last_reported":1703109972,"current_range_meters":22800,"station_id":"ce4bgv92rcd13ifvqcq0","pricing_plan_id":"free"},{"bike_id":"2b31283f-dc49-40eb-9032-b11b2c1daf8d","system_id":"levelo_inurba_marseille","lat":43.317075,"lon":5.377367,"is_reserved":false,"is_disabled":false,"rental_uris":{"android":"levelo://app?vid=2b31283f-dc49-40eb-9032-b11b2c1daf8d","ios":"levelo://app?vid=2b31283f-dc49-40eb-9032-b11b2c1daf8d"},"vehicle_type_id":"4","last_reported":1703109972,"current_range_meters":30000,"station_id":"ce4bgth2rcd13ifvqch0","pricing_plan_id":"free"},{"bike_id":"8f4e5ea1-e75f-4996-8466-be6ab66dca0f","system_id":"levelo_inurba_marseille","lat":43.301939,"lon":5.366286,"is_reserved":false,"is_disabled":false,"rental_uris":{"android":"levelo://app?vid=8f4e5ea1-e75f-4996-8466-be6ab66dca0f","ios":"levelo://app?vid=8f4e5ea1-e75f-4996-8466-be6ab66dca0f"},"vehicle_type_id":"4","last_reported":1703109972,"current_range_meters":12800,"station_id":"ce4bgrh2rcd13ifvqc8g","pricing_plan_id":"free"},{"bike_id":"e60e5e75-8dc9-4cb0-a614-80d368975ea9","system_id":"levelo_inurba_marseille","lat":43.308012,"lon":5.381511,"is_reserved":false,"is_disabled":false,"rental_uris":{"android":"levelo://app?vid=e60e5e75-8dc9-4cb0-a614-80d368975ea9","ios":"levelo://app?vid=e60e5e75-8dc9-4cb0-a614-80d368975ea9"},"vehicle_type_id":"4","last_reported":1703109972,"current_range_meters":25600,"station_id":"ce4bgt12rcd13ifvqce0","pricing_plan_id":"free"},{"bike_id":"7947b368-bd91-4cb4-a9ed-673f2234f13c","system_id":"levelo_inurba_marseille","lat":43.308012,"lon":5.381511,"is_reserved":false,"is_disabled":false,"rental_uris":{"android":"levelo://app?vid=7947b368-bd91-4cb4-a9ed-673f2234f13c","ios":"levelo://app?vid=7947b368-bd91-4cb4-a9ed-673f2234f13c"},"vehicle_type_id":"4","last_reported":1703109972,"current_range_meters":23600,"station_id":"ce4bgt12rcd13ifvqce0","pricing_plan_id":"free"},{"bike_id":"bc95e22e-1588-4b60-92bd-79994c7160f1","system_id":"levelo_inurba_marseille","lat":43.308012,"lon":5.381511,"is_reserved":false,"is_disabled":false,"rental_uris":{"android":"levelo://app?vid=bc95e22e-1588-4b60-92bd-79994c7160f1","ios":"levelo://app?vid=bc95e22e-1588-4b60-92bd-79994c7160f1"},"vehicle_type_id":"4","last_reported":1703109972,"current_range_meters":27600,"station_id":"ce4bgt12rcd13ifvqce0","pricing_plan_id":"free"},{"bike_id":"4c76aac1-9cf6-474c-914f-1e9aa240ee1b","system_id":"levelo_inurba_marseille","lat":43.304606,"lon":5.379026,"is_reserved":false,"is_disabled":false,"rental_uris":{"android":"levelo://app?vid=4c76aac1-9cf6-474c-914f-1e9aa240ee1b","ios":"levelo://app?vid=4c76aac1-9cf6-474c-914f-1e9aa240ee1b"},"vehicle_type_id":"4","last_reported":1703109972,"current_range_meters":15600,"station_id":"ce4bgup2rcd13ifvqcn0","pricing_plan_id":"free"},{"bike_id":"29f17ed4-386b-4726-b094-c40dc8b8d6d7","system_id":"levelo_inurba_marseille","lat":43.304606,"lon":5.379026,"is_reserved":false,"is_disabled":false,"rental_uris":{"android":"levelo://app?vid=29f17ed4-386b-4726-b094-c40dc8b8d6d7","ios":"levelo://app?vid=29f17ed4-386b-4726-b094-c40dc8b8d6d7"},"vehicle_type_id":"4","last_reported":1703109972,"current_range_meters":22800,"station_id":"ce4bgup2rcd13ifvqcn0","pricing_plan_id":"free"},{"bike_id":"953d5feb-48a7-427e-a3e1-b62f811507e8","system_id":"levelo_inurba_marseille","lat":43.319935,"lon":5.381699,"is_reserved":false,"is_disabled":false,"rental_uris":{"android":"levelo://app?vid=953d5feb-48a7-427e-a3e1-b62f811507e8","ios":"levelo://app?vid=953d5feb-48a7-427e-a3e1-b62f811507e8"},"vehicle_type_id":"4","last_reported":1703109972,"current_range_meters":4000,"station_id":"ce4bhr12rcd13ifvqhpg","pricing_plan_id":"free"},{"bike_id":"6bd330e5-be91-4c6a-bd12-6b4c0748505e","system_id":"levelo_inurba_marseille","lat":43.319983,"lon":5.381596,"is_reserved":false,"is_disabled":false,"rental_uris":{"android":"levelo://app?vid=6bd330e5-be91-4c6a-bd12-6b4c0748505e","ios":"levelo://app?vid=6bd330e5-be91-4c6a-bd12-6b4c0748505e"},"vehicle_type_id":"4","last_reported":1703109972,"current_range_meters":10800,"station_id":"ce4bhr12rcd13ifvqhpg","pricing_plan_id":"free"},{"bike_id":"a532531c-1386-4f72-8f85-ec0e658263e1","system_id":"levelo_inurba_marseille","lat":43.313571,"lon":5.384829,"is_reserved":false,"is_disabled":false,"rental_uris":{"android":"levelo://app?vid=a532531c-1386-4f72-8f85-ec0e658263e1","ios":"levelo://app?vid=a532531c-1386-4f72-8f85-ec0e658263e1"},"vehicle_type_id":"4","last_reported":1703109972,"current_range_meters":5200,"station_id":"ce4bgt92rcd13ifvqcf0","pricing_plan_id":"free"},{"bike_id":"ed91d5aa-99cc-4c7d-a060-e99494993703","system_id":"levelo_inurba_marseille","lat":43.313571,"lon":5.384829,"is_reserved":false,"is_disabled":false,"rental_uris":{"android":"levelo://app?vid=ed91d5aa-99cc-4c7d-a060-e99494993703","ios":"levelo://app?vid=ed91d5aa-99cc-4c7d-a060-e99494993703"},"vehicle_type_id":"4","last_reported":1703109972,"current_range_meters":26000,"station_id":"ce4bgt92rcd13ifvqcf0","pricing_plan_id":"free"},{"bike_id":"97ee561f-6180-4767-bffc-2d24db068c82","system_id":"levelo_inurba_marseille","lat":43.313571,"lon":5.384829,"is_reserved":false,"is_disabled":false,"rental_uris":{"android":"levelo://app?vid=97ee561f-6180-4767-bffc-2d24db068c82","ios":"levelo://app?vid=97ee561f-6180-4767-bffc-2d24db068c82"},"vehicle_type_id":"4","last_reported":1703109972,"current_range_meters":28000,"station_id":"ce4bgt92rcd13ifvqcf0","pricing_plan_id":"free"},{"bike_id":"257d7a13-be48-46e9-abf1-6513a04c2a98","system_id":"levelo_inurba_marseille","lat":43.313571,"lon":5.384829,"is_reserved":false,"is_disabled":false,"rental_uris":{"android":"levelo://app?vid=257d7a13-be48-46e9-abf1-6513a04c2a98","ios":"levelo://app?vid=257d7a13-be48-46e9-abf1-6513a04c2a98"},"vehicle_type_id":"4","last_reported":1703109972,"current_range_meters":25200,"station_id":"ce4bgt92rcd13ifvqcf0","pricing_plan_id":"free"},{"bike_id":"d07143b1-ddd7-4eb5-985c-faa1cb700ef8","system_id":"levelo_inurba_marseille","lat":43.299222,"lon":5.365554,"is_reserved":false,"is_disabled":false,"rental_uris":{"android":"levelo://app?vid=d07143b1-ddd7-4eb5-985c-faa1cb700ef8","ios":"levelo://app?vid=d07143b1-ddd7-4eb5-985c-faa1cb700ef8"},"vehicle_type_id":"4","last_reported":1703109972,"current_range_meters":7200,"station_id":"ce4bgm92rcd13ifvqbr0","pricing_plan_id":"free"},{"bike_id":"920920ed-326c-4283-9c17-10924d0c3e15","system_id":"levelo_inurba_marseille","lat":43.299222,"lon":5.365554,"is_reserved":false,"is_disabled":false,"rental_uris":{"android":"levelo://app?vid=920920ed-326c-4283-9c17-10924d0c3e15","ios":"levelo://app?vid=920920ed-326c-4283-9c17-10924d0c3e15"},"vehicle_type_id":"4","last_reported":1703109972,"current_range_meters":18800,"station_id":"ce4bgm92rcd13ifvqbr0","pricing_plan_id":"free"},{"bike_id":"f1f0042a-0e0a-4a69-b7ee-26da2b50d186","system_id":"levelo_inurba_marseille","lat":43.299724,"lon":5.371829,"is_reserved":false,"is_disabled":false,"rental_uris":{"android":"levelo://app?vid=f1f0042a-0e0a-4a69-b7ee-26da2b50d186","ios":"levelo://app?vid=f1f0042a-0e0a-4a69-b7ee-26da2b50d186"},"vehicle_type_id":"4","last_reported":1703109972,"current_range_meters":27600,"station_id":"ce4bgr92rcd13ifvqc7g","pricing_plan_id":"free"},{"bike_id":"59f78105-95b0-49b7-9ec6-adaeaf9784cb","system_id":"levelo_inurba_marseille","lat":43.311722,"lon":5.387247,"is_reserved":false,"is_disabled":false,"rental_uris":{"android":"levelo://app?vid=59f78105-95b0-49b7-9ec6-adaeaf9784cb","ios":"levelo://app?vid=59f78105-95b0-49b7-9ec6-adaeaf9784cb"},"vehicle_type_id":"4","last_reported":1703109972,"current_range_meters":24800,"station_id":"ce4bgv12rcd13ifvqcp0","pricing_plan_id":"free"},{"bike_id":"f75574c7-4b9f-4d54-bec2-4fe5197acad8","system_id":"levelo_inurba_marseille","lat":43.311722,"lon":5.387247,"is_reserved":false,"is_disabled":false,"rental_uris":{"android":"levelo://app?vid=f75574c7-4b9f-4d54-bec2-4fe5197acad8","ios":"levelo://app?vid=f75574c7-4b9f-4d54-bec2-4fe5197acad8"},"vehicle_type_id":"4","last_reported":1703109972,"current_range_meters":27200,"station_id":"ce4bgv12rcd13ifvqcp0","pricing_plan_id":"free"},{"bike_id":"1b77dd70-b491-4da0-8f7e-06bdc7d43dbf","system_id":"levelo_inurba_marseille","lat":43.311722,"lon":5.387247,"is_reserved":false,"is_disabled":false,"rental_uris":{"android":"levelo://app?vid=1b77dd70-b491-4da0-8f7e-06bdc7d43dbf","ios":"levelo://app?vid=1b77dd70-b491-4da0-8f7e-06bdc7d43dbf"},"vehicle_type_id":"4","last_reported":1703109972,"current_range_meters":31600,"station_id":"ce4bgv12rcd13ifvqcp0","pricing_plan_id":"free"},{"bike_id":"e3a096a9-0e6e-4a62-bd9d-9bba124181e0","system_id":"levelo_inurba_marseille","lat":43.311722,"lon":5.387247,"is_reserved":false,"is_disabled":false,"rental_uris":{"android":"levelo://app?vid=e3a096a9-0e6e-4a62-bd9d-9bba124181e0","ios":"levelo://app?vid=e3a096a9-0e6e-4a62-bd9d-9bba124181e0"},"vehicle_type_id":"4","last_reported":1703109972,"current_range_meters":16000,"station_id":"ce4bgv12rcd13ifvqcp0","pricing_plan_id":"free"},{"bike_id":"6e1a1d7a-48d9-46ce-beb8-d648a2cc5663","system_id":"levelo_inurba_marseille","lat":43.311722,"lon":5.387247,"is_reserved":false,"is_disabled":false,"rental_uris":{"android":"levelo://app?vid=6e1a1d7a-48d9-46ce-beb8-d648a2cc5663","ios":"levelo://app?vid=6e1a1d7a-48d9-46ce-beb8-d648a2cc5663"},"vehicle_type_id":"4","last_reported":1703109972,"current_range_meters":31600,"station_id":"ce4bgv12rcd13ifvqcp0","pricing_plan_id":"free"},{"bike_id":"4b2d9bb1-5fa8-4bdf-92e9-6c6338df3907","system_id":"levelo_inurba_marseille","lat":43.311722,"lon":5.387247,"is_reserved":false,"is_disabled":false,"rental_uris":{"android":"levelo://app?vid=4b2d9bb1-5fa8-4bdf-92e9-6c6338df3907","ios":"levelo://app?vid=4b2d9bb1-5fa8-4bdf-92e9-6c6338df3907"},"vehicle_type_id":"4","last_reported":1703109972,"current_range_meters":31200,"station_id":"ce4bgv12rcd13ifvqcp0","pricing_plan_id":"free"},{"bike_id":"76644617-8f77-4f52-b47c-c67ec66e22f9","system_id":"levelo_inurba_marseille","lat":43.311722,"lon":5.387247,"is_reserved":false,"is_disabled":false,"rental_uris":{"android":"levelo://app?vid=76644617-8f77-4f52-b47c-c67ec66e22f9","ios":"levelo://app?vid=76644617-8f77-4f52-b47c-c67ec66e22f9"},"vehicle_type_id":"4","last_reported":1703109972,"current_range_meters":31600,"station_id":"ce4bgv12rcd13ifvqcp0","pricing_plan_id":"free"},{"bike_id":"d55fa505-f348-4911-853a-3dc645b78632","system_id":"levelo_inurba_marseille","lat":43.311722,"lon":5.387247,"is_reserved":false,"is_disabled":false,"rental_uris":{"android":"levelo://app?vid=d55fa505-f348-4911-853a-3dc645b78632","ios":"levelo://app?vid=d55fa505-f348-4911-853a-3dc645b78632"},"vehicle_type_id":"4","last_reported":1703109972,"current_range_meters":14400,"station_id":"ce4bgv12rcd13ifvqcp0","pricing_plan_id":"free"},{"bike_id":"891bce01-0e20-4522-b6f8-f2b06de0dc15","system_id":"levelo_inurba_marseille","lat":43.297774,"lon":5.370875,"is_reserved":false,"is_disabled":false,"rental_uris":{"android":"levelo://app?vid=891bce01-0e20-4522-b6f8-f2b06de0dc15","ios":"levelo://app?vid=891bce01-0e20-4522-b6f8-f2b06de0dc15"},"vehicle_type_id":"4","last_reported":1703109972,"current_range_meters":18400,"station_id":"ce4bgop2rcd13ifvqc1g","pricing_plan_id":"free"},{"bike_id":"b209b91e-f95c-4c8a-b85c-6c83d55c8c8c","system_id":"levelo_inurba_marseille","lat":43.322872,"lon":5.382756,"is_reserved":false,"is_disabled":false,"rental_uris":{"android":"levelo://app?vid=b209b91e-f95c-4c8a-b85c-6c83d55c8c8c","ios":"levelo://app?vid=b209b91e-f95c-4c8a-b85c-6c83d55c8c8c"},"vehicle_type_id":"4","last_reported":1703109972,"current_range_meters":3600,"station_id":"ce4bhr12rcd13ifvqhqg","pricing_plan_id":"free"},{"bike_id":"9a5b93f6-fe4e-4e64-885c-ce7c8eacf33a","system_id":"levelo_inurba_marseille","lat":43.297794,"lon":5.370888,"is_reserved":false,"is_disabled":false,"rental_uris":{"android":"levelo://app?vid=9a5b93f6-fe4e-4e64-885c-ce7c8eacf33a","ios":"levelo://app?vid=9a5b93f6-fe4e-4e64-885c-ce7c8eacf33a"},"vehicle_type_id":"4","last_reported":1703109972,"current_range_meters":23200,"station_id":"ce4bgop2rcd13ifvqc1g","pricing_plan_id":"free"},{"bike_id":"b8d2d249-a3a6-4543-b1c7-6b3650de13c5","system_id":"levelo_inurba_marseille","lat":43.322872,"lon":5.382756,"is_reserved":false,"is_disabled":false,"rental_uris":{"android":"levelo://app?vid=b8d2d249-a3a6-4543-b1c7-6b3650de13c5","ios":"levelo://app?vid=b8d2d249-a3a6-4543-b1c7-6b3650de13c5"},"vehicle_type_id":"4","last_reported":1703109972,"current_range_meters":31200,"station_id":"ce4bhr12rcd13ifvqhqg","pricing_plan_id":"free"},{"bike_id":"bc81749c-97ac-487a-bc93-76443e598803","system_id":"levelo_inurba_marseille","lat":43.32827,"lon":5.36675,"is_reserved":false,"is_disabled":false,"rental_uris":{"android":"levelo://app?vid=bc81749c-97ac-487a-bc93-76443e598803","ios":"levelo://app?vid=bc81749c-97ac-487a-bc93-76443e598803"},"vehicle_type_id":"4","last_reported":1703109972,"current_range_meters":3600,"station_id":"ce4bhs92rcd13ifvqi0g","pricing_plan_id":"free"},{"bike_id":"cb97846c-9508-4ec4-82fd-1a637ef7dd90","system_id":"levelo_inurba_marseille","lat":43.328371,"lon":5.366909,"is_reserved":false,"is_disabled":false,"rental_uris":{"android":"levelo://app?vid=cb97846c-9508-4ec4-82fd-1a637ef7dd90","ios":"levelo://app?vid=cb97846c-9508-4ec4-82fd-1a637ef7dd90"},"vehicle_type_id":"4","last_reported":1703109972,"current_range_meters":0,"station_id":"ce4bhs92rcd13ifvqi0g","pricing_plan_id":"free"},{"bike_id":"c22e4b9f-ba20-4a7c-a7c8-fd0a73d903e0","system_id":"levelo_inurba_marseille","lat":43.328371,"lon":5.366909,"is_reserved":false,"is_disabled":false,"rental_uris":{"android":"levelo://app?vid=c22e4b9f-ba20-4a7c-a7c8-fd0a73d903e0","ios":"levelo://app?vid=c22e4b9f-ba20-4a7c-a7c8-fd0a73d903e0"},"vehicle_type_id":"4","last_reported":1703109972,"current_range_meters":21600,"station_id":"ce4bhs92rcd13ifvqi0g","pricing_plan_id":"free"},{"bike_id":"2a8a59a2-86cc-48a9-8714-ae0edcb4d489","system_id":"levelo_inurba_marseille","lat":43.328371,"lon":5.366909,"is_reserved":false,"is_disabled":false,"rental_uris":{"android":"levelo://app?vid=2a8a59a2-86cc-48a9-8714-ae0edcb4d489","ios":"levelo://app?vid=2a8a59a2-86cc-48a9-8714-ae0edcb4d489"},"vehicle_type_id":"4","last_reported":1703109972,"current_range_meters":800,"station_id":"ce4bhs92rcd13ifvqi0g","pricing_plan_id":"free"},{"bike_id":"59581a9c-f177-4a96-aea6-b7baaa49a6a3","system_id":"levelo_inurba_marseille","lat":43.32833,"lon":5.36679,"is_reserved":false,"is_disabled":false,"rental_uris":{"android":"levelo://app?vid=59581a9c-f177-4a96-aea6-b7baaa49a6a3","ios":"levelo://app?vid=59581a9c-f177-4a96-aea6-b7baaa49a6a3"},"vehicle_type_id":"4","last_reported":1703109972,"current_range_meters":28800,"station_id":"ce4bhs92rcd13ifvqi0g","pricing_plan_id":"free"},{"bike_id":"c12df297-168e-4ca3-95d9-a300ff1ffbd9","system_id":"levelo_inurba_marseille","lat":43.328371,"lon":5.366909,"is_reserved":false,"is_disabled":false,"rental_uris":{"android":"levelo://app?vid=c12df297-168e-4ca3-95d9-a300ff1ffbd9","ios":"levelo://app?vid=c12df297-168e-4ca3-95d9-a300ff1ffbd9"},"vehicle_type_id":"4","last_reported":1703109972,"current_range_meters":28400,"station_id":"ce4bhs92rcd13ifvqi0g","pricing_plan_id":"free"},{"bike_id":"eb8ebe7d-6983-4780-997c-9447c3c0c6e2","system_id":"levelo_inurba_marseille","lat":43.328371,"lon":5.366909,"is_reserved":false,"is_disabled":false,"rental_uris":{"android":"levelo://app?vid=eb8ebe7d-6983-4780-997c-9447c3c0c6e2","ios":"levelo://app?vid=eb8ebe7d-6983-4780-997c-9447c3c0c6e2"},"vehicle_type_id":"4","last_reported":1703109972,"current_range_meters":27200,"station_id":"ce4bhs92rcd13ifvqi0g","pricing_plan_id":"free"},{"bike_id":"b35e3d2f-60c3-40f6-8ad4-a245df294094","system_id":"levelo_inurba_marseille","lat":43.299028,"lon":5.381509,"is_reserved":false,"is_disabled":false,"rental_uris":{"android":"levelo://app?vid=b35e3d2f-60c3-40f6-8ad4-a245df294094","ios":"levelo://app?vid=b35e3d2f-60c3-40f6-8ad4-a245df294094"},"vehicle_type_id":"4","last_reported":1703109972,"current_range_meters":25200,"station_id":"ce4bgj12rcd13ifvqbc0","pricing_plan_id":"free"},{"bike_id":"99f15b44-fb7f-4ee2-bb7c-8147aae76094","system_id":"levelo_inurba_marseille","lat":43.309589,"lon":5.390258,"is_reserved":false,"is_disabled":false,"rental_uris":{"android":"levelo://app?vid=99f15b44-fb7f-4ee2-bb7c-8147aae76094","ios":"levelo://app?vid=99f15b44-fb7f-4ee2-bb7c-8147aae76094"},"vehicle_type_id":"4","last_reported":1703109972,"current_range_meters":22800,"station_id":"ce4bgup2rcd13ifvqco0","pricing_plan_id":"free"},{"bike_id":"cb7ed076-dd47-4eb3-8e54-84931d5fd772","system_id":"levelo_inurba_marseille","lat":43.309589,"lon":5.390258,"is_reserved":false,"is_disabled":false,"rental_uris":{"android":"levelo://app?vid=cb7ed076-dd47-4eb3-8e54-84931d5fd772","ios":"levelo://app?vid=cb7ed076-dd47-4eb3-8e54-84931d5fd772"},"vehicle_type_id":"4","last_reported":1703109972,"current_range_meters":20000,"station_id":"ce4bgup2rcd13ifvqco0","pricing_plan_id":"free"},{"bike_id":"0b302c3a-0edd-4d80-b6a2-0e41892114c5","system_id":"levelo_inurba_marseille","lat":43.317557,"lon":5.390173,"is_reserved":false,"is_disabled":false,"rental_uris":{"android":"levelo://app?vid=0b302c3a-0edd-4d80-b6a2-0e41892114c5","ios":"levelo://app?vid=0b302c3a-0edd-4d80-b6a2-0e41892114c5"},"vehicle_type_id":"4","last_reported":1703109972,"current_range_meters":8000,"station_id":"ce4bhqp2rcd13ifvqhng","pricing_plan_id":"free"},{"bike_id":"c4c1f64a-485a-4c35-b278-a49cef644f05","system_id":"levelo_inurba_marseille","lat":43.317557,"lon":5.390173,"is_reserved":false,"is_disabled":false,"rental_uris":{"android":"levelo://app?vid=c4c1f64a-485a-4c35-b278-a49cef644f05","ios":"levelo://app?vid=c4c1f64a-485a-4c35-b278-a49cef644f05"},"vehicle_type_id":"4","last_reported":1703109972,"current_range_meters":12000,"station_id":"ce4bhqp2rcd13ifvqhng","pricing_plan_id":"free"},{"bike_id":"a3b5723f-773e-4907-9274-da75f1e24c14","system_id":"levelo_inurba_marseille","lat":43.317557,"lon":5.390173,"is_reserved":false,"is_disabled":false,"rental_uris":{"android":"levelo://app?vid=a3b5723f-773e-4907-9274-da75f1e24c14","ios":"levelo://app?vid=a3b5723f-773e-4907-9274-da75f1e24c14"},"vehicle_type_id":"4","last_reported":1703109972,"current_range_meters":28800,"station_id":"ce4bhqp2rcd13ifvqhng","pricing_plan_id":"free"},{"bike_id":"48ad12d7-1b9b-4003-b7bf-bfa89a79b44f","system_id":"levelo_inurba_marseille","lat":43.304274,"lon":5.388873,"is_reserved":false,"is_disabled":false,"rental_uris":{"android":"levelo://app?vid=48ad12d7-1b9b-4003-b7bf-bfa89a79b44f","ios":"levelo://app?vid=48ad12d7-1b9b-4003-b7bf-bfa89a79b44f"},"vehicle_type_id":"4","last_reported":1703109972,"current_range_meters":30400,"station_id":"ce4bgk12rcd13ifvqbi0","pricing_plan_id":"free"},{"bike_id":"52aa0ac2-3fdc-4f1c-be5e-82766659618f","system_id":"levelo_inurba_marseille","lat":43.304274,"lon":5.388873,"is_reserved":false,"is_disabled":false,"rental_uris":{"android":"levelo://app?vid=52aa0ac2-3fdc-4f1c-be5e-82766659618f","ios":"levelo://app?vid=52aa0ac2-3fdc-4f1c-be5e-82766659618f"},"vehicle_type_id":"4","last_reported":1703109972,"current_range_meters":5600,"station_id":"ce4bgk12rcd13ifvqbi0","pricing_plan_id":"free"},{"bike_id":"b3e79014-3f1b-411b-b426-342b390628f7","system_id":"levelo_inurba_marseille","lat":43.298037,"lon":5.381066,"is_reserved":false,"is_disabled":false,"rental_uris":{"android":"levelo://app?vid=b3e79014-3f1b-411b-b426-342b390628f7","ios":"levelo://app?vid=b3e79014-3f1b-411b-b426-342b390628f7"},"vehicle_type_id":"4","last_reported":1703109972,"current_range_meters":1600,"station_id":"ce4bgip2rcd13ifvqbb0","pricing_plan_id":"free"},{"bike_id":"d89a6a0f-5ebb-492a-bb7f-450b4e71a42c","system_id":"levelo_inurba_marseille","lat":43.32367,"lon":5.388836,"is_reserved":false,"is_disabled":false,"rental_uris":{"android":"levelo://app?vid=d89a6a0f-5ebb-492a-bb7f-450b4e71a42c","ios":"levelo://app?vid=d89a6a0f-5ebb-492a-bb7f-450b4e71a42c"},"vehicle_type_id":"4","last_reported":1703109972,"current_range_meters":16000,"station_id":"ce4bhqp2rcd13ifvqhog","pricing_plan_id":"free"},{"bike_id":"39a5a7f1-613e-4ce9-85dc-bf406e7675c4","system_id":"levelo_inurba_marseille","lat":43.32367,"lon":5.388836,"is_reserved":false,"is_disabled":false,"rental_uris":{"android":"levelo://app?vid=39a5a7f1-613e-4ce9-85dc-bf406e7675c4","ios":"levelo://app?vid=39a5a7f1-613e-4ce9-85dc-bf406e7675c4"},"vehicle_type_id":"4","last_reported":1703109972,"current_range_meters":2400,"station_id":"ce4bhqp2rcd13ifvqhog","pricing_plan_id":"free"},{"bike_id":"04f86ffc-494a-4e29-b8f5-c810b596589a","system_id":"levelo_inurba_marseille","lat":43.32367,"lon":5.388836,"is_reserved":false,"is_disabled":false,"rental_uris":{"android":"levelo://app?vid=04f86ffc-494a-4e29-b8f5-c810b596589a","ios":"levelo://app?vid=04f86ffc-494a-4e29-b8f5-c810b596589a"},"vehicle_type_id":"4","last_reported":1703109972,"current_range_meters":5600,"station_id":"ce4bhqp2rcd13ifvqhog","pricing_plan_id":"free"},{"bike_id":"b39f23c8-49e5-47ab-a147-3e315183176b","system_id":"levelo_inurba_marseille","lat":43.2936,"lon":5.37835,"is_reserved":false,"is_disabled":false,"rental_uris":{"android":"levelo://app?vid=b39f23c8-49e5-47ab-a147-3e315183176b","ios":"levelo://app?vid=b39f23c8-49e5-47ab-a147-3e315183176b"},"vehicle_type_id":"4","last_reported":1703109972,"current_range_meters":6000,"station_id":"ce4bgjh2rcd13ifvqbf0","pricing_plan_id":"free"},{"bike_id":"3ef2251c-d2ef-4c40-8250-aa44230fd5c0","system_id":"levelo_inurba_marseille","lat":43.300852,"lon":5.390859,"is_reserved":false,"is_disabled":false,"rental_uris":{"android":"levelo://app?vid=3ef2251c-d2ef-4c40-8250-aa44230fd5c0","ios":"levelo://app?vid=3ef2251c-d2ef-4c40-8250-aa44230fd5c0"},"vehicle_type_id":"4","last_reported":1703109972,"current_range_meters":6000,"station_id":"ce4bh192rcd13ifvqdb0","pricing_plan_id":"free"},{"bike_id":"67dbc710-e248-4701-92da-b94e6f063a32","system_id":"levelo_inurba_marseille","lat":43.32297,"lon":5.39239,"is_reserved":false,"is_disabled":false,"rental_uris":{"android":"levelo://app?vid=67dbc710-e248-4701-92da-b94e6f063a32","ios":"levelo://app?vid=67dbc710-e248-4701-92da-b94e6f063a32"},"vehicle_type_id":"4","last_reported":1703109972,"current_range_meters":2800,"station_id":"","pricing_plan_id":"free"},{"bike_id":"d80aacb1-1de2-4c97-bfa7-d79fbffbe39f","system_id":"levelo_inurba_marseille","lat":43.29872,"lon":5.38896,"is_reserved":false,"is_disabled":false,"rental_uris":{"android":"levelo://app?vid=d80aacb1-1de2-4c97-bfa7-d79fbffbe39f","ios":"levelo://app?vid=d80aacb1-1de2-4c97-bfa7-d79fbffbe39f"},"vehicle_type_id":"4","last_reported":1703109972,"current_range_meters":16000,"station_id":"","pricing_plan_id":"free"},{"bike_id":"68edbb09-8f7b-4c25-bcd4-66d8b637b5a8","system_id":"levelo_inurba_marseille","lat":43.291671,"lon":5.371575,"is_reserved":false,"is_disabled":false,"rental_uris":{"android":"levelo://app?vid=68edbb09-8f7b-4c25-bcd4-66d8b637b5a8","ios":"levelo://app?vid=68edbb09-8f7b-4c25-bcd4-66d8b637b5a8"},"vehicle_type_id":"4","last_reported":1703109972,"current_range_meters":12400,"station_id":"ce4bha92rcd13ifvqeh0","pricing_plan_id":"free"},{"bike_id":"671f30a3-d202-4646-8d1a-7feb8b11dce5","system_id":"levelo_inurba_marseille","lat":43.29875,"lon":5.38915,"is_reserved":false,"is_disabled":false,"rental_uris":{"android":"levelo://app?vid=671f30a3-d202-4646-8d1a-7feb8b11dce5","ios":"levelo://app?vid=671f30a3-d202-4646-8d1a-7feb8b11dce5"},"vehicle_type_id":"4","last_reported":1703109972,"current_range_meters":0,"station_id":"","pricing_plan_id":"free"},{"bike_id":"f50504ce-8d03-4edb-a0c1-deb7dde87e50","system_id":"levelo_inurba_marseille","lat":43.29881,"lon":5.38925,"is_reserved":false,"is_disabled":false,"rental_uris":{"android":"levelo://app?vid=f50504ce-8d03-4edb-a0c1-deb7dde87e50","ios":"levelo://app?vid=f50504ce-8d03-4edb-a0c1-deb7dde87e50"},"vehicle_type_id":"4","last_reported":1703109972,"current_range_meters":14400,"station_id":"","pricing_plan_id":"free"},{"bike_id":"9ca6ec7b-7491-4a7c-9380-3ff2b9e6d4a6","system_id":"levelo_inurba_marseille","lat":43.291675,"lon":5.371583,"is_reserved":false,"is_disabled":false,"rental_uris":{"android":"levelo://app?vid=9ca6ec7b-7491-4a7c-9380-3ff2b9e6d4a6","ios":"levelo://app?vid=9ca6ec7b-7491-4a7c-9380-3ff2b9e6d4a6"},"vehicle_type_id":"4","last_reported":1703109972,"current_range_meters":22000,"station_id":"ce4bha92rcd13ifvqeh0","pricing_plan_id":"free"},{"bike_id":"e5eca80e-f16a-41ee-b5ac-f2f5e49f023b","system_id":"levelo_inurba_marseille","lat":43.29873,"lon":5.38922,"is_reserved":false,"is_disabled":false,"rental_uris":{"android":"levelo://app?vid=e5eca80e-f16a-41ee-b5ac-f2f5e49f023b","ios":"levelo://app?vid=e5eca80e-f16a-41ee-b5ac-f2f5e49f023b"},"vehicle_type_id":"4","last_reported":1703109972,"current_range_meters":17200,"station_id":"","pricing_plan_id":"free"},{"bike_id":"df478808-8bcb-44d9-b175-88738a5453c3","system_id":"levelo_inurba_marseille","lat":43.29866,"lon":5.38916,"is_reserved":false,"is_disabled":false,"rental_uris":{"android":"levelo://app?vid=df478808-8bcb-44d9-b175-88738a5453c3","ios":"levelo://app?vid=df478808-8bcb-44d9-b175-88738a5453c3"},"vehicle_type_id":"4","last_reported":1703109972,"current_range_meters":0,"station_id":"","pricing_plan_id":"free"},{"bike_id":"02bb9aa9-e478-493b-adb1-05be03c7a42e","system_id":"levelo_inurba_marseille","lat":43.313291,"lon":5.396838,"is_reserved":false,"is_disabled":false,"rental_uris":{"android":"levelo://app?vid=02bb9aa9-e478-493b-adb1-05be03c7a42e","ios":"levelo://app?vid=02bb9aa9-e478-493b-adb1-05be03c7a42e"},"vehicle_type_id":"4","last_reported":1703109972,"current_range_meters":8000,"station_id":"ce4bgvp2rcd13ifvqcu0","pricing_plan_id":"free"},{"bike_id":"93ef3bba-e74b-4954-965d-bb27c87b80df","system_id":"levelo_inurba_marseille","lat":43.30888,"lon":5.39644,"is_reserved":false,"is_disabled":false,"rental_uris":{"android":"levelo://app?vid=93ef3bba-e74b-4954-965d-bb27c87b80df","ios":"levelo://app?vid=93ef3bba-e74b-4954-965d-bb27c87b80df"},"vehicle_type_id":"4","last_reported":1703109972,"current_range_meters":30400,"station_id":"ce4bh012rcd13ifvqcv0","pricing_plan_id":"free"},{"bike_id":"2f9fa2a4-a0da-4386-a54c-2b6c8ff80cf3","system_id":"levelo_inurba_marseille","lat":43.313291,"lon":5.396838,"is_reserved":false,"is_disabled":false,"rental_uris":{"android":"levelo://app?vid=2f9fa2a4-a0da-4386-a54c-2b6c8ff80cf3","ios":"levelo://app?vid=2f9fa2a4-a0da-4386-a54c-2b6c8ff80cf3"},"vehicle_type_id":"4","last_reported":1703109972,"current_range_meters":8400,"station_id":"ce4bgvp2rcd13ifvqcu0","pricing_plan_id":"free"},{"bike_id":"0793d523-0527-455c-b490-7d7b86f76fdf","system_id":"levelo_inurba_marseille","lat":43.313291,"lon":5.396838,"is_reserved":false,"is_disabled":false,"rental_uris":{"android":"levelo://app?vid=0793d523-0527-455c-b490-7d7b86f76fdf","ios":"levelo://app?vid=0793d523-0527-455c-b490-7d7b86f76fdf"},"vehicle_type_id":"4","last_reported":1703109972,"current_range_meters":15200,"station_id":"ce4bgvp2rcd13ifvqcu0","pricing_plan_id":"free"},{"bike_id":"76388e6f-75f8-4ffd-8a50-785c2b9ec8d3","system_id":"levelo_inurba_marseille","lat":43.309047,"lon":5.396551,"is_reserved":false,"is_disabled":false,"rental_uris":{"android":"levelo://app?vid=76388e6f-75f8-4ffd-8a50-785c2b9ec8d3","ios":"levelo://app?vid=76388e6f-75f8-4ffd-8a50-785c2b9ec8d3"},"vehicle_type_id":"4","last_reported":1703109972,"current_range_meters":21600,"station_id":"ce4bh012rcd13ifvqcv0","pricing_plan_id":"free"},{"bike_id":"f2dcb67a-1877-4e6c-aa41-296e995ddd0f","system_id":"levelo_inurba_marseille","lat":43.313291,"lon":5.396838,"is_reserved":false,"is_disabled":false,"rental_uris":{"android":"levelo://app?vid=f2dcb67a-1877-4e6c-aa41-296e995ddd0f","ios":"levelo://app?vid=f2dcb67a-1877-4e6c-aa41-296e995ddd0f"},"vehicle_type_id":"4","last_reported":1703109972,"current_range_meters":4800,"station_id":"ce4bgvp2rcd13ifvqcu0","pricing_plan_id":"free"},{"bike_id":"2b7d92fb-a275-4c79-b06d-20ae4470ba42","system_id":"levelo_inurba_marseille","lat":43.313291,"lon":5.396838,"is_reserved":false,"is_disabled":false,"rental_uris":{"android":"levelo://app?vid=2b7d92fb-a275-4c79-b06d-20ae4470ba42","ios":"levelo://app?vid=2b7d92fb-a275-4c79-b06d-20ae4470ba42"},"vehicle_type_id":"4","last_reported":1703109972,"current_range_meters":31600,"station_id":"ce4bgvp2rcd13ifvqcu0","pricing_plan_id":"free"},{"bike_id":"5a534caa-4f7f-44d4-8e13-15c91f85da2b","system_id":"levelo_inurba_marseille","lat":43.3089,"lon":5.39651,"is_reserved":false,"is_disabled":false,"rental_uris":{"android":"levelo://app?vid=5a534caa-4f7f-44d4-8e13-15c91f85da2b","ios":"levelo://app?vid=5a534caa-4f7f-44d4-8e13-15c91f85da2b"},"vehicle_type_id":"4","last_reported":1703109972,"current_range_meters":11600,"station_id":"ce4bh012rcd13ifvqcv0","pricing_plan_id":"free"},{"bike_id":"dbe34c3d-36ef-49cb-b11f-cf7f97e7053f","system_id":"levelo_inurba_marseille","lat":43.313291,"lon":5.396838,"is_reserved":false,"is_disabled":false,"rental_uris":{"android":"levelo://app?vid=dbe34c3d-36ef-49cb-b11f-cf7f97e7053f","ios":"levelo://app?vid=dbe34c3d-36ef-49cb-b11f-cf7f97e7053f"},"vehicle_type_id":"4","last_reported":1703109972,"current_range_meters":31200,"station_id":"ce4bgvp2rcd13ifvqcu0","pricing_plan_id":"free"},{"bike_id":"30ff75dd-2b7b-43ad-b90f-c604db6aa4a1","system_id":"levelo_inurba_marseille","lat":43.309047,"lon":5.396551,"is_reserved":false,"is_disabled":false,"rental_uris":{"android":"levelo://app?vid=30ff75dd-2b7b-43ad-b90f-c604db6aa4a1","ios":"levelo://app?vid=30ff75dd-2b7b-43ad-b90f-c604db6aa4a1"},"vehicle_type_id":"4","last_reported":1703109972,"current_range_meters":29200,"station_id":"ce4bh012rcd13ifvqcv0","pricing_plan_id":"free"},{"bike_id":"c9ffd03a-206e-4241-be83-2d30e7b89ed3","system_id":"levelo_inurba_marseille","lat":43.313291,"lon":5.396838,"is_reserved":false,"is_disabled":false,"rental_uris":{"android":"levelo://app?vid=c9ffd03a-206e-4241-be83-2d30e7b89ed3","ios":"levelo://app?vid=c9ffd03a-206e-4241-be83-2d30e7b89ed3"},"vehicle_type_id":"4","last_reported":1703109972,"current_range_meters":19200,"station_id":"ce4bgvp2rcd13ifvqcu0","pricing_plan_id":"free"},{"bike_id":"ad293b0a-1786-4d2f-a84f-5d3c96e0c51b","system_id":"levelo_inurba_marseille","lat":43.309038,"lon":5.396546,"is_reserved":false,"is_disabled":false,"rental_uris":{"android":"levelo://app?vid=ad293b0a-1786-4d2f-a84f-5d3c96e0c51b","ios":"levelo://app?vid=ad293b0a-1786-4d2f-a84f-5d3c96e0c51b"},"vehicle_type_id":"4","last_reported":1703109972,"current_range_meters":10400,"station_id":"ce4bh012rcd13ifvqcv0","pricing_plan_id":"free"},{"bike_id":"d14f2dbb-08ba-4540-8476-e184e249f2cd","system_id":"levelo_inurba_marseille","lat":43.309047,"lon":5.396551,"is_reserved":false,"is_disabled":false,"rental_uris":{"android":"levelo://app?vid=d14f2dbb-08ba-4540-8476-e184e249f2cd","ios":"levelo://app?vid=d14f2dbb-08ba-4540-8476-e184e249f2cd"},"vehicle_type_id":"4","last_reported":1703109972,"current_range_meters":13200,"station_id":"ce4bh012rcd13ifvqcv0","pricing_plan_id":"free"},{"bike_id":"cd2f8020-b9fa-4a8b-8bed-666409960f90","system_id":"levelo_inurba_marseille","lat":43.309047,"lon":5.396551,"is_reserved":false,"is_disabled":false,"rental_uris":{"android":"levelo://app?vid=cd2f8020-b9fa-4a8b-8bed-666409960f90","ios":"levelo://app?vid=cd2f8020-b9fa-4a8b-8bed-666409960f90"},"vehicle_type_id":"4","last_reported":1703109972,"current_range_meters":5200,"station_id":"ce4bh012rcd13ifvqcv0","pricing_plan_id":"free"},{"bike_id":"ddc64240-3438-4df3-b47e-8e744cbcd6aa","system_id":"levelo_inurba_marseille","lat":43.30881,"lon":5.39664,"is_reserved":false,"is_disabled":false,"rental_uris":{"android":"levelo://app?vid=ddc64240-3438-4df3-b47e-8e744cbcd6aa","ios":"levelo://app?vid=ddc64240-3438-4df3-b47e-8e744cbcd6aa"},"vehicle_type_id":"4","last_reported":1703109972,"current_range_meters":7200,"station_id":"ce4bh012rcd13ifvqcv0","pricing_plan_id":"free"},{"bike_id":"76310b5f-52b0-490a-80b0-c73c49df3e78","system_id":"levelo_inurba_marseille","lat":43.29529,"lon":5.385581,"is_reserved":false,"is_disabled":false,"rental_uris":{"android":"levelo://app?vid=76310b5f-52b0-490a-80b0-c73c49df3e78","ios":"levelo://app?vid=76310b5f-52b0-490a-80b0-c73c49df3e78"},"vehicle_type_id":"4","last_reported":1703109972,"current_range_meters":13600,"station_id":"ce4bgih2rcd13ifvqba0","pricing_plan_id":"free"},{"bike_id":"9fb1da4a-ce2d-4cc4-b923-ee5579c96a4c","system_id":"levelo_inurba_marseille","lat":43.290779,"lon":5.371482,"is_reserved":false,"is_disabled":false,"rental_uris":{"android":"levelo://app?vid=9fb1da4a-ce2d-4cc4-b923-ee5579c96a4c","ios":"levelo://app?vid=9fb1da4a-ce2d-4cc4-b923-ee5579c96a4c"},"vehicle_type_id":"4","last_reported":1703109972,"current_range_meters":0,"station_id":"ce4bh5p2rcd13ifvqe4g","pricing_plan_id":"free"},{"bike_id":"3e99ba6d-9973-45e8-ae21-3d6da85c75b7","system_id":"levelo_inurba_marseille","lat":43.302008,"lon":5.394694,"is_reserved":false,"is_disabled":false,"rental_uris":{"android":"levelo://app?vid=3e99ba6d-9973-45e8-ae21-3d6da85c75b7","ios":"levelo://app?vid=3e99ba6d-9973-45e8-ae21-3d6da85c75b7"},"vehicle_type_id":"4","last_reported":1703109972,"current_range_meters":30400,"station_id":"ce4bh0p2rcd13ifvqd70","pricing_plan_id":"free"},{"bike_id":"dab56bcb-6f32-4c79-8b22-759e0003426d","system_id":"levelo_inurba_marseille","lat":43.302008,"lon":5.394694,"is_reserved":false,"is_disabled":false,"rental_uris":{"android":"levelo://app?vid=dab56bcb-6f32-4c79-8b22-759e0003426d","ios":"levelo://app?vid=dab56bcb-6f32-4c79-8b22-759e0003426d"},"vehicle_type_id":"4","last_reported":1703109972,"current_range_meters":0,"station_id":"ce4bh0p2rcd13ifvqd70","pricing_plan_id":"free"},{"bike_id":"3dc161c8-6b83-483a-a981-3f5a90a49d83","system_id":"levelo_inurba_marseille","lat":43.290624,"lon":5.359245,"is_reserved":false,"is_disabled":false,"rental_uris":{"android":"levelo://app?vid=3dc161c8-6b83-483a-a981-3f5a90a49d83","ios":"levelo://app?vid=3dc161c8-6b83-483a-a981-3f5a90a49d83"},"vehicle_type_id":"4","last_reported":1703109972,"current_range_meters":28000,"station_id":"ce4bha92rcd13ifvqeg0","pricing_plan_id":"free"},{"bike_id":"3aeb91f9-2751-4389-8c63-94e0a8bbe42a","system_id":"levelo_inurba_marseille","lat":43.290631,"lon":5.359244,"is_reserved":false,"is_disabled":false,"rental_uris":{"android":"levelo://app?vid=3aeb91f9-2751-4389-8c63-94e0a8bbe42a","ios":"levelo://app?vid=3aeb91f9-2751-4389-8c63-94e0a8bbe42a"},"vehicle_type_id":"4","last_reported":1703109972,"current_range_meters":17200,"station_id":"ce4bha92rcd13ifvqeg0","pricing_plan_id":"free"},{"bike_id":"680b451e-896b-45cf-a594-de195bae5ee8","system_id":"levelo_inurba_marseille","lat":43.28942,"lon":5.36634,"is_reserved":false,"is_disabled":false,"rental_uris":{"android":"levelo://app?vid=680b451e-896b-45cf-a594-de195bae5ee8","ios":"levelo://app?vid=680b451e-896b-45cf-a594-de195bae5ee8"},"vehicle_type_id":"4","last_reported":1703109972,"current_range_meters":1200,"station_id":"ce4bhap2rcd13ifvqek0","pricing_plan_id":"free"},{"bike_id":"09dba9f2-9969-46b5-b085-b4aef8571e8f","system_id":"levelo_inurba_marseille","lat":43.289184,"lon":5.366408,"is_reserved":false,"is_disabled":false,"rental_uris":{"android":"levelo://app?vid=09dba9f2-9969-46b5-b085-b4aef8571e8f","ios":"levelo://app?vid=09dba9f2-9969-46b5-b085-b4aef8571e8f"},"vehicle_type_id":"4","last_reported":1703109972,"current_range_meters":25200,"station_id":"ce4bhap2rcd13ifvqek0","pricing_plan_id":"free"},{"bike_id":"70321904-6476-4994-982f-cfdc2a0d182a","system_id":"levelo_inurba_marseille","lat":43.289352,"lon":5.366382,"is_reserved":false,"is_disabled":false,"rental_uris":{"android":"levelo://app?vid=70321904-6476-4994-982f-cfdc2a0d182a","ios":"levelo://app?vid=70321904-6476-4994-982f-cfdc2a0d182a"},"vehicle_type_id":"4","last_reported":1703109972,"current_range_meters":23200,"station_id":"ce4bhap2rcd13ifvqek0","pricing_plan_id":"free"},{"bike_id":"fa279741-4769-495d-a769-9fa14238d4b5","system_id":"levelo_inurba_marseille","lat":43.28932,"lon":5.36632,"is_reserved":false,"is_disabled":false,"rental_uris":{"android":"levelo://app?vid=fa279741-4769-495d-a769-9fa14238d4b5","ios":"levelo://app?vid=fa279741-4769-495d-a769-9fa14238d4b5"},"vehicle_type_id":"4","last_reported":1703109972,"current_range_meters":13200,"station_id":"ce4bhap2rcd13ifvqek0","pricing_plan_id":"free"},{"bike_id":"ff70859f-32fa-478e-b2c4-55517ec6c093","system_id":"levelo_inurba_marseille","lat":43.289468,"lon":5.363719,"is_reserved":false,"is_disabled":false,"rental_uris":{"android":"levelo://app?vid=ff70859f-32fa-478e-b2c4-55517ec6c093","ios":"levelo://app?vid=ff70859f-32fa-478e-b2c4-55517ec6c093"},"vehicle_type_id":"4","last_reported":1703109972,"current_range_meters":28800,"station_id":"ce4bhc92rcd13ifvqetg","pricing_plan_id":"free"},{"bike_id":"130934e3-aaab-4f12-a3ab-85a210b9a2fa","system_id":"levelo_inurba_marseille","lat":43.304296,"lon":5.397513,"is_reserved":false,"is_disabled":false,"rental_uris":{"android":"levelo://app?vid=130934e3-aaab-4f12-a3ab-85a210b9a2fa","ios":"levelo://app?vid=130934e3-aaab-4f12-a3ab-85a210b9a2fa"},"vehicle_type_id":"4","last_reported":1703109972,"current_range_meters":22800,"station_id":"ce4bh092rcd13ifvqd20","pricing_plan_id":"free"},{"bike_id":"8f40a1a3-d2fb-4605-a248-e24bf8a318e2","system_id":"levelo_inurba_marseille","lat":43.304296,"lon":5.397513,"is_reserved":false,"is_disabled":false,"rental_uris":{"android":"levelo://app?vid=8f40a1a3-d2fb-4605-a248-e24bf8a318e2","ios":"levelo://app?vid=8f40a1a3-d2fb-4605-a248-e24bf8a318e2"},"vehicle_type_id":"4","last_reported":1703109972,"current_range_meters":28800,"station_id":"ce4bh092rcd13ifvqd20","pricing_plan_id":"free"},{"bike_id":"34c65641-4bc1-4197-b217-a76243cd6c9c","system_id":"levelo_inurba_marseille","lat":43.33041,"lon":5.38921,"is_reserved":false,"is_disabled":false,"rental_uris":{"android":"levelo://app?vid=34c65641-4bc1-4197-b217-a76243cd6c9c","ios":"levelo://app?vid=34c65641-4bc1-4197-b217-a76243cd6c9c"},"vehicle_type_id":"4","last_reported":1703109972,"current_range_meters":22800,"station_id":"ce4bhr92rcd13ifvqhrg","pricing_plan_id":"free"},{"bike_id":"03792874-86d9-468e-be10-3c6851108053","system_id":"levelo_inurba_marseille","lat":43.33041,"lon":5.38924,"is_reserved":false,"is_disabled":false,"rental_uris":{"android":"levelo://app?vid=03792874-86d9-468e-be10-3c6851108053","ios":"levelo://app?vid=03792874-86d9-468e-be10-3c6851108053"},"vehicle_type_id":"4","last_reported":1703109972,"current_range_meters":16800,"station_id":"ce4bhr92rcd13ifvqhrg","pricing_plan_id":"free"},{"bike_id":"a44c4c9a-083e-42e6-8e6d-8958a860af21","system_id":"levelo_inurba_marseille","lat":43.33042,"lon":5.38925,"is_reserved":false,"is_disabled":false,"rental_uris":{"android":"levelo://app?vid=a44c4c9a-083e-42e6-8e6d-8958a860af21","ios":"levelo://app?vid=a44c4c9a-083e-42e6-8e6d-8958a860af21"},"vehicle_type_id":"4","last_reported":1703109972,"current_range_meters":18400,"station_id":"ce4bhr92rcd13ifvqhrg","pricing_plan_id":"free"},{"bike_id":"51c9cb55-b1ab-4caa-b6c3-cf2afe06ea07","system_id":"levelo_inurba_marseille","lat":43.290104,"lon":5.356111,"is_reserved":false,"is_disabled":false,"rental_uris":{"android":"levelo://app?vid=51c9cb55-b1ab-4caa-b6c3-cf2afe06ea07","ios":"levelo://app?vid=51c9cb55-b1ab-4caa-b6c3-cf2afe06ea07"},"vehicle_type_id":"4","last_reported":1703109972,"current_range_meters":30400,"station_id":"ce4bhb92rcd13ifvqen0","pricing_plan_id":"free"},{"bike_id":"90536312-f14b-4c7d-9b1a-bee06a58535e","system_id":"levelo_inurba_marseille","lat":43.290103,"lon":5.356114,"is_reserved":false,"is_disabled":false,"rental_uris":{"android":"levelo://app?vid=90536312-f14b-4c7d-9b1a-bee06a58535e","ios":"levelo://app?vid=90536312-f14b-4c7d-9b1a-bee06a58535e"},"vehicle_type_id":"4","last_reported":1703109972,"current_range_meters":31200,"station_id":"ce4bhb92rcd13ifvqen0","pricing_plan_id":"free"},{"bike_id":"239864d1-dc86-48aa-805c-795856fcca74","system_id":"levelo_inurba_marseille","lat":43.297815,"lon":5.393548,"is_reserved":false,"is_disabled":false,"rental_uris":{"android":"levelo://app?vid=239864d1-dc86-48aa-805c-795856fcca74","ios":"levelo://app?vid=239864d1-dc86-48aa-805c-795856fcca74"},"vehicle_type_id":"4","last_reported":1703109972,"current_range_meters":30400,"station_id":"chh1huq6cuj3fo74tm60","pricing_plan_id":"free"},{"bike_id":"e2dba495-8bf5-4a1a-9386-ec00aed74abb","system_id":"levelo_inurba_marseille","lat":43.28856,"lon":5.358371,"is_reserved":false,"is_disabled":false,"rental_uris":{"android":"levelo://app?vid=e2dba495-8bf5-4a1a-9386-ec00aed74abb","ios":"levelo://app?vid=e2dba495-8bf5-4a1a-9386-ec00aed74abb"},"vehicle_type_id":"4","last_reported":1703109972,"current_range_meters":4000,"station_id":"ce4bhb12rcd13ifvqem0","pricing_plan_id":"free"},{"bike_id":"85a87a12-1154-4629-bb3c-1f7d589e7667","system_id":"levelo_inurba_marseille","lat":43.28856,"lon":5.358371,"is_reserved":false,"is_disabled":false,"rental_uris":{"android":"levelo://app?vid=85a87a12-1154-4629-bb3c-1f7d589e7667","ios":"levelo://app?vid=85a87a12-1154-4629-bb3c-1f7d589e7667"},"vehicle_type_id":"4","last_reported":1703109972,"current_range_meters":0,"station_id":"ce4bhb12rcd13ifvqem0","pricing_plan_id":"free"},{"bike_id":"22368dc9-8aba-46d7-8e95-31c17019d674","system_id":"levelo_inurba_marseille","lat":43.288525,"lon":5.358432,"is_reserved":false,"is_disabled":false,"rental_uris":{"android":"levelo://app?vid=22368dc9-8aba-46d7-8e95-31c17019d674","ios":"levelo://app?vid=22368dc9-8aba-46d7-8e95-31c17019d674"},"vehicle_type_id":"4","last_reported":1703109972,"current_range_meters":0,"station_id":"ce4bhb12rcd13ifvqem0","pricing_plan_id":"free"},{"bike_id":"73e010c9-7b74-4f65-ae62-57318c15cb5e","system_id":"levelo_inurba_marseille","lat":43.312609,"lon":5.401662,"is_reserved":false,"is_disabled":false,"rental_uris":{"android":"levelo://app?vid=73e010c9-7b74-4f65-ae62-57318c15cb5e","ios":"levelo://app?vid=73e010c9-7b74-4f65-ae62-57318c15cb5e"},"vehicle_type_id":"4","last_reported":1703109972,"current_range_meters":6000,"station_id":"ce4bh092rcd13ifvqd30","pricing_plan_id":"free"},{"bike_id":"efc8b483-666b-48da-afa0-0447382868fd","system_id":"levelo_inurba_marseille","lat":43.337448,"lon":5.374743,"is_reserved":false,"is_disabled":false,"rental_uris":{"android":"levelo://app?vid=efc8b483-666b-48da-afa0-0447382868fd","ios":"levelo://app?vid=efc8b483-666b-48da-afa0-0447382868fd"},"vehicle_type_id":"4","last_reported":1703109972,"current_range_meters":25600,"station_id":"","pricing_plan_id":"free"},{"bike_id":"4438098e-6fb5-4da1-8e4b-c52cae2b1016","system_id":"levelo_inurba_marseille","lat":43.30923,"lon":5.40145,"is_reserved":false,"is_disabled":false,"rental_uris":{"android":"levelo://app?vid=4438098e-6fb5-4da1-8e4b-c52cae2b1016","ios":"levelo://app?vid=4438098e-6fb5-4da1-8e4b-c52cae2b1016"},"vehicle_type_id":"4","last_reported":1703109972,"current_range_meters":0,"station_id":"ce4bgvp2rcd13ifvqct0","pricing_plan_id":"free"},{"bike_id":"2ffc7dc1-eb3c-4f1e-85a6-b805479eac01","system_id":"levelo_inurba_marseille","lat":43.306412,"lon":5.401035,"is_reserved":false,"is_disabled":false,"rental_uris":{"android":"levelo://app?vid=2ffc7dc1-eb3c-4f1e-85a6-b805479eac01","ios":"levelo://app?vid=2ffc7dc1-eb3c-4f1e-85a6-b805479eac01"},"vehicle_type_id":"4","last_reported":1703109972,"current_range_meters":12800,"station_id":"ce4bh112rcd13ifvqda0","pricing_plan_id":"free"},{"bike_id":"19bf8a95-600e-48af-84df-a92305436a74","system_id":"levelo_inurba_marseille","lat":43.309371,"lon":5.401449,"is_reserved":false,"is_disabled":false,"rental_uris":{"android":"levelo://app?vid=19bf8a95-600e-48af-84df-a92305436a74","ios":"levelo://app?vid=19bf8a95-600e-48af-84df-a92305436a74"},"vehicle_type_id":"4","last_reported":1703109972,"current_range_meters":15600,"station_id":"ce4bgvp2rcd13ifvqct0","pricing_plan_id":"free"},{"bike_id":"25685e7f-8ace-4149-b7a9-784c6f7799ed","system_id":"levelo_inurba_marseille","lat":43.30642,"lon":5.401031,"is_reserved":false,"is_disabled":false,"rental_uris":{"android":"levelo://app?vid=25685e7f-8ace-4149-b7a9-784c6f7799ed","ios":"levelo://app?vid=25685e7f-8ace-4149-b7a9-784c6f7799ed"},"vehicle_type_id":"4","last_reported":1703109972,"current_range_meters":24000,"station_id":"ce4bh112rcd13ifvqda0","pricing_plan_id":"free"},{"bike_id":"59987085-6fb4-48d3-aa4f-2e8deb09b8c7","system_id":"levelo_inurba_marseille","lat":43.30642,"lon":5.401031,"is_reserved":false,"is_disabled":false,"rental_uris":{"android":"levelo://app?vid=59987085-6fb4-48d3-aa4f-2e8deb09b8c7","ios":"levelo://app?vid=59987085-6fb4-48d3-aa4f-2e8deb09b8c7"},"vehicle_type_id":"4","last_reported":1703109972,"current_range_meters":14000,"station_id":"ce4bh112rcd13ifvqda0","pricing_plan_id":"free"},{"bike_id":"7c96e51d-6837-46f5-ae17-51764ecc37b1","system_id":"levelo_inurba_marseille","lat":43.301117,"lon":5.398795,"is_reserved":false,"is_disabled":false,"rental_uris":{"android":"levelo://app?vid=7c96e51d-6837-46f5-ae17-51764ecc37b1","ios":"levelo://app?vid=7c96e51d-6837-46f5-ae17-51764ecc37b1"},"vehicle_type_id":"4","last_reported":1703109972,"current_range_meters":16000,"station_id":"ce4bh0h2rcd13ifvqd40","pricing_plan_id":"free"},{"bike_id":"49cd9255-05a6-472c-b1a4-a0d4ff1e81c9","system_id":"levelo_inurba_marseille","lat":43.28727,"lon":5.36078,"is_reserved":false,"is_disabled":false,"rental_uris":{"android":"levelo://app?vid=49cd9255-05a6-472c-b1a4-a0d4ff1e81c9","ios":"levelo://app?vid=49cd9255-05a6-472c-b1a4-a0d4ff1e81c9"},"vehicle_type_id":"4","last_reported":1703109972,"current_range_meters":10800,"station_id":"cki0cbj6b192h4jlfktg","pricing_plan_id":"free"},{"bike_id":"687acaf7-b84c-4c80-ac64-88b01684f341","system_id":"levelo_inurba_marseille","lat":43.28727,"lon":5.36078,"is_reserved":false,"is_disabled":false,"rental_uris":{"android":"levelo://app?vid=687acaf7-b84c-4c80-ac64-88b01684f341","ios":"levelo://app?vid=687acaf7-b84c-4c80-ac64-88b01684f341"},"vehicle_type_id":"4","last_reported":1703109972,"current_range_meters":25600,"station_id":"cki0cbj6b192h4jlfktg","pricing_plan_id":"free"},{"bike_id":"b44d00f5-284f-45ea-8d94-d8f22c00560e","system_id":"levelo_inurba_marseille","lat":43.28727,"lon":5.36078,"is_reserved":false,"is_disabled":false,"rental_uris":{"android":"levelo://app?vid=b44d00f5-284f-45ea-8d94-d8f22c00560e","ios":"levelo://app?vid=b44d00f5-284f-45ea-8d94-d8f22c00560e"},"vehicle_type_id":"4","last_reported":1703109972,"current_range_meters":30000,"station_id":"cki0cbj6b192h4jlfktg","pricing_plan_id":"free"},{"bike_id":"478682f9-5374-45db-a636-a72b07022bbc","system_id":"levelo_inurba_marseille","lat":43.28727,"lon":5.36078,"is_reserved":false,"is_disabled":false,"rental_uris":{"android":"levelo://app?vid=478682f9-5374-45db-a636-a72b07022bbc","ios":"levelo://app?vid=478682f9-5374-45db-a636-a72b07022bbc"},"vehicle_type_id":"4","last_reported":1703109972,"current_range_meters":28400,"station_id":"cki0cbj6b192h4jlfktg","pricing_plan_id":"free"},{"bike_id":"a809d7bb-9bc6-4f6b-9d33-03fe0bf36565","system_id":"levelo_inurba_marseille","lat":43.301117,"lon":5.398795,"is_reserved":false,"is_disabled":false,"rental_uris":{"android":"levelo://app?vid=a809d7bb-9bc6-4f6b-9d33-03fe0bf36565","ios":"levelo://app?vid=a809d7bb-9bc6-4f6b-9d33-03fe0bf36565"},"vehicle_type_id":"4","last_reported":1703109972,"current_range_meters":0,"station_id":"ce4bh0h2rcd13ifvqd40","pricing_plan_id":"free"},{"bike_id":"71535928-72ce-4d5e-a63b-ff479592c2c6","system_id":"levelo_inurba_marseille","lat":43.286961,"lon":5.373785,"is_reserved":false,"is_disabled":false,"rental_uris":{"android":"levelo://app?vid=71535928-72ce-4d5e-a63b-ff479592c2c6","ios":"levelo://app?vid=71535928-72ce-4d5e-a63b-ff479592c2c6"},"vehicle_type_id":"4","last_reported":1703109972,"current_range_meters":2800,"station_id":"ce4bh3p2rcd13ifvqdq0","pricing_plan_id":"free"},{"bike_id":"3c3e13e8-96d1-45f8-aef8-7a13f1695752","system_id":"levelo_inurba_marseille","lat":43.286961,"lon":5.373785,"is_reserved":false,"is_disabled":false,"rental_uris":{"android":"levelo://app?vid=3c3e13e8-96d1-45f8-aef8-7a13f1695752","ios":"levelo://app?vid=3c3e13e8-96d1-45f8-aef8-7a13f1695752"},"vehicle_type_id":"4","last_reported":1703109972,"current_range_meters":18800,"station_id":"ce4bh3p2rcd13ifvqdq0","pricing_plan_id":"free"},{"bike_id":"b4c47720-8650-4535-9299-3ccfd25ed9e8","system_id":"levelo_inurba_marseille","lat":43.286961,"lon":5.373785,"is_reserved":false,"is_disabled":false,"rental_uris":{"android":"levelo://app?vid=b4c47720-8650-4535-9299-3ccfd25ed9e8","ios":"levelo://app?vid=b4c47720-8650-4535-9299-3ccfd25ed9e8"},"vehicle_type_id":"4","last_reported":1703109972,"current_range_meters":22400,"station_id":"ce4bh3p2rcd13ifvqdq0","pricing_plan_id":"free"},{"bike_id":"74a0bcf6-6759-4a19-a1b7-e5d0630cdf81","system_id":"levelo_inurba_marseille","lat":43.286961,"lon":5.373785,"is_reserved":false,"is_disabled":false,"rental_uris":{"android":"levelo://app?vid=74a0bcf6-6759-4a19-a1b7-e5d0630cdf81","ios":"levelo://app?vid=74a0bcf6-6759-4a19-a1b7-e5d0630cdf81"},"vehicle_type_id":"4","last_reported":1703109972,"current_range_meters":14000,"station_id":"ce4bh3p2rcd13ifvqdq0","pricing_plan_id":"free"},{"bike_id":"e3bbdbc8-628a-4f63-8fe7-848c56adde6d","system_id":"levelo_inurba_marseille","lat":43.286961,"lon":5.373785,"is_reserved":false,"is_disabled":false,"rental_uris":{"android":"levelo://app?vid=e3bbdbc8-628a-4f63-8fe7-848c56adde6d","ios":"levelo://app?vid=e3bbdbc8-628a-4f63-8fe7-848c56adde6d"},"vehicle_type_id":"4","last_reported":1703109972,"current_range_meters":25200,"station_id":"ce4bh3p2rcd13ifvqdq0","pricing_plan_id":"free"},{"bike_id":"4ff5873f-ae0a-4131-8e76-8cc1e4bf2479","system_id":"levelo_inurba_marseille","lat":43.298826,"lon":5.397474,"is_reserved":false,"is_disabled":false,"rental_uris":{"android":"levelo://app?vid=4ff5873f-ae0a-4131-8e76-8cc1e4bf2479","ios":"levelo://app?vid=4ff5873f-ae0a-4131-8e76-8cc1e4bf2479"},"vehicle_type_id":"4","last_reported":1703109972,"current_range_meters":31200,"station_id":"ce4bh0h2rcd13ifvqd50","pricing_plan_id":"free"},{"bike_id":"7d87b8dd-8e91-440a-8751-812ab7a4b07b","system_id":"levelo_inurba_marseille","lat":43.286593,"lon":5.363346,"is_reserved":false,"is_disabled":false,"rental_uris":{"android":"levelo://app?vid=7d87b8dd-8e91-440a-8751-812ab7a4b07b","ios":"levelo://app?vid=7d87b8dd-8e91-440a-8751-812ab7a4b07b"},"vehicle_type_id":"4","last_reported":1703109972,"current_range_meters":28000,"station_id":"ce4bhah2rcd13ifvqej0","pricing_plan_id":"free"},{"bike_id":"2adea18e-aae5-4c51-9c1f-a55438aaccc9","system_id":"levelo_inurba_marseille","lat":43.286591,"lon":5.363346,"is_reserved":false,"is_disabled":false,"rental_uris":{"android":"levelo://app?vid=2adea18e-aae5-4c51-9c1f-a55438aaccc9","ios":"levelo://app?vid=2adea18e-aae5-4c51-9c1f-a55438aaccc9"},"vehicle_type_id":"4","last_reported":1703109972,"current_range_meters":28000,"station_id":"ce4bhah2rcd13ifvqej0","pricing_plan_id":"free"},{"bike_id":"7d74a6e9-ec3d-4371-9e8c-72796d80fb3f","system_id":"levelo_inurba_marseille","lat":43.295196,"lon":5.39397,"is_reserved":false,"is_disabled":false,"rental_uris":{"android":"levelo://app?vid=7d74a6e9-ec3d-4371-9e8c-72796d80fb3f","ios":"levelo://app?vid=7d74a6e9-ec3d-4371-9e8c-72796d80fb3f"},"vehicle_type_id":"4","last_reported":1703109972,"current_range_meters":22800,"station_id":"ce4bh292rcd13ifvqdf0","pricing_plan_id":"free"},{"bike_id":"4ad97437-24ee-40a7-9e22-5cf183b38621","system_id":"levelo_inurba_marseille","lat":43.286961,"lon":5.373785,"is_reserved":false,"is_disabled":false,"rental_uris":{"android":"levelo://app?vid=4ad97437-24ee-40a7-9e22-5cf183b38621","ios":"levelo://app?vid=4ad97437-24ee-40a7-9e22-5cf183b38621"},"vehicle_type_id":"4","last_reported":1703109972,"current_range_meters":9600,"station_id":"ce4bh3p2rcd13ifvqdq0","pricing_plan_id":"free"},{"bike_id":"cdb83683-7a21-4d19-9cd1-c40edb31b0fc","system_id":"levelo_inurba_marseille","lat":43.286961,"lon":5.373785,"is_reserved":false,"is_disabled":false,"rental_uris":{"android":"levelo://app?vid=cdb83683-7a21-4d19-9cd1-c40edb31b0fc","ios":"levelo://app?vid=cdb83683-7a21-4d19-9cd1-c40edb31b0fc"},"vehicle_type_id":"4","last_reported":1703109972,"current_range_meters":24400,"station_id":"ce4bh3p2rcd13ifvqdq0","pricing_plan_id":"free"},{"bike_id":"5041b4ed-1d47-427a-acde-62682335f13d","system_id":"levelo_inurba_marseille","lat":43.291035,"lon":5.387575,"is_reserved":false,"is_disabled":false,"rental_uris":{"android":"levelo://app?vid=5041b4ed-1d47-427a-acde-62682335f13d","ios":"levelo://app?vid=5041b4ed-1d47-427a-acde-62682335f13d"},"vehicle_type_id":"4","last_reported":1703109972,"current_range_meters":0,"station_id":"","pricing_plan_id":"free"},{"bike_id":"5fad9680-46b2-4f49-a8e7-17b154b34b13","system_id":"levelo_inurba_marseille","lat":43.290336,"lon":5.386425,"is_reserved":false,"is_disabled":false,"rental_uris":{"android":"levelo://app?vid=5fad9680-46b2-4f49-a8e7-17b154b34b13","ios":"levelo://app?vid=5fad9680-46b2-4f49-a8e7-17b154b34b13"},"vehicle_type_id":"4","last_reported":1703109972,"current_range_meters":7200,"station_id":"ce4bh4p2rcd13ifvqe0g","pricing_plan_id":"free"},{"bike_id":"6282d94f-0963-443c-add7-381338df5d8c","system_id":"levelo_inurba_marseille","lat":43.291994,"lon":5.392907,"is_reserved":false,"is_disabled":false,"rental_uris":{"android":"levelo://app?vid=6282d94f-0963-443c-add7-381338df5d8c","ios":"levelo://app?vid=6282d94f-0963-443c-add7-381338df5d8c"},"vehicle_type_id":"4","last_reported":1703109972,"current_range_meters":6000,"station_id":"ce4bh192rcd13ifvqdd0","pricing_plan_id":"free"},{"bike_id":"2ab43db5-7ab0-4ceb-8a58-4ebe74fec8b1","system_id":"levelo_inurba_marseille","lat":43.28466,"lon":5.35888,"is_reserved":false,"is_disabled":false,"rental_uris":{"android":"levelo://app?vid=2ab43db5-7ab0-4ceb-8a58-4ebe74fec8b1","ios":"levelo://app?vid=2ab43db5-7ab0-4ceb-8a58-4ebe74fec8b1"},"vehicle_type_id":"4","last_reported":1703109972,"current_range_meters":2400,"station_id":"ce4bhah2rcd13ifvqei0","pricing_plan_id":"free"},{"bike_id":"89216e79-3cbd-4003-990b-c120bbe8ba20","system_id":"levelo_inurba_marseille","lat":43.28463,"lon":5.358907,"is_reserved":false,"is_disabled":false,"rental_uris":{"android":"levelo://app?vid=89216e79-3cbd-4003-990b-c120bbe8ba20","ios":"levelo://app?vid=89216e79-3cbd-4003-990b-c120bbe8ba20"},"vehicle_type_id":"4","last_reported":1703109972,"current_range_meters":22400,"station_id":"ce4bhah2rcd13ifvqei0","pricing_plan_id":"free"},{"bike_id":"400e5b1a-306a-4672-8fba-8fbd5ee124e8","system_id":"levelo_inurba_marseille","lat":43.28462,"lon":5.35888,"is_reserved":false,"is_disabled":false,"rental_uris":{"android":"levelo://app?vid=400e5b1a-306a-4672-8fba-8fbd5ee124e8","ios":"levelo://app?vid=400e5b1a-306a-4672-8fba-8fbd5ee124e8"},"vehicle_type_id":"4","last_reported":1703109972,"current_range_meters":16000,"station_id":"ce4bhah2rcd13ifvqei0","pricing_plan_id":"free"},{"bike_id":"2d916ed0-891d-40f0-9aa8-07018c3e2d67","system_id":"levelo_inurba_marseille","lat":43.28461,"lon":5.35892,"is_reserved":false,"is_disabled":false,"rental_uris":{"android":"levelo://app?vid=2d916ed0-891d-40f0-9aa8-07018c3e2d67","ios":"levelo://app?vid=2d916ed0-891d-40f0-9aa8-07018c3e2d67"},"vehicle_type_id":"4","last_reported":1703109972,"current_range_meters":23200,"station_id":"ce4bhah2rcd13ifvqei0","pricing_plan_id":"free"},{"bike_id":"d3df26d2-b56b-43ab-962d-c5837af0f437","system_id":"levelo_inurba_marseille","lat":43.284622,"lon":5.358816,"is_reserved":false,"is_disabled":false,"rental_uris":{"android":"levelo://app?vid=d3df26d2-b56b-43ab-962d-c5837af0f437","ios":"levelo://app?vid=d3df26d2-b56b-43ab-962d-c5837af0f437"},"vehicle_type_id":"4","last_reported":1703109972,"current_range_meters":4800,"station_id":"ce4bhah2rcd13ifvqei0","pricing_plan_id":"free"},{"bike_id":"6f19df3d-822b-4633-b1f9-986942f2ea07","system_id":"levelo_inurba_marseille","lat":43.294314,"lon":5.397498,"is_reserved":false,"is_disabled":false,"rental_uris":{"android":"levelo://app?vid=6f19df3d-822b-4633-b1f9-986942f2ea07","ios":"levelo://app?vid=6f19df3d-822b-4633-b1f9-986942f2ea07"},"vehicle_type_id":"4","last_reported":1703109972,"current_range_meters":9600,"station_id":"ce4bh3h2rcd13ifvqdo0","pricing_plan_id":"free"},{"bike_id":"a8255ee0-2895-4e29-9071-e0d41c2bc138","system_id":"levelo_inurba_marseille","lat":43.28457,"lon":5.358945,"is_reserved":false,"is_disabled":false,"rental_uris":{"android":"levelo://app?vid=a8255ee0-2895-4e29-9071-e0d41c2bc138","ios":"levelo://app?vid=a8255ee0-2895-4e29-9071-e0d41c2bc138"},"vehicle_type_id":"4","last_reported":1703109972,"current_range_meters":13600,"station_id":"ce4bhah2rcd13ifvqei0","pricing_plan_id":"free"},{"bike_id":"aea07f3f-bb43-4267-b015-5c6ee34703fd","system_id":"levelo_inurba_marseille","lat":43.28457,"lon":5.35887,"is_reserved":false,"is_disabled":false,"rental_uris":{"android":"levelo://app?vid=aea07f3f-bb43-4267-b015-5c6ee34703fd","ios":"levelo://app?vid=aea07f3f-bb43-4267-b015-5c6ee34703fd"},"vehicle_type_id":"4","last_reported":1703109972,"current_range_meters":10400,"station_id":"ce4bhah2rcd13ifvqei0","pricing_plan_id":"free"},{"bike_id":"a9d595c3-6bdf-4999-88b4-7eeac5ab5e34","system_id":"levelo_inurba_marseille","lat":43.28456,"lon":5.35893,"is_reserved":false,"is_disabled":false,"rental_uris":{"android":"levelo://app?vid=a9d595c3-6bdf-4999-88b4-7eeac5ab5e34","ios":"levelo://app?vid=a9d595c3-6bdf-4999-88b4-7eeac5ab5e34"},"vehicle_type_id":"4","last_reported":1703109972,"current_range_meters":22000,"station_id":"ce4bhah2rcd13ifvqei0","pricing_plan_id":"free"},{"bike_id":"36a26668-777b-46b2-a429-6671a5520a5c","system_id":"levelo_inurba_marseille","lat":43.294314,"lon":5.397498,"is_reserved":false,"is_disabled":false,"rental_uris":{"android":"levelo://app?vid=36a26668-777b-46b2-a429-6671a5520a5c","ios":"levelo://app?vid=36a26668-777b-46b2-a429-6671a5520a5c"},"vehicle_type_id":"4","last_reported":1703109972,"current_range_meters":3200,"station_id":"ce4bh3h2rcd13ifvqdo0","pricing_plan_id":"free"},{"bike_id":"821ec46c-0d65-4c45-80b4-bad60b20c148","system_id":"levelo_inurba_marseille","lat":43.294314,"lon":5.397498,"is_reserved":false,"is_disabled":false,"rental_uris":{"android":"levelo://app?vid=821ec46c-0d65-4c45-80b4-bad60b20c148","ios":"levelo://app?vid=821ec46c-0d65-4c45-80b4-bad60b20c148"},"vehicle_type_id":"4","last_reported":1703109972,"current_range_meters":26800,"station_id":"ce4bh3h2rcd13ifvqdo0","pricing_plan_id":"free"},{"bike_id":"deb03d56-a258-4061-ade4-4c6def17ebc6","system_id":"levelo_inurba_marseille","lat":43.28455,"lon":5.35887,"is_reserved":false,"is_disabled":false,"rental_uris":{"android":"levelo://app?vid=deb03d56-a258-4061-ade4-4c6def17ebc6","ios":"levelo://app?vid=deb03d56-a258-4061-ade4-4c6def17ebc6"},"vehicle_type_id":"4","last_reported":1703109972,"current_range_meters":22800,"station_id":"ce4bhah2rcd13ifvqei0","pricing_plan_id":"free"},{"bike_id":"f360e22f-261c-4fca-ac0b-f272b4e70a67","system_id":"levelo_inurba_marseille","lat":43.294314,"lon":5.397498,"is_reserved":false,"is_disabled":false,"rental_uris":{"android":"levelo://app?vid=f360e22f-261c-4fca-ac0b-f272b4e70a67","ios":"levelo://app?vid=f360e22f-261c-4fca-ac0b-f272b4e70a67"},"vehicle_type_id":"4","last_reported":1703109972,"current_range_meters":20800,"station_id":"ce4bh3h2rcd13ifvqdo0","pricing_plan_id":"free"},{"bike_id":"cd0c99aa-0b49-422c-882e-cd7d21d05d95","system_id":"levelo_inurba_marseille","lat":43.285856,"lon":5.350771,"is_reserved":false,"is_disabled":false,"rental_uris":{"android":"levelo://app?vid=cd0c99aa-0b49-422c-882e-cd7d21d05d95","ios":"levelo://app?vid=cd0c99aa-0b49-422c-882e-cd7d21d05d95"},"vehicle_type_id":"4","last_reported":1703109972,"current_range_meters":11600,"station_id":"ce4bhch2rcd13ifvqeug","pricing_plan_id":"free"},{"bike_id":"4ea381ba-f5ca-4402-a8ad-56297ca58f6f","system_id":"levelo_inurba_marseille","lat":43.285856,"lon":5.350771,"is_reserved":false,"is_disabled":false,"rental_uris":{"android":"levelo://app?vid=4ea381ba-f5ca-4402-a8ad-56297ca58f6f","ios":"levelo://app?vid=4ea381ba-f5ca-4402-a8ad-56297ca58f6f"},"vehicle_type_id":"4","last_reported":1703109972,"current_range_meters":20400,"station_id":"ce4bhch2rcd13ifvqeug","pricing_plan_id":"free"},{"bike_id":"70231a4e-5b03-48ec-ae49-1772c70a77b5","system_id":"levelo_inurba_marseille","lat":43.285856,"lon":5.350771,"is_reserved":false,"is_disabled":false,"rental_uris":{"android":"levelo://app?vid=70231a4e-5b03-48ec-ae49-1772c70a77b5","ios":"levelo://app?vid=70231a4e-5b03-48ec-ae49-1772c70a77b5"},"vehicle_type_id":"4","last_reported":1703109972,"current_range_meters":0,"station_id":"ce4bhch2rcd13ifvqeug","pricing_plan_id":"free"},{"bike_id":"4005d67c-e580-47a4-893b-53bd0a817d88","system_id":"levelo_inurba_marseille","lat":43.285856,"lon":5.350771,"is_reserved":false,"is_disabled":false,"rental_uris":{"android":"levelo://app?vid=4005d67c-e580-47a4-893b-53bd0a817d88","ios":"levelo://app?vid=4005d67c-e580-47a4-893b-53bd0a817d88"},"vehicle_type_id":"4","last_reported":1703109972,"current_range_meters":12400,"station_id":"ce4bhch2rcd13ifvqeug","pricing_plan_id":"free"},{"bike_id":"b1dab4de-0ade-4b74-94d9-fc33a4596fb1","system_id":"levelo_inurba_marseille","lat":43.285856,"lon":5.350771,"is_reserved":false,"is_disabled":false,"rental_uris":{"android":"levelo://app?vid=b1dab4de-0ade-4b74-94d9-fc33a4596fb1","ios":"levelo://app?vid=b1dab4de-0ade-4b74-94d9-fc33a4596fb1"},"vehicle_type_id":"4","last_reported":1703109972,"current_range_meters":18800,"station_id":"ce4bhch2rcd13ifvqeug","pricing_plan_id":"free"},{"bike_id":"6927178c-f2c5-4e8a-9c91-316a04fca8c9","system_id":"levelo_inurba_marseille","lat":43.283998,"lon":5.375062,"is_reserved":false,"is_disabled":false,"rental_uris":{"android":"levelo://app?vid=6927178c-f2c5-4e8a-9c91-316a04fca8c9","ios":"levelo://app?vid=6927178c-f2c5-4e8a-9c91-316a04fca8c9"},"vehicle_type_id":"4","last_reported":1703109972,"current_range_meters":8400,"station_id":"ce4bh412rcd13ifvqds0","pricing_plan_id":"free"},{"bike_id":"fa99c2cb-7c88-4c8a-8106-0f27aa3b4e09","system_id":"levelo_inurba_marseille","lat":43.283998,"lon":5.375062,"is_reserved":false,"is_disabled":false,"rental_uris":{"android":"levelo://app?vid=fa99c2cb-7c88-4c8a-8106-0f27aa3b4e09","ios":"levelo://app?vid=fa99c2cb-7c88-4c8a-8106-0f27aa3b4e09"},"vehicle_type_id":"4","last_reported":1703109972,"current_range_meters":0,"station_id":"ce4bh412rcd13ifvqds0","pricing_plan_id":"free"},{"bike_id":"8538e6dd-dbef-4a5a-a119-9a857fd021ad","system_id":"levelo_inurba_marseille","lat":43.33218,"lon":5.397067,"is_reserved":false,"is_disabled":false,"rental_uris":{"android":"levelo://app?vid=8538e6dd-dbef-4a5a-a119-9a857fd021ad","ios":"levelo://app?vid=8538e6dd-dbef-4a5a-a119-9a857fd021ad"},"vehicle_type_id":"4","last_reported":1703109972,"current_range_meters":0,"station_id":"","pricing_plan_id":"free"},{"bike_id":"9aa2853e-bd61-426a-a976-de0e36af8e80","system_id":"levelo_inurba_marseille","lat":43.295713,"lon":5.399639,"is_reserved":false,"is_disabled":false,"rental_uris":{"android":"levelo://app?vid=9aa2853e-bd61-426a-a976-de0e36af8e80","ios":"levelo://app?vid=9aa2853e-bd61-426a-a976-de0e36af8e80"},"vehicle_type_id":"4","last_reported":1703109972,"current_range_meters":0,"station_id":"ce4bh312rcd13ifvqdj0","pricing_plan_id":"free"},{"bike_id":"04507c8d-dd61-45d0-937d-0c0f14c554a4","system_id":"levelo_inurba_marseille","lat":43.29574,"lon":5.39987,"is_reserved":false,"is_disabled":false,"rental_uris":{"android":"levelo://app?vid=04507c8d-dd61-45d0-937d-0c0f14c554a4","ios":"levelo://app?vid=04507c8d-dd61-45d0-937d-0c0f14c554a4"},"vehicle_type_id":"4","last_reported":1703109972,"current_range_meters":0,"station_id":"ce4bh312rcd13ifvqdj0","pricing_plan_id":"free"},{"bike_id":"d2a44f2b-39e5-4146-b3f5-41df8c57afd7","system_id":"levelo_inurba_marseille","lat":43.286595,"lon":5.386795,"is_reserved":false,"is_disabled":false,"rental_uris":{"android":"levelo://app?vid=d2a44f2b-39e5-4146-b3f5-41df8c57afd7","ios":"levelo://app?vid=d2a44f2b-39e5-4146-b3f5-41df8c57afd7"},"vehicle_type_id":"4","last_reported":1703109972,"current_range_meters":6800,"station_id":"ce4bh492rcd13ifvqdug","pricing_plan_id":"free"},{"bike_id":"dfb799e0-6b52-4b93-891e-f427333dec88","system_id":"levelo_inurba_marseille","lat":43.33717,"lon":5.391857,"is_reserved":false,"is_disabled":false,"rental_uris":{"android":"levelo://app?vid=dfb799e0-6b52-4b93-891e-f427333dec88","ios":"levelo://app?vid=dfb799e0-6b52-4b93-891e-f427333dec88"},"vehicle_type_id":"4","last_reported":1703109972,"current_range_meters":24400,"station_id":"ce4bhr92rcd13ifvqhsg","pricing_plan_id":"free"},{"bike_id":"0e6bbc92-cec6-497f-ad89-d75d7e889db3","system_id":"levelo_inurba_marseille","lat":43.33717,"lon":5.391857,"is_reserved":false,"is_disabled":false,"rental_uris":{"android":"levelo://app?vid=0e6bbc92-cec6-497f-ad89-d75d7e889db3","ios":"levelo://app?vid=0e6bbc92-cec6-497f-ad89-d75d7e889db3"},"vehicle_type_id":"4","last_reported":1703109972,"current_range_meters":31200,"station_id":"ce4bhr92rcd13ifvqhsg","pricing_plan_id":"free"},{"bike_id":"057745d9-c901-425a-9a42-19fbf5126ec9","system_id":"levelo_inurba_marseille","lat":43.323464,"lon":5.406297,"is_reserved":false,"is_disabled":false,"rental_uris":{"android":"levelo://app?vid=057745d9-c901-425a-9a42-19fbf5126ec9","ios":"levelo://app?vid=057745d9-c901-425a-9a42-19fbf5126ec9"},"vehicle_type_id":"4","last_reported":1703109972,"current_range_meters":20000,"station_id":"ce4bhq92rcd13ifvqhjg","pricing_plan_id":"free"},{"bike_id":"933d177a-ae55-4cc0-90a9-11688da76c1b","system_id":"levelo_inurba_marseille","lat":43.283498,"lon":5.380948,"is_reserved":false,"is_disabled":false,"rental_uris":{"android":"levelo://app?vid=933d177a-ae55-4cc0-90a9-11688da76c1b","ios":"levelo://app?vid=933d177a-ae55-4cc0-90a9-11688da76c1b"},"vehicle_type_id":"4","last_reported":1703109972,"current_range_meters":20400,"station_id":"ce4bh412rcd13ifvqdr0","pricing_plan_id":"free"},{"bike_id":"88917adb-6a55-4144-b6d1-ab8cd2128d71","system_id":"levelo_inurba_marseille","lat":43.2884,"lon":5.39332,"is_reserved":false,"is_disabled":false,"rental_uris":{"android":"levelo://app?vid=88917adb-6a55-4144-b6d1-ab8cd2128d71","ios":"levelo://app?vid=88917adb-6a55-4144-b6d1-ab8cd2128d71"},"vehicle_type_id":"4","last_reported":1703109972,"current_range_meters":0,"station_id":"ce4bh2p2rcd13ifvqdi0","pricing_plan_id":"free"},{"bike_id":"b20f92a2-3c96-49ba-89c0-763dc511f158","system_id":"levelo_inurba_marseille","lat":43.284219,"lon":5.3497,"is_reserved":false,"is_disabled":false,"rental_uris":{"android":"levelo://app?vid=b20f92a2-3c96-49ba-89c0-763dc511f158","ios":"levelo://app?vid=b20f92a2-3c96-49ba-89c0-763dc511f158"},"vehicle_type_id":"4","last_reported":1703109972,"current_range_meters":25600,"station_id":"ce4bhbh2rcd13ifvqepg","pricing_plan_id":"free"},{"bike_id":"d6ceaf01-26b8-4886-ac1f-d274beda68aa","system_id":"levelo_inurba_marseille","lat":43.33338,"lon":5.39876,"is_reserved":false,"is_disabled":false,"rental_uris":{"android":"levelo://app?vid=d6ceaf01-26b8-4886-ac1f-d274beda68aa","ios":"levelo://app?vid=d6ceaf01-26b8-4886-ac1f-d274beda68aa"},"vehicle_type_id":"4","last_reported":1703109972,"current_range_meters":0,"station_id":"","pricing_plan_id":"free"},{"bike_id":"e68ad7a3-9f73-42da-8e90-59adcc6ccfbd","system_id":"levelo_inurba_marseille","lat":43.284219,"lon":5.3497,"is_reserved":false,"is_disabled":false,"rental_uris":{"android":"levelo://app?vid=e68ad7a3-9f73-42da-8e90-59adcc6ccfbd","ios":"levelo://app?vid=e68ad7a3-9f73-42da-8e90-59adcc6ccfbd"},"vehicle_type_id":"4","last_reported":1703109972,"current_range_meters":30000,"station_id":"ce4bhbh2rcd13ifvqepg","pricing_plan_id":"free"},{"bike_id":"5e3666e1-86ec-4715-881e-97fbe8493bb9","system_id":"levelo_inurba_marseille","lat":43.284217,"lon":5.349697,"is_reserved":false,"is_disabled":false,"rental_uris":{"android":"levelo://app?vid=5e3666e1-86ec-4715-881e-97fbe8493bb9","ios":"levelo://app?vid=5e3666e1-86ec-4715-881e-97fbe8493bb9"},"vehicle_type_id":"4","last_reported":1703109972,"current_range_meters":31200,"station_id":"ce4bhbh2rcd13ifvqepg","pricing_plan_id":"free"},{"bike_id":"25acf729-0c15-45f0-8053-2c35b0919b50","system_id":"levelo_inurba_marseille","lat":43.284219,"lon":5.3497,"is_reserved":false,"is_disabled":false,"rental_uris":{"android":"levelo://app?vid=25acf729-0c15-45f0-8053-2c35b0919b50","ios":"levelo://app?vid=25acf729-0c15-45f0-8053-2c35b0919b50"},"vehicle_type_id":"4","last_reported":1703109972,"current_range_meters":28800,"station_id":"ce4bhbh2rcd13ifvqepg","pricing_plan_id":"free"},{"bike_id":"338c9ba4-b725-4a51-8cf5-7a87fdf968de","system_id":"levelo_inurba_marseille","lat":43.284214,"lon":5.349706,"is_reserved":false,"is_disabled":false,"rental_uris":{"android":"levelo://app?vid=338c9ba4-b725-4a51-8cf5-7a87fdf968de","ios":"levelo://app?vid=338c9ba4-b725-4a51-8cf5-7a87fdf968de"},"vehicle_type_id":"4","last_reported":1703109972,"current_range_meters":26800,"station_id":"ce4bhbh2rcd13ifvqepg","pricing_plan_id":"free"},{"bike_id":"b85df6e5-946f-4ca9-b02b-bc3a9e578ef6","system_id":"levelo_inurba_marseille","lat":43.304188,"lon":5.412904,"is_reserved":false,"is_disabled":false,"rental_uris":{"android":"levelo://app?vid=b85df6e5-946f-4ca9-b02b-bc3a9e578ef6","ios":"levelo://app?vid=b85df6e5-946f-4ca9-b02b-bc3a9e578ef6"},"vehicle_type_id":"4","last_reported":1703109972,"current_range_meters":21200,"station_id":"ce4bhop2rcd13ifvqh8g","pricing_plan_id":"free"},{"bike_id":"99c0c118-61e8-4cea-80ff-9be3c4ac7cf7","system_id":"levelo_inurba_marseille","lat":43.284206,"lon":5.349842,"is_reserved":false,"is_disabled":false,"rental_uris":{"android":"levelo://app?vid=99c0c118-61e8-4cea-80ff-9be3c4ac7cf7","ios":"levelo://app?vid=99c0c118-61e8-4cea-80ff-9be3c4ac7cf7"},"vehicle_type_id":"4","last_reported":1703109972,"current_range_meters":1200,"station_id":"ce4bhbh2rcd13ifvqepg","pricing_plan_id":"free"},{"bike_id":"5ffab216-92f9-478c-a9f0-e415d36eb89c","system_id":"levelo_inurba_marseille","lat":43.284217,"lon":5.349697,"is_reserved":false,"is_disabled":false,"rental_uris":{"android":"levelo://app?vid=5ffab216-92f9-478c-a9f0-e415d36eb89c","ios":"levelo://app?vid=5ffab216-92f9-478c-a9f0-e415d36eb89c"},"vehicle_type_id":"4","last_reported":1703109972,"current_range_meters":12000,"station_id":"ce4bhbh2rcd13ifvqepg","pricing_plan_id":"free"},{"bike_id":"30b41aed-b375-4cfa-b849-c47f4e650fc0","system_id":"levelo_inurba_marseille","lat":43.28205,"lon":5.35876,"is_reserved":false,"is_disabled":false,"rental_uris":{"android":"levelo://app?vid=30b41aed-b375-4cfa-b849-c47f4e650fc0","ios":"levelo://app?vid=30b41aed-b375-4cfa-b849-c47f4e650fc0"},"vehicle_type_id":"4","last_reported":1703109972,"current_range_meters":10000,"station_id":"","pricing_plan_id":"free"},{"bike_id":"6dbebcfd-5cef-46d3-b6b1-24659f7d377a","system_id":"levelo_inurba_marseille","lat":43.285521,"lon":5.389739,"is_reserved":false,"is_disabled":false,"rental_uris":{"android":"levelo://app?vid=6dbebcfd-5cef-46d3-b6b1-24659f7d377a","ios":"levelo://app?vid=6dbebcfd-5cef-46d3-b6b1-24659f7d377a"},"vehicle_type_id":"4","last_reported":1703109972,"current_range_meters":0,"station_id":"","pricing_plan_id":"free"},{"bike_id":"6cbf7be6-b99e-47be-b4b6-3d3796af7a0d","system_id":"levelo_inurba_marseille","lat":43.282744,"lon":5.350533,"is_reserved":false,"is_disabled":false,"rental_uris":{"android":"levelo://app?vid=6cbf7be6-b99e-47be-b4b6-3d3796af7a0d","ios":"levelo://app?vid=6cbf7be6-b99e-47be-b4b6-3d3796af7a0d"},"vehicle_type_id":"4","last_reported":1703109972,"current_range_meters":0,"station_id":"ce4bhbp2rcd13ifvqerg","pricing_plan_id":"free"},{"bike_id":"65911451-d618-4117-9c6d-16e5727fc1ab","system_id":"levelo_inurba_marseille","lat":43.280382,"lon":5.369291,"is_reserved":false,"is_disabled":false,"rental_uris":{"android":"levelo://app?vid=65911451-d618-4117-9c6d-16e5727fc1ab","ios":"levelo://app?vid=65911451-d618-4117-9c6d-16e5727fc1ab"},"vehicle_type_id":"4","last_reported":1703109972,"current_range_meters":23600,"station_id":"ce4bha12rcd13ifvqef0","pricing_plan_id":"free"},{"bike_id":"075a968c-d36e-4935-bb76-4c90072c3bfe","system_id":"levelo_inurba_marseille","lat":43.281044,"lon":5.378308,"is_reserved":false,"is_disabled":false,"rental_uris":{"android":"levelo://app?vid=075a968c-d36e-4935-bb76-4c90072c3bfe","ios":"levelo://app?vid=075a968c-d36e-4935-bb76-4c90072c3bfe"},"vehicle_type_id":"4","last_reported":1703109972,"current_range_meters":13200,"station_id":"ce4bha12rcd13ifvqee0","pricing_plan_id":"free"},{"bike_id":"1ecc3bc0-df6d-4126-ad46-9c7f683a27b6","system_id":"levelo_inurba_marseille","lat":43.284462,"lon":5.392121,"is_reserved":false,"is_disabled":false,"rental_uris":{"android":"levelo://app?vid=1ecc3bc0-df6d-4126-ad46-9c7f683a27b6","ios":"levelo://app?vid=1ecc3bc0-df6d-4126-ad46-9c7f683a27b6"},"vehicle_type_id":"4","last_reported":1703109972,"current_range_meters":0,"station_id":"ce4bhoh2rcd13ifvqh5g","pricing_plan_id":"free"},{"bike_id":"57094c94-6f80-4bfb-ae53-c0b1f6232af4","system_id":"levelo_inurba_marseille","lat":43.28573,"lon":5.394992,"is_reserved":false,"is_disabled":false,"rental_uris":{"android":"levelo://app?vid=57094c94-6f80-4bfb-ae53-c0b1f6232af4","ios":"levelo://app?vid=57094c94-6f80-4bfb-ae53-c0b1f6232af4"},"vehicle_type_id":"4","last_reported":1703109972,"current_range_meters":6000,"station_id":"ce4bh292rcd13ifvqdg0","pricing_plan_id":"free"},{"bike_id":"8386dfd6-e68a-478d-84c0-712289af71bc","system_id":"levelo_inurba_marseille","lat":43.28573,"lon":5.394992,"is_reserved":false,"is_disabled":false,"rental_uris":{"android":"levelo://app?vid=8386dfd6-e68a-478d-84c0-712289af71bc","ios":"levelo://app?vid=8386dfd6-e68a-478d-84c0-712289af71bc"},"vehicle_type_id":"4","last_reported":1703109972,"current_range_meters":29200,"station_id":"ce4bh292rcd13ifvqdg0","pricing_plan_id":"free"},{"bike_id":"a65bc548-b9cd-4a09-99de-6a7cf1b6ce3e","system_id":"levelo_inurba_marseille","lat":43.304188,"lon":5.412904,"is_reserved":false,"is_disabled":false,"rental_uris":{"android":"levelo://app?vid=a65bc548-b9cd-4a09-99de-6a7cf1b6ce3e","ios":"levelo://app?vid=a65bc548-b9cd-4a09-99de-6a7cf1b6ce3e"},"vehicle_type_id":"4","last_reported":1703109972,"current_range_meters":20800,"station_id":"ce4bhop2rcd13ifvqh8g","pricing_plan_id":"free"},{"bike_id":"1d1555b5-648a-49b4-90c5-eeac61d8c337","system_id":"levelo_inurba_marseille","lat":43.304188,"lon":5.412904,"is_reserved":false,"is_disabled":false,"rental_uris":{"android":"levelo://app?vid=1d1555b5-648a-49b4-90c5-eeac61d8c337","ios":"levelo://app?vid=1d1555b5-648a-49b4-90c5-eeac61d8c337"},"vehicle_type_id":"4","last_reported":1703109972,"current_range_meters":7600,"station_id":"ce4bhop2rcd13ifvqh8g","pricing_plan_id":"free"},{"bike_id":"b273a386-d7a2-4d92-bf22-79fa7823766f","system_id":"levelo_inurba_marseille","lat":43.304188,"lon":5.412904,"is_reserved":false,"is_disabled":false,"rental_uris":{"android":"levelo://app?vid=b273a386-d7a2-4d92-bf22-79fa7823766f","ios":"levelo://app?vid=b273a386-d7a2-4d92-bf22-79fa7823766f"},"vehicle_type_id":"4","last_reported":1703109972,"current_range_meters":14400,"station_id":"ce4bhop2rcd13ifvqh8g","pricing_plan_id":"free"},{"bike_id":"2a5cd02d-c677-406b-ad35-528e2719fc98","system_id":"levelo_inurba_marseille","lat":43.304188,"lon":5.412904,"is_reserved":false,"is_disabled":false,"rental_uris":{"android":"levelo://app?vid=2a5cd02d-c677-406b-ad35-528e2719fc98","ios":"levelo://app?vid=2a5cd02d-c677-406b-ad35-528e2719fc98"},"vehicle_type_id":"4","last_reported":1703109972,"current_range_meters":5600,"station_id":"ce4bhop2rcd13ifvqh8g","pricing_plan_id":"free"},{"bike_id":"03547510-361e-43f2-83e1-2236b799d50b","system_id":"levelo_inurba_marseille","lat":43.304188,"lon":5.412904,"is_reserved":false,"is_disabled":false,"rental_uris":{"android":"levelo://app?vid=03547510-361e-43f2-83e1-2236b799d50b","ios":"levelo://app?vid=03547510-361e-43f2-83e1-2236b799d50b"},"vehicle_type_id":"4","last_reported":1703109972,"current_range_meters":14400,"station_id":"ce4bhop2rcd13ifvqh8g","pricing_plan_id":"free"},{"bike_id":"c9ccc1b6-eff8-41ad-b5b1-88555cb07424","system_id":"levelo_inurba_marseille","lat":43.304188,"lon":5.412904,"is_reserved":false,"is_disabled":false,"rental_uris":{"android":"levelo://app?vid=c9ccc1b6-eff8-41ad-b5b1-88555cb07424","ios":"levelo://app?vid=c9ccc1b6-eff8-41ad-b5b1-88555cb07424"},"vehicle_type_id":"4","last_reported":1703109972,"current_range_meters":10800,"station_id":"ce4bhop2rcd13ifvqh8g","pricing_plan_id":"free"},{"bike_id":"12fefae8-717b-44a5-a2d1-1e6661d789ab","system_id":"levelo_inurba_marseille","lat":43.27907,"lon":5.380143,"is_reserved":false,"is_disabled":false,"rental_uris":{"android":"levelo://app?vid=12fefae8-717b-44a5-a2d1-1e6661d789ab","ios":"levelo://app?vid=12fefae8-717b-44a5-a2d1-1e6661d789ab"},"vehicle_type_id":"4","last_reported":1703109972,"current_range_meters":24800,"station_id":"ce4bhf92rcd13ifvqf50","pricing_plan_id":"free"},{"bike_id":"43e5f732-0f3e-4e65-b171-c12232045b42","system_id":"levelo_inurba_marseille","lat":43.27813,"lon":5.37451,"is_reserved":false,"is_disabled":false,"rental_uris":{"android":"levelo://app?vid=43e5f732-0f3e-4e65-b171-c12232045b42","ios":"levelo://app?vid=43e5f732-0f3e-4e65-b171-c12232045b42"},"vehicle_type_id":"4","last_reported":1703109972,"current_range_meters":5600,"station_id":"","pricing_plan_id":"free"},{"bike_id":"a0c3522f-ac3d-48d5-b61c-d0d7137a303c","system_id":"levelo_inurba_marseille","lat":43.287154,"lon":5.399979,"is_reserved":false,"is_disabled":false,"rental_uris":{"android":"levelo://app?vid=a0c3522f-ac3d-48d5-b61c-d0d7137a303c","ios":"levelo://app?vid=a0c3522f-ac3d-48d5-b61c-d0d7137a303c"},"vehicle_type_id":"4","last_reported":1703109972,"current_range_meters":14800,"station_id":"ce4bho92rcd13ifvqh3g","pricing_plan_id":"free"},{"bike_id":"5fb1f64a-c325-4ebc-bab1-5ee60fe9bcbd","system_id":"levelo_inurba_marseille","lat":43.287154,"lon":5.399979,"is_reserved":false,"is_disabled":false,"rental_uris":{"android":"levelo://app?vid=5fb1f64a-c325-4ebc-bab1-5ee60fe9bcbd","ios":"levelo://app?vid=5fb1f64a-c325-4ebc-bab1-5ee60fe9bcbd"},"vehicle_type_id":"4","last_reported":1703109972,"current_range_meters":6400,"station_id":"ce4bho92rcd13ifvqh3g","pricing_plan_id":"free"},{"bike_id":"ea288ed0-2353-4e46-ad6a-3996d641e872","system_id":"levelo_inurba_marseille","lat":43.287154,"lon":5.399979,"is_reserved":false,"is_disabled":false,"rental_uris":{"android":"levelo://app?vid=ea288ed0-2353-4e46-ad6a-3996d641e872","ios":"levelo://app?vid=ea288ed0-2353-4e46-ad6a-3996d641e872"},"vehicle_type_id":"4","last_reported":1703109972,"current_range_meters":22800,"station_id":"ce4bho92rcd13ifvqh3g","pricing_plan_id":"free"},{"bike_id":"3d1cbee5-0329-4f63-9c50-13e1805b50f2","system_id":"levelo_inurba_marseille","lat":43.287154,"lon":5.399979,"is_reserved":false,"is_disabled":false,"rental_uris":{"android":"levelo://app?vid=3d1cbee5-0329-4f63-9c50-13e1805b50f2","ios":"levelo://app?vid=3d1cbee5-0329-4f63-9c50-13e1805b50f2"},"vehicle_type_id":"4","last_reported":1703109972,"current_range_meters":28400,"station_id":"ce4bho92rcd13ifvqh3g","pricing_plan_id":"free"},{"bike_id":"981e10e1-ac07-4297-965d-d2d2f11321f2","system_id":"levelo_inurba_marseille","lat":43.287154,"lon":5.399979,"is_reserved":false,"is_disabled":false,"rental_uris":{"android":"levelo://app?vid=981e10e1-ac07-4297-965d-d2d2f11321f2","ios":"levelo://app?vid=981e10e1-ac07-4297-965d-d2d2f11321f2"},"vehicle_type_id":"4","last_reported":1703109972,"current_range_meters":26800,"station_id":"ce4bho92rcd13ifvqh3g","pricing_plan_id":"free"},{"bike_id":"cb0668d4-d46c-4efe-a7e0-185ebe495ab4","system_id":"levelo_inurba_marseille","lat":43.280556,"lon":5.389206,"is_reserved":false,"is_disabled":false,"rental_uris":{"android":"levelo://app?vid=cb0668d4-d46c-4efe-a7e0-185ebe495ab4","ios":"levelo://app?vid=cb0668d4-d46c-4efe-a7e0-185ebe495ab4"},"vehicle_type_id":"4","last_reported":1703109972,"current_range_meters":6000,"station_id":"","pricing_plan_id":"free"},{"bike_id":"6da7aacf-f456-44fe-9c9b-5b77b47daafe","system_id":"levelo_inurba_marseille","lat":43.279742,"lon":5.38744,"is_reserved":false,"is_disabled":false,"rental_uris":{"android":"levelo://app?vid=6da7aacf-f456-44fe-9c9b-5b77b47daafe","ios":"levelo://app?vid=6da7aacf-f456-44fe-9c9b-5b77b47daafe"},"vehicle_type_id":"4","last_reported":1703109972,"current_range_meters":24800,"station_id":"ce4bhg12rcd13ifvqf80","pricing_plan_id":"free"},{"bike_id":"a562e920-b2e6-40c2-82a3-d85716853857","system_id":"levelo_inurba_marseille","lat":43.279742,"lon":5.38744,"is_reserved":false,"is_disabled":false,"rental_uris":{"android":"levelo://app?vid=a562e920-b2e6-40c2-82a3-d85716853857","ios":"levelo://app?vid=a562e920-b2e6-40c2-82a3-d85716853857"},"vehicle_type_id":"4","last_reported":1703109972,"current_range_meters":4800,"station_id":"ce4bhg12rcd13ifvqf80","pricing_plan_id":"free"},{"bike_id":"e574f4b5-6580-4ea2-8e4c-8f428f83289e","system_id":"levelo_inurba_marseille","lat":43.292569,"lon":5.409107,"is_reserved":false,"is_disabled":false,"rental_uris":{"android":"levelo://app?vid=e574f4b5-6580-4ea2-8e4c-8f428f83289e","ios":"levelo://app?vid=e574f4b5-6580-4ea2-8e4c-8f428f83289e"},"vehicle_type_id":"4","last_reported":1703109972,"current_range_meters":25200,"station_id":"ce4bh192rcd13ifvqdc0","pricing_plan_id":"free"},{"bike_id":"b2331560-ca25-49af-bad9-54193d860e5f","system_id":"levelo_inurba_marseille","lat":43.292569,"lon":5.409107,"is_reserved":false,"is_disabled":false,"rental_uris":{"android":"levelo://app?vid=b2331560-ca25-49af-bad9-54193d860e5f","ios":"levelo://app?vid=b2331560-ca25-49af-bad9-54193d860e5f"},"vehicle_type_id":"4","last_reported":1703109972,"current_range_meters":7600,"station_id":"ce4bh192rcd13ifvqdc0","pricing_plan_id":"free"},{"bike_id":"bbfa7862-ad7b-4daf-90d7-d0e1affb562a","system_id":"levelo_inurba_marseille","lat":43.292571,"lon":5.409107,"is_reserved":false,"is_disabled":false,"rental_uris":{"android":"levelo://app?vid=bbfa7862-ad7b-4daf-90d7-d0e1affb562a","ios":"levelo://app?vid=bbfa7862-ad7b-4daf-90d7-d0e1affb562a"},"vehicle_type_id":"4","last_reported":1703109972,"current_range_meters":21600,"station_id":"ce4bh192rcd13ifvqdc0","pricing_plan_id":"free"},{"bike_id":"f27be2f9-9ea6-4d97-ba32-1dbbbb836c8d","system_id":"levelo_inurba_marseille","lat":43.292571,"lon":5.409107,"is_reserved":false,"is_disabled":false,"rental_uris":{"android":"levelo://app?vid=f27be2f9-9ea6-4d97-ba32-1dbbbb836c8d","ios":"levelo://app?vid=f27be2f9-9ea6-4d97-ba32-1dbbbb836c8d"},"vehicle_type_id":"4","last_reported":1703109972,"current_range_meters":31200,"station_id":"ce4bh192rcd13ifvqdc0","pricing_plan_id":"free"},{"bike_id":"36618b10-9408-49a9-8b9b-381c57b48ff1","system_id":"levelo_inurba_marseille","lat":43.292569,"lon":5.409107,"is_reserved":false,"is_disabled":false,"rental_uris":{"android":"levelo://app?vid=36618b10-9408-49a9-8b9b-381c57b48ff1","ios":"levelo://app?vid=36618b10-9408-49a9-8b9b-381c57b48ff1"},"vehicle_type_id":"4","last_reported":1703109972,"current_range_meters":5200,"station_id":"ce4bh192rcd13ifvqdc0","pricing_plan_id":"free"},{"bike_id":"71021f56-7b5e-4662-95e5-7bddea2811db","system_id":"levelo_inurba_marseille","lat":43.292571,"lon":5.409107,"is_reserved":false,"is_disabled":false,"rental_uris":{"android":"levelo://app?vid=71021f56-7b5e-4662-95e5-7bddea2811db","ios":"levelo://app?vid=71021f56-7b5e-4662-95e5-7bddea2811db"},"vehicle_type_id":"4","last_reported":1703109972,"current_range_meters":25600,"station_id":"ce4bh192rcd13ifvqdc0","pricing_plan_id":"free"},{"bike_id":"5e341de4-c67d-4b6c-8212-01b2b2ae70f5","system_id":"levelo_inurba_marseille","lat":43.292569,"lon":5.409107,"is_reserved":false,"is_disabled":false,"rental_uris":{"android":"levelo://app?vid=5e341de4-c67d-4b6c-8212-01b2b2ae70f5","ios":"levelo://app?vid=5e341de4-c67d-4b6c-8212-01b2b2ae70f5"},"vehicle_type_id":"4","last_reported":1703109972,"current_range_meters":18000,"station_id":"ce4bh192rcd13ifvqdc0","pricing_plan_id":"free"},{"bike_id":"8620807d-e7d9-49bd-a224-36b8c79adb00","system_id":"levelo_inurba_marseille","lat":43.303837,"lon":5.418724,"is_reserved":false,"is_disabled":false,"rental_uris":{"android":"levelo://app?vid=8620807d-e7d9-49bd-a224-36b8c79adb00","ios":"levelo://app?vid=8620807d-e7d9-49bd-a224-36b8c79adb00"},"vehicle_type_id":"4","last_reported":1703109972,"current_range_meters":28400,"station_id":"ce4bhop2rcd13ifvqh7g","pricing_plan_id":"free"},{"bike_id":"a7899e80-f097-4070-b8cb-e3ee4322ca43","system_id":"levelo_inurba_marseille","lat":43.278401,"lon":5.392152,"is_reserved":false,"is_disabled":false,"rental_uris":{"android":"levelo://app?vid=a7899e80-f097-4070-b8cb-e3ee4322ca43","ios":"levelo://app?vid=a7899e80-f097-4070-b8cb-e3ee4322ca43"},"vehicle_type_id":"4","last_reported":1703109972,"current_range_meters":30000,"station_id":"ce4bhjp2rcd13ifvqga0","pricing_plan_id":"free"},{"bike_id":"c138d646-fc1c-4e57-96ae-86b4f5e59051","system_id":"levelo_inurba_marseille","lat":43.278399,"lon":5.392139,"is_reserved":false,"is_disabled":false,"rental_uris":{"android":"levelo://app?vid=c138d646-fc1c-4e57-96ae-86b4f5e59051","ios":"levelo://app?vid=c138d646-fc1c-4e57-96ae-86b4f5e59051"},"vehicle_type_id":"4","last_reported":1703109972,"current_range_meters":5600,"station_id":"ce4bhjp2rcd13ifvqga0","pricing_plan_id":"free"},{"bike_id":"4a0911b4-ebce-4462-b949-8a4ad3514d45","system_id":"levelo_inurba_marseille","lat":43.336134,"lon":5.410341,"is_reserved":false,"is_disabled":false,"rental_uris":{"android":"levelo://app?vid=4a0911b4-ebce-4462-b949-8a4ad3514d45","ios":"levelo://app?vid=4a0911b4-ebce-4462-b949-8a4ad3514d45"},"vehicle_type_id":"4","last_reported":1703109972,"current_range_meters":24000,"station_id":"ce4bhqh2rcd13ifvqhmg","pricing_plan_id":"free"},{"bike_id":"3ba60f78-a0a4-48f6-b46c-0fbb03471889","system_id":"levelo_inurba_marseille","lat":43.275625,"lon":5.384392,"is_reserved":false,"is_disabled":false,"rental_uris":{"android":"levelo://app?vid=3ba60f78-a0a4-48f6-b46c-0fbb03471889","ios":"levelo://app?vid=3ba60f78-a0a4-48f6-b46c-0fbb03471889"},"vehicle_type_id":"4","last_reported":1703109972,"current_range_meters":30400,"station_id":"ce4bhh92rcd13ifvqfi0","pricing_plan_id":"free"},{"bike_id":"cbc8db6e-b7c8-4d73-a26d-df7e35eaa78e","system_id":"levelo_inurba_marseille","lat":43.336134,"lon":5.410341,"is_reserved":false,"is_disabled":false,"rental_uris":{"android":"levelo://app?vid=cbc8db6e-b7c8-4d73-a26d-df7e35eaa78e","ios":"levelo://app?vid=cbc8db6e-b7c8-4d73-a26d-df7e35eaa78e"},"vehicle_type_id":"4","last_reported":1703109972,"current_range_meters":12800,"station_id":"ce4bhqh2rcd13ifvqhmg","pricing_plan_id":"free"},{"bike_id":"c1f42430-601a-4dd5-9cde-e0506b6dcf3a","system_id":"levelo_inurba_marseille","lat":43.276769,"lon":5.388787,"is_reserved":false,"is_disabled":false,"rental_uris":{"android":"levelo://app?vid=c1f42430-601a-4dd5-9cde-e0506b6dcf3a","ios":"levelo://app?vid=c1f42430-601a-4dd5-9cde-e0506b6dcf3a"},"vehicle_type_id":"4","last_reported":1703109972,"current_range_meters":12400,"station_id":"ce4bhi12rcd13ifvqfo0","pricing_plan_id":"free"},{"bike_id":"21f4a169-6e35-4a8e-94ba-dad1b033815c","system_id":"levelo_inurba_marseille","lat":43.31078,"lon":5.42426,"is_reserved":false,"is_disabled":false,"rental_uris":{"android":"levelo://app?vid=21f4a169-6e35-4a8e-94ba-dad1b033815c","ios":"levelo://app?vid=21f4a169-6e35-4a8e-94ba-dad1b033815c"},"vehicle_type_id":"4","last_reported":1703109972,"current_range_meters":4400,"station_id":"ce4bhp92rcd13ifvqhag","pricing_plan_id":"free"},{"bike_id":"d04c46a2-68b4-4f99-b96a-186b6aa7a02e","system_id":"levelo_inurba_marseille","lat":43.317121,"lon":5.423936,"is_reserved":false,"is_disabled":false,"rental_uris":{"android":"levelo://app?vid=d04c46a2-68b4-4f99-b96a-186b6aa7a02e","ios":"levelo://app?vid=d04c46a2-68b4-4f99-b96a-186b6aa7a02e"},"vehicle_type_id":"4","last_reported":1703109972,"current_range_meters":28000,"station_id":"ce4bhp92rcd13ifvqhbg","pricing_plan_id":"free"},{"bike_id":"6e68da4c-e104-449b-b675-1a0f7da0547c","system_id":"levelo_inurba_marseille","lat":43.310785,"lon":5.424305,"is_reserved":false,"is_disabled":false,"rental_uris":{"android":"levelo://app?vid=6e68da4c-e104-449b-b675-1a0f7da0547c","ios":"levelo://app?vid=6e68da4c-e104-449b-b675-1a0f7da0547c"},"vehicle_type_id":"4","last_reported":1703109972,"current_range_meters":27200,"station_id":"ce4bhp92rcd13ifvqhag","pricing_plan_id":"free"},{"bike_id":"f528da9a-1eb6-4d93-a267-7f75ce4161f8","system_id":"levelo_inurba_marseille","lat":43.340804,"lon":5.410219,"is_reserved":false,"is_disabled":false,"rental_uris":{"android":"levelo://app?vid=f528da9a-1eb6-4d93-a267-7f75ce4161f8","ios":"levelo://app?vid=f528da9a-1eb6-4d93-a267-7f75ce4161f8"},"vehicle_type_id":"4","last_reported":1703109972,"current_range_meters":12000,"station_id":"ce4bhqh2rcd13ifvqhlg","pricing_plan_id":"free"},{"bike_id":"974dc7db-ff3c-4554-8964-132f9db52d9b","system_id":"levelo_inurba_marseille","lat":43.276092,"lon":5.395289,"is_reserved":false,"is_disabled":false,"rental_uris":{"android":"levelo://app?vid=974dc7db-ff3c-4554-8964-132f9db52d9b","ios":"levelo://app?vid=974dc7db-ff3c-4554-8964-132f9db52d9b"},"vehicle_type_id":"4","last_reported":1703109972,"current_range_meters":2800,"station_id":"","pricing_plan_id":"free"},{"bike_id":"46ff99bc-ea7c-44a9-9898-8644e7dbb9b0","system_id":"levelo_inurba_marseille","lat":43.274103,"lon":5.394016,"is_reserved":false,"is_disabled":false,"rental_uris":{"android":"levelo://app?vid=46ff99bc-ea7c-44a9-9898-8644e7dbb9b0","ios":"levelo://app?vid=46ff99bc-ea7c-44a9-9898-8644e7dbb9b0"},"vehicle_type_id":"4","last_reported":1703109972,"current_range_meters":24800,"station_id":"ce4bhdp2rcd13ifvqf20","pricing_plan_id":"free"},{"bike_id":"98a340da-f753-4516-9884-ebd83f943ec7","system_id":"levelo_inurba_marseille","lat":43.295523,"lon":5.422926,"is_reserved":false,"is_disabled":false,"rental_uris":{"android":"levelo://app?vid=98a340da-f753-4516-9884-ebd83f943ec7","ios":"levelo://app?vid=98a340da-f753-4516-9884-ebd83f943ec7"},"vehicle_type_id":"4","last_reported":1703109972,"current_range_meters":31200,"station_id":"ce4bhph2rcd13ifvqhdg","pricing_plan_id":"free"},{"bike_id":"eeab07b9-8349-4f24-9799-eca385be2f04","system_id":"levelo_inurba_marseille","lat":43.295523,"lon":5.422926,"is_reserved":false,"is_disabled":false,"rental_uris":{"android":"levelo://app?vid=eeab07b9-8349-4f24-9799-eca385be2f04","ios":"levelo://app?vid=eeab07b9-8349-4f24-9799-eca385be2f04"},"vehicle_type_id":"4","last_reported":1703109972,"current_range_meters":19600,"station_id":"ce4bhph2rcd13ifvqhdg","pricing_plan_id":"free"},{"bike_id":"b55db1a0-b820-479b-9929-7610c21584c5","system_id":"levelo_inurba_marseille","lat":43.295511,"lon":5.422926,"is_reserved":false,"is_disabled":false,"rental_uris":{"android":"levelo://app?vid=b55db1a0-b820-479b-9929-7610c21584c5","ios":"levelo://app?vid=b55db1a0-b820-479b-9929-7610c21584c5"},"vehicle_type_id":"4","last_reported":1703109972,"current_range_meters":20400,"station_id":"ce4bhph2rcd13ifvqhdg","pricing_plan_id":"free"},{"bike_id":"b5256d90-edcd-4464-ba20-d3a39a54a145","system_id":"levelo_inurba_marseille","lat":43.278128,"lon":5.407195,"is_reserved":false,"is_disabled":false,"rental_uris":{"android":"levelo://app?vid=b5256d90-edcd-4464-ba20-d3a39a54a145","ios":"levelo://app?vid=b5256d90-edcd-4464-ba20-d3a39a54a145"},"vehicle_type_id":"4","last_reported":1703109972,"current_range_meters":13600,"station_id":"ce4bhnh2rcd13ifvqgtg","pricing_plan_id":"free"},{"bike_id":"1cf29c8c-3aa7-45da-9151-6233028e2361","system_id":"levelo_inurba_marseille","lat":43.278128,"lon":5.407195,"is_reserved":false,"is_disabled":false,"rental_uris":{"android":"levelo://app?vid=1cf29c8c-3aa7-45da-9151-6233028e2361","ios":"levelo://app?vid=1cf29c8c-3aa7-45da-9151-6233028e2361"},"vehicle_type_id":"4","last_reported":1703109972,"current_range_meters":28000,"station_id":"ce4bhnh2rcd13ifvqgtg","pricing_plan_id":"free"},{"bike_id":"21a34569-8594-42a0-8533-00e3a5db301d","system_id":"levelo_inurba_marseille","lat":43.278128,"lon":5.407195,"is_reserved":false,"is_disabled":false,"rental_uris":{"android":"levelo://app?vid=21a34569-8594-42a0-8533-00e3a5db301d","ios":"levelo://app?vid=21a34569-8594-42a0-8533-00e3a5db301d"},"vehicle_type_id":"4","last_reported":1703109972,"current_range_meters":6400,"station_id":"ce4bhnh2rcd13ifvqgtg","pricing_plan_id":"free"},{"bike_id":"7c676a95-1db7-4ff9-8d6e-22bd2a2ea320","system_id":"levelo_inurba_marseille","lat":43.278128,"lon":5.407195,"is_reserved":false,"is_disabled":false,"rental_uris":{"android":"levelo://app?vid=7c676a95-1db7-4ff9-8d6e-22bd2a2ea320","ios":"levelo://app?vid=7c676a95-1db7-4ff9-8d6e-22bd2a2ea320"},"vehicle_type_id":"4","last_reported":1703109972,"current_range_meters":23200,"station_id":"ce4bhnh2rcd13ifvqgtg","pricing_plan_id":"free"},{"bike_id":"d0eda7a8-6590-4df2-9cf0-0465bef86fe9","system_id":"levelo_inurba_marseille","lat":43.278128,"lon":5.407195,"is_reserved":false,"is_disabled":false,"rental_uris":{"android":"levelo://app?vid=d0eda7a8-6590-4df2-9cf0-0465bef86fe9","ios":"levelo://app?vid=d0eda7a8-6590-4df2-9cf0-0465bef86fe9"},"vehicle_type_id":"4","last_reported":1703109972,"current_range_meters":10000,"station_id":"ce4bhnh2rcd13ifvqgtg","pricing_plan_id":"free"},{"bike_id":"74943036-25cd-4db1-9d64-a6233819c22c","system_id":"levelo_inurba_marseille","lat":43.278128,"lon":5.407195,"is_reserved":false,"is_disabled":false,"rental_uris":{"android":"levelo://app?vid=74943036-25cd-4db1-9d64-a6233819c22c","ios":"levelo://app?vid=74943036-25cd-4db1-9d64-a6233819c22c"},"vehicle_type_id":"4","last_reported":1703109972,"current_range_meters":31200,"station_id":"ce4bhnh2rcd13ifvqgtg","pricing_plan_id":"free"},{"bike_id":"35d387df-82f5-4f2c-9bff-40eba01fd9e9","system_id":"levelo_inurba_marseille","lat":43.278128,"lon":5.407195,"is_reserved":false,"is_disabled":false,"rental_uris":{"android":"levelo://app?vid=35d387df-82f5-4f2c-9bff-40eba01fd9e9","ios":"levelo://app?vid=35d387df-82f5-4f2c-9bff-40eba01fd9e9"},"vehicle_type_id":"4","last_reported":1703109972,"current_range_meters":23200,"station_id":"ce4bhnh2rcd13ifvqgtg","pricing_plan_id":"free"},{"bike_id":"6d6a77f9-5610-4bc0-924f-756e664671ed","system_id":"levelo_inurba_marseille","lat":43.269467,"lon":5.386439,"is_reserved":false,"is_disabled":false,"rental_uris":{"android":"levelo://app?vid=6d6a77f9-5610-4bc0-924f-756e664671ed","ios":"levelo://app?vid=6d6a77f9-5610-4bc0-924f-756e664671ed"},"vehicle_type_id":"4","last_reported":1703109972,"current_range_meters":23200,"station_id":"ce4bhh92rcd13ifvqfh0","pricing_plan_id":"free"},{"bike_id":"15e97754-3170-45f7-876f-aac75b656ea9","system_id":"levelo_inurba_marseille","lat":43.279465,"lon":5.410561,"is_reserved":false,"is_disabled":false,"rental_uris":{"android":"levelo://app?vid=15e97754-3170-45f7-876f-aac75b656ea9","ios":"levelo://app?vid=15e97754-3170-45f7-876f-aac75b656ea9"},