{"last_updated":1728594529,"ttl":60,"version":"2.2","data":{"bikes":[{"bike_id":"1f98b9bc-ec5c-4e61-a9da-d4a99dc55ec0","system_id":"levelo_inurba_marseille","lat":43.28847,"lon":5.35856,"is_reserved":false,"is_disabled":false,"rental_uris":{"android":"levelo://app?vid=1f98b9bc-ec5c-4e61-a9da-d4a99dc55ec0","ios":"levelo://app?vid=1f98b9bc-ec5c-4e61-a9da-d4a99dc55ec0"},"vehicle_type_id":"4","last_reported":1728594529,"current_range_meters":28000,"station_id":"ce4bhb12rcd13ifvqem0","pricing_plan_id":"cebpf4jnsgd1na2vs0mg"},{"bike_id":"78bd00ee-cfc3-4e09-bf3b-3c0deb6ca425","system_id":"levelo_inurba_marseille","lat":43.30357,"lon":5.41884,"is_reserved":false,"is_disabled":false,"rental_uris":{"android":"levelo://app?vid=78bd00ee-cfc3-4e09-bf3b-3c0deb6ca425","ios":"levelo://app?vid=78bd00ee-cfc3-4e09-bf3b-3c0deb6ca425"},"vehicle_type_id":"4","last_reported":1728594529,"current_range_meters":36400,"station_id":"ce4bhop2rcd13ifvqh7g","pricing_plan_id":"cebpf4jnsgd1na2vs0mg"},{"bike_id":"5948840b-74a7-4e26-aedb-9357e9368576","system_id":"levelo_inurba_marseille","lat":43.298123,"lon":5.381049,"is_reserved":false,"is_disabled":false,"rental_uris":{"android":"levelo://app?vid=5948840b-74a7-4e26-aedb-9357e9368576","ios":"levelo://app?vid=5948840b-74a7-4e26-aedb-9357e9368576"},"vehicle_type_id":"4","last_reported":1728594529,"current_range_meters":4000,"station_id":"ce4bh512rcd13ifvqe3g","pricing_plan_id":"cebpf4jnsgd1na2vs0mg"},{"bike_id":"840c1441-91c8-450d-875e-79913f6e6df4","system_id":"levelo_inurba_marseille","lat":43.30628,"lon":5.37216,"is_reserved":false,"is_disabled":false,"rental_uris":{"android":"levelo://app?vid=840c1441-91c8-450d-875e-79913f6e6df4","ios":"levelo://app?vid=840c1441-91c8-450d-875e-79913f6e6df4"},"vehicle_type_id":"4","last_reported":1728594529,"current_range_meters":11600,"station_id":"ce4bgqh2rcd13ifvqc4g","pricing_plan_id":"cebpf4jnsgd1na2vs0mg"},{"bike_id":"16a91ca7-a458-4be1-a381-b095a0bb5509","system_id":"levelo_inurba_marseille","lat":43.2872,"lon":5.37928,"is_reserved":false,"is_disabled":false,"rental_uris":{"android":"levelo://app?vid=16a91ca7-a458-4be1-a381-b095a0bb5509","ios":"levelo://app?vid=16a91ca7-a458-4be1-a381-b095a0bb5509"},"vehicle_type_id":"4","last_reported":1728594529,"current_range_meters":3200,"station_id":"ce4bh9p2rcd13ifvqec0","pricing_plan_id":"cebpf4jnsgd1na2vs0mg"},{"bike_id":"a84aee2d-b800-46f4-9a23-88116184366c","system_id":"levelo_inurba_marseille","lat":43.293008,"lon":5.374609,"is_reserved":false,"is_disabled":false,"rental_uris":{"android":"levelo://app?vid=a84aee2d-b800-46f4-9a23-88116184366c","ios":"levelo://app?vid=a84aee2d-b800-46f4-9a23-88116184366c"},"vehicle_type_id":"4","last_reported":1728594529,"current_range_meters":28800,"station_id":"ce4bgi12rcd13ifvqb70","pricing_plan_id":"cebpf4jnsgd1na2vs0mg"},{"bike_id":"3342229a-448c-4e67-8c8b-1ef839d1dd73","system_id":"levelo_inurba_marseille","lat":43.26562,"lon":5.37288,"is_reserved":false,"is_disabled":false,"rental_uris":{"android":"levelo://app?vid=3342229a-448c-4e67-8c8b-1ef839d1dd73","ios":"levelo://app?vid=3342229a-448c-4e67-8c8b-1ef839d1dd73"},"vehicle_type_id":"4","last_reported":1728594529,"current_range_meters":38800,"station_id":"ce4bhg12rcd13ifvqf70","pricing_plan_id":"cebpf4jnsgd1na2vs0mg"},{"bike_id":"4df3827b-0c3a-4d8b-b99c-c7ce02d9fc6d","system_id":"levelo_inurba_marseille","lat":43.25502,"lon":5.37654,"is_reserved":false,"is_disabled":false,"rental_uris":{"android":"levelo://app?vid=4df3827b-0c3a-4d8b-b99c-c7ce02d9fc6d","ios":"levelo://app?vid=4df3827b-0c3a-4d8b-b99c-c7ce02d9fc6d"},"vehicle_type_id":"4","last_reported":1728594529,"current_range_meters":38800,"station_id":"ce4bhh12rcd13ifvqff0","pricing_plan_id":"cebpf4jnsgd1na2vs0mg"},{"bike_id":"c244c6f9-bade-42d4-83fb-bcbe5ab70ddd","system_id":"levelo_inurba_marseille","lat":43.24394,"lon":5.37059,"is_reserved":false,"is_disabled":false,"rental_uris":{"android":"levelo://app?vid=c244c6f9-bade-42d4-83fb-bcbe5ab70ddd","ios":"levelo://app?vid=c244c6f9-bade-42d4-83fb-bcbe5ab70ddd"},"vehicle_type_id":"4","last_reported":1728594529,"current_range_meters":32000,"station_id":"ce4bhhh2rcd13ifvqfk0","pricing_plan_id":"cebpf4jnsgd1na2vs0mg"},{"bike_id":"84766356-215a-4127-9cea-11f0351a84c4","system_id":"levelo_inurba_marseille","lat":43.30431,"lon":5.38881,"is_reserved":false,"is_disabled":false,"rental_uris":{"android":"levelo://app?vid=84766356-215a-4127-9cea-11f0351a84c4","ios":"levelo://app?vid=84766356-215a-4127-9cea-11f0351a84c4"},"vehicle_type_id":"4","last_reported":1728594529,"current_range_meters":37600,"station_id":"ce4bgk12rcd13ifvqbi0","pricing_plan_id":"cebpf4jnsgd1na2vs0mg"},{"bike_id":"7a9b4a24-80bc-423f-86f6-90903bd77281","system_id":"levelo_inurba_marseille","lat":43.29277,"lon":5.3685,"is_reserved":false,"is_disabled":false,"rental_uris":{"android":"levelo://app?vid=7a9b4a24-80bc-423f-86f6-90903bd77281","ios":"levelo://app?vid=7a9b4a24-80bc-423f-86f6-90903bd77281"},"vehicle_type_id":"4","last_reported":1728594529,"current_range_meters":38800,"station_id":"ce4bhbp2rcd13ifvqesg","pricing_plan_id":"cebpf4jnsgd1na2vs0mg"},{"bike_id":"8118d597-57a6-4f23-b815-232b2fa6bbe7","system_id":"levelo_inurba_marseille","lat":43.29262,"lon":5.40911,"is_reserved":false,"is_disabled":false,"rental_uris":{"android":"levelo://app?vid=8118d597-57a6-4f23-b815-232b2fa6bbe7","ios":"levelo://app?vid=8118d597-57a6-4f23-b815-232b2fa6bbe7"},"vehicle_type_id":"4","last_reported":1728594529,"current_range_meters":35200,"station_id":"ce4bh192rcd13ifvqdc0","pricing_plan_id":"cebpf4jnsgd1na2vs0mg"},{"bike_id":"5ce2a66a-b949-4239-ae17-6ee1644fc5f2","system_id":"levelo_inurba_marseille","lat":43.25501,"lon":5.3765,"is_reserved":false,"is_disabled":false,"rental_uris":{"android":"levelo://app?vid=5ce2a66a-b949-4239-ae17-6ee1644fc5f2","ios":"levelo://app?vid=5ce2a66a-b949-4239-ae17-6ee1644fc5f2"},"vehicle_type_id":"4","last_reported":1728594529,"current_range_meters":18000,"station_id":"ce4bhh12rcd13ifvqff0","pricing_plan_id":"cebpf4jnsgd1na2vs0mg"},{"bike_id":"6cb2fd54-0aca-4f7d-aadb-bc057dc4fb59","system_id":"levelo_inurba_marseille","lat":43.23073,"lon":5.35492,"is_reserved":false,"is_disabled":false,"rental_uris":{"android":"levelo://app?vid=6cb2fd54-0aca-4f7d-aadb-bc057dc4fb59","ios":"levelo://app?vid=6cb2fd54-0aca-4f7d-aadb-bc057dc4fb59"},"vehicle_type_id":"4","last_reported":1728594529,"current_range_meters":31200,"station_id":"cpo3342slgdg3j2ifvpg","pricing_plan_id":"cebpf4jnsgd1na2vs0mg"},{"bike_id":"c668079b-2121-4909-8183-44524560ae1b","system_id":"levelo_inurba_marseille","lat":43.27218,"lon":5.39186,"is_reserved":false,"is_disabled":false,"rental_uris":{"android":"levelo://app?vid=c668079b-2121-4909-8183-44524560ae1b","ios":"levelo://app?vid=c668079b-2121-4909-8183-44524560ae1b"},"vehicle_type_id":"4","last_reported":1728594529,"current_range_meters":28800,"station_id":"ce4bhhp2rcd13ifvqfm0","pricing_plan_id":"cebpf4jnsgd1na2vs0mg"},{"bike_id":"f2e028c1-fc0a-4abb-ba66-1b5a09c418cc","system_id":"levelo_inurba_marseille","lat":43.299759,"lon":5.384827,"is_reserved":false,"is_disabled":false,"rental_uris":{"android":"levelo://app?vid=f2e028c1-fc0a-4abb-ba66-1b5a09c418cc","ios":"levelo://app?vid=f2e028c1-fc0a-4abb-ba66-1b5a09c418cc"},"vehicle_type_id":"4","last_reported":1728594529,"current_range_meters":36400,"station_id":"ce4bgj92rcd13ifvqbd0","pricing_plan_id":"cebpf4jnsgd1na2vs0mg"},{"bike_id":"11cbb92f-a092-4ed8-a934-00df8e57bc3a","system_id":"levelo_inurba_marseille","lat":43.29934,"lon":5.3746,"is_reserved":false,"is_disabled":false,"rental_uris":{"android":"levelo://app?vid=11cbb92f-a092-4ed8-a934-00df8e57bc3a","ios":"levelo://app?vid=11cbb92f-a092-4ed8-a934-00df8e57bc3a"},"vehicle_type_id":"4","last_reported":1728594529,"current_range_meters":28400,"station_id":"ce4bgjh2rcd13ifvqbg0","pricing_plan_id":"cebpf4jnsgd1na2vs0mg"},{"bike_id":"7ae79265-a4f3-408c-9c9a-ba4aa51d6423","system_id":"levelo_inurba_marseille","lat":43.24671,"lon":5.38157,"is_reserved":false,"is_disabled":false,"rental_uris":{"android":"levelo://app?vid=7ae79265-a4f3-408c-9c9a-ba4aa51d6423","ios":"levelo://app?vid=7ae79265-a4f3-408c-9c9a-ba4aa51d6423"},"vehicle_type_id":"4","last_reported":1728594529,"current_range_meters":37600,"station_id":"ce4bhih2rcd13ifvqfr0","pricing_plan_id":"cebpf4jnsgd1na2vs0mg"},{"bike_id":"64eed1d5-ad43-4843-90ca-92dd71d6f243","system_id":"levelo_inurba_marseille","lat":43.284592,"lon":5.358939,"is_reserved":false,"is_disabled":false,"rental_uris":{"android":"levelo://app?vid=64eed1d5-ad43-4843-90ca-92dd71d6f243","ios":"levelo://app?vid=64eed1d5-ad43-4843-90ca-92dd71d6f243"},"vehicle_type_id":"4","last_reported":1728594529,"current_range_meters":38800,"station_id":"ce4bhah2rcd13ifvqei0","pricing_plan_id":"cebpf4jnsgd1na2vs0mg"},{"bike_id":"0d1a388f-a31d-472e-afc1-ba8d098fb8a6","system_id":"levelo_inurba_marseille","lat":43.28858,"lon":5.35852,"is_reserved":false,"is_disabled":false,"rental_uris":{"android":"levelo://app?vid=0d1a388f-a31d-472e-afc1-ba8d098fb8a6","ios":"levelo://app?vid=0d1a388f-a31d-472e-afc1-ba8d098fb8a6"},"vehicle_type_id":"4","last_reported":1728594529,"current_range_meters":38800,"station_id":"ce4bhb12rcd13ifvqem0","pricing_plan_id":"cebpf4jnsgd1na2vs0mg"},{"bike_id":"022472f3-a1fe-4547-908c-01e934a820eb","system_id":"levelo_inurba_marseille","lat":43.25505,"lon":5.37651,"is_reserved":false,"is_disabled":false,"rental_uris":{"android":"levelo://app?vid=022472f3-a1fe-4547-908c-01e934a820eb","ios":"levelo://app?vid=022472f3-a1fe-4547-908c-01e934a820eb"},"vehicle_type_id":"4","last_reported":1728594529,"current_range_meters":31200,"station_id":"ce4bhh12rcd13ifvqff0","pricing_plan_id":"cebpf4jnsgd1na2vs0mg"},{"bike_id":"e3922387-448d-47fb-a213-f4adf9e12e50","system_id":"levelo_inurba_marseille","lat":43.28283,"lon":5.39825,"is_reserved":false,"is_disabled":false,"rental_uris":{"android":"levelo://app?vid=e3922387-448d-47fb-a213-f4adf9e12e50","ios":"levelo://app?vid=e3922387-448d-47fb-a213-f4adf9e12e50"},"vehicle_type_id":"4","last_reported":1728594529,"current_range_meters":3200,"station_id":"ce4bhn92rcd13ifvqgrg","pricing_plan_id":"cebpf4jnsgd1na2vs0mg"},{"bike_id":"6fccb379-adca-4617-bbeb-442137e4c023","system_id":"levelo_inurba_marseille","lat":43.28474,"lon":5.3588,"is_reserved":false,"is_disabled":false,"rental_uris":{"android":"levelo://app?vid=6fccb379-adca-4617-bbeb-442137e4c023","ios":"levelo://app?vid=6fccb379-adca-4617-bbeb-442137e4c023"},"vehicle_type_id":"4","last_reported":1728594529,"current_range_meters":20400,"station_id":"ce4bhah2rcd13ifvqei0","pricing_plan_id":"cebpf4jnsgd1na2vs0mg"},{"bike_id":"f07b903c-a5b3-4664-ad8a-d539ff30f11c","system_id":"levelo_inurba_marseille","lat":43.30557,"lon":5.36533,"is_reserved":false,"is_disabled":false,"rental_uris":{"android":"levelo://app?vid=f07b903c-a5b3-4664-ad8a-d539ff30f11c","ios":"levelo://app?vid=f07b903c-a5b3-4664-ad8a-d539ff30f11c"},"vehicle_type_id":"4","last_reported":1728594529,"current_range_meters":38800,"station_id":"ce4bgs12rcd13ifvqcag","pricing_plan_id":"cebpf4jnsgd1na2vs0mg"},{"bike_id":"f21ff7cf-a5e7-4036-9a78-a2aa83b6340b","system_id":"levelo_inurba_marseille","lat":43.23202,"lon":5.35553,"is_reserved":false,"is_disabled":false,"rental_uris":{"android":"levelo://app?vid=f21ff7cf-a5e7-4036-9a78-a2aa83b6340b","ios":"levelo://app?vid=f21ff7cf-a5e7-4036-9a78-a2aa83b6340b"},"vehicle_type_id":"4","last_reported":1728594529,"current_range_meters":38800,"station_id":"ce4bhu92rcd13ifvqi70","pricing_plan_id":"cebpf4jnsgd1na2vs0mg"},{"bike_id":"c67149bb-115d-438c-97e9-4efad7b2b953","system_id":"levelo_inurba_marseille","lat":43.29521,"lon":5.37497,"is_reserved":false,"is_disabled":false,"rental_uris":{"android":"levelo://app?vid=c67149bb-115d-438c-97e9-4efad7b2b953","ios":"levelo://app?vid=c67149bb-115d-438c-97e9-4efad7b2b953"},"vehicle_type_id":"4","last_reported":1728594529,"current_range_meters":16400,"station_id":"ce4bgkp2rcd13ifvqbmg","pricing_plan_id":"cebpf4jnsgd1na2vs0mg"},{"bike_id":"b3de404d-5abc-4903-b89a-dee8e2de833a","system_id":"levelo_inurba_marseille","lat":43.28045,"lon":5.36951,"is_reserved":false,"is_disabled":false,"rental_uris":{"android":"levelo://app?vid=b3de404d-5abc-4903-b89a-dee8e2de833a","ios":"levelo://app?vid=b3de404d-5abc-4903-b89a-dee8e2de833a"},"vehicle_type_id":"4","last_reported":1728594529,"current_range_meters":26000,"station_id":"ce4bha12rcd13ifvqef0","pricing_plan_id":"cebpf4jnsgd1na2vs0mg"},{"bike_id":"db0f29d4-48fb-4f25-9465-ea5338ef12e5","system_id":"levelo_inurba_marseille","lat":43.30891,"lon":5.39625,"is_reserved":false,"is_disabled":false,"rental_uris":{"android":"levelo://app?vid=db0f29d4-48fb-4f25-9465-ea5338ef12e5","ios":"levelo://app?vid=db0f29d4-48fb-4f25-9465-ea5338ef12e5"},"vehicle_type_id":"4","last_reported":1728594529,"current_range_meters":14400,"station_id":"ce4bh012rcd13ifvqcv0","pricing_plan_id":"cebpf4jnsgd1na2vs0mg"},{"bike_id":"1482f819-5f1d-4428-9c78-496de59b7053","system_id":"levelo_inurba_marseille","lat":43.30882,"lon":5.37186,"is_reserved":false,"is_disabled":false,"rental_uris":{"android":"levelo://app?vid=1482f819-5f1d-4428-9c78-496de59b7053","ios":"levelo://app?vid=1482f819-5f1d-4428-9c78-496de59b7053"},"vehicle_type_id":"4","last_reported":1728594529,"current_range_meters":10800,"station_id":"ce4bguh2rcd13ifvqckg","pricing_plan_id":"cebpf4jnsgd1na2vs0mg"},{"bike_id":"6302552d-0538-4406-bf49-43803291e745","system_id":"levelo_inurba_marseille","lat":43.30429,"lon":5.39747,"is_reserved":false,"is_disabled":false,"rental_uris":{"android":"levelo://app?vid=6302552d-0538-4406-bf49-43803291e745","ios":"levelo://app?vid=6302552d-0538-4406-bf49-43803291e745"},"vehicle_type_id":"4","last_reported":1728594529,"current_range_meters":38800,"station_id":"ce4bh092rcd13ifvqd20","pricing_plan_id":"cebpf4jnsgd1na2vs0mg"},{"bike_id":"86f1a2d4-4c8e-42a8-8d84-44de2c62ad54","system_id":"levelo_inurba_marseille","lat":43.3089,"lon":5.37174,"is_reserved":false,"is_disabled":false,"rental_uris":{"android":"levelo://app?vid=86f1a2d4-4c8e-42a8-8d84-44de2c62ad54","ios":"levelo://app?vid=86f1a2d4-4c8e-42a8-8d84-44de2c62ad54"},"vehicle_type_id":"4","last_reported":1728594529,"current_range_meters":30400,"station_id":"ce4bguh2rcd13ifvqckg","pricing_plan_id":"cebpf4jnsgd1na2vs0mg"},{"bike_id":"9a44d569-bd5b-472f-b88d-7ecf3b6b15ff","system_id":"levelo_inurba_marseille","lat":43.28848,"lon":5.35857,"is_reserved":false,"is_disabled":false,"rental_uris":{"android":"levelo://app?vid=9a44d569-bd5b-472f-b88d-7ecf3b6b15ff","ios":"levelo://app?vid=9a44d569-bd5b-472f-b88d-7ecf3b6b15ff"},"vehicle_type_id":"4","last_reported":1728594529,"current_range_meters":24800,"station_id":"ce4bhb12rcd13ifvqem0","pricing_plan_id":"cebpf4jnsgd1na2vs0mg"},{"bike_id":"6e7d9ad6-b3f3-42f9-8e61-c655b64004ec","system_id":"levelo_inurba_marseille","lat":43.3118,"lon":5.38706,"is_reserved":false,"is_disabled":false,"rental_uris":{"android":"levelo://app?vid=6e7d9ad6-b3f3-42f9-8e61-c655b64004ec","ios":"levelo://app?vid=6e7d9ad6-b3f3-42f9-8e61-c655b64004ec"},"vehicle_type_id":"4","last_reported":1728594529,"current_range_meters":38800,"station_id":"ce4bgv12rcd13ifvqcp0","pricing_plan_id":"cebpf4jnsgd1na2vs0mg"},{"bike_id":"9f04388b-2d34-4589-998f-7bb2bb920f94","system_id":"levelo_inurba_marseille","lat":43.278097,"lon":5.428017,"is_reserved":false,"is_disabled":false,"rental_uris":{"android":"levelo://app?vid=9f04388b-2d34-4589-998f-7bb2bb920f94","ios":"levelo://app?vid=9f04388b-2d34-4589-998f-7bb2bb920f94"},"vehicle_type_id":"4","last_reported":1728594529,"current_range_meters":28000,"station_id":"ce4bhl12rcd13ifvqgf0","pricing_plan_id":"cebpf4jnsgd1na2vs0mg"},{"bike_id":"8489a8f2-98b9-4f3f-82d7-366096c80597","system_id":"levelo_inurba_marseille","lat":43.31535,"lon":5.38038,"is_reserved":false,"is_disabled":false,"rental_uris":{"android":"levelo://app?vid=8489a8f2-98b9-4f3f-82d7-366096c80597","ios":"levelo://app?vid=8489a8f2-98b9-4f3f-82d7-366096c80597"},"vehicle_type_id":"4","last_reported":1728594529,"current_range_meters":16000,"station_id":"ce4bhsp2rcd13ifvqi50","pricing_plan_id":"cebpf4jnsgd1na2vs0mg"},{"bike_id":"1c1a2784-b81d-441c-bd23-c75be75afda8","system_id":"levelo_inurba_marseille","lat":43.28719,"lon":5.37929,"is_reserved":false,"is_disabled":false,"rental_uris":{"android":"levelo://app?vid=1c1a2784-b81d-441c-bd23-c75be75afda8","ios":"levelo://app?vid=1c1a2784-b81d-441c-bd23-c75be75afda8"},"vehicle_type_id":"4","last_reported":1728594529,"current_range_meters":38000,"station_id":"ce4bh9p2rcd13ifvqec0","pricing_plan_id":"cebpf4jnsgd1na2vs0mg"},{"bike_id":"57add596-5b6d-4189-8e90-4c3eff7a193a","system_id":"levelo_inurba_marseille","lat":43.31364,"lon":5.38497,"is_reserved":false,"is_disabled":false,"rental_uris":{"android":"levelo://app?vid=57add596-5b6d-4189-8e90-4c3eff7a193a","ios":"levelo://app?vid=57add596-5b6d-4189-8e90-4c3eff7a193a"},"vehicle_type_id":"4","last_reported":1728594529,"current_range_meters":8000,"station_id":"ce4bgt92rcd13ifvqcf0","pricing_plan_id":"cebpf4jnsgd1na2vs0mg"},{"bike_id":"9db4d985-7949-4b7f-b898-6a0ca7ba3693","system_id":"levelo_inurba_marseille","lat":43.33764,"lon":5.37438,"is_reserved":false,"is_disabled":false,"rental_uris":{"android":"levelo://app?vid=9db4d985-7949-4b7f-b898-6a0ca7ba3693","ios":"levelo://app?vid=9db4d985-7949-4b7f-b898-6a0ca7ba3693"},"vehicle_type_id":"4","last_reported":1728594529,"current_range_meters":33600,"station_id":"ce4rr2p2rcd13i802rgg","pricing_plan_id":"cebpf4jnsgd1na2vs0mg"},{"bike_id":"325ba49d-0962-4176-98a0-49b50b02aaf6","system_id":"levelo_inurba_marseille","lat":43.31887,"lon":5.4074,"is_reserved":false,"is_disabled":false,"rental_uris":{"android":"levelo://app?vid=325ba49d-0962-4176-98a0-49b50b02aaf6","ios":"levelo://app?vid=325ba49d-0962-4176-98a0-49b50b02aaf6"},"vehicle_type_id":"4","last_reported":1728594529,"current_range_meters":22800,"station_id":"ce4bhq12rcd13ifvqhig","pricing_plan_id":"cebpf4jnsgd1na2vs0mg"},{"bike_id":"bd2aec49-c05b-410c-856c-a14327810257","system_id":"levelo_inurba_marseille","lat":43.30881,"lon":5.39636,"is_reserved":false,"is_disabled":false,"rental_uris":{"android":"levelo://app?vid=bd2aec49-c05b-410c-856c-a14327810257","ios":"levelo://app?vid=bd2aec49-c05b-410c-856c-a14327810257"},"vehicle_type_id":"4","last_reported":1728594529,"current_range_meters":40000,"station_id":"ce4bh012rcd13ifvqcv0","pricing_plan_id":"cebpf4jnsgd1na2vs0mg"},{"bike_id":"993d1cf8-e533-4dda-8405-3f2a846d5998","system_id":"levelo_inurba_marseille","lat":43.28714,"lon":5.37375,"is_reserved":false,"is_disabled":false,"rental_uris":{"android":"levelo://app?vid=993d1cf8-e533-4dda-8405-3f2a846d5998","ios":"levelo://app?vid=993d1cf8-e533-4dda-8405-3f2a846d5998"},"vehicle_type_id":"4","last_reported":1728594529,"current_range_meters":38800,"station_id":"ce4bh3p2rcd13ifvqdq0","pricing_plan_id":"cebpf4jnsgd1na2vs0mg"},{"bike_id":"79983262-f8b4-48c7-a7ea-97b97d4cbffb","system_id":"levelo_inurba_marseille","lat":43.29849,"lon":5.3627,"is_reserved":false,"is_disabled":false,"rental_uris":{"android":"levelo://app?vid=79983262-f8b4-48c7-a7ea-97b97d4cbffb","ios":"levelo://app?vid=79983262-f8b4-48c7-a7ea-97b97d4cbffb"},"vehicle_type_id":"4","last_reported":1728594529,"current_range_meters":2800,"station_id":"ce4bgpp2rcd13ifvqc3g","pricing_plan_id":"cebpf4jnsgd1na2vs0mg"},{"bike_id":"c2709d8c-182c-4c66-9678-32143d413767","system_id":"levelo_inurba_marseille","lat":43.22936,"lon":5.35378,"is_reserved":false,"is_disabled":false,"rental_uris":{"android":"levelo://app?vid=c2709d8c-182c-4c66-9678-32143d413767","ios":"levelo://app?vid=c2709d8c-182c-4c66-9678-32143d413767"},"vehicle_type_id":"4","last_reported":1728594529,"current_range_meters":35200,"station_id":"cpo3532slgdg3j2ikp40","pricing_plan_id":"cebpf4jnsgd1na2vs0mg"},{"bike_id":"9a7d337d-46a9-4a3e-ac0e-e31480127a4d","system_id":"levelo_inurba_marseille","lat":43.315346,"lon":5.380422,"is_reserved":false,"is_disabled":false,"rental_uris":{"android":"levelo://app?vid=9a7d337d-46a9-4a3e-ac0e-e31480127a4d","ios":"levelo://app?vid=9a7d337d-46a9-4a3e-ac0e-e31480127a4d"},"vehicle_type_id":"4","last_reported":1728594529,"current_range_meters":38000,"station_id":"ce4bhsp2rcd13ifvqi50","pricing_plan_id":"cebpf4jnsgd1na2vs0mg"},{"bike_id":"2d4abd7f-c14b-4585-934c-21c11d459db8","system_id":"levelo_inurba_marseille","lat":43.33739,"lon":5.39183,"is_reserved":false,"is_disabled":false,"rental_uris":{"android":"levelo://app?vid=2d4abd7f-c14b-4585-934c-21c11d459db8","ios":"levelo://app?vid=2d4abd7f-c14b-4585-934c-21c11d459db8"},"vehicle_type_id":"4","last_reported":1728594529,"current_range_meters":38000,"station_id":"ce4bhr92rcd13ifvqhsg","pricing_plan_id":"cebpf4jnsgd1na2vs0mg"},{"bike_id":"06d1f44d-bb6c-4374-8db9-6c0fc6ef35d8","system_id":"levelo_inurba_marseille","lat":43.317,"lon":5.40471,"is_reserved":false,"is_disabled":false,"rental_uris":{"android":"levelo://app?vid=06d1f44d-bb6c-4374-8db9-6c0fc6ef35d8","ios":"levelo://app?vid=06d1f44d-bb6c-4374-8db9-6c0fc6ef35d8"},"vehicle_type_id":"4","last_reported":1728594529,"current_range_meters":38800,"station_id":"ce4bh012rcd13ifvqd00","pricing_plan_id":"cebpf4jnsgd1na2vs0mg"},{"bike_id":"cc18b44e-b372-40c1-a502-a0e415ec8675","system_id":"levelo_inurba_marseille","lat":43.3015,"lon":5.38057,"is_reserved":false,"is_disabled":false,"rental_uris":{"android":"levelo://app?vid=cc18b44e-b372-40c1-a502-a0e415ec8675","ios":"levelo://app?vid=cc18b44e-b372-40c1-a502-a0e415ec8675"},"vehicle_type_id":"4","last_reported":1728594529,"current_range_meters":38800,"station_id":"ce4bgjp2rcd13ifvqbh0","pricing_plan_id":"cebpf4jnsgd1na2vs0mg"},{"bike_id":"ff5b8d05-63fc-4de8-a59e-d189fbf3b324","system_id":"levelo_inurba_marseille","lat":43.29847,"lon":5.36278,"is_reserved":false,"is_disabled":false,"rental_uris":{"android":"levelo://app?vid=ff5b8d05-63fc-4de8-a59e-d189fbf3b324","ios":"levelo://app?vid=ff5b8d05-63fc-4de8-a59e-d189fbf3b324"},"vehicle_type_id":"4","last_reported":1728594529,"current_range_meters":38800,"station_id":"ce4bgpp2rcd13ifvqc3g","pricing_plan_id":"cebpf4jnsgd1na2vs0mg"},{"bike_id":"b4e8bd77-a3ff-4b3b-85c3-f17839ebfc15","system_id":"levelo_inurba_marseille","lat":43.3176,"lon":5.39025,"is_reserved":false,"is_disabled":false,"rental_uris":{"android":"levelo://app?vid=b4e8bd77-a3ff-4b3b-85c3-f17839ebfc15","ios":"levelo://app?vid=b4e8bd77-a3ff-4b3b-85c3-f17839ebfc15"},"vehicle_type_id":"4","last_reported":1728594529,"current_range_meters":7200,"station_id":"ce4bhqp2rcd13ifvqhng","pricing_plan_id":"cebpf4jnsgd1na2vs0mg"},{"bike_id":"8bd59a58-2660-45b4-8226-e8841f733b4f","system_id":"levelo_inurba_marseille","lat":43.26949,"lon":5.40244,"is_reserved":false,"is_disabled":false,"rental_uris":{"android":"levelo://app?vid=8bd59a58-2660-45b4-8226-e8841f733b4f","ios":"levelo://app?vid=8bd59a58-2660-45b4-8226-e8841f733b4f"},"vehicle_type_id":"4","last_reported":1728594529,"current_range_meters":28400,"station_id":"cjm6bp8fraef2m0cb0m0","pricing_plan_id":"cebpf4jnsgd1na2vs0mg"},{"bike_id":"2b3648bb-e792-419a-96c0-e5aba7247d9b","system_id":"levelo_inurba_marseille","lat":43.2465,"lon":5.38902,"is_reserved":false,"is_disabled":false,"rental_uris":{"android":"levelo://app?vid=2b3648bb-e792-419a-96c0-e5aba7247d9b","ios":"levelo://app?vid=2b3648bb-e792-419a-96c0-e5aba7247d9b"},"vehicle_type_id":"4","last_reported":1728594529,"current_range_meters":16800,"station_id":"ce4bhg12rcd13ifvqf60","pricing_plan_id":"cebpf4jnsgd1na2vs0mg"},{"bike_id":"e6b691ef-b0ee-4002-937c-cff4da7a2600","system_id":"levelo_inurba_marseille","lat":43.28272,"lon":5.35063,"is_reserved":false,"is_disabled":false,"rental_uris":{"android":"levelo://app?vid=e6b691ef-b0ee-4002-937c-cff4da7a2600","ios":"levelo://app?vid=e6b691ef-b0ee-4002-937c-cff4da7a2600"},"vehicle_type_id":"4","last_reported":1728594529,"current_range_meters":12400,"station_id":"ce4bhbp2rcd13ifvqerg","pricing_plan_id":"cebpf4jnsgd1na2vs0mg"},{"bike_id":"d6bd0443-6119-4d53-93fa-6df04851d5c4","system_id":"levelo_inurba_marseille","lat":43.28473,"lon":5.38421,"is_reserved":false,"is_disabled":false,"rental_uris":{"android":"levelo://app?vid=d6bd0443-6119-4d53-93fa-6df04851d5c4","ios":"levelo://app?vid=d6bd0443-6119-4d53-93fa-6df04851d5c4"},"vehicle_type_id":"4","last_reported":1728594529,"current_range_meters":34000,"station_id":"ce4bh512rcd13ifvqe3g","pricing_plan_id":"cebpf4jnsgd1na2vs0mg"},{"bike_id":"f92a9fb8-9f73-4cf9-bc9b-2bdf5b520248","system_id":"levelo_inurba_marseille","lat":43.325419,"lon":5.414431,"is_reserved":false,"is_disabled":false,"rental_uris":{"android":"levelo://app?vid=f92a9fb8-9f73-4cf9-bc9b-2bdf5b520248","ios":"levelo://app?vid=f92a9fb8-9f73-4cf9-bc9b-2bdf5b520248"},"vehicle_type_id":"4","last_reported":1728594529,"current_range_meters":38800,"station_id":"ce4bhq12rcd13ifvqhhg","pricing_plan_id":"cebpf4jnsgd1na2vs0mg"},{"bike_id":"4b7be203-7111-4ecd-9808-00597656e983","system_id":"levelo_inurba_marseille","lat":43.33026,"lon":5.39042,"is_reserved":false,"is_disabled":false,"rental_uris":{"android":"levelo://app?vid=4b7be203-7111-4ecd-9808-00597656e983","ios":"levelo://app?vid=4b7be203-7111-4ecd-9808-00597656e983"},"vehicle_type_id":"4","last_reported":1728594529,"current_range_meters":36800,"station_id":"ce4bhr92rcd13ifvqhrg","pricing_plan_id":"cebpf4jnsgd1na2vs0mg"},{"bike_id":"2f7c8b0d-d4c3-431b-b067-669bb58fea86","system_id":"levelo_inurba_marseille","lat":43.29853,"lon":5.36297,"is_reserved":false,"is_disabled":false,"rental_uris":{"android":"levelo://app?vid=2f7c8b0d-d4c3-431b-b067-669bb58fea86","ios":"levelo://app?vid=2f7c8b0d-d4c3-431b-b067-669bb58fea86"},"vehicle_type_id":"4","last_reported":1728594529,"current_range_meters":38800,"station_id":"ce4bgpp2rcd13ifvqc3g","pricing_plan_id":"cebpf4jnsgd1na2vs0mg"},{"bike_id":"9d284a51-0d2e-4185-a7e5-d20dbd6bf892","system_id":"levelo_inurba_marseille","lat":43.29795,"lon":5.37117,"is_reserved":false,"is_disabled":false,"rental_uris":{"android":"levelo://app?vid=9d284a51-0d2e-4185-a7e5-d20dbd6bf892","ios":"levelo://app?vid=9d284a51-0d2e-4185-a7e5-d20dbd6bf892"},"vehicle_type_id":"4","last_reported":1728594529,"current_range_meters":38000,"station_id":"ce4bgop2rcd13ifvqc1g","pricing_plan_id":"cebpf4jnsgd1na2vs0mg"},{"bike_id":"50aa4af7-94b4-48c9-959d-eeec3eaec001","system_id":"levelo_inurba_marseille","lat":43.23198,"lon":5.35547,"is_reserved":false,"is_disabled":false,"rental_uris":{"android":"levelo://app?vid=50aa4af7-94b4-48c9-959d-eeec3eaec001","ios":"levelo://app?vid=50aa4af7-94b4-48c9-959d-eeec3eaec001"},"vehicle_type_id":"4","last_reported":1728594529,"current_range_meters":38800,"station_id":"ce4bhu92rcd13ifvqi70","pricing_plan_id":"cebpf4jnsgd1na2vs0mg"},{"bike_id":"dade3d2f-3f22-4b1e-92c9-4504fc72033e","system_id":"levelo_inurba_marseille","lat":43.26955,"lon":5.38634,"is_reserved":false,"is_disabled":false,"rental_uris":{"android":"levelo://app?vid=dade3d2f-3f22-4b1e-92c9-4504fc72033e","ios":"levelo://app?vid=dade3d2f-3f22-4b1e-92c9-4504fc72033e"},"vehicle_type_id":"4","last_reported":1728594529,"current_range_meters":30000,"station_id":"ce4bhh92rcd13ifvqfh0","pricing_plan_id":"cebpf4jnsgd1na2vs0mg"},{"bike_id":"38811800-990c-4b4f-93b0-519c6d818a43","system_id":"levelo_inurba_marseille","lat":43.33607,"lon":5.41037,"is_reserved":false,"is_disabled":false,"rental_uris":{"android":"levelo://app?vid=38811800-990c-4b4f-93b0-519c6d818a43","ios":"levelo://app?vid=38811800-990c-4b4f-93b0-519c6d818a43"},"vehicle_type_id":"4","last_reported":1728594529,"current_range_meters":38800,"station_id":"ce4bhqh2rcd13ifvqhmg","pricing_plan_id":"cebpf4jnsgd1na2vs0mg"},{"bike_id":"8f58235a-d4da-4cab-bb8e-7e93577e7259","system_id":"levelo_inurba_marseille","lat":43.23189,"lon":5.40004,"is_reserved":false,"is_disabled":false,"rental_uris":{"android":"levelo://app?vid=8f58235a-d4da-4cab-bb8e-7e93577e7259","ios":"levelo://app?vid=8f58235a-d4da-4cab-bb8e-7e93577e7259"},"vehicle_type_id":"4","last_reported":1728594529,"current_range_meters":38400,"station_id":"ce4bhn12rcd13ifvqgqg","pricing_plan_id":"cebpf4jnsgd1na2vs0mg"},{"bike_id":"84c30ed3-60f2-43c6-a6ef-72b2abd8f6b1","system_id":"levelo_inurba_marseille","lat":43.26694,"lon":5.38277,"is_reserved":false,"is_disabled":false,"rental_uris":{"android":"levelo://app?vid=84c30ed3-60f2-43c6-a6ef-72b2abd8f6b1","ios":"levelo://app?vid=84c30ed3-60f2-43c6-a6ef-72b2abd8f6b1"},"vehicle_type_id":"4","last_reported":1728594529,"current_range_meters":36800,"station_id":"ce4bhg92rcd13ifvqf90","pricing_plan_id":"cebpf4jnsgd1na2vs0mg"},{"bike_id":"254faf2c-a0ec-49fa-9a73-7624dc4a0e91","system_id":"levelo_inurba_marseille","lat":43.29853,"lon":5.36291,"is_reserved":false,"is_disabled":false,"rental_uris":{"android":"levelo://app?vid=254faf2c-a0ec-49fa-9a73-7624dc4a0e91","ios":"levelo://app?vid=254faf2c-a0ec-49fa-9a73-7624dc4a0e91"},"vehicle_type_id":"4","last_reported":1728594529,"current_range_meters":38800,"station_id":"ce4bgpp2rcd13ifvqc3g","pricing_plan_id":"cebpf4jnsgd1na2vs0mg"},{"bike_id":"b41b90b7-ac07-4747-9aee-0559da273445","system_id":"levelo_inurba_marseille","lat":43.292725,"lon":5.384422,"is_reserved":false,"is_disabled":false,"rental_uris":{"android":"levelo://app?vid=b41b90b7-ac07-4747-9aee-0559da273445","ios":"levelo://app?vid=b41b90b7-ac07-4747-9aee-0559da273445"},"vehicle_type_id":"4","last_reported":1728594529,"current_range_meters":35200,"station_id":"ce4bh692rcd13ifvqea0","pricing_plan_id":"cebpf4jnsgd1na2vs0mg"},{"bike_id":"255093a8-c98a-4773-851f-60ca2d6fabdf","system_id":"levelo_inurba_marseille","lat":43.33575,"lon":5.36744,"is_reserved":false,"is_disabled":false,"rental_uris":{"android":"levelo://app?vid=255093a8-c98a-4773-851f-60ca2d6fabdf","ios":"levelo://app?vid=255093a8-c98a-4773-851f-60ca2d6fabdf"},"vehicle_type_id":"4","last_reported":1728594529,"current_range_meters":34000,"station_id":"","pricing_plan_id":"cebpf4jnsgd1na2vs0mg"},{"bike_id":"04cdfc0e-0712-459a-a56c-8097add52c1d","system_id":"levelo_inurba_marseille","lat":43.28086,"lon":5.39649,"is_reserved":false,"is_disabled":false,"rental_uris":{"android":"levelo://app?vid=04cdfc0e-0712-459a-a56c-8097add52c1d","ios":"levelo://app?vid=04cdfc0e-0712-459a-a56c-8097add52c1d"},"vehicle_type_id":"4","last_reported":1728594529,"current_range_meters":9600,"station_id":"ce4bho12rcd13ifvqh2g","pricing_plan_id":"cebpf4jnsgd1na2vs0mg"},{"bike_id":"17b4ffa1-e5cc-41f5-9179-86ec5c0f02ca","system_id":"levelo_inurba_marseille","lat":43.29848,"lon":5.36266,"is_reserved":false,"is_disabled":false,"rental_uris":{"android":"levelo://app?vid=17b4ffa1-e5cc-41f5-9179-86ec5c0f02ca","ios":"levelo://app?vid=17b4ffa1-e5cc-41f5-9179-86ec5c0f02ca"},"vehicle_type_id":"4","last_reported":1728594529,"current_range_meters":28800,"station_id":"ce4bgpp2rcd13ifvqc3g","pricing_plan_id":"cebpf4jnsgd1na2vs0mg"},{"bike_id":"18de9dac-aa9d-453b-84c4-2fe1e0a24806","system_id":"levelo_inurba_marseille","lat":43.29279,"lon":5.40123,"is_reserved":false,"is_disabled":false,"rental_uris":{"android":"levelo://app?vid=18de9dac-aa9d-453b-84c4-2fe1e0a24806","ios":"levelo://app?vid=18de9dac-aa9d-453b-84c4-2fe1e0a24806"},"vehicle_type_id":"4","last_reported":1728594529,"current_range_meters":32400,"station_id":"ce4bh312rcd13ifvqdk0","pricing_plan_id":"cebpf4jnsgd1na2vs0mg"},{"bike_id":"83671d62-48fd-4a45-9013-d19fc0b99460","system_id":"levelo_inurba_marseille","lat":43.29588,"lon":5.36733,"is_reserved":false,"is_disabled":false,"rental_uris":{"android":"levelo://app?vid=83671d62-48fd-4a45-9013-d19fc0b99460","ios":"levelo://app?vid=83671d62-48fd-4a45-9013-d19fc0b99460"},"vehicle_type_id":"4","last_reported":1728594529,"current_range_meters":21600,"station_id":"ce4bgph2rcd13ifvqc2g","pricing_plan_id":"cebpf4jnsgd1na2vs0mg"},{"bike_id":"97cf73ea-7360-4151-8a90-62bb77c261ab","system_id":"levelo_inurba_marseille","lat":43.315015,"lon":5.373057,"is_reserved":false,"is_disabled":false,"rental_uris":{"android":"levelo://app?vid=97cf73ea-7360-4151-8a90-62bb77c261ab","ios":"levelo://app?vid=97cf73ea-7360-4151-8a90-62bb77c261ab"},"vehicle_type_id":"4","last_reported":1728594529,"current_range_meters":38800,"station_id":"ce4bgt12rcd13ifvqcd0","pricing_plan_id":"cebpf4jnsgd1na2vs0mg"},{"bike_id":"0982f6a5-2b66-457c-966d-f8d04bd8c9a4","system_id":"levelo_inurba_marseille","lat":43.294281,"lon":5.386218,"is_reserved":false,"is_disabled":false,"rental_uris":{"android":"levelo://app?vid=0982f6a5-2b66-457c-966d-f8d04bd8c9a4","ios":"levelo://app?vid=0982f6a5-2b66-457c-966d-f8d04bd8c9a4"},"vehicle_type_id":"4","last_reported":1728594529,"current_range_meters":37600,"station_id":"ce4bh0p2rcd13ifvqd80","pricing_plan_id":"cebpf4jnsgd1na2vs0mg"},{"bike_id":"ff68b789-7173-415f-860f-fb58c1b9d01d","system_id":"levelo_inurba_marseille","lat":43.22937,"lon":5.35379,"is_reserved":false,"is_disabled":false,"rental_uris":{"android":"levelo://app?vid=ff68b789-7173-415f-860f-fb58c1b9d01d","ios":"levelo://app?vid=ff68b789-7173-415f-860f-fb58c1b9d01d"},"vehicle_type_id":"4","last_reported":1728594529,"current_range_meters":34800,"station_id":"cpo3532slgdg3j2ikp40","pricing_plan_id":"cebpf4jnsgd1na2vs0mg"},{"bike_id":"285e08f4-e441-45ca-a4aa-0ceac3a304a6","system_id":"levelo_inurba_marseille","lat":43.27908,"lon":5.38003,"is_reserved":false,"is_disabled":false,"rental_uris":{"android":"levelo://app?vid=285e08f4-e441-45ca-a4aa-0ceac3a304a6","ios":"levelo://app?vid=285e08f4-e441-45ca-a4aa-0ceac3a304a6"},"vehicle_type_id":"4","last_reported":1728594529,"current_range_meters":38800,"station_id":"ce4bhf92rcd13ifvqf50","pricing_plan_id":"cebpf4jnsgd1na2vs0mg"},{"bike_id":"535f898a-3477-4583-978a-dc1a76e70ff9","system_id":"levelo_inurba_marseille","lat":43.27822,"lon":5.40721,"is_reserved":false,"is_disabled":false,"rental_uris":{"android":"levelo://app?vid=535f898a-3477-4583-978a-dc1a76e70ff9","ios":"levelo://app?vid=535f898a-3477-4583-978a-dc1a76e70ff9"},"vehicle_type_id":"4","last_reported":1728594529,"current_range_meters":3600,"station_id":"ce4bhnh2rcd13ifvqgtg","pricing_plan_id":"cebpf4jnsgd1na2vs0mg"},{"bike_id":"15af7706-f039-4880-a405-acd56cf7761a","system_id":"levelo_inurba_marseille","lat":43.29601,"lon":5.36739,"is_reserved":false,"is_disabled":false,"rental_uris":{"android":"levelo://app?vid=15af7706-f039-4880-a405-acd56cf7761a","ios":"levelo://app?vid=15af7706-f039-4880-a405-acd56cf7761a"},"vehicle_type_id":"4","last_reported":1728594529,"current_range_meters":37600,"station_id":"ce4bgph2rcd13ifvqc2g","pricing_plan_id":"cebpf4jnsgd1na2vs0mg"},{"bike_id":"6cb5b02c-2401-484a-8b7d-b4d2106d6b08","system_id":"levelo_inurba_marseille","lat":43.23185,"lon":5.35564,"is_reserved":false,"is_disabled":false,"rental_uris":{"android":"levelo://app?vid=6cb5b02c-2401-484a-8b7d-b4d2106d6b08","ios":"levelo://app?vid=6cb5b02c-2401-484a-8b7d-b4d2106d6b08"},"vehicle_type_id":"4","last_reported":1728594529,"current_range_meters":38400,"station_id":"ce4bhu92rcd13ifvqi70","pricing_plan_id":"cebpf4jnsgd1na2vs0mg"},{"bike_id":"f255bdbb-a497-4549-91a5-4dbe27c9af42","system_id":"levelo_inurba_marseille","lat":43.24662,"lon":5.38156,"is_reserved":false,"is_disabled":false,"rental_uris":{"android":"levelo://app?vid=f255bdbb-a497-4549-91a5-4dbe27c9af42","ios":"levelo://app?vid=f255bdbb-a497-4549-91a5-4dbe27c9af42"},"vehicle_type_id":"4","last_reported":1728594529,"current_range_meters":30000,"station_id":"ce4bhih2rcd13ifvqfr0","pricing_plan_id":"cebpf4jnsgd1na2vs0mg"},{"bike_id":"ec0b4a60-abc4-400a-9df1-ce6586f92f75","system_id":"levelo_inurba_marseille","lat":43.31178,"lon":5.38713,"is_reserved":false,"is_disabled":false,"rental_uris":{"android":"levelo://app?vid=ec0b4a60-abc4-400a-9df1-ce6586f92f75","ios":"levelo://app?vid=ec0b4a60-abc4-400a-9df1-ce6586f92f75"},"vehicle_type_id":"4","last_reported":1728594529,"current_range_meters":36800,"station_id":"ce4bgv12rcd13ifvqcp0","pricing_plan_id":"cebpf4jnsgd1na2vs0mg"},{"bike_id":"bcff8bb1-95e6-4190-8595-ac95877f7eb3","system_id":"levelo_inurba_marseille","lat":43.24078,"lon":5.3776,"is_reserved":false,"is_disabled":false,"rental_uris":{"android":"levelo://app?vid=bcff8bb1-95e6-4190-8595-ac95877f7eb3","ios":"levelo://app?vid=bcff8bb1-95e6-4190-8595-ac95877f7eb3"},"vehicle_type_id":"4","last_reported":1728594529,"current_range_meters":28800,"station_id":"ce4bhnp2rcd13ifvqgvg","pricing_plan_id":"cebpf4jnsgd1na2vs0mg"},{"bike_id":"aad136a8-d860-46f5-9a88-326756167519","system_id":"levelo_inurba_marseille","lat":43.31992,"lon":5.38152,"is_reserved":false,"is_disabled":false,"rental_uris":{"android":"levelo://app?vid=aad136a8-d860-46f5-9a88-326756167519","ios":"levelo://app?vid=aad136a8-d860-46f5-9a88-326756167519"},"vehicle_type_id":"4","last_reported":1728594529,"current_range_meters":34800,"station_id":"ce4bhr12rcd13ifvqhpg","pricing_plan_id":"cebpf4jnsgd1na2vs0mg"},{"bike_id":"70e8d9e5-8396-4d7d-be39-1fc17a440db7","system_id":"levelo_inurba_marseille","lat":43.33614,"lon":5.41033,"is_reserved":false,"is_disabled":false,"rental_uris":{"android":"levelo://app?vid=70e8d9e5-8396-4d7d-be39-1fc17a440db7","ios":"levelo://app?vid=70e8d9e5-8396-4d7d-be39-1fc17a440db7"},"vehicle_type_id":"4","last_reported":1728594529,"current_range_meters":40000,"station_id":"ce4bhqh2rcd13ifvqhmg","pricing_plan_id":"cebpf4jnsgd1na2vs0mg"},{"bike_id":"b43e010f-69ea-40f6-9796-119442586a51","system_id":"levelo_inurba_marseille","lat":43.31334,"lon":5.39702,"is_reserved":false,"is_disabled":false,"rental_uris":{"android":"levelo://app?vid=b43e010f-69ea-40f6-9796-119442586a51","ios":"levelo://app?vid=b43e010f-69ea-40f6-9796-119442586a51"},"vehicle_type_id":"4","last_reported":1728594529,"current_range_meters":8400,"station_id":"ce4bgvp2rcd13ifvqcu0","pricing_plan_id":"cebpf4jnsgd1na2vs0mg"},{"bike_id":"6680f867-aaca-45ce-bc32-fc942676c225","system_id":"levelo_inurba_marseille","lat":43.27573,"lon":5.38414,"is_reserved":false,"is_disabled":false,"rental_uris":{"android":"levelo://app?vid=6680f867-aaca-45ce-bc32-fc942676c225","ios":"levelo://app?vid=6680f867-aaca-45ce-bc32-fc942676c225"},"vehicle_type_id":"4","last_reported":1728594529,"current_range_meters":28000,"station_id":"ce4bhh92rcd13ifvqfi0","pricing_plan_id":"cebpf4jnsgd1na2vs0mg"},{"bike_id":"9bab9d3e-37a4-49a5-a75a-86966f750570","system_id":"levelo_inurba_marseille","lat":43.32116,"lon":5.36765,"is_reserved":false,"is_disabled":false,"rental_uris":{"android":"levelo://app?vid=9bab9d3e-37a4-49a5-a75a-86966f750570","ios":"levelo://app?vid=9bab9d3e-37a4-49a5-a75a-86966f750570"},"vehicle_type_id":"4","last_reported":1728594529,"current_range_meters":7200,"station_id":"ce4bhrh2rcd13ifvqhug","pricing_plan_id":"cebpf4jnsgd1na2vs0mg"},{"bike_id":"dd7785d3-7869-49b9-a660-96165e0220dd","system_id":"levelo_inurba_marseille","lat":43.2987,"lon":5.39735,"is_reserved":false,"is_disabled":false,"rental_uris":{"android":"levelo://app?vid=dd7785d3-7869-49b9-a660-96165e0220dd","ios":"levelo://app?vid=dd7785d3-7869-49b9-a660-96165e0220dd"},"vehicle_type_id":"4","last_reported":1728594529,"current_range_meters":6800,"station_id":"ce4bh0h2rcd13ifvqd50","pricing_plan_id":"cebpf4jnsgd1na2vs0mg"},{"bike_id":"8e634366-4219-4b59-841f-82b252f9182b","system_id":"levelo_inurba_marseille","lat":43.31494,"lon":5.3731,"is_reserved":false,"is_disabled":false,"rental_uris":{"android":"levelo://app?vid=8e634366-4219-4b59-841f-82b252f9182b","ios":"levelo://app?vid=8e634366-4219-4b59-841f-82b252f9182b"},"vehicle_type_id":"4","last_reported":1728594529,"current_range_meters":22800,"station_id":"ce4bgt12rcd13ifvqcd0","pricing_plan_id":"cebpf4jnsgd1na2vs0mg"},{"bike_id":"f2fe196f-74a4-46dc-b9ba-34a90a5fe771","system_id":"levelo_inurba_marseille","lat":43.29262,"lon":5.38444,"is_reserved":false,"is_disabled":false,"rental_uris":{"android":"levelo://app?vid=f2fe196f-74a4-46dc-b9ba-34a90a5fe771","ios":"levelo://app?vid=f2fe196f-74a4-46dc-b9ba-34a90a5fe771"},"vehicle_type_id":"4","last_reported":1728594529,"current_range_meters":38000,"station_id":"ce4bh492rcd13ifvqdvg","pricing_plan_id":"cebpf4jnsgd1na2vs0mg"},{"bike_id":"cbc310e6-435c-4359-8971-31c9bce35051","system_id":"levelo_inurba_marseille","lat":43.292,"lon":5.39325,"is_reserved":false,"is_disabled":false,"rental_uris":{"android":"levelo://app?vid=cbc310e6-435c-4359-8971-31c9bce35051","ios":"levelo://app?vid=cbc310e6-435c-4359-8971-31c9bce35051"},"vehicle_type_id":"4","last_reported":1728594529,"current_range_meters":38800,"station_id":"ce4bh192rcd13ifvqdd0","pricing_plan_id":"cebpf4jnsgd1na2vs0mg"},{"bike_id":"39bd14d5-580b-44d9-bde5-d4df806468f6","system_id":"levelo_inurba_marseille","lat":43.28487,"lon":5.38414,"is_reserved":false,"is_disabled":false,"rental_uris":{"android":"levelo://app?vid=39bd14d5-580b-44d9-bde5-d4df806468f6","ios":"levelo://app?vid=39bd14d5-580b-44d9-bde5-d4df806468f6"},"vehicle_type_id":"4","last_reported":1728594529,"current_range_meters":27200,"station_id":"ce4bh512rcd13ifvqe3g","pricing_plan_id":"cebpf4jnsgd1na2vs0mg"},{"bike_id":"9a3ef8f3-8740-4e39-9c24-cf98b0108ac8","system_id":"levelo_inurba_marseille","lat":43.28035,"lon":5.36938,"is_reserved":false,"is_disabled":false,"rental_uris":{"android":"levelo://app?vid=9a3ef8f3-8740-4e39-9c24-cf98b0108ac8","ios":"levelo://app?vid=9a3ef8f3-8740-4e39-9c24-cf98b0108ac8"},"vehicle_type_id":"4","last_reported":1728594529,"current_range_meters":18800,"station_id":"ce4bha12rcd13ifvqef0","pricing_plan_id":"cebpf4jnsgd1na2vs0mg"},{"bike_id":"b09dbff8-a830-491c-a572-644fce18b85a","system_id":"levelo_inurba_marseille","lat":43.24668,"lon":5.38157,"is_reserved":false,"is_disabled":false,"rental_uris":{"android":"levelo://app?vid=b09dbff8-a830-491c-a572-644fce18b85a","ios":"levelo://app?vid=b09dbff8-a830-491c-a572-644fce18b85a"},"vehicle_type_id":"4","last_reported":1728594529,"current_range_meters":31200,"station_id":"ce4bhih2rcd13ifvqfr0","pricing_plan_id":"cebpf4jnsgd1na2vs0mg"},{"bike_id":"b403c7ea-19b1-464d-a198-125a8524abb8","system_id":"levelo_inurba_marseille","lat":43.28465,"lon":5.35885,"is_reserved":false,"is_disabled":false,"rental_uris":{"android":"levelo://app?vid=b403c7ea-19b1-464d-a198-125a8524abb8","ios":"levelo://app?vid=b403c7ea-19b1-464d-a198-125a8524abb8"},"vehicle_type_id":"4","last_reported":1728594529,"current_range_meters":33600,"station_id":"ce4bhah2rcd13ifvqei0","pricing_plan_id":"cebpf4jnsgd1na2vs0mg"},{"bike_id":"9f7e2fbf-bdee-4a59-b66c-f4b85e9700f4","system_id":"levelo_inurba_marseille","lat":43.24202,"lon":5.39731,"is_reserved":false,"is_disabled":false,"rental_uris":{"android":"levelo://app?vid=9f7e2fbf-bdee-4a59-b66c-f4b85e9700f4","ios":"levelo://app?vid=9f7e2fbf-bdee-4a59-b66c-f4b85e9700f4"},"vehicle_type_id":"4","last_reported":1728594529,"current_range_meters":38400,"station_id":"ce4bhn12rcd13ifvqgpg","pricing_plan_id":"cebpf4jnsgd1na2vs0mg"},{"bike_id":"d04bc5e7-208e-4bd9-8570-54355c99f2a6","system_id":"levelo_inurba_marseille","lat":43.28456,"lon":5.35889,"is_reserved":false,"is_disabled":false,"rental_uris":{"android":"levelo://app?vid=d04bc5e7-208e-4bd9-8570-54355c99f2a6","ios":"levelo://app?vid=d04bc5e7-208e-4bd9-8570-54355c99f2a6"},"vehicle_type_id":"4","last_reported":1728594529,"current_range_meters":18000,"station_id":"ce4bhah2rcd13ifvqei0","pricing_plan_id":"cebpf4jnsgd1na2vs0mg"},{"bike_id":"636fdb36-f9a2-4a59-a610-2adf92c2c7c1","system_id":"levelo_inurba_marseille","lat":43.28458,"lon":5.35895,"is_reserved":false,"is_disabled":false,"rental_uris":{"android":"levelo://app?vid=636fdb36-f9a2-4a59-a610-2adf92c2c7c1","ios":"levelo://app?vid=636fdb36-f9a2-4a59-a610-2adf92c2c7c1"},"vehicle_type_id":"4","last_reported":1728594529,"current_range_meters":7200,"station_id":"ce4bhah2rcd13ifvqei0","pricing_plan_id":"cebpf4jnsgd1na2vs0mg"},{"bike_id":"f67a3987-7f30-4919-aa1f-e349e4fa4868","system_id":"levelo_inurba_marseille","lat":43.30097,"lon":5.39081,"is_reserved":false,"is_disabled":false,"rental_uris":{"android":"levelo://app?vid=f67a3987-7f30-4919-aa1f-e349e4fa4868","ios":"levelo://app?vid=f67a3987-7f30-4919-aa1f-e349e4fa4868"},"vehicle_type_id":"4","last_reported":1728594529,"current_range_meters":38800,"station_id":"ce4bh192rcd13ifvqdb0","pricing_plan_id":"cebpf4jnsgd1na2vs0mg"},{"bike_id":"4bae06e8-deae-424a-93d9-e99c9cc62419","system_id":"levelo_inurba_marseille","lat":43.28086,"lon":5.39648,"is_reserved":false,"is_disabled":false,"rental_uris":{"android":"levelo://app?vid=4bae06e8-deae-424a-93d9-e99c9cc62419","ios":"levelo://app?vid=4bae06e8-deae-424a-93d9-e99c9cc62419"},"vehicle_type_id":"4","last_reported":1728594529,"current_range_meters":24800,"station_id":"ce4bho12rcd13ifvqh2g","pricing_plan_id":"cebpf4jnsgd1na2vs0mg"},{"bike_id":"73f76813-e7f3-4988-85f7-ffdb85ea1c79","system_id":"levelo_inurba_marseille","lat":43.29855,"lon":5.36288,"is_reserved":false,"is_disabled":false,"rental_uris":{"android":"levelo://app?vid=73f76813-e7f3-4988-85f7-ffdb85ea1c79","ios":"levelo://app?vid=73f76813-e7f3-4988-85f7-ffdb85ea1c79"},"vehicle_type_id":"4","last_reported":1728594529,"current_range_meters":19200,"station_id":"ce4bgpp2rcd13ifvqc3g","pricing_plan_id":"cebpf4jnsgd1na2vs0mg"},{"bike_id":"6c8183dd-cf19-4d95-90a7-79a8efb9a1c0","system_id":"levelo_inurba_marseille","lat":43.31131,"lon":5.37765,"is_reserved":false,"is_disabled":false,"rental_uris":{"android":"levelo://app?vid=6c8183dd-cf19-4d95-90a7-79a8efb9a1c0","ios":"levelo://app?vid=6c8183dd-cf19-4d95-90a7-79a8efb9a1c0"},"vehicle_type_id":"4","last_reported":1728594529,"current_range_meters":35600,"station_id":"ce4bgt92rcd13ifvqcg0","pricing_plan_id":"cebpf4jnsgd1na2vs0mg"},{"bike_id":"9540b084-e943-49d4-927e-fbdbd9cec3b5","system_id":"levelo_inurba_marseille","lat":43.29166,"lon":5.39331,"is_reserved":false,"is_disabled":false,"rental_uris":{"android":"levelo://app?vid=9540b084-e943-49d4-927e-fbdbd9cec3b5","ios":"levelo://app?vid=9540b084-e943-49d4-927e-fbdbd9cec3b5"},"vehicle_type_id":"4","last_reported":1728594529,"current_range_meters":36800,"station_id":"","pricing_plan_id":"cebpf4jnsgd1na2vs0mg"},{"bike_id":"1e5f652c-4a49-4e5e-93d6-ba2d4440a647","system_id":"levelo_inurba_marseille","lat":43.31352,"lon":5.38373,"is_reserved":false,"is_disabled":false,"rental_uris":{"android":"levelo://app?vid=1e5f652c-4a49-4e5e-93d6-ba2d4440a647","ios":"levelo://app?vid=1e5f652c-4a49-4e5e-93d6-ba2d4440a647"},"vehicle_type_id":"4","last_reported":1728594529,"current_range_meters":6000,"station_id":"","pricing_plan_id":"cebpf4jnsgd1na2vs0mg"},{"bike_id":"ea82635b-d30f-4105-a5ab-70cda0054a71","system_id":"levelo_inurba_marseille","lat":43.29583,"lon":5.36744,"is_reserved":false,"is_disabled":false,"rental_uris":{"android":"levelo://app?vid=ea82635b-d30f-4105-a5ab-70cda0054a71","ios":"levelo://app?vid=ea82635b-d30f-4105-a5ab-70cda0054a71"},"vehicle_type_id":"4","last_reported":1728594529,"current_range_meters":16400,"station_id":"ce4bgph2rcd13ifvqc2g","pricing_plan_id":"cebpf4jnsgd1na2vs0mg"},{"bike_id":"d81974f8-f6cd-4e58-a360-756048d54e9d","system_id":"levelo_inurba_marseille","lat":43.29457,"lon":5.37619,"is_reserved":false,"is_disabled":false,"rental_uris":{"android":"levelo://app?vid=d81974f8-f6cd-4e58-a360-756048d54e9d","ios":"levelo://app?vid=d81974f8-f6cd-4e58-a360-756048d54e9d"},"vehicle_type_id":"4","last_reported":1728594529,"current_range_meters":14400,"station_id":"","pricing_plan_id":"cebpf4jnsgd1na2vs0mg"},{"bike_id":"7cdab255-4a8a-4fba-b9b2-1f5a89957125","system_id":"levelo_inurba_marseille","lat":43.28482,"lon":5.38421,"is_reserved":false,"is_disabled":false,"rental_uris":{"android":"levelo://app?vid=7cdab255-4a8a-4fba-b9b2-1f5a89957125","ios":"levelo://app?vid=7cdab255-4a8a-4fba-b9b2-1f5a89957125"},"vehicle_type_id":"4","last_reported":1728594529,"current_range_meters":32400,"station_id":"ce4bh512rcd13ifvqe3g","pricing_plan_id":"cebpf4jnsgd1na2vs0mg"},{"bike_id":"f4242d47-0a61-48b8-871d-ac8468e3bd41","system_id":"levelo_inurba_marseille","lat":43.28457,"lon":5.35893,"is_reserved":false,"is_disabled":false,"rental_uris":{"android":"levelo://app?vid=f4242d47-0a61-48b8-871d-ac8468e3bd41","ios":"levelo://app?vid=f4242d47-0a61-48b8-871d-ac8468e3bd41"},"vehicle_type_id":"4","last_reported":1728594529,"current_range_meters":26800,"station_id":"ce4bhah2rcd13ifvqei0","pricing_plan_id":"cebpf4jnsgd1na2vs0mg"},{"bike_id":"484a4c63-4ef1-4433-b27a-9a9ca5ad2f9a","system_id":"levelo_inurba_marseille","lat":43.22929,"lon":5.35377,"is_reserved":false,"is_disabled":false,"rental_uris":{"android":"levelo://app?vid=484a4c63-4ef1-4433-b27a-9a9ca5ad2f9a","ios":"levelo://app?vid=484a4c63-4ef1-4433-b27a-9a9ca5ad2f9a"},"vehicle_type_id":"4","last_reported":1728594529,"current_range_meters":20000,"station_id":"cpo3532slgdg3j2ikp40","pricing_plan_id":"cebpf4jnsgd1na2vs0mg"},{"bike_id":"1c1c2a36-a8d7-479d-b339-6ec9292c8ea3","system_id":"levelo_inurba_marseille","lat":43.31245,"lon":5.40177,"is_reserved":false,"is_disabled":false,"rental_uris":{"android":"levelo://app?vid=1c1c2a36-a8d7-479d-b339-6ec9292c8ea3","ios":"levelo://app?vid=1c1c2a36-a8d7-479d-b339-6ec9292c8ea3"},"vehicle_type_id":"4","last_reported":1728594529,"current_range_meters":25200,"station_id":"ce4bh092rcd13ifvqd30","pricing_plan_id":"cebpf4jnsgd1na2vs0mg"},{"bike_id":"b79bb6b6-c993-4d99-b480-a765f48ffa1f","system_id":"levelo_inurba_marseille","lat":43.29039,"lon":5.39964,"is_reserved":false,"is_disabled":false,"rental_uris":{"android":"levelo://app?vid=b79bb6b6-c993-4d99-b480-a765f48ffa1f","ios":"levelo://app?vid=b79bb6b6-c993-4d99-b480-a765f48ffa1f"},"vehicle_type_id":"4","last_reported":1728594529,"current_range_meters":15200,"station_id":"ce4bh392rcd13ifvqdm0","pricing_plan_id":"cebpf4jnsgd1na2vs0mg"},{"bike_id":"0d81f857-207f-4c04-bd23-1ca1a9f495cd","system_id":"levelo_inurba_marseille","lat":43.30914,"lon":5.36859,"is_reserved":false,"is_disabled":false,"rental_uris":{"android":"levelo://app?vid=0d81f857-207f-4c04-bd23-1ca1a9f495cd","ios":"levelo://app?vid=0d81f857-207f-4c04-bd23-1ca1a9f495cd"},"vehicle_type_id":"4","last_reported":1728594529,"current_range_meters":37600,"station_id":"ce4bgn92rcd13ifvqbvg","pricing_plan_id":"cebpf4jnsgd1na2vs0mg"},{"bike_id":"55864c69-9946-44b5-ac16-60e8e1281033","system_id":"levelo_inurba_marseille","lat":43.27649,"lon":5.38385,"is_reserved":false,"is_disabled":false,"rental_uris":{"android":"levelo://app?vid=55864c69-9946-44b5-ac16-60e8e1281033","ios":"levelo://app?vid=55864c69-9946-44b5-ac16-60e8e1281033"},"vehicle_type_id":"4","last_reported":1728594529,"current_range_meters":6400,"station_id":"","pricing_plan_id":"cebpf4jnsgd1na2vs0mg"},{"bike_id":"277d5336-17a9-4064-b3a1-e70853bf6191","system_id":"levelo_inurba_marseille","lat":43.30969,"lon":5.39034,"is_reserved":false,"is_disabled":false,"rental_uris":{"android":"levelo://app?vid=277d5336-17a9-4064-b3a1-e70853bf6191","ios":"levelo://app?vid=277d5336-17a9-4064-b3a1-e70853bf6191"},"vehicle_type_id":"4","last_reported":1728594529,"current_range_meters":38800,"station_id":"ce4bgup2rcd13ifvqco0","pricing_plan_id":"cebpf4jnsgd1na2vs0mg"},{"bike_id":"cd66634a-a755-4837-bafe-bd5706ebd9ae","system_id":"levelo_inurba_marseille","lat":43.31726,"lon":5.42394,"is_reserved":false,"is_disabled":false,"rental_uris":{"android":"levelo://app?vid=cd66634a-a755-4837-bafe-bd5706ebd9ae","ios":"levelo://app?vid=cd66634a-a755-4837-bafe-bd5706ebd9ae"},"vehicle_type_id":"4","last_reported":1728594529,"current_range_meters":14000,"station_id":"ce4bhp92rcd13ifvqhbg","pricing_plan_id":"cebpf4jnsgd1na2vs0mg"},{"bike_id":"830a55b5-b356-49d6-b4bd-23022c4ba6b3","system_id":"levelo_inurba_marseille","lat":43.28472,"lon":5.35879,"is_reserved":false,"is_disabled":false,"rental_uris":{"android":"levelo://app?vid=830a55b5-b356-49d6-b4bd-23022c4ba6b3","ios":"levelo://app?vid=830a55b5-b356-49d6-b4bd-23022c4ba6b3"},"vehicle_type_id":"4","last_reported":1728594529,"current_range_meters":7200,"station_id":"ce4bhah2rcd13ifvqei0","pricing_plan_id":"cebpf4jnsgd1na2vs0mg"},{"bike_id":"e817b4c7-9bc9-41ee-94c1-541280a37ac4","system_id":"levelo_inurba_marseille","lat":43.31358,"lon":5.36707,"is_reserved":false,"is_disabled":false,"rental_uris":{"android":"levelo://app?vid=e817b4c7-9bc9-41ee-94c1-541280a37ac4","ios":"levelo://app?vid=e817b4c7-9bc9-41ee-94c1-541280a37ac4"},"vehicle_type_id":"4","last_reported":1728594529,"current_range_meters":25200,"station_id":"ce4bgr92rcd13ifvqc6g","pricing_plan_id":"cebpf4jnsgd1na2vs0mg"},{"bike_id":"ab593a9a-7cfb-4667-8966-54e1e143e4e3","system_id":"levelo_inurba_marseille","lat":43.28938,"lon":5.38396,"is_reserved":false,"is_disabled":false,"rental_uris":{"android":"levelo://app?vid=ab593a9a-7cfb-4667-8966-54e1e143e4e3","ios":"levelo://app?vid=ab593a9a-7cfb-4667-8966-54e1e143e4e3"},"vehicle_type_id":"4","last_reported":1728594529,"current_range_meters":22800,"station_id":"ce4bh612rcd13ifvqe6g","pricing_plan_id":"cebpf4jnsgd1na2vs0mg"},{"bike_id":"2679da04-4fc7-44e6-87c2-fc29d2217a4e","system_id":"levelo_inurba_marseille","lat":43.28934,"lon":5.36391,"is_reserved":false,"is_disabled":false,"rental_uris":{"android":"levelo://app?vid=2679da04-4fc7-44e6-87c2-fc29d2217a4e","ios":"levelo://app?vid=2679da04-4fc7-44e6-87c2-fc29d2217a4e"},"vehicle_type_id":"4","last_reported":1728594529,"current_range_meters":24400,"station_id":"ce4bhc92rcd13ifvqetg","pricing_plan_id":"cebpf4jnsgd1na2vs0mg"},{"bike_id":"3372ba1c-93af-4ac9-8ffa-34868b7baae2","system_id":"levelo_inurba_marseille","lat":43.31768,"lon":5.39019,"is_reserved":false,"is_disabled":false,"rental_uris":{"android":"levelo://app?vid=3372ba1c-93af-4ac9-8ffa-34868b7baae2","ios":"levelo://app?vid=3372ba1c-93af-4ac9-8ffa-34868b7baae2"},"vehicle_type_id":"4","last_reported":1728594529,"current_range_meters":16000,"station_id":"ce4bhqp2rcd13ifvqhng","pricing_plan_id":"cebpf4jnsgd1na2vs0mg"},{"bike_id":"d1926e33-d404-4c61-8ef6-a2e38f0af42d","system_id":"levelo_inurba_marseille","lat":43.27982,"lon":5.38734,"is_reserved":false,"is_disabled":false,"rental_uris":{"android":"levelo://app?vid=d1926e33-d404-4c61-8ef6-a2e38f0af42d","ios":"levelo://app?vid=d1926e33-d404-4c61-8ef6-a2e38f0af42d"},"vehicle_type_id":"4","last_reported":1728594529,"current_range_meters":37600,"station_id":"ce4bhg12rcd13ifvqf80","pricing_plan_id":"cebpf4jnsgd1na2vs0mg"},{"bike_id":"95df0637-4095-48d9-8eaa-5a6c8c4d8acd","system_id":"levelo_inurba_marseille","lat":43.29847,"lon":5.36263,"is_reserved":false,"is_disabled":false,"rental_uris":{"android":"levelo://app?vid=95df0637-4095-48d9-8eaa-5a6c8c4d8acd","ios":"levelo://app?vid=95df0637-4095-48d9-8eaa-5a6c8c4d8acd"},"vehicle_type_id":"4","last_reported":1728594529,"current_range_meters":39200,"station_id":"ce4bgpp2rcd13ifvqc3g","pricing_plan_id":"cebpf4jnsgd1na2vs0mg"},{"bike_id":"d536ef4b-b253-4bee-9285-eb782f8f6cab","system_id":"levelo_inurba_marseille","lat":43.32611,"lon":5.40471,"is_reserved":false,"is_disabled":false,"rental_uris":{"android":"levelo://app?vid=d536ef4b-b253-4bee-9285-eb782f8f6cab","ios":"levelo://app?vid=d536ef4b-b253-4bee-9285-eb782f8f6cab"},"vehicle_type_id":"4","last_reported":1728594529,"current_range_meters":30800,"station_id":"","pricing_plan_id":"cebpf4jnsgd1na2vs0mg"},{"bike_id":"104dce3b-2862-44f7-bb64-f1cb1800c635","system_id":"levelo_inurba_marseille","lat":43.33609,"lon":5.41033,"is_reserved":false,"is_disabled":false,"rental_uris":{"android":"levelo://app?vid=104dce3b-2862-44f7-bb64-f1cb1800c635","ios":"levelo://app?vid=104dce3b-2862-44f7-bb64-f1cb1800c635"},"vehicle_type_id":"4","last_reported":1728594529,"current_range_meters":23200,"station_id":"ce4bhqh2rcd13ifvqhmg","pricing_plan_id":"cebpf4jnsgd1na2vs0mg"},{"bike_id":"90fbc6c8-74c8-4f7f-a927-f3891c5b89aa","system_id":"levelo_inurba_marseille","lat":43.27623,"lon":5.36115,"is_reserved":false,"is_disabled":false,"rental_uris":{"android":"levelo://app?vid=90fbc6c8-74c8-4f7f-a927-f3891c5b89aa","ios":"levelo://app?vid=90fbc6c8-74c8-4f7f-a927-f3891c5b89aa"},"vehicle_type_id":"4","last_reported":1728594529,"current_range_meters":38800,"station_id":"ce4bgj92rcd13ifvqbe0","pricing_plan_id":"cebpf4jnsgd1na2vs0mg"},{"bike_id":"fc40ffd7-f29e-47fe-b2de-5c23aa8958ee","system_id":"levelo_inurba_marseille","lat":43.26968,"lon":5.38626,"is_reserved":false,"is_disabled":false,"rental_uris":{"android":"levelo://app?vid=fc40ffd7-f29e-47fe-b2de-5c23aa8958ee","ios":"levelo://app?vid=fc40ffd7-f29e-47fe-b2de-5c23aa8958ee"},"vehicle_type_id":"4","last_reported":1728594529,"current_range_meters":38400,"station_id":"ce4bhh92rcd13ifvqfh0","pricing_plan_id":"cebpf4jnsgd1na2vs0mg"},{"bike_id":"f02f7de8-46fc-456a-a316-ca30edbfa7e9","system_id":"levelo_inurba_marseille","lat":43.25585,"lon":5.38238,"is_reserved":false,"is_disabled":false,"rental_uris":{"android":"levelo://app?vid=f02f7de8-46fc-456a-a316-ca30edbfa7e9","ios":"levelo://app?vid=f02f7de8-46fc-456a-a316-ca30edbfa7e9"},"vehicle_type_id":"4","last_reported":1728594529,"current_range_meters":38800,"station_id":"ce4bhih2rcd13ifvqfs0","pricing_plan_id":"cebpf4jnsgd1na2vs0mg"},{"bike_id":"6e13bd73-3f28-4e20-9aa2-ae5b1c67aad7","system_id":"levelo_inurba_marseille","lat":43.292732,"lon":5.384358,"is_reserved":false,"is_disabled":false,"rental_uris":{"android":"levelo://app?vid=6e13bd73-3f28-4e20-9aa2-ae5b1c67aad7","ios":"levelo://app?vid=6e13bd73-3f28-4e20-9aa2-ae5b1c67aad7"},"vehicle_type_id":"4","last_reported":1728594529,"current_range_meters":4800,"station_id":"ce4bh692rcd13ifvqea0","pricing_plan_id":"cebpf4jnsgd1na2vs0mg"},{"bike_id":"217bc265-0415-43e0-a9c4-b04cac6da929","system_id":"levelo_inurba_marseille","lat":43.29265,"lon":5.38449,"is_reserved":false,"is_disabled":false,"rental_uris":{"android":"levelo://app?vid=217bc265-0415-43e0-a9c4-b04cac6da929","ios":"levelo://app?vid=217bc265-0415-43e0-a9c4-b04cac6da929"},"vehicle_type_id":"4","last_reported":1728594529,"current_range_meters":1600,"station_id":"ce4bh692rcd13ifvqea0","pricing_plan_id":"cebpf4jnsgd1na2vs0mg"},{"bike_id":"8fb2b431-bcb9-46ba-80fb-e26e84592fc5","system_id":"levelo_inurba_marseille","lat":43.23191,"lon":5.35553,"is_reserved":false,"is_disabled":false,"rental_uris":{"android":"levelo://app?vid=8fb2b431-bcb9-46ba-80fb-e26e84592fc5","ios":"levelo://app?vid=8fb2b431-bcb9-46ba-80fb-e26e84592fc5"},"vehicle_type_id":"4","last_reported":1728594529,"current_range_meters":38800,"station_id":"ce4bhu92rcd13ifvqi70","pricing_plan_id":"cebpf4jnsgd1na2vs0mg"},{"bike_id":"b03c3d7c-5c0e-4aa5-9748-ca2ab350c997","system_id":"levelo_inurba_marseille","lat":43.28375,"lon":5.38625,"is_reserved":false,"is_disabled":false,"rental_uris":{"android":"levelo://app?vid=b03c3d7c-5c0e-4aa5-9748-ca2ab350c997","ios":"levelo://app?vid=b03c3d7c-5c0e-4aa5-9748-ca2ab350c997"},"vehicle_type_id":"4","last_reported":1728594529,"current_range_meters":2000,"station_id":"ce4bh492rcd13ifvqdvg","pricing_plan_id":"cebpf4jnsgd1na2vs0mg"},{"bike_id":"c9e58f47-d25e-4b8d-98a4-b967d77eee1b","system_id":"levelo_inurba_marseille","lat":43.29263,"lon":5.4091,"is_reserved":false,"is_disabled":false,"rental_uris":{"android":"levelo://app?vid=c9e58f47-d25e-4b8d-98a4-b967d77eee1b","ios":"levelo://app?vid=c9e58f47-d25e-4b8d-98a4-b967d77eee1b"},"vehicle_type_id":"4","last_reported":1728594529,"current_range_meters":28400,"station_id":"ce4bh192rcd13ifvqdc0","pricing_plan_id":"cebpf4jnsgd1na2vs0mg"},{"bike_id":"4baff917-8b3c-4c19-a1bd-1717f8df04bf","system_id":"levelo_inurba_marseille","lat":43.28572,"lon":5.36006,"is_reserved":false,"is_disabled":false,"rental_uris":{"android":"levelo://app?vid=4baff917-8b3c-4c19-a1bd-1717f8df04bf","ios":"levelo://app?vid=4baff917-8b3c-4c19-a1bd-1717f8df04bf"},"vehicle_type_id":"4","last_reported":1728594529,"current_range_meters":26000,"station_id":"","pricing_plan_id":"cebpf4jnsgd1na2vs0mg"},{"bike_id":"dbfdb842-85c2-453f-8d8d-f6a72063d2db","system_id":"levelo_inurba_marseille","lat":43.28461,"lon":5.35895,"is_reserved":false,"is_disabled":false,"rental_uris":{"android":"levelo://app?vid=dbfdb842-85c2-453f-8d8d-f6a72063d2db","ios":"levelo://app?vid=dbfdb842-85c2-453f-8d8d-f6a72063d2db"},"vehicle_type_id":"4","last_reported":1728594529,"current_range_meters":6000,"station_id":"ce4bhah2rcd13ifvqei0","pricing_plan_id":"cebpf4jnsgd1na2vs0mg"},{"bike_id":"70f12c6e-a1e8-4861-8a8e-698db6ad0543","system_id":"levelo_inurba_marseille","lat":43.27179,"lon":5.40995,"is_reserved":false,"is_disabled":false,"rental_uris":{"android":"levelo://app?vid=70f12c6e-a1e8-4861-8a8e-698db6ad0543","ios":"levelo://app?vid=70f12c6e-a1e8-4861-8a8e-698db6ad0543"},"vehicle_type_id":"4","last_reported":1728594529,"current_range_meters":18000,"station_id":"ce4bhl12rcd13ifvqgf0","pricing_plan_id":"cebpf4jnsgd1na2vs0mg"},{"bike_id":"4c1ba88a-a247-4412-81b1-d49422aec9db","system_id":"levelo_inurba_marseille","lat":43.317,"lon":5.377012,"is_reserved":false,"is_disabled":false,"rental_uris":{"android":"levelo://app?vid=4c1ba88a-a247-4412-81b1-d49422aec9db","ios":"levelo://app?vid=4c1ba88a-a247-4412-81b1-d49422aec9db"},"vehicle_type_id":"4","last_reported":1728594529,"current_range_meters":38400,"station_id":"ce4bgth2rcd13ifvqch0","pricing_plan_id":"cebpf4jnsgd1na2vs0mg"},{"bike_id":"47e58452-78e8-4b80-bd1b-533509c8cfcd","system_id":"levelo_inurba_marseille","lat":43.25936,"lon":5.40913,"is_reserved":false,"is_disabled":false,"rental_uris":{"android":"levelo://app?vid=47e58452-78e8-4b80-bd1b-533509c8cfcd","ios":"levelo://app?vid=47e58452-78e8-4b80-bd1b-533509c8cfcd"},"vehicle_type_id":"4","last_reported":1728594529,"current_range_meters":10000,"station_id":"ce4bhm92rcd13ifvqglg","pricing_plan_id":"cebpf4jnsgd1na2vs0mg"},{"bike_id":"308cc5b1-650a-46f5-8879-e00584558dc5","system_id":"levelo_inurba_marseille","lat":43.298,"lon":5.37105,"is_reserved":false,"is_disabled":false,"rental_uris":{"android":"levelo://app?vid=308cc5b1-650a-46f5-8879-e00584558dc5","ios":"levelo://app?vid=308cc5b1-650a-46f5-8879-e00584558dc5"},"vehicle_type_id":"4","last_reported":1728594529,"current_range_meters":38800,"station_id":"ce4bgop2rcd13ifvqc1g","pricing_plan_id":"cebpf4jnsgd1na2vs0mg"},{"bike_id":"100515e6-0aa5-4606-8b5f-b39339aa3e83","system_id":"levelo_inurba_marseille","lat":43.29849,"lon":5.3627,"is_reserved":false,"is_disabled":false,"rental_uris":{"android":"levelo://app?vid=100515e6-0aa5-4606-8b5f-b39339aa3e83","ios":"levelo://app?vid=100515e6-0aa5-4606-8b5f-b39339aa3e83"},"vehicle_type_id":"4","last_reported":1728594529,"current_range_meters":9200,"station_id":"ce4bgpp2rcd13ifvqc3g","pricing_plan_id":"cebpf4jnsgd1na2vs0mg"},{"bike_id":"66c53e00-bc3c-47bf-96a7-e9512d8a40c8","system_id":"levelo_inurba_marseille","lat":43.28586,"lon":5.395,"is_reserved":false,"is_disabled":false,"rental_uris":{"android":"levelo://app?vid=66c53e00-bc3c-47bf-96a7-e9512d8a40c8","ios":"levelo://app?vid=66c53e00-bc3c-47bf-96a7-e9512d8a40c8"},"vehicle_type_id":"4","last_reported":1728594529,"current_range_meters":35200,"station_id":"ce4bh292rcd13ifvqdg0","pricing_plan_id":"cebpf4jnsgd1na2vs0mg"},{"bike_id":"2e57e480-a324-489b-8946-f7d9d9edcf00","system_id":"levelo_inurba_marseille","lat":43.33618,"lon":5.41036,"is_reserved":false,"is_disabled":false,"rental_uris":{"android":"levelo://app?vid=2e57e480-a324-489b-8946-f7d9d9edcf00","ios":"levelo://app?vid=2e57e480-a324-489b-8946-f7d9d9edcf00"},"vehicle_type_id":"4","last_reported":1728594529,"current_range_meters":12800,"station_id":"ce4bhqh2rcd13ifvqhmg","pricing_plan_id":"cebpf4jnsgd1na2vs0mg"},{"bike_id":"bda3fe94-6c86-4ae7-a299-1014f0b7764b","system_id":"levelo_inurba_marseille","lat":43.280334,"lon":5.369447,"is_reserved":false,"is_disabled":false,"rental_uris":{"android":"levelo://app?vid=bda3fe94-6c86-4ae7-a299-1014f0b7764b","ios":"levelo://app?vid=bda3fe94-6c86-4ae7-a299-1014f0b7764b"},"vehicle_type_id":"4","last_reported":1728594529,"current_range_meters":39200,"station_id":"ce4bha12rcd13ifvqef0","pricing_plan_id":"cebpf4jnsgd1na2vs0mg"},{"bike_id":"4e6a08ae-9e79-48c6-89f4-c318fef764a9","system_id":"levelo_inurba_marseille","lat":43.32004,"lon":5.38162,"is_reserved":false,"is_disabled":false,"rental_uris":{"android":"levelo://app?vid=4e6a08ae-9e79-48c6-89f4-c318fef764a9","ios":"levelo://app?vid=4e6a08ae-9e79-48c6-89f4-c318fef764a9"},"vehicle_type_id":"4","last_reported":1728594529,"current_range_meters":4800,"station_id":"ce4bhr12rcd13ifvqhpg","pricing_plan_id":"cebpf4jnsgd1na2vs0mg"},{"bike_id":"5ec24874-40d5-40f7-ba88-9ba229ae54d7","system_id":"levelo_inurba_marseille","lat":43.24653,"lon":5.38895,"is_reserved":false,"is_disabled":false,"rental_uris":{"android":"levelo://app?vid=5ec24874-40d5-40f7-ba88-9ba229ae54d7","ios":"levelo://app?vid=5ec24874-40d5-40f7-ba88-9ba229ae54d7"},"vehicle_type_id":"4","last_reported":1728594529,"current_range_meters":22400,"station_id":"ce4bhg12rcd13ifvqf60","pricing_plan_id":"cebpf4jnsgd1na2vs0mg"},{"bike_id":"a8f0bfa5-7bc9-40e4-a9a2-5a1a8ec5daab","system_id":"levelo_inurba_marseille","lat":43.2798,"lon":5.38751,"is_reserved":false,"is_disabled":false,"rental_uris":{"android":"levelo://app?vid=a8f0bfa5-7bc9-40e4-a9a2-5a1a8ec5daab","ios":"levelo://app?vid=a8f0bfa5-7bc9-40e4-a9a2-5a1a8ec5daab"},"vehicle_type_id":"4","last_reported":1728594529,"current_range_meters":16800,"station_id":"ce4bhg12rcd13ifvqf80","pricing_plan_id":"cebpf4jnsgd1na2vs0mg"},{"bike_id":"74e8d552-9502-4fd9-b4f2-2eea68199539","system_id":"levelo_inurba_marseille","lat":43.30218,"lon":5.39476,"is_reserved":false,"is_disabled":false,"rental_uris":{"android":"levelo://app?vid=74e8d552-9502-4fd9-b4f2-2eea68199539","ios":"levelo://app?vid=74e8d552-9502-4fd9-b4f2-2eea68199539"},"vehicle_type_id":"4","last_reported":1728594529,"current_range_meters":18000,"station_id":"ce4bh0p2rcd13ifvqd70","pricing_plan_id":"cebpf4jnsgd1na2vs0mg"},{"bike_id":"b1cec317-5cdd-4ace-a32f-69e4b512837c","system_id":"levelo_inurba_marseille","lat":43.323828,"lon":5.374484,"is_reserved":false,"is_disabled":false,"rental_uris":{"android":"levelo://app?vid=b1cec317-5cdd-4ace-a32f-69e4b512837c","ios":"levelo://app?vid=b1cec317-5cdd-4ace-a32f-69e4b512837c"},"vehicle_type_id":"4","last_reported":1728594529,"current_range_meters":28400,"station_id":"ce4bgth2rcd13ifvqch0","pricing_plan_id":"cebpf4jnsgd1na2vs0mg"},{"bike_id":"33936df8-00e8-446e-8d6a-7573c5964a4c","system_id":"levelo_inurba_marseille","lat":43.30214,"lon":5.39465,"is_reserved":false,"is_disabled":false,"rental_uris":{"android":"levelo://app?vid=33936df8-00e8-446e-8d6a-7573c5964a4c","ios":"levelo://app?vid=33936df8-00e8-446e-8d6a-7573c5964a4c"},"vehicle_type_id":"4","last_reported":1728594529,"current_range_meters":30000,"station_id":"ce4bh0p2rcd13ifvqd70","pricing_plan_id":"cebpf4jnsgd1na2vs0mg"},{"bike_id":"e309676a-ff83-4f2c-b129-ebe67f4db550","system_id":"levelo_inurba_marseille","lat":43.31077,"lon":5.38353,"is_reserved":false,"is_disabled":false,"rental_uris":{"android":"levelo://app?vid=e309676a-ff83-4f2c-b129-ebe67f4db550","ios":"levelo://app?vid=e309676a-ff83-4f2c-b129-ebe67f4db550"},"vehicle_type_id":"4","last_reported":1728594529,"current_range_meters":38000,"station_id":"ce4bgv92rcd13ifvqcr0","pricing_plan_id":"cebpf4jnsgd1na2vs0mg"},{"bike_id":"0d665a2a-7be6-41c7-b2cd-59c0b7ad781d","system_id":"levelo_inurba_marseille","lat":43.28465,"lon":5.35898,"is_reserved":false,"is_disabled":false,"rental_uris":{"android":"levelo://app?vid=0d665a2a-7be6-41c7-b2cd-59c0b7ad781d","ios":"levelo://app?vid=0d665a2a-7be6-41c7-b2cd-59c0b7ad781d"},"vehicle_type_id":"4","last_reported":1728594529,"current_range_meters":7200,"station_id":"ce4bhah2rcd13ifvqei0","pricing_plan_id":"cebpf4jnsgd1na2vs0mg"},{"bike_id":"e67cbedd-a992-4441-b376-acc425e0d4c2","system_id":"levelo_inurba_marseille","lat":43.25872,"lon":5.39909,"is_reserved":false,"is_disabled":false,"rental_uris":{"android":"levelo://app?vid=e67cbedd-a992-4441-b376-acc425e0d4c2","ios":"levelo://app?vid=e67cbedd-a992-4441-b376-acc425e0d4c2"},"vehicle_type_id":"4","last_reported":1728594529,"current_range_meters":22400,"station_id":"ce4bhl92rcd13ifvqghg","pricing_plan_id":"cebpf4jnsgd1na2vs0mg"},{"bike_id":"27482599-6ac1-4451-896d-9d27077a44e3","system_id":"levelo_inurba_marseille","lat":43.26032,"lon":5.37556,"is_reserved":false,"is_disabled":false,"rental_uris":{"android":"levelo://app?vid=27482599-6ac1-4451-896d-9d27077a44e3","ios":"levelo://app?vid=27482599-6ac1-4451-896d-9d27077a44e3"},"vehicle_type_id":"4","last_reported":1728594529,"current_range_meters":32000,"station_id":"ce4bhgh2rcd13ifvqfa0","pricing_plan_id":"cebpf4jnsgd1na2vs0mg"},{"bike_id":"aa75c41c-1391-4d5a-b0ad-fb29c317877d","system_id":"levelo_inurba_marseille","lat":43.23072,"lon":5.35497,"is_reserved":false,"is_disabled":false,"rental_uris":{"android":"levelo://app?vid=aa75c41c-1391-4d5a-b0ad-fb29c317877d","ios":"levelo://app?vid=aa75c41c-1391-4d5a-b0ad-fb29c317877d"},"vehicle_type_id":"4","last_reported":1728594529,"current_range_meters":9600,"station_id":"cpo3342slgdg3j2ifvpg","pricing_plan_id":"cebpf4jnsgd1na2vs0mg"},{"bike_id":"8db117d4-2b61-4d71-8f89-5a2e951e71cb","system_id":"levelo_inurba_marseille","lat":43.26806,"lon":5.40269,"is_reserved":false,"is_disabled":false,"rental_uris":{"android":"levelo://app?vid=8db117d4-2b61-4d71-8f89-5a2e951e71cb","ios":"levelo://app?vid=8db117d4-2b61-4d71-8f89-5a2e951e71cb"},"vehicle_type_id":"4","last_reported":1728594529,"current_range_meters":6800,"station_id":"ce501612rcd8frsf0b60","pricing_plan_id":"cebpf4jnsgd1na2vs0mg"},{"bike_id":"7038b20e-eb7d-4386-9e9f-6324751d4789","system_id":"levelo_inurba_marseille","lat":43.2808,"lon":5.39263,"is_reserved":false,"is_disabled":false,"rental_uris":{"android":"levelo://app?vid=7038b20e-eb7d-4386-9e9f-6324751d4789","ios":"levelo://app?vid=7038b20e-eb7d-4386-9e9f-6324751d4789"},"vehicle_type_id":"4","last_reported":1728594529,"current_range_meters":15200,"station_id":"","pricing_plan_id":"cebpf4jnsgd1na2vs0mg"},{"bike_id":"75f1fd93-3fd8-468d-8eee-6eb32bebf085","system_id":"levelo_inurba_marseille","lat":43.284501,"lon":5.391881,"is_reserved":false,"is_disabled":false,"rental_uris":{"android":"levelo://app?vid=75f1fd93-3fd8-468d-8eee-6eb32bebf085","ios":"levelo://app?vid=75f1fd93-3fd8-468d-8eee-6eb32bebf085"},"vehicle_type_id":"4","last_reported":1728594529,"current_range_meters":37600,"station_id":"ce4bhoh2rcd13ifvqh5g","pricing_plan_id":"cebpf4jnsgd1na2vs0mg"},{"bike_id":"f724ee69-c9ae-4fb6-bfa9-7e350f159353","system_id":"levelo_inurba_marseille","lat":43.31184,"lon":5.38718,"is_reserved":false,"is_disabled":false,"rental_uris":{"android":"levelo://app?vid=f724ee69-c9ae-4fb6-bfa9-7e350f159353","ios":"levelo://app?vid=f724ee69-c9ae-4fb6-bfa9-7e350f159353"},"vehicle_type_id":"4","last_reported":1728594529,"current_range_meters":36800,"station_id":"ce4bgv12rcd13ifvqcp0","pricing_plan_id":"cebpf4jnsgd1na2vs0mg"},{"bike_id":"d9849edc-abaa-432a-a1f1-9573c2211b86","system_id":"levelo_inurba_marseille","lat":43.2887,"lon":5.35854,"is_reserved":false,"is_disabled":false,"rental_uris":{"android":"levelo://app?vid=d9849edc-abaa-432a-a1f1-9573c2211b86","ios":"levelo://app?vid=d9849edc-abaa-432a-a1f1-9573c2211b86"},"vehicle_type_id":"4","last_reported":1728594529,"current_range_meters":32800,"station_id":"ce4bhb12rcd13ifvqem0","pricing_plan_id":"cebpf4jnsgd1na2vs0mg"},{"bike_id":"d4e7c199-5b07-4cc4-b4e1-e0fc91d98728","system_id":"levelo_inurba_marseille","lat":43.25589,"lon":5.38226,"is_reserved":false,"is_disabled":false,"rental_uris":{"android":"levelo://app?vid=d4e7c199-5b07-4cc4-b4e1-e0fc91d98728","ios":"levelo://app?vid=d4e7c199-5b07-4cc4-b4e1-e0fc91d98728"},"vehicle_type_id":"4","last_reported":1728594529,"current_range_meters":38800,"station_id":"ce4bhih2rcd13ifvqfs0","pricing_plan_id":"cebpf4jnsgd1na2vs0mg"},{"bike_id":"b1009450-6152-462c-a724-90df51eeb6db","system_id":"levelo_inurba_marseille","lat":43.32382,"lon":5.38917,"is_reserved":false,"is_disabled":false,"rental_uris":{"android":"levelo://app?vid=b1009450-6152-462c-a724-90df51eeb6db","ios":"levelo://app?vid=b1009450-6152-462c-a724-90df51eeb6db"},"vehicle_type_id":"4","last_reported":1728594529,"current_range_meters":8800,"station_id":"ce4bhqp2rcd13ifvqhog","pricing_plan_id":"cebpf4jnsgd1na2vs0mg"},{"bike_id":"35764583-4bcb-42c3-9ac1-a3b8e46dd00d","system_id":"levelo_inurba_marseille","lat":43.324659,"lon":5.365597,"is_reserved":false,"is_disabled":false,"rental_uris":{"android":"levelo://app?vid=35764583-4bcb-42c3-9ac1-a3b8e46dd00d","ios":"levelo://app?vid=35764583-4bcb-42c3-9ac1-a3b8e46dd00d"},"vehicle_type_id":"4","last_reported":1728594529,"current_range_meters":38800,"station_id":"ce4bhs12rcd13ifvqhvg","pricing_plan_id":"cebpf4jnsgd1na2vs0mg"},{"bike_id":"f287af4e-3264-443f-9ec3-7b6b59b3fe19","system_id":"levelo_inurba_marseille","lat":43.28707,"lon":5.39985,"is_reserved":false,"is_disabled":false,"rental_uris":{"android":"levelo://app?vid=f287af4e-3264-443f-9ec3-7b6b59b3fe19","ios":"levelo://app?vid=f287af4e-3264-443f-9ec3-7b6b59b3fe19"},"vehicle_type_id":"4","last_reported":1728594529,"current_range_meters":30400,"station_id":"ce4bho92rcd13ifvqh3g","pricing_plan_id":"cebpf4jnsgd1na2vs0mg"},{"bike_id":"d49254ea-353c-454e-8e6a-d7c994c807f1","system_id":"levelo_inurba_marseille","lat":43.308945,"lon":5.39661,"is_reserved":false,"is_disabled":false,"rental_uris":{"android":"levelo://app?vid=d49254ea-353c-454e-8e6a-d7c994c807f1","ios":"levelo://app?vid=d49254ea-353c-454e-8e6a-d7c994c807f1"},"vehicle_type_id":"4","last_reported":1728594529,"current_range_meters":20800,"station_id":"ce4bh012rcd13ifvqcv0","pricing_plan_id":"cebpf4jnsgd1na2vs0mg"},{"bike_id":"c4b93dc9-7c4f-495a-b230-86ef5f878385","system_id":"levelo_inurba_marseille","lat":43.31273,"lon":5.40172,"is_reserved":false,"is_disabled":false,"rental_uris":{"android":"levelo://app?vid=c4b93dc9-7c4f-495a-b230-86ef5f878385","ios":"levelo://app?vid=c4b93dc9-7c4f-495a-b230-86ef5f878385"},"vehicle_type_id":"4","last_reported":1728594529,"current_range_meters":37600,"station_id":"ce4bh092rcd13ifvqd30","pricing_plan_id":"cebpf4jnsgd1na2vs0mg"},{"bike_id":"a1282aa6-92ad-4c1d-b51e-31fd08296a0e","system_id":"levelo_inurba_marseille","lat":43.29781,"lon":5.37099,"is_reserved":false,"is_disabled":false,"rental_uris":{"android":"levelo://app?vid=a1282aa6-92ad-4c1d-b51e-31fd08296a0e","ios":"levelo://app?vid=a1282aa6-92ad-4c1d-b51e-31fd08296a0e"},"vehicle_type_id":"4","last_reported":1728594529,"current_range_meters":16400,"station_id":"ce4bgop2rcd13ifvqc1g","pricing_plan_id":"cebpf4jnsgd1na2vs0mg"},{"bike_id":"64ab2aac-964d-4671-8a75-b81021d1957f","system_id":"levelo_inurba_marseille","lat":43.27669,"lon":5.38888,"is_reserved":false,"is_disabled":false,"rental_uris":{"android":"levelo://app?vid=64ab2aac-964d-4671-8a75-b81021d1957f","ios":"levelo://app?vid=64ab2aac-964d-4671-8a75-b81021d1957f"},"vehicle_type_id":"4","last_reported":1728594529,"current_range_meters":35200,"station_id":"ce4bhi12rcd13ifvqfo0","pricing_plan_id":"cebpf4jnsgd1na2vs0mg"},{"bike_id":"99d456c5-aec6-4000-bda5-792b44ea839a","system_id":"levelo_inurba_marseille","lat":43.30432,"lon":5.39756,"is_reserved":false,"is_disabled":false,"rental_uris":{"android":"levelo://app?vid=99d456c5-aec6-4000-bda5-792b44ea839a","ios":"levelo://app?vid=99d456c5-aec6-4000-bda5-792b44ea839a"},"vehicle_type_id":"4","last_reported":1728594529,"current_range_meters":17200,"station_id":"ce4bh092rcd13ifvqd20","pricing_plan_id":"cebpf4jnsgd1na2vs0mg"},{"bike_id":"ad2eca18-6f9c-4e51-958a-8f28bb1f9a24","system_id":"levelo_inurba_marseille","lat":43.2846,"lon":5.35889,"is_reserved":false,"is_disabled":false,"rental_uris":{"android":"levelo://app?vid=ad2eca18-6f9c-4e51-958a-8f28bb1f9a24","ios":"levelo://app?vid=ad2eca18-6f9c-4e51-958a-8f28bb1f9a24"},"vehicle_type_id":"4","last_reported":1728594529,"current_range_meters":2000,"station_id":"ce4bhah2rcd13ifvqei0","pricing_plan_id":"cebpf4jnsgd1na2vs0mg"},{"bike_id":"a1f9acd4-c2e4-45fc-b38b-0e0aceb1d442","system_id":"levelo_inurba_marseille","lat":43.2467,"lon":5.38167,"is_reserved":false,"is_disabled":false,"rental_uris":{"android":"levelo://app?vid=a1f9acd4-c2e4-45fc-b38b-0e0aceb1d442","ios":"levelo://app?vid=a1f9acd4-c2e4-45fc-b38b-0e0aceb1d442"},"vehicle_type_id":"4","last_reported":1728594529,"current_range_meters":11600,"station_id":"ce4bhih2rcd13ifvqfr0","pricing_plan_id":"cebpf4jnsgd1na2vs0mg"},{"bike_id":"7e9118c7-ac91-4dfd-a123-fd0171c1170c","system_id":"levelo_inurba_marseille","lat":43.32533,"lon":5.36793,"is_reserved":false,"is_disabled":false,"rental_uris":{"android":"levelo://app?vid=7e9118c7-ac91-4dfd-a123-fd0171c1170c","ios":"levelo://app?vid=7e9118c7-ac91-4dfd-a123-fd0171c1170c"},"vehicle_type_id":"4","last_reported":1728594529,"current_range_meters":6800,"station_id":"","pricing_plan_id":"cebpf4jnsgd1na2vs0mg"},{"bike_id":"cc60357c-1287-4dc9-a114-d849a29aed15","system_id":"levelo_inurba_marseille","lat":43.31184,"lon":5.3871,"is_reserved":false,"is_disabled":false,"rental_uris":{"android":"levelo://app?vid=cc60357c-1287-4dc9-a114-d849a29aed15","ios":"levelo://app?vid=cc60357c-1287-4dc9-a114-d849a29aed15"},"vehicle_type_id":"4","last_reported":1728594529,"current_range_meters":29600,"station_id":"ce4bgv12rcd13ifvqcp0","pricing_plan_id":"cebpf4jnsgd1na2vs0mg"},{"bike_id":"f3f44d1a-43c5-4b0c-a09e-5e1f2235b774","system_id":"levelo_inurba_marseille","lat":43.323,"lon":5.38271,"is_reserved":false,"is_disabled":false,"rental_uris":{"android":"levelo://app?vid=f3f44d1a-43c5-4b0c-a09e-5e1f2235b774","ios":"levelo://app?vid=f3f44d1a-43c5-4b0c-a09e-5e1f2235b774"},"vehicle_type_id":"4","last_reported":1728594529,"current_range_meters":24800,"station_id":"ce4bhr12rcd13ifvqhqg","pricing_plan_id":"cebpf4jnsgd1na2vs0mg"},{"bike_id":"f067f1c2-4c2c-45a8-873d-45919df56b88","system_id":"levelo_inurba_marseille","lat":43.25585,"lon":5.38236,"is_reserved":false,"is_disabled":false,"rental_uris":{"android":"levelo://app?vid=f067f1c2-4c2c-45a8-873d-45919df56b88","ios":"levelo://app?vid=f067f1c2-4c2c-45a8-873d-45919df56b88"},"vehicle_type_id":"4","last_reported":1728594529,"current_range_meters":38800,"station_id":"ce4bhih2rcd13ifvqfs0","pricing_plan_id":"cebpf4jnsgd1na2vs0mg"},{"bike_id":"e4d69715-31b8-43a3-9208-69b751e15fcd","system_id":"levelo_inurba_marseille","lat":43.32376,"lon":5.38878,"is_reserved":false,"is_disabled":false,"rental_uris":{"android":"levelo://app?vid=e4d69715-31b8-43a3-9208-69b751e15fcd","ios":"levelo://app?vid=e4d69715-31b8-43a3-9208-69b751e15fcd"},"vehicle_type_id":"4","last_reported":1728594529,"current_range_meters":31200,"station_id":"ce4bhqp2rcd13ifvqhog","pricing_plan_id":"cebpf4jnsgd1na2vs0mg"},{"bike_id":"58c50962-ccd8-411a-b07d-930dbb207d5d","system_id":"levelo_inurba_marseille","lat":43.298,"lon":5.38177,"is_reserved":false,"is_disabled":false,"rental_uris":{"android":"levelo://app?vid=58c50962-ccd8-411a-b07d-930dbb207d5d","ios":"levelo://app?vid=58c50962-ccd8-411a-b07d-930dbb207d5d"},"vehicle_type_id":"4","last_reported":1728594529,"current_range_meters":30800,"station_id":"ce4bhq12rcd13ifvqhig","pricing_plan_id":"cebpf4jnsgd1na2vs0mg"},{"bike_id":"51926afc-e06a-4cb1-baa7-c8b9a65e4d5c","system_id":"levelo_inurba_marseille","lat":43.30935,"lon":5.40145,"is_reserved":false,"is_disabled":false,"rental_uris":{"android":"levelo://app?vid=51926afc-e06a-4cb1-baa7-c8b9a65e4d5c","ios":"levelo://app?vid=51926afc-e06a-4cb1-baa7-c8b9a65e4d5c"},"vehicle_type_id":"4","last_reported":1728594529,"current_range_meters":24800,"station_id":"ce4bgvp2rcd13ifvqct0","pricing_plan_id":"cebpf4jnsgd1na2vs0mg"},{"bike_id":"eabaafd4-ab60-47f8-89ce-ef0e72c20579","system_id":"levelo_inurba_marseille","lat":43.337444,"lon":5.374475,"is_reserved":false,"is_disabled":false,"rental_uris":{"android":"levelo://app?vid=eabaafd4-ab60-47f8-89ce-ef0e72c20579","ios":"levelo://app?vid=eabaafd4-ab60-47f8-89ce-ef0e72c20579"},"vehicle_type_id":"4","last_reported":1728594529,"current_range_meters":38800,"station_id":"ce4bhr92rcd13ifvqhsg","pricing_plan_id":"cebpf4jnsgd1na2vs0mg"},{"bike_id":"5211300e-8cc7-4ce3-90b9-f9f7a4a80867","system_id":"levelo_inurba_marseille","lat":43.23986,"lon":5.36612,"is_reserved":false,"is_disabled":false,"rental_uris":{"android":"levelo://app?vid=5211300e-8cc7-4ce3-90b9-f9f7a4a80867","ios":"levelo://app?vid=5211300e-8cc7-4ce3-90b9-f9f7a4a80867"},"vehicle_type_id":"4","last_reported":1728594529,"current_range_meters":17600,"station_id":"ce4bhi12rcd13ifvqfp0","pricing_plan_id":"cebpf4jnsgd1na2vs0mg"},{"bike_id":"ce04f614-a320-42df-8776-6146f8ec634d","system_id":"levelo_inurba_marseille","lat":43.25583,"lon":5.3823,"is_reserved":false,"is_disabled":false,"rental_uris":{"android":"levelo://app?vid=ce04f614-a320-42df-8776-6146f8ec634d","ios":"levelo://app?vid=ce04f614-a320-42df-8776-6146f8ec634d"},"vehicle_type_id":"4","last_reported":1728594529,"current_range_meters":38800,"station_id":"ce4bhih2rcd13ifvqfs0","pricing_plan_id":"cebpf4jnsgd1na2vs0mg"},{"bike_id":"a8736bee-a84b-4ee6-9924-e01a00138d84","system_id":"levelo_inurba_marseille","lat":43.26216,"lon":5.37442,"is_reserved":false,"is_disabled":false,"rental_uris":{"android":"levelo://app?vid=a8736bee-a84b-4ee6-9924-e01a00138d84","ios":"levelo://app?vid=a8736bee-a84b-4ee6-9924-e01a00138d84"},"vehicle_type_id":"4","last_reported":1728594529,"current_range_meters":39200,"station_id":"ce4bhgp2rcd13ifvqfc0","pricing_plan_id":"cebpf4jnsgd1na2vs0mg"},{"bike_id":"bc884902-5e2f-4b49-a18a-7812b4ee1657","system_id":"levelo_inurba_marseille","lat":43.28942,"lon":5.36398,"is_reserved":false,"is_disabled":false,"rental_uris":{"android":"levelo://app?vid=bc884902-5e2f-4b49-a18a-7812b4ee1657","ios":"levelo://app?vid=bc884902-5e2f-4b49-a18a-7812b4ee1657"},"vehicle_type_id":"4","last_reported":1728594529,"current_range_meters":11600,"station_id":"ce4bhc92rcd13ifvqetg","pricing_plan_id":"cebpf4jnsgd1na2vs0mg"},{"bike_id":"5a322aa4-cb61-414b-83a8-4efd14351d8c","system_id":"levelo_inurba_marseille","lat":43.2953,"lon":5.39401,"is_reserved":false,"is_disabled":false,"rental_uris":{"android":"levelo://app?vid=5a322aa4-cb61-414b-83a8-4efd14351d8c","ios":"levelo://app?vid=5a322aa4-cb61-414b-83a8-4efd14351d8c"},"vehicle_type_id":"4","last_reported":1728594529,"current_range_meters":37600,"station_id":"ce4bh292rcd13ifvqdf0","pricing_plan_id":"cebpf4jnsgd1na2vs0mg"},{"bike_id":"23cfd406-e208-402f-9475-9e4ba8d61749","system_id":"levelo_inurba_marseille","lat":43.33026,"lon":5.39041,"is_reserved":false,"is_disabled":false,"rental_uris":{"android":"levelo://app?vid=23cfd406-e208-402f-9475-9e4ba8d61749","ios":"levelo://app?vid=23cfd406-e208-402f-9475-9e4ba8d61749"},"vehicle_type_id":"4","last_reported":1728594529,"current_range_meters":37600,"station_id":"ce4bhr92rcd13ifvqhrg","pricing_plan_id":"cebpf4jnsgd1na2vs0mg"},{"bike_id":"fcfc6d63-8e7e-48bf-ab16-5fb59f961307","system_id":"levelo_inurba_marseille","lat":43.30892,"lon":5.37182,"is_reserved":false,"is_disabled":false,"rental_uris":{"android":"levelo://app?vid=fcfc6d63-8e7e-48bf-ab16-5fb59f961307","ios":"levelo://app?vid=fcfc6d63-8e7e-48bf-ab16-5fb59f961307"},"vehicle_type_id":"4","last_reported":1728594529,"current_range_meters":36000,"station_id":"ce4bguh2rcd13ifvqckg","pricing_plan_id":"cebpf4jnsgd1na2vs0mg"},{"bike_id":"0e61c334-c8e4-4e84-8bc7-eae6f6806014","system_id":"levelo_inurba_marseille","lat":43.27176,"lon":5.40998,"is_reserved":false,"is_disabled":false,"rental_uris":{"android":"levelo://app?vid=0e61c334-c8e4-4e84-8bc7-eae6f6806014","ios":"levelo://app?vid=0e61c334-c8e4-4e84-8bc7-eae6f6806014"},"vehicle_type_id":"4","last_reported":1728594529,"current_range_meters":34800,"station_id":"ce4bhl12rcd13ifvqgf0","pricing_plan_id":"cebpf4jnsgd1na2vs0mg"},{"bike_id":"c198aa29-8019-4b39-9fd2-fc4dbf5016db","system_id":"levelo_inurba_marseille","lat":43.28866,"lon":5.35842,"is_reserved":false,"is_disabled":false,"rental_uris":{"android":"levelo://app?vid=c198aa29-8019-4b39-9fd2-fc4dbf5016db","ios":"levelo://app?vid=c198aa29-8019-4b39-9fd2-fc4dbf5016db"},"vehicle_type_id":"4","last_reported":1728594529,"current_range_meters":38000,"station_id":"ce4bhb12rcd13ifvqem0","pricing_plan_id":"cebpf4jnsgd1na2vs0mg"},{"bike_id":"e00c54a6-f353-44f0-8b3f-b064bb248525","system_id":"levelo_inurba_marseille","lat":43.3122,"lon":5.36833,"is_reserved":false,"is_disabled":false,"rental_uris":{"android":"levelo://app?vid=e00c54a6-f353-44f0-8b3f-b064bb248525","ios":"levelo://app?vid=e00c54a6-f353-44f0-8b3f-b064bb248525"},"vehicle_type_id":"4","last_reported":1728594529,"current_range_meters":22800,"station_id":"ce4bgl92rcd13ifvqbq0","pricing_plan_id":"cebpf4jnsgd1na2vs0mg"},{"bike_id":"89389244-3408-4399-88ba-053c7003f62b","system_id":"levelo_inurba_marseille","lat":43.32002,"lon":5.3815,"is_reserved":false,"is_disabled":false,"rental_uris":{"android":"levelo://app?vid=89389244-3408-4399-88ba-053c7003f62b","ios":"levelo://app?vid=89389244-3408-4399-88ba-053c7003f62b"},"vehicle_type_id":"4","last_reported":1728594529,"current_range_meters":20000,"station_id":"ce4bhr12rcd13ifvqhpg","pricing_plan_id":"cebpf4jnsgd1na2vs0mg"},{"bike_id":"112e413a-ac11-41b5-b46b-beb09d9d917d","system_id":"levelo_inurba_marseille","lat":43.31064,"lon":5.38355,"is_reserved":false,"is_disabled":false,"rental_uris":{"android":"levelo://app?vid=112e413a-ac11-41b5-b46b-beb09d9d917d","ios":"levelo://app?vid=112e413a-ac11-41b5-b46b-beb09d9d917d"},"vehicle_type_id":"4","last_reported":1728594529,"current_range_meters":25200,"station_id":"ce4bgv92rcd13ifvqcr0","pricing_plan_id":"cebpf4jnsgd1na2vs0mg"},{"bike_id":"bddabd11-ca19-4f46-9a6a-c5c059e44818","system_id":"levelo_inurba_marseille","lat":43.23194,"lon":5.35558,"is_reserved":false,"is_disabled":false,"rental_uris":{"android":"levelo://app?vid=bddabd11-ca19-4f46-9a6a-c5c059e44818","ios":"levelo://app?vid=bddabd11-ca19-4f46-9a6a-c5c059e44818"},"vehicle_type_id":"4","last_reported":1728594529,"current_range_meters":38800,"station_id":"ce4bhu92rcd13ifvqi70","pricing_plan_id":"cebpf4jnsgd1na2vs0mg"},{"bike_id":"8adc336e-f08f-429d-9491-96a4e6cccbbb","system_id":"levelo_inurba_marseille","lat":43.27562,"lon":5.384,"is_reserved":false,"is_disabled":false,"rental_uris":{"android":"levelo://app?vid=8adc336e-f08f-429d-9491-96a4e6cccbbb","ios":"levelo://app?vid=8adc336e-f08f-429d-9491-96a4e6cccbbb"},"vehicle_type_id":"4","last_reported":1728594529,"current_range_meters":38000,"station_id":"ce4bhh92rcd13ifvqfi0","pricing_plan_id":"cebpf4jnsgd1na2vs0mg"},{"bike_id":"3ae18fed-f345-4ef0-8ed2-3540202f3e73","system_id":"levelo_inurba_marseille","lat":43.33764,"lon":5.37443,"is_reserved":false,"is_disabled":false,"rental_uris":{"android":"levelo://app?vid=3ae18fed-f345-4ef0-8ed2-3540202f3e73","ios":"levelo://app?vid=3ae18fed-f345-4ef0-8ed2-3540202f3e73"},"vehicle_type_id":"4","last_reported":1728594529,"current_range_meters":30800,"station_id":"","pricing_plan_id":"cebpf4jnsgd1na2vs0mg"},{"bike_id":"c4f493c9-52b1-4a65-9e7c-ab8801aae133","system_id":"levelo_inurba_marseille","lat":43.29045,"lon":5.39966,"is_reserved":false,"is_disabled":false,"rental_uris":{"android":"levelo://app?vid=c4f493c9-52b1-4a65-9e7c-ab8801aae133","ios":"levelo://app?vid=c4f493c9-52b1-4a65-9e7c-ab8801aae133"},"vehicle_type_id":"4","last_reported":1728594529,"current_range_meters":6000,"station_id":"ce4bh392rcd13ifvqdm0","pricing_plan_id":"cebpf4jnsgd1na2vs0mg"},{"bike_id":"11807e6b-d0f0-4a56-8136-5f9d78337ca2","system_id":"levelo_inurba_marseille","lat":43.2828,"lon":5.35079,"is_reserved":false,"is_disabled":false,"rental_uris":{"android":"levelo://app?vid=11807e6b-d0f0-4a56-8136-5f9d78337ca2","ios":"levelo://app?vid=11807e6b-d0f0-4a56-8136-5f9d78337ca2"},"vehicle_type_id":"4","last_reported":1728594529,"current_range_meters":38800,"station_id":"ce4bhbp2rcd13ifvqerg","pricing_plan_id":"cebpf4jnsgd1na2vs0mg"},{"bike_id":"e81b95bf-9d31-4a74-8040-6cfd394aeafd","system_id":"levelo_inurba_marseille","lat":43.2481,"lon":5.37459,"is_reserved":false,"is_disabled":false,"rental_uris":{"android":"levelo://app?vid=e81b95bf-9d31-4a74-8040-6cfd394aeafd","ios":"levelo://app?vid=e81b95bf-9d31-4a74-8040-6cfd394aeafd"},"vehicle_type_id":"4","last_reported":1728594529,"current_range_meters":5600,"station_id":"ce4bhgh2rcd13ifvqfb0","pricing_plan_id":"cebpf4jnsgd1na2vs0mg"},{"bike_id":"930b0273-1712-46f6-82ec-7b6a4d41b7e6","system_id":"levelo_inurba_marseille","lat":43.27826,"lon":5.40713,"is_reserved":false,"is_disabled":false,"rental_uris":{"android":"levelo://app?vid=930b0273-1712-46f6-82ec-7b6a4d41b7e6","ios":"levelo://app?vid=930b0273-1712-46f6-82ec-7b6a4d41b7e6"},"vehicle_type_id":"4","last_reported":1728594529,"current_range_meters":30400,"station_id":"ce4bhnh2rcd13ifvqgtg","pricing_plan_id":"cebpf4jnsgd1na2vs0mg"},{"bike_id":"5563e06b-a814-4b84-86f4-cb06a7c02f32","system_id":"levelo_inurba_marseille","lat":43.31269,"lon":5.40175,"is_reserved":false,"is_disabled":false,"rental_uris":{"android":"levelo://app?vid=5563e06b-a814-4b84-86f4-cb06a7c02f32","ios":"levelo://app?vid=5563e06b-a814-4b84-86f4-cb06a7c02f32"},"vehicle_type_id":"4","last_reported":1728594529,"current_range_meters":39200,"station_id":"ce4bh092rcd13ifvqd30","pricing_plan_id":"cebpf4jnsgd1na2vs0mg"},{"bike_id":"378ace66-f2a0-454c-a34b-e52c5189d74a","system_id":"levelo_inurba_marseille","lat":43.30356,"lon":5.41879,"is_reserved":false,"is_disabled":false,"rental_uris":{"android":"levelo://app?vid=378ace66-f2a0-454c-a34b-e52c5189d74a","ios":"levelo://app?vid=378ace66-f2a0-454c-a34b-e52c5189d74a"},"vehicle_type_id":"4","last_reported":1728594529,"current_range_meters":21600,"station_id":"ce4bhop2rcd13ifvqh7g","pricing_plan_id":"cebpf4jnsgd1na2vs0mg"},{"bike_id":"f2fc0b58-2ea4-4f08-9531-c07e172088b1","system_id":"levelo_inurba_marseille","lat":43.33606,"lon":5.41035,"is_reserved":false,"is_disabled":false,"rental_uris":{"android":"levelo://app?vid=f2fc0b58-2ea4-4f08-9531-c07e172088b1","ios":"levelo://app?vid=f2fc0b58-2ea4-4f08-9531-c07e172088b1"},"vehicle_type_id":"4","last_reported":1728594529,"current_range_meters":10000,"station_id":"ce4bhqh2rcd13ifvqhmg","pricing_plan_id":"cebpf4jnsgd1na2vs0mg"},{"bike_id":"595212db-7084-4a84-983e-aa1be55264e1","system_id":"levelo_inurba_marseille","lat":43.28715,"lon":5.39985,"is_reserved":false,"is_disabled":false,"rental_uris":{"android":"levelo://app?vid=595212db-7084-4a84-983e-aa1be55264e1","ios":"levelo://app?vid=595212db-7084-4a84-983e-aa1be55264e1"},"vehicle_type_id":"4","last_reported":1728594529,"current_range_meters":37600,"station_id":"ce4bho92rcd13ifvqh3g","pricing_plan_id":"cebpf4jnsgd1na2vs0mg"},{"bike_id":"d3515cc2-9931-4d17-a2b9-231072d9e4d2","system_id":"levelo_inurba_marseille","lat":43.23195,"lon":5.35554,"is_reserved":false,"is_disabled":false,"rental_uris":{"android":"levelo://app?vid=d3515cc2-9931-4d17-a2b9-231072d9e4d2","ios":"levelo://app?vid=d3515cc2-9931-4d17-a2b9-231072d9e4d2"},"vehicle_type_id":"4","last_reported":1728594529,"current_range_meters":26800,"station_id":"ce4bhu92rcd13ifvqi70","pricing_plan_id":"cebpf4jnsgd1na2vs0mg"},{"bike_id":"312b792e-9ab3-4c50-bc39-0daa5da2e7cb","system_id":"levelo_inurba_marseille","lat":43.28467,"lon":5.35885,"is_reserved":false,"is_disabled":false,"rental_uris":{"android":"levelo://app?vid=312b792e-9ab3-4c50-bc39-0daa5da2e7cb","ios":"levelo://app?vid=312b792e-9ab3-4c50-bc39-0daa5da2e7cb"},"vehicle_type_id":"4","last_reported":1728594529,"current_range_meters":40000,"station_id":"ce4bhah2rcd13ifvqei0","pricing_plan_id":"cebpf4jnsgd1na2vs0mg"},{"bike_id":"ac4cb82b-ab13-45ee-be9e-27314186ba8e","system_id":"levelo_inurba_marseille","lat":43.25834,"lon":5.39433,"is_reserved":false,"is_disabled":false,"rental_uris":{"android":"levelo://app?vid=ac4cb82b-ab13-45ee-be9e-27314186ba8e","ios":"levelo://app?vid=ac4cb82b-ab13-45ee-be9e-27314186ba8e"},"vehicle_type_id":"4","last_reported":1728594529,"current_range_meters":22000,"station_id":"ce4bhip2rcd13ifvqft0","pricing_plan_id":"cebpf4jnsgd1na2vs0mg"},{"bike_id":"de297cce-b679-43fe-b00c-f1df421469fc","system_id":"levelo_inurba_marseille","lat":43.33038,"lon":5.39046,"is_reserved":false,"is_disabled":false,"rental_uris":{"android":"levelo://app?vid=de297cce-b679-43fe-b00c-f1df421469fc","ios":"levelo://app?vid=de297cce-b679-43fe-b00c-f1df421469fc"},"vehicle_type_id":"4","last_reported":1728594529,"current_range_meters":12000,"station_id":"ce4bhr92rcd13ifvqhrg","pricing_plan_id":"cebpf4jnsgd1na2vs0mg"},{"bike_id":"7e7b65df-372a-4827-a64e-95680e560b3f","system_id":"levelo_inurba_marseille","lat":43.30144,"lon":5.39841,"is_reserved":false,"is_disabled":false,"rental_uris":{"android":"levelo://app?vid=7e7b65df-372a-4827-a64e-95680e560b3f","ios":"levelo://app?vid=7e7b65df-372a-4827-a64e-95680e560b3f"},"vehicle_type_id":"4","last_reported":1728594529,"current_range_meters":36400,"station_id":"ce4bh0h2rcd13ifvqd40","pricing_plan_id":"cebpf4jnsgd1na2vs0mg"},{"bike_id":"7fc6da6b-c765-4d51-a705-31937ce64772","system_id":"levelo_inurba_marseille","lat":43.29209,"lon":5.39313,"is_reserved":false,"is_disabled":false,"rental_uris":{"android":"levelo://app?vid=7fc6da6b-c765-4d51-a705-31937ce64772","ios":"levelo://app?vid=7fc6da6b-c765-4d51-a705-31937ce64772"},"vehicle_type_id":"4","last_reported":1728594529,"current_range_meters":38800,"station_id":"ce4bh192rcd13ifvqdd0","pricing_plan_id":"cebpf4jnsgd1na2vs0mg"},{"bike_id":"6ec278b0-7e4c-4d8b-9e35-e37c4454aea5","system_id":"levelo_inurba_marseille","lat":43.28082,"lon":5.39651,"is_reserved":false,"is_disabled":false,"rental_uris":{"android":"levelo://app?vid=6ec278b0-7e4c-4d8b-9e35-e37c4454aea5","ios":"levelo://app?vid=6ec278b0-7e4c-4d8b-9e35-e37c4454aea5"},"vehicle_type_id":"4","last_reported":1728594529,"current_range_meters":4800,"station_id":"ce4bho12rcd13ifvqh2g","pricing_plan_id":"cebpf4jnsgd1na2vs0mg"},{"bike_id":"9f87b773-a968-4be2-afd9-19a626145a45","system_id":"levelo_inurba_marseille","lat":43.311162,"lon":5.377706,"is_reserved":false,"is_disabled":false,"rental_uris":{"android":"levelo://app?vid=9f87b773-a968-4be2-afd9-19a626145a45","ios":"levelo://app?vid=9f87b773-a968-4be2-afd9-19a626145a45"},"vehicle_type_id":"4","last_reported":1728594529,"current_range_meters":18800,"station_id":"ce4bgt92rcd13ifvqcg0","pricing_plan_id":"cebpf4jnsgd1na2vs0mg"},{"bike_id":"e3500c56-4d91-493b-b761-2343dba4fc53","system_id":"levelo_inurba_marseille","lat":43.26259,"lon":5.374636,"is_reserved":false,"is_disabled":false,"rental_uris":{"android":"levelo://app?vid=e3500c56-4d91-493b-b761-2343dba4fc53","ios":"levelo://app?vid=e3500c56-4d91-493b-b761-2343dba4fc53"},"vehicle_type_id":"4","last_reported":1728594529,"current_range_meters":32800,"station_id":"ce4bhgp2rcd13ifvqfc0","pricing_plan_id":"cebpf4jnsgd1na2vs0mg"},{"bike_id":"39c9ac20-8913-4a1a-b551-d84cf4967511","system_id":"levelo_inurba_marseille","lat":43.29204,"lon":5.39328,"is_reserved":false,"is_disabled":false,"rental_uris":{"android":"levelo://app?vid=39c9ac20-8913-4a1a-b551-d84cf4967511","ios":"levelo://app?vid=39c9ac20-8913-4a1a-b551-d84cf4967511"},"vehicle_type_id":"4","last_reported":1728594529,"current_range_meters":39200,"station_id":"ce4bh192rcd13ifvqdd0","pricing_plan_id":"cebpf4jnsgd1na2vs0mg"},{"bike_id":"2e8156e9-8f12-442e-95f9-a57ad0a2409a","system_id":"levelo_inurba_marseille","lat":43.25117,"lon":5.40323,"is_reserved":false,"is_disabled":false,"rental_uris":{"android":"levelo://app?vid=2e8156e9-8f12-442e-95f9-a57ad0a2409a","ios":"levelo://app?vid=2e8156e9-8f12-442e-95f9-a57ad0a2409a"},"vehicle_type_id":"4","last_reported":1728594529,"current_range_meters":4000,"station_id":"ce4bhlh2rcd13ifvqgig","pricing_plan_id":"cebpf4jnsgd1na2vs0mg"},{"bike_id":"81b05161-9939-4a21-b271-92c6bc1ccc95","system_id":"levelo_inurba_marseille","lat":43.26204,"lon":5.37449,"is_reserved":false,"is_disabled":false,"rental_uris":{"android":"levelo://app?vid=81b05161-9939-4a21-b271-92c6bc1ccc95","ios":"levelo://app?vid=81b05161-9939-4a21-b271-92c6bc1ccc95"},"vehicle_type_id":"4","last_reported":1728594529,"current_range_meters":30800,"station_id":"ce4bhgp2rcd13ifvqfc0","pricing_plan_id":"cebpf4jnsgd1na2vs0mg"},{"bike_id":"f3f50874-f209-41a7-87b6-71809ab1466b","system_id":"levelo_inurba_marseille","lat":43.31174,"lon":5.38705,"is_reserved":false,"is_disabled":false,"rental_uris":{"android":"levelo://app?vid=f3f50874-f209-41a7-87b6-71809ab1466b","ios":"levelo://app?vid=f3f50874-f209-41a7-87b6-71809ab1466b"},"vehicle_type_id":"4","last_reported":1728594529,"current_range_meters":37600,"station_id":"ce4bgv12rcd13ifvqcp0","pricing_plan_id":"cebpf4jnsgd1na2vs0mg"},{"bike_id":"2fd1e262-52bf-4fd8-a71c-329ce79ee367","system_id":"levelo_inurba_marseille","lat":43.296295,"lon":5.377668,"is_reserved":false,"is_disabled":false,"rental_uris":{"android":"levelo://app?vid=2fd1e262-52bf-4fd8-a71c-329ce79ee367","ios":"levelo://app?vid=2fd1e262-52bf-4fd8-a71c-329ce79ee367"},"vehicle_type_id":"4","last_reported":1728594529,"current_range_meters":32400,"station_id":"ce4bh492rcd13ifvqdvg","pricing_plan_id":"cebpf4jnsgd1na2vs0mg"},{"bike_id":"9697dbdf-cd4f-4047-a8bd-b48a32d44365","system_id":"levelo_inurba_marseille","lat":43.2885,"lon":5.35838,"is_reserved":false,"is_disabled":false,"rental_uris":{"android":"levelo://app?vid=9697dbdf-cd4f-4047-a8bd-b48a32d44365","ios":"levelo://app?vid=9697dbdf-cd4f-4047-a8bd-b48a32d44365"},"vehicle_type_id":"4","last_reported":1728594529,"current_range_meters":7200,"station_id":"ce4bhb12rcd13ifvqem0","pricing_plan_id":"cebpf4jnsgd1na2vs0mg"},{"bike_id":"1e27d64c-804b-44d0-82cc-67730ab1c318","system_id":"levelo_inurba_marseille","lat":43.28463,"lon":5.35887,"is_reserved":false,"is_disabled":false,"rental_uris":{"android":"levelo://app?vid=1e27d64c-804b-44d0-82cc-67730ab1c318","ios":"levelo://app?vid=1e27d64c-804b-44d0-82cc-67730ab1c318"},"vehicle_type_id":"4","last_reported":1728594529,"current_range_meters":38800,"station_id":"ce4bhah2rcd13ifvqei0","pricing_plan_id":"cebpf4jnsgd1na2vs0mg"},{"bike_id":"134221d1-b882-4e18-a906-df55efd551f5","system_id":"levelo_inurba_marseille","lat":43.25121,"lon":5.40324,"is_reserved":false,"is_disabled":false,"rental_uris":{"android":"levelo://app?vid=134221d1-b882-4e18-a906-df55efd551f5","ios":"levelo://app?vid=134221d1-b882-4e18-a906-df55efd551f5"},"vehicle_type_id":"4","last_reported":1728594529,"current_range_meters":23200,"station_id":"ce4bhlh2rcd13ifvqgig","pricing_plan_id":"cebpf4jnsgd1na2vs0mg"},{"bike_id":"c462ac31-e294-4267-bc1b-a4f664716350","system_id":"levelo_inurba_marseille","lat":43.23207,"lon":5.35553,"is_reserved":false,"is_disabled":false,"rental_uris":{"android":"levelo://app?vid=c462ac31-e294-4267-bc1b-a4f664716350","ios":"levelo://app?vid=c462ac31-e294-4267-bc1b-a4f664716350"},"vehicle_type_id":"4","last_reported":1728594529,"current_range_meters":29600,"station_id":"ce4bhu92rcd13ifvqi70","pricing_plan_id":"cebpf4jnsgd1na2vs0mg"},{"bike_id":"d641b0ba-2392-4876-8ff5-1ce7d0228ee6","system_id":"levelo_inurba_marseille","lat":43.28843,"lon":5.39308,"is_reserved":false,"is_disabled":false,"rental_uris":{"android":"levelo://app?vid=d641b0ba-2392-4876-8ff5-1ce7d0228ee6","ios":"levelo://app?vid=d641b0ba-2392-4876-8ff5-1ce7d0228ee6"},"vehicle_type_id":"4","last_reported":1728594529,"current_range_meters":12000,"station_id":"ce4bh2p2rcd13ifvqdi0","pricing_plan_id":"cebpf4jnsgd1na2vs0mg"},{"bike_id":"b4ed74cf-cbe3-403d-9235-81eb7c055113","system_id":"levelo_inurba_marseille","lat":43.31339,"lon":5.39692,"is_reserved":false,"is_disabled":false,"rental_uris":{"android":"levelo://app?vid=b4ed74cf-cbe3-403d-9235-81eb7c055113","ios":"levelo://app?vid=b4ed74cf-cbe3-403d-9235-81eb7c055113"},"vehicle_type_id":"4","last_reported":1728594529,"current_range_meters":20800,"station_id":"ce4bgvp2rcd13ifvqcu0","pricing_plan_id":"cebpf4jnsgd1na2vs0mg"},{"bike_id":"03d8fbba-c64d-4781-b75c-480526d2460f","system_id":"levelo_inurba_marseille","lat":43.30956,"lon":5.39037,"is_reserved":false,"is_disabled":false,"rental_uris":{"android":"levelo://app?vid=03d8fbba-c64d-4781-b75c-480526d2460f","ios":"levelo://app?vid=03d8fbba-c64d-4781-b75c-480526d2460f"},"vehicle_type_id":"4","last_reported":1728594529,"current_range_meters":30400,"station_id":"ce4bgup2rcd13ifvqco0","pricing_plan_id":"cebpf4jnsgd1na2vs0mg"},{"bike_id":"50609abc-8576-4139-ab3a-468d8ab73772","system_id":"levelo_inurba_marseille","lat":43.29856,"lon":5.36282,"is_reserved":false,"is_disabled":false,"rental_uris":{"android":"levelo://app?vid=50609abc-8576-4139-ab3a-468d8ab73772","ios":"levelo://app?vid=50609abc-8576-4139-ab3a-468d8ab73772"},"vehicle_type_id":"4","last_reported":1728594529,"current_range_meters":38000,"station_id":"ce4bgpp2rcd13ifvqc3g","pricing_plan_id":"cebpf4jnsgd1na2vs0mg"},