{"last_updated":1732018734,"ttl":60,"version":"2.2","data":{"bikes":[{"bike_id":"cacde89c-5086-4b87-8bcd-a2b586b3345d","system_id":"levelo_inurba_marseille","lat":43.30147,"lon":5.38078,"is_reserved":false,"is_disabled":false,"rental_uris":{"android":"levelo://app?vid=cacde89c-5086-4b87-8bcd-a2b586b3345d","ios":"levelo://app?vid=cacde89c-5086-4b87-8bcd-a2b586b3345d"},"vehicle_type_id":"4","last_reported":1732018734,"current_range_meters":10000,"station_id":"ce4bgjp2rcd13ifvqbh0","pricing_plan_id":"cebpf4jnsgd1na2vs0mg"},{"bike_id":"2e9bab8e-ab55-4691-9848-dd507e5d945b","system_id":"levelo_inurba_marseille","lat":43.25495,"lon":5.37648,"is_reserved":false,"is_disabled":false,"rental_uris":{"android":"levelo://app?vid=2e9bab8e-ab55-4691-9848-dd507e5d945b","ios":"levelo://app?vid=2e9bab8e-ab55-4691-9848-dd507e5d945b"},"vehicle_type_id":"4","last_reported":1732018734,"current_range_meters":39200,"station_id":"ce4bhh12rcd13ifvqff0","pricing_plan_id":"cebpf4jnsgd1na2vs0mg"},{"bike_id":"7f51cb17-6f5b-4ee6-a2a5-2fef689a15a9","system_id":"levelo_inurba_marseille","lat":43.27944,"lon":5.41051,"is_reserved":false,"is_disabled":true,"rental_uris":{"android":"levelo://app?vid=7f51cb17-6f5b-4ee6-a2a5-2fef689a15a9","ios":"levelo://app?vid=7f51cb17-6f5b-4ee6-a2a5-2fef689a15a9"},"vehicle_type_id":"4","last_reported":1732018734,"current_range_meters":28800,"station_id":"ce4bhnp2rcd13ifvqh0g","pricing_plan_id":"cebpf4jnsgd1na2vs0mg"},{"bike_id":"56b1e23a-a8b6-4eed-a858-f200a5a0a62a","system_id":"levelo_inurba_marseille","lat":43.23148,"lon":5.43727,"is_reserved":false,"is_disabled":false,"rental_uris":{"android":"levelo://app?vid=56b1e23a-a8b6-4eed-a858-f200a5a0a62a","ios":"levelo://app?vid=56b1e23a-a8b6-4eed-a858-f200a5a0a62a"},"vehicle_type_id":"4","last_reported":1732018734,"current_range_meters":39200,"station_id":"ce4bhmp2rcd13ifvqgog","pricing_plan_id":"cebpf4jnsgd1na2vs0mg"},{"bike_id":"bb9ea763-6e93-4922-b0c2-ce9421dca49b","system_id":"levelo_inurba_marseille","lat":43.25932,"lon":5.40911,"is_reserved":false,"is_disabled":true,"rental_uris":{"android":"levelo://app?vid=bb9ea763-6e93-4922-b0c2-ce9421dca49b","ios":"levelo://app?vid=bb9ea763-6e93-4922-b0c2-ce9421dca49b"},"vehicle_type_id":"4","last_reported":1732018734,"current_range_meters":0,"station_id":"ce4bhm92rcd13ifvqglg","pricing_plan_id":"cebpf4jnsgd1na2vs0mg"},{"bike_id":"696dad62-b035-4843-b522-aad62f104751","system_id":"levelo_inurba_marseille","lat":43.34147,"lon":5.40914,"is_reserved":false,"is_disabled":false,"rental_uris":{"android":"levelo://app?vid=696dad62-b035-4843-b522-aad62f104751","ios":"levelo://app?vid=696dad62-b035-4843-b522-aad62f104751"},"vehicle_type_id":"4","last_reported":1732018734,"current_range_meters":25200,"station_id":"ce4bhqh2rcd13ifvqhlg","pricing_plan_id":"cebpf4jnsgd1na2vs0mg"},{"bike_id":"0a83c1fb-60a6-494a-8ed0-1d746acb4669","system_id":"levelo_inurba_marseille","lat":43.30904,"lon":5.36852,"is_reserved":false,"is_disabled":false,"rental_uris":{"android":"levelo://app?vid=0a83c1fb-60a6-494a-8ed0-1d746acb4669","ios":"levelo://app?vid=0a83c1fb-60a6-494a-8ed0-1d746acb4669"},"vehicle_type_id":"4","last_reported":1732018734,"current_range_meters":18000,"station_id":"ce4bgn92rcd13ifvqbvg","pricing_plan_id":"cebpf4jnsgd1na2vs0mg"},{"bike_id":"09f7705d-b549-4843-ac4f-fe84e206aecc","system_id":"levelo_inurba_marseille","lat":43.26805,"lon":5.40276,"is_reserved":false,"is_disabled":false,"rental_uris":{"android":"levelo://app?vid=09f7705d-b549-4843-ac4f-fe84e206aecc","ios":"levelo://app?vid=09f7705d-b549-4843-ac4f-fe84e206aecc"},"vehicle_type_id":"4","last_reported":1732018734,"current_range_meters":31200,"station_id":"ce501612rcd8frsf0b60","pricing_plan_id":"cebpf4jnsgd1na2vs0mg"},{"bike_id":"ab8b3dcb-d33d-4854-a37e-2243fffa6f29","system_id":"levelo_inurba_marseille","lat":43.30146,"lon":5.38076,"is_reserved":false,"is_disabled":false,"rental_uris":{"android":"levelo://app?vid=ab8b3dcb-d33d-4854-a37e-2243fffa6f29","ios":"levelo://app?vid=ab8b3dcb-d33d-4854-a37e-2243fffa6f29"},"vehicle_type_id":"4","last_reported":1732018734,"current_range_meters":35200,"station_id":"ce4bgjp2rcd13ifvqbh0","pricing_plan_id":"cebpf4jnsgd1na2vs0mg"},{"bike_id":"58237d0a-88be-4c16-8bd2-acab73926efa","system_id":"levelo_inurba_marseille","lat":43.29028,"lon":5.38126,"is_reserved":false,"is_disabled":false,"rental_uris":{"android":"levelo://app?vid=58237d0a-88be-4c16-8bd2-acab73926efa","ios":"levelo://app?vid=58237d0a-88be-4c16-8bd2-acab73926efa"},"vehicle_type_id":"4","last_reported":1732018734,"current_range_meters":14800,"station_id":"ce4bh4p2rcd13ifvqe1g","pricing_plan_id":"cebpf4jnsgd1na2vs0mg"},{"bike_id":"c0532b48-7e2f-4942-91eb-e861573a0863","system_id":"levelo_inurba_marseille","lat":43.28937,"lon":5.36642,"is_reserved":false,"is_disabled":false,"rental_uris":{"android":"levelo://app?vid=c0532b48-7e2f-4942-91eb-e861573a0863","ios":"levelo://app?vid=c0532b48-7e2f-4942-91eb-e861573a0863"},"vehicle_type_id":"4","last_reported":1732018734,"current_range_meters":18800,"station_id":"ce4bhap2rcd13ifvqek0","pricing_plan_id":"cebpf4jnsgd1na2vs0mg"},{"bike_id":"ad462c4b-e81f-4e31-9bd9-51270a96d164","system_id":"levelo_inurba_marseille","lat":43.25495,"lon":5.3766,"is_reserved":false,"is_disabled":false,"rental_uris":{"android":"levelo://app?vid=ad462c4b-e81f-4e31-9bd9-51270a96d164","ios":"levelo://app?vid=ad462c4b-e81f-4e31-9bd9-51270a96d164"},"vehicle_type_id":"4","last_reported":1732018734,"current_range_meters":24000,"station_id":"ce4bhh12rcd13ifvqff0","pricing_plan_id":"cebpf4jnsgd1na2vs0mg"},{"bike_id":"0ea93326-5034-4b5e-97b8-0a33b4d38611","system_id":"levelo_inurba_marseille","lat":43.30153,"lon":5.38076,"is_reserved":false,"is_disabled":false,"rental_uris":{"android":"levelo://app?vid=0ea93326-5034-4b5e-97b8-0a33b4d38611","ios":"levelo://app?vid=0ea93326-5034-4b5e-97b8-0a33b4d38611"},"vehicle_type_id":"4","last_reported":1732018734,"current_range_meters":32800,"station_id":"ce4bgjp2rcd13ifvqbh0","pricing_plan_id":"cebpf4jnsgd1na2vs0mg"},{"bike_id":"b8a064c9-40ac-462a-8aa5-ec76376142f1","system_id":"levelo_inurba_marseille","lat":43.29266,"lon":5.38448,"is_reserved":false,"is_disabled":false,"rental_uris":{"android":"levelo://app?vid=b8a064c9-40ac-462a-8aa5-ec76376142f1","ios":"levelo://app?vid=b8a064c9-40ac-462a-8aa5-ec76376142f1"},"vehicle_type_id":"4","last_reported":1732018734,"current_range_meters":25600,"station_id":"ce4bh692rcd13ifvqea0","pricing_plan_id":"cebpf4jnsgd1na2vs0mg"},{"bike_id":"4da0d7ae-4ac3-4b4f-9fda-e97bef6cd5ed","system_id":"levelo_inurba_marseille","lat":43.29977,"lon":5.3719,"is_reserved":false,"is_disabled":false,"rental_uris":{"android":"levelo://app?vid=4da0d7ae-4ac3-4b4f-9fda-e97bef6cd5ed","ios":"levelo://app?vid=4da0d7ae-4ac3-4b4f-9fda-e97bef6cd5ed"},"vehicle_type_id":"4","last_reported":1732018734,"current_range_meters":37600,"station_id":"ce4bgr92rcd13ifvqc7g","pricing_plan_id":"cebpf4jnsgd1na2vs0mg"},{"bike_id":"2b36ced2-cd93-4f1e-bab4-b1fdac9aeaf6","system_id":"levelo_inurba_marseille","lat":43.303246,"lon":5.404317,"is_reserved":false,"is_disabled":false,"rental_uris":{"android":"levelo://app?vid=2b36ced2-cd93-4f1e-bab4-b1fdac9aeaf6","ios":"levelo://app?vid=2b36ced2-cd93-4f1e-bab4-b1fdac9aeaf6"},"vehicle_type_id":"4","last_reported":1732018734,"current_range_meters":27600,"station_id":"ce4bh012rcd13ifvqd10","pricing_plan_id":"cebpf4jnsgd1na2vs0mg"},{"bike_id":"e08875d1-5eda-43a9-a5b5-ee3ebd16c83c","system_id":"levelo_inurba_marseille","lat":43.25014,"lon":5.38917,"is_reserved":false,"is_disabled":false,"rental_uris":{"android":"levelo://app?vid=e08875d1-5eda-43a9-a5b5-ee3ebd16c83c","ios":"levelo://app?vid=e08875d1-5eda-43a9-a5b5-ee3ebd16c83c"},"vehicle_type_id":"4","last_reported":1732018734,"current_range_meters":36800,"station_id":"ce4bhgp2rcd13ifvqfd0","pricing_plan_id":"cebpf4jnsgd1na2vs0mg"},{"bike_id":"b1879da0-4952-4a10-8d90-fd2192536eda","system_id":"levelo_inurba_marseille","lat":43.23154,"lon":5.43719,"is_reserved":false,"is_disabled":false,"rental_uris":{"android":"levelo://app?vid=b1879da0-4952-4a10-8d90-fd2192536eda","ios":"levelo://app?vid=b1879da0-4952-4a10-8d90-fd2192536eda"},"vehicle_type_id":"4","last_reported":1732018734,"current_range_meters":39200,"station_id":"ce4bhmp2rcd13ifvqgog","pricing_plan_id":"cebpf4jnsgd1na2vs0mg"},{"bike_id":"ba0bf38d-239c-4b4c-b3f4-7f8e711a06e1","system_id":"levelo_inurba_marseille","lat":43.2997,"lon":5.38495,"is_reserved":false,"is_disabled":false,"rental_uris":{"android":"levelo://app?vid=ba0bf38d-239c-4b4c-b3f4-7f8e711a06e1","ios":"levelo://app?vid=ba0bf38d-239c-4b4c-b3f4-7f8e711a06e1"},"vehicle_type_id":"4","last_reported":1732018734,"current_range_meters":35600,"station_id":"ce4bgj92rcd13ifvqbd0","pricing_plan_id":"cebpf4jnsgd1na2vs0mg"},{"bike_id":"6d1957b8-ae03-4dcd-924b-e16b914eaef0","system_id":"levelo_inurba_marseille","lat":43.29025,"lon":5.38643,"is_reserved":false,"is_disabled":true,"rental_uris":{"android":"levelo://app?vid=6d1957b8-ae03-4dcd-924b-e16b914eaef0","ios":"levelo://app?vid=6d1957b8-ae03-4dcd-924b-e16b914eaef0"},"vehicle_type_id":"4","last_reported":1732018734,"current_range_meters":400,"station_id":"ce4bh4p2rcd13ifvqe0g","pricing_plan_id":"cebpf4jnsgd1na2vs0mg"},{"bike_id":"5d74c000-7a7a-4279-858f-30081b5e397d","system_id":"levelo_inurba_marseille","lat":43.28465,"lon":5.35899,"is_reserved":false,"is_disabled":false,"rental_uris":{"android":"levelo://app?vid=5d74c000-7a7a-4279-858f-30081b5e397d","ios":"levelo://app?vid=5d74c000-7a7a-4279-858f-30081b5e397d"},"vehicle_type_id":"4","last_reported":1732018734,"current_range_meters":21600,"station_id":"ce4bhah2rcd13ifvqei0","pricing_plan_id":"cebpf4jnsgd1na2vs0mg"},{"bike_id":"d5fff316-52cf-4743-9742-42ec5cdd7574","system_id":"levelo_inurba_marseille","lat":43.29843,"lon":5.3627,"is_reserved":false,"is_disabled":false,"rental_uris":{"android":"levelo://app?vid=d5fff316-52cf-4743-9742-42ec5cdd7574","ios":"levelo://app?vid=d5fff316-52cf-4743-9742-42ec5cdd7574"},"vehicle_type_id":"4","last_reported":1732018734,"current_range_meters":33600,"station_id":"ce4bgpp2rcd13ifvqc3g","pricing_plan_id":"cebpf4jnsgd1na2vs0mg"},{"bike_id":"1ceca4c0-e64b-47cd-84e8-4eaf493a34ff","system_id":"levelo_inurba_marseille","lat":43.30332,"lon":5.40275,"is_reserved":false,"is_disabled":true,"rental_uris":{"android":"levelo://app?vid=1ceca4c0-e64b-47cd-84e8-4eaf493a34ff","ios":"levelo://app?vid=1ceca4c0-e64b-47cd-84e8-4eaf493a34ff"},"vehicle_type_id":"4","last_reported":1732018734,"current_range_meters":0,"station_id":"","pricing_plan_id":"cebpf4jnsgd1na2vs0mg"},{"bike_id":"4f17ca83-5b56-46c8-9eb1-44219ca2b9a0","system_id":"levelo_inurba_marseille","lat":43.29838,"lon":5.38346,"is_reserved":false,"is_disabled":false,"rental_uris":{"android":"levelo://app?vid=4f17ca83-5b56-46c8-9eb1-44219ca2b9a0","ios":"levelo://app?vid=4f17ca83-5b56-46c8-9eb1-44219ca2b9a0"},"vehicle_type_id":"4","last_reported":1732018734,"current_range_meters":22400,"station_id":"","pricing_plan_id":"cebpf4jnsgd1na2vs0mg"},{"bike_id":"57ca9be2-c925-4feb-9a68-7299c3a8a57e","system_id":"levelo_inurba_marseille","lat":43.28942,"lon":5.36638,"is_reserved":false,"is_disabled":false,"rental_uris":{"android":"levelo://app?vid=57ca9be2-c925-4feb-9a68-7299c3a8a57e","ios":"levelo://app?vid=57ca9be2-c925-4feb-9a68-7299c3a8a57e"},"vehicle_type_id":"4","last_reported":1732018734,"current_range_meters":10800,"station_id":"ce4bhap2rcd13ifvqek0","pricing_plan_id":"cebpf4jnsgd1na2vs0mg"},{"bike_id":"b12df486-1c9d-4810-8d8a-bd06a1492376","system_id":"levelo_inurba_marseille","lat":43.32363,"lon":5.3889,"is_reserved":false,"is_disabled":false,"rental_uris":{"android":"levelo://app?vid=b12df486-1c9d-4810-8d8a-bd06a1492376","ios":"levelo://app?vid=b12df486-1c9d-4810-8d8a-bd06a1492376"},"vehicle_type_id":"4","last_reported":1732018734,"current_range_meters":29600,"station_id":"ce4bhqp2rcd13ifvqhog","pricing_plan_id":"cebpf4jnsgd1na2vs0mg"},{"bike_id":"5f101487-132a-4673-a591-3240b29e1617","system_id":"levelo_inurba_marseille","lat":43.26212,"lon":5.3744,"is_reserved":false,"is_disabled":false,"rental_uris":{"android":"levelo://app?vid=5f101487-132a-4673-a591-3240b29e1617","ios":"levelo://app?vid=5f101487-132a-4673-a591-3240b29e1617"},"vehicle_type_id":"4","last_reported":1732018734,"current_range_meters":36800,"station_id":"ce4bhgp2rcd13ifvqfc0","pricing_plan_id":"cebpf4jnsgd1na2vs0mg"},{"bike_id":"e558fbe9-1349-4b04-9ba5-017d39440129","system_id":"levelo_inurba_marseille","lat":43.30158,"lon":5.38084,"is_reserved":false,"is_disabled":false,"rental_uris":{"android":"levelo://app?vid=e558fbe9-1349-4b04-9ba5-017d39440129","ios":"levelo://app?vid=e558fbe9-1349-4b04-9ba5-017d39440129"},"vehicle_type_id":"4","last_reported":1732018734,"current_range_meters":19200,"station_id":"ce4bgjp2rcd13ifvqbh0","pricing_plan_id":"cebpf4jnsgd1na2vs0mg"},{"bike_id":"416e87e3-0127-47d2-b885-4583d374d6f1","system_id":"levelo_inurba_marseille","lat":43.24386,"lon":5.37057,"is_reserved":false,"is_disabled":false,"rental_uris":{"android":"levelo://app?vid=416e87e3-0127-47d2-b885-4583d374d6f1","ios":"levelo://app?vid=416e87e3-0127-47d2-b885-4583d374d6f1"},"vehicle_type_id":"4","last_reported":1732018734,"current_range_meters":30800,"station_id":"ce4bhhh2rcd13ifvqfk0","pricing_plan_id":"cebpf4jnsgd1na2vs0mg"},{"bike_id":"1f28c99d-f14b-46b1-a2cd-f1a94e16d3c4","system_id":"levelo_inurba_marseille","lat":43.30556,"lon":5.36559,"is_reserved":false,"is_disabled":false,"rental_uris":{"android":"levelo://app?vid=1f28c99d-f14b-46b1-a2cd-f1a94e16d3c4","ios":"levelo://app?vid=1f28c99d-f14b-46b1-a2cd-f1a94e16d3c4"},"vehicle_type_id":"4","last_reported":1732018734,"current_range_meters":12800,"station_id":"ce4bgs12rcd13ifvqcag","pricing_plan_id":"cebpf4jnsgd1na2vs0mg"},{"bike_id":"7805b5a4-2c0d-4775-bfec-456f026ccc52","system_id":"levelo_inurba_marseille","lat":43.32282,"lon":5.38265,"is_reserved":false,"is_disabled":false,"rental_uris":{"android":"levelo://app?vid=7805b5a4-2c0d-4775-bfec-456f026ccc52","ios":"levelo://app?vid=7805b5a4-2c0d-4775-bfec-456f026ccc52"},"vehicle_type_id":"4","last_reported":1732018734,"current_range_meters":18000,"station_id":"ce4bhr12rcd13ifvqhqg","pricing_plan_id":"cebpf4jnsgd1na2vs0mg"},{"bike_id":"141ab2b8-d689-48b7-9252-fd51bdd4f693","system_id":"levelo_inurba_marseille","lat":43.30472,"lon":5.3791,"is_reserved":false,"is_disabled":false,"rental_uris":{"android":"levelo://app?vid=141ab2b8-d689-48b7-9252-fd51bdd4f693","ios":"levelo://app?vid=141ab2b8-d689-48b7-9252-fd51bdd4f693"},"vehicle_type_id":"4","last_reported":1732018734,"current_range_meters":19200,"station_id":"ce4bgup2rcd13ifvqcn0","pricing_plan_id":"cebpf4jnsgd1na2vs0mg"},{"bike_id":"45949901-07a0-4edb-9e1b-0e2169a074dc","system_id":"levelo_inurba_marseille","lat":43.30526,"lon":5.36694,"is_reserved":false,"is_disabled":false,"rental_uris":{"android":"levelo://app?vid=45949901-07a0-4edb-9e1b-0e2169a074dc","ios":"levelo://app?vid=45949901-07a0-4edb-9e1b-0e2169a074dc"},"vehicle_type_id":"4","last_reported":1732018734,"current_range_meters":39200,"station_id":"ce4bgrp2rcd13ifvqc9g","pricing_plan_id":"cebpf4jnsgd1na2vs0mg"},{"bike_id":"1341a828-b981-4198-a789-8a5791ca7539","system_id":"levelo_inurba_marseille","lat":43.25006,"lon":5.38923,"is_reserved":false,"is_disabled":false,"rental_uris":{"android":"levelo://app?vid=1341a828-b981-4198-a789-8a5791ca7539","ios":"levelo://app?vid=1341a828-b981-4198-a789-8a5791ca7539"},"vehicle_type_id":"4","last_reported":1732018734,"current_range_meters":36800,"station_id":"ce4bhgp2rcd13ifvqfd0","pricing_plan_id":"cebpf4jnsgd1na2vs0mg"},{"bike_id":"8ac1d2b7-20cf-4308-b0ae-f5927b24b9aa","system_id":"levelo_inurba_marseille","lat":43.30474,"lon":5.37904,"is_reserved":false,"is_disabled":false,"rental_uris":{"android":"levelo://app?vid=8ac1d2b7-20cf-4308-b0ae-f5927b24b9aa","ios":"levelo://app?vid=8ac1d2b7-20cf-4308-b0ae-f5927b24b9aa"},"vehicle_type_id":"4","last_reported":1732018734,"current_range_meters":30800,"station_id":"ce4bgup2rcd13ifvqcn0","pricing_plan_id":"cebpf4jnsgd1na2vs0mg"},{"bike_id":"e3511c0c-eb2b-4100-bb2d-c5ebcd644bea","system_id":"levelo_inurba_marseille","lat":43.23946,"lon":5.36656,"is_reserved":false,"is_disabled":true,"rental_uris":{"android":"levelo://app?vid=e3511c0c-eb2b-4100-bb2d-c5ebcd644bea","ios":"levelo://app?vid=e3511c0c-eb2b-4100-bb2d-c5ebcd644bea"},"vehicle_type_id":"4","last_reported":1732018734,"current_range_meters":36400,"station_id":"ce4bhi12rcd13ifvqfp0","pricing_plan_id":"cebpf4jnsgd1na2vs0mg"},{"bike_id":"5917a06d-1a89-42ee-9c96-70b3e49f2520","system_id":"levelo_inurba_marseille","lat":43.31691,"lon":5.40478,"is_reserved":false,"is_disabled":true,"rental_uris":{"android":"levelo://app?vid=5917a06d-1a89-42ee-9c96-70b3e49f2520","ios":"levelo://app?vid=5917a06d-1a89-42ee-9c96-70b3e49f2520"},"vehicle_type_id":"4","last_reported":1732018734,"current_range_meters":12400,"station_id":"ce4bh012rcd13ifvqd00","pricing_plan_id":"cebpf4jnsgd1na2vs0mg"},{"bike_id":"d5fcb748-5e90-49f2-b87e-08c66f2033bf","system_id":"levelo_inurba_marseille","lat":43.26555,"lon":5.39014,"is_reserved":false,"is_disabled":false,"rental_uris":{"android":"levelo://app?vid=d5fcb748-5e90-49f2-b87e-08c66f2033bf","ios":"levelo://app?vid=d5fcb748-5e90-49f2-b87e-08c66f2033bf"},"vehicle_type_id":"4","last_reported":1732018734,"current_range_meters":30400,"station_id":"ce4bhe12rcd13ifvqf30","pricing_plan_id":"cebpf4jnsgd1na2vs0mg"},{"bike_id":"1fca37fe-ad28-43b5-974f-cad97e52971b","system_id":"levelo_inurba_marseille","lat":43.294347,"lon":5.397456,"is_reserved":false,"is_disabled":false,"rental_uris":{"android":"levelo://app?vid=1fca37fe-ad28-43b5-974f-cad97e52971b","ios":"levelo://app?vid=1fca37fe-ad28-43b5-974f-cad97e52971b"},"vehicle_type_id":"4","last_reported":1732018734,"current_range_meters":26000,"station_id":"ce4bh3h2rcd13ifvqdo0","pricing_plan_id":"cebpf4jnsgd1na2vs0mg"},{"bike_id":"0fb6b301-e635-4881-9960-1a49eb5a4618","system_id":"levelo_inurba_marseille","lat":43.28353,"lon":5.38102,"is_reserved":false,"is_disabled":false,"rental_uris":{"android":"levelo://app?vid=0fb6b301-e635-4881-9960-1a49eb5a4618","ios":"levelo://app?vid=0fb6b301-e635-4881-9960-1a49eb5a4618"},"vehicle_type_id":"4","last_reported":1732018734,"current_range_meters":19600,"station_id":"ce4bh412rcd13ifvqdr0","pricing_plan_id":"cebpf4jnsgd1na2vs0mg"},{"bike_id":"e4200a2f-51c9-4a2d-93c0-970a40d32e47","system_id":"levelo_inurba_marseille","lat":43.30148,"lon":5.38082,"is_reserved":false,"is_disabled":false,"rental_uris":{"android":"levelo://app?vid=e4200a2f-51c9-4a2d-93c0-970a40d32e47","ios":"levelo://app?vid=e4200a2f-51c9-4a2d-93c0-970a40d32e47"},"vehicle_type_id":"4","last_reported":1732018734,"current_range_meters":14800,"station_id":"ce4bgjp2rcd13ifvqbh0","pricing_plan_id":"cebpf4jnsgd1na2vs0mg"},{"bike_id":"0ca7db24-35a2-43c5-8d14-a63d02564196","system_id":"levelo_inurba_marseille","lat":43.25235,"lon":5.380479,"is_reserved":false,"is_disabled":false,"rental_uris":{"android":"levelo://app?vid=0ca7db24-35a2-43c5-8d14-a63d02564196","ios":"levelo://app?vid=0ca7db24-35a2-43c5-8d14-a63d02564196"},"vehicle_type_id":"4","last_reported":1732018734,"current_range_meters":12400,"station_id":"","pricing_plan_id":"cebpf4jnsgd1na2vs0mg"},{"bike_id":"1cc90608-5a84-4c67-ae6a-369c2355d020","system_id":"levelo_inurba_marseille","lat":43.2408,"lon":5.37754,"is_reserved":false,"is_disabled":false,"rental_uris":{"android":"levelo://app?vid=1cc90608-5a84-4c67-ae6a-369c2355d020","ios":"levelo://app?vid=1cc90608-5a84-4c67-ae6a-369c2355d020"},"vehicle_type_id":"4","last_reported":1732018734,"current_range_meters":29600,"station_id":"ce4bhnp2rcd13ifvqgvg","pricing_plan_id":"cebpf4jnsgd1na2vs0mg"},{"bike_id":"1a363d4a-50a0-4673-92cf-86b4f329e4cc","system_id":"levelo_inurba_marseille","lat":43.30281,"lon":5.37701,"is_reserved":false,"is_disabled":false,"rental_uris":{"android":"levelo://app?vid=1a363d4a-50a0-4673-92cf-86b4f329e4cc","ios":"levelo://app?vid=1a363d4a-50a0-4673-92cf-86b4f329e4cc"},"vehicle_type_id":"4","last_reported":1732018734,"current_range_meters":38000,"station_id":"ce4bguh2rcd13ifvqcj0","pricing_plan_id":"cebpf4jnsgd1na2vs0mg"},{"bike_id":"fefdee1c-9b22-4528-b57d-4124b76a55ba","system_id":"levelo_inurba_marseille","lat":43.26802,"lon":5.40264,"is_reserved":false,"is_disabled":false,"rental_uris":{"android":"levelo://app?vid=fefdee1c-9b22-4528-b57d-4124b76a55ba","ios":"levelo://app?vid=fefdee1c-9b22-4528-b57d-4124b76a55ba"},"vehicle_type_id":"4","last_reported":1732018734,"current_range_meters":27200,"station_id":"ce501612rcd8frsf0b60","pricing_plan_id":"cebpf4jnsgd1na2vs0mg"},{"bike_id":"3f095bc8-9af8-4b0b-a298-157d8e949f36","system_id":"levelo_inurba_marseille","lat":43.2768,"lon":5.38891,"is_reserved":false,"is_disabled":true,"rental_uris":{"android":"levelo://app?vid=3f095bc8-9af8-4b0b-a298-157d8e949f36","ios":"levelo://app?vid=3f095bc8-9af8-4b0b-a298-157d8e949f36"},"vehicle_type_id":"4","last_reported":1732018734,"current_range_meters":6400,"station_id":"ce4bhi12rcd13ifvqfo0","pricing_plan_id":"cebpf4jnsgd1na2vs0mg"},{"bike_id":"b458b831-f8e7-49e0-b2f2-387c497ade0c","system_id":"levelo_inurba_marseille","lat":43.28941,"lon":5.36639,"is_reserved":false,"is_disabled":false,"rental_uris":{"android":"levelo://app?vid=b458b831-f8e7-49e0-b2f2-387c497ade0c","ios":"levelo://app?vid=b458b831-f8e7-49e0-b2f2-387c497ade0c"},"vehicle_type_id":"4","last_reported":1732018734,"current_range_meters":32800,"station_id":"ce4bhap2rcd13ifvqek0","pricing_plan_id":"cebpf4jnsgd1na2vs0mg"},{"bike_id":"1d0f4be2-72d4-43e2-bf0d-35a6649751b1","system_id":"levelo_inurba_marseille","lat":43.3024,"lon":5.4007,"is_reserved":false,"is_disabled":false,"rental_uris":{"android":"levelo://app?vid=1d0f4be2-72d4-43e2-bf0d-35a6649751b1","ios":"levelo://app?vid=1d0f4be2-72d4-43e2-bf0d-35a6649751b1"},"vehicle_type_id":"4","last_reported":1732018734,"current_range_meters":33600,"station_id":"ce4bgvh2rcd13ifvqcs0","pricing_plan_id":"cebpf4jnsgd1na2vs0mg"},{"bike_id":"f61365e4-4f50-4609-bfb8-52c76a8aed32","system_id":"levelo_inurba_marseille","lat":43.296265,"lon":5.371624,"is_reserved":false,"is_disabled":false,"rental_uris":{"android":"levelo://app?vid=f61365e4-4f50-4609-bfb8-52c76a8aed32","ios":"levelo://app?vid=f61365e4-4f50-4609-bfb8-52c76a8aed32"},"vehicle_type_id":"4","last_reported":1732018734,"current_range_meters":38800,"station_id":"ce4bgnh2rcd13ifvqc0g","pricing_plan_id":"cebpf4jnsgd1na2vs0mg"},{"bike_id":"ef9945b1-5713-4466-983d-fc3b63d53457","system_id":"levelo_inurba_marseille","lat":43.284822,"lon":5.384098,"is_reserved":false,"is_disabled":false,"rental_uris":{"android":"levelo://app?vid=ef9945b1-5713-4466-983d-fc3b63d53457","ios":"levelo://app?vid=ef9945b1-5713-4466-983d-fc3b63d53457"},"vehicle_type_id":"4","last_reported":1732018734,"current_range_meters":14800,"station_id":"ce4bh512rcd13ifvqe3g","pricing_plan_id":"cebpf4jnsgd1na2vs0mg"},{"bike_id":"d674a550-723f-4e20-a0c2-89aa344c2ade","system_id":"levelo_inurba_marseille","lat":43.28212,"lon":5.44379,"is_reserved":false,"is_disabled":false,"rental_uris":{"android":"levelo://app?vid=d674a550-723f-4e20-a0c2-89aa344c2ade","ios":"levelo://app?vid=d674a550-723f-4e20-a0c2-89aa344c2ade"},"vehicle_type_id":"4","last_reported":1732018734,"current_range_meters":2800,"station_id":"","pricing_plan_id":"cebpf4jnsgd1na2vs0mg"},{"bike_id":"ab4297d2-0aa9-44f9-93b4-8a0cd0165068","system_id":"levelo_inurba_marseille","lat":43.31496,"lon":5.37309,"is_reserved":false,"is_disabled":false,"rental_uris":{"android":"levelo://app?vid=ab4297d2-0aa9-44f9-93b4-8a0cd0165068","ios":"levelo://app?vid=ab4297d2-0aa9-44f9-93b4-8a0cd0165068"},"vehicle_type_id":"4","last_reported":1732018734,"current_range_meters":29600,"station_id":"ce4bgt12rcd13ifvqcd0","pricing_plan_id":"cebpf4jnsgd1na2vs0mg"},{"bike_id":"3ab7c33b-3bf5-407f-99c8-512b3882f47b","system_id":"levelo_inurba_marseille","lat":43.23957,"lon":5.3664,"is_reserved":false,"is_disabled":false,"rental_uris":{"android":"levelo://app?vid=3ab7c33b-3bf5-407f-99c8-512b3882f47b","ios":"levelo://app?vid=3ab7c33b-3bf5-407f-99c8-512b3882f47b"},"vehicle_type_id":"4","last_reported":1732018734,"current_range_meters":11200,"station_id":"ce4bhi12rcd13ifvqfp0","pricing_plan_id":"cebpf4jnsgd1na2vs0mg"},{"bike_id":"6e4700da-2223-4213-b156-7eedfb193e83","system_id":"levelo_inurba_marseille","lat":43.23191,"lon":5.35554,"is_reserved":false,"is_disabled":false,"rental_uris":{"android":"levelo://app?vid=6e4700da-2223-4213-b156-7eedfb193e83","ios":"levelo://app?vid=6e4700da-2223-4213-b156-7eedfb193e83"},"vehicle_type_id":"4","last_reported":1732018734,"current_range_meters":4400,"station_id":"ce4bhu92rcd13ifvqi70","pricing_plan_id":"cebpf4jnsgd1na2vs0mg"},{"bike_id":"b2c6734e-5eaa-4a7a-a720-142b91a23cdc","system_id":"levelo_inurba_marseille","lat":43.29787,"lon":5.37102,"is_reserved":false,"is_disabled":false,"rental_uris":{"android":"levelo://app?vid=b2c6734e-5eaa-4a7a-a720-142b91a23cdc","ios":"levelo://app?vid=b2c6734e-5eaa-4a7a-a720-142b91a23cdc"},"vehicle_type_id":"4","last_reported":1732018734,"current_range_meters":28000,"station_id":"ce4bgop2rcd13ifvqc1g","pricing_plan_id":"cebpf4jnsgd1na2vs0mg"},{"bike_id":"76b26817-8a0e-47d4-9818-68227ec46540","system_id":"levelo_inurba_marseille","lat":43.29068,"lon":5.37157,"is_reserved":false,"is_disabled":true,"rental_uris":{"android":"levelo://app?vid=76b26817-8a0e-47d4-9818-68227ec46540","ios":"levelo://app?vid=76b26817-8a0e-47d4-9818-68227ec46540"},"vehicle_type_id":"4","last_reported":1732018734,"current_range_meters":37600,"station_id":"ce4bh5p2rcd13ifvqe4g","pricing_plan_id":"cebpf4jnsgd1na2vs0mg"},{"bike_id":"fc7685bc-12d2-4453-957c-236516983ef0","system_id":"levelo_inurba_marseille","lat":43.24389,"lon":5.37056,"is_reserved":false,"is_disabled":false,"rental_uris":{"android":"levelo://app?vid=fc7685bc-12d2-4453-957c-236516983ef0","ios":"levelo://app?vid=fc7685bc-12d2-4453-957c-236516983ef0"},"vehicle_type_id":"4","last_reported":1732018734,"current_range_meters":18000,"station_id":"ce4bhhh2rcd13ifvqfk0","pricing_plan_id":"cebpf4jnsgd1na2vs0mg"},{"bike_id":"5a04a6aa-f6f7-449f-be26-8613756d8d6a","system_id":"levelo_inurba_marseille","lat":43.30586,"lon":5.39365,"is_reserved":false,"is_disabled":false,"rental_uris":{"android":"levelo://app?vid=5a04a6aa-f6f7-449f-be26-8613756d8d6a","ios":"levelo://app?vid=5a04a6aa-f6f7-449f-be26-8613756d8d6a"},"vehicle_type_id":"4","last_reported":1732018734,"current_range_meters":27200,"station_id":"ce4bh0p2rcd13ifvqd80","pricing_plan_id":"cebpf4jnsgd1na2vs0mg"},{"bike_id":"31d551db-f011-4c59-9a0e-fc7dc073da41","system_id":"levelo_inurba_marseille","lat":43.29192,"lon":5.39346,"is_reserved":false,"is_disabled":false,"rental_uris":{"android":"levelo://app?vid=31d551db-f011-4c59-9a0e-fc7dc073da41","ios":"levelo://app?vid=31d551db-f011-4c59-9a0e-fc7dc073da41"},"vehicle_type_id":"4","last_reported":1732018734,"current_range_meters":30800,"station_id":"ce4bh192rcd13ifvqdd0","pricing_plan_id":"cebpf4jnsgd1na2vs0mg"},{"bike_id":"55a71a41-be71-4d47-af9c-bb7ed396d09b","system_id":"levelo_inurba_marseille","lat":43.25827,"lon":5.39434,"is_reserved":false,"is_disabled":false,"rental_uris":{"android":"levelo://app?vid=55a71a41-be71-4d47-af9c-bb7ed396d09b","ios":"levelo://app?vid=55a71a41-be71-4d47-af9c-bb7ed396d09b"},"vehicle_type_id":"4","last_reported":1732018734,"current_range_meters":27600,"station_id":"ce4bhip2rcd13ifvqft0","pricing_plan_id":"cebpf4jnsgd1na2vs0mg"},{"bike_id":"31e6bd0b-c283-428e-a60e-39ea0d752798","system_id":"levelo_inurba_marseille","lat":43.26213,"lon":5.37442,"is_reserved":false,"is_disabled":false,"rental_uris":{"android":"levelo://app?vid=31e6bd0b-c283-428e-a60e-39ea0d752798","ios":"levelo://app?vid=31e6bd0b-c283-428e-a60e-39ea0d752798"},"vehicle_type_id":"4","last_reported":1732018734,"current_range_meters":14400,"station_id":"ce4bhgp2rcd13ifvqfc0","pricing_plan_id":"cebpf4jnsgd1na2vs0mg"},{"bike_id":"4ebc87da-5f5a-4c8c-90f6-6d9b4554ca3e","system_id":"levelo_inurba_marseille","lat":43.30604,"lon":5.3722,"is_reserved":false,"is_disabled":false,"rental_uris":{"android":"levelo://app?vid=4ebc87da-5f5a-4c8c-90f6-6d9b4554ca3e","ios":"levelo://app?vid=4ebc87da-5f5a-4c8c-90f6-6d9b4554ca3e"},"vehicle_type_id":"4","last_reported":1732018734,"current_range_meters":36800,"station_id":"ce4bgqh2rcd13ifvqc4g","pricing_plan_id":"cebpf4jnsgd1na2vs0mg"},{"bike_id":"c965d922-041e-4314-8721-46b1ef5413d3","system_id":"levelo_inurba_marseille","lat":43.26203,"lon":5.37929,"is_reserved":false,"is_disabled":false,"rental_uris":{"android":"levelo://app?vid=c965d922-041e-4314-8721-46b1ef5413d3","ios":"levelo://app?vid=c965d922-041e-4314-8721-46b1ef5413d3"},"vehicle_type_id":"4","last_reported":1732018734,"current_range_meters":39200,"station_id":"ce4bhjp2rcd13ifvqg90","pricing_plan_id":"cebpf4jnsgd1na2vs0mg"},{"bike_id":"e01ff489-e7f8-44a9-9b0e-754d01c7f72d","system_id":"levelo_inurba_marseille","lat":43.29078,"lon":5.37181,"is_reserved":false,"is_disabled":false,"rental_uris":{"android":"levelo://app?vid=e01ff489-e7f8-44a9-9b0e-754d01c7f72d","ios":"levelo://app?vid=e01ff489-e7f8-44a9-9b0e-754d01c7f72d"},"vehicle_type_id":"4","last_reported":1732018734,"current_range_meters":35600,"station_id":"ce4bh5p2rcd13ifvqe4g","pricing_plan_id":"cebpf4jnsgd1na2vs0mg"},{"bike_id":"bc249293-6395-4334-b84a-652f70f197fc","system_id":"levelo_inurba_marseille","lat":43.27629,"lon":5.42644,"is_reserved":false,"is_disabled":true,"rental_uris":{"android":"levelo://app?vid=bc249293-6395-4334-b84a-652f70f197fc","ios":"levelo://app?vid=bc249293-6395-4334-b84a-652f70f197fc"},"vehicle_type_id":"4","last_reported":1732018734,"current_range_meters":0,"station_id":"","pricing_plan_id":"cebpf4jnsgd1na2vs0mg"},{"bike_id":"0046f8d2-0f28-42ce-ae19-ab916ca5247d","system_id":"levelo_inurba_marseille","lat":43.28851,"lon":5.39305,"is_reserved":false,"is_disabled":false,"rental_uris":{"android":"levelo://app?vid=0046f8d2-0f28-42ce-ae19-ab916ca5247d","ios":"levelo://app?vid=0046f8d2-0f28-42ce-ae19-ab916ca5247d"},"vehicle_type_id":"4","last_reported":1732018734,"current_range_meters":38400,"station_id":"ce4bh2p2rcd13ifvqdi0","pricing_plan_id":"cebpf4jnsgd1na2vs0mg"},{"bike_id":"be1dd5f8-91fc-4786-8461-76cd869dae13","system_id":"levelo_inurba_marseille","lat":43.31982,"lon":5.41584,"is_reserved":false,"is_disabled":true,"rental_uris":{"android":"levelo://app?vid=be1dd5f8-91fc-4786-8461-76cd869dae13","ios":"levelo://app?vid=be1dd5f8-91fc-4786-8461-76cd869dae13"},"vehicle_type_id":"4","last_reported":1732018734,"current_range_meters":26000,"station_id":"","pricing_plan_id":"cebpf4jnsgd1na2vs0mg"},{"bike_id":"510f38b8-f8fd-467b-90ec-a630efc31f92","system_id":"levelo_inurba_marseille","lat":43.26562,"lon":5.37289,"is_reserved":false,"is_disabled":false,"rental_uris":{"android":"levelo://app?vid=510f38b8-f8fd-467b-90ec-a630efc31f92","ios":"levelo://app?vid=510f38b8-f8fd-467b-90ec-a630efc31f92"},"vehicle_type_id":"4","last_reported":1732018734,"current_range_meters":31200,"station_id":"ce4bhg12rcd13ifvqf70","pricing_plan_id":"cebpf4jnsgd1na2vs0mg"},{"bike_id":"35e74e42-a783-49cd-884d-8a241590c517","system_id":"levelo_inurba_marseille","lat":43.29555,"lon":5.42291,"is_reserved":false,"is_disabled":false,"rental_uris":{"android":"levelo://app?vid=35e74e42-a783-49cd-884d-8a241590c517","ios":"levelo://app?vid=35e74e42-a783-49cd-884d-8a241590c517"},"vehicle_type_id":"4","last_reported":1732018734,"current_range_meters":39200,"station_id":"ce4bhph2rcd13ifvqhdg","pricing_plan_id":"cebpf4jnsgd1na2vs0mg"},{"bike_id":"ee5ad2bc-dd93-4a60-9deb-ff629596020e","system_id":"levelo_inurba_marseille","lat":43.24181,"lon":5.39732,"is_reserved":false,"is_disabled":false,"rental_uris":{"android":"levelo://app?vid=ee5ad2bc-dd93-4a60-9deb-ff629596020e","ios":"levelo://app?vid=ee5ad2bc-dd93-4a60-9deb-ff629596020e"},"vehicle_type_id":"4","last_reported":1732018734,"current_range_meters":38800,"station_id":"ce4bhn12rcd13ifvqgpg","pricing_plan_id":"cebpf4jnsgd1na2vs0mg"},{"bike_id":"cf9b35de-204a-43af-8b76-c234b9d9adf4","system_id":"levelo_inurba_marseille","lat":43.29784,"lon":5.37099,"is_reserved":false,"is_disabled":false,"rental_uris":{"android":"levelo://app?vid=cf9b35de-204a-43af-8b76-c234b9d9adf4","ios":"levelo://app?vid=cf9b35de-204a-43af-8b76-c234b9d9adf4"},"vehicle_type_id":"4","last_reported":1732018734,"current_range_meters":33200,"station_id":"ce4bgop2rcd13ifvqc1g","pricing_plan_id":"cebpf4jnsgd1na2vs0mg"},{"bike_id":"e5e2248a-03d3-4b07-b4f7-fd61796e9419","system_id":"levelo_inurba_marseille","lat":43.299763,"lon":5.380753,"is_reserved":false,"is_disabled":true,"rental_uris":{"android":"levelo://app?vid=e5e2248a-03d3-4b07-b4f7-fd61796e9419","ios":"levelo://app?vid=e5e2248a-03d3-4b07-b4f7-fd61796e9419"},"vehicle_type_id":"4","last_reported":1732018734,"current_range_meters":0,"station_id":"","pricing_plan_id":"cebpf4jnsgd1na2vs0mg"},{"bike_id":"3593ee49-3616-4cc6-a1da-bdf5d3e7063d","system_id":"levelo_inurba_marseille","lat":43.30148,"lon":5.38073,"is_reserved":false,"is_disabled":false,"rental_uris":{"android":"levelo://app?vid=3593ee49-3616-4cc6-a1da-bdf5d3e7063d","ios":"levelo://app?vid=3593ee49-3616-4cc6-a1da-bdf5d3e7063d"},"vehicle_type_id":"4","last_reported":1732018734,"current_range_meters":20000,"station_id":"ce4bgjp2rcd13ifvqbh0","pricing_plan_id":"cebpf4jnsgd1na2vs0mg"},{"bike_id":"65fc6ad8-aabe-40ca-aa9f-3fad6a41258a","system_id":"levelo_inurba_marseille","lat":43.30906,"lon":5.36852,"is_reserved":false,"is_disabled":true,"rental_uris":{"android":"levelo://app?vid=65fc6ad8-aabe-40ca-aa9f-3fad6a41258a","ios":"levelo://app?vid=65fc6ad8-aabe-40ca-aa9f-3fad6a41258a"},"vehicle_type_id":"4","last_reported":1732018734,"current_range_meters":1200,"station_id":"ce4bgn92rcd13ifvqbvg","pricing_plan_id":"cebpf4jnsgd1na2vs0mg"},{"bike_id":"cfbed237-c79f-4f65-b311-be4997dd399e","system_id":"levelo_inurba_marseille","lat":43.272,"lon":5.39197,"is_reserved":false,"is_disabled":true,"rental_uris":{"android":"levelo://app?vid=cfbed237-c79f-4f65-b311-be4997dd399e","ios":"levelo://app?vid=cfbed237-c79f-4f65-b311-be4997dd399e"},"vehicle_type_id":"4","last_reported":1732018734,"current_range_meters":0,"station_id":"ce4bhhp2rcd13ifvqfm0","pricing_plan_id":"cebpf4jnsgd1na2vs0mg"},{"bike_id":"4a994919-48b5-495b-a981-52d72fc93e55","system_id":"levelo_inurba_marseille","lat":43.29371,"lon":5.37836,"is_reserved":false,"is_disabled":false,"rental_uris":{"android":"levelo://app?vid=4a994919-48b5-495b-a981-52d72fc93e55","ios":"levelo://app?vid=4a994919-48b5-495b-a981-52d72fc93e55"},"vehicle_type_id":"4","last_reported":1732018734,"current_range_meters":25200,"station_id":"ce4bgjh2rcd13ifvqbf0","pricing_plan_id":"cebpf4jnsgd1na2vs0mg"},{"bike_id":"30b90aa5-562d-4163-b4c2-89a7053f6b03","system_id":"levelo_inurba_marseille","lat":43.29882,"lon":5.39739,"is_reserved":false,"is_disabled":false,"rental_uris":{"android":"levelo://app?vid=30b90aa5-562d-4163-b4c2-89a7053f6b03","ios":"levelo://app?vid=30b90aa5-562d-4163-b4c2-89a7053f6b03"},"vehicle_type_id":"4","last_reported":1732018734,"current_range_meters":8400,"station_id":"ce4bh0h2rcd13ifvqd50","pricing_plan_id":"cebpf4jnsgd1na2vs0mg"},{"bike_id":"2a270517-9d5b-492f-a609-2bf32ee97d0e","system_id":"levelo_inurba_marseille","lat":43.29581,"lon":5.37497,"is_reserved":false,"is_disabled":true,"rental_uris":{"android":"levelo://app?vid=2a270517-9d5b-492f-a609-2bf32ee97d0e","ios":"levelo://app?vid=2a270517-9d5b-492f-a609-2bf32ee97d0e"},"vehicle_type_id":"4","last_reported":1732018734,"current_range_meters":33200,"station_id":"ce4bgh92rcd13ifvqb50","pricing_plan_id":"cebpf4jnsgd1na2vs0mg"},{"bike_id":"7289239c-a3b0-403c-b810-a6e7cb8c855e","system_id":"levelo_inurba_marseille","lat":43.29042,"lon":5.37562,"is_reserved":false,"is_disabled":true,"rental_uris":{"android":"levelo://app?vid=7289239c-a3b0-403c-b810-a6e7cb8c855e","ios":"levelo://app?vid=7289239c-a3b0-403c-b810-a6e7cb8c855e"},"vehicle_type_id":"4","last_reported":1732018734,"current_range_meters":20400,"station_id":"ce4bh692rcd13ifvqe90","pricing_plan_id":"cebpf4jnsgd1na2vs0mg"},{"bike_id":"9f42bc7d-33d7-49d6-b4d2-d0c86606d847","system_id":"levelo_inurba_marseille","lat":43.28711,"lon":5.39987,"is_reserved":false,"is_disabled":false,"rental_uris":{"android":"levelo://app?vid=9f42bc7d-33d7-49d6-b4d2-d0c86606d847","ios":"levelo://app?vid=9f42bc7d-33d7-49d6-b4d2-d0c86606d847"},"vehicle_type_id":"4","last_reported":1732018734,"current_range_meters":37600,"station_id":"ce4bho92rcd13ifvqh3g","pricing_plan_id":"cebpf4jnsgd1na2vs0mg"},{"bike_id":"1a9b3946-9dbf-4d99-aa77-06b84093ffde","system_id":"levelo_inurba_marseille","lat":43.30467,"lon":5.37914,"is_reserved":false,"is_disabled":false,"rental_uris":{"android":"levelo://app?vid=1a9b3946-9dbf-4d99-aa77-06b84093ffde","ios":"levelo://app?vid=1a9b3946-9dbf-4d99-aa77-06b84093ffde"},"vehicle_type_id":"4","last_reported":1732018734,"current_range_meters":13600,"station_id":"ce4bgup2rcd13ifvqcn0","pricing_plan_id":"cebpf4jnsgd1na2vs0mg"},{"bike_id":"1ff970a9-d231-4bbd-92a9-fc25fa1a5bc7","system_id":"levelo_inurba_marseille","lat":43.3015,"lon":5.38087,"is_reserved":false,"is_disabled":false,"rental_uris":{"android":"levelo://app?vid=1ff970a9-d231-4bbd-92a9-fc25fa1a5bc7","ios":"levelo://app?vid=1ff970a9-d231-4bbd-92a9-fc25fa1a5bc7"},"vehicle_type_id":"4","last_reported":1732018734,"current_range_meters":38000,"station_id":"ce4bgjp2rcd13ifvqbh0","pricing_plan_id":"cebpf4jnsgd1na2vs0mg"},{"bike_id":"f1888b1a-22ac-4f8d-8a07-bea9e3e6d605","system_id":"levelo_inurba_marseille","lat":43.30901,"lon":5.36848,"is_reserved":false,"is_disabled":true,"rental_uris":{"android":"levelo://app?vid=f1888b1a-22ac-4f8d-8a07-bea9e3e6d605","ios":"levelo://app?vid=f1888b1a-22ac-4f8d-8a07-bea9e3e6d605"},"vehicle_type_id":"4","last_reported":1732018734,"current_range_meters":22400,"station_id":"ce4bgn92rcd13ifvqbvg","pricing_plan_id":"cebpf4jnsgd1na2vs0mg"},{"bike_id":"0e546698-79d3-4765-bb39-2d4136c52581","system_id":"levelo_inurba_marseille","lat":43.33611,"lon":5.41021,"is_reserved":false,"is_disabled":false,"rental_uris":{"android":"levelo://app?vid=0e546698-79d3-4765-bb39-2d4136c52581","ios":"levelo://app?vid=0e546698-79d3-4765-bb39-2d4136c52581"},"vehicle_type_id":"4","last_reported":1732018734,"current_range_meters":19200,"station_id":"ce4bhqh2rcd13ifvqhmg","pricing_plan_id":"cebpf4jnsgd1na2vs0mg"},{"bike_id":"24b2c3eb-8b9b-40a7-8aad-177c7a5a5f47","system_id":"levelo_inurba_marseille","lat":43.26934,"lon":5.38909,"is_reserved":false,"is_disabled":true,"rental_uris":{"android":"levelo://app?vid=24b2c3eb-8b9b-40a7-8aad-177c7a5a5f47","ios":"levelo://app?vid=24b2c3eb-8b9b-40a7-8aad-177c7a5a5f47"},"vehicle_type_id":"4","last_reported":1732018734,"current_range_meters":0,"station_id":"ce4bhhh2rcd13ifvqfl0","pricing_plan_id":"cebpf4jnsgd1na2vs0mg"},{"bike_id":"b80bc086-241e-444a-883b-f0b9cbe142b6","system_id":"levelo_inurba_marseille","lat":43.3015,"lon":5.3808,"is_reserved":false,"is_disabled":false,"rental_uris":{"android":"levelo://app?vid=b80bc086-241e-444a-883b-f0b9cbe142b6","ios":"levelo://app?vid=b80bc086-241e-444a-883b-f0b9cbe142b6"},"vehicle_type_id":"4","last_reported":1732018734,"current_range_meters":38800,"station_id":"ce4bgjp2rcd13ifvqbh0","pricing_plan_id":"cebpf4jnsgd1na2vs0mg"},{"bike_id":"0c21866d-64a6-48bd-84ec-2cdb016bb953","system_id":"levelo_inurba_marseille","lat":43.24391,"lon":5.37056,"is_reserved":false,"is_disabled":true,"rental_uris":{"android":"levelo://app?vid=0c21866d-64a6-48bd-84ec-2cdb016bb953","ios":"levelo://app?vid=0c21866d-64a6-48bd-84ec-2cdb016bb953"},"vehicle_type_id":"4","last_reported":1732018734,"current_range_meters":0,"station_id":"ce4bhhh2rcd13ifvqfk0","pricing_plan_id":"cebpf4jnsgd1na2vs0mg"},{"bike_id":"8d9c7874-6ecd-4ea0-a9e8-ef53041c8d83","system_id":"levelo_inurba_marseille","lat":43.31354,"lon":5.38507,"is_reserved":false,"is_disabled":true,"rental_uris":{"android":"levelo://app?vid=8d9c7874-6ecd-4ea0-a9e8-ef53041c8d83","ios":"levelo://app?vid=8d9c7874-6ecd-4ea0-a9e8-ef53041c8d83"},"vehicle_type_id":"4","last_reported":1732018734,"current_range_meters":36400,"station_id":"ce4bgt92rcd13ifvqcf0","pricing_plan_id":"cebpf4jnsgd1na2vs0mg"},{"bike_id":"9b4d52a8-a22b-418c-a556-65afaca3a235","system_id":"levelo_inurba_marseille","lat":43.337444,"lon":5.374475,"is_reserved":false,"is_disabled":false,"rental_uris":{"android":"levelo://app?vid=9b4d52a8-a22b-418c-a556-65afaca3a235","ios":"levelo://app?vid=9b4d52a8-a22b-418c-a556-65afaca3a235"},"vehicle_type_id":"4","last_reported":1732018734,"current_range_meters":37600,"station_id":"","pricing_plan_id":"cebpf4jnsgd1na2vs0mg"},{"bike_id":"d11f792a-d702-4584-a3d4-51714936f580","system_id":"levelo_inurba_marseille","lat":43.30594,"lon":5.3724,"is_reserved":false,"is_disabled":false,"rental_uris":{"android":"levelo://app?vid=d11f792a-d702-4584-a3d4-51714936f580","ios":"levelo://app?vid=d11f792a-d702-4584-a3d4-51714936f580"},"vehicle_type_id":"4","last_reported":1732018734,"current_range_meters":28000,"station_id":"ce4bgqh2rcd13ifvqc4g","pricing_plan_id":"cebpf4jnsgd1na2vs0mg"},{"bike_id":"d6e54eb8-b569-4670-b12b-fc7e345ccec9","system_id":"levelo_inurba_marseille","lat":43.29729,"lon":5.37689,"is_reserved":false,"is_disabled":false,"rental_uris":{"android":"levelo://app?vid=d6e54eb8-b569-4670-b12b-fc7e345ccec9","ios":"levelo://app?vid=d6e54eb8-b569-4670-b12b-fc7e345ccec9"},"vehicle_type_id":"4","last_reported":1732018734,"current_range_meters":36800,"station_id":"ce4bgkh2rcd13ifvqbl0","pricing_plan_id":"cebpf4jnsgd1na2vs0mg"},{"bike_id":"d1b604a8-334d-4cfc-ba9c-720d8061c18c","system_id":"levelo_inurba_marseille","lat":43.30603,"lon":5.37232,"is_reserved":false,"is_disabled":false,"rental_uris":{"android":"levelo://app?vid=d1b604a8-334d-4cfc-ba9c-720d8061c18c","ios":"levelo://app?vid=d1b604a8-334d-4cfc-ba9c-720d8061c18c"},"vehicle_type_id":"4","last_reported":1732018734,"current_range_meters":27200,"station_id":"ce4bgqh2rcd13ifvqc4g","pricing_plan_id":"cebpf4jnsgd1na2vs0mg"},{"bike_id":"a9fc217d-7905-44b8-9a69-d05d118fb7a7","system_id":"levelo_inurba_marseille","lat":43.28406,"lon":5.37508,"is_reserved":false,"is_disabled":false,"rental_uris":{"android":"levelo://app?vid=a9fc217d-7905-44b8-9a69-d05d118fb7a7","ios":"levelo://app?vid=a9fc217d-7905-44b8-9a69-d05d118fb7a7"},"vehicle_type_id":"4","last_reported":1732018734,"current_range_meters":23200,"station_id":"ce4bh412rcd13ifvqds0","pricing_plan_id":"cebpf4jnsgd1na2vs0mg"},{"bike_id":"3b0c545d-4cf2-4e15-900f-03b6156ee277","system_id":"levelo_inurba_marseille","lat":43.30917,"lon":5.36848,"is_reserved":false,"is_disabled":false,"rental_uris":{"android":"levelo://app?vid=3b0c545d-4cf2-4e15-900f-03b6156ee277","ios":"levelo://app?vid=3b0c545d-4cf2-4e15-900f-03b6156ee277"},"vehicle_type_id":"4","last_reported":1732018734,"current_range_meters":16400,"station_id":"ce4bgn92rcd13ifvqbvg","pricing_plan_id":"cebpf4jnsgd1na2vs0mg"},{"bike_id":"3a384788-0f2a-407d-b61d-a2a9f7449a31","system_id":"levelo_inurba_marseille","lat":43.24169,"lon":5.36397,"is_reserved":false,"is_disabled":false,"rental_uris":{"android":"levelo://app?vid=3a384788-0f2a-407d-b61d-a2a9f7449a31","ios":"levelo://app?vid=3a384788-0f2a-407d-b61d-a2a9f7449a31"},"vehicle_type_id":"4","last_reported":1732018734,"current_range_meters":36800,"station_id":"cpo36qri1sfpv3e86is0","pricing_plan_id":"cebpf4jnsgd1na2vs0mg"},{"bike_id":"adc56414-ff01-408b-87c1-1f9cbdadcf06","system_id":"levelo_inurba_marseille","lat":43.30457,"lon":5.37901,"is_reserved":false,"is_disabled":false,"rental_uris":{"android":"levelo://app?vid=adc56414-ff01-408b-87c1-1f9cbdadcf06","ios":"levelo://app?vid=adc56414-ff01-408b-87c1-1f9cbdadcf06"},"vehicle_type_id":"4","last_reported":1732018734,"current_range_meters":38800,"station_id":"ce4bgup2rcd13ifvqcn0","pricing_plan_id":"cebpf4jnsgd1na2vs0mg"},{"bike_id":"371cfe57-2b0d-4f0f-ab59-bc3afe013c47","system_id":"levelo_inurba_marseille","lat":43.29421,"lon":5.38625,"is_reserved":false,"is_disabled":false,"rental_uris":{"android":"levelo://app?vid=371cfe57-2b0d-4f0f-ab59-bc3afe013c47","ios":"levelo://app?vid=371cfe57-2b0d-4f0f-ab59-bc3afe013c47"},"vehicle_type_id":"4","last_reported":1732018734,"current_range_meters":39200,"station_id":"ce4bh2h2rcd13ifvqdh0","pricing_plan_id":"cebpf4jnsgd1na2vs0mg"},{"bike_id":"1462f68e-113f-431d-9d5b-f4d7f987f2b8","system_id":"levelo_inurba_marseille","lat":43.28486,"lon":5.38422,"is_reserved":false,"is_disabled":true,"rental_uris":{"android":"levelo://app?vid=1462f68e-113f-431d-9d5b-f4d7f987f2b8","ios":"levelo://app?vid=1462f68e-113f-431d-9d5b-f4d7f987f2b8"},"vehicle_type_id":"4","last_reported":1732018734,"current_range_meters":15200,"station_id":"ce4bh512rcd13ifvqe3g","pricing_plan_id":"cebpf4jnsgd1na2vs0mg"},{"bike_id":"b9f521ff-4210-48a8-86f2-695a4551af32","system_id":"levelo_inurba_marseille","lat":43.29166,"lon":5.37139,"is_reserved":false,"is_disabled":true,"rental_uris":{"android":"levelo://app?vid=b9f521ff-4210-48a8-86f2-695a4551af32","ios":"levelo://app?vid=b9f521ff-4210-48a8-86f2-695a4551af32"},"vehicle_type_id":"4","last_reported":1732018734,"current_range_meters":11600,"station_id":"ce4bha92rcd13ifvqeh0","pricing_plan_id":"cebpf4jnsgd1na2vs0mg"},{"bike_id":"0b733133-03c9-4766-961e-92b775b50bbc","system_id":"levelo_inurba_marseille","lat":43.28193,"lon":5.44263,"is_reserved":false,"is_disabled":true,"rental_uris":{"android":"levelo://app?vid=0b733133-03c9-4766-961e-92b775b50bbc","ios":"levelo://app?vid=0b733133-03c9-4766-961e-92b775b50bbc"},"vehicle_type_id":"4","last_reported":1732018734,"current_range_meters":0,"station_id":"","pricing_plan_id":"cebpf4jnsgd1na2vs0mg"},{"bike_id":"8e885839-53fd-488c-8330-c59e58d71f10","system_id":"levelo_inurba_marseille","lat":43.29793,"lon":5.40396,"is_reserved":false,"is_disabled":false,"rental_uris":{"android":"levelo://app?vid=8e885839-53fd-488c-8330-c59e58d71f10","ios":"levelo://app?vid=8e885839-53fd-488c-8330-c59e58d71f10"},"vehicle_type_id":"4","last_reported":1732018734,"current_range_meters":38800,"station_id":"ce4bh112rcd13ifvqd90","pricing_plan_id":"cebpf4jnsgd1na2vs0mg"},{"bike_id":"4cba050b-d851-4ee5-8ce0-ea7f25d9c27b","system_id":"levelo_inurba_marseille","lat":43.27485,"lon":5.42457,"is_reserved":false,"is_disabled":true,"rental_uris":{"android":"levelo://app?vid=4cba050b-d851-4ee5-8ce0-ea7f25d9c27b","ios":"levelo://app?vid=4cba050b-d851-4ee5-8ce0-ea7f25d9c27b"},"vehicle_type_id":"4","last_reported":1732018734,"current_range_meters":37600,"station_id":"ce4bhn92rcd13ifvqgrg","pricing_plan_id":"cebpf4jnsgd1na2vs0mg"},{"bike_id":"c4c95739-ad31-423c-a98a-2aaceff657a2","system_id":"levelo_inurba_marseille","lat":43.30947,"lon":5.39044,"is_reserved":false,"is_disabled":true,"rental_uris":{"android":"levelo://app?vid=c4c95739-ad31-423c-a98a-2aaceff657a2","ios":"levelo://app?vid=c4c95739-ad31-423c-a98a-2aaceff657a2"},"vehicle_type_id":"4","last_reported":1732018734,"current_range_meters":11600,"station_id":"ce4bgup2rcd13ifvqco0","pricing_plan_id":"cebpf4jnsgd1na2vs0mg"},{"bike_id":"7a62bdc9-e634-46ba-b613-31b659662f35","system_id":"levelo_inurba_marseille","lat":43.2781,"lon":5.40714,"is_reserved":false,"is_disabled":false,"rental_uris":{"android":"levelo://app?vid=7a62bdc9-e634-46ba-b613-31b659662f35","ios":"levelo://app?vid=7a62bdc9-e634-46ba-b613-31b659662f35"},"vehicle_type_id":"4","last_reported":1732018734,"current_range_meters":38800,"station_id":"ce4bhnh2rcd13ifvqgtg","pricing_plan_id":"cebpf4jnsgd1na2vs0mg"},{"bike_id":"e65461e3-d425-4dee-a20c-933c7023442e","system_id":"levelo_inurba_marseille","lat":43.30244,"lon":5.40062,"is_reserved":false,"is_disabled":true,"rental_uris":{"android":"levelo://app?vid=e65461e3-d425-4dee-a20c-933c7023442e","ios":"levelo://app?vid=e65461e3-d425-4dee-a20c-933c7023442e"},"vehicle_type_id":"4","last_reported":1732018734,"current_range_meters":38400,"station_id":"ce4bgvh2rcd13ifvqcs0","pricing_plan_id":"cebpf4jnsgd1na2vs0mg"},{"bike_id":"6daac719-a5e4-4cca-b214-c0b6ca91a7d8","system_id":"levelo_inurba_marseille","lat":43.28695,"lon":5.39989,"is_reserved":false,"is_disabled":false,"rental_uris":{"android":"levelo://app?vid=6daac719-a5e4-4cca-b214-c0b6ca91a7d8","ios":"levelo://app?vid=6daac719-a5e4-4cca-b214-c0b6ca91a7d8"},"vehicle_type_id":"4","last_reported":1732018734,"current_range_meters":36400,"station_id":"ce4bho92rcd13ifvqh3g","pricing_plan_id":"cebpf4jnsgd1na2vs0mg"},{"bike_id":"ff78d3fd-1323-4be7-9b8e-cca0330f5550","system_id":"levelo_inurba_marseille","lat":43.30532,"lon":5.36705,"is_reserved":false,"is_disabled":false,"rental_uris":{"android":"levelo://app?vid=ff78d3fd-1323-4be7-9b8e-cca0330f5550","ios":"levelo://app?vid=ff78d3fd-1323-4be7-9b8e-cca0330f5550"},"vehicle_type_id":"4","last_reported":1732018734,"current_range_meters":33600,"station_id":"ce4bgrp2rcd13ifvqc9g","pricing_plan_id":"cebpf4jnsgd1na2vs0mg"},{"bike_id":"bf616fda-0885-4bcf-8258-bc47aa3041a1","system_id":"levelo_inurba_marseille","lat":43.32485,"lon":5.36561,"is_reserved":false,"is_disabled":false,"rental_uris":{"android":"levelo://app?vid=bf616fda-0885-4bcf-8258-bc47aa3041a1","ios":"levelo://app?vid=bf616fda-0885-4bcf-8258-bc47aa3041a1"},"vehicle_type_id":"4","last_reported":1732018734,"current_range_meters":38800,"station_id":"ce4bhs12rcd13ifvqhvg","pricing_plan_id":"cebpf4jnsgd1na2vs0mg"},{"bike_id":"d24838ef-51f2-4a46-80c3-07ea5b39f777","system_id":"levelo_inurba_marseille","lat":43.24078,"lon":5.37757,"is_reserved":false,"is_disabled":false,"rental_uris":{"android":"levelo://app?vid=d24838ef-51f2-4a46-80c3-07ea5b39f777","ios":"levelo://app?vid=d24838ef-51f2-4a46-80c3-07ea5b39f777"},"vehicle_type_id":"4","last_reported":1732018734,"current_range_meters":38800,"station_id":"ce4bhnp2rcd13ifvqgvg","pricing_plan_id":"cebpf4jnsgd1na2vs0mg"},{"bike_id":"7273289a-ec12-4211-9875-2dcd3f0ef251","system_id":"levelo_inurba_marseille","lat":43.30435,"lon":5.38891,"is_reserved":false,"is_disabled":false,"rental_uris":{"android":"levelo://app?vid=7273289a-ec12-4211-9875-2dcd3f0ef251","ios":"levelo://app?vid=7273289a-ec12-4211-9875-2dcd3f0ef251"},"vehicle_type_id":"4","last_reported":1732018734,"current_range_meters":26800,"station_id":"ce4bgk12rcd13ifvqbi0","pricing_plan_id":"cebpf4jnsgd1na2vs0mg"},{"bike_id":"5c1b170e-917c-44c3-84e6-f7b96df052f2","system_id":"levelo_inurba_marseille","lat":43.29731,"lon":5.37699,"is_reserved":false,"is_disabled":false,"rental_uris":{"android":"levelo://app?vid=5c1b170e-917c-44c3-84e6-f7b96df052f2","ios":"levelo://app?vid=5c1b170e-917c-44c3-84e6-f7b96df052f2"},"vehicle_type_id":"4","last_reported":1732018734,"current_range_meters":7200,"station_id":"ce4bgkh2rcd13ifvqbl0","pricing_plan_id":"cebpf4jnsgd1na2vs0mg"},{"bike_id":"20d43469-0b35-4110-9c40-be0f1a781705","system_id":"levelo_inurba_marseille","lat":43.26208,"lon":5.37449,"is_reserved":false,"is_disabled":false,"rental_uris":{"android":"levelo://app?vid=20d43469-0b35-4110-9c40-be0f1a781705","ios":"levelo://app?vid=20d43469-0b35-4110-9c40-be0f1a781705"},"vehicle_type_id":"4","last_reported":1732018734,"current_range_meters":27600,"station_id":"ce4bhgp2rcd13ifvqfc0","pricing_plan_id":"cebpf4jnsgd1na2vs0mg"},{"bike_id":"218b372f-fe88-4325-8035-22b8ac792ee5","system_id":"levelo_inurba_marseille","lat":43.255,"lon":5.37651,"is_reserved":false,"is_disabled":false,"rental_uris":{"android":"levelo://app?vid=218b372f-fe88-4325-8035-22b8ac792ee5","ios":"levelo://app?vid=218b372f-fe88-4325-8035-22b8ac792ee5"},"vehicle_type_id":"4","last_reported":1732018734,"current_range_meters":8400,"station_id":"ce4bhh12rcd13ifvqff0","pricing_plan_id":"cebpf4jnsgd1na2vs0mg"},{"bike_id":"d329b6ef-a9e7-4e49-9e6f-7044d46a0472","system_id":"levelo_inurba_marseille","lat":43.3014,"lon":5.38781,"is_reserved":false,"is_disabled":false,"rental_uris":{"android":"levelo://app?vid=d329b6ef-a9e7-4e49-9e6f-7044d46a0472","ios":"levelo://app?vid=d329b6ef-a9e7-4e49-9e6f-7044d46a0472"},"vehicle_type_id":"4","last_reported":1732018734,"current_range_meters":25200,"station_id":"ce4bghh2rcd13ifvqb60","pricing_plan_id":"cebpf4jnsgd1na2vs0mg"},{"bike_id":"9f1dfffb-1213-4f6e-84d3-a2f0789a9ef3","system_id":"levelo_inurba_marseille","lat":43.27619,"lon":5.3587,"is_reserved":false,"is_disabled":true,"rental_uris":{"android":"levelo://app?vid=9f1dfffb-1213-4f6e-84d3-a2f0789a9ef3","ios":"levelo://app?vid=9f1dfffb-1213-4f6e-84d3-a2f0789a9ef3"},"vehicle_type_id":"4","last_reported":1732018734,"current_range_meters":0,"station_id":"","pricing_plan_id":"cebpf4jnsgd1na2vs0mg"},{"bike_id":"8dfe3502-1a44-41d0-93ec-2f8847296f61","system_id":"levelo_inurba_marseille","lat":43.29191,"lon":5.35804,"is_reserved":false,"is_disabled":true,"rental_uris":{"android":"levelo://app?vid=8dfe3502-1a44-41d0-93ec-2f8847296f61","ios":"levelo://app?vid=8dfe3502-1a44-41d0-93ec-2f8847296f61"},"vehicle_type_id":"4","last_reported":1732018734,"current_range_meters":38800,"station_id":"ce4bhb12rcd13ifvqel0","pricing_plan_id":"cebpf4jnsgd1na2vs0mg"},{"bike_id":"954054ad-77ac-46c3-a1b5-c8fc266a522b","system_id":"levelo_inurba_marseille","lat":43.31725,"lon":5.42397,"is_reserved":false,"is_disabled":false,"rental_uris":{"android":"levelo://app?vid=954054ad-77ac-46c3-a1b5-c8fc266a522b","ios":"levelo://app?vid=954054ad-77ac-46c3-a1b5-c8fc266a522b"},"vehicle_type_id":"4","last_reported":1732018734,"current_range_meters":39200,"station_id":"ce4bhp92rcd13ifvqhbg","pricing_plan_id":"cebpf4jnsgd1na2vs0mg"},{"bike_id":"09284273-d19f-4435-a666-624360efca7c","system_id":"levelo_inurba_marseille","lat":43.29306,"lon":5.37452,"is_reserved":false,"is_disabled":false,"rental_uris":{"android":"levelo://app?vid=09284273-d19f-4435-a666-624360efca7c","ios":"levelo://app?vid=09284273-d19f-4435-a666-624360efca7c"},"vehicle_type_id":"4","last_reported":1732018734,"current_range_meters":38400,"station_id":"ce4bgi12rcd13ifvqb70","pricing_plan_id":"cebpf4jnsgd1na2vs0mg"},{"bike_id":"c8f98c82-9f99-4496-8f1c-23fe72deb1dd","system_id":"levelo_inurba_marseille","lat":43.2781,"lon":5.40713,"is_reserved":false,"is_disabled":false,"rental_uris":{"android":"levelo://app?vid=c8f98c82-9f99-4496-8f1c-23fe72deb1dd","ios":"levelo://app?vid=c8f98c82-9f99-4496-8f1c-23fe72deb1dd"},"vehicle_type_id":"4","last_reported":1732018734,"current_range_meters":4800,"station_id":"ce4bhnh2rcd13ifvqgtg","pricing_plan_id":"cebpf4jnsgd1na2vs0mg"},{"bike_id":"353c6a8d-965b-4c4e-afca-3ed0328c2d2e","system_id":"levelo_inurba_marseille","lat":43.26062,"lon":5.39398,"is_reserved":false,"is_disabled":false,"rental_uris":{"android":"levelo://app?vid=353c6a8d-965b-4c4e-afca-3ed0328c2d2e","ios":"levelo://app?vid=353c6a8d-965b-4c4e-afca-3ed0328c2d2e"},"vehicle_type_id":"4","last_reported":1732018734,"current_range_meters":28800,"station_id":"ce4bhh92rcd13ifvqfj0","pricing_plan_id":"cebpf4jnsgd1na2vs0mg"},{"bike_id":"2d983866-913c-4390-ae48-1873d10c9730","system_id":"levelo_inurba_marseille","lat":43.24813,"lon":5.37458,"is_reserved":false,"is_disabled":true,"rental_uris":{"android":"levelo://app?vid=2d983866-913c-4390-ae48-1873d10c9730","ios":"levelo://app?vid=2d983866-913c-4390-ae48-1873d10c9730"},"vehicle_type_id":"4","last_reported":1732018734,"current_range_meters":16800,"station_id":"ce4bhgh2rcd13ifvqfb0","pricing_plan_id":"cebpf4jnsgd1na2vs0mg"},{"bike_id":"92338745-504d-4f12-a1e8-87d252e5e9c9","system_id":"levelo_inurba_marseille","lat":43.28657,"lon":5.38667,"is_reserved":false,"is_disabled":false,"rental_uris":{"android":"levelo://app?vid=92338745-504d-4f12-a1e8-87d252e5e9c9","ios":"levelo://app?vid=92338745-504d-4f12-a1e8-87d252e5e9c9"},"vehicle_type_id":"4","last_reported":1732018734,"current_range_meters":36800,"station_id":"ce4bh492rcd13ifvqdug","pricing_plan_id":"cebpf4jnsgd1na2vs0mg"},{"bike_id":"4c5f2e64-6d54-452b-a6ed-380778d9293f","system_id":"levelo_inurba_marseille","lat":43.3096,"lon":5.39028,"is_reserved":false,"is_disabled":false,"rental_uris":{"android":"levelo://app?vid=4c5f2e64-6d54-452b-a6ed-380778d9293f","ios":"levelo://app?vid=4c5f2e64-6d54-452b-a6ed-380778d9293f"},"vehicle_type_id":"4","last_reported":1732018734,"current_range_meters":35600,"station_id":"ce4bgup2rcd13ifvqco0","pricing_plan_id":"cebpf4jnsgd1na2vs0mg"},{"bike_id":"068a1417-bdde-4b32-9116-cea04a5436ce","system_id":"levelo_inurba_marseille","lat":43.29304,"lon":5.37458,"is_reserved":false,"is_disabled":false,"rental_uris":{"android":"levelo://app?vid=068a1417-bdde-4b32-9116-cea04a5436ce","ios":"levelo://app?vid=068a1417-bdde-4b32-9116-cea04a5436ce"},"vehicle_type_id":"4","last_reported":1732018734,"current_range_meters":18800,"station_id":"ce4bgi12rcd13ifvqb70","pricing_plan_id":"cebpf4jnsgd1na2vs0mg"},{"bike_id":"88196073-5d79-4eef-8b98-5b6c67eee457","system_id":"levelo_inurba_marseille","lat":43.31083,"lon":5.4243,"is_reserved":false,"is_disabled":true,"rental_uris":{"android":"levelo://app?vid=88196073-5d79-4eef-8b98-5b6c67eee457","ios":"levelo://app?vid=88196073-5d79-4eef-8b98-5b6c67eee457"},"vehicle_type_id":"4","last_reported":1732018734,"current_range_meters":16800,"station_id":"ce4bhp92rcd13ifvqhag","pricing_plan_id":"cebpf4jnsgd1na2vs0mg"},{"bike_id":"1e5fb0f5-d387-4ec6-aba3-e4376a474d1a","system_id":"levelo_inurba_marseille","lat":43.28942,"lon":5.3664,"is_reserved":false,"is_disabled":false,"rental_uris":{"android":"levelo://app?vid=1e5fb0f5-d387-4ec6-aba3-e4376a474d1a","ios":"levelo://app?vid=1e5fb0f5-d387-4ec6-aba3-e4376a474d1a"},"vehicle_type_id":"4","last_reported":1732018734,"current_range_meters":28800,"station_id":"ce4bhap2rcd13ifvqek0","pricing_plan_id":"cebpf4jnsgd1na2vs0mg"},{"bike_id":"dc6d24e2-2777-4e90-a873-656596156e63","system_id":"levelo_inurba_marseille","lat":43.33606,"lon":5.41018,"is_reserved":false,"is_disabled":false,"rental_uris":{"android":"levelo://app?vid=dc6d24e2-2777-4e90-a873-656596156e63","ios":"levelo://app?vid=dc6d24e2-2777-4e90-a873-656596156e63"},"vehicle_type_id":"4","last_reported":1732018734,"current_range_meters":17200,"station_id":"ce4bhqh2rcd13ifvqhmg","pricing_plan_id":"cebpf4jnsgd1na2vs0mg"},{"bike_id":"4430c7fe-75c4-4750-ade5-2860cae79f17","system_id":"levelo_inurba_marseille","lat":43.23148,"lon":5.43706,"is_reserved":false,"is_disabled":false,"rental_uris":{"android":"levelo://app?vid=4430c7fe-75c4-4750-ade5-2860cae79f17","ios":"levelo://app?vid=4430c7fe-75c4-4750-ade5-2860cae79f17"},"vehicle_type_id":"4","last_reported":1732018734,"current_range_meters":39200,"station_id":"ce4bhmp2rcd13ifvqgog","pricing_plan_id":"cebpf4jnsgd1na2vs0mg"},{"bike_id":"e264033a-f915-4b27-a08a-2f42cfcf052a","system_id":"levelo_inurba_marseille","lat":43.33774,"lon":5.37422,"is_reserved":false,"is_disabled":false,"rental_uris":{"android":"levelo://app?vid=e264033a-f915-4b27-a08a-2f42cfcf052a","ios":"levelo://app?vid=e264033a-f915-4b27-a08a-2f42cfcf052a"},"vehicle_type_id":"4","last_reported":1732018734,"current_range_meters":34000,"station_id":"","pricing_plan_id":"cebpf4jnsgd1na2vs0mg"},{"bike_id":"affc6a42-c87f-4640-9297-4a4ea6bc3ad3","system_id":"levelo_inurba_marseille","lat":43.29557,"lon":5.42288,"is_reserved":false,"is_disabled":false,"rental_uris":{"android":"levelo://app?vid=affc6a42-c87f-4640-9297-4a4ea6bc3ad3","ios":"levelo://app?vid=affc6a42-c87f-4640-9297-4a4ea6bc3ad3"},"vehicle_type_id":"4","last_reported":1732018734,"current_range_meters":38400,"station_id":"ce4bhph2rcd13ifvqhdg","pricing_plan_id":"cebpf4jnsgd1na2vs0mg"},{"bike_id":"2cb8152a-9694-4f2c-93f9-f5439d647132","system_id":"levelo_inurba_marseille","lat":43.25581,"lon":5.38233,"is_reserved":false,"is_disabled":false,"rental_uris":{"android":"levelo://app?vid=2cb8152a-9694-4f2c-93f9-f5439d647132","ios":"levelo://app?vid=2cb8152a-9694-4f2c-93f9-f5439d647132"},"vehicle_type_id":"4","last_reported":1732018734,"current_range_meters":33200,"station_id":"ce4bhih2rcd13ifvqfs0","pricing_plan_id":"cebpf4jnsgd1na2vs0mg"},{"bike_id":"06eb17a0-0db5-4c99-8229-ab8db105b1c7","system_id":"levelo_inurba_marseille","lat":43.25861,"lon":5.39902,"is_reserved":false,"is_disabled":false,"rental_uris":{"android":"levelo://app?vid=06eb17a0-0db5-4c99-8229-ab8db105b1c7","ios":"levelo://app?vid=06eb17a0-0db5-4c99-8229-ab8db105b1c7"},"vehicle_type_id":"4","last_reported":1732018734,"current_range_meters":30400,"station_id":"ce4bhl92rcd13ifvqghg","pricing_plan_id":"cebpf4jnsgd1na2vs0mg"},{"bike_id":"123862ba-68e2-48f6-a477-31ab9dae8bd5","system_id":"levelo_inurba_marseille","lat":43.337444,"lon":5.374475,"is_reserved":false,"is_disabled":true,"rental_uris":{"android":"levelo://app?vid=123862ba-68e2-48f6-a477-31ab9dae8bd5","ios":"levelo://app?vid=123862ba-68e2-48f6-a477-31ab9dae8bd5"},"vehicle_type_id":"4","last_reported":1732018734,"current_range_meters":16000,"station_id":"","pricing_plan_id":"cebpf4jnsgd1na2vs0mg"},{"bike_id":"25ddf417-8230-4dbc-b38a-2b2cb1ba9d73","system_id":"levelo_inurba_marseille","lat":43.30286,"lon":5.37696,"is_reserved":false,"is_disabled":true,"rental_uris":{"android":"levelo://app?vid=25ddf417-8230-4dbc-b38a-2b2cb1ba9d73","ios":"levelo://app?vid=25ddf417-8230-4dbc-b38a-2b2cb1ba9d73"},"vehicle_type_id":"4","last_reported":1732018734,"current_range_meters":38800,"station_id":"ce4bguh2rcd13ifvqcj0","pricing_plan_id":"cebpf4jnsgd1na2vs0mg"},{"bike_id":"718c9120-3640-4c0b-b479-f75c18fd82c0","system_id":"levelo_inurba_marseille","lat":43.28698,"lon":5.39983,"is_reserved":false,"is_disabled":false,"rental_uris":{"android":"levelo://app?vid=718c9120-3640-4c0b-b479-f75c18fd82c0","ios":"levelo://app?vid=718c9120-3640-4c0b-b479-f75c18fd82c0"},"vehicle_type_id":"4","last_reported":1732018734,"current_range_meters":11600,"station_id":"ce4bho92rcd13ifvqh3g","pricing_plan_id":"cebpf4jnsgd1na2vs0mg"},{"bike_id":"d2a93abf-d9be-4ac4-ac13-237be9ad7225","system_id":"levelo_inurba_marseille","lat":43.30598,"lon":5.39359,"is_reserved":false,"is_disabled":false,"rental_uris":{"android":"levelo://app?vid=d2a93abf-d9be-4ac4-ac13-237be9ad7225","ios":"levelo://app?vid=d2a93abf-d9be-4ac4-ac13-237be9ad7225"},"vehicle_type_id":"4","last_reported":1732018734,"current_range_meters":29600,"station_id":"ce4bh0p2rcd13ifvqd80","pricing_plan_id":"cebpf4jnsgd1na2vs0mg"},{"bike_id":"c0414705-628e-4ecb-a390-6a6747dfe975","system_id":"levelo_inurba_marseille","lat":43.30429,"lon":5.3673,"is_reserved":false,"is_disabled":false,"rental_uris":{"android":"levelo://app?vid=c0414705-628e-4ecb-a390-6a6747dfe975","ios":"levelo://app?vid=c0414705-628e-4ecb-a390-6a6747dfe975"},"vehicle_type_id":"4","last_reported":1732018734,"current_range_meters":36400,"station_id":"","pricing_plan_id":"cebpf4jnsgd1na2vs0mg"},{"bike_id":"dcb76559-b2e9-47e3-879c-54fff7543292","system_id":"levelo_inurba_marseille","lat":43.30463,"lon":5.37904,"is_reserved":false,"is_disabled":false,"rental_uris":{"android":"levelo://app?vid=dcb76559-b2e9-47e3-879c-54fff7543292","ios":"levelo://app?vid=dcb76559-b2e9-47e3-879c-54fff7543292"},"vehicle_type_id":"4","last_reported":1732018734,"current_range_meters":38800,"station_id":"ce4bgup2rcd13ifvqcn0","pricing_plan_id":"cebpf4jnsgd1na2vs0mg"},{"bike_id":"ca805363-7e24-49e0-874d-8c22c37c612c","system_id":"levelo_inurba_marseille","lat":43.28349,"lon":5.38104,"is_reserved":false,"is_disabled":false,"rental_uris":{"android":"levelo://app?vid=ca805363-7e24-49e0-874d-8c22c37c612c","ios":"levelo://app?vid=ca805363-7e24-49e0-874d-8c22c37c612c"},"vehicle_type_id":"4","last_reported":1732018734,"current_range_meters":20000,"station_id":"ce4bh412rcd13ifvqdr0","pricing_plan_id":"cebpf4jnsgd1na2vs0mg"},{"bike_id":"29b55e5a-8e49-4cf5-b7fe-4bf5472b67ce","system_id":"levelo_inurba_marseille","lat":43.29962,"lon":5.38494,"is_reserved":false,"is_disabled":false,"rental_uris":{"android":"levelo://app?vid=29b55e5a-8e49-4cf5-b7fe-4bf5472b67ce","ios":"levelo://app?vid=29b55e5a-8e49-4cf5-b7fe-4bf5472b67ce"},"vehicle_type_id":"4","last_reported":1732018734,"current_range_meters":24400,"station_id":"ce4bgj92rcd13ifvqbd0","pricing_plan_id":"cebpf4jnsgd1na2vs0mg"},{"bike_id":"ec93ac56-7bc0-4cdf-815b-5a5b3f95e7c4","system_id":"levelo_inurba_marseille","lat":43.30532,"lon":5.3653,"is_reserved":false,"is_disabled":false,"rental_uris":{"android":"levelo://app?vid=ec93ac56-7bc0-4cdf-815b-5a5b3f95e7c4","ios":"levelo://app?vid=ec93ac56-7bc0-4cdf-815b-5a5b3f95e7c4"},"vehicle_type_id":"4","last_reported":1732018734,"current_range_meters":19200,"station_id":"ce4bgs12rcd13ifvqcag","pricing_plan_id":"cebpf4jnsgd1na2vs0mg"},{"bike_id":"cb966719-642f-47d6-87b3-cf98aa3e6af1","system_id":"levelo_inurba_marseille","lat":43.28353,"lon":5.38095,"is_reserved":false,"is_disabled":false,"rental_uris":{"android":"levelo://app?vid=cb966719-642f-47d6-87b3-cf98aa3e6af1","ios":"levelo://app?vid=cb966719-642f-47d6-87b3-cf98aa3e6af1"},"vehicle_type_id":"4","last_reported":1732018734,"current_range_meters":24400,"station_id":"ce4bh412rcd13ifvqdr0","pricing_plan_id":"cebpf4jnsgd1na2vs0mg"},{"bike_id":"efaa20f7-d2fb-4778-9ca3-b17e9193d440","system_id":"levelo_inurba_marseille","lat":43.33711,"lon":5.39168,"is_reserved":false,"is_disabled":false,"rental_uris":{"android":"levelo://app?vid=efaa20f7-d2fb-4778-9ca3-b17e9193d440","ios":"levelo://app?vid=efaa20f7-d2fb-4778-9ca3-b17e9193d440"},"vehicle_type_id":"4","last_reported":1732018734,"current_range_meters":38400,"station_id":"ce4bhr92rcd13ifvqhsg","pricing_plan_id":"cebpf4jnsgd1na2vs0mg"},{"bike_id":"4b1089fa-7b1e-4c9e-b4cc-042056d6026b","system_id":"levelo_inurba_marseille","lat":43.30201,"lon":5.39468,"is_reserved":false,"is_disabled":true,"rental_uris":{"android":"levelo://app?vid=4b1089fa-7b1e-4c9e-b4cc-042056d6026b","ios":"levelo://app?vid=4b1089fa-7b1e-4c9e-b4cc-042056d6026b"},"vehicle_type_id":"4","last_reported":1732018734,"current_range_meters":28000,"station_id":"ce4bh0p2rcd13ifvqd70","pricing_plan_id":"cebpf4jnsgd1na2vs0mg"},{"bike_id":"0af1d6ed-805a-43d7-b758-720642084494","system_id":"levelo_inurba_marseille","lat":43.32535,"lon":5.41434,"is_reserved":false,"is_disabled":false,"rental_uris":{"android":"levelo://app?vid=0af1d6ed-805a-43d7-b758-720642084494","ios":"levelo://app?vid=0af1d6ed-805a-43d7-b758-720642084494"},"vehicle_type_id":"4","last_reported":1732018734,"current_range_meters":8800,"station_id":"ce4bhq12rcd13ifvqhhg","pricing_plan_id":"cebpf4jnsgd1na2vs0mg"},{"bike_id":"d5d93423-8b59-49ff-a38f-f9112bad0624","system_id":"levelo_inurba_marseille","lat":43.23153,"lon":5.43707,"is_reserved":false,"is_disabled":true,"rental_uris":{"android":"levelo://app?vid=d5d93423-8b59-49ff-a38f-f9112bad0624","ios":"levelo://app?vid=d5d93423-8b59-49ff-a38f-f9112bad0624"},"vehicle_type_id":"4","last_reported":1732018734,"current_range_meters":18800,"station_id":"ce4bhmp2rcd13ifvqgog","pricing_plan_id":"cebpf4jnsgd1na2vs0mg"},{"bike_id":"e2f6a0a8-eb6e-492e-a17f-6bde58b9d768","system_id":"levelo_inurba_marseille","lat":43.29846,"lon":5.36274,"is_reserved":false,"is_disabled":false,"rental_uris":{"android":"levelo://app?vid=e2f6a0a8-eb6e-492e-a17f-6bde58b9d768","ios":"levelo://app?vid=e2f6a0a8-eb6e-492e-a17f-6bde58b9d768"},"vehicle_type_id":"4","last_reported":1732018734,"current_range_meters":36800,"station_id":"ce4bgpp2rcd13ifvqc3g","pricing_plan_id":"cebpf4jnsgd1na2vs0mg"},{"bike_id":"cda5d921-6da1-47fc-a138-92315e85d6fc","system_id":"levelo_inurba_marseille","lat":43.28073,"lon":5.3966,"is_reserved":false,"is_disabled":false,"rental_uris":{"android":"levelo://app?vid=cda5d921-6da1-47fc-a138-92315e85d6fc","ios":"levelo://app?vid=cda5d921-6da1-47fc-a138-92315e85d6fc"},"vehicle_type_id":"4","last_reported":1732018734,"current_range_meters":39200,"station_id":"ce4bho12rcd13ifvqh2g","pricing_plan_id":"cebpf4jnsgd1na2vs0mg"},{"bike_id":"fbf50743-a751-4d22-8d7f-9047b9d72787","system_id":"levelo_inurba_marseille","lat":43.33322,"lon":5.41885,"is_reserved":false,"is_disabled":false,"rental_uris":{"android":"levelo://app?vid=fbf50743-a751-4d22-8d7f-9047b9d72787","ios":"levelo://app?vid=fbf50743-a751-4d22-8d7f-9047b9d72787"},"vehicle_type_id":"4","last_reported":1732018734,"current_range_meters":28000,"station_id":"","pricing_plan_id":"cebpf4jnsgd1na2vs0mg"},{"bike_id":"bbd2600a-dbc8-4deb-9e62-e6c6a3b2b84a","system_id":"levelo_inurba_marseille","lat":43.30544,"lon":5.36525,"is_reserved":false,"is_disabled":false,"rental_uris":{"android":"levelo://app?vid=bbd2600a-dbc8-4deb-9e62-e6c6a3b2b84a","ios":"levelo://app?vid=bbd2600a-dbc8-4deb-9e62-e6c6a3b2b84a"},"vehicle_type_id":"4","last_reported":1732018734,"current_range_meters":38800,"station_id":"ce4bgs12rcd13ifvqcag","pricing_plan_id":"cebpf4jnsgd1na2vs0mg"},{"bike_id":"b8c3b4b4-f4f7-453d-b2f7-635206e87bbc","system_id":"levelo_inurba_marseille","lat":43.29196,"lon":5.35811,"is_reserved":false,"is_disabled":false,"rental_uris":{"android":"levelo://app?vid=b8c3b4b4-f4f7-453d-b2f7-635206e87bbc","ios":"levelo://app?vid=b8c3b4b4-f4f7-453d-b2f7-635206e87bbc"},"vehicle_type_id":"4","last_reported":1732018734,"current_range_meters":38000,"station_id":"ce4bhb12rcd13ifvqel0","pricing_plan_id":"cebpf4jnsgd1na2vs0mg"},{"bike_id":"9ad2bfde-2655-4c52-8450-d19268f6fcd9","system_id":"levelo_inurba_marseille","lat":43.2997,"lon":5.38497,"is_reserved":false,"is_disabled":false,"rental_uris":{"android":"levelo://app?vid=9ad2bfde-2655-4c52-8450-d19268f6fcd9","ios":"levelo://app?vid=9ad2bfde-2655-4c52-8450-d19268f6fcd9"},"vehicle_type_id":"4","last_reported":1732018734,"current_range_meters":37600,"station_id":"ce4bgj92rcd13ifvqbd0","pricing_plan_id":"cebpf4jnsgd1na2vs0mg"},{"bike_id":"219656c0-67d1-41e4-acab-237791f01352","system_id":"levelo_inurba_marseille","lat":43.26203,"lon":5.37929,"is_reserved":false,"is_disabled":false,"rental_uris":{"android":"levelo://app?vid=219656c0-67d1-41e4-acab-237791f01352","ios":"levelo://app?vid=219656c0-67d1-41e4-acab-237791f01352"},"vehicle_type_id":"4","last_reported":1732018734,"current_range_meters":14400,"station_id":"ce4bhjp2rcd13ifvqg90","pricing_plan_id":"cebpf4jnsgd1na2vs0mg"},{"bike_id":"e724f48d-7831-4a53-bd1c-2ddf0f9a9faa","system_id":"levelo_inurba_marseille","lat":43.30315,"lon":5.36907,"is_reserved":false,"is_disabled":true,"rental_uris":{"android":"levelo://app?vid=e724f48d-7831-4a53-bd1c-2ddf0f9a9faa","ios":"levelo://app?vid=e724f48d-7831-4a53-bd1c-2ddf0f9a9faa"},"vehicle_type_id":"4","last_reported":1732018734,"current_range_meters":8400,"station_id":"ce4bgqh2rcd13ifvqc5g","pricing_plan_id":"cebpf4jnsgd1na2vs0mg"},{"bike_id":"f0e2f4e5-f602-4a1c-ba1a-aa1d1150f28c","system_id":"levelo_inurba_marseille","lat":43.2963,"lon":5.40601,"is_reserved":false,"is_disabled":true,"rental_uris":{"android":"levelo://app?vid=f0e2f4e5-f602-4a1c-ba1a-aa1d1150f28c","ios":"levelo://app?vid=f0e2f4e5-f602-4a1c-ba1a-aa1d1150f28c"},"vehicle_type_id":"4","last_reported":1732018734,"current_range_meters":38800,"station_id":"ce4bh0h2rcd13ifvqd60","pricing_plan_id":"cebpf4jnsgd1na2vs0mg"},{"bike_id":"e5096cbe-7cf3-475a-bb0a-b81ff48b3b20","system_id":"levelo_inurba_marseille","lat":43.30138,"lon":5.37424,"is_reserved":false,"is_disabled":false,"rental_uris":{"android":"levelo://app?vid=e5096cbe-7cf3-475a-bb0a-b81ff48b3b20","ios":"levelo://app?vid=e5096cbe-7cf3-475a-bb0a-b81ff48b3b20"},"vehicle_type_id":"4","last_reported":1732018734,"current_range_meters":27600,"station_id":"ce4bgs92rcd13ifvqcc0","pricing_plan_id":"cebpf4jnsgd1na2vs0mg"},{"bike_id":"81f9fe4a-dfb3-4b4f-8aab-e637efb806dc","system_id":"levelo_inurba_marseille","lat":43.25861,"lon":5.39903,"is_reserved":false,"is_disabled":false,"rental_uris":{"android":"levelo://app?vid=81f9fe4a-dfb3-4b4f-8aab-e637efb806dc","ios":"levelo://app?vid=81f9fe4a-dfb3-4b4f-8aab-e637efb806dc"},"vehicle_type_id":"4","last_reported":1732018734,"current_range_meters":8400,"station_id":"ce4bhl92rcd13ifvqghg","pricing_plan_id":"cebpf4jnsgd1na2vs0mg"},{"bike_id":"6ddad546-0876-4bc4-b05c-92e9c54bedb6","system_id":"levelo_inurba_marseille","lat":43.32289,"lon":5.38275,"is_reserved":false,"is_disabled":false,"rental_uris":{"android":"levelo://app?vid=6ddad546-0876-4bc4-b05c-92e9c54bedb6","ios":"levelo://app?vid=6ddad546-0876-4bc4-b05c-92e9c54bedb6"},"vehicle_type_id":"4","last_reported":1732018734,"current_range_meters":16000,"station_id":"ce4bhr12rcd13ifvqhqg","pricing_plan_id":"cebpf4jnsgd1na2vs0mg"},{"bike_id":"03d81797-2d3e-41fb-83d2-92ced9838d9a","system_id":"levelo_inurba_marseille","lat":43.26801,"lon":5.40255,"is_reserved":false,"is_disabled":true,"rental_uris":{"android":"levelo://app?vid=03d81797-2d3e-41fb-83d2-92ced9838d9a","ios":"levelo://app?vid=03d81797-2d3e-41fb-83d2-92ced9838d9a"},"vehicle_type_id":"4","last_reported":1732018734,"current_range_meters":28400,"station_id":"ce501612rcd8frsf0b60","pricing_plan_id":"cebpf4jnsgd1na2vs0mg"},{"bike_id":"5b2dbb5e-2bfc-4191-91e0-a7703c702c92","system_id":"levelo_inurba_marseille","lat":43.26206,"lon":5.37448,"is_reserved":false,"is_disabled":false,"rental_uris":{"android":"levelo://app?vid=5b2dbb5e-2bfc-4191-91e0-a7703c702c92","ios":"levelo://app?vid=5b2dbb5e-2bfc-4191-91e0-a7703c702c92"},"vehicle_type_id":"4","last_reported":1732018734,"current_range_meters":9200,"station_id":"ce4bhgp2rcd13ifvqfc0","pricing_plan_id":"cebpf4jnsgd1na2vs0mg"},{"bike_id":"fb58ceff-44ec-4cef-801f-652f7ea527f8","system_id":"levelo_inurba_marseille","lat":43.24545,"lon":5.39519,"is_reserved":false,"is_disabled":false,"rental_uris":{"android":"levelo://app?vid=fb58ceff-44ec-4cef-801f-652f7ea527f8","ios":"levelo://app?vid=fb58ceff-44ec-4cef-801f-652f7ea527f8"},"vehicle_type_id":"4","last_reported":1732018734,"current_range_meters":28000,"station_id":"ce4bhlp2rcd13ifvqgjg","pricing_plan_id":"cebpf4jnsgd1na2vs0mg"},{"bike_id":"34ef56eb-5b5a-4268-8879-75c6ecc5b184","system_id":"levelo_inurba_marseille","lat":43.29371,"lon":5.37848,"is_reserved":false,"is_disabled":false,"rental_uris":{"android":"levelo://app?vid=34ef56eb-5b5a-4268-8879-75c6ecc5b184","ios":"levelo://app?vid=34ef56eb-5b5a-4268-8879-75c6ecc5b184"},"vehicle_type_id":"4","last_reported":1732018734,"current_range_meters":37600,"station_id":"ce4bgjh2rcd13ifvqbf0","pricing_plan_id":"cebpf4jnsgd1na2vs0mg"},{"bike_id":"4de41581-3b4d-48da-b235-99669862c70a","system_id":"levelo_inurba_marseille","lat":43.296165,"lon":5.377062,"is_reserved":false,"is_disabled":true,"rental_uris":{"android":"levelo://app?vid=4de41581-3b4d-48da-b235-99669862c70a","ios":"levelo://app?vid=4de41581-3b4d-48da-b235-99669862c70a"},"vehicle_type_id":"4","last_reported":1732018734,"current_range_meters":28400,"station_id":"ce4bgi92rcd13ifvqb90","pricing_plan_id":"cebpf4jnsgd1na2vs0mg"},{"bike_id":"2910f69a-6dac-4d69-a60d-e4f1b8cce200","system_id":"levelo_inurba_marseille","lat":43.27816,"lon":5.40719,"is_reserved":false,"is_disabled":true,"rental_uris":{"android":"levelo://app?vid=2910f69a-6dac-4d69-a60d-e4f1b8cce200","ios":"levelo://app?vid=2910f69a-6dac-4d69-a60d-e4f1b8cce200"},"vehicle_type_id":"4","last_reported":1732018734,"current_range_meters":19600,"station_id":"ce4bhnh2rcd13ifvqgtg","pricing_plan_id":"cebpf4jnsgd1na2vs0mg"},{"bike_id":"3d4a8a11-cd8e-4217-a130-2b8f97253671","system_id":"levelo_inurba_marseille","lat":43.30282,"lon":5.37699,"is_reserved":false,"is_disabled":false,"rental_uris":{"android":"levelo://app?vid=3d4a8a11-cd8e-4217-a130-2b8f97253671","ios":"levelo://app?vid=3d4a8a11-cd8e-4217-a130-2b8f97253671"},"vehicle_type_id":"4","last_reported":1732018734,"current_range_meters":38800,"station_id":"ce4bguh2rcd13ifvqcj0","pricing_plan_id":"cebpf4jnsgd1na2vs0mg"},{"bike_id":"4b6ed403-efdd-4ab1-b72d-fbfd8d37fff6","system_id":"levelo_inurba_marseille","lat":43.27538,"lon":5.35996,"is_reserved":false,"is_disabled":false,"rental_uris":{"android":"levelo://app?vid=4b6ed403-efdd-4ab1-b72d-fbfd8d37fff6","ios":"levelo://app?vid=4b6ed403-efdd-4ab1-b72d-fbfd8d37fff6"},"vehicle_type_id":"4","last_reported":1732018734,"current_range_meters":31200,"station_id":"","pricing_plan_id":"cebpf4jnsgd1na2vs0mg"},{"bike_id":"85782696-36f2-4c33-98b6-2d88f8670e2c","system_id":"levelo_inurba_marseille","lat":43.31081,"lon":5.42429,"is_reserved":false,"is_disabled":false,"rental_uris":{"android":"levelo://app?vid=85782696-36f2-4c33-98b6-2d88f8670e2c","ios":"levelo://app?vid=85782696-36f2-4c33-98b6-2d88f8670e2c"},"vehicle_type_id":"4","last_reported":1732018734,"current_range_meters":36400,"station_id":"ce4bhp92rcd13ifvqhag","pricing_plan_id":"cebpf4jnsgd1na2vs0mg"},{"bike_id":"800fea11-f496-4c18-9208-f2888c95692c","system_id":"levelo_inurba_marseille","lat":43.31222,"lon":5.36842,"is_reserved":false,"is_disabled":false,"rental_uris":{"android":"levelo://app?vid=800fea11-f496-4c18-9208-f2888c95692c","ios":"levelo://app?vid=800fea11-f496-4c18-9208-f2888c95692c"},"vehicle_type_id":"4","last_reported":1732018734,"current_range_meters":31200,"station_id":"ce4bgl92rcd13ifvqbq0","pricing_plan_id":"cebpf4jnsgd1na2vs0mg"},{"bike_id":"2122bb08-23f4-4a8f-acc7-77aba1b2332d","system_id":"levelo_inurba_marseille","lat":43.28859,"lon":5.35857,"is_reserved":false,"is_disabled":false,"rental_uris":{"android":"levelo://app?vid=2122bb08-23f4-4a8f-acc7-77aba1b2332d","ios":"levelo://app?vid=2122bb08-23f4-4a8f-acc7-77aba1b2332d"},"vehicle_type_id":"4","last_reported":1732018734,"current_range_meters":26800,"station_id":"ce4bhb12rcd13ifvqem0","pricing_plan_id":"cebpf4jnsgd1na2vs0mg"},{"bike_id":"7a1d8a89-2a7e-4939-ab1a-d9cdb7e81301","system_id":"levelo_inurba_marseille","lat":43.2986,"lon":5.36726,"is_reserved":false,"is_disabled":true,"rental_uris":{"android":"levelo://app?vid=7a1d8a89-2a7e-4939-ab1a-d9cdb7e81301","ios":"levelo://app?vid=7a1d8a89-2a7e-4939-ab1a-d9cdb7e81301"},"vehicle_type_id":"4","last_reported":1732018734,"current_range_meters":0,"station_id":"","pricing_plan_id":"cebpf4jnsgd1na2vs0mg"},{"bike_id":"c46435fb-ac45-4251-8f82-c93eda02ef2f","system_id":"levelo_inurba_marseille","lat":43.31077,"lon":5.42432,"is_reserved":false,"is_disabled":false,"rental_uris":{"android":"levelo://app?vid=c46435fb-ac45-4251-8f82-c93eda02ef2f","ios":"levelo://app?vid=c46435fb-ac45-4251-8f82-c93eda02ef2f"},"vehicle_type_id":"4","last_reported":1732018734,"current_range_meters":2800,"station_id":"ce4bhp92rcd13ifvqhag","pricing_plan_id":"cebpf4jnsgd1na2vs0mg"},{"bike_id":"ac9d2f49-8491-4f64-8df3-f15847cdf648","system_id":"levelo_inurba_marseille","lat":43.29897,"lon":5.38134,"is_reserved":false,"is_disabled":false,"rental_uris":{"android":"levelo://app?vid=ac9d2f49-8491-4f64-8df3-f15847cdf648","ios":"levelo://app?vid=ac9d2f49-8491-4f64-8df3-f15847cdf648"},"vehicle_type_id":"4","last_reported":1732018734,"current_range_meters":38800,"station_id":"ce4bgj12rcd13ifvqbc0","pricing_plan_id":"cebpf4jnsgd1na2vs0mg"},{"bike_id":"7e35deb2-0950-494e-a5fc-48886e723f0a","system_id":"levelo_inurba_marseille","lat":43.290368,"lon":5.37561,"is_reserved":false,"is_disabled":true,"rental_uris":{"android":"levelo://app?vid=7e35deb2-0950-494e-a5fc-48886e723f0a","ios":"levelo://app?vid=7e35deb2-0950-494e-a5fc-48886e723f0a"},"vehicle_type_id":"4","last_reported":1732018734,"current_range_meters":9600,"station_id":"ce4bh692rcd13ifvqe90","pricing_plan_id":"cebpf4jnsgd1na2vs0mg"},{"bike_id":"0f908f24-4975-408e-9c8e-6e40b191299d","system_id":"levelo_inurba_marseille","lat":43.28945,"lon":5.39626,"is_reserved":false,"is_disabled":false,"rental_uris":{"android":"levelo://app?vid=0f908f24-4975-408e-9c8e-6e40b191299d","ios":"levelo://app?vid=0f908f24-4975-408e-9c8e-6e40b191299d"},"vehicle_type_id":"4","last_reported":1732018734,"current_range_meters":38000,"station_id":"ce4bh3h2rcd13ifvqdn0","pricing_plan_id":"cebpf4jnsgd1na2vs0mg"},{"bike_id":"d482b473-8011-43d1-9203-ef428f8af553","system_id":"levelo_inurba_marseille","lat":43.2955,"lon":5.42285,"is_reserved":false,"is_disabled":false,"rental_uris":{"android":"levelo://app?vid=d482b473-8011-43d1-9203-ef428f8af553","ios":"levelo://app?vid=d482b473-8011-43d1-9203-ef428f8af553"},"vehicle_type_id":"4","last_reported":1732018734,"current_range_meters":37600,"station_id":"ce4bhph2rcd13ifvqhdg","pricing_plan_id":"cebpf4jnsgd1na2vs0mg"},{"bike_id":"d39ea5fc-6622-4dd0-b337-6537489ad780","system_id":"levelo_inurba_marseille","lat":43.29575,"lon":5.37512,"is_reserved":false,"is_disabled":false,"rental_uris":{"android":"levelo://app?vid=d39ea5fc-6622-4dd0-b337-6537489ad780","ios":"levelo://app?vid=d39ea5fc-6622-4dd0-b337-6537489ad780"},"vehicle_type_id":"4","last_reported":1732018734,"current_range_meters":24000,"station_id":"ce4bgh92rcd13ifvqb50","pricing_plan_id":"cebpf4jnsgd1na2vs0mg"},{"bike_id":"39fe7f4c-753f-4ff2-8898-a7e615c9b6d8","system_id":"levelo_inurba_marseille","lat":43.28615,"lon":5.35107,"is_reserved":false,"is_disabled":false,"rental_uris":{"android":"levelo://app?vid=39fe7f4c-753f-4ff2-8898-a7e615c9b6d8","ios":"levelo://app?vid=39fe7f4c-753f-4ff2-8898-a7e615c9b6d8"},"vehicle_type_id":"4","last_reported":1732018734,"current_range_meters":7200,"station_id":"ce4bhch2rcd13ifvqeug","pricing_plan_id":"cebpf4jnsgd1na2vs0mg"},{"bike_id":"cde5eb04-35f5-4971-aec4-8004f9b2dcd9","system_id":"levelo_inurba_marseille","lat":43.28272,"lon":5.35071,"is_reserved":false,"is_disabled":true,"rental_uris":{"android":"levelo://app?vid=cde5eb04-35f5-4971-aec4-8004f9b2dcd9","ios":"levelo://app?vid=cde5eb04-35f5-4971-aec4-8004f9b2dcd9"},"vehicle_type_id":"4","last_reported":1732018734,"current_range_meters":33600,"station_id":"ce4bhbp2rcd13ifvqerg","pricing_plan_id":"cebpf4jnsgd1na2vs0mg"},{"bike_id":"a0a282f7-f9d8-453f-b8d2-347ca22e8874","system_id":"levelo_inurba_marseille","lat":43.29618,"lon":5.37151,"is_reserved":false,"is_disabled":false,"rental_uris":{"android":"levelo://app?vid=a0a282f7-f9d8-453f-b8d2-347ca22e8874","ios":"levelo://app?vid=a0a282f7-f9d8-453f-b8d2-347ca22e8874"},"vehicle_type_id":"4","last_reported":1732018734,"current_range_meters":20800,"station_id":"ce4bgnh2rcd13ifvqc0g","pricing_plan_id":"cebpf4jnsgd1na2vs0mg"},{"bike_id":"006eb907-ea31-4324-9096-57b1af7cc589","system_id":"levelo_inurba_marseille","lat":43.31996,"lon":5.38149,"is_reserved":false,"is_disabled":false,"rental_uris":{"android":"levelo://app?vid=006eb907-ea31-4324-9096-57b1af7cc589","ios":"levelo://app?vid=006eb907-ea31-4324-9096-57b1af7cc589"},"vehicle_type_id":"4","last_reported":1732018734,"current_range_meters":8000,"station_id":"ce4bhr12rcd13ifvqhpg","pricing_plan_id":"cebpf4jnsgd1na2vs0mg"},{"bike_id":"2385b639-e8e2-47a3-89ab-bdc6fe74e678","system_id":"levelo_inurba_marseille","lat":43.24076,"lon":5.37756,"is_reserved":false,"is_disabled":false,"rental_uris":{"android":"levelo://app?vid=2385b639-e8e2-47a3-89ab-bdc6fe74e678","ios":"levelo://app?vid=2385b639-e8e2-47a3-89ab-bdc6fe74e678"},"vehicle_type_id":"4","last_reported":1732018734,"current_range_meters":20000,"station_id":"ce4bhnp2rcd13ifvqgvg","pricing_plan_id":"cebpf4jnsgd1na2vs0mg"},{"bike_id":"8900f549-cd7c-47eb-8777-83d4c4a7c47f","system_id":"levelo_inurba_marseille","lat":43.34145,"lon":5.40904,"is_reserved":false,"is_disabled":false,"rental_uris":{"android":"levelo://app?vid=8900f549-cd7c-47eb-8777-83d4c4a7c47f","ios":"levelo://app?vid=8900f549-cd7c-47eb-8777-83d4c4a7c47f"},"vehicle_type_id":"4","last_reported":1732018734,"current_range_meters":38000,"station_id":"ce4bhqh2rcd13ifvqhlg","pricing_plan_id":"cebpf4jnsgd1na2vs0mg"},{"bike_id":"4ed21267-d10e-4abb-9f40-c4869eb3fd1c","system_id":"levelo_inurba_marseille","lat":43.29861,"lon":5.36273,"is_reserved":false,"is_disabled":false,"rental_uris":{"android":"levelo://app?vid=4ed21267-d10e-4abb-9f40-c4869eb3fd1c","ios":"levelo://app?vid=4ed21267-d10e-4abb-9f40-c4869eb3fd1c"},"vehicle_type_id":"4","last_reported":1732018734,"current_range_meters":28800,"station_id":"ce4bgpp2rcd13ifvqc3g","pricing_plan_id":"cebpf4jnsgd1na2vs0mg"},{"bike_id":"0e2bbe61-8f31-47ba-b582-6a82d0b052e0","system_id":"levelo_inurba_marseille","lat":43.29027,"lon":5.38345,"is_reserved":false,"is_disabled":false,"rental_uris":{"android":"levelo://app?vid=0e2bbe61-8f31-47ba-b582-6a82d0b052e0","ios":"levelo://app?vid=0e2bbe61-8f31-47ba-b582-6a82d0b052e0"},"vehicle_type_id":"4","last_reported":1732018734,"current_range_meters":28800,"station_id":"ce4bgip2rcd13ifvqbb0","pricing_plan_id":"cebpf4jnsgd1na2vs0mg"},{"bike_id":"c3bc0f64-f384-48a7-9517-04f95522a7e3","system_id":"levelo_inurba_marseille","lat":43.318242,"lon":5.37611,"is_reserved":false,"is_disabled":true,"rental_uris":{"android":"levelo://app?vid=c3bc0f64-f384-48a7-9517-04f95522a7e3","ios":"levelo://app?vid=c3bc0f64-f384-48a7-9517-04f95522a7e3"},"vehicle_type_id":"4","last_reported":1732018734,"current_range_meters":15200,"station_id":"","pricing_plan_id":"cebpf4jnsgd1na2vs0mg"},{"bike_id":"05a9859b-fe77-4a03-bb1e-11c31879c753","system_id":"levelo_inurba_marseille","lat":43.29305,"lon":5.3746,"is_reserved":false,"is_disabled":false,"rental_uris":{"android":"levelo://app?vid=05a9859b-fe77-4a03-bb1e-11c31879c753","ios":"levelo://app?vid=05a9859b-fe77-4a03-bb1e-11c31879c753"},"vehicle_type_id":"4","last_reported":1732018734,"current_range_meters":18800,"station_id":"ce4bgi12rcd13ifvqb70","pricing_plan_id":"cebpf4jnsgd1na2vs0mg"},{"bike_id":"c3adda95-8823-44a7-ab6f-ce72306eabe1","system_id":"levelo_inurba_marseille","lat":43.27423,"lon":5.39413,"is_reserved":false,"is_disabled":true,"rental_uris":{"android":"levelo://app?vid=c3adda95-8823-44a7-ab6f-ce72306eabe1","ios":"levelo://app?vid=c3adda95-8823-44a7-ab6f-ce72306eabe1"},"vehicle_type_id":"4","last_reported":1732018734,"current_range_meters":36800,"station_id":"ce4bhdp2rcd13ifvqf20","pricing_plan_id":"cebpf4jnsgd1na2vs0mg"},{"bike_id":"0f7d3f82-6b41-4aca-b79e-c6aaeac6d97f","system_id":"levelo_inurba_marseille","lat":43.30541,"lon":5.36697,"is_reserved":false,"is_disabled":true,"rental_uris":{"android":"levelo://app?vid=0f7d3f82-6b41-4aca-b79e-c6aaeac6d97f","ios":"levelo://app?vid=0f7d3f82-6b41-4aca-b79e-c6aaeac6d97f"},"vehicle_type_id":"4","last_reported":1732018734,"current_range_meters":38800,"station_id":"ce4bgrp2rcd13ifvqc9g","pricing_plan_id":"cebpf4jnsgd1na2vs0mg"},{"bike_id":"76d06047-6022-43bd-b1fc-c4ae5ef0c8b9","system_id":"levelo_inurba_marseille","lat":43.30283,"lon":5.37707,"is_reserved":false,"is_disabled":false,"rental_uris":{"android":"levelo://app?vid=76d06047-6022-43bd-b1fc-c4ae5ef0c8b9","ios":"levelo://app?vid=76d06047-6022-43bd-b1fc-c4ae5ef0c8b9"},"vehicle_type_id":"4","last_reported":1732018734,"current_range_meters":36800,"station_id":"ce4bguh2rcd13ifvqcj0","pricing_plan_id":"cebpf4jnsgd1na2vs0mg"},{"bike_id":"13c9e098-da50-4ab9-9a2b-6a6c2907337a","system_id":"levelo_inurba_marseille","lat":43.27051,"lon":5.40259,"is_reserved":false,"is_disabled":false,"rental_uris":{"android":"levelo://app?vid=13c9e098-da50-4ab9-9a2b-6a6c2907337a","ios":"levelo://app?vid=13c9e098-da50-4ab9-9a2b-6a6c2907337a"},"vehicle_type_id":"4","last_reported":1732018734,"current_range_meters":38800,"station_id":"ce4bhk92rcd13ifvqgc0","pricing_plan_id":"cebpf4jnsgd1na2vs0mg"},{"bike_id":"729f081d-5184-4f31-801f-2b41f23e3a17","system_id":"levelo_inurba_marseille","lat":43.33114,"lon":5.38222,"is_reserved":false,"is_disabled":true,"rental_uris":{"android":"levelo://app?vid=729f081d-5184-4f31-801f-2b41f23e3a17","ios":"levelo://app?vid=729f081d-5184-4f31-801f-2b41f23e3a17"},"vehicle_type_id":"4","last_reported":1732018734,"current_range_meters":34800,"station_id":"","pricing_plan_id":"cebpf4jnsgd1na2vs0mg"},{"bike_id":"638f8d00-ceb3-4062-9f5f-ca647d7df496","system_id":"levelo_inurba_marseille","lat":43.27422,"lon":5.3941,"is_reserved":false,"is_disabled":true,"rental_uris":{"android":"levelo://app?vid=638f8d00-ceb3-4062-9f5f-ca647d7df496","ios":"levelo://app?vid=638f8d00-ceb3-4062-9f5f-ca647d7df496"},"vehicle_type_id":"4","last_reported":1732018734,"current_range_meters":28000,"station_id":"ce4bhdp2rcd13ifvqf20","pricing_plan_id":"cebpf4jnsgd1na2vs0mg"},{"bike_id":"25d784e2-bad5-4648-8abc-849445b4c4c8","system_id":"levelo_inurba_marseille","lat":43.24082,"lon":5.37734,"is_reserved":false,"is_disabled":false,"rental_uris":{"android":"levelo://app?vid=25d784e2-bad5-4648-8abc-849445b4c4c8","ios":"levelo://app?vid=25d784e2-bad5-4648-8abc-849445b4c4c8"},"vehicle_type_id":"4","last_reported":1732018734,"current_range_meters":38800,"station_id":"ce4bhnp2rcd13ifvqgvg","pricing_plan_id":"cebpf4jnsgd1na2vs0mg"},{"bike_id":"b321c3f8-cfeb-49c2-9411-946d91e0b750","system_id":"levelo_inurba_marseille","lat":43.2956,"lon":5.42281,"is_reserved":false,"is_disabled":false,"rental_uris":{"android":"levelo://app?vid=b321c3f8-cfeb-49c2-9411-946d91e0b750","ios":"levelo://app?vid=b321c3f8-cfeb-49c2-9411-946d91e0b750"},"vehicle_type_id":"4","last_reported":1732018734,"current_range_meters":17600,"station_id":"ce4bhph2rcd13ifvqhdg","pricing_plan_id":"cebpf4jnsgd1na2vs0mg"},{"bike_id":"fe329a77-e269-4bcf-a39a-93ffd701de4f","system_id":"levelo_inurba_marseille","lat":43.31227,"lon":5.36849,"is_reserved":false,"is_disabled":false,"rental_uris":{"android":"levelo://app?vid=fe329a77-e269-4bcf-a39a-93ffd701de4f","ios":"levelo://app?vid=fe329a77-e269-4bcf-a39a-93ffd701de4f"},"vehicle_type_id":"4","last_reported":1732018734,"current_range_meters":16800,"station_id":"ce4bgl92rcd13ifvqbq0","pricing_plan_id":"cebpf4jnsgd1na2vs0mg"},{"bike_id":"92567013-6827-49db-bcf9-53e0d23fef53","system_id":"levelo_inurba_marseille","lat":43.30437,"lon":5.38886,"is_reserved":false,"is_disabled":false,"rental_uris":{"android":"levelo://app?vid=92567013-6827-49db-bcf9-53e0d23fef53","ios":"levelo://app?vid=92567013-6827-49db-bcf9-53e0d23fef53"},"vehicle_type_id":"4","last_reported":1732018734,"current_range_meters":32400,"station_id":"ce4bgk12rcd13ifvqbi0","pricing_plan_id":"cebpf4jnsgd1na2vs0mg"},{"bike_id":"3d25d818-80cf-415a-996a-afc2d01ce97b","system_id":"levelo_inurba_marseille","lat":43.27782,"lon":5.40738,"is_reserved":false,"is_disabled":false,"rental_uris":{"android":"levelo://app?vid=3d25d818-80cf-415a-996a-afc2d01ce97b","ios":"levelo://app?vid=3d25d818-80cf-415a-996a-afc2d01ce97b"},"vehicle_type_id":"4","last_reported":1732018734,"current_range_meters":16400,"station_id":"ce4bhnh2rcd13ifvqgtg","pricing_plan_id":"cebpf4jnsgd1na2vs0mg"},{"bike_id":"dedebdd2-49f9-4684-8717-873da2e93054","system_id":"levelo_inurba_marseille","lat":43.23152,"lon":5.43718,"is_reserved":false,"is_disabled":false,"rental_uris":{"android":"levelo://app?vid=dedebdd2-49f9-4684-8717-873da2e93054","ios":"levelo://app?vid=dedebdd2-49f9-4684-8717-873da2e93054"},"vehicle_type_id":"4","last_reported":1732018734,"current_range_meters":8000,"station_id":"ce4bhmp2rcd13ifvqgog","pricing_plan_id":"cebpf4jnsgd1na2vs0mg"},{"bike_id":"64ed23a0-3533-4dca-8fb9-650aaf2586c1","system_id":"levelo_inurba_marseille","lat":43.31721,"lon":5.42406,"is_reserved":false,"is_disabled":false,"rental_uris":{"android":"levelo://app?vid=64ed23a0-3533-4dca-8fb9-650aaf2586c1","ios":"levelo://app?vid=64ed23a0-3533-4dca-8fb9-650aaf2586c1"},"vehicle_type_id":"4","last_reported":1732018734,"current_range_meters":38800,"station_id":"ce4bhp92rcd13ifvqhbg","pricing_plan_id":"cebpf4jnsgd1na2vs0mg"},{"bike_id":"af2da3a5-6965-4165-bd28-0df0136df526","system_id":"levelo_inurba_marseille","lat":43.26198,"lon":5.37926,"is_reserved":false,"is_disabled":false,"rental_uris":{"android":"levelo://app?vid=af2da3a5-6965-4165-bd28-0df0136df526","ios":"levelo://app?vid=af2da3a5-6965-4165-bd28-0df0136df526"},"vehicle_type_id":"4","last_reported":1732018734,"current_range_meters":13600,"station_id":"ce4bhjp2rcd13ifvqg90","pricing_plan_id":"cebpf4jnsgd1na2vs0mg"},{"bike_id":"5fbaf450-90c7-416c-a9b6-8e3b3003c75c","system_id":"levelo_inurba_marseille","lat":43.3247,"lon":5.36564,"is_reserved":false,"is_disabled":false,"rental_uris":{"android":"levelo://app?vid=5fbaf450-90c7-416c-a9b6-8e3b3003c75c","ios":"levelo://app?vid=5fbaf450-90c7-416c-a9b6-8e3b3003c75c"},"vehicle_type_id":"4","last_reported":1732018734,"current_range_meters":39200,"station_id":"ce4bhs12rcd13ifvqhvg","pricing_plan_id":"cebpf4jnsgd1na2vs0mg"},{"bike_id":"a4f4c9cd-96f3-4d02-98f5-c5d411e15354","system_id":"levelo_inurba_marseille","lat":43.30798,"lon":5.43525,"is_reserved":false,"is_disabled":false,"rental_uris":{"android":"levelo://app?vid=a4f4c9cd-96f3-4d02-98f5-c5d411e15354","ios":"levelo://app?vid=a4f4c9cd-96f3-4d02-98f5-c5d411e15354"},"vehicle_type_id":"4","last_reported":1732018734,"current_range_meters":38000,"station_id":"ce4bhph2rcd13ifvqheg","pricing_plan_id":"cebpf4jnsgd1na2vs0mg"},{"bike_id":"f19e9df6-c06e-4548-868a-6bd0ddd54d5f","system_id":"levelo_inurba_marseille","lat":43.30136,"lon":5.38779,"is_reserved":false,"is_disabled":false,"rental_uris":{"android":"levelo://app?vid=f19e9df6-c06e-4548-868a-6bd0ddd54d5f","ios":"levelo://app?vid=f19e9df6-c06e-4548-868a-6bd0ddd54d5f"},"vehicle_type_id":"4","last_reported":1732018734,"current_range_meters":20800,"station_id":"ce4bghh2rcd13ifvqb60","pricing_plan_id":"cebpf4jnsgd1na2vs0mg"},{"bike_id":"d3a3457e-e52a-42bc-a7f4-24a9c730d5ae","system_id":"levelo_inurba_marseille","lat":43.29578,"lon":5.37506,"is_reserved":false,"is_disabled":false,"rental_uris":{"android":"levelo://app?vid=d3a3457e-e52a-42bc-a7f4-24a9c730d5ae","ios":"levelo://app?vid=d3a3457e-e52a-42bc-a7f4-24a9c730d5ae"},"vehicle_type_id":"4","last_reported":1732018734,"current_range_meters":9600,"station_id":"ce4bgh92rcd13ifvqb50","pricing_plan_id":"cebpf4jnsgd1na2vs0mg"},{"bike_id":"682c9a16-8076-4b78-8358-d5acd0507527","system_id":"levelo_inurba_marseille","lat":43.29437,"lon":5.39764,"is_reserved":false,"is_disabled":false,"rental_uris":{"android":"levelo://app?vid=682c9a16-8076-4b78-8358-d5acd0507527","ios":"levelo://app?vid=682c9a16-8076-4b78-8358-d5acd0507527"},"vehicle_type_id":"4","last_reported":1732018734,"current_range_meters":9600,"station_id":"ce4bh3h2rcd13ifvqdo0","pricing_plan_id":"cebpf4jnsgd1na2vs0mg"},{"bike_id":"4df36341-8ff6-4bdc-a7b7-2ed3f961e0f1","system_id":"levelo_inurba_marseille","lat":43.29722,"lon":5.37689,"is_reserved":false,"is_disabled":false,"rental_uris":{"android":"levelo://app?vid=4df36341-8ff6-4bdc-a7b7-2ed3f961e0f1","ios":"levelo://app?vid=4df36341-8ff6-4bdc-a7b7-2ed3f961e0f1"},"vehicle_type_id":"4","last_reported":1732018734,"current_range_meters":39200,"station_id":"ce4bgkh2rcd13ifvqbl0","pricing_plan_id":"cebpf4jnsgd1na2vs0mg"},{"bike_id":"6fad3aed-55cd-4c54-b4c1-f7ce9c631195","system_id":"levelo_inurba_marseille","lat":43.29787,"lon":5.381147,"is_reserved":false,"is_disabled":true,"rental_uris":{"android":"levelo://app?vid=6fad3aed-55cd-4c54-b4c1-f7ce9c631195","ios":"levelo://app?vid=6fad3aed-55cd-4c54-b4c1-f7ce9c631195"},"vehicle_type_id":"4","last_reported":1732018734,"current_range_meters":32800,"station_id":"ce4bgip2rcd13ifvqbb0","pricing_plan_id":"cebpf4jnsgd1na2vs0mg"},{"bike_id":"39f331e2-b8f7-4352-bff3-214d7fcd5695","system_id":"levelo_inurba_marseille","lat":43.23146,"lon":5.43714,"is_reserved":false,"is_disabled":false,"rental_uris":{"android":"levelo://app?vid=39f331e2-b8f7-4352-bff3-214d7fcd5695","ios":"levelo://app?vid=39f331e2-b8f7-4352-bff3-214d7fcd5695"},"vehicle_type_id":"4","last_reported":1732018734,"current_range_meters":38400,"station_id":"ce4bhmp2rcd13ifvqgog","pricing_plan_id":"cebpf4jnsgd1na2vs0mg"},{"bike_id":"7fce9257-869b-4fd6-865e-fe3258001936","system_id":"levelo_inurba_marseille","lat":43.2318,"lon":5.39999,"is_reserved":false,"is_disabled":false,"rental_uris":{"android":"levelo://app?vid=7fce9257-869b-4fd6-865e-fe3258001936","ios":"levelo://app?vid=7fce9257-869b-4fd6-865e-fe3258001936"},"vehicle_type_id":"4","last_reported":1732018734,"current_range_meters":16400,"station_id":"ce4bhn12rcd13ifvqgqg","pricing_plan_id":"cebpf4jnsgd1na2vs0mg"},{"bike_id":"1c45f683-b2b5-4f94-81d2-e9e152ff7c69","system_id":"levelo_inurba_marseille","lat":43.3046,"lon":5.37916,"is_reserved":false,"is_disabled":false,"rental_uris":{"android":"levelo://app?vid=1c45f683-b2b5-4f94-81d2-e9e152ff7c69","ios":"levelo://app?vid=1c45f683-b2b5-4f94-81d2-e9e152ff7c69"},"vehicle_type_id":"4","last_reported":1732018734,"current_range_meters":29600,"station_id":"ce4bgup2rcd13ifvqcn0","pricing_plan_id":"cebpf4jnsgd1na2vs0mg"},{"bike_id":"9044f75c-15b5-4f34-bbd2-226c9f41adac","system_id":"levelo_inurba_marseille","lat":43.27609,"lon":5.36116,"is_reserved":false,"is_disabled":true,"rental_uris":{"android":"levelo://app?vid=9044f75c-15b5-4f34-bbd2-226c9f41adac","ios":"levelo://app?vid=9044f75c-15b5-4f34-bbd2-226c9f41adac"},"vehicle_type_id":"4","last_reported":1732018734,"current_range_meters":33600,"station_id":"ce4bgj92rcd13ifvqbe0","pricing_plan_id":"cebpf4jnsgd1na2vs0mg"},{"bike_id":"38475d93-c599-4b95-bccd-ed43c7f3bb5e","system_id":"levelo_inurba_marseille","lat":43.29975,"lon":5.38487,"is_reserved":false,"is_disabled":true,"rental_uris":{"android":"levelo://app?vid=38475d93-c599-4b95-bccd-ed43c7f3bb5e","ios":"levelo://app?vid=38475d93-c599-4b95-bccd-ed43c7f3bb5e"},"vehicle_type_id":"4","last_reported":1732018734,"current_range_meters":400,"station_id":"ce4bgj92rcd13ifvqbd0","pricing_plan_id":"cebpf4jnsgd1na2vs0mg"},{"bike_id":"e03a06b6-df6d-487f-8834-4cdb03f56f47","system_id":"levelo_inurba_marseille","lat":43.28128,"lon":5.4408,"is_reserved":false,"is_disabled":true,"rental_uris":{"android":"levelo://app?vid=e03a06b6-df6d-487f-8834-4cdb03f56f47","ios":"levelo://app?vid=e03a06b6-df6d-487f-8834-4cdb03f56f47"},"vehicle_type_id":"4","last_reported":1732018734,"current_range_meters":0,"station_id":"","pricing_plan_id":"cebpf4jnsgd1na2vs0mg"},{"bike_id":"f5557847-0cf1-4ada-bcd6-c7726194655d","system_id":"levelo_inurba_marseille","lat":43.33777,"lon":5.37447,"is_reserved":false,"is_disabled":false,"rental_uris":{"android":"levelo://app?vid=f5557847-0cf1-4ada-bcd6-c7726194655d","ios":"levelo://app?vid=f5557847-0cf1-4ada-bcd6-c7726194655d"},"vehicle_type_id":"4","last_reported":1732018734,"current_range_meters":38000,"station_id":"","pricing_plan_id":"cebpf4jnsgd1na2vs0mg"},{"bike_id":"68261e42-7700-4884-8254-47d633b32523","system_id":"levelo_inurba_marseille","lat":43.29571,"lon":5.37509,"is_reserved":false,"is_disabled":false,"rental_uris":{"android":"levelo://app?vid=68261e42-7700-4884-8254-47d633b32523","ios":"levelo://app?vid=68261e42-7700-4884-8254-47d633b32523"},"vehicle_type_id":"4","last_reported":1732018734,"current_range_meters":38800,"station_id":"ce4bgh92rcd13ifvqb50","pricing_plan_id":"cebpf4jnsgd1na2vs0mg"},{"bike_id":"79511df2-b072-4a83-b5fb-62b31b8c5f1e","system_id":"levelo_inurba_marseille","lat":43.30543,"lon":5.36704,"is_reserved":false,"is_disabled":true,"rental_uris":{"android":"levelo://app?vid=79511df2-b072-4a83-b5fb-62b31b8c5f1e","ios":"levelo://app?vid=79511df2-b072-4a83-b5fb-62b31b8c5f1e"},"vehicle_type_id":"4","last_reported":1732018734,"current_range_meters":18800,"station_id":"ce4bgrp2rcd13ifvqc9g","pricing_plan_id":"cebpf4jnsgd1na2vs0mg"},{"bike_id":"87a1679d-aa59-41b4-bd56-bc5165abd16a","system_id":"levelo_inurba_marseille","lat":43.27901,"lon":5.38006,"is_reserved":false,"is_disabled":true,"rental_uris":{"android":"levelo://app?vid=87a1679d-aa59-41b4-bd56-bc5165abd16a","ios":"levelo://app?vid=87a1679d-aa59-41b4-bd56-bc5165abd16a"},"vehicle_type_id":"4","last_reported":1732018734,"current_range_meters":0,"station_id":"","pricing_plan_id":"cebpf4jnsgd1na2vs0mg"},{"bike_id":"a61bdd17-7093-4733-bfce-e8a2e4b93da1","system_id":"levelo_inurba_marseille","lat":43.28705,"lon":5.39985,"is_reserved":false,"is_disabled":false,"rental_uris":{"android":"levelo://app?vid=a61bdd17-7093-4733-bfce-e8a2e4b93da1","ios":"levelo://app?vid=a61bdd17-7093-4733-bfce-e8a2e4b93da1"},"vehicle_type_id":"4","last_reported":1732018734,"current_range_meters":16000,"station_id":"ce4bho92rcd13ifvqh3g","pricing_plan_id":"cebpf4jnsgd1na2vs0mg"},{"bike_id":"ecc3c465-28b0-49de-91d2-50e112fc33c9","system_id":"levelo_inurba_marseille","lat":43.29979,"lon":5.38495,"is_reserved":false,"is_disabled":false,"rental_uris":{"android":"levelo://app?vid=ecc3c465-28b0-49de-91d2-50e112fc33c9","ios":"levelo://app?vid=ecc3c465-28b0-49de-91d2-50e112fc33c9"},"vehicle_type_id":"4","last_reported":1732018734,"current_range_meters":11200,"station_id":"ce4bgj92rcd13ifvqbd0","pricing_plan_id":"cebpf4jnsgd1na2vs0mg"},{"bike_id":"cd309f7d-f08e-429d-87d4-833d6a527c9a","system_id":"levelo_inurba_marseille","lat":43.28439,"lon":5.39194,"is_reserved":false,"is_disabled":false,"rental_uris":{"android":"levelo://app?vid=cd309f7d-f08e-429d-87d4-833d6a527c9a","ios":"levelo://app?vid=cd309f7d-f08e-429d-87d4-833d6a527c9a"},