{"last_updated":1721668016,"ttl":30,"version":"2.2","data":{"bikes":[{"bike_id":"a2610bec-28cf-4e46-bfa7-b619ea248969","system_id":"levelo_inurba_marseille","lat":43.31257,"lon":5.36767,"is_reserved":false,"is_disabled":false,"rental_uris":{"android":"levelo://app?vid=a2610bec-28cf-4e46-bfa7-b619ea248969","ios":"levelo://app?vid=a2610bec-28cf-4e46-bfa7-b619ea248969"},"vehicle_type_id":"4","last_reported":1721668016,"current_range_meters":12000,"station_id":"","pricing_plan_id":"cebpf4jnsgd1na2vs0mg"},{"bike_id":"87a3b2fb-c199-47ed-8ade-1f40cbb81d09","system_id":"levelo_inurba_marseille","lat":43.309034,"lon":5.371783,"is_reserved":false,"is_disabled":false,"rental_uris":{"android":"levelo://app?vid=87a3b2fb-c199-47ed-8ade-1f40cbb81d09","ios":"levelo://app?vid=87a3b2fb-c199-47ed-8ade-1f40cbb81d09"},"vehicle_type_id":"4","last_reported":1721668016,"current_range_meters":0,"station_id":"ce4bguh2rcd13ifvqckg","pricing_plan_id":"cebpf4jnsgd1na2vs0mg"},{"bike_id":"c821b70e-8195-42a9-bba8-c436981bbd48","system_id":"levelo_inurba_marseille","lat":43.309039,"lon":5.371797,"is_reserved":false,"is_disabled":false,"rental_uris":{"android":"levelo://app?vid=c821b70e-8195-42a9-bba8-c436981bbd48","ios":"levelo://app?vid=c821b70e-8195-42a9-bba8-c436981bbd48"},"vehicle_type_id":"4","last_reported":1721668016,"current_range_meters":4000,"station_id":"ce4bguh2rcd13ifvqckg","pricing_plan_id":"cebpf4jnsgd1na2vs0mg"},{"bike_id":"7e689b80-1f6e-47e4-b319-c691051f9693","system_id":"levelo_inurba_marseille","lat":43.309034,"lon":5.371783,"is_reserved":false,"is_disabled":false,"rental_uris":{"android":"levelo://app?vid=7e689b80-1f6e-47e4-b319-c691051f9693","ios":"levelo://app?vid=7e689b80-1f6e-47e4-b319-c691051f9693"},"vehicle_type_id":"4","last_reported":1721668016,"current_range_meters":800,"station_id":"ce4bguh2rcd13ifvqckg","pricing_plan_id":"cebpf4jnsgd1na2vs0mg"},{"bike_id":"c7792e56-5ce7-45ea-9026-ae192e17c15f","system_id":"levelo_inurba_marseille","lat":43.305712,"lon":5.365641,"is_reserved":false,"is_disabled":false,"rental_uris":{"android":"levelo://app?vid=c7792e56-5ce7-45ea-9026-ae192e17c15f","ios":"levelo://app?vid=c7792e56-5ce7-45ea-9026-ae192e17c15f"},"vehicle_type_id":"4","last_reported":1721668016,"current_range_meters":0,"station_id":"ce4bgs12rcd13ifvqcag","pricing_plan_id":"cebpf4jnsgd1na2vs0mg"},{"bike_id":"0475fc04-30a6-4927-99f5-1b025aeece76","system_id":"levelo_inurba_marseille","lat":43.315644,"lon":5.376464,"is_reserved":false,"is_disabled":false,"rental_uris":{"android":"levelo://app?vid=0475fc04-30a6-4927-99f5-1b025aeece76","ios":"levelo://app?vid=0475fc04-30a6-4927-99f5-1b025aeece76"},"vehicle_type_id":"4","last_reported":1721668016,"current_range_meters":3600,"station_id":"","pricing_plan_id":"cebpf4jnsgd1na2vs0mg"},{"bike_id":"eb578325-8046-44ad-92e3-21539458257c","system_id":"levelo_inurba_marseille","lat":43.305989,"lon":5.37225,"is_reserved":false,"is_disabled":false,"rental_uris":{"android":"levelo://app?vid=eb578325-8046-44ad-92e3-21539458257c","ios":"levelo://app?vid=eb578325-8046-44ad-92e3-21539458257c"},"vehicle_type_id":"4","last_reported":1721668016,"current_range_meters":10000,"station_id":"ce4bgqh2rcd13ifvqc4g","pricing_plan_id":"cebpf4jnsgd1na2vs0mg"},{"bike_id":"2bcb7519-1d95-4dbb-bf23-1968a46def89","system_id":"levelo_inurba_marseille","lat":43.307945,"lon":5.376487,"is_reserved":false,"is_disabled":false,"rental_uris":{"android":"levelo://app?vid=2bcb7519-1d95-4dbb-bf23-1968a46def89","ios":"levelo://app?vid=2bcb7519-1d95-4dbb-bf23-1968a46def89"},"vehicle_type_id":"4","last_reported":1721668016,"current_range_meters":22400,"station_id":"ce4bgv92rcd13ifvqcq0","pricing_plan_id":"cebpf4jnsgd1na2vs0mg"},{"bike_id":"935debec-bc12-4685-a241-6ade3b71bec0","system_id":"levelo_inurba_marseille","lat":43.31142,"lon":5.37994,"is_reserved":false,"is_disabled":false,"rental_uris":{"android":"levelo://app?vid=935debec-bc12-4685-a241-6ade3b71bec0","ios":"levelo://app?vid=935debec-bc12-4685-a241-6ade3b71bec0"},"vehicle_type_id":"4","last_reported":1721668016,"current_range_meters":4400,"station_id":"","pricing_plan_id":"cebpf4jnsgd1na2vs0mg"},{"bike_id":"afbc9676-b536-4d4a-acbe-48a1641ecc8d","system_id":"levelo_inurba_marseille","lat":43.31531,"lon":5.38048,"is_reserved":false,"is_disabled":false,"rental_uris":{"android":"levelo://app?vid=afbc9676-b536-4d4a-acbe-48a1641ecc8d","ios":"levelo://app?vid=afbc9676-b536-4d4a-acbe-48a1641ecc8d"},"vehicle_type_id":"4","last_reported":1721668016,"current_range_meters":0,"station_id":"ce4bhsp2rcd13ifvqi50","pricing_plan_id":"cebpf4jnsgd1na2vs0mg"},{"bike_id":"490267c8-0bef-46bb-8ef2-fdc9c88afdf5","system_id":"levelo_inurba_marseille","lat":43.305989,"lon":5.37225,"is_reserved":false,"is_disabled":false,"rental_uris":{"android":"levelo://app?vid=490267c8-0bef-46bb-8ef2-fdc9c88afdf5","ios":"levelo://app?vid=490267c8-0bef-46bb-8ef2-fdc9c88afdf5"},"vehicle_type_id":"4","last_reported":1721668016,"current_range_meters":0,"station_id":"ce4bgqh2rcd13ifvqc4g","pricing_plan_id":"cebpf4jnsgd1na2vs0mg"},{"bike_id":"bbed3569-a998-49db-96a4-643b87ddb727","system_id":"levelo_inurba_marseille","lat":43.308012,"lon":5.381511,"is_reserved":false,"is_disabled":false,"rental_uris":{"android":"levelo://app?vid=bbed3569-a998-49db-96a4-643b87ddb727","ios":"levelo://app?vid=bbed3569-a998-49db-96a4-643b87ddb727"},"vehicle_type_id":"4","last_reported":1721668016,"current_range_meters":4000,"station_id":"ce4bgt12rcd13ifvqce0","pricing_plan_id":"cebpf4jnsgd1na2vs0mg"},{"bike_id":"5037364c-e148-4b3b-a3cf-fcd98d054922","system_id":"levelo_inurba_marseille","lat":43.30464,"lon":5.37898,"is_reserved":false,"is_disabled":false,"rental_uris":{"android":"levelo://app?vid=5037364c-e148-4b3b-a3cf-fcd98d054922","ios":"levelo://app?vid=5037364c-e148-4b3b-a3cf-fcd98d054922"},"vehicle_type_id":"4","last_reported":1721668016,"current_range_meters":0,"station_id":"ce4bgup2rcd13ifvqcn0","pricing_plan_id":"cebpf4jnsgd1na2vs0mg"},{"bike_id":"96efd8f8-8d17-4b9a-814d-b9e49246bee2","system_id":"levelo_inurba_marseille","lat":43.30464,"lon":5.37899,"is_reserved":false,"is_disabled":false,"rental_uris":{"android":"levelo://app?vid=96efd8f8-8d17-4b9a-814d-b9e49246bee2","ios":"levelo://app?vid=96efd8f8-8d17-4b9a-814d-b9e49246bee2"},"vehicle_type_id":"4","last_reported":1721668016,"current_range_meters":0,"station_id":"ce4bgup2rcd13ifvqcn0","pricing_plan_id":"cebpf4jnsgd1na2vs0mg"},{"bike_id":"3304846a-ed65-4888-a1d5-37ae59e6f246","system_id":"levelo_inurba_marseille","lat":43.304606,"lon":5.379026,"is_reserved":false,"is_disabled":false,"rental_uris":{"android":"levelo://app?vid=3304846a-ed65-4888-a1d5-37ae59e6f246","ios":"levelo://app?vid=3304846a-ed65-4888-a1d5-37ae59e6f246"},"vehicle_type_id":"4","last_reported":1721668016,"current_range_meters":2000,"station_id":"ce4bgup2rcd13ifvqcn0","pricing_plan_id":"cebpf4jnsgd1na2vs0mg"},{"bike_id":"9bcf46e1-0dbe-4453-a8c8-e54b7cbbce6a","system_id":"levelo_inurba_marseille","lat":43.304606,"lon":5.379026,"is_reserved":false,"is_disabled":false,"rental_uris":{"android":"levelo://app?vid=9bcf46e1-0dbe-4453-a8c8-e54b7cbbce6a","ios":"levelo://app?vid=9bcf46e1-0dbe-4453-a8c8-e54b7cbbce6a"},"vehicle_type_id":"4","last_reported":1721668016,"current_range_meters":9600,"station_id":"ce4bgup2rcd13ifvqcn0","pricing_plan_id":"cebpf4jnsgd1na2vs0mg"},{"bike_id":"260dde72-8be3-4933-8b9b-0ded51a013af","system_id":"levelo_inurba_marseille","lat":43.324771,"lon":5.36557,"is_reserved":false,"is_disabled":false,"rental_uris":{"android":"levelo://app?vid=260dde72-8be3-4933-8b9b-0ded51a013af","ios":"levelo://app?vid=260dde72-8be3-4933-8b9b-0ded51a013af"},"vehicle_type_id":"4","last_reported":1721668016,"current_range_meters":16000,"station_id":"ce4bhs12rcd13ifvqhvg","pricing_plan_id":"cebpf4jnsgd1na2vs0mg"},{"bike_id":"383a67b4-d852-49d8-8d6a-ee1ecb44a164","system_id":"levelo_inurba_marseille","lat":43.324771,"lon":5.36557,"is_reserved":false,"is_disabled":false,"rental_uris":{"android":"levelo://app?vid=383a67b4-d852-49d8-8d6a-ee1ecb44a164","ios":"levelo://app?vid=383a67b4-d852-49d8-8d6a-ee1ecb44a164"},"vehicle_type_id":"4","last_reported":1721668016,"current_range_meters":31600,"station_id":"ce4bhs12rcd13ifvqhvg","pricing_plan_id":"cebpf4jnsgd1na2vs0mg"},{"bike_id":"1f4533b3-e703-403a-b03b-cd00a38d2954","system_id":"levelo_inurba_marseille","lat":43.324848,"lon":5.365766,"is_reserved":false,"is_disabled":false,"rental_uris":{"android":"levelo://app?vid=1f4533b3-e703-403a-b03b-cd00a38d2954","ios":"levelo://app?vid=1f4533b3-e703-403a-b03b-cd00a38d2954"},"vehicle_type_id":"4","last_reported":1721668016,"current_range_meters":30800,"station_id":"ce4bhs12rcd13ifvqhvg","pricing_plan_id":"cebpf4jnsgd1na2vs0mg"},{"bike_id":"501d5411-c949-4316-b217-9931176b4ca7","system_id":"levelo_inurba_marseille","lat":43.324771,"lon":5.36557,"is_reserved":false,"is_disabled":false,"rental_uris":{"android":"levelo://app?vid=501d5411-c949-4316-b217-9931176b4ca7","ios":"levelo://app?vid=501d5411-c949-4316-b217-9931176b4ca7"},"vehicle_type_id":"4","last_reported":1721668016,"current_range_meters":31200,"station_id":"ce4bhs12rcd13ifvqhvg","pricing_plan_id":"cebpf4jnsgd1na2vs0mg"},{"bike_id":"94c52dad-9498-4bd7-b993-5c95fa811d3c","system_id":"levelo_inurba_marseille","lat":43.301429,"lon":5.37413,"is_reserved":false,"is_disabled":false,"rental_uris":{"android":"levelo://app?vid=94c52dad-9498-4bd7-b993-5c95fa811d3c","ios":"levelo://app?vid=94c52dad-9498-4bd7-b993-5c95fa811d3c"},"vehicle_type_id":"4","last_reported":1721668016,"current_range_meters":24800,"station_id":"ce4bgs92rcd13ifvqcc0","pricing_plan_id":"cebpf4jnsgd1na2vs0mg"},{"bike_id":"b22c3d17-4d38-4800-bf69-927bb72ae759","system_id":"levelo_inurba_marseille","lat":43.30606,"lon":5.38209,"is_reserved":false,"is_disabled":false,"rental_uris":{"android":"levelo://app?vid=b22c3d17-4d38-4800-bf69-927bb72ae759","ios":"levelo://app?vid=b22c3d17-4d38-4800-bf69-927bb72ae759"},"vehicle_type_id":"4","last_reported":1721668016,"current_range_meters":26400,"station_id":"","pricing_plan_id":"cebpf4jnsgd1na2vs0mg"},{"bike_id":"ebe9a6b9-bcc2-496a-991e-9bebcfbc40e7","system_id":"levelo_inurba_marseille","lat":43.29847,"lon":5.36274,"is_reserved":false,"is_disabled":false,"rental_uris":{"android":"levelo://app?vid=ebe9a6b9-bcc2-496a-991e-9bebcfbc40e7","ios":"levelo://app?vid=ebe9a6b9-bcc2-496a-991e-9bebcfbc40e7"},"vehicle_type_id":"4","last_reported":1721668016,"current_range_meters":31200,"station_id":"ce4bgpp2rcd13ifvqc3g","pricing_plan_id":"cebpf4jnsgd1na2vs0mg"},{"bike_id":"3de558ef-b815-445d-abb9-731addbd01d2","system_id":"levelo_inurba_marseille","lat":43.311722,"lon":5.387247,"is_reserved":false,"is_disabled":false,"rental_uris":{"android":"levelo://app?vid=3de558ef-b815-445d-abb9-731addbd01d2","ios":"levelo://app?vid=3de558ef-b815-445d-abb9-731addbd01d2"},"vehicle_type_id":"4","last_reported":1721668016,"current_range_meters":0,"station_id":"ce4bgv12rcd13ifvqcp0","pricing_plan_id":"cebpf4jnsgd1na2vs0mg"},{"bike_id":"ec49a5fc-5d2e-4052-b228-13783d53729c","system_id":"levelo_inurba_marseille","lat":43.299243,"lon":5.374807,"is_reserved":false,"is_disabled":false,"rental_uris":{"android":"levelo://app?vid=ec49a5fc-5d2e-4052-b228-13783d53729c","ios":"levelo://app?vid=ec49a5fc-5d2e-4052-b228-13783d53729c"},"vehicle_type_id":"4","last_reported":1721668016,"current_range_meters":0,"station_id":"ce4bgjh2rcd13ifvqbg0","pricing_plan_id":"cebpf4jnsgd1na2vs0mg"},{"bike_id":"cd6a3336-9aa0-4d1e-88d3-48a0e878ea53","system_id":"levelo_inurba_marseille","lat":43.31178,"lon":5.38715,"is_reserved":false,"is_disabled":false,"rental_uris":{"android":"levelo://app?vid=cd6a3336-9aa0-4d1e-88d3-48a0e878ea53","ios":"levelo://app?vid=cd6a3336-9aa0-4d1e-88d3-48a0e878ea53"},"vehicle_type_id":"4","last_reported":1721668016,"current_range_meters":0,"station_id":"ce4bgv12rcd13ifvqcp0","pricing_plan_id":"cebpf4jnsgd1na2vs0mg"},{"bike_id":"bbdaa0aa-b6db-4b37-a67d-fe25692cd291","system_id":"levelo_inurba_marseille","lat":43.311722,"lon":5.387247,"is_reserved":false,"is_disabled":false,"rental_uris":{"android":"levelo://app?vid=bbdaa0aa-b6db-4b37-a67d-fe25692cd291","ios":"levelo://app?vid=bbdaa0aa-b6db-4b37-a67d-fe25692cd291"},"vehicle_type_id":"4","last_reported":1721668016,"current_range_meters":2800,"station_id":"ce4bgv12rcd13ifvqcp0","pricing_plan_id":"cebpf4jnsgd1na2vs0mg"},{"bike_id":"414d4ef6-062b-45db-ae5e-e9bcdb4ded6a","system_id":"levelo_inurba_marseille","lat":43.297774,"lon":5.370875,"is_reserved":false,"is_disabled":false,"rental_uris":{"android":"levelo://app?vid=414d4ef6-062b-45db-ae5e-e9bcdb4ded6a","ios":"levelo://app?vid=414d4ef6-062b-45db-ae5e-e9bcdb4ded6a"},"vehicle_type_id":"4","last_reported":1721668016,"current_range_meters":26000,"station_id":"ce4bgop2rcd13ifvqc1g","pricing_plan_id":"cebpf4jnsgd1na2vs0mg"},{"bike_id":"6543e3bf-e5e3-4cef-a05f-46dd0974812e","system_id":"levelo_inurba_marseille","lat":43.322872,"lon":5.382756,"is_reserved":false,"is_disabled":false,"rental_uris":{"android":"levelo://app?vid=6543e3bf-e5e3-4cef-a05f-46dd0974812e","ios":"levelo://app?vid=6543e3bf-e5e3-4cef-a05f-46dd0974812e"},"vehicle_type_id":"4","last_reported":1721668016,"current_range_meters":6000,"station_id":"ce4bhr12rcd13ifvqhqg","pricing_plan_id":"cebpf4jnsgd1na2vs0mg"},{"bike_id":"c7af87f0-22e9-4574-8982-0a414124dd7f","system_id":"levelo_inurba_marseille","lat":43.32291,"lon":5.38269,"is_reserved":false,"is_disabled":false,"rental_uris":{"android":"levelo://app?vid=c7af87f0-22e9-4574-8982-0a414124dd7f","ios":"levelo://app?vid=c7af87f0-22e9-4574-8982-0a414124dd7f"},"vehicle_type_id":"4","last_reported":1721668016,"current_range_meters":27200,"station_id":"ce4bhr12rcd13ifvqhqg","pricing_plan_id":"cebpf4jnsgd1na2vs0mg"},{"bike_id":"98130cc7-b273-4dee-89a1-15b990d570f8","system_id":"levelo_inurba_marseille","lat":43.32301,"lon":5.38265,"is_reserved":false,"is_disabled":false,"rental_uris":{"android":"levelo://app?vid=98130cc7-b273-4dee-89a1-15b990d570f8","ios":"levelo://app?vid=98130cc7-b273-4dee-89a1-15b990d570f8"},"vehicle_type_id":"4","last_reported":1721668016,"current_range_meters":11600,"station_id":"ce4bhr12rcd13ifvqhqg","pricing_plan_id":"cebpf4jnsgd1na2vs0mg"},{"bike_id":"2912026c-cee5-48cd-a6fa-0ebcf92d64e3","system_id":"levelo_inurba_marseille","lat":43.29573,"lon":5.367355,"is_reserved":false,"is_disabled":false,"rental_uris":{"android":"levelo://app?vid=2912026c-cee5-48cd-a6fa-0ebcf92d64e3","ios":"levelo://app?vid=2912026c-cee5-48cd-a6fa-0ebcf92d64e3"},"vehicle_type_id":"4","last_reported":1721668016,"current_range_meters":5200,"station_id":"ce4bgph2rcd13ifvqc2g","pricing_plan_id":"cebpf4jnsgd1na2vs0mg"},{"bike_id":"5dcf7522-6582-441c-9cef-ecfaa2d7fa5a","system_id":"levelo_inurba_marseille","lat":43.299028,"lon":5.381509,"is_reserved":false,"is_disabled":false,"rental_uris":{"android":"levelo://app?vid=5dcf7522-6582-441c-9cef-ecfaa2d7fa5a","ios":"levelo://app?vid=5dcf7522-6582-441c-9cef-ecfaa2d7fa5a"},"vehicle_type_id":"4","last_reported":1721668016,"current_range_meters":1200,"station_id":"ce4bgj12rcd13ifvqbc0","pricing_plan_id":"cebpf4jnsgd1na2vs0mg"},{"bike_id":"24d6d8c8-30f7-49a8-a636-93363f598f70","system_id":"levelo_inurba_marseille","lat":43.296921,"lon":5.376579,"is_reserved":false,"is_disabled":false,"rental_uris":{"android":"levelo://app?vid=24d6d8c8-30f7-49a8-a636-93363f598f70","ios":"levelo://app?vid=24d6d8c8-30f7-49a8-a636-93363f598f70"},"vehicle_type_id":"4","last_reported":1721668016,"current_range_meters":5200,"station_id":"ce4bgkh2rcd13ifvqbl0","pricing_plan_id":"cebpf4jnsgd1na2vs0mg"},{"bike_id":"70152c9f-1b2b-43f2-b369-838124fee071","system_id":"levelo_inurba_marseille","lat":43.296921,"lon":5.376579,"is_reserved":false,"is_disabled":false,"rental_uris":{"android":"levelo://app?vid=70152c9f-1b2b-43f2-b369-838124fee071","ios":"levelo://app?vid=70152c9f-1b2b-43f2-b369-838124fee071"},"vehicle_type_id":"4","last_reported":1721668016,"current_range_meters":0,"station_id":"ce4bgkh2rcd13ifvqbl0","pricing_plan_id":"cebpf4jnsgd1na2vs0mg"},{"bike_id":"b82fb422-ad89-4442-b472-7736bc41c273","system_id":"levelo_inurba_marseille","lat":43.299028,"lon":5.381509,"is_reserved":false,"is_disabled":false,"rental_uris":{"android":"levelo://app?vid=b82fb422-ad89-4442-b472-7736bc41c273","ios":"levelo://app?vid=b82fb422-ad89-4442-b472-7736bc41c273"},"vehicle_type_id":"4","last_reported":1721668016,"current_range_meters":0,"station_id":"ce4bgj12rcd13ifvqbc0","pricing_plan_id":"cebpf4jnsgd1na2vs0mg"},{"bike_id":"6481e595-ab17-4534-a707-ae6dc36ae34d","system_id":"levelo_inurba_marseille","lat":43.317557,"lon":5.390173,"is_reserved":false,"is_disabled":false,"rental_uris":{"android":"levelo://app?vid=6481e595-ab17-4534-a707-ae6dc36ae34d","ios":"levelo://app?vid=6481e595-ab17-4534-a707-ae6dc36ae34d"},"vehicle_type_id":"4","last_reported":1721668016,"current_range_meters":19600,"station_id":"ce4bhqp2rcd13ifvqhng","pricing_plan_id":"cebpf4jnsgd1na2vs0mg"},{"bike_id":"ef492400-39f8-42b6-b9f6-22fca1c3b149","system_id":"levelo_inurba_marseille","lat":43.317557,"lon":5.390173,"is_reserved":false,"is_disabled":false,"rental_uris":{"android":"levelo://app?vid=ef492400-39f8-42b6-b9f6-22fca1c3b149","ios":"levelo://app?vid=ef492400-39f8-42b6-b9f6-22fca1c3b149"},"vehicle_type_id":"4","last_reported":1721668016,"current_range_meters":13200,"station_id":"ce4bhqp2rcd13ifvqhng","pricing_plan_id":"cebpf4jnsgd1na2vs0mg"},{"bike_id":"aa40f27a-3f26-4027-aef0-b95aa34c0f1a","system_id":"levelo_inurba_marseille","lat":43.304278,"lon":5.388868,"is_reserved":false,"is_disabled":false,"rental_uris":{"android":"levelo://app?vid=aa40f27a-3f26-4027-aef0-b95aa34c0f1a","ios":"levelo://app?vid=aa40f27a-3f26-4027-aef0-b95aa34c0f1a"},"vehicle_type_id":"4","last_reported":1721668016,"current_range_meters":2000,"station_id":"ce4bgk12rcd13ifvqbi0","pricing_plan_id":"cebpf4jnsgd1na2vs0mg"},{"bike_id":"9ad21a08-207c-4c01-90f2-cf7bd94fb672","system_id":"levelo_inurba_marseille","lat":43.304278,"lon":5.388868,"is_reserved":false,"is_disabled":false,"rental_uris":{"android":"levelo://app?vid=9ad21a08-207c-4c01-90f2-cf7bd94fb672","ios":"levelo://app?vid=9ad21a08-207c-4c01-90f2-cf7bd94fb672"},"vehicle_type_id":"4","last_reported":1721668016,"current_range_meters":5200,"station_id":"ce4bgk12rcd13ifvqbi0","pricing_plan_id":"cebpf4jnsgd1na2vs0mg"},{"bike_id":"65f49b42-b4c9-4039-bc05-b03fec399109","system_id":"levelo_inurba_marseille","lat":43.296263,"lon":5.377094,"is_reserved":false,"is_disabled":false,"rental_uris":{"android":"levelo://app?vid=65f49b42-b4c9-4039-bc05-b03fec399109","ios":"levelo://app?vid=65f49b42-b4c9-4039-bc05-b03fec399109"},"vehicle_type_id":"4","last_reported":1721668016,"current_range_meters":0,"station_id":"ce4bgi92rcd13ifvqb90","pricing_plan_id":"cebpf4jnsgd1na2vs0mg"},{"bike_id":"6800f8f7-21d9-4897-a62a-a5b85a153c61","system_id":"levelo_inurba_marseille","lat":43.295748,"lon":5.37522,"is_reserved":false,"is_disabled":false,"rental_uris":{"android":"levelo://app?vid=6800f8f7-21d9-4897-a62a-a5b85a153c61","ios":"levelo://app?vid=6800f8f7-21d9-4897-a62a-a5b85a153c61"},"vehicle_type_id":"4","last_reported":1721668016,"current_range_meters":9600,"station_id":"ce4bgh92rcd13ifvqb50","pricing_plan_id":"cebpf4jnsgd1na2vs0mg"},{"bike_id":"78653269-8da3-4daf-a7e0-0daaa204caae","system_id":"levelo_inurba_marseille","lat":43.296263,"lon":5.377094,"is_reserved":false,"is_disabled":false,"rental_uris":{"android":"levelo://app?vid=78653269-8da3-4daf-a7e0-0daaa204caae","ios":"levelo://app?vid=78653269-8da3-4daf-a7e0-0daaa204caae"},"vehicle_type_id":"4","last_reported":1721668016,"current_range_meters":0,"station_id":"ce4bgi92rcd13ifvqb90","pricing_plan_id":"cebpf4jnsgd1na2vs0mg"},{"bike_id":"37f33b36-9bae-4b77-a795-578718edcbd8","system_id":"levelo_inurba_marseille","lat":43.295279,"lon":5.375048,"is_reserved":false,"is_disabled":false,"rental_uris":{"android":"levelo://app?vid=37f33b36-9bae-4b77-a795-578718edcbd8","ios":"levelo://app?vid=37f33b36-9bae-4b77-a795-578718edcbd8"},"vehicle_type_id":"4","last_reported":1721668016,"current_range_meters":0,"station_id":"ce4bgkp2rcd13ifvqbmg","pricing_plan_id":"cebpf4jnsgd1na2vs0mg"},{"bike_id":"399925c7-7f2e-4080-b8ce-9369d19f53e6","system_id":"levelo_inurba_marseille","lat":43.296263,"lon":5.377094,"is_reserved":false,"is_disabled":false,"rental_uris":{"android":"levelo://app?vid=399925c7-7f2e-4080-b8ce-9369d19f53e6","ios":"levelo://app?vid=399925c7-7f2e-4080-b8ce-9369d19f53e6"},"vehicle_type_id":"4","last_reported":1721668016,"current_range_meters":18400,"station_id":"ce4bgi92rcd13ifvqb90","pricing_plan_id":"cebpf4jnsgd1na2vs0mg"},{"bike_id":"38d6755d-5bf3-450b-b32d-8d9870191b46","system_id":"levelo_inurba_marseille","lat":43.299724,"lon":5.384848,"is_reserved":false,"is_disabled":false,"rental_uris":{"android":"levelo://app?vid=38d6755d-5bf3-450b-b32d-8d9870191b46","ios":"levelo://app?vid=38d6755d-5bf3-450b-b32d-8d9870191b46"},"vehicle_type_id":"4","last_reported":1721668016,"current_range_meters":0,"station_id":"ce4bgj92rcd13ifvqbd0","pricing_plan_id":"cebpf4jnsgd1na2vs0mg"},{"bike_id":"10d85473-3b58-4f82-a8bf-32664fbe7811","system_id":"levelo_inurba_marseille","lat":43.32367,"lon":5.388836,"is_reserved":false,"is_disabled":false,"rental_uris":{"android":"levelo://app?vid=10d85473-3b58-4f82-a8bf-32664fbe7811","ios":"levelo://app?vid=10d85473-3b58-4f82-a8bf-32664fbe7811"},"vehicle_type_id":"4","last_reported":1721668016,"current_range_meters":5200,"station_id":"ce4bhqp2rcd13ifvqhog","pricing_plan_id":"cebpf4jnsgd1na2vs0mg"},{"bike_id":"0d8d9d26-69b3-4c04-b064-050ddff29fcc","system_id":"levelo_inurba_marseille","lat":43.325048,"lon":5.387808,"is_reserved":false,"is_disabled":false,"rental_uris":{"android":"levelo://app?vid=0d8d9d26-69b3-4c04-b064-050ddff29fcc","ios":"levelo://app?vid=0d8d9d26-69b3-4c04-b064-050ddff29fcc"},"vehicle_type_id":"4","last_reported":1721668016,"current_range_meters":800,"station_id":"","pricing_plan_id":"cebpf4jnsgd1na2vs0mg"},{"bike_id":"c0b8d72e-5db6-41e3-b295-62e493d647d0","system_id":"levelo_inurba_marseille","lat":43.29272,"lon":5.3684,"is_reserved":false,"is_disabled":false,"rental_uris":{"android":"levelo://app?vid=c0b8d72e-5db6-41e3-b295-62e493d647d0","ios":"levelo://app?vid=c0b8d72e-5db6-41e3-b295-62e493d647d0"},"vehicle_type_id":"4","last_reported":1721668016,"current_range_meters":0,"station_id":"ce4bhbp2rcd13ifvqesg","pricing_plan_id":"cebpf4jnsgd1na2vs0mg"},{"bike_id":"e7a476d8-d659-4805-a524-ee322af5ffae","system_id":"levelo_inurba_marseille","lat":43.292749,"lon":5.368402,"is_reserved":false,"is_disabled":false,"rental_uris":{"android":"levelo://app?vid=e7a476d8-d659-4805-a524-ee322af5ffae","ios":"levelo://app?vid=e7a476d8-d659-4805-a524-ee322af5ffae"},"vehicle_type_id":"4","last_reported":1721668016,"current_range_meters":0,"station_id":"ce4bhbp2rcd13ifvqesg","pricing_plan_id":"cebpf4jnsgd1na2vs0mg"},{"bike_id":"09977b67-f733-4409-bdc2-79952b370c39","system_id":"levelo_inurba_marseille","lat":43.33056,"lon":5.37985,"is_reserved":false,"is_disabled":false,"rental_uris":{"android":"levelo://app?vid=09977b67-f733-4409-bdc2-79952b370c39","ios":"levelo://app?vid=09977b67-f733-4409-bdc2-79952b370c39"},"vehicle_type_id":"4","last_reported":1721668016,"current_range_meters":13600,"station_id":"","pricing_plan_id":"cebpf4jnsgd1na2vs0mg"},{"bike_id":"b10b225a-f5df-4fbb-909d-5bcc9c9612af","system_id":"levelo_inurba_marseille","lat":43.293009,"lon":5.374584,"is_reserved":false,"is_disabled":false,"rental_uris":{"android":"levelo://app?vid=b10b225a-f5df-4fbb-909d-5bcc9c9612af","ios":"levelo://app?vid=b10b225a-f5df-4fbb-909d-5bcc9c9612af"},"vehicle_type_id":"4","last_reported":1721668016,"current_range_meters":0,"station_id":"ce4bgi12rcd13ifvqb70","pricing_plan_id":"cebpf4jnsgd1na2vs0mg"},{"bike_id":"5f6ddfd8-c71a-4337-86d3-e32b7f7b520f","system_id":"levelo_inurba_marseille","lat":43.293009,"lon":5.374584,"is_reserved":false,"is_disabled":false,"rental_uris":{"android":"levelo://app?vid=5f6ddfd8-c71a-4337-86d3-e32b7f7b520f","ios":"levelo://app?vid=5f6ddfd8-c71a-4337-86d3-e32b7f7b520f"},"vehicle_type_id":"4","last_reported":1721668016,"current_range_meters":1200,"station_id":"ce4bgi12rcd13ifvqb70","pricing_plan_id":"cebpf4jnsgd1na2vs0mg"},{"bike_id":"b6061923-9bda-4e43-9e34-208bab83dd0b","system_id":"levelo_inurba_marseille","lat":43.2936,"lon":5.37835,"is_reserved":false,"is_disabled":false,"rental_uris":{"android":"levelo://app?vid=b6061923-9bda-4e43-9e34-208bab83dd0b","ios":"levelo://app?vid=b6061923-9bda-4e43-9e34-208bab83dd0b"},"vehicle_type_id":"4","last_reported":1721668016,"current_range_meters":26400,"station_id":"ce4bgjh2rcd13ifvqbf0","pricing_plan_id":"cebpf4jnsgd1na2vs0mg"},{"bike_id":"06154a96-596d-4bcd-b3a9-70d31d6bb70b","system_id":"levelo_inurba_marseille","lat":43.292311,"lon":5.360731,"is_reserved":false,"is_disabled":false,"rental_uris":{"android":"levelo://app?vid=06154a96-596d-4bcd-b3a9-70d31d6bb70b","ios":"levelo://app?vid=06154a96-596d-4bcd-b3a9-70d31d6bb70b"},"vehicle_type_id":"4","last_reported":1721668016,"current_range_meters":0,"station_id":"ce4bhbh2rcd13ifvqeqg","pricing_plan_id":"cebpf4jnsgd1na2vs0mg"},{"bike_id":"51234b0a-a05a-475c-a4ab-f35cf20305ac","system_id":"levelo_inurba_marseille","lat":43.292311,"lon":5.360731,"is_reserved":false,"is_disabled":false,"rental_uris":{"android":"levelo://app?vid=51234b0a-a05a-475c-a4ab-f35cf20305ac","ios":"levelo://app?vid=51234b0a-a05a-475c-a4ab-f35cf20305ac"},"vehicle_type_id":"4","last_reported":1721668016,"current_range_meters":21600,"station_id":"ce4bhbh2rcd13ifvqeqg","pricing_plan_id":"cebpf4jnsgd1na2vs0mg"},{"bike_id":"a6de0892-dff0-49f8-9e87-da54f25a3cf0","system_id":"levelo_inurba_marseille","lat":43.292311,"lon":5.360731,"is_reserved":false,"is_disabled":false,"rental_uris":{"android":"levelo://app?vid=a6de0892-dff0-49f8-9e87-da54f25a3cf0","ios":"levelo://app?vid=a6de0892-dff0-49f8-9e87-da54f25a3cf0"},"vehicle_type_id":"4","last_reported":1721668016,"current_range_meters":13200,"station_id":"ce4bhbh2rcd13ifvqeqg","pricing_plan_id":"cebpf4jnsgd1na2vs0mg"},{"bike_id":"11a9c4b9-dab0-4750-90d6-746baa32ba7a","system_id":"levelo_inurba_marseille","lat":43.292311,"lon":5.360731,"is_reserved":false,"is_disabled":false,"rental_uris":{"android":"levelo://app?vid=11a9c4b9-dab0-4750-90d6-746baa32ba7a","ios":"levelo://app?vid=11a9c4b9-dab0-4750-90d6-746baa32ba7a"},"vehicle_type_id":"4","last_reported":1721668016,"current_range_meters":26400,"station_id":"ce4bhbh2rcd13ifvqeqg","pricing_plan_id":"cebpf4jnsgd1na2vs0mg"},{"bike_id":"2ff6b5c2-125f-43f8-8584-1ec03aa339bd","system_id":"levelo_inurba_marseille","lat":43.292311,"lon":5.360731,"is_reserved":false,"is_disabled":false,"rental_uris":{"android":"levelo://app?vid=2ff6b5c2-125f-43f8-8584-1ec03aa339bd","ios":"levelo://app?vid=2ff6b5c2-125f-43f8-8584-1ec03aa339bd"},"vehicle_type_id":"4","last_reported":1721668016,"current_range_meters":31200,"station_id":"ce4bhbh2rcd13ifvqeqg","pricing_plan_id":"cebpf4jnsgd1na2vs0mg"},{"bike_id":"07ae988a-f8d8-4494-b83b-deb4fdf86cb8","system_id":"levelo_inurba_marseille","lat":43.292311,"lon":5.360731,"is_reserved":false,"is_disabled":false,"rental_uris":{"android":"levelo://app?vid=07ae988a-f8d8-4494-b83b-deb4fdf86cb8","ios":"levelo://app?vid=07ae988a-f8d8-4494-b83b-deb4fdf86cb8"},"vehicle_type_id":"4","last_reported":1721668016,"current_range_meters":30400,"station_id":"ce4bhbh2rcd13ifvqeqg","pricing_plan_id":"cebpf4jnsgd1na2vs0mg"},{"bike_id":"8abe48b8-aef3-43e1-af8e-20e196cdd12b","system_id":"levelo_inurba_marseille","lat":43.29214,"lon":5.36049,"is_reserved":false,"is_disabled":false,"rental_uris":{"android":"levelo://app?vid=8abe48b8-aef3-43e1-af8e-20e196cdd12b","ios":"levelo://app?vid=8abe48b8-aef3-43e1-af8e-20e196cdd12b"},"vehicle_type_id":"4","last_reported":1721668016,"current_range_meters":31200,"station_id":"ce4bhbh2rcd13ifvqeqg","pricing_plan_id":"cebpf4jnsgd1na2vs0mg"},{"bike_id":"2fef63b7-c790-4f2f-85a2-118bb2517be1","system_id":"levelo_inurba_marseille","lat":43.29131,"lon":5.36979,"is_reserved":false,"is_disabled":false,"rental_uris":{"android":"levelo://app?vid=2fef63b7-c790-4f2f-85a2-118bb2517be1","ios":"levelo://app?vid=2fef63b7-c790-4f2f-85a2-118bb2517be1"},"vehicle_type_id":"4","last_reported":1721668016,"current_range_meters":0,"station_id":"","pricing_plan_id":"cebpf4jnsgd1na2vs0mg"},{"bike_id":"f632908e-cc24-4d2d-9c1b-5ed47d2e9570","system_id":"levelo_inurba_marseille","lat":43.291994,"lon":5.357886,"is_reserved":false,"is_disabled":false,"rental_uris":{"android":"levelo://app?vid=f632908e-cc24-4d2d-9c1b-5ed47d2e9570","ios":"levelo://app?vid=f632908e-cc24-4d2d-9c1b-5ed47d2e9570"},"vehicle_type_id":"4","last_reported":1721668016,"current_range_meters":25600,"station_id":"ce4bhb12rcd13ifvqel0","pricing_plan_id":"cebpf4jnsgd1na2vs0mg"},{"bike_id":"cf68e092-17b4-4a12-b00c-4cd9134f453b","system_id":"levelo_inurba_marseille","lat":43.291994,"lon":5.357886,"is_reserved":false,"is_disabled":false,"rental_uris":{"android":"levelo://app?vid=cf68e092-17b4-4a12-b00c-4cd9134f453b","ios":"levelo://app?vid=cf68e092-17b4-4a12-b00c-4cd9134f453b"},"vehicle_type_id":"4","last_reported":1721668016,"current_range_meters":2000,"station_id":"ce4bhb12rcd13ifvqel0","pricing_plan_id":"cebpf4jnsgd1na2vs0mg"},{"bike_id":"5eb5b267-b38c-48e9-bd9e-7baffee21c2b","system_id":"levelo_inurba_marseille","lat":43.291994,"lon":5.357886,"is_reserved":false,"is_disabled":false,"rental_uris":{"android":"levelo://app?vid=5eb5b267-b38c-48e9-bd9e-7baffee21c2b","ios":"levelo://app?vid=5eb5b267-b38c-48e9-bd9e-7baffee21c2b"},"vehicle_type_id":"4","last_reported":1721668016,"current_range_meters":30400,"station_id":"ce4bhb12rcd13ifvqel0","pricing_plan_id":"cebpf4jnsgd1na2vs0mg"},{"bike_id":"ef72dea7-69fc-4578-9140-f182a12abb66","system_id":"levelo_inurba_marseille","lat":43.292005,"lon":5.357875,"is_reserved":false,"is_disabled":false,"rental_uris":{"android":"levelo://app?vid=ef72dea7-69fc-4578-9140-f182a12abb66","ios":"levelo://app?vid=ef72dea7-69fc-4578-9140-f182a12abb66"},"vehicle_type_id":"4","last_reported":1721668016,"current_range_meters":400,"station_id":"ce4bhb12rcd13ifvqel0","pricing_plan_id":"cebpf4jnsgd1na2vs0mg"},{"bike_id":"06e4ca52-82cd-4d8d-8ff3-e2ff031bf2a1","system_id":"levelo_inurba_marseille","lat":43.29529,"lon":5.385581,"is_reserved":false,"is_disabled":false,"rental_uris":{"android":"levelo://app?vid=06e4ca52-82cd-4d8d-8ff3-e2ff031bf2a1","ios":"levelo://app?vid=06e4ca52-82cd-4d8d-8ff3-e2ff031bf2a1"},"vehicle_type_id":"4","last_reported":1721668016,"current_range_meters":0,"station_id":"ce4bgih2rcd13ifvqba0","pricing_plan_id":"cebpf4jnsgd1na2vs0mg"},{"bike_id":"cf9d2ff1-374c-4fc5-8434-db5549b0ca23","system_id":"levelo_inurba_marseille","lat":43.29529,"lon":5.385581,"is_reserved":false,"is_disabled":false,"rental_uris":{"android":"levelo://app?vid=cf9d2ff1-374c-4fc5-8434-db5549b0ca23","ios":"levelo://app?vid=cf9d2ff1-374c-4fc5-8434-db5549b0ca23"},"vehicle_type_id":"4","last_reported":1721668016,"current_range_meters":2000,"station_id":"ce4bgih2rcd13ifvqba0","pricing_plan_id":"cebpf4jnsgd1na2vs0mg"},{"bike_id":"a535a8b7-1e1e-40e6-868a-6f2ebf54f76c","system_id":"levelo_inurba_marseille","lat":43.29044,"lon":5.37047,"is_reserved":false,"is_disabled":false,"rental_uris":{"android":"levelo://app?vid=a535a8b7-1e1e-40e6-868a-6f2ebf54f76c","ios":"levelo://app?vid=a535a8b7-1e1e-40e6-868a-6f2ebf54f76c"},"vehicle_type_id":"4","last_reported":1721668016,"current_range_meters":6400,"station_id":"","pricing_plan_id":"cebpf4jnsgd1na2vs0mg"},{"bike_id":"f3a43811-2e8b-4e43-b530-93e3e4721855","system_id":"levelo_inurba_marseille","lat":43.289184,"lon":5.366408,"is_reserved":false,"is_disabled":false,"rental_uris":{"android":"levelo://app?vid=f3a43811-2e8b-4e43-b530-93e3e4721855","ios":"levelo://app?vid=f3a43811-2e8b-4e43-b530-93e3e4721855"},"vehicle_type_id":"4","last_reported":1721668016,"current_range_meters":0,"station_id":"ce4bhap2rcd13ifvqek0","pricing_plan_id":"cebpf4jnsgd1na2vs0mg"},{"bike_id":"5acf8db1-e11e-42cd-a3cc-a0e8d6b42952","system_id":"levelo_inurba_marseille","lat":43.302008,"lon":5.394694,"is_reserved":false,"is_disabled":false,"rental_uris":{"android":"levelo://app?vid=5acf8db1-e11e-42cd-a3cc-a0e8d6b42952","ios":"levelo://app?vid=5acf8db1-e11e-42cd-a3cc-a0e8d6b42952"},"vehicle_type_id":"4","last_reported":1721668016,"current_range_meters":0,"station_id":"ce4bh0p2rcd13ifvqd70","pricing_plan_id":"cebpf4jnsgd1na2vs0mg"},{"bike_id":"9337b543-d967-4fb0-b8cd-6af039e9fffa","system_id":"levelo_inurba_marseille","lat":43.290624,"lon":5.359245,"is_reserved":false,"is_disabled":false,"rental_uris":{"android":"levelo://app?vid=9337b543-d967-4fb0-b8cd-6af039e9fffa","ios":"levelo://app?vid=9337b543-d967-4fb0-b8cd-6af039e9fffa"},"vehicle_type_id":"4","last_reported":1721668016,"current_range_meters":14000,"station_id":"ce4bha92rcd13ifvqeg0","pricing_plan_id":"cebpf4jnsgd1na2vs0mg"},{"bike_id":"f231da92-f10c-4291-88c6-a8fd6a3ea7b8","system_id":"levelo_inurba_marseille","lat":43.290631,"lon":5.359244,"is_reserved":false,"is_disabled":false,"rental_uris":{"android":"levelo://app?vid=f231da92-f10c-4291-88c6-a8fd6a3ea7b8","ios":"levelo://app?vid=f231da92-f10c-4291-88c6-a8fd6a3ea7b8"},"vehicle_type_id":"4","last_reported":1721668016,"current_range_meters":22400,"station_id":"ce4bha92rcd13ifvqeg0","pricing_plan_id":"cebpf4jnsgd1na2vs0mg"},{"bike_id":"dae8c719-0583-42b8-af27-4388fd2476f0","system_id":"levelo_inurba_marseille","lat":43.290624,"lon":5.359245,"is_reserved":false,"is_disabled":false,"rental_uris":{"android":"levelo://app?vid=dae8c719-0583-42b8-af27-4388fd2476f0","ios":"levelo://app?vid=dae8c719-0583-42b8-af27-4388fd2476f0"},"vehicle_type_id":"4","last_reported":1721668016,"current_range_meters":26000,"station_id":"ce4bha92rcd13ifvqeg0","pricing_plan_id":"cebpf4jnsgd1na2vs0mg"},{"bike_id":"8be30041-c5df-4d95-84ac-36d973e3e368","system_id":"levelo_inurba_marseille","lat":43.2896,"lon":5.36474,"is_reserved":false,"is_disabled":false,"rental_uris":{"android":"levelo://app?vid=8be30041-c5df-4d95-84ac-36d973e3e368","ios":"levelo://app?vid=8be30041-c5df-4d95-84ac-36d973e3e368"},"vehicle_type_id":"4","last_reported":1721668016,"current_range_meters":3600,"station_id":"","pricing_plan_id":"cebpf4jnsgd1na2vs0mg"},{"bike_id":"9e6c68c6-1586-476d-95d9-48c88c551c98","system_id":"levelo_inurba_marseille","lat":43.290319,"lon":5.375732,"is_reserved":false,"is_disabled":false,"rental_uris":{"android":"levelo://app?vid=9e6c68c6-1586-476d-95d9-48c88c551c98","ios":"levelo://app?vid=9e6c68c6-1586-476d-95d9-48c88c551c98"},"vehicle_type_id":"4","last_reported":1721668016,"current_range_meters":1600,"station_id":"ce4bh692rcd13ifvqe90","pricing_plan_id":"cebpf4jnsgd1na2vs0mg"},{"bike_id":"fdb298c6-71b7-438a-a368-90c6f304a46d","system_id":"levelo_inurba_marseille","lat":43.294153,"lon":5.386305,"is_reserved":false,"is_disabled":false,"rental_uris":{"android":"levelo://app?vid=fdb298c6-71b7-438a-a368-90c6f304a46d","ios":"levelo://app?vid=fdb298c6-71b7-438a-a368-90c6f304a46d"},"vehicle_type_id":"4","last_reported":1721668016,"current_range_meters":4400,"station_id":"ce4bh2h2rcd13ifvqdh0","pricing_plan_id":"cebpf4jnsgd1na2vs0mg"},{"bike_id":"5cd5b855-f19e-47ba-aa13-4135ddf02652","system_id":"levelo_inurba_marseille","lat":43.290327,"lon":5.375711,"is_reserved":false,"is_disabled":false,"rental_uris":{"android":"levelo://app?vid=5cd5b855-f19e-47ba-aa13-4135ddf02652","ios":"levelo://app?vid=5cd5b855-f19e-47ba-aa13-4135ddf02652"},"vehicle_type_id":"4","last_reported":1721668016,"current_range_meters":0,"station_id":"ce4bh692rcd13ifvqe90","pricing_plan_id":"cebpf4jnsgd1na2vs0mg"},{"bike_id":"9c7db638-4287-4c5f-a9c6-33e256e00b69","system_id":"levelo_inurba_marseille","lat":43.289444,"lon":5.366374,"is_reserved":false,"is_disabled":false,"rental_uris":{"android":"levelo://app?vid=9c7db638-4287-4c5f-a9c6-33e256e00b69","ios":"levelo://app?vid=9c7db638-4287-4c5f-a9c6-33e256e00b69"},"vehicle_type_id":"4","last_reported":1721668016,"current_range_meters":0,"station_id":"ce4bhap2rcd13ifvqek0","pricing_plan_id":"cebpf4jnsgd1na2vs0mg"},{"bike_id":"9011eff7-4fa3-45d9-950f-5bd16924ed72","system_id":"levelo_inurba_marseille","lat":43.294162,"lon":5.386292,"is_reserved":false,"is_disabled":false,"rental_uris":{"android":"levelo://app?vid=9011eff7-4fa3-45d9-950f-5bd16924ed72","ios":"levelo://app?vid=9011eff7-4fa3-45d9-950f-5bd16924ed72"},"vehicle_type_id":"4","last_reported":1721668016,"current_range_meters":1600,"station_id":"ce4bh2h2rcd13ifvqdh0","pricing_plan_id":"cebpf4jnsgd1na2vs0mg"},{"bike_id":"b43e7e4c-9857-4774-941a-6c7a38899ba2","system_id":"levelo_inurba_marseille","lat":43.29416,"lon":5.38628,"is_reserved":false,"is_disabled":false,"rental_uris":{"android":"levelo://app?vid=b43e7e4c-9857-4774-941a-6c7a38899ba2","ios":"levelo://app?vid=b43e7e4c-9857-4774-941a-6c7a38899ba2"},"vehicle_type_id":"4","last_reported":1721668016,"current_range_meters":0,"station_id":"ce4bh2h2rcd13ifvqdh0","pricing_plan_id":"cebpf4jnsgd1na2vs0mg"},{"bike_id":"2966e724-8322-4cd8-a8a0-e646561e1ac7","system_id":"levelo_inurba_marseille","lat":43.28939,"lon":5.36634,"is_reserved":false,"is_disabled":false,"rental_uris":{"android":"levelo://app?vid=2966e724-8322-4cd8-a8a0-e646561e1ac7","ios":"levelo://app?vid=2966e724-8322-4cd8-a8a0-e646561e1ac7"},"vehicle_type_id":"4","last_reported":1721668016,"current_range_meters":0,"station_id":"ce4bhap2rcd13ifvqek0","pricing_plan_id":"cebpf4jnsgd1na2vs0mg"},{"bike_id":"4ead8a42-cf57-4833-8137-e7fc65bbd6ab","system_id":"levelo_inurba_marseille","lat":43.289468,"lon":5.363719,"is_reserved":false,"is_disabled":false,"rental_uris":{"android":"levelo://app?vid=4ead8a42-cf57-4833-8137-e7fc65bbd6ab","ios":"levelo://app?vid=4ead8a42-cf57-4833-8137-e7fc65bbd6ab"},"vehicle_type_id":"4","last_reported":1721668016,"current_range_meters":9600,"station_id":"ce4bhc92rcd13ifvqetg","pricing_plan_id":"cebpf4jnsgd1na2vs0mg"},{"bike_id":"b0a60893-496f-420a-9884-1cc3c9cc2f48","system_id":"levelo_inurba_marseille","lat":43.289468,"lon":5.363719,"is_reserved":false,"is_disabled":false,"rental_uris":{"android":"levelo://app?vid=b0a60893-496f-420a-9884-1cc3c9cc2f48","ios":"levelo://app?vid=b0a60893-496f-420a-9884-1cc3c9cc2f48"},"vehicle_type_id":"4","last_reported":1721668016,"current_range_meters":15600,"station_id":"ce4bhc92rcd13ifvqetg","pricing_plan_id":"cebpf4jnsgd1na2vs0mg"},{"bike_id":"15b6dbaf-f0a4-45a2-ba34-72fb8abd4ca5","system_id":"levelo_inurba_marseille","lat":43.289468,"lon":5.363719,"is_reserved":false,"is_disabled":false,"rental_uris":{"android":"levelo://app?vid=15b6dbaf-f0a4-45a2-ba34-72fb8abd4ca5","ios":"levelo://app?vid=15b6dbaf-f0a4-45a2-ba34-72fb8abd4ca5"},"vehicle_type_id":"4","last_reported":1721668016,"current_range_meters":3200,"station_id":"ce4bhc92rcd13ifvqetg","pricing_plan_id":"cebpf4jnsgd1na2vs0mg"},{"bike_id":"72d574d1-5942-46f9-894a-2c8e4a99fee2","system_id":"levelo_inurba_marseille","lat":43.28938,"lon":5.364,"is_reserved":false,"is_disabled":false,"rental_uris":{"android":"levelo://app?vid=72d574d1-5942-46f9-894a-2c8e4a99fee2","ios":"levelo://app?vid=72d574d1-5942-46f9-894a-2c8e4a99fee2"},"vehicle_type_id":"4","last_reported":1721668016,"current_range_meters":0,"station_id":"ce4bhc92rcd13ifvqetg","pricing_plan_id":"cebpf4jnsgd1na2vs0mg"},{"bike_id":"ec7fba9e-cb76-49b8-be9f-b4be6c060823","system_id":"levelo_inurba_marseille","lat":43.289184,"lon":5.366408,"is_reserved":false,"is_disabled":false,"rental_uris":{"android":"levelo://app?vid=ec7fba9e-cb76-49b8-be9f-b4be6c060823","ios":"levelo://app?vid=ec7fba9e-cb76-49b8-be9f-b4be6c060823"},"vehicle_type_id":"4","last_reported":1721668016,"current_range_meters":15200,"station_id":"ce4bhap2rcd13ifvqek0","pricing_plan_id":"cebpf4jnsgd1na2vs0mg"},{"bike_id":"88a2121b-4ef1-4137-ba39-94136d8ccc08","system_id":"levelo_inurba_marseille","lat":43.292642,"lon":5.384254,"is_reserved":false,"is_disabled":false,"rental_uris":{"android":"levelo://app?vid=88a2121b-4ef1-4137-ba39-94136d8ccc08","ios":"levelo://app?vid=88a2121b-4ef1-4137-ba39-94136d8ccc08"},"vehicle_type_id":"4","last_reported":1721668016,"current_range_meters":0,"station_id":"ce4bh692rcd13ifvqea0","pricing_plan_id":"cebpf4jnsgd1na2vs0mg"},{"bike_id":"b61782b6-168e-41bb-b019-da7edbb020a9","system_id":"levelo_inurba_marseille","lat":43.29266,"lon":5.38444,"is_reserved":false,"is_disabled":false,"rental_uris":{"android":"levelo://app?vid=b61782b6-168e-41bb-b019-da7edbb020a9","ios":"levelo://app?vid=b61782b6-168e-41bb-b019-da7edbb020a9"},"vehicle_type_id":"4","last_reported":1721668016,"current_range_meters":0,"station_id":"ce4bh692rcd13ifvqea0","pricing_plan_id":"cebpf4jnsgd1na2vs0mg"},{"bike_id":"c2c26cc2-fe96-4712-b817-a6fdad51986a","system_id":"levelo_inurba_marseille","lat":43.290104,"lon":5.356111,"is_reserved":false,"is_disabled":false,"rental_uris":{"android":"levelo://app?vid=c2c26cc2-fe96-4712-b817-a6fdad51986a","ios":"levelo://app?vid=c2c26cc2-fe96-4712-b817-a6fdad51986a"},"vehicle_type_id":"4","last_reported":1721668016,"current_range_meters":7200,"station_id":"ce4bhb92rcd13ifvqen0","pricing_plan_id":"cebpf4jnsgd1na2vs0mg"},{"bike_id":"e0c81f4c-53c2-4912-bc11-14a806f0fcc1","system_id":"levelo_inurba_marseille","lat":43.2901,"lon":5.35612,"is_reserved":false,"is_disabled":false,"rental_uris":{"android":"levelo://app?vid=e0c81f4c-53c2-4912-bc11-14a806f0fcc1","ios":"levelo://app?vid=e0c81f4c-53c2-4912-bc11-14a806f0fcc1"},"vehicle_type_id":"4","last_reported":1721668016,"current_range_meters":3200,"station_id":"ce4bhb92rcd13ifvqen0","pricing_plan_id":"cebpf4jnsgd1na2vs0mg"},{"bike_id":"c879c37f-1a26-4c89-b422-c4393239070b","system_id":"levelo_inurba_marseille","lat":43.290103,"lon":5.356114,"is_reserved":false,"is_disabled":false,"rental_uris":{"android":"levelo://app?vid=c879c37f-1a26-4c89-b422-c4393239070b","ios":"levelo://app?vid=c879c37f-1a26-4c89-b422-c4393239070b"},"vehicle_type_id":"4","last_reported":1721668016,"current_range_meters":0,"station_id":"ce4bhb92rcd13ifvqen0","pricing_plan_id":"cebpf4jnsgd1na2vs0mg"},{"bike_id":"1d9a534d-e9a7-4dfd-b008-73a8d1ce1b48","system_id":"levelo_inurba_marseille","lat":43.29006,"lon":5.35611,"is_reserved":false,"is_disabled":false,"rental_uris":{"android":"levelo://app?vid=1d9a534d-e9a7-4dfd-b008-73a8d1ce1b48","ios":"levelo://app?vid=1d9a534d-e9a7-4dfd-b008-73a8d1ce1b48"},"vehicle_type_id":"4","last_reported":1721668016,"current_range_meters":27600,"station_id":"ce4bhb92rcd13ifvqen0","pricing_plan_id":"cebpf4jnsgd1na2vs0mg"},{"bike_id":"335058a7-0ec4-4cc7-ad02-6f5aba2ff970","system_id":"levelo_inurba_marseille","lat":43.290104,"lon":5.356111,"is_reserved":false,"is_disabled":false,"rental_uris":{"android":"levelo://app?vid=335058a7-0ec4-4cc7-ad02-6f5aba2ff970","ios":"levelo://app?vid=335058a7-0ec4-4cc7-ad02-6f5aba2ff970"},"vehicle_type_id":"4","last_reported":1721668016,"current_range_meters":29600,"station_id":"ce4bhb92rcd13ifvqen0","pricing_plan_id":"cebpf4jnsgd1na2vs0mg"},{"bike_id":"d66a741d-f244-4563-a33a-913a3bdeab80","system_id":"levelo_inurba_marseille","lat":43.29004,"lon":5.35612,"is_reserved":false,"is_disabled":false,"rental_uris":{"android":"levelo://app?vid=d66a741d-f244-4563-a33a-913a3bdeab80","ios":"levelo://app?vid=d66a741d-f244-4563-a33a-913a3bdeab80"},"vehicle_type_id":"4","last_reported":1721668016,"current_range_meters":0,"station_id":"ce4bhb92rcd13ifvqen0","pricing_plan_id":"cebpf4jnsgd1na2vs0mg"},{"bike_id":"bf1ecf5b-cc07-4db6-aa42-b1ab042558e4","system_id":"levelo_inurba_marseille","lat":43.29003,"lon":5.35611,"is_reserved":false,"is_disabled":false,"rental_uris":{"android":"levelo://app?vid=bf1ecf5b-cc07-4db6-aa42-b1ab042558e4","ios":"levelo://app?vid=bf1ecf5b-cc07-4db6-aa42-b1ab042558e4"},"vehicle_type_id":"4","last_reported":1721668016,"current_range_meters":20400,"station_id":"ce4bhb92rcd13ifvqen0","pricing_plan_id":"cebpf4jnsgd1na2vs0mg"},{"bike_id":"898da09e-602b-424d-b52b-99d2ab58d047","system_id":"levelo_inurba_marseille","lat":43.29004,"lon":5.35606,"is_reserved":false,"is_disabled":false,"rental_uris":{"android":"levelo://app?vid=898da09e-602b-424d-b52b-99d2ab58d047","ios":"levelo://app?vid=898da09e-602b-424d-b52b-99d2ab58d047"},"vehicle_type_id":"4","last_reported":1721668016,"current_range_meters":22400,"station_id":"ce4bhb92rcd13ifvqen0","pricing_plan_id":"cebpf4jnsgd1na2vs0mg"},{"bike_id":"1a28e01b-62de-43ce-93bb-cdf175e5246d","system_id":"levelo_inurba_marseille","lat":43.290104,"lon":5.356111,"is_reserved":false,"is_disabled":false,"rental_uris":{"android":"levelo://app?vid=1a28e01b-62de-43ce-93bb-cdf175e5246d","ios":"levelo://app?vid=1a28e01b-62de-43ce-93bb-cdf175e5246d"},"vehicle_type_id":"4","last_reported":1721668016,"current_range_meters":21200,"station_id":"ce4bhb92rcd13ifvqen0","pricing_plan_id":"cebpf4jnsgd1na2vs0mg"},{"bike_id":"d9a60973-e9c1-43ec-a43b-34630c171183","system_id":"levelo_inurba_marseille","lat":43.290995,"lon":5.381361,"is_reserved":false,"is_disabled":false,"rental_uris":{"android":"levelo://app?vid=d9a60973-e9c1-43ec-a43b-34630c171183","ios":"levelo://app?vid=d9a60973-e9c1-43ec-a43b-34630c171183"},"vehicle_type_id":"4","last_reported":1721668016,"current_range_meters":24400,"station_id":"ce4bh512rcd13ifvqe2g","pricing_plan_id":"cebpf4jnsgd1na2vs0mg"},{"bike_id":"daee8c6f-8213-4593-b419-1e7196dc319a","system_id":"levelo_inurba_marseille","lat":43.29796,"lon":5.39334,"is_reserved":false,"is_disabled":false,"rental_uris":{"android":"levelo://app?vid=daee8c6f-8213-4593-b419-1e7196dc319a","ios":"levelo://app?vid=daee8c6f-8213-4593-b419-1e7196dc319a"},"vehicle_type_id":"4","last_reported":1721668016,"current_range_meters":800,"station_id":"chh1huq6cuj3fo74tm60","pricing_plan_id":"cebpf4jnsgd1na2vs0mg"},{"bike_id":"af4d39cc-13d8-4a18-b145-2a4595e8e9e4","system_id":"levelo_inurba_marseille","lat":43.29783,"lon":5.39338,"is_reserved":false,"is_disabled":false,"rental_uris":{"android":"levelo://app?vid=af4d39cc-13d8-4a18-b145-2a4595e8e9e4","ios":"levelo://app?vid=af4d39cc-13d8-4a18-b145-2a4595e8e9e4"},"vehicle_type_id":"4","last_reported":1721668016,"current_range_meters":5200,"station_id":"chh1huq6cuj3fo74tm60","pricing_plan_id":"cebpf4jnsgd1na2vs0mg"},{"bike_id":"e16275fa-b087-4e21-9474-9f0ae48aa585","system_id":"levelo_inurba_marseille","lat":43.289743,"lon":5.378304,"is_reserved":false,"is_disabled":false,"rental_uris":{"android":"levelo://app?vid=e16275fa-b087-4e21-9474-9f0ae48aa585","ios":"levelo://app?vid=e16275fa-b087-4e21-9474-9f0ae48aa585"},"vehicle_type_id":"4","last_reported":1721668016,"current_range_meters":0,"station_id":"ce4bh9p2rcd13ifvqed0","pricing_plan_id":"cebpf4jnsgd1na2vs0mg"},{"bike_id":"347b6b2b-fc42-421c-a229-f1bf4bd3c7a8","system_id":"levelo_inurba_marseille","lat":43.29779,"lon":5.39348,"is_reserved":false,"is_disabled":false,"rental_uris":{"android":"levelo://app?vid=347b6b2b-fc42-421c-a229-f1bf4bd3c7a8","ios":"levelo://app?vid=347b6b2b-fc42-421c-a229-f1bf4bd3c7a8"},"vehicle_type_id":"4","last_reported":1721668016,"current_range_meters":4000,"station_id":"chh1huq6cuj3fo74tm60","pricing_plan_id":"cebpf4jnsgd1na2vs0mg"},{"bike_id":"e3a94db4-0088-4c6c-b921-9c7de04efd17","system_id":"levelo_inurba_marseille","lat":43.33024,"lon":5.39047,"is_reserved":false,"is_disabled":false,"rental_uris":{"android":"levelo://app?vid=e3a94db4-0088-4c6c-b921-9c7de04efd17","ios":"levelo://app?vid=e3a94db4-0088-4c6c-b921-9c7de04efd17"},"vehicle_type_id":"4","last_reported":1721668016,"current_range_meters":27200,"station_id":"ce4bhr92rcd13ifvqhrg","pricing_plan_id":"cebpf4jnsgd1na2vs0mg"},{"bike_id":"aa4a5ed8-2505-4d6e-9749-58b5fc0278ae","system_id":"levelo_inurba_marseille","lat":43.330442,"lon":5.389148,"is_reserved":false,"is_disabled":false,"rental_uris":{"android":"levelo://app?vid=aa4a5ed8-2505-4d6e-9749-58b5fc0278ae","ios":"levelo://app?vid=aa4a5ed8-2505-4d6e-9749-58b5fc0278ae"},"vehicle_type_id":"4","last_reported":1721668016,"current_range_meters":25600,"station_id":"ce4bhr92rcd13ifvqhrg","pricing_plan_id":"cebpf4jnsgd1na2vs0mg"},{"bike_id":"107bbc53-7706-4bef-bcdf-73f631ecff1a","system_id":"levelo_inurba_marseille","lat":43.295169,"lon":5.390426,"is_reserved":false,"is_disabled":false,"rental_uris":{"android":"levelo://app?vid=107bbc53-7706-4bef-bcdf-73f631ecff1a","ios":"levelo://app?vid=107bbc53-7706-4bef-bcdf-73f631ecff1a"},"vehicle_type_id":"4","last_reported":1721668016,"current_range_meters":5200,"station_id":"ce4bh3p2rcd13ifvqdp0","pricing_plan_id":"cebpf4jnsgd1na2vs0mg"},{"bike_id":"1f8838fa-6b20-4873-8db4-fc3fe63005c3","system_id":"levelo_inurba_marseille","lat":43.295169,"lon":5.390426,"is_reserved":false,"is_disabled":false,"rental_uris":{"android":"levelo://app?vid=1f8838fa-6b20-4873-8db4-fc3fe63005c3","ios":"levelo://app?vid=1f8838fa-6b20-4873-8db4-fc3fe63005c3"},"vehicle_type_id":"4","last_reported":1721668016,"current_range_meters":0,"station_id":"ce4bh3p2rcd13ifvqdp0","pricing_plan_id":"cebpf4jnsgd1na2vs0mg"},{"bike_id":"658b854c-278b-4637-98b3-7ab8577190a3","system_id":"levelo_inurba_marseille","lat":43.2901,"lon":5.381269,"is_reserved":false,"is_disabled":false,"rental_uris":{"android":"levelo://app?vid=658b854c-278b-4637-98b3-7ab8577190a3","ios":"levelo://app?vid=658b854c-278b-4637-98b3-7ab8577190a3"},"vehicle_type_id":"4","last_reported":1721668016,"current_range_meters":0,"station_id":"ce4bh4p2rcd13ifvqe1g","pricing_plan_id":"cebpf4jnsgd1na2vs0mg"},{"bike_id":"db7346cb-212e-4d82-95e3-e815ab162370","system_id":"levelo_inurba_marseille","lat":43.310726,"lon":5.400933,"is_reserved":false,"is_disabled":false,"rental_uris":{"android":"levelo://app?vid=db7346cb-212e-4d82-95e3-e815ab162370","ios":"levelo://app?vid=db7346cb-212e-4d82-95e3-e815ab162370"},"vehicle_type_id":"4","last_reported":1721668016,"current_range_meters":30800,"station_id":"","pricing_plan_id":"cebpf4jnsgd1na2vs0mg"},{"bike_id":"b3e9f465-171c-4d16-accb-b76d0f8b31d1","system_id":"levelo_inurba_marseille","lat":43.28856,"lon":5.358371,"is_reserved":false,"is_disabled":false,"rental_uris":{"android":"levelo://app?vid=b3e9f465-171c-4d16-accb-b76d0f8b31d1","ios":"levelo://app?vid=b3e9f465-171c-4d16-accb-b76d0f8b31d1"},"vehicle_type_id":"4","last_reported":1721668016,"current_range_meters":17600,"station_id":"ce4bhb12rcd13ifvqem0","pricing_plan_id":"cebpf4jnsgd1na2vs0mg"},{"bike_id":"85050f43-8344-4bf8-a024-2717d404c6dc","system_id":"levelo_inurba_marseille","lat":43.28856,"lon":5.358371,"is_reserved":false,"is_disabled":false,"rental_uris":{"android":"levelo://app?vid=85050f43-8344-4bf8-a024-2717d404c6dc","ios":"levelo://app?vid=85050f43-8344-4bf8-a024-2717d404c6dc"},"vehicle_type_id":"4","last_reported":1721668016,"current_range_meters":9200,"station_id":"ce4bhb12rcd13ifvqem0","pricing_plan_id":"cebpf4jnsgd1na2vs0mg"},{"bike_id":"6c934202-12d1-4038-a8d1-9e46af55bab3","system_id":"levelo_inurba_marseille","lat":43.28856,"lon":5.35842,"is_reserved":false,"is_disabled":false,"rental_uris":{"android":"levelo://app?vid=6c934202-12d1-4038-a8d1-9e46af55bab3","ios":"levelo://app?vid=6c934202-12d1-4038-a8d1-9e46af55bab3"},"vehicle_type_id":"4","last_reported":1721668016,"current_range_meters":0,"station_id":"ce4bhb12rcd13ifvqem0","pricing_plan_id":"cebpf4jnsgd1na2vs0mg"},{"bike_id":"e115c271-9166-4c46-801a-c7ca170e6fd1","system_id":"levelo_inurba_marseille","lat":43.28856,"lon":5.358371,"is_reserved":false,"is_disabled":false,"rental_uris":{"android":"levelo://app?vid=e115c271-9166-4c46-801a-c7ca170e6fd1","ios":"levelo://app?vid=e115c271-9166-4c46-801a-c7ca170e6fd1"},"vehicle_type_id":"4","last_reported":1721668016,"current_range_meters":8800,"station_id":"ce4bhb12rcd13ifvqem0","pricing_plan_id":"cebpf4jnsgd1na2vs0mg"},{"bike_id":"c34527b9-2848-4835-b68a-8b9144a2802e","system_id":"levelo_inurba_marseille","lat":43.28856,"lon":5.358371,"is_reserved":false,"is_disabled":false,"rental_uris":{"android":"levelo://app?vid=c34527b9-2848-4835-b68a-8b9144a2802e","ios":"levelo://app?vid=c34527b9-2848-4835-b68a-8b9144a2802e"},"vehicle_type_id":"4","last_reported":1721668016,"current_range_meters":0,"station_id":"ce4bhb12rcd13ifvqem0","pricing_plan_id":"cebpf4jnsgd1na2vs0mg"},{"bike_id":"192a866a-6f86-404d-812c-31129be9ed74","system_id":"levelo_inurba_marseille","lat":43.33749,"lon":5.37437,"is_reserved":false,"is_disabled":false,"rental_uris":{"android":"levelo://app?vid=192a866a-6f86-404d-812c-31129be9ed74","ios":"levelo://app?vid=192a866a-6f86-404d-812c-31129be9ed74"},"vehicle_type_id":"4","last_reported":1721668016,"current_range_meters":27600,"station_id":"","pricing_plan_id":"cebpf4jnsgd1na2vs0mg"},{"bike_id":"d30176d3-57cf-4662-85ac-4d2def454fa4","system_id":"levelo_inurba_marseille","lat":43.337497,"lon":5.374523,"is_reserved":false,"is_disabled":false,"rental_uris":{"android":"levelo://app?vid=d30176d3-57cf-4662-85ac-4d2def454fa4","ios":"levelo://app?vid=d30176d3-57cf-4662-85ac-4d2def454fa4"},"vehicle_type_id":"4","last_reported":1721668016,"current_range_meters":26400,"station_id":"","pricing_plan_id":"cebpf4jnsgd1na2vs0mg"},{"bike_id":"729da992-572f-4e25-b807-f56a27b5dd22","system_id":"levelo_inurba_marseille","lat":43.33752,"lon":5.37438,"is_reserved":false,"is_disabled":false,"rental_uris":{"android":"levelo://app?vid=729da992-572f-4e25-b807-f56a27b5dd22","ios":"levelo://app?vid=729da992-572f-4e25-b807-f56a27b5dd22"},"vehicle_type_id":"4","last_reported":1721668016,"current_range_meters":16000,"station_id":"","pricing_plan_id":"cebpf4jnsgd1na2vs0mg"},{"bike_id":"9f4f7a69-64d9-4e57-a016-472cdb89d3bd","system_id":"levelo_inurba_marseille","lat":43.33755,"lon":5.37446,"is_reserved":false,"is_disabled":false,"rental_uris":{"android":"levelo://app?vid=9f4f7a69-64d9-4e57-a016-472cdb89d3bd","ios":"levelo://app?vid=9f4f7a69-64d9-4e57-a016-472cdb89d3bd"},"vehicle_type_id":"4","last_reported":1721668016,"current_range_meters":22000,"station_id":"","pricing_plan_id":"cebpf4jnsgd1na2vs0mg"},{"bike_id":"8aad4b3a-5383-408e-ab3c-637816395348","system_id":"levelo_inurba_marseille","lat":43.33759,"lon":5.37442,"is_reserved":false,"is_disabled":false,"rental_uris":{"android":"levelo://app?vid=8aad4b3a-5383-408e-ab3c-637816395348","ios":"levelo://app?vid=8aad4b3a-5383-408e-ab3c-637816395348"},"vehicle_type_id":"4","last_reported":1721668016,"current_range_meters":20000,"station_id":"","pricing_plan_id":"cebpf4jnsgd1na2vs0mg"},{"bike_id":"4eaef2c7-71f5-4744-ab23-cf70bd4039ee","system_id":"levelo_inurba_marseille","lat":43.33759,"lon":5.37447,"is_reserved":false,"is_disabled":false,"rental_uris":{"android":"levelo://app?vid=4eaef2c7-71f5-4744-ab23-cf70bd4039ee","ios":"levelo://app?vid=4eaef2c7-71f5-4744-ab23-cf70bd4039ee"},"vehicle_type_id":"4","last_reported":1721668016,"current_range_meters":24400,"station_id":"","pricing_plan_id":"cebpf4jnsgd1na2vs0mg"},{"bike_id":"5597d3ad-9e62-46fc-b8ff-1ca2163dbd74","system_id":"levelo_inurba_marseille","lat":43.33755,"lon":5.37483,"is_reserved":false,"is_disabled":false,"rental_uris":{"android":"levelo://app?vid=5597d3ad-9e62-46fc-b8ff-1ca2163dbd74","ios":"levelo://app?vid=5597d3ad-9e62-46fc-b8ff-1ca2163dbd74"},"vehicle_type_id":"4","last_reported":1721668016,"current_range_meters":22400,"station_id":"","pricing_plan_id":"cebpf4jnsgd1na2vs0mg"},{"bike_id":"2fa75b7e-def1-4555-95f4-25083259dc68","system_id":"levelo_inurba_marseille","lat":43.33766,"lon":5.37436,"is_reserved":false,"is_disabled":false,"rental_uris":{"android":"levelo://app?vid=2fa75b7e-def1-4555-95f4-25083259dc68","ios":"levelo://app?vid=2fa75b7e-def1-4555-95f4-25083259dc68"},"vehicle_type_id":"4","last_reported":1721668016,"current_range_meters":21200,"station_id":"","pricing_plan_id":"cebpf4jnsgd1na2vs0mg"},{"bike_id":"44252abf-5745-4d7d-bdc8-64576eff41ab","system_id":"levelo_inurba_marseille","lat":43.30642,"lon":5.401031,"is_reserved":false,"is_disabled":false,"rental_uris":{"android":"levelo://app?vid=44252abf-5745-4d7d-bdc8-64576eff41ab","ios":"levelo://app?vid=44252abf-5745-4d7d-bdc8-64576eff41ab"},"vehicle_type_id":"4","last_reported":1721668016,"current_range_meters":18000,"station_id":"ce4bh112rcd13ifvqda0","pricing_plan_id":"cebpf4jnsgd1na2vs0mg"},{"bike_id":"366e28d1-94bb-4b84-ab97-9b1f3c7dd62e","system_id":"levelo_inurba_marseille","lat":43.30642,"lon":5.401031,"is_reserved":false,"is_disabled":false,"rental_uris":{"android":"levelo://app?vid=366e28d1-94bb-4b84-ab97-9b1f3c7dd62e","ios":"levelo://app?vid=366e28d1-94bb-4b84-ab97-9b1f3c7dd62e"},"vehicle_type_id":"4","last_reported":1721668016,"current_range_meters":400,"station_id":"ce4bh112rcd13ifvqda0","pricing_plan_id":"cebpf4jnsgd1na2vs0mg"},{"bike_id":"8639d1ad-31a4-4eb4-aaf7-449ab4ee31de","system_id":"levelo_inurba_marseille","lat":43.301117,"lon":5.398795,"is_reserved":false,"is_disabled":false,"rental_uris":{"android":"levelo://app?vid=8639d1ad-31a4-4eb4-aaf7-449ab4ee31de","ios":"levelo://app?vid=8639d1ad-31a4-4eb4-aaf7-449ab4ee31de"},"vehicle_type_id":"4","last_reported":1721668016,"current_range_meters":0,"station_id":"ce4bh0h2rcd13ifvqd40","pricing_plan_id":"cebpf4jnsgd1na2vs0mg"},{"bike_id":"23ab7d8f-1789-4b32-924b-1f4321f702a1","system_id":"levelo_inurba_marseille","lat":43.306412,"lon":5.401035,"is_reserved":false,"is_disabled":false,"rental_uris":{"android":"levelo://app?vid=23ab7d8f-1789-4b32-924b-1f4321f702a1","ios":"levelo://app?vid=23ab7d8f-1789-4b32-924b-1f4321f702a1"},"vehicle_type_id":"4","last_reported":1721668016,"current_range_meters":3600,"station_id":"ce4bh112rcd13ifvqda0","pricing_plan_id":"cebpf4jnsgd1na2vs0mg"},{"bike_id":"83e2ff14-eb8f-4b09-bb65-83e14f52b082","system_id":"levelo_inurba_marseille","lat":43.28724,"lon":5.36078,"is_reserved":false,"is_disabled":false,"rental_uris":{"android":"levelo://app?vid=83e2ff14-eb8f-4b09-bb65-83e14f52b082","ios":"levelo://app?vid=83e2ff14-eb8f-4b09-bb65-83e14f52b082"},"vehicle_type_id":"4","last_reported":1721668016,"current_range_meters":24000,"station_id":"","pricing_plan_id":"cebpf4jnsgd1na2vs0mg"},{"bike_id":"183bd07a-7991-4229-80ae-a505e5330f36","system_id":"levelo_inurba_marseille","lat":43.28727,"lon":5.36078,"is_reserved":false,"is_disabled":false,"rental_uris":{"android":"levelo://app?vid=183bd07a-7991-4229-80ae-a505e5330f36","ios":"levelo://app?vid=183bd07a-7991-4229-80ae-a505e5330f36"},"vehicle_type_id":"4","last_reported":1721668016,"current_range_meters":14400,"station_id":"cki0cbj6b192h4jlfktg","pricing_plan_id":"cebpf4jnsgd1na2vs0mg"},{"bike_id":"21863f93-e7eb-44f6-8f3c-c33da5105737","system_id":"levelo_inurba_marseille","lat":43.298663,"lon":5.3973,"is_reserved":false,"is_disabled":false,"rental_uris":{"android":"levelo://app?vid=21863f93-e7eb-44f6-8f3c-c33da5105737","ios":"levelo://app?vid=21863f93-e7eb-44f6-8f3c-c33da5105737"},"vehicle_type_id":"4","last_reported":1721668016,"current_range_meters":0,"station_id":"ce4bh0h2rcd13ifvqd50","pricing_plan_id":"cebpf4jnsgd1na2vs0mg"},{"bike_id":"169dec52-287d-4d61-86cc-02cd09b86183","system_id":"levelo_inurba_marseille","lat":43.286961,"lon":5.373785,"is_reserved":false,"is_disabled":false,"rental_uris":{"android":"levelo://app?vid=169dec52-287d-4d61-86cc-02cd09b86183","ios":"levelo://app?vid=169dec52-287d-4d61-86cc-02cd09b86183"},"vehicle_type_id":"4","last_reported":1721668016,"current_range_meters":0,"station_id":"ce4bh3p2rcd13ifvqdq0","pricing_plan_id":"cebpf4jnsgd1na2vs0mg"},{"bike_id":"9f7de186-b061-42de-be89-1bf27f93ca38","system_id":"levelo_inurba_marseille","lat":43.286961,"lon":5.373785,"is_reserved":false,"is_disabled":false,"rental_uris":{"android":"levelo://app?vid=9f7de186-b061-42de-be89-1bf27f93ca38","ios":"levelo://app?vid=9f7de186-b061-42de-be89-1bf27f93ca38"},"vehicle_type_id":"4","last_reported":1721668016,"current_range_meters":9200,"station_id":"ce4bh3p2rcd13ifvqdq0","pricing_plan_id":"cebpf4jnsgd1na2vs0mg"},{"bike_id":"2e1b1526-31ad-469f-a5b9-100da58b7bae","system_id":"levelo_inurba_marseille","lat":43.286593,"lon":5.363346,"is_reserved":false,"is_disabled":false,"rental_uris":{"android":"levelo://app?vid=2e1b1526-31ad-469f-a5b9-100da58b7bae","ios":"levelo://app?vid=2e1b1526-31ad-469f-a5b9-100da58b7bae"},"vehicle_type_id":"4","last_reported":1721668016,"current_range_meters":24000,"station_id":"ce4bhah2rcd13ifvqej0","pricing_plan_id":"cebpf4jnsgd1na2vs0mg"},{"bike_id":"7f1a616d-e41f-4783-aff7-ec8fe8995318","system_id":"levelo_inurba_marseille","lat":43.286593,"lon":5.363346,"is_reserved":false,"is_disabled":false,"rental_uris":{"android":"levelo://app?vid=7f1a616d-e41f-4783-aff7-ec8fe8995318","ios":"levelo://app?vid=7f1a616d-e41f-4783-aff7-ec8fe8995318"},"vehicle_type_id":"4","last_reported":1721668016,"current_range_meters":20000,"station_id":"ce4bhah2rcd13ifvqej0","pricing_plan_id":"cebpf4jnsgd1na2vs0mg"},{"bike_id":"e8bf7309-2199-4fba-8c08-dcba16e01481","system_id":"levelo_inurba_marseille","lat":43.290336,"lon":5.386425,"is_reserved":false,"is_disabled":false,"rental_uris":{"android":"levelo://app?vid=e8bf7309-2199-4fba-8c08-dcba16e01481","ios":"levelo://app?vid=e8bf7309-2199-4fba-8c08-dcba16e01481"},"vehicle_type_id":"4","last_reported":1721668016,"current_range_meters":3200,"station_id":"ce4bh4p2rcd13ifvqe0g","pricing_plan_id":"cebpf4jnsgd1na2vs0mg"},{"bike_id":"3c98e880-e857-4c53-8fcf-1e03f633164d","system_id":"levelo_inurba_marseille","lat":43.29029,"lon":5.38639,"is_reserved":false,"is_disabled":false,"rental_uris":{"android":"levelo://app?vid=3c98e880-e857-4c53-8fcf-1e03f633164d","ios":"levelo://app?vid=3c98e880-e857-4c53-8fcf-1e03f633164d"},"vehicle_type_id":"4","last_reported":1721668016,"current_range_meters":3200,"station_id":"ce4bh4p2rcd13ifvqe0g","pricing_plan_id":"cebpf4jnsgd1na2vs0mg"},{"bike_id":"0143013b-9f15-43d2-92f8-0a4e2c99ccdf","system_id":"levelo_inurba_marseille","lat":43.290225,"lon":5.386375,"is_reserved":false,"is_disabled":false,"rental_uris":{"android":"levelo://app?vid=0143013b-9f15-43d2-92f8-0a4e2c99ccdf","ios":"levelo://app?vid=0143013b-9f15-43d2-92f8-0a4e2c99ccdf"},"vehicle_type_id":"4","last_reported":1721668016,"current_range_meters":0,"station_id":"ce4bh4p2rcd13ifvqe0g","pricing_plan_id":"cebpf4jnsgd1na2vs0mg"},{"bike_id":"5b9aae70-e1f5-4bbf-9326-ed07be2779fc","system_id":"levelo_inurba_marseille","lat":43.302759,"lon":5.400793,"is_reserved":false,"is_disabled":false,"rental_uris":{"android":"levelo://app?vid=5b9aae70-e1f5-4bbf-9326-ed07be2779fc","ios":"levelo://app?vid=5b9aae70-e1f5-4bbf-9326-ed07be2779fc"},"vehicle_type_id":"4","last_reported":1721668016,"current_range_meters":11200,"station_id":"ce4bgvh2rcd13ifvqcs0","pricing_plan_id":"cebpf4jnsgd1na2vs0mg"},{"bike_id":"9e50425a-170d-49f7-b427-e816d913e4d9","system_id":"levelo_inurba_marseille","lat":43.2873,"lon":5.3794,"is_reserved":false,"is_disabled":false,"rental_uris":{"android":"levelo://app?vid=9e50425a-170d-49f7-b427-e816d913e4d9","ios":"levelo://app?vid=9e50425a-170d-49f7-b427-e816d913e4d9"},"vehicle_type_id":"4","last_reported":1721668016,"current_range_meters":16800,"station_id":"ce4bh9p2rcd13ifvqec0","pricing_plan_id":"cebpf4jnsgd1na2vs0mg"},{"bike_id":"66c67e35-c029-4a5a-a151-2b9e3795af33","system_id":"levelo_inurba_marseille","lat":43.28721,"lon":5.37938,"is_reserved":false,"is_disabled":false,"rental_uris":{"android":"levelo://app?vid=66c67e35-c029-4a5a-a151-2b9e3795af33","ios":"levelo://app?vid=66c67e35-c029-4a5a-a151-2b9e3795af33"},"vehicle_type_id":"4","last_reported":1721668016,"current_range_meters":800,"station_id":"ce4bh9p2rcd13ifvqec0","pricing_plan_id":"cebpf4jnsgd1na2vs0mg"},{"bike_id":"2e2806db-ff8b-415a-b493-3e124efa7223","system_id":"levelo_inurba_marseille","lat":43.287184,"lon":5.37937,"is_reserved":false,"is_disabled":false,"rental_uris":{"android":"levelo://app?vid=2e2806db-ff8b-415a-b493-3e124efa7223","ios":"levelo://app?vid=2e2806db-ff8b-415a-b493-3e124efa7223"},"vehicle_type_id":"4","last_reported":1721668016,"current_range_meters":0,"station_id":"ce4bh9p2rcd13ifvqec0","pricing_plan_id":"cebpf4jnsgd1na2vs0mg"},{"bike_id":"0321fbb6-be1d-412d-b2c9-60c5cb75fe21","system_id":"levelo_inurba_marseille","lat":43.316828,"lon":5.404723,"is_reserved":false,"is_disabled":false,"rental_uris":{"android":"levelo://app?vid=0321fbb6-be1d-412d-b2c9-60c5cb75fe21","ios":"levelo://app?vid=0321fbb6-be1d-412d-b2c9-60c5cb75fe21"},"vehicle_type_id":"4","last_reported":1721668016,"current_range_meters":0,"station_id":"ce4bh012rcd13ifvqd00","pricing_plan_id":"cebpf4jnsgd1na2vs0mg"},{"bike_id":"2f5e654d-3d49-41e2-b9ce-16acec512368","system_id":"levelo_inurba_marseille","lat":43.284538,"lon":5.358657,"is_reserved":false,"is_disabled":false,"rental_uris":{"android":"levelo://app?vid=2f5e654d-3d49-41e2-b9ce-16acec512368","ios":"levelo://app?vid=2f5e654d-3d49-41e2-b9ce-16acec512368"},"vehicle_type_id":"4","last_reported":1721668016,"current_range_meters":800,"station_id":"ce4bhah2rcd13ifvqei0","pricing_plan_id":"cebpf4jnsgd1na2vs0mg"},{"bike_id":"7fe19932-3f4a-485c-8800-08ac24e2f080","system_id":"levelo_inurba_marseille","lat":43.28465,"lon":5.35893,"is_reserved":false,"is_disabled":false,"rental_uris":{"android":"levelo://app?vid=7fe19932-3f4a-485c-8800-08ac24e2f080","ios":"levelo://app?vid=7fe19932-3f4a-485c-8800-08ac24e2f080"},"vehicle_type_id":"4","last_reported":1721668016,"current_range_meters":0,"station_id":"ce4bhah2rcd13ifvqei0","pricing_plan_id":"cebpf4jnsgd1na2vs0mg"},{"bike_id":"c6b46000-96bd-4eb1-b726-809258fd638e","system_id":"levelo_inurba_marseille","lat":43.294314,"lon":5.397498,"is_reserved":false,"is_disabled":false,"rental_uris":{"android":"levelo://app?vid=c6b46000-96bd-4eb1-b726-809258fd638e","ios":"levelo://app?vid=c6b46000-96bd-4eb1-b726-809258fd638e"},"vehicle_type_id":"4","last_reported":1721668016,"current_range_meters":0,"station_id":"ce4bh3h2rcd13ifvqdo0","pricing_plan_id":"cebpf4jnsgd1na2vs0mg"},{"bike_id":"f5035d1f-26c4-4c5e-bcd3-9c034d6376cb","system_id":"levelo_inurba_marseille","lat":43.29437,"lon":5.397553,"is_reserved":false,"is_disabled":false,"rental_uris":{"android":"levelo://app?vid=f5035d1f-26c4-4c5e-bcd3-9c034d6376cb","ios":"levelo://app?vid=f5035d1f-26c4-4c5e-bcd3-9c034d6376cb"},"vehicle_type_id":"4","last_reported":1721668016,"current_range_meters":0,"station_id":"ce4bh3h2rcd13ifvqdo0","pricing_plan_id":"cebpf4jnsgd1na2vs0mg"},{"bike_id":"31ee7515-d163-4f01-811b-081a2711a9c2","system_id":"levelo_inurba_marseille","lat":43.2862,"lon":5.35104,"is_reserved":false,"is_disabled":false,"rental_uris":{"android":"levelo://app?vid=31ee7515-d163-4f01-811b-081a2711a9c2","ios":"levelo://app?vid=31ee7515-d163-4f01-811b-081a2711a9c2"},"vehicle_type_id":"4","last_reported":1721668016,"current_range_meters":0,"station_id":"ce4bhch2rcd13ifvqeug","pricing_plan_id":"cebpf4jnsgd1na2vs0mg"},{"bike_id":"370693e0-c497-4885-89a3-81f7f27dfbfc","system_id":"levelo_inurba_marseille","lat":43.28617,"lon":5.35104,"is_reserved":false,"is_disabled":false,"rental_uris":{"android":"levelo://app?vid=370693e0-c497-4885-89a3-81f7f27dfbfc","ios":"levelo://app?vid=370693e0-c497-4885-89a3-81f7f27dfbfc"},"vehicle_type_id":"4","last_reported":1721668016,"current_range_meters":14400,"station_id":"ce4bhch2rcd13ifvqeug","pricing_plan_id":"cebpf4jnsgd1na2vs0mg"},{"bike_id":"201516f5-6b07-4b29-8055-4f7a403c7a96","system_id":"levelo_inurba_marseille","lat":43.28618,"lon":5.351,"is_reserved":false,"is_disabled":false,"rental_uris":{"android":"levelo://app?vid=201516f5-6b07-4b29-8055-4f7a403c7a96","ios":"levelo://app?vid=201516f5-6b07-4b29-8055-4f7a403c7a96"},"vehicle_type_id":"4","last_reported":1721668016,"current_range_meters":0,"station_id":"ce4bhch2rcd13ifvqeug","pricing_plan_id":"cebpf4jnsgd1na2vs0mg"},{"bike_id":"8491823d-9fe0-47e0-b188-371dfe709026","system_id":"levelo_inurba_marseille","lat":43.28615,"lon":5.35106,"is_reserved":false,"is_disabled":false,"rental_uris":{"android":"levelo://app?vid=8491823d-9fe0-47e0-b188-371dfe709026","ios":"levelo://app?vid=8491823d-9fe0-47e0-b188-371dfe709026"},"vehicle_type_id":"4","last_reported":1721668016,"current_range_meters":8000,"station_id":"ce4bhch2rcd13ifvqeug","pricing_plan_id":"cebpf4jnsgd1na2vs0mg"},{"bike_id":"93736cea-93bb-4a92-97b6-b83e675e7f4d","system_id":"levelo_inurba_marseille","lat":43.28614,"lon":5.351,"is_reserved":false,"is_disabled":false,"rental_uris":{"android":"levelo://app?vid=93736cea-93bb-4a92-97b6-b83e675e7f4d","ios":"levelo://app?vid=93736cea-93bb-4a92-97b6-b83e675e7f4d"},"vehicle_type_id":"4","last_reported":1721668016,"current_range_meters":0,"station_id":"ce4bhch2rcd13ifvqeug","pricing_plan_id":"cebpf4jnsgd1na2vs0mg"},{"bike_id":"09ef0bd5-e4e1-4709-b68f-99eeee3ab66f","system_id":"levelo_inurba_marseille","lat":43.28614,"lon":5.35098,"is_reserved":false,"is_disabled":false,"rental_uris":{"android":"levelo://app?vid=09ef0bd5-e4e1-4709-b68f-99eeee3ab66f","ios":"levelo://app?vid=09ef0bd5-e4e1-4709-b68f-99eeee3ab66f"},"vehicle_type_id":"4","last_reported":1721668016,"current_range_meters":23600,"station_id":"ce4bhch2rcd13ifvqeug","pricing_plan_id":"cebpf4jnsgd1na2vs0mg"},{"bike_id":"84b1a022-c5a0-4484-9e9d-45bbbf9c8595","system_id":"levelo_inurba_marseille","lat":43.285848,"lon":5.350787,"is_reserved":false,"is_disabled":false,"rental_uris":{"android":"levelo://app?vid=84b1a022-c5a0-4484-9e9d-45bbbf9c8595","ios":"levelo://app?vid=84b1a022-c5a0-4484-9e9d-45bbbf9c8595"},"vehicle_type_id":"4","last_reported":1721668016,"current_range_meters":20400,"station_id":"ce4bhch2rcd13ifvqeug","pricing_plan_id":"cebpf4jnsgd1na2vs0mg"},{"bike_id":"cc3fb089-8d0e-4dd9-9c4d-a61717135a41","system_id":"levelo_inurba_marseille","lat":43.283998,"lon":5.375062,"is_reserved":false,"is_disabled":false,"rental_uris":{"android":"levelo://app?vid=cc3fb089-8d0e-4dd9-9c4d-a61717135a41","ios":"levelo://app?vid=cc3fb089-8d0e-4dd9-9c4d-a61717135a41"},"vehicle_type_id":"4","last_reported":1721668016,"current_range_meters":0,"station_id":"ce4bh412rcd13ifvqds0","pricing_plan_id":"cebpf4jnsgd1na2vs0mg"},{"bike_id":"4d1c2bd0-b8dc-4718-a460-a09ba75c6ddb","system_id":"levelo_inurba_marseille","lat":43.283998,"lon":5.375062,"is_reserved":false,"is_disabled":false,"rental_uris":{"android":"levelo://app?vid=4d1c2bd0-b8dc-4718-a460-a09ba75c6ddb","ios":"levelo://app?vid=4d1c2bd0-b8dc-4718-a460-a09ba75c6ddb"},"vehicle_type_id":"4","last_reported":1721668016,"current_range_meters":0,"station_id":"ce4bh412rcd13ifvqds0","pricing_plan_id":"cebpf4jnsgd1na2vs0mg"},{"bike_id":"45697de5-4101-464a-bba6-f0f60100d232","system_id":"levelo_inurba_marseille","lat":43.283998,"lon":5.375062,"is_reserved":false,"is_disabled":false,"rental_uris":{"android":"levelo://app?vid=45697de5-4101-464a-bba6-f0f60100d232","ios":"levelo://app?vid=45697de5-4101-464a-bba6-f0f60100d232"},"vehicle_type_id":"4","last_reported":1721668016,"current_range_meters":26800,"station_id":"ce4bh412rcd13ifvqds0","pricing_plan_id":"cebpf4jnsgd1na2vs0mg"},{"bike_id":"c8682c92-7f3a-4825-aa07-c9c3e19d7fcc","system_id":"levelo_inurba_marseille","lat":43.286,"lon":5.38425,"is_reserved":false,"is_disabled":false,"rental_uris":{"android":"levelo://app?vid=c8682c92-7f3a-4825-aa07-c9c3e19d7fcc","ios":"levelo://app?vid=c8682c92-7f3a-4825-aa07-c9c3e19d7fcc"},"vehicle_type_id":"4","last_reported":1721668016,"current_range_meters":16800,"station_id":"","pricing_plan_id":"cebpf4jnsgd1na2vs0mg"},{"bike_id":"ecf70f86-2a87-4825-98e6-42db1f69efaa","system_id":"levelo_inurba_marseille","lat":43.28681,"lon":5.38659,"is_reserved":false,"is_disabled":false,"rental_uris":{"android":"levelo://app?vid=ecf70f86-2a87-4825-98e6-42db1f69efaa","ios":"levelo://app?vid=ecf70f86-2a87-4825-98e6-42db1f69efaa"},"vehicle_type_id":"4","last_reported":1721668016,"current_range_meters":0,"station_id":"ce4bh492rcd13ifvqdug","pricing_plan_id":"cebpf4jnsgd1na2vs0mg"},{"bike_id":"9cd14c06-879c-4e0e-810f-00c141bc8d8c","system_id":"levelo_inurba_marseille","lat":43.284787,"lon":5.384116,"is_reserved":false,"is_disabled":false,"rental_uris":{"android":"levelo://app?vid=9cd14c06-879c-4e0e-810f-00c141bc8d8c","ios":"levelo://app?vid=9cd14c06-879c-4e0e-810f-00c141bc8d8c"},"vehicle_type_id":"4","last_reported":1721668016,"current_range_meters":0,"station_id":"ce4bh512rcd13ifvqe3g","pricing_plan_id":"cebpf4jnsgd1na2vs0mg"},{"bike_id":"7620770a-e67f-492f-b512-2f9b515e0b05","system_id":"levelo_inurba_marseille","lat":43.288497,"lon":5.393089,"is_reserved":false,"is_disabled":false,"rental_uris":{"android":"levelo://app?vid=7620770a-e67f-492f-b512-2f9b515e0b05","ios":"levelo://app?vid=7620770a-e67f-492f-b512-2f9b515e0b05"},"vehicle_type_id":"4","last_reported":1721668016,"current_range_meters":12800,"station_id":"ce4bh2p2rcd13ifvqdi0","pricing_plan_id":"cebpf4jnsgd1na2vs0mg"},{"bike_id":"3c3ce549-7dd5-4710-bde7-bbd4731547f3","system_id":"levelo_inurba_marseille","lat":43.284793,"lon":5.384119,"is_reserved":false,"is_disabled":false,"rental_uris":{"android":"levelo://app?vid=3c3ce549-7dd5-4710-bde7-bbd4731547f3","ios":"levelo://app?vid=3c3ce549-7dd5-4710-bde7-bbd4731547f3"},"vehicle_type_id":"4","last_reported":1721668016,"current_range_meters":4800,"station_id":"ce4bh512rcd13ifvqe3g","pricing_plan_id":"cebpf4jnsgd1na2vs0mg"},{"bike_id":"ed55da08-edcf-49ec-9802-b6315096d56f","system_id":"levelo_inurba_marseille","lat":43.284793,"lon":5.384119,"is_reserved":false,"is_disabled":false,"rental_uris":{"android":"levelo://app?vid=ed55da08-edcf-49ec-9802-b6315096d56f","ios":"levelo://app?vid=ed55da08-edcf-49ec-9802-b6315096d56f"},"vehicle_type_id":"4","last_reported":1721668016,"current_range_meters":2800,"station_id":"ce4bh512rcd13ifvqe3g","pricing_plan_id":"cebpf4jnsgd1na2vs0mg"},{"bike_id":"efd2e9f2-59e5-4d42-9a40-a817fe10f96f","system_id":"levelo_inurba_marseille","lat":43.288501,"lon":5.393087,"is_reserved":false,"is_disabled":false,"rental_uris":{"android":"levelo://app?vid=efd2e9f2-59e5-4d42-9a40-a817fe10f96f","ios":"levelo://app?vid=efd2e9f2-59e5-4d42-9a40-a817fe10f96f"},"vehicle_type_id":"4","last_reported":1721668016,"current_range_meters":0,"station_id":"ce4bh2p2rcd13ifvqdi0","pricing_plan_id":"cebpf4jnsgd1na2vs0mg"},{"bike_id":"72c18084-5642-4a1e-b9b4-b556b054d647","system_id":"levelo_inurba_marseille","lat":43.283494,"lon":5.380945,"is_reserved":false,"is_disabled":false,"rental_uris":{"android":"levelo://app?vid=72c18084-5642-4a1e-b9b4-b556b054d647","ios":"levelo://app?vid=72c18084-5642-4a1e-b9b4-b556b054d647"},"vehicle_type_id":"4","last_reported":1721668016,"current_range_meters":8800,"station_id":"ce4bh412rcd13ifvqdr0","pricing_plan_id":"cebpf4jnsgd1na2vs0mg"},{"bike_id":"d81cf05d-4c41-4339-b91a-35ec39ee6f0b","system_id":"levelo_inurba_marseille","lat":43.28434,"lon":5.34995,"is_reserved":false,"is_disabled":false,"rental_uris":{"android":"levelo://app?vid=d81cf05d-4c41-4339-b91a-35ec39ee6f0b","ios":"levelo://app?vid=d81cf05d-4c41-4339-b91a-35ec39ee6f0b"},"vehicle_type_id":"4","last_reported":1721668016,"current_range_meters":19200,"station_id":"ce4bhbh2rcd13ifvqepg","pricing_plan_id":"cebpf4jnsgd1na2vs0mg"},{"bike_id":"539d8e09-3c12-4aa3-9666-f87d504eeb24","system_id":"levelo_inurba_marseille","lat":43.284776,"lon":5.385603,"is_reserved":false,"is_disabled":false,"rental_uris":{"android":"levelo://app?vid=539d8e09-3c12-4aa3-9666-f87d504eeb24","ios":"levelo://app?vid=539d8e09-3c12-4aa3-9666-f87d504eeb24"},"vehicle_type_id":"4","last_reported":1721668016,"current_range_meters":0,"station_id":"ce4bh8p2rcd13ifvqeb0","pricing_plan_id":"cebpf4jnsgd1na2vs0mg"},{"bike_id":"ce9f8714-83f6-4fce-911f-e92437f09449","system_id":"levelo_inurba_marseille","lat":43.284214,"lon":5.349706,"is_reserved":false,"is_disabled":false,"rental_uris":{"android":"levelo://app?vid=ce9f8714-83f6-4fce-911f-e92437f09449","ios":"levelo://app?vid=ce9f8714-83f6-4fce-911f-e92437f09449"},"vehicle_type_id":"4","last_reported":1721668016,"current_range_meters":28400,"station_id":"ce4bhbh2rcd13ifvqepg","pricing_plan_id":"cebpf4jnsgd1na2vs0mg"},{"bike_id":"b221b380-0549-4c3c-b42c-9d6dddb8e808","system_id":"levelo_inurba_marseille","lat":43.28429,"lon":5.34983,"is_reserved":false,"is_disabled":false,"rental_uris":{"android":"levelo://app?vid=b221b380-0549-4c3c-b42c-9d6dddb8e808","ios":"levelo://app?vid=b221b380-0549-4c3c-b42c-9d6dddb8e808"},"vehicle_type_id":"4","last_reported":1721668016,"current_range_meters":29600,"station_id":"ce4bhbh2rcd13ifvqepg","pricing_plan_id":"cebpf4jnsgd1na2vs0mg"},{"bike_id":"39968a2c-1fb0-488c-a2f4-559a5c61c96d","system_id":"levelo_inurba_marseille","lat":43.284219,"lon":5.3497,"is_reserved":false,"is_disabled":false,"rental_uris":{"android":"levelo://app?vid=39968a2c-1fb0-488c-a2f4-559a5c61c96d","ios":"levelo://app?vid=39968a2c-1fb0-488c-a2f4-559a5c61c96d"},"vehicle_type_id":"4","last_reported":1721668016,"current_range_meters":31200,"station_id":"ce4bhbh2rcd13ifvqepg","pricing_plan_id":"cebpf4jnsgd1na2vs0mg"},{"bike_id":"eaa36c80-68e8-406c-8e36-81a7c389ec01","system_id":"levelo_inurba_marseille","lat":43.284219,"lon":5.3497,"is_reserved":false,"is_disabled":false,"rental_uris":{"android":"levelo://app?vid=eaa36c80-68e8-406c-8e36-81a7c389ec01","ios":"levelo://app?vid=eaa36c80-68e8-406c-8e36-81a7c389ec01"},"vehicle_type_id":"4","last_reported":1721668016,"current_range_meters":8000,"station_id":"ce4bhbh2rcd13ifvqepg","pricing_plan_id":"cebpf4jnsgd1na2vs0mg"},{"bike_id":"20282203-5aef-49ac-8579-44c6554ed05f","system_id":"levelo_inurba_marseille","lat":43.28424,"lon":5.34988,"is_reserved":false,"is_disabled":false,"rental_uris":{"android":"levelo://app?vid=20282203-5aef-49ac-8579-44c6554ed05f","ios":"levelo://app?vid=20282203-5aef-49ac-8579-44c6554ed05f"},"vehicle_type_id":"4","last_reported":1721668016,"current_range_meters":1200,"station_id":"ce4bhbh2rcd13ifvqepg","pricing_plan_id":"cebpf4jnsgd1na2vs0mg"},{"bike_id":"3a94babe-bbaf-43cb-afc2-61136e833c85","system_id":"levelo_inurba_marseille","lat":43.284252,"lon":5.349819,"is_reserved":false,"is_disabled":false,"rental_uris":{"android":"levelo://app?vid=3a94babe-bbaf-43cb-afc2-61136e833c85","ios":"levelo://app?vid=3a94babe-bbaf-43cb-afc2-61136e833c85"},"vehicle_type_id":"4","last_reported":1721668016,"current_range_meters":22400,"station_id":"ce4bhbh2rcd13ifvqepg","pricing_plan_id":"cebpf4jnsgd1na2vs0mg"},{"bike_id":"965a7451-b428-44da-bb4b-3e9eb059f318","system_id":"levelo_inurba_marseille","lat":43.284219,"lon":5.3497,"is_reserved":false,"is_disabled":false,"rental_uris":{"android":"levelo://app?vid=965a7451-b428-44da-bb4b-3e9eb059f318","ios":"levelo://app?vid=965a7451-b428-44da-bb4b-3e9eb059f318"},"vehicle_type_id":"4","last_reported":1721668016,"current_range_meters":31200,"station_id":"ce4bhbh2rcd13ifvqepg","pricing_plan_id":"cebpf4jnsgd1na2vs0mg"},{"bike_id":"065a139d-1d8f-48af-badf-69905263185d","system_id":"levelo_inurba_marseille","lat":43.28422,"lon":5.349887,"is_reserved":false,"is_disabled":false,"rental_uris":{"android":"levelo://app?vid=065a139d-1d8f-48af-badf-69905263185d","ios":"levelo://app?vid=065a139d-1d8f-48af-badf-69905263185d"},"vehicle_type_id":"4","last_reported":1721668016,"current_range_meters":6400,"station_id":"ce4bhbh2rcd13ifvqepg","pricing_plan_id":"cebpf4jnsgd1na2vs0mg"},{"bike_id":"b26ad397-5fec-43df-8362-0896b8c1dbb0","system_id":"levelo_inurba_marseille","lat":43.284217,"lon":5.349697,"is_reserved":false,"is_disabled":false,"rental_uris":{"android":"levelo://app?vid=b26ad397-5fec-43df-8362-0896b8c1dbb0","ios":"levelo://app?vid=b26ad397-5fec-43df-8362-0896b8c1dbb0"},"vehicle_type_id":"4","last_reported":1721668016,"current_range_meters":400,"station_id":"ce4bhbh2rcd13ifvqepg","pricing_plan_id":"cebpf4jnsgd1na2vs0mg"},{"bike_id":"a69c4304-14df-4e38-a3a7-ac68df330303","system_id":"levelo_inurba_marseille","lat":43.28422,"lon":5.34984,"is_reserved":false,"is_disabled":false,"rental_uris":{"android":"levelo://app?vid=a69c4304-14df-4e38-a3a7-ac68df330303","ios":"levelo://app?vid=a69c4304-14df-4e38-a3a7-ac68df330303"},"vehicle_type_id":"4","last_reported":1721668016,"current_range_meters":10800,"station_id":"ce4bhbh2rcd13ifvqepg","pricing_plan_id":"cebpf4jnsgd1na2vs0mg"},{"bike_id":"f9a43cc8-3e88-47c2-93a8-f61ff586b2f2","system_id":"levelo_inurba_marseille","lat":43.284214,"lon":5.349847,"is_reserved":false,"is_disabled":false,"rental_uris":{"android":"levelo://app?vid=f9a43cc8-3e88-47c2-93a8-f61ff586b2f2","ios":"levelo://app?vid=f9a43cc8-3e88-47c2-93a8-f61ff586b2f2"},"vehicle_type_id":"4","last_reported":1721668016,"current_range_meters":27600,"station_id":"ce4bhbh2rcd13ifvqepg","pricing_plan_id":"cebpf4jnsgd1na2vs0mg"},{"bike_id":"4fa0505e-8db3-492b-9b18-b4cdba3b5f6d","system_id":"levelo_inurba_marseille","lat":43.294495,"lon":5.401575,"is_reserved":false,"is_disabled":false,"rental_uris":{"android":"levelo://app?vid=4fa0505e-8db3-492b-9b18-b4cdba3b5f6d","ios":"levelo://app?vid=4fa0505e-8db3-492b-9b18-b4cdba3b5f6d"},"vehicle_type_id":"4","last_reported":1721668016,"current_range_meters":2800,"station_id":"","pricing_plan_id":"cebpf4jnsgd1na2vs0mg"},{"bike_id":"f1e8bf61-2410-44cb-8a27-289e678a1987","system_id":"levelo_inurba_marseille","lat":43.284213,"lon":5.349823,"is_reserved":false,"is_disabled":false,"rental_uris":{"android":"levelo://app?vid=f1e8bf61-2410-44cb-8a27-289e678a1987","ios":"levelo://app?vid=f1e8bf61-2410-44cb-8a27-289e678a1987"},"vehicle_type_id":"4","last_reported":1721668016,"current_range_meters":0,"station_id":"ce4bhbh2rcd13ifvqepg","pricing_plan_id":"cebpf4jnsgd1na2vs0mg"},{"bike_id":"d59f83f6-298f-4b7e-acee-3782f700593d","system_id":"levelo_inurba_marseille","lat":43.284177,"lon":5.34991,"is_reserved":false,"is_disabled":false,"rental_uris":{"android":"levelo://app?vid=d59f83f6-298f-4b7e-acee-3782f700593d","ios":"levelo://app?vid=d59f83f6-298f-4b7e-acee-3782f700593d"},"vehicle_type_id":"4","last_reported":1721668016,"current_range_meters":0,"station_id":"ce4bhbh2rcd13ifvqepg","pricing_plan_id":"cebpf4jnsgd1na2vs0mg"},{"bike_id":"908bd6b8-a1cd-4d10-8cc0-a951a12e79f5","system_id":"levelo_inurba_marseille","lat":43.28417,"lon":5.34989,"is_reserved":false,"is_disabled":false,"rental_uris":{"android":"levelo://app?vid=908bd6b8-a1cd-4d10-8cc0-a951a12e79f5","ios":"levelo://app?vid=908bd6b8-a1cd-4d10-8cc0-a951a12e79f5"},"vehicle_type_id":"4","last_reported":1721668016,"current_range_meters":6000,"station_id":"ce4bhbh2rcd13ifvqepg","pricing_plan_id":"cebpf4jnsgd1na2vs0mg"},{"bike_id":"15aaf9bd-7dd4-402c-b647-769f2e662456","system_id":"levelo_inurba_marseille","lat":43.284197,"lon":5.3498,"is_reserved":false,"is_disabled":false,"rental_uris":{"android":"levelo://app?vid=15aaf9bd-7dd4-402c-b647-769f2e662456","ios":"levelo://app?vid=15aaf9bd-7dd4-402c-b647-769f2e662456"},"vehicle_type_id":"4","last_reported":1721668016,"current_range_meters":0,"station_id":"ce4bhbh2rcd13ifvqepg","pricing_plan_id":"cebpf4jnsgd1na2vs0mg"},{"bike_id":"6e26f9b0-fd12-430d-99b8-fb6d7c8e982e","system_id":"levelo_inurba_marseille","lat":43.28416,"lon":5.34988,"is_reserved":false,"is_disabled":false,"rental_uris":{"android":"levelo://app?vid=6e26f9b0-fd12-430d-99b8-fb6d7c8e982e","ios":"levelo://app?vid=6e26f9b0-fd12-430d-99b8-fb6d7c8e982e"},"vehicle_type_id":"4","last_reported":1721668016,"current_range_meters":0,"station_id":"ce4bhbh2rcd13ifvqepg","pricing_plan_id":"cebpf4jnsgd1na2vs0mg"},{"bike_id":"8a85bd17-39a2-4386-ac53-a91dcef8784c","system_id":"levelo_inurba_marseille","lat":43.28418,"lon":5.34978,"is_reserved":false,"is_disabled":false,"rental_uris":{"android":"levelo://app?vid=8a85bd17-39a2-4386-ac53-a91dcef8784c","ios":"levelo://app?vid=8a85bd17-39a2-4386-ac53-a91dcef8784c"},"vehicle_type_id":"4","last_reported":1721668016,"current_range_meters":7200,"station_id":"ce4bhbh2rcd13ifvqepg","pricing_plan_id":"cebpf4jnsgd1na2vs0mg"},{"bike_id":"5d174365-4ac6-41c9-b2da-60d9c789887f","system_id":"levelo_inurba_marseille","lat":43.2841,"lon":5.34989,"is_reserved":false,"is_disabled":false,"rental_uris":{"android":"levelo://app?vid=5d174365-4ac6-41c9-b2da-60d9c789887f","ios":"levelo://app?vid=5d174365-4ac6-41c9-b2da-60d9c789887f"},"vehicle_type_id":"4","last_reported":1721668016,"current_range_meters":6400,"station_id":"ce4bhbh2rcd13ifvqepg","pricing_plan_id":"cebpf4jnsgd1na2vs0mg"},{"bike_id":"584e988e-42e0-484f-b027-978047d858a8","system_id":"levelo_inurba_marseille","lat":43.28411,"lon":5.34982,"is_reserved":false,"is_disabled":false,"rental_uris":{"android":"levelo://app?vid=584e988e-42e0-484f-b027-978047d858a8","ios":"levelo://app?vid=584e988e-42e0-484f-b027-978047d858a8"},"vehicle_type_id":"4","last_reported":1721668016,"current_range_meters":13600,"station_id":"ce4bhbh2rcd13ifvqepg","pricing_plan_id":"cebpf4jnsgd1na2vs0mg"},{"bike_id":"76e1cce3-1c12-47cd-a7f3-63998fe9f3e1","system_id":"levelo_inurba_marseille","lat":43.2841,"lon":5.34978,"is_reserved":false,"is_disabled":false,"rental_uris":{"android":"levelo://app?vid=76e1cce3-1c12-47cd-a7f3-63998fe9f3e1","ios":"levelo://app?vid=76e1cce3-1c12-47cd-a7f3-63998fe9f3e1"},"vehicle_type_id":"4","last_reported":1721668016,"current_range_meters":15600,"station_id":"ce4bhbh2rcd13ifvqepg","pricing_plan_id":"cebpf4jnsgd1na2vs0mg"},{"bike_id":"f2d8dc6d-8c26-4ddf-9475-28bcb821d70c","system_id":"levelo_inurba_marseille","lat":43.28409,"lon":5.349803,"is_reserved":false,"is_disabled":false,"rental_uris":{"android":"levelo://app?vid=f2d8dc6d-8c26-4ddf-9475-28bcb821d70c","ios":"levelo://app?vid=f2d8dc6d-8c26-4ddf-9475-28bcb821d70c"},"vehicle_type_id":"4","last_reported":1721668016,"current_range_meters":1600,"station_id":"ce4bhbh2rcd13ifvqepg","pricing_plan_id":"cebpf4jnsgd1na2vs0mg"},{"bike_id":"f0dd3d28-0309-40e7-bbb5-2b68a23564a0","system_id":"levelo_inurba_marseille","lat":43.284093,"lon":5.349783,"is_reserved":false,"is_disabled":false,"rental_uris":{"android":"levelo://app?vid=f0dd3d28-0309-40e7-bbb5-2b68a23564a0","ios":"levelo://app?vid=f0dd3d28-0309-40e7-bbb5-2b68a23564a0"},"vehicle_type_id":"4","last_reported":1721668016,"current_range_meters":12000,"station_id":"ce4bhbh2rcd13ifvqepg","pricing_plan_id":"cebpf4jnsgd1na2vs0mg"},{"bike_id":"ae397d2c-b5d0-4367-a1fc-0fde84a79d16","system_id":"levelo_inurba_marseille","lat":43.284214,"lon":5.349706,"is_reserved":false,"is_disabled":false,"rental_uris":{"android":"levelo://app?vid=ae397d2c-b5d0-4367-a1fc-0fde84a79d16","ios":"levelo://app?vid=ae397d2c-b5d0-4367-a1fc-0fde84a79d16"},"vehicle_type_id":"4","last_reported":1721668016,"current_range_meters":1200,"station_id":"ce4bhbh2rcd13ifvqepg","pricing_plan_id":"cebpf4jnsgd1na2vs0mg"},{"bike_id":"93b0751b-6809-432d-ba60-b395dc8a06d8","system_id":"levelo_inurba_marseille","lat":43.28408,"lon":5.34977,"is_reserved":false,"is_disabled":false,"rental_uris":{"android":"levelo://app?vid=93b0751b-6809-432d-ba60-b395dc8a06d8","ios":"levelo://app?vid=93b0751b-6809-432d-ba60-b395dc8a06d8"},"vehicle_type_id":"4","last_reported":1721668016,"current_range_meters":0,"station_id":"ce4bhbh2rcd13ifvqepg","pricing_plan_id":"cebpf4jnsgd1na2vs0mg"},{"bike_id":"1c57d565-043b-4cc8-adf3-5cb1f3119ecd","system_id":"levelo_inurba_marseille","lat":43.292644,"lon":5.384257,"is_reserved":false,"is_disabled":false,"rental_uris":{"android":"levelo://app?vid=1c57d565-043b-4cc8-adf3-5cb1f3119ecd","ios":"levelo://app?vid=1c57d565-043b-4cc8-adf3-5cb1f3119ecd"},"vehicle_type_id":"4","last_reported":1721668016,"current_range_meters":12000,"station_id":"ce4bh692rcd13ifvqea0","pricing_plan_id":"cebpf4jnsgd1na2vs0mg"},{"bike_id":"07c63484-35d0-4f82-b145-24cb9c3a3984","system_id":"levelo_inurba_marseille","lat":43.309455,"lon":5.410302,"is_reserved":false,"is_disabled":false,"rental_uris":{"android":"levelo://app?vid=07c63484-35d0-4f82-b145-24cb9c3a3984","ios":"levelo://app?vid=07c63484-35d0-4f82-b145-24cb9c3a3984"},"vehicle_type_id":"4","last_reported":1721668016,"current_range_meters":11600,"station_id":"","pricing_plan_id":"cebpf4jnsgd1na2vs0mg"},{"bike_id":"ca58cc32-cff3-4a46-860e-48c940df167a","system_id":"levelo_inurba_marseille","lat":43.292724,"lon":5.401131,"is_reserved":false,"is_disabled":false,"rental_uris":{"android":"levelo://app?vid=ca58cc32-cff3-4a46-860e-48c940df167a","ios":"levelo://app?vid=ca58cc32-cff3-4a46-860e-48c940df167a"},"vehicle_type_id":"4","last_reported":1721668016,"current_range_meters":0,"station_id":"ce4bh312rcd13ifvqdk0","pricing_plan_id":"cebpf4jnsgd1na2vs0mg"},{"bike_id":"3f5c43ff-2179-4345-b1b9-a1db7a644eb8","system_id":"levelo_inurba_marseille","lat":43.292724,"lon":5.401131,"is_reserved":false,"is_disabled":false,"rental_uris":{"android":"levelo://app?vid=3f5c43ff-2179-4345-b1b9-a1db7a644eb8","ios":"levelo://app?vid=3f5c43ff-2179-4345-b1b9-a1db7a644eb8"},"vehicle_type_id":"4","last_reported":1721668016,"current_range_meters":16400,"station_id":"ce4bh312rcd13ifvqdk0","pricing_plan_id":"cebpf4jnsgd1na2vs0mg"},{"bike_id":"e879dc80-6ad3-4795-ad4d-e783b6f605dc","system_id":"levelo_inurba_marseille","lat":43.28276,"lon":5.35064,"is_reserved":false,"is_disabled":false,"rental_uris":{"android":"levelo://app?vid=e879dc80-6ad3-4795-ad4d-e783b6f605dc","ios":"levelo://app?vid=e879dc80-6ad3-4795-ad4d-e783b6f605dc"},"vehicle_type_id":"4","last_reported":1721668016,"current_range_meters":0,"station_id":"ce4bhbp2rcd13ifvqerg","pricing_plan_id":"cebpf4jnsgd1na2vs0mg"},{"bike_id":"43d7b635-83d1-49fd-ab3b-d9dbee61a23c","system_id":"levelo_inurba_marseille","lat":43.282744,"lon":5.350533,"is_reserved":false,"is_disabled":false,"rental_uris":{"android":"levelo://app?vid=43d7b635-83d1-49fd-ab3b-d9dbee61a23c","ios":"levelo://app?vid=43d7b635-83d1-49fd-ab3b-d9dbee61a23c"},"vehicle_type_id":"4","last_reported":1721668016,"current_range_meters":1600,"station_id":"ce4bhbp2rcd13ifvqerg","pricing_plan_id":"cebpf4jnsgd1na2vs0mg"},{"bike_id":"b984174d-7a05-47dd-ab7c-116dc74bf590","system_id":"levelo_inurba_marseille","lat":43.28271,"lon":5.35068,"is_reserved":false,"is_disabled":false,"rental_uris":{"android":"levelo://app?vid=b984174d-7a05-47dd-ab7c-116dc74bf590","ios":"levelo://app?vid=b984174d-7a05-47dd-ab7c-116dc74bf590"},"vehicle_type_id":"4","last_reported":1721668016,"current_range_meters":0,"station_id":"ce4bhbp2rcd13ifvqerg","pricing_plan_id":"cebpf4jnsgd1na2vs0mg"},{"bike_id":"a4796d31-405d-443e-a4a7-f714acc3b0d7","system_id":"levelo_inurba_marseille","lat":43.28269,"lon":5.35063,"is_reserved":false,"is_disabled":false,"rental_uris":{"android":"levelo://app?vid=a4796d31-405d-443e-a4a7-f714acc3b0d7","ios":"levelo://app?vid=a4796d31-405d-443e-a4a7-f714acc3b0d7"},"vehicle_type_id":"4","last_reported":1721668016,"current_range_meters":0,"station_id":"ce4bhbp2rcd13ifvqerg","pricing_plan_id":"cebpf4jnsgd1na2vs0mg"},{"bike_id":"4da6b973-a14a-4688-babb-1ee8ad8693e3","system_id":"levelo_inurba_marseille","lat":43.28039,"lon":5.369297,"is_reserved":false,"is_disabled":false,"rental_uris":{"android":"levelo://app?vid=4da6b973-a14a-4688-babb-1ee8ad8693e3","ios":"levelo://app?vid=4da6b973-a14a-4688-babb-1ee8ad8693e3"},"vehicle_type_id":"4","last_reported":1721668016,"current_range_meters":10400,"station_id":"ce4bha12rcd13ifvqef0","pricing_plan_id":"cebpf4jnsgd1na2vs0mg"},{"bike_id":"5f6dbf46-3eec-47b9-bcd0-fcdd9ecceb5f","system_id":"levelo_inurba_marseille","lat":43.28259,"lon":5.350707,"is_reserved":false,"is_disabled":false,"rental_uris":{"android":"levelo://app?vid=5f6dbf46-3eec-47b9-bcd0-fcdd9ecceb5f","ios":"levelo://app?vid=5f6dbf46-3eec-47b9-bcd0-fcdd9ecceb5f"},"vehicle_type_id":"4","last_reported":1721668016,"current_range_meters":0,"station_id":"ce4bhbp2rcd13ifvqerg","pricing_plan_id":"cebpf4jnsgd1na2vs0mg"},{"bike_id":"a052e810-65db-48be-a74b-91bf1af04862","system_id":"levelo_inurba_marseille","lat":43.282599,"lon":5.350657,"is_reserved":false,"is_disabled":false,"rental_uris":{"android":"levelo://app?vid=a052e810-65db-48be-a74b-91bf1af04862","ios":"levelo://app?vid=a052e810-65db-48be-a74b-91bf1af04862"},"vehicle_type_id":"4","last_reported":1721668016,"current_range_meters":0,"station_id":"ce4bhbp2rcd13ifvqerg","pricing_plan_id":"cebpf4jnsgd1na2vs0mg"},{"bike_id":"c28c4ae7-c497-44fa-8dfd-21f35d998f7b","system_id":"levelo_inurba_marseille","lat":43.2804,"lon":5.36941,"is_reserved":false,"is_disabled":false,"rental_uris":{"android":"levelo://app?vid=c28c4ae7-c497-44fa-8dfd-21f35d998f7b","ios":"levelo://app?vid=c28c4ae7-c497-44fa-8dfd-21f35d998f7b"},"vehicle_type_id":"4","last_reported":1721668016,"current_range_meters":0,"station_id":"ce4bha12rcd13ifvqef0","pricing_plan_id":"cebpf4jnsgd1na2vs0mg"},{"bike_id":"db6d8ff6-6fd7-467f-b43d-7b6acbcc502f","system_id":"levelo_inurba_marseille","lat":43.280382,"lon":5.369291,"is_reserved":false,"is_disabled":false,"rental_uris":{"android":"levelo://app?vid=db6d8ff6-6fd7-467f-b43d-7b6acbcc502f","ios":"levelo://app?vid=db6d8ff6-6fd7-467f-b43d-7b6acbcc502f"},"vehicle_type_id":"4","last_reported":1721668016,"current_range_meters":11200,"station_id":"ce4bha12rcd13ifvqef0","pricing_plan_id":"cebpf4jnsgd1na2vs0mg"},{"bike_id":"218b0f2d-c5df-426b-a250-8018dbf4ed61","system_id":"levelo_inurba_marseille","lat":43.28039,"lon":5.369297,"is_reserved":false,"is_disabled":false,"rental_uris":{"android":"levelo://app?vid=218b0f2d-c5df-426b-a250-8018dbf4ed61","ios":"levelo://app?vid=218b0f2d-c5df-426b-a250-8018dbf4ed61"},"vehicle_type_id":"4","last_reported":1721668016,"current_range_meters":19600,"station_id":"ce4bha12rcd13ifvqef0","pricing_plan_id":"cebpf4jnsgd1na2vs0mg"},{"bike_id":"05ce98e4-8048-4e5c-aa1e-973e4014e143","system_id":"levelo_inurba_marseille","lat":43.29037,"lon":5.39972,"is_reserved":false,"is_disabled":false,"rental_uris":{"android":"levelo://app?vid=05ce98e4-8048-4e5c-aa1e-973e4014e143","ios":"levelo://app?vid=05ce98e4-8048-4e5c-aa1e-973e4014e143"},"vehicle_type_id":"4","last_reported":1721668016,"current_range_meters":0,"station_id":"ce4bh392rcd13ifvqdm0","pricing_plan_id":"cebpf4jnsgd1na2vs0mg"},{"bike_id":"e3d73abe-d50b-440e-bce6-2da868d357e5","system_id":"levelo_inurba_marseille","lat":43.281044,"lon":5.378308,"is_reserved":false,"is_disabled":false,"rental_uris":{"android":"levelo://app?vid=e3d73abe-d50b-440e-bce6-2da868d357e5","ios":"levelo://app?vid=e3d73abe-d50b-440e-bce6-2da868d357e5"},"vehicle_type_id":"4","last_reported":1721668016,"current_range_meters":10800,"station_id":"ce4bha12rcd13ifvqee0","pricing_plan_id":"cebpf4jnsgd1na2vs0mg"},{"bike_id":"a95acec4-177c-4e6b-831f-90050677835c","system_id":"levelo_inurba_marseille","lat":43.281044,"lon":5.378308,"is_reserved":false,"is_disabled":false,"rental_uris":{"android":"levelo://app?vid=a95acec4-177c-4e6b-831f-90050677835c","ios":"levelo://app?vid=a95acec4-177c-4e6b-831f-90050677835c"},"vehicle_type_id":"4","last_reported":1721668016,"current_range_meters":31600,"station_id":"ce4bha12rcd13ifvqee0","pricing_plan_id":"cebpf4jnsgd1na2vs0mg"},{"bike_id":"82cb322b-4dca-4937-b9a7-b2acb92db5c6","system_id":"levelo_inurba_marseille","lat":43.281044,"lon":5.378308,"is_reserved":false,"is_disabled":false,"rental_uris":{"android":"levelo://app?vid=82cb322b-4dca-4937-b9a7-b2acb92db5c6","ios":"levelo://app?vid=82cb322b-4dca-4937-b9a7-b2acb92db5c6"},"vehicle_type_id":"4","last_reported":1721668016,"current_range_meters":4400,"station_id":"ce4bha12rcd13ifvqee0","pricing_plan_id":"cebpf4jnsgd1na2vs0mg"},{"bike_id":"4c470f74-3ce8-4bc9-9b0a-772861925e5a","system_id":"levelo_inurba_marseille","lat":43.290412,"lon":5.399633,"is_reserved":false,"is_disabled":false,"rental_uris":{"android":"levelo://app?vid=4c470f74-3ce8-4bc9-9b0a-772861925e5a","ios":"levelo://app?vid=4c470f74-3ce8-4bc9-9b0a-772861925e5a"},"vehicle_type_id":"4","last_reported":1721668016,"current_range_meters":1200,"station_id":"ce4bh392rcd13ifvqdm0","pricing_plan_id":"cebpf4jnsgd1na2vs0mg"},{"bike_id":"6500cf4d-e071-4438-b16e-8bdffd572b59","system_id":"levelo_inurba_marseille","lat":43.34089,"lon":5.39111,"is_reserved":false,"is_disabled":false,"rental_uris":{"android":"levelo://app?vid=6500cf4d-e071-4438-b16e-8bdffd572b59","ios":"levelo://app?vid=6500cf4d-e071-4438-b16e-8bdffd572b59"},"vehicle_type_id":"4","last_reported":1721668016,"current_range_meters":21600,"station_id":"","pricing_plan_id":"cebpf4jnsgd1na2vs0mg"},{"bike_id":"7a8afe01-eef4-4983-9fd7-e8bb7d193158","system_id":"levelo_inurba_marseille","lat":43.284462,"lon":5.392121,"is_reserved":false,"is_disabled":false,"rental_uris":{"android":"levelo://app?vid=7a8afe01-eef4-4983-9fd7-e8bb7d193158","ios":"levelo://app?vid=7a8afe01-eef4-4983-9fd7-e8bb7d193158"},"vehicle_type_id":"4","last_reported":1721668016,"current_range_meters":1600,"station_id":"ce4bhoh2rcd13ifvqh5g","pricing_plan_id":"cebpf4jnsgd1na2vs0mg"},{"bike_id":"479fc321-6bb3-40eb-92f7-e93eaf77bb04","system_id":"levelo_inurba_marseille","lat":43.284462,"lon":5.392121,"is_reserved":false,"is_disabled":false,"rental_uris":{"android":"levelo://app?vid=479fc321-6bb3-40eb-92f7-e93eaf77bb04","ios":"levelo://app?vid=479fc321-6bb3-40eb-92f7-e93eaf77bb04"},"vehicle_type_id":"4","last_reported":1721668016,"current_range_meters":16000,"station_id":"ce4bhoh2rcd13ifvqh5g","pricing_plan_id":"cebpf4jnsgd1na2vs0mg"},{"bike_id":"4d16e5d8-e1f2-4334-8ab0-576f4a0c6427","system_id":"levelo_inurba_marseille","lat":43.284462,"lon":5.392121,"is_reserved":false,"is_disabled":false,"rental_uris":{"android":"levelo://app?vid=4d16e5d8-e1f2-4334-8ab0-576f4a0c6427","ios":"levelo://app?vid=4d16e5d8-e1f2-4334-8ab0-576f4a0c6427"},"vehicle_type_id":"4","last_reported":1721668016,"current_range_meters":12800,"station_id":"ce4bhoh2rcd13ifvqh5g","pricing_plan_id":"cebpf4jnsgd1na2vs0mg"},{"bike_id":"4643f756-3c48-47a7-91e2-6f34a0169e66","system_id":"levelo_inurba_marseille","lat":43.285742,"lon":5.395004,"is_reserved":false,"is_disabled":false,"rental_uris":{"android":"levelo://app?vid=4643f756-3c48-47a7-91e2-6f34a0169e66","ios":"levelo://app?vid=4643f756-3c48-47a7-91e2-6f34a0169e66"},"vehicle_type_id":"4","last_reported":1721668016,"current_range_meters":14400,"station_id":"ce4bh292rcd13ifvqdg0","pricing_plan_id":"cebpf4jnsgd1na2vs0mg"},{"bike_id":"4a83067f-ceaf-40b9-b17f-5912d55ac7c8","system_id":"levelo_inurba_marseille","lat":43.28573,"lon":5.394992,"is_reserved":false,"is_disabled":false,"rental_uris":{"android":"levelo://app?vid=4a83067f-ceaf-40b9-b17f-5912d55ac7c8","ios":"levelo://app?vid=4a83067f-ceaf-40b9-b17f-5912d55ac7c8"},"vehicle_type_id":"4","last_reported":1721668016,"current_range_meters":30000,"station_id":"ce4bh292rcd13ifvqdg0","pricing_plan_id":"cebpf4jnsgd1na2vs0mg"},{"bike_id":"25d0198e-a450-44ab-8bef-006a98bb2e4c","system_id":"levelo_inurba_marseille","lat":43.28573,"lon":5.394992,"is_reserved":false,"is_disabled":false,"rental_uris":{"android":"levelo://app?vid=25d0198e-a450-44ab-8bef-006a98bb2e4c","ios":"levelo://app?vid=25d0198e-a450-44ab-8bef-006a98bb2e4c"},"vehicle_type_id":"4","last_reported":1721668016,"current_range_meters":17600,"station_id":"ce4bh292rcd13ifvqdg0","pricing_plan_id":"cebpf4jnsgd1na2vs0mg"},{"bike_id":"faf7165e-f519-412d-96ae-64d8b4f4d25e","system_id":"levelo_inurba_marseille","lat":43.32659,"lon":5.40988,"is_reserved":false,"is_disabled":false,"rental_uris":{"android":"levelo://app?vid=faf7165e-f519-412d-96ae-64d8b4f4d25e","ios":"levelo://app?vid=faf7165e-f519-412d-96ae-64d8b4f4d25e"},"vehicle_type_id":"4","last_reported":1721668016,"current_range_meters":28800,"station_id":"ce4bhpp2rcd13ifvqhgg","pricing_plan_id":"cebpf4jnsgd1na2vs0mg"},{"bike_id":"ca058b01-f265-4ce5-a9d3-5c2e4127ed1f","system_id":"levelo_inurba_marseille","lat":43.326605,"lon":5.409903,"is_reserved":false,"is_disabled":false,"rental_uris":{"android":"levelo://app?vid=ca058b01-f265-4ce5-a9d3-5c2e4127ed1f","ios":"levelo://app?vid=ca058b01-f265-4ce5-a9d3-5c2e4127ed1f"},"vehicle_type_id":"4","last_reported":1721668016,"current_range_meters":7600,"station_id":"ce4bhpp2rcd13ifvqhgg","pricing_plan_id":"cebpf4jnsgd1na2vs0mg"},{"bike_id":"132b207f-f672-4911-be71-50324e5be398","system_id":"levelo_inurba_marseille","lat":43.287154,"lon":5.399979,"is_reserved":false,"is_disabled":false,"rental_uris":{"android":"levelo://app?vid=132b207f-f672-4911-be71-50324e5be398","ios":"levelo://app?vid=132b207f-f672-4911-be71-50324e5be398"},"vehicle_type_id":"4","last_reported":1721668016,"current_range_meters":0,"station_id":"ce4bho92rcd13ifvqh3g","pricing_plan_id":"cebpf4jnsgd1na2vs0mg"},{"bike_id":"2bcbe297-2c36-4e1a-8b1a-b041cee47faf","system_id":"levelo_inurba_marseille","lat":43.28712,"lon":5.400007,"is_reserved":false,"is_disabled":false,"rental_uris":{"android":"levelo://app?vid=2bcbe297-2c36-4e1a-8b1a-b041cee47faf","ios":"levelo://app?vid=2bcbe297-2c36-4e1a-8b1a-b041cee47faf"},