{"last_updated":1727449751,"ttl":60,"version":"2.2","data":{"bikes":[{"bike_id":"9e64fe34-c94d-4400-9963-bb6eee65afad","system_id":"levelo_inurba_marseille","lat":43.2926,"lon":5.38439,"is_reserved":false,"is_disabled":false,"rental_uris":{"android":"levelo://app?vid=9e64fe34-c94d-4400-9963-bb6eee65afad","ios":"levelo://app?vid=9e64fe34-c94d-4400-9963-bb6eee65afad"},"vehicle_type_id":"4","last_reported":1727449751,"current_range_meters":32400,"station_id":"ce4bh692rcd13ifvqea0","pricing_plan_id":"cebpf4jnsgd1na2vs0mg"},{"bike_id":"82fa3084-de3e-4ca6-9215-7015cb2a58a1","system_id":"levelo_inurba_marseille","lat":43.2465,"lon":5.3889,"is_reserved":false,"is_disabled":false,"rental_uris":{"android":"levelo://app?vid=82fa3084-de3e-4ca6-9215-7015cb2a58a1","ios":"levelo://app?vid=82fa3084-de3e-4ca6-9215-7015cb2a58a1"},"vehicle_type_id":"4","last_reported":1727449751,"current_range_meters":14400,"station_id":"ce4bhg12rcd13ifvqf60","pricing_plan_id":"cebpf4jnsgd1na2vs0mg"},{"bike_id":"f7bae281-2ce5-4bfc-9ece-2d3d0b70c657","system_id":"levelo_inurba_marseille","lat":43.29092,"lon":5.38136,"is_reserved":false,"is_disabled":false,"rental_uris":{"android":"levelo://app?vid=f7bae281-2ce5-4bfc-9ece-2d3d0b70c657","ios":"levelo://app?vid=f7bae281-2ce5-4bfc-9ece-2d3d0b70c657"},"vehicle_type_id":"4","last_reported":1727449751,"current_range_meters":38000,"station_id":"ce4bh512rcd13ifvqe2g","pricing_plan_id":"cebpf4jnsgd1na2vs0mg"},{"bike_id":"1c025657-d8da-4e0f-9c6f-61359caa6296","system_id":"levelo_inurba_marseille","lat":43.2319,"lon":5.3998,"is_reserved":false,"is_disabled":false,"rental_uris":{"android":"levelo://app?vid=1c025657-d8da-4e0f-9c6f-61359caa6296","ios":"levelo://app?vid=1c025657-d8da-4e0f-9c6f-61359caa6296"},"vehicle_type_id":"4","last_reported":1727449751,"current_range_meters":28000,"station_id":"ce4bhn12rcd13ifvqgqg","pricing_plan_id":"cebpf4jnsgd1na2vs0mg"},{"bike_id":"43b19944-7302-4cb8-8353-58c443d19bf9","system_id":"levelo_inurba_marseille","lat":43.30786,"lon":5.37642,"is_reserved":false,"is_disabled":false,"rental_uris":{"android":"levelo://app?vid=43b19944-7302-4cb8-8353-58c443d19bf9","ios":"levelo://app?vid=43b19944-7302-4cb8-8353-58c443d19bf9"},"vehicle_type_id":"4","last_reported":1727449751,"current_range_meters":38800,"station_id":"ce4bgv92rcd13ifvqcq0","pricing_plan_id":"cebpf4jnsgd1na2vs0mg"},{"bike_id":"f1ba3986-45ed-4ec3-bd61-ed3eac7afce1","system_id":"levelo_inurba_marseille","lat":43.32475,"lon":5.3656,"is_reserved":false,"is_disabled":false,"rental_uris":{"android":"levelo://app?vid=f1ba3986-45ed-4ec3-bd61-ed3eac7afce1","ios":"levelo://app?vid=f1ba3986-45ed-4ec3-bd61-ed3eac7afce1"},"vehicle_type_id":"4","last_reported":1727449751,"current_range_meters":22800,"station_id":"ce4bhs12rcd13ifvqhvg","pricing_plan_id":"cebpf4jnsgd1na2vs0mg"},{"bike_id":"2a09686a-b43a-48c8-89ce-22c3bf172b7f","system_id":"levelo_inurba_marseille","lat":43.29282,"lon":5.40121,"is_reserved":false,"is_disabled":false,"rental_uris":{"android":"levelo://app?vid=2a09686a-b43a-48c8-89ce-22c3bf172b7f","ios":"levelo://app?vid=2a09686a-b43a-48c8-89ce-22c3bf172b7f"},"vehicle_type_id":"4","last_reported":1727449751,"current_range_meters":17600,"station_id":"ce4bh312rcd13ifvqdk0","pricing_plan_id":"cebpf4jnsgd1na2vs0mg"},{"bike_id":"bf981345-b929-4f5f-8e8d-b22737b92fed","system_id":"levelo_inurba_marseille","lat":43.28078,"lon":5.39651,"is_reserved":false,"is_disabled":false,"rental_uris":{"android":"levelo://app?vid=bf981345-b929-4f5f-8e8d-b22737b92fed","ios":"levelo://app?vid=bf981345-b929-4f5f-8e8d-b22737b92fed"},"vehicle_type_id":"4","last_reported":1727449751,"current_range_meters":16400,"station_id":"ce4bho12rcd13ifvqh2g","pricing_plan_id":"cebpf4jnsgd1na2vs0mg"},{"bike_id":"88c96776-6e23-4af1-827b-eccfb462378e","system_id":"levelo_inurba_marseille","lat":43.22929,"lon":5.35377,"is_reserved":false,"is_disabled":false,"rental_uris":{"android":"levelo://app?vid=88c96776-6e23-4af1-827b-eccfb462378e","ios":"levelo://app?vid=88c96776-6e23-4af1-827b-eccfb462378e"},"vehicle_type_id":"4","last_reported":1727449751,"current_range_meters":35200,"station_id":"cpo3532slgdg3j2ikp40","pricing_plan_id":"cebpf4jnsgd1na2vs0mg"},{"bike_id":"5855dc20-c9c7-49cc-9b49-012654d23578","system_id":"levelo_inurba_marseille","lat":43.22936,"lon":5.35375,"is_reserved":false,"is_disabled":false,"rental_uris":{"android":"levelo://app?vid=5855dc20-c9c7-49cc-9b49-012654d23578","ios":"levelo://app?vid=5855dc20-c9c7-49cc-9b49-012654d23578"},"vehicle_type_id":"4","last_reported":1727449751,"current_range_meters":8800,"station_id":"cpo3532slgdg3j2ikp40","pricing_plan_id":"cebpf4jnsgd1na2vs0mg"},{"bike_id":"6c401f9e-f1d1-4949-89dc-4c68855d6df5","system_id":"levelo_inurba_marseille","lat":43.3042,"lon":5.41285,"is_reserved":false,"is_disabled":false,"rental_uris":{"android":"levelo://app?vid=6c401f9e-f1d1-4949-89dc-4c68855d6df5","ios":"levelo://app?vid=6c401f9e-f1d1-4949-89dc-4c68855d6df5"},"vehicle_type_id":"4","last_reported":1727449751,"current_range_meters":16800,"station_id":"ce4bhop2rcd13ifvqh8g","pricing_plan_id":"cebpf4jnsgd1na2vs0mg"},{"bike_id":"6f4141a4-ec02-4434-9d98-082ebbd93ac1","system_id":"levelo_inurba_marseille","lat":43.26559,"lon":5.38986,"is_reserved":false,"is_disabled":false,"rental_uris":{"android":"levelo://app?vid=6f4141a4-ec02-4434-9d98-082ebbd93ac1","ios":"levelo://app?vid=6f4141a4-ec02-4434-9d98-082ebbd93ac1"},"vehicle_type_id":"4","last_reported":1727449751,"current_range_meters":38400,"station_id":"ce4bhe12rcd13ifvqf30","pricing_plan_id":"cebpf4jnsgd1na2vs0mg"},{"bike_id":"8a74f5cb-2e1f-4789-a13f-17b9cb9a816d","system_id":"levelo_inurba_marseille","lat":43.2828,"lon":5.35064,"is_reserved":false,"is_disabled":false,"rental_uris":{"android":"levelo://app?vid=8a74f5cb-2e1f-4789-a13f-17b9cb9a816d","ios":"levelo://app?vid=8a74f5cb-2e1f-4789-a13f-17b9cb9a816d"},"vehicle_type_id":"4","last_reported":1727449751,"current_range_meters":33200,"station_id":"ce4bhbp2rcd13ifvqerg","pricing_plan_id":"cebpf4jnsgd1na2vs0mg"},{"bike_id":"990ed37d-c44e-4562-a752-7b441127cd90","system_id":"levelo_inurba_marseille","lat":43.26805,"lon":5.40258,"is_reserved":false,"is_disabled":false,"rental_uris":{"android":"levelo://app?vid=990ed37d-c44e-4562-a752-7b441127cd90","ios":"levelo://app?vid=990ed37d-c44e-4562-a752-7b441127cd90"},"vehicle_type_id":"4","last_reported":1727449751,"current_range_meters":19200,"station_id":"ce501612rcd8frsf0b60","pricing_plan_id":"cebpf4jnsgd1na2vs0mg"},{"bike_id":"5934e212-309c-4eb8-8f8c-36e45cc14718","system_id":"levelo_inurba_marseille","lat":43.27172,"lon":5.4099,"is_reserved":false,"is_disabled":false,"rental_uris":{"android":"levelo://app?vid=5934e212-309c-4eb8-8f8c-36e45cc14718","ios":"levelo://app?vid=5934e212-309c-4eb8-8f8c-36e45cc14718"},"vehicle_type_id":"4","last_reported":1727449751,"current_range_meters":34000,"station_id":"ce4bhl12rcd13ifvqgf0","pricing_plan_id":"cebpf4jnsgd1na2vs0mg"},{"bike_id":"a59da56a-ca33-4b20-90bb-9e45754ef314","system_id":"levelo_inurba_marseille","lat":43.31766,"lon":5.39005,"is_reserved":false,"is_disabled":false,"rental_uris":{"android":"levelo://app?vid=a59da56a-ca33-4b20-90bb-9e45754ef314","ios":"levelo://app?vid=a59da56a-ca33-4b20-90bb-9e45754ef314"},"vehicle_type_id":"4","last_reported":1727449751,"current_range_meters":38800,"station_id":"ce4bhqp2rcd13ifvqhng","pricing_plan_id":"cebpf4jnsgd1na2vs0mg"},{"bike_id":"8c98567f-3013-439c-87fc-5f415610c069","system_id":"levelo_inurba_marseille","lat":43.28107,"lon":5.37844,"is_reserved":false,"is_disabled":false,"rental_uris":{"android":"levelo://app?vid=8c98567f-3013-439c-87fc-5f415610c069","ios":"levelo://app?vid=8c98567f-3013-439c-87fc-5f415610c069"},"vehicle_type_id":"4","last_reported":1727449751,"current_range_meters":20800,"station_id":"ce4bha12rcd13ifvqee0","pricing_plan_id":"cebpf4jnsgd1na2vs0mg"},{"bike_id":"da17ed0d-a1b7-4086-8f10-a9152bd33bd5","system_id":"levelo_inurba_marseille","lat":43.32656,"lon":5.40994,"is_reserved":false,"is_disabled":false,"rental_uris":{"android":"levelo://app?vid=da17ed0d-a1b7-4086-8f10-a9152bd33bd5","ios":"levelo://app?vid=da17ed0d-a1b7-4086-8f10-a9152bd33bd5"},"vehicle_type_id":"4","last_reported":1727449751,"current_range_meters":16000,"station_id":"ce4bhpp2rcd13ifvqhgg","pricing_plan_id":"cebpf4jnsgd1na2vs0mg"},{"bike_id":"dd842cfc-3919-4cc0-ba10-51b817d681d0","system_id":"levelo_inurba_marseille","lat":43.33021,"lon":5.39036,"is_reserved":false,"is_disabled":false,"rental_uris":{"android":"levelo://app?vid=dd842cfc-3919-4cc0-ba10-51b817d681d0","ios":"levelo://app?vid=dd842cfc-3919-4cc0-ba10-51b817d681d0"},"vehicle_type_id":"4","last_reported":1727449751,"current_range_meters":32800,"station_id":"ce4bhr92rcd13ifvqhrg","pricing_plan_id":"cebpf4jnsgd1na2vs0mg"},{"bike_id":"80fe4a40-a502-4db0-b980-a485af7c8744","system_id":"levelo_inurba_marseille","lat":43.33752,"lon":5.37361,"is_reserved":false,"is_disabled":false,"rental_uris":{"android":"levelo://app?vid=80fe4a40-a502-4db0-b980-a485af7c8744","ios":"levelo://app?vid=80fe4a40-a502-4db0-b980-a485af7c8744"},"vehicle_type_id":"4","last_reported":1727449751,"current_range_meters":26800,"station_id":"","pricing_plan_id":"cebpf4jnsgd1na2vs0mg"},{"bike_id":"3ecc7662-7b73-482c-86af-9b01615888ba","system_id":"levelo_inurba_marseille","lat":43.29529,"lon":5.38166,"is_reserved":false,"is_disabled":false,"rental_uris":{"android":"levelo://app?vid=3ecc7662-7b73-482c-86af-9b01615888ba","ios":"levelo://app?vid=3ecc7662-7b73-482c-86af-9b01615888ba"},"vehicle_type_id":"4","last_reported":1727449751,"current_range_meters":19600,"station_id":"ce4bgl12rcd13ifvqbo0","pricing_plan_id":"cebpf4jnsgd1na2vs0mg"},{"bike_id":"2ce9d899-6745-442a-9054-b5531eb6d639","system_id":"levelo_inurba_marseille","lat":43.2872,"lon":5.37939,"is_reserved":false,"is_disabled":false,"rental_uris":{"android":"levelo://app?vid=2ce9d899-6745-442a-9054-b5531eb6d639","ios":"levelo://app?vid=2ce9d899-6745-442a-9054-b5531eb6d639"},"vehicle_type_id":"4","last_reported":1727449751,"current_range_meters":18000,"station_id":"ce4bh9p2rcd13ifvqec0","pricing_plan_id":"cebpf4jnsgd1na2vs0mg"},{"bike_id":"c40e0c3a-fef8-4b24-baff-a552ed77838d","system_id":"levelo_inurba_marseille","lat":43.24165,"lon":5.36393,"is_reserved":false,"is_disabled":false,"rental_uris":{"android":"levelo://app?vid=c40e0c3a-fef8-4b24-baff-a552ed77838d","ios":"levelo://app?vid=c40e0c3a-fef8-4b24-baff-a552ed77838d"},"vehicle_type_id":"4","last_reported":1727449751,"current_range_meters":22400,"station_id":"cpo36qri1sfpv3e86is0","pricing_plan_id":"cebpf4jnsgd1na2vs0mg"},{"bike_id":"f21983c5-3265-446d-b37f-836bdc7b0f78","system_id":"levelo_inurba_marseille","lat":43.337444,"lon":5.374475,"is_reserved":false,"is_disabled":false,"rental_uris":{"android":"levelo://app?vid=f21983c5-3265-446d-b37f-836bdc7b0f78","ios":"levelo://app?vid=f21983c5-3265-446d-b37f-836bdc7b0f78"},"vehicle_type_id":"4","last_reported":1727449751,"current_range_meters":16400,"station_id":"","pricing_plan_id":"cebpf4jnsgd1na2vs0mg"},{"bike_id":"da5a9137-9416-47ba-b784-1e29cd4f466c","system_id":"levelo_inurba_marseille","lat":43.27183,"lon":5.40992,"is_reserved":false,"is_disabled":false,"rental_uris":{"android":"levelo://app?vid=da5a9137-9416-47ba-b784-1e29cd4f466c","ios":"levelo://app?vid=da5a9137-9416-47ba-b784-1e29cd4f466c"},"vehicle_type_id":"4","last_reported":1727449751,"current_range_meters":37600,"station_id":"ce4bhl12rcd13ifvqgf0","pricing_plan_id":"cebpf4jnsgd1na2vs0mg"},{"bike_id":"abb94a3c-38ae-497a-bc82-a27fd68ce79e","system_id":"levelo_inurba_marseille","lat":43.33759,"lon":5.37465,"is_reserved":false,"is_disabled":false,"rental_uris":{"android":"levelo://app?vid=abb94a3c-38ae-497a-bc82-a27fd68ce79e","ios":"levelo://app?vid=abb94a3c-38ae-497a-bc82-a27fd68ce79e"},"vehicle_type_id":"4","last_reported":1727449751,"current_range_meters":26800,"station_id":"","pricing_plan_id":"cebpf4jnsgd1na2vs0mg"},{"bike_id":"5f3d64c1-59e7-40d8-b935-d548fadc5220","system_id":"levelo_inurba_marseille","lat":43.2306,"lon":5.35495,"is_reserved":false,"is_disabled":false,"rental_uris":{"android":"levelo://app?vid=5f3d64c1-59e7-40d8-b935-d548fadc5220","ios":"levelo://app?vid=5f3d64c1-59e7-40d8-b935-d548fadc5220"},"vehicle_type_id":"4","last_reported":1727449751,"current_range_meters":36400,"station_id":"cpo3342slgdg3j2ifvpg","pricing_plan_id":"cebpf4jnsgd1na2vs0mg"},{"bike_id":"443b5bd9-af2c-4f88-abef-9231680c966e","system_id":"levelo_inurba_marseille","lat":43.27812,"lon":5.40714,"is_reserved":false,"is_disabled":false,"rental_uris":{"android":"levelo://app?vid=443b5bd9-af2c-4f88-abef-9231680c966e","ios":"levelo://app?vid=443b5bd9-af2c-4f88-abef-9231680c966e"},"vehicle_type_id":"4","last_reported":1727449751,"current_range_meters":8400,"station_id":"ce4bhnh2rcd13ifvqgtg","pricing_plan_id":"cebpf4jnsgd1na2vs0mg"},{"bike_id":"9184e0a4-665a-4985-a5d1-87187d166167","system_id":"levelo_inurba_marseille","lat":43.31993,"lon":5.38139,"is_reserved":false,"is_disabled":false,"rental_uris":{"android":"levelo://app?vid=9184e0a4-665a-4985-a5d1-87187d166167","ios":"levelo://app?vid=9184e0a4-665a-4985-a5d1-87187d166167"},"vehicle_type_id":"4","last_reported":1727449751,"current_range_meters":25200,"station_id":"ce4bhr12rcd13ifvqhpg","pricing_plan_id":"cebpf4jnsgd1na2vs0mg"},{"bike_id":"9ae3f5b1-b966-4656-a962-71c1d8a34aee","system_id":"levelo_inurba_marseille","lat":43.33751,"lon":5.37451,"is_reserved":false,"is_disabled":false,"rental_uris":{"android":"levelo://app?vid=9ae3f5b1-b966-4656-a962-71c1d8a34aee","ios":"levelo://app?vid=9ae3f5b1-b966-4656-a962-71c1d8a34aee"},"vehicle_type_id":"4","last_reported":1727449751,"current_range_meters":25600,"station_id":"","pricing_plan_id":"cebpf4jnsgd1na2vs0mg"},{"bike_id":"23c2cb2e-f7f4-4d80-a69d-6d3b6bff5358","system_id":"levelo_inurba_marseille","lat":43.23186,"lon":5.39998,"is_reserved":false,"is_disabled":false,"rental_uris":{"android":"levelo://app?vid=23c2cb2e-f7f4-4d80-a69d-6d3b6bff5358","ios":"levelo://app?vid=23c2cb2e-f7f4-4d80-a69d-6d3b6bff5358"},"vehicle_type_id":"4","last_reported":1727449751,"current_range_meters":23200,"station_id":"ce4bhn12rcd13ifvqgqg","pricing_plan_id":"cebpf4jnsgd1na2vs0mg"},{"bike_id":"4a2cbfe9-f5ae-457a-bf08-7ba1aa905eed","system_id":"levelo_inurba_marseille","lat":43.31725,"lon":5.42392,"is_reserved":false,"is_disabled":false,"rental_uris":{"android":"levelo://app?vid=4a2cbfe9-f5ae-457a-bf08-7ba1aa905eed","ios":"levelo://app?vid=4a2cbfe9-f5ae-457a-bf08-7ba1aa905eed"},"vehicle_type_id":"4","last_reported":1727449751,"current_range_meters":27200,"station_id":"ce4bhp92rcd13ifvqhbg","pricing_plan_id":"cebpf4jnsgd1na2vs0mg"},{"bike_id":"fb859f10-1fcd-491b-be85-8c0fa1a9f203","system_id":"levelo_inurba_marseille","lat":43.29922,"lon":5.37486,"is_reserved":false,"is_disabled":false,"rental_uris":{"android":"levelo://app?vid=fb859f10-1fcd-491b-be85-8c0fa1a9f203","ios":"levelo://app?vid=fb859f10-1fcd-491b-be85-8c0fa1a9f203"},"vehicle_type_id":"4","last_reported":1727449751,"current_range_meters":11200,"station_id":"ce4bgjh2rcd13ifvqbg0","pricing_plan_id":"cebpf4jnsgd1na2vs0mg"},{"bike_id":"8ebbb7a1-d47e-4567-ab05-87c57553d22c","system_id":"levelo_inurba_marseille","lat":43.3171,"lon":5.37738,"is_reserved":false,"is_disabled":false,"rental_uris":{"android":"levelo://app?vid=8ebbb7a1-d47e-4567-ab05-87c57553d22c","ios":"levelo://app?vid=8ebbb7a1-d47e-4567-ab05-87c57553d22c"},"vehicle_type_id":"4","last_reported":1727449751,"current_range_meters":36400,"station_id":"ce4bgth2rcd13ifvqch0","pricing_plan_id":"cebpf4jnsgd1na2vs0mg"},{"bike_id":"c59aa41b-6005-4b48-95a6-7ce3638c3851","system_id":"levelo_inurba_marseille","lat":43.31757,"lon":5.39008,"is_reserved":false,"is_disabled":false,"rental_uris":{"android":"levelo://app?vid=c59aa41b-6005-4b48-95a6-7ce3638c3851","ios":"levelo://app?vid=c59aa41b-6005-4b48-95a6-7ce3638c3851"},"vehicle_type_id":"4","last_reported":1727449751,"current_range_meters":16000,"station_id":"ce4bhqp2rcd13ifvqhng","pricing_plan_id":"cebpf4jnsgd1na2vs0mg"},{"bike_id":"761f1151-2896-4585-a6ba-2b97c7d264d4","system_id":"levelo_inurba_marseille","lat":43.32482,"lon":5.36549,"is_reserved":false,"is_disabled":false,"rental_uris":{"android":"levelo://app?vid=761f1151-2896-4585-a6ba-2b97c7d264d4","ios":"levelo://app?vid=761f1151-2896-4585-a6ba-2b97c7d264d4"},"vehicle_type_id":"4","last_reported":1727449751,"current_range_meters":38800,"station_id":"ce4bhs12rcd13ifvqhvg","pricing_plan_id":"cebpf4jnsgd1na2vs0mg"},{"bike_id":"38f56253-9dd7-40cb-a6c9-454a51524fd5","system_id":"levelo_inurba_marseille","lat":43.28617,"lon":5.35104,"is_reserved":false,"is_disabled":false,"rental_uris":{"android":"levelo://app?vid=38f56253-9dd7-40cb-a6c9-454a51524fd5","ios":"levelo://app?vid=38f56253-9dd7-40cb-a6c9-454a51524fd5"},"vehicle_type_id":"4","last_reported":1727449751,"current_range_meters":9600,"station_id":"ce4bhch2rcd13ifvqeug","pricing_plan_id":"cebpf4jnsgd1na2vs0mg"},{"bike_id":"330e5f3e-72d9-4781-80b5-c4b8f1eda431","system_id":"levelo_inurba_marseille","lat":43.29706,"lon":5.36611,"is_reserved":false,"is_disabled":false,"rental_uris":{"android":"levelo://app?vid=330e5f3e-72d9-4781-80b5-c4b8f1eda431","ios":"levelo://app?vid=330e5f3e-72d9-4781-80b5-c4b8f1eda431"},"vehicle_type_id":"4","last_reported":1727449751,"current_range_meters":22800,"station_id":"ce4bgn12rcd13ifvqbt0","pricing_plan_id":"cebpf4jnsgd1na2vs0mg"},{"bike_id":"a0ad90ee-ac4e-4f15-a883-976e9946bb2b","system_id":"levelo_inurba_marseille","lat":43.26567,"lon":5.39012,"is_reserved":false,"is_disabled":false,"rental_uris":{"android":"levelo://app?vid=a0ad90ee-ac4e-4f15-a883-976e9946bb2b","ios":"levelo://app?vid=a0ad90ee-ac4e-4f15-a883-976e9946bb2b"},"vehicle_type_id":"4","last_reported":1727449751,"current_range_meters":4800,"station_id":"ce4bhe12rcd13ifvqf30","pricing_plan_id":"cebpf4jnsgd1na2vs0mg"},{"bike_id":"c4eb45c2-d71e-4ed6-b754-5a2412b931a4","system_id":"levelo_inurba_marseille","lat":43.27178,"lon":5.40994,"is_reserved":false,"is_disabled":false,"rental_uris":{"android":"levelo://app?vid=c4eb45c2-d71e-4ed6-b754-5a2412b931a4","ios":"levelo://app?vid=c4eb45c2-d71e-4ed6-b754-5a2412b931a4"},"vehicle_type_id":"4","last_reported":1727449751,"current_range_meters":16800,"station_id":"ce4bhl12rcd13ifvqgf0","pricing_plan_id":"cebpf4jnsgd1na2vs0mg"},{"bike_id":"d9bf6344-e840-44f6-9fc1-f04de4c3abdb","system_id":"levelo_inurba_marseille","lat":43.28424,"lon":5.34984,"is_reserved":false,"is_disabled":false,"rental_uris":{"android":"levelo://app?vid=d9bf6344-e840-44f6-9fc1-f04de4c3abdb","ios":"levelo://app?vid=d9bf6344-e840-44f6-9fc1-f04de4c3abdb"},"vehicle_type_id":"4","last_reported":1727449751,"current_range_meters":11600,"station_id":"ce4bhbh2rcd13ifvqepg","pricing_plan_id":"cebpf4jnsgd1na2vs0mg"},{"bike_id":"2c7a960b-5af6-4cdd-9452-9923a94977be","system_id":"levelo_inurba_marseille","lat":43.30257,"lon":5.40077,"is_reserved":false,"is_disabled":false,"rental_uris":{"android":"levelo://app?vid=2c7a960b-5af6-4cdd-9452-9923a94977be","ios":"levelo://app?vid=2c7a960b-5af6-4cdd-9452-9923a94977be"},"vehicle_type_id":"4","last_reported":1727449751,"current_range_meters":22800,"station_id":"ce4bgvh2rcd13ifvqcs0","pricing_plan_id":"cebpf4jnsgd1na2vs0mg"},{"bike_id":"cc17a1a6-955e-4b03-bd3e-10467eec67f3","system_id":"levelo_inurba_marseille","lat":43.31708,"lon":5.37753,"is_reserved":false,"is_disabled":false,"rental_uris":{"android":"levelo://app?vid=cc17a1a6-955e-4b03-bd3e-10467eec67f3","ios":"levelo://app?vid=cc17a1a6-955e-4b03-bd3e-10467eec67f3"},"vehicle_type_id":"4","last_reported":1727449751,"current_range_meters":18800,"station_id":"ce4bgth2rcd13ifvqch0","pricing_plan_id":"cebpf4jnsgd1na2vs0mg"},{"bike_id":"951d9741-60c3-4f33-8372-8fdc89178e7a","system_id":"levelo_inurba_marseille","lat":43.28268,"lon":5.35059,"is_reserved":false,"is_disabled":false,"rental_uris":{"android":"levelo://app?vid=951d9741-60c3-4f33-8372-8fdc89178e7a","ios":"levelo://app?vid=951d9741-60c3-4f33-8372-8fdc89178e7a"},"vehicle_type_id":"4","last_reported":1727449751,"current_range_meters":25200,"station_id":"ce4bhbp2rcd13ifvqerg","pricing_plan_id":"cebpf4jnsgd1na2vs0mg"},{"bike_id":"81f5815f-7132-4a99-a008-494f06eec1bf","system_id":"levelo_inurba_marseille","lat":43.23194,"lon":5.35557,"is_reserved":false,"is_disabled":false,"rental_uris":{"android":"levelo://app?vid=81f5815f-7132-4a99-a008-494f06eec1bf","ios":"levelo://app?vid=81f5815f-7132-4a99-a008-494f06eec1bf"},"vehicle_type_id":"4","last_reported":1727449751,"current_range_meters":19600,"station_id":"ce4bhu92rcd13ifvqi70","pricing_plan_id":"cebpf4jnsgd1na2vs0mg"},{"bike_id":"49a24620-0778-4d2e-b5c2-219c11f7e6e5","system_id":"levelo_inurba_marseille","lat":43.2679,"lon":5.39415,"is_reserved":false,"is_disabled":false,"rental_uris":{"android":"levelo://app?vid=49a24620-0778-4d2e-b5c2-219c11f7e6e5","ios":"levelo://app?vid=49a24620-0778-4d2e-b5c2-219c11f7e6e5"},"vehicle_type_id":"4","last_reported":1727449751,"current_range_meters":2000,"station_id":"ce4bhh12rcd13ifvqfg0","pricing_plan_id":"cebpf4jnsgd1na2vs0mg"},{"bike_id":"826ffa26-98c3-45c0-9422-49746b993e93","system_id":"levelo_inurba_marseille","lat":43.30597,"lon":5.39362,"is_reserved":false,"is_disabled":false,"rental_uris":{"android":"levelo://app?vid=826ffa26-98c3-45c0-9422-49746b993e93","ios":"levelo://app?vid=826ffa26-98c3-45c0-9422-49746b993e93"},"vehicle_type_id":"4","last_reported":1727449751,"current_range_meters":11600,"station_id":"ce4bh0p2rcd13ifvqd80","pricing_plan_id":"cebpf4jnsgd1na2vs0mg"},{"bike_id":"bf5f2b62-3b4b-4288-8038-6372ac900624","system_id":"levelo_inurba_marseille","lat":43.32476,"lon":5.36558,"is_reserved":false,"is_disabled":false,"rental_uris":{"android":"levelo://app?vid=bf5f2b62-3b4b-4288-8038-6372ac900624","ios":"levelo://app?vid=bf5f2b62-3b4b-4288-8038-6372ac900624"},"vehicle_type_id":"4","last_reported":1727449751,"current_range_meters":27600,"station_id":"ce4bhs12rcd13ifvqhvg","pricing_plan_id":"cebpf4jnsgd1na2vs0mg"},{"bike_id":"dc74da9c-f0ec-48af-800a-5b92fb95dd65","system_id":"levelo_inurba_marseille","lat":43.23178,"lon":5.3998,"is_reserved":false,"is_disabled":false,"rental_uris":{"android":"levelo://app?vid=dc74da9c-f0ec-48af-800a-5b92fb95dd65","ios":"levelo://app?vid=dc74da9c-f0ec-48af-800a-5b92fb95dd65"},"vehicle_type_id":"4","last_reported":1727449751,"current_range_meters":19600,"station_id":"ce4bhn12rcd13ifvqgqg","pricing_plan_id":"cebpf4jnsgd1na2vs0mg"},{"bike_id":"4612714d-5ecc-46d6-bab1-6d5ab017c4a7","system_id":"levelo_inurba_marseille","lat":43.29298,"lon":5.37464,"is_reserved":false,"is_disabled":false,"rental_uris":{"android":"levelo://app?vid=4612714d-5ecc-46d6-bab1-6d5ab017c4a7","ios":"levelo://app?vid=4612714d-5ecc-46d6-bab1-6d5ab017c4a7"},"vehicle_type_id":"4","last_reported":1727449751,"current_range_meters":30400,"station_id":"ce4bgi12rcd13ifvqb70","pricing_plan_id":"cebpf4jnsgd1na2vs0mg"},{"bike_id":"4b43806d-b40b-4609-b625-3b2deba7dd44","system_id":"levelo_inurba_marseille","lat":43.31714,"lon":5.37748,"is_reserved":false,"is_disabled":false,"rental_uris":{"android":"levelo://app?vid=4b43806d-b40b-4609-b625-3b2deba7dd44","ios":"levelo://app?vid=4b43806d-b40b-4609-b625-3b2deba7dd44"},"vehicle_type_id":"4","last_reported":1727449751,"current_range_meters":39200,"station_id":"ce4bgth2rcd13ifvqch0","pricing_plan_id":"cebpf4jnsgd1na2vs0mg"},{"bike_id":"68288eeb-ba48-47a6-a85e-12eb7c4f1d6d","system_id":"levelo_inurba_marseille","lat":43.27064,"lon":5.42272,"is_reserved":false,"is_disabled":false,"rental_uris":{"android":"levelo://app?vid=68288eeb-ba48-47a6-a85e-12eb7c4f1d6d","ios":"levelo://app?vid=68288eeb-ba48-47a6-a85e-12eb7c4f1d6d"},"vehicle_type_id":"4","last_reported":1727449751,"current_range_meters":20400,"station_id":"ce4bhk92rcd13ifvqgb0","pricing_plan_id":"cebpf4jnsgd1na2vs0mg"},{"bike_id":"318bf8ed-975a-4935-bb77-b864bc12a333","system_id":"levelo_inurba_marseille","lat":43.29198,"lon":5.35812,"is_reserved":false,"is_disabled":false,"rental_uris":{"android":"levelo://app?vid=318bf8ed-975a-4935-bb77-b864bc12a333","ios":"levelo://app?vid=318bf8ed-975a-4935-bb77-b864bc12a333"},"vehicle_type_id":"4","last_reported":1727449751,"current_range_meters":33600,"station_id":"ce4bhb12rcd13ifvqel0","pricing_plan_id":"cebpf4jnsgd1na2vs0mg"},{"bike_id":"e5ac7df0-8142-4095-8c29-26c92640cd4c","system_id":"levelo_inurba_marseille","lat":43.315,"lon":5.37296,"is_reserved":false,"is_disabled":false,"rental_uris":{"android":"levelo://app?vid=e5ac7df0-8142-4095-8c29-26c92640cd4c","ios":"levelo://app?vid=e5ac7df0-8142-4095-8c29-26c92640cd4c"},"vehicle_type_id":"4","last_reported":1727449751,"current_range_meters":38800,"station_id":"ce4bgt12rcd13ifvqcd0","pricing_plan_id":"cebpf4jnsgd1na2vs0mg"},{"bike_id":"dc81ca1f-62ec-486e-92ea-5c6be2144907","system_id":"levelo_inurba_marseille","lat":43.32369,"lon":5.38884,"is_reserved":false,"is_disabled":false,"rental_uris":{"android":"levelo://app?vid=dc81ca1f-62ec-486e-92ea-5c6be2144907","ios":"levelo://app?vid=dc81ca1f-62ec-486e-92ea-5c6be2144907"},"vehicle_type_id":"4","last_reported":1727449751,"current_range_meters":18800,"station_id":"ce4bhqp2rcd13ifvqhog","pricing_plan_id":"cebpf4jnsgd1na2vs0mg"},{"bike_id":"49896c59-3dcf-412d-94c7-1aba785d3945","system_id":"levelo_inurba_marseille","lat":43.323669,"lon":5.388868,"is_reserved":false,"is_disabled":false,"rental_uris":{"android":"levelo://app?vid=49896c59-3dcf-412d-94c7-1aba785d3945","ios":"levelo://app?vid=49896c59-3dcf-412d-94c7-1aba785d3945"},"vehicle_type_id":"4","last_reported":1727449751,"current_range_meters":14400,"station_id":"ce4bhqp2rcd13ifvqhog","pricing_plan_id":"cebpf4jnsgd1na2vs0mg"},{"bike_id":"5c9662e0-4a10-4f21-8983-5f5ea89f65cf","system_id":"levelo_inurba_marseille","lat":43.268,"lon":5.40266,"is_reserved":false,"is_disabled":false,"rental_uris":{"android":"levelo://app?vid=5c9662e0-4a10-4f21-8983-5f5ea89f65cf","ios":"levelo://app?vid=5c9662e0-4a10-4f21-8983-5f5ea89f65cf"},"vehicle_type_id":"4","last_reported":1727449751,"current_range_meters":21600,"station_id":"ce501612rcd8frsf0b60","pricing_plan_id":"cebpf4jnsgd1na2vs0mg"},{"bike_id":"409a66ef-a785-4d8b-9de3-5ff0fd5e5c16","system_id":"levelo_inurba_marseille","lat":43.30646,"lon":5.40097,"is_reserved":false,"is_disabled":false,"rental_uris":{"android":"levelo://app?vid=409a66ef-a785-4d8b-9de3-5ff0fd5e5c16","ios":"levelo://app?vid=409a66ef-a785-4d8b-9de3-5ff0fd5e5c16"},"vehicle_type_id":"4","last_reported":1727449751,"current_range_meters":26000,"station_id":"ce4bh112rcd13ifvqda0","pricing_plan_id":"cebpf4jnsgd1na2vs0mg"},{"bike_id":"86b90efe-7022-408e-88d8-a87661e93270","system_id":"levelo_inurba_marseille","lat":43.31328,"lon":5.3969,"is_reserved":false,"is_disabled":false,"rental_uris":{"android":"levelo://app?vid=86b90efe-7022-408e-88d8-a87661e93270","ios":"levelo://app?vid=86b90efe-7022-408e-88d8-a87661e93270"},"vehicle_type_id":"4","last_reported":1727449751,"current_range_meters":12800,"station_id":"ce4bgvp2rcd13ifvqcu0","pricing_plan_id":"cebpf4jnsgd1na2vs0mg"},{"bike_id":"502b2996-87ee-4ae9-bb32-2a4639bdfcca","system_id":"levelo_inurba_marseille","lat":43.27903,"lon":5.38011,"is_reserved":false,"is_disabled":false,"rental_uris":{"android":"levelo://app?vid=502b2996-87ee-4ae9-bb32-2a4639bdfcca","ios":"levelo://app?vid=502b2996-87ee-4ae9-bb32-2a4639bdfcca"},"vehicle_type_id":"4","last_reported":1727449751,"current_range_meters":35200,"station_id":"ce4bhf92rcd13ifvqf50","pricing_plan_id":"cebpf4jnsgd1na2vs0mg"},{"bike_id":"22d171d3-888f-495b-878a-3a2a6dbf81d4","system_id":"levelo_inurba_marseille","lat":43.31179,"lon":5.38716,"is_reserved":false,"is_disabled":false,"rental_uris":{"android":"levelo://app?vid=22d171d3-888f-495b-878a-3a2a6dbf81d4","ios":"levelo://app?vid=22d171d3-888f-495b-878a-3a2a6dbf81d4"},"vehicle_type_id":"4","last_reported":1727449751,"current_range_meters":4000,"station_id":"ce4bgv12rcd13ifvqcp0","pricing_plan_id":"cebpf4jnsgd1na2vs0mg"},{"bike_id":"d1bdffd0-db72-47ad-a26b-7d2fd19579b7","system_id":"levelo_inurba_marseille","lat":43.32656,"lon":5.40989,"is_reserved":false,"is_disabled":false,"rental_uris":{"android":"levelo://app?vid=d1bdffd0-db72-47ad-a26b-7d2fd19579b7","ios":"levelo://app?vid=d1bdffd0-db72-47ad-a26b-7d2fd19579b7"},"vehicle_type_id":"4","last_reported":1727449751,"current_range_meters":15200,"station_id":"ce4bhpp2rcd13ifvqhgg","pricing_plan_id":"cebpf4jnsgd1na2vs0mg"},{"bike_id":"e1fa4797-57f6-4405-8305-b9e07cde64bc","system_id":"levelo_inurba_marseille","lat":43.27377,"lon":5.36254,"is_reserved":false,"is_disabled":false,"rental_uris":{"android":"levelo://app?vid=e1fa4797-57f6-4405-8305-b9e07cde64bc","ios":"levelo://app?vid=e1fa4797-57f6-4405-8305-b9e07cde64bc"},"vehicle_type_id":"4","last_reported":1727449751,"current_range_meters":38800,"station_id":"ce4bhbh2rcd13ifvqeo0","pricing_plan_id":"cebpf4jnsgd1na2vs0mg"},{"bike_id":"eaff5abd-d4ea-46e6-86b8-478167451cb7","system_id":"levelo_inurba_marseille","lat":43.33739,"lon":5.37468,"is_reserved":false,"is_disabled":false,"rental_uris":{"android":"levelo://app?vid=eaff5abd-d4ea-46e6-86b8-478167451cb7","ios":"levelo://app?vid=eaff5abd-d4ea-46e6-86b8-478167451cb7"},"vehicle_type_id":"4","last_reported":1727449751,"current_range_meters":28800,"station_id":"","pricing_plan_id":"cebpf4jnsgd1na2vs0mg"},{"bike_id":"33f1a116-de17-4698-8325-4997899647b3","system_id":"levelo_inurba_marseille","lat":43.27178,"lon":5.40992,"is_reserved":false,"is_disabled":false,"rental_uris":{"android":"levelo://app?vid=33f1a116-de17-4698-8325-4997899647b3","ios":"levelo://app?vid=33f1a116-de17-4698-8325-4997899647b3"},"vehicle_type_id":"4","last_reported":1727449751,"current_range_meters":36800,"station_id":"ce4bhl12rcd13ifvqgf0","pricing_plan_id":"cebpf4jnsgd1na2vs0mg"},{"bike_id":"845c0b58-fe89-41a6-93ce-f7c36c61fb31","system_id":"levelo_inurba_marseille","lat":43.31176,"lon":5.38715,"is_reserved":false,"is_disabled":false,"rental_uris":{"android":"levelo://app?vid=845c0b58-fe89-41a6-93ce-f7c36c61fb31","ios":"levelo://app?vid=845c0b58-fe89-41a6-93ce-f7c36c61fb31"},"vehicle_type_id":"4","last_reported":1727449751,"current_range_meters":24000,"station_id":"ce4bgv12rcd13ifvqcp0","pricing_plan_id":"cebpf4jnsgd1na2vs0mg"},{"bike_id":"365ab31b-9253-4024-a0ce-63ac11fd8ed7","system_id":"levelo_inurba_marseille","lat":43.315117,"lon":5.429716,"is_reserved":false,"is_disabled":false,"rental_uris":{"android":"levelo://app?vid=365ab31b-9253-4024-a0ce-63ac11fd8ed7","ios":"levelo://app?vid=365ab31b-9253-4024-a0ce-63ac11fd8ed7"},"vehicle_type_id":"4","last_reported":1727449751,"current_range_meters":18000,"station_id":"ce4bhp92rcd13ifvqhbg","pricing_plan_id":"cebpf4jnsgd1na2vs0mg"},{"bike_id":"1618f4e6-227e-45f6-aa74-f0f4235a41d2","system_id":"levelo_inurba_marseille","lat":43.29611,"lon":5.37727,"is_reserved":false,"is_disabled":false,"rental_uris":{"android":"levelo://app?vid=1618f4e6-227e-45f6-aa74-f0f4235a41d2","ios":"levelo://app?vid=1618f4e6-227e-45f6-aa74-f0f4235a41d2"},"vehicle_type_id":"4","last_reported":1727449751,"current_range_meters":32400,"station_id":"ce4bgi92rcd13ifvqb90","pricing_plan_id":"cebpf4jnsgd1na2vs0mg"},{"bike_id":"0ce8a7e2-5d9b-47cf-ab83-9db6a32288e7","system_id":"levelo_inurba_marseille","lat":43.2885,"lon":5.35854,"is_reserved":false,"is_disabled":false,"rental_uris":{"android":"levelo://app?vid=0ce8a7e2-5d9b-47cf-ab83-9db6a32288e7","ios":"levelo://app?vid=0ce8a7e2-5d9b-47cf-ab83-9db6a32288e7"},"vehicle_type_id":"4","last_reported":1727449751,"current_range_meters":6400,"station_id":"ce4bhb12rcd13ifvqem0","pricing_plan_id":"cebpf4jnsgd1na2vs0mg"},{"bike_id":"6eb7edae-7ffe-41c7-bf0d-919cb6197cc5","system_id":"levelo_inurba_marseille","lat":43.30537,"lon":5.36528,"is_reserved":false,"is_disabled":false,"rental_uris":{"android":"levelo://app?vid=6eb7edae-7ffe-41c7-bf0d-919cb6197cc5","ios":"levelo://app?vid=6eb7edae-7ffe-41c7-bf0d-919cb6197cc5"},"vehicle_type_id":"4","last_reported":1727449751,"current_range_meters":35200,"station_id":"ce4bgs12rcd13ifvqcag","pricing_plan_id":"cebpf4jnsgd1na2vs0mg"},{"bike_id":"41a2ca65-2a9f-4030-ac5f-14825ec5006a","system_id":"levelo_inurba_marseille","lat":43.33752,"lon":5.37444,"is_reserved":false,"is_disabled":false,"rental_uris":{"android":"levelo://app?vid=41a2ca65-2a9f-4030-ac5f-14825ec5006a","ios":"levelo://app?vid=41a2ca65-2a9f-4030-ac5f-14825ec5006a"},"vehicle_type_id":"4","last_reported":1727449751,"current_range_meters":35600,"station_id":"","pricing_plan_id":"cebpf4jnsgd1na2vs0mg"},{"bike_id":"36b937e4-602f-4291-beb0-30f79723fb4b","system_id":"levelo_inurba_marseille","lat":43.29843,"lon":5.36263,"is_reserved":false,"is_disabled":false,"rental_uris":{"android":"levelo://app?vid=36b937e4-602f-4291-beb0-30f79723fb4b","ios":"levelo://app?vid=36b937e4-602f-4291-beb0-30f79723fb4b"},"vehicle_type_id":"4","last_reported":1727449751,"current_range_meters":28400,"station_id":"ce4bgpp2rcd13ifvqc3g","pricing_plan_id":"cebpf4jnsgd1na2vs0mg"},{"bike_id":"455dfc1a-e47b-4ee0-812c-6b4cadc1cc34","system_id":"levelo_inurba_marseille","lat":43.28616,"lon":5.35106,"is_reserved":false,"is_disabled":false,"rental_uris":{"android":"levelo://app?vid=455dfc1a-e47b-4ee0-812c-6b4cadc1cc34","ios":"levelo://app?vid=455dfc1a-e47b-4ee0-812c-6b4cadc1cc34"},"vehicle_type_id":"4","last_reported":1727449751,"current_range_meters":11200,"station_id":"ce4bhch2rcd13ifvqeug","pricing_plan_id":"cebpf4jnsgd1na2vs0mg"},{"bike_id":"05c8129f-02eb-4a8a-b2f1-1faf966e33f0","system_id":"levelo_inurba_marseille","lat":43.30334,"lon":5.40435,"is_reserved":false,"is_disabled":false,"rental_uris":{"android":"levelo://app?vid=05c8129f-02eb-4a8a-b2f1-1faf966e33f0","ios":"levelo://app?vid=05c8129f-02eb-4a8a-b2f1-1faf966e33f0"},"vehicle_type_id":"4","last_reported":1727449751,"current_range_meters":22400,"station_id":"ce4bh012rcd13ifvqd10","pricing_plan_id":"cebpf4jnsgd1na2vs0mg"},{"bike_id":"4d4233f2-3bc4-4909-b020-2a174bb1f47f","system_id":"levelo_inurba_marseille","lat":43.32037,"lon":5.41563,"is_reserved":false,"is_disabled":false,"rental_uris":{"android":"levelo://app?vid=4d4233f2-3bc4-4909-b020-2a174bb1f47f","ios":"levelo://app?vid=4d4233f2-3bc4-4909-b020-2a174bb1f47f"},"vehicle_type_id":"4","last_reported":1727449751,"current_range_meters":27600,"station_id":"ce4bhq92rcd13ifvqhkg","pricing_plan_id":"cebpf4jnsgd1na2vs0mg"},{"bike_id":"d4559f0d-9e0b-4943-8683-9c0f677d1afd","system_id":"levelo_inurba_marseille","lat":43.28613,"lon":5.35104,"is_reserved":false,"is_disabled":false,"rental_uris":{"android":"levelo://app?vid=d4559f0d-9e0b-4943-8683-9c0f677d1afd","ios":"levelo://app?vid=d4559f0d-9e0b-4943-8683-9c0f677d1afd"},"vehicle_type_id":"4","last_reported":1727449751,"current_range_meters":38800,"station_id":"ce4bhch2rcd13ifvqeug","pricing_plan_id":"cebpf4jnsgd1na2vs0mg"},{"bike_id":"7aa15049-0ea2-46a5-8535-f2e1ab7ca4d3","system_id":"levelo_inurba_marseille","lat":43.32481,"lon":5.36533,"is_reserved":false,"is_disabled":false,"rental_uris":{"android":"levelo://app?vid=7aa15049-0ea2-46a5-8535-f2e1ab7ca4d3","ios":"levelo://app?vid=7aa15049-0ea2-46a5-8535-f2e1ab7ca4d3"},"vehicle_type_id":"4","last_reported":1727449751,"current_range_meters":39200,"station_id":"ce4bhs12rcd13ifvqhvg","pricing_plan_id":"cebpf4jnsgd1na2vs0mg"},{"bike_id":"ce532c85-3e81-4b49-9199-919d7bda82e9","system_id":"levelo_inurba_marseille","lat":43.26028,"lon":5.37547,"is_reserved":false,"is_disabled":false,"rental_uris":{"android":"levelo://app?vid=ce532c85-3e81-4b49-9199-919d7bda82e9","ios":"levelo://app?vid=ce532c85-3e81-4b49-9199-919d7bda82e9"},"vehicle_type_id":"4","last_reported":1727449751,"current_range_meters":27200,"station_id":"ce4bhgh2rcd13ifvqfa0","pricing_plan_id":"cebpf4jnsgd1na2vs0mg"},{"bike_id":"5e20d158-bea3-40bd-8897-92a540cd5ccc","system_id":"levelo_inurba_marseille","lat":43.23195,"lon":5.35546,"is_reserved":false,"is_disabled":false,"rental_uris":{"android":"levelo://app?vid=5e20d158-bea3-40bd-8897-92a540cd5ccc","ios":"levelo://app?vid=5e20d158-bea3-40bd-8897-92a540cd5ccc"},"vehicle_type_id":"4","last_reported":1727449751,"current_range_meters":28000,"station_id":"ce4bhu92rcd13ifvqi70","pricing_plan_id":"cebpf4jnsgd1na2vs0mg"},{"bike_id":"40f876c2-0ea1-4fd6-9a43-261de586a225","system_id":"levelo_inurba_marseille","lat":43.29623,"lon":5.37153,"is_reserved":false,"is_disabled":false,"rental_uris":{"android":"levelo://app?vid=40f876c2-0ea1-4fd6-9a43-261de586a225","ios":"levelo://app?vid=40f876c2-0ea1-4fd6-9a43-261de586a225"},"vehicle_type_id":"4","last_reported":1727449751,"current_range_meters":27200,"station_id":"ce4bgnh2rcd13ifvqc0g","pricing_plan_id":"cebpf4jnsgd1na2vs0mg"},{"bike_id":"6b57aa8e-d7f2-41a0-a878-85235bbfe481","system_id":"levelo_inurba_marseille","lat":43.27379,"lon":5.36253,"is_reserved":false,"is_disabled":false,"rental_uris":{"android":"levelo://app?vid=6b57aa8e-d7f2-41a0-a878-85235bbfe481","ios":"levelo://app?vid=6b57aa8e-d7f2-41a0-a878-85235bbfe481"},"vehicle_type_id":"4","last_reported":1727449751,"current_range_meters":10000,"station_id":"ce4bhbh2rcd13ifvqeo0","pricing_plan_id":"cebpf4jnsgd1na2vs0mg"},{"bike_id":"3559a2de-0d02-4a84-bab6-b645d8a3a9f1","system_id":"levelo_inurba_marseille","lat":43.2971,"lon":5.36613,"is_reserved":false,"is_disabled":false,"rental_uris":{"android":"levelo://app?vid=3559a2de-0d02-4a84-bab6-b645d8a3a9f1","ios":"levelo://app?vid=3559a2de-0d02-4a84-bab6-b645d8a3a9f1"},"vehicle_type_id":"4","last_reported":1727449751,"current_range_meters":16000,"station_id":"ce4bgn12rcd13ifvqbt0","pricing_plan_id":"cebpf4jnsgd1na2vs0mg"},{"bike_id":"6a5eb81d-33be-4400-b298-f120c39bd5b0","system_id":"levelo_inurba_marseille","lat":43.31991,"lon":5.38143,"is_reserved":false,"is_disabled":false,"rental_uris":{"android":"levelo://app?vid=6a5eb81d-33be-4400-b298-f120c39bd5b0","ios":"levelo://app?vid=6a5eb81d-33be-4400-b298-f120c39bd5b0"},"vehicle_type_id":"4","last_reported":1727449751,"current_range_meters":38800,"station_id":"ce4bhr12rcd13ifvqhpg","pricing_plan_id":"cebpf4jnsgd1na2vs0mg"},{"bike_id":"6a1a9ced-4a27-48c0-a8d0-865bce5c6939","system_id":"levelo_inurba_marseille","lat":43.30039,"lon":5.36745,"is_reserved":false,"is_disabled":false,"rental_uris":{"android":"levelo://app?vid=6a1a9ced-4a27-48c0-a8d0-865bce5c6939","ios":"levelo://app?vid=6a1a9ced-4a27-48c0-a8d0-865bce5c6939"},"vehicle_type_id":"4","last_reported":1727449751,"current_range_meters":20400,"station_id":"ce4bgt12rcd13ifvqcd0","pricing_plan_id":"cebpf4jnsgd1na2vs0mg"},{"bike_id":"0ff38679-ea37-447e-a818-3fe4e9db7d83","system_id":"levelo_inurba_marseille","lat":43.31864,"lon":5.42892,"is_reserved":false,"is_disabled":false,"rental_uris":{"android":"levelo://app?vid=0ff38679-ea37-447e-a818-3fe4e9db7d83","ios":"levelo://app?vid=0ff38679-ea37-447e-a818-3fe4e9db7d83"},"vehicle_type_id":"4","last_reported":1727449751,"current_range_meters":19600,"station_id":"ce4bhp92rcd13ifvqhcg","pricing_plan_id":"cebpf4jnsgd1na2vs0mg"},{"bike_id":"202d0f96-9b89-45a2-b019-3507273a30d5","system_id":"levelo_inurba_marseille","lat":43.23188,"lon":5.39992,"is_reserved":false,"is_disabled":false,"rental_uris":{"android":"levelo://app?vid=202d0f96-9b89-45a2-b019-3507273a30d5","ios":"levelo://app?vid=202d0f96-9b89-45a2-b019-3507273a30d5"},"vehicle_type_id":"4","last_reported":1727449751,"current_range_meters":6000,"station_id":"ce4bhn12rcd13ifvqgqg","pricing_plan_id":"cebpf4jnsgd1na2vs0mg"},{"bike_id":"1926ecb3-351f-45fd-af40-afbf66771ed1","system_id":"levelo_inurba_marseille","lat":43.2885,"lon":5.35847,"is_reserved":false,"is_disabled":false,"rental_uris":{"android":"levelo://app?vid=1926ecb3-351f-45fd-af40-afbf66771ed1","ios":"levelo://app?vid=1926ecb3-351f-45fd-af40-afbf66771ed1"},"vehicle_type_id":"4","last_reported":1727449751,"current_range_meters":18000,"station_id":"ce4bhb12rcd13ifvqem0","pricing_plan_id":"cebpf4jnsgd1na2vs0mg"},{"bike_id":"e668679b-a1c4-4c56-b2df-1cff4497f3b3","system_id":"levelo_inurba_marseille","lat":43.23197,"lon":5.35548,"is_reserved":false,"is_disabled":false,"rental_uris":{"android":"levelo://app?vid=e668679b-a1c4-4c56-b2df-1cff4497f3b3","ios":"levelo://app?vid=e668679b-a1c4-4c56-b2df-1cff4497f3b3"},"vehicle_type_id":"4","last_reported":1727449751,"current_range_meters":11200,"station_id":"ce4bhu92rcd13ifvqi70","pricing_plan_id":"cebpf4jnsgd1na2vs0mg"},{"bike_id":"52bbfc2d-b7e4-4ba5-99b7-022961b4ee60","system_id":"levelo_inurba_marseille","lat":43.2905,"lon":5.35915,"is_reserved":false,"is_disabled":false,"rental_uris":{"android":"levelo://app?vid=52bbfc2d-b7e4-4ba5-99b7-022961b4ee60","ios":"levelo://app?vid=52bbfc2d-b7e4-4ba5-99b7-022961b4ee60"},"vehicle_type_id":"4","last_reported":1727449751,"current_range_meters":34000,"station_id":"ce4bha92rcd13ifvqeg0","pricing_plan_id":"cebpf4jnsgd1na2vs0mg"},{"bike_id":"000f5c0b-520a-4c34-bab1-17fcab09c2c9","system_id":"levelo_inurba_marseille","lat":43.31363,"lon":5.3849,"is_reserved":false,"is_disabled":false,"rental_uris":{"android":"levelo://app?vid=000f5c0b-520a-4c34-bab1-17fcab09c2c9","ios":"levelo://app?vid=000f5c0b-520a-4c34-bab1-17fcab09c2c9"},"vehicle_type_id":"4","last_reported":1727449751,"current_range_meters":24000,"station_id":"ce4bgt92rcd13ifvqcf0","pricing_plan_id":"cebpf4jnsgd1na2vs0mg"},{"bike_id":"15571659-d5da-488d-b3be-bf88d03e8628","system_id":"levelo_inurba_marseille","lat":43.33764,"lon":5.37449,"is_reserved":false,"is_disabled":false,"rental_uris":{"android":"levelo://app?vid=15571659-d5da-488d-b3be-bf88d03e8628","ios":"levelo://app?vid=15571659-d5da-488d-b3be-bf88d03e8628"},"vehicle_type_id":"4","last_reported":1727449751,"current_range_meters":25200,"station_id":"","pricing_plan_id":"cebpf4jnsgd1na2vs0mg"},{"bike_id":"2a0d1acf-c3be-4bf9-823a-101e9d83e939","system_id":"levelo_inurba_marseille","lat":43.22927,"lon":5.35378,"is_reserved":false,"is_disabled":false,"rental_uris":{"android":"levelo://app?vid=2a0d1acf-c3be-4bf9-823a-101e9d83e939","ios":"levelo://app?vid=2a0d1acf-c3be-4bf9-823a-101e9d83e939"},"vehicle_type_id":"4","last_reported":1727449751,"current_range_meters":9600,"station_id":"cpo3532slgdg3j2ikp40","pricing_plan_id":"cebpf4jnsgd1na2vs0mg"},{"bike_id":"fc2e8c47-90ab-43e9-9474-2a4258e7c7e0","system_id":"levelo_inurba_marseille","lat":43.2954,"lon":5.38541,"is_reserved":false,"is_disabled":false,"rental_uris":{"android":"levelo://app?vid=fc2e8c47-90ab-43e9-9474-2a4258e7c7e0","ios":"levelo://app?vid=fc2e8c47-90ab-43e9-9474-2a4258e7c7e0"},"vehicle_type_id":"4","last_reported":1727449751,"current_range_meters":3200,"station_id":"ce4bgih2rcd13ifvqba0","pricing_plan_id":"cebpf4jnsgd1na2vs0mg"},{"bike_id":"2007af92-5f32-4fa9-ab69-08ff47e88d19","system_id":"levelo_inurba_marseille","lat":43.29419,"lon":5.38622,"is_reserved":false,"is_disabled":false,"rental_uris":{"android":"levelo://app?vid=2007af92-5f32-4fa9-ab69-08ff47e88d19","ios":"levelo://app?vid=2007af92-5f32-4fa9-ab69-08ff47e88d19"},"vehicle_type_id":"4","last_reported":1727449751,"current_range_meters":6000,"station_id":"ce4bh2h2rcd13ifvqdh0","pricing_plan_id":"cebpf4jnsgd1na2vs0mg"},{"bike_id":"336e2a13-da8e-4a22-8dd3-0afebd3b02a9","system_id":"levelo_inurba_marseille","lat":43.295851,"lon":5.367518,"is_reserved":false,"is_disabled":false,"rental_uris":{"android":"levelo://app?vid=336e2a13-da8e-4a22-8dd3-0afebd3b02a9","ios":"levelo://app?vid=336e2a13-da8e-4a22-8dd3-0afebd3b02a9"},"vehicle_type_id":"4","last_reported":1727449751,"current_range_meters":22800,"station_id":"ce4bgph2rcd13ifvqc2g","pricing_plan_id":"cebpf4jnsgd1na2vs0mg"},{"bike_id":"219be6ec-bd0c-4fd8-a1fa-e2e2cc5d00c7","system_id":"levelo_inurba_marseille","lat":43.303515,"lon":5.418768,"is_reserved":false,"is_disabled":false,"rental_uris":{"android":"levelo://app?vid=219be6ec-bd0c-4fd8-a1fa-e2e2cc5d00c7","ios":"levelo://app?vid=219be6ec-bd0c-4fd8-a1fa-e2e2cc5d00c7"},"vehicle_type_id":"4","last_reported":1727449751,"current_range_meters":16000,"station_id":"ce4bhop2rcd13ifvqh7g","pricing_plan_id":"cebpf4jnsgd1na2vs0mg"},{"bike_id":"129c47fb-ef86-4a6a-a61d-de1ad6f86e99","system_id":"levelo_inurba_marseille","lat":43.25085,"lon":5.39512,"is_reserved":false,"is_disabled":false,"rental_uris":{"android":"levelo://app?vid=129c47fb-ef86-4a6a-a61d-de1ad6f86e99","ios":"levelo://app?vid=129c47fb-ef86-4a6a-a61d-de1ad6f86e99"},"vehicle_type_id":"4","last_reported":1727449751,"current_range_meters":25200,"station_id":"ce4bhm12rcd13ifvqgkg","pricing_plan_id":"cebpf4jnsgd1na2vs0mg"},{"bike_id":"738e7e6c-8c54-4726-b743-05a0b0cf6bde","system_id":"levelo_inurba_marseille","lat":43.28384,"lon":5.37301,"is_reserved":false,"is_disabled":false,"rental_uris":{"android":"levelo://app?vid=738e7e6c-8c54-4726-b743-05a0b0cf6bde","ios":"levelo://app?vid=738e7e6c-8c54-4726-b743-05a0b0cf6bde"},"vehicle_type_id":"4","last_reported":1727449751,"current_range_meters":21600,"station_id":"","pricing_plan_id":"cebpf4jnsgd1na2vs0mg"},{"bike_id":"05c89dc0-4c72-4ce5-b74b-1070f066b216","system_id":"levelo_inurba_marseille","lat":43.29578,"lon":5.36731,"is_reserved":false,"is_disabled":false,"rental_uris":{"android":"levelo://app?vid=05c89dc0-4c72-4ce5-b74b-1070f066b216","ios":"levelo://app?vid=05c89dc0-4c72-4ce5-b74b-1070f066b216"},"vehicle_type_id":"4","last_reported":1727449751,"current_range_meters":20000,"station_id":"ce4bgph2rcd13ifvqc2g","pricing_plan_id":"cebpf4jnsgd1na2vs0mg"},{"bike_id":"5d35ad56-2fc9-4898-9f90-b668f9230c9f","system_id":"levelo_inurba_marseille","lat":43.26036,"lon":5.37543,"is_reserved":false,"is_disabled":false,"rental_uris":{"android":"levelo://app?vid=5d35ad56-2fc9-4898-9f90-b668f9230c9f","ios":"levelo://app?vid=5d35ad56-2fc9-4898-9f90-b668f9230c9f"},"vehicle_type_id":"4","last_reported":1727449751,"current_range_meters":22400,"station_id":"ce4bhgh2rcd13ifvqfa0","pricing_plan_id":"cebpf4jnsgd1na2vs0mg"},{"bike_id":"3a264767-b76b-40c8-9a8e-a975e1ec95aa","system_id":"levelo_inurba_marseille","lat":43.31167,"lon":5.38689,"is_reserved":false,"is_disabled":false,"rental_uris":{"android":"levelo://app?vid=3a264767-b76b-40c8-9a8e-a975e1ec95aa","ios":"levelo://app?vid=3a264767-b76b-40c8-9a8e-a975e1ec95aa"},"vehicle_type_id":"4","last_reported":1727449751,"current_range_meters":27600,"station_id":"ce4bgv12rcd13ifvqcp0","pricing_plan_id":"cebpf4jnsgd1na2vs0mg"},{"bike_id":"8d7f4efa-c216-4130-aa15-6683d5fc3870","system_id":"levelo_inurba_marseille","lat":43.23197,"lon":5.35543,"is_reserved":false,"is_disabled":false,"rental_uris":{"android":"levelo://app?vid=8d7f4efa-c216-4130-aa15-6683d5fc3870","ios":"levelo://app?vid=8d7f4efa-c216-4130-aa15-6683d5fc3870"},"vehicle_type_id":"4","last_reported":1727449751,"current_range_meters":14400,"station_id":"ce4bhu92rcd13ifvqi70","pricing_plan_id":"cebpf4jnsgd1na2vs0mg"},{"bike_id":"0001ee84-c690-41e3-8e58-ecbc8d09e96a","system_id":"levelo_inurba_marseille","lat":43.27172,"lon":5.40996,"is_reserved":false,"is_disabled":false,"rental_uris":{"android":"levelo://app?vid=0001ee84-c690-41e3-8e58-ecbc8d09e96a","ios":"levelo://app?vid=0001ee84-c690-41e3-8e58-ecbc8d09e96a"},"vehicle_type_id":"4","last_reported":1727449751,"current_range_meters":39200,"station_id":"ce4bhl12rcd13ifvqgf0","pricing_plan_id":"cebpf4jnsgd1na2vs0mg"},{"bike_id":"69686699-1c43-4515-bc0f-e53d59f5ec2c","system_id":"levelo_inurba_marseille","lat":43.29253,"lon":5.40905,"is_reserved":false,"is_disabled":false,"rental_uris":{"android":"levelo://app?vid=69686699-1c43-4515-bc0f-e53d59f5ec2c","ios":"levelo://app?vid=69686699-1c43-4515-bc0f-e53d59f5ec2c"},"vehicle_type_id":"4","last_reported":1727449751,"current_range_meters":23200,"station_id":"ce4bh192rcd13ifvqdc0","pricing_plan_id":"cebpf4jnsgd1na2vs0mg"},{"bike_id":"e27c5c42-f434-4a6b-859d-06a1fe2a577b","system_id":"levelo_inurba_marseille","lat":43.26942,"lon":5.40247,"is_reserved":false,"is_disabled":false,"rental_uris":{"android":"levelo://app?vid=e27c5c42-f434-4a6b-859d-06a1fe2a577b","ios":"levelo://app?vid=e27c5c42-f434-4a6b-859d-06a1fe2a577b"},"vehicle_type_id":"4","last_reported":1727449751,"current_range_meters":26800,"station_id":"cjm6bp8fraef2m0cb0m0","pricing_plan_id":"cebpf4jnsgd1na2vs0mg"},{"bike_id":"0646651c-319f-4cbe-b3bb-23cddc7b7560","system_id":"levelo_inurba_marseille","lat":43.29188,"lon":5.35797,"is_reserved":false,"is_disabled":false,"rental_uris":{"android":"levelo://app?vid=0646651c-319f-4cbe-b3bb-23cddc7b7560","ios":"levelo://app?vid=0646651c-319f-4cbe-b3bb-23cddc7b7560"},"vehicle_type_id":"4","last_reported":1727449751,"current_range_meters":31200,"station_id":"ce4bhb12rcd13ifvqel0","pricing_plan_id":"cebpf4jnsgd1na2vs0mg"},{"bike_id":"9211c7c3-eaf1-48bb-a361-cb9e28ff67bd","system_id":"levelo_inurba_marseille","lat":43.2782,"lon":5.40717,"is_reserved":false,"is_disabled":false,"rental_uris":{"android":"levelo://app?vid=9211c7c3-eaf1-48bb-a361-cb9e28ff67bd","ios":"levelo://app?vid=9211c7c3-eaf1-48bb-a361-cb9e28ff67bd"},"vehicle_type_id":"4","last_reported":1727449751,"current_range_meters":37600,"station_id":"ce4bhnh2rcd13ifvqgtg","pricing_plan_id":"cebpf4jnsgd1na2vs0mg"},{"bike_id":"63eb4c22-2293-4e7c-82ec-a3a56f4644db","system_id":"levelo_inurba_marseille","lat":43.28075,"lon":5.39649,"is_reserved":false,"is_disabled":false,"rental_uris":{"android":"levelo://app?vid=63eb4c22-2293-4e7c-82ec-a3a56f4644db","ios":"levelo://app?vid=63eb4c22-2293-4e7c-82ec-a3a56f4644db"},"vehicle_type_id":"4","last_reported":1727449751,"current_range_meters":3600,"station_id":"ce4bho12rcd13ifvqh2g","pricing_plan_id":"cebpf4jnsgd1na2vs0mg"},{"bike_id":"8898d200-8a1f-4ddc-860a-95fa77040bfc","system_id":"levelo_inurba_marseille","lat":43.29417,"lon":5.38623,"is_reserved":false,"is_disabled":false,"rental_uris":{"android":"levelo://app?vid=8898d200-8a1f-4ddc-860a-95fa77040bfc","ios":"levelo://app?vid=8898d200-8a1f-4ddc-860a-95fa77040bfc"},"vehicle_type_id":"4","last_reported":1727449751,"current_range_meters":38000,"station_id":"ce4bh2h2rcd13ifvqdh0","pricing_plan_id":"cebpf4jnsgd1na2vs0mg"},{"bike_id":"a93ed487-121d-4ead-9d6e-de68e81f444f","system_id":"levelo_inurba_marseille","lat":43.31993,"lon":5.38147,"is_reserved":false,"is_disabled":false,"rental_uris":{"android":"levelo://app?vid=a93ed487-121d-4ead-9d6e-de68e81f444f","ios":"levelo://app?vid=a93ed487-121d-4ead-9d6e-de68e81f444f"},"vehicle_type_id":"4","last_reported":1727449751,"current_range_meters":27200,"station_id":"ce4bhr12rcd13ifvqhpg","pricing_plan_id":"cebpf4jnsgd1na2vs0mg"},{"bike_id":"1372645c-30c0-4619-ace4-9d92b2e8b363","system_id":"levelo_inurba_marseille","lat":43.32486,"lon":5.36569,"is_reserved":false,"is_disabled":false,"rental_uris":{"android":"levelo://app?vid=1372645c-30c0-4619-ace4-9d92b2e8b363","ios":"levelo://app?vid=1372645c-30c0-4619-ace4-9d92b2e8b363"},"vehicle_type_id":"4","last_reported":1727449751,"current_range_meters":38800,"station_id":"ce4bhs12rcd13ifvqhvg","pricing_plan_id":"cebpf4jnsgd1na2vs0mg"},{"bike_id":"c9656059-b28e-4b64-b742-b3daf1e4b552","system_id":"levelo_inurba_marseille","lat":43.29002,"lon":5.3758,"is_reserved":false,"is_disabled":false,"rental_uris":{"android":"levelo://app?vid=c9656059-b28e-4b64-b742-b3daf1e4b552","ios":"levelo://app?vid=c9656059-b28e-4b64-b742-b3daf1e4b552"},"vehicle_type_id":"4","last_reported":1727449751,"current_range_meters":32800,"station_id":"ce4bh692rcd13ifvqe90","pricing_plan_id":"cebpf4jnsgd1na2vs0mg"},{"bike_id":"c2b26949-f466-4e45-a198-11ba878cbfe3","system_id":"levelo_inurba_marseille","lat":43.23183,"lon":5.39995,"is_reserved":false,"is_disabled":false,"rental_uris":{"android":"levelo://app?vid=c2b26949-f466-4e45-a198-11ba878cbfe3","ios":"levelo://app?vid=c2b26949-f466-4e45-a198-11ba878cbfe3"},"vehicle_type_id":"4","last_reported":1727449751,"current_range_meters":28400,"station_id":"ce4bhn12rcd13ifvqgqg","pricing_plan_id":"cebpf4jnsgd1na2vs0mg"},{"bike_id":"40100251-8110-41b1-ab19-51079ca80499","system_id":"levelo_inurba_marseille","lat":43.25589,"lon":5.3822,"is_reserved":false,"is_disabled":false,"rental_uris":{"android":"levelo://app?vid=40100251-8110-41b1-ab19-51079ca80499","ios":"levelo://app?vid=40100251-8110-41b1-ab19-51079ca80499"},"vehicle_type_id":"4","last_reported":1727449751,"current_range_meters":26800,"station_id":"ce4bhih2rcd13ifvqfs0","pricing_plan_id":"cebpf4jnsgd1na2vs0mg"},{"bike_id":"5164ff3b-ed31-41c0-8004-a462d6a01004","system_id":"levelo_inurba_marseille","lat":43.29603,"lon":5.37732,"is_reserved":false,"is_disabled":false,"rental_uris":{"android":"levelo://app?vid=5164ff3b-ed31-41c0-8004-a462d6a01004","ios":"levelo://app?vid=5164ff3b-ed31-41c0-8004-a462d6a01004"},"vehicle_type_id":"4","last_reported":1727449751,"current_range_meters":22400,"station_id":"ce4bgi92rcd13ifvqb90","pricing_plan_id":"cebpf4jnsgd1na2vs0mg"},{"bike_id":"fdbacb71-e6cf-4268-91df-51802651676e","system_id":"levelo_inurba_marseille","lat":43.29264,"lon":5.38433,"is_reserved":false,"is_disabled":false,"rental_uris":{"android":"levelo://app?vid=fdbacb71-e6cf-4268-91df-51802651676e","ios":"levelo://app?vid=fdbacb71-e6cf-4268-91df-51802651676e"},"vehicle_type_id":"4","last_reported":1727449751,"current_range_meters":6000,"station_id":"ce4bh692rcd13ifvqea0","pricing_plan_id":"cebpf4jnsgd1na2vs0mg"},{"bike_id":"5e3b241c-3c97-42e3-b3d4-45f8d5c5c331","system_id":"levelo_inurba_marseille","lat":43.32034,"lon":5.41554,"is_reserved":false,"is_disabled":false,"rental_uris":{"android":"levelo://app?vid=5e3b241c-3c97-42e3-b3d4-45f8d5c5c331","ios":"levelo://app?vid=5e3b241c-3c97-42e3-b3d4-45f8d5c5c331"},"vehicle_type_id":"4","last_reported":1727449751,"current_range_meters":14400,"station_id":"ce4bhq92rcd13ifvqhkg","pricing_plan_id":"cebpf4jnsgd1na2vs0mg"},{"bike_id":"ea76eb47-d474-4dad-b69b-0440318225ce","system_id":"levelo_inurba_marseille","lat":43.2586,"lon":5.39901,"is_reserved":false,"is_disabled":false,"rental_uris":{"android":"levelo://app?vid=ea76eb47-d474-4dad-b69b-0440318225ce","ios":"levelo://app?vid=ea76eb47-d474-4dad-b69b-0440318225ce"},"vehicle_type_id":"4","last_reported":1727449751,"current_range_meters":8800,"station_id":"ce4bhl92rcd13ifvqghg","pricing_plan_id":"cebpf4jnsgd1na2vs0mg"},{"bike_id":"5a87da7a-b5c4-4d2e-b4ad-8df219c9f6e3","system_id":"levelo_inurba_marseille","lat":43.26797,"lon":5.39415,"is_reserved":false,"is_disabled":false,"rental_uris":{"android":"levelo://app?vid=5a87da7a-b5c4-4d2e-b4ad-8df219c9f6e3","ios":"levelo://app?vid=5a87da7a-b5c4-4d2e-b4ad-8df219c9f6e3"},"vehicle_type_id":"4","last_reported":1727449751,"current_range_meters":39200,"station_id":"ce4bhh12rcd13ifvqfg0","pricing_plan_id":"cebpf4jnsgd1na2vs0mg"},{"bike_id":"7ed20a49-945f-4ce1-9fca-4346b6780f51","system_id":"levelo_inurba_marseille","lat":43.30143,"lon":5.38079,"is_reserved":false,"is_disabled":false,"rental_uris":{"android":"levelo://app?vid=7ed20a49-945f-4ce1-9fca-4346b6780f51","ios":"levelo://app?vid=7ed20a49-945f-4ce1-9fca-4346b6780f51"},"vehicle_type_id":"4","last_reported":1727449751,"current_range_meters":10000,"station_id":"ce4bgjp2rcd13ifvqbh0","pricing_plan_id":"cebpf4jnsgd1na2vs0mg"},{"bike_id":"99528ca6-2c3d-4bc2-90d1-b0b1e8962a52","system_id":"levelo_inurba_marseille","lat":43.26195,"lon":5.37448,"is_reserved":false,"is_disabled":false,"rental_uris":{"android":"levelo://app?vid=99528ca6-2c3d-4bc2-90d1-b0b1e8962a52","ios":"levelo://app?vid=99528ca6-2c3d-4bc2-90d1-b0b1e8962a52"},"vehicle_type_id":"4","last_reported":1727449751,"current_range_meters":36000,"station_id":"ce4bhgp2rcd13ifvqfc0","pricing_plan_id":"cebpf4jnsgd1na2vs0mg"},{"bike_id":"9eece9b4-e7c3-4da6-8dd6-722089c0fd62","system_id":"levelo_inurba_marseille","lat":43.29215,"lon":5.36052,"is_reserved":false,"is_disabled":false,"rental_uris":{"android":"levelo://app?vid=9eece9b4-e7c3-4da6-8dd6-722089c0fd62","ios":"levelo://app?vid=9eece9b4-e7c3-4da6-8dd6-722089c0fd62"},"vehicle_type_id":"4","last_reported":1727449751,"current_range_meters":35200,"station_id":"ce4bhbh2rcd13ifvqeqg","pricing_plan_id":"cebpf4jnsgd1na2vs0mg"},{"bike_id":"84e91030-21f6-4737-b5c1-37d05d2a9806","system_id":"levelo_inurba_marseille","lat":43.30863,"lon":5.3685,"is_reserved":false,"is_disabled":false,"rental_uris":{"android":"levelo://app?vid=84e91030-21f6-4737-b5c1-37d05d2a9806","ios":"levelo://app?vid=84e91030-21f6-4737-b5c1-37d05d2a9806"},"vehicle_type_id":"4","last_reported":1727449751,"current_range_meters":16000,"station_id":"ce4bgn92rcd13ifvqbvg","pricing_plan_id":"cebpf4jnsgd1na2vs0mg"},{"bike_id":"ed8e4580-269a-4463-8433-87c59a78b9c6","system_id":"levelo_inurba_marseille","lat":43.2417,"lon":5.36394,"is_reserved":false,"is_disabled":false,"rental_uris":{"android":"levelo://app?vid=ed8e4580-269a-4463-8433-87c59a78b9c6","ios":"levelo://app?vid=ed8e4580-269a-4463-8433-87c59a78b9c6"},"vehicle_type_id":"4","last_reported":1727449751,"current_range_meters":24400,"station_id":"cpo36qri1sfpv3e86is0","pricing_plan_id":"cebpf4jnsgd1na2vs0mg"},{"bike_id":"8ec153c9-aa9b-4e41-bd18-f9940fcd817e","system_id":"levelo_inurba_marseille","lat":43.28282,"lon":5.35076,"is_reserved":false,"is_disabled":false,"rental_uris":{"android":"levelo://app?vid=8ec153c9-aa9b-4e41-bd18-f9940fcd817e","ios":"levelo://app?vid=8ec153c9-aa9b-4e41-bd18-f9940fcd817e"},"vehicle_type_id":"4","last_reported":1727449751,"current_range_meters":4800,"station_id":"ce4bhbp2rcd13ifvqerg","pricing_plan_id":"cebpf4jnsgd1na2vs0mg"},{"bike_id":"bce6a1b2-4354-4d79-bdbd-b1dd00ec190c","system_id":"levelo_inurba_marseille","lat":43.29297,"lon":5.37243,"is_reserved":false,"is_disabled":false,"rental_uris":{"android":"levelo://app?vid=bce6a1b2-4354-4d79-bdbd-b1dd00ec190c","ios":"levelo://app?vid=bce6a1b2-4354-4d79-bdbd-b1dd00ec190c"},"vehicle_type_id":"4","last_reported":1727449751,"current_range_meters":12400,"station_id":"","pricing_plan_id":"cebpf4jnsgd1na2vs0mg"},{"bike_id":"90addf80-da61-4d64-949d-7eeccdd0a7c1","system_id":"levelo_inurba_marseille","lat":43.33024,"lon":5.39037,"is_reserved":false,"is_disabled":false,"rental_uris":{"android":"levelo://app?vid=90addf80-da61-4d64-949d-7eeccdd0a7c1","ios":"levelo://app?vid=90addf80-da61-4d64-949d-7eeccdd0a7c1"},"vehicle_type_id":"4","last_reported":1727449751,"current_range_meters":8000,"station_id":"ce4bhr92rcd13ifvqhrg","pricing_plan_id":"cebpf4jnsgd1na2vs0mg"},{"bike_id":"f373be3c-15de-45b2-b704-18ce7cf29101","system_id":"levelo_inurba_marseille","lat":43.28863,"lon":5.38766,"is_reserved":false,"is_disabled":false,"rental_uris":{"android":"levelo://app?vid=f373be3c-15de-45b2-b704-18ce7cf29101","ios":"levelo://app?vid=f373be3c-15de-45b2-b704-18ce7cf29101"},"vehicle_type_id":"4","last_reported":1727449751,"current_range_meters":28400,"station_id":"","pricing_plan_id":"cebpf4jnsgd1na2vs0mg"},{"bike_id":"365363f9-29fc-4411-b1ec-ff8566afced1","system_id":"levelo_inurba_marseille","lat":43.33771,"lon":5.37433,"is_reserved":false,"is_disabled":false,"rental_uris":{"android":"levelo://app?vid=365363f9-29fc-4411-b1ec-ff8566afced1","ios":"levelo://app?vid=365363f9-29fc-4411-b1ec-ff8566afced1"},"vehicle_type_id":"4","last_reported":1727449751,"current_range_meters":29600,"station_id":"","pricing_plan_id":"cebpf4jnsgd1na2vs0mg"},{"bike_id":"7cc94550-a2de-41f6-a710-fce4fe555246","system_id":"levelo_inurba_marseille","lat":43.26809,"lon":5.40269,"is_reserved":false,"is_disabled":false,"rental_uris":{"android":"levelo://app?vid=7cc94550-a2de-41f6-a710-fce4fe555246","ios":"levelo://app?vid=7cc94550-a2de-41f6-a710-fce4fe555246"},"vehicle_type_id":"4","last_reported":1727449751,"current_range_meters":34800,"station_id":"ce501612rcd8frsf0b60","pricing_plan_id":"cebpf4jnsgd1na2vs0mg"},{"bike_id":"2c279ecb-4c3b-4015-af84-4592221a9416","system_id":"levelo_inurba_marseille","lat":43.28428,"lon":5.34983,"is_reserved":false,"is_disabled":false,"rental_uris":{"android":"levelo://app?vid=2c279ecb-4c3b-4015-af84-4592221a9416","ios":"levelo://app?vid=2c279ecb-4c3b-4015-af84-4592221a9416"},"vehicle_type_id":"4","last_reported":1727449751,"current_range_meters":30800,"station_id":"ce4bhbh2rcd13ifvqepg","pricing_plan_id":"cebpf4jnsgd1na2vs0mg"},{"bike_id":"43c0c15c-7c74-4c12-b23e-4393ebb911d0","system_id":"levelo_inurba_marseille","lat":43.32288,"lon":5.38263,"is_reserved":false,"is_disabled":false,"rental_uris":{"android":"levelo://app?vid=43c0c15c-7c74-4c12-b23e-4393ebb911d0","ios":"levelo://app?vid=43c0c15c-7c74-4c12-b23e-4393ebb911d0"},"vehicle_type_id":"4","last_reported":1727449751,"current_range_meters":37600,"station_id":"ce4bhr12rcd13ifvqhqg","pricing_plan_id":"cebpf4jnsgd1na2vs0mg"},{"bike_id":"2cacbbf1-9463-4b23-92b0-2d45d777be4e","system_id":"levelo_inurba_marseille","lat":43.28426,"lon":5.34984,"is_reserved":false,"is_disabled":false,"rental_uris":{"android":"levelo://app?vid=2cacbbf1-9463-4b23-92b0-2d45d777be4e","ios":"levelo://app?vid=2cacbbf1-9463-4b23-92b0-2d45d777be4e"},"vehicle_type_id":"4","last_reported":1727449751,"current_range_meters":39200,"station_id":"ce4bhbh2rcd13ifvqepg","pricing_plan_id":"cebpf4jnsgd1na2vs0mg"},{"bike_id":"4027e5a3-7bde-4f3d-8ca7-f9ca6b2e1f95","system_id":"levelo_inurba_marseille","lat":43.28159,"lon":5.42637,"is_reserved":false,"is_disabled":false,"rental_uris":{"android":"levelo://app?vid=4027e5a3-7bde-4f3d-8ca7-f9ca6b2e1f95","ios":"levelo://app?vid=4027e5a3-7bde-4f3d-8ca7-f9ca6b2e1f95"},"vehicle_type_id":"4","last_reported":1727449751,"current_range_meters":28400,"station_id":"ce4bhnh2rcd13ifvqgug","pricing_plan_id":"cebpf4jnsgd1na2vs0mg"},{"bike_id":"d5b74c70-a66b-4f2c-810d-2594b9a0ef51","system_id":"levelo_inurba_marseille","lat":43.29895,"lon":5.43662,"is_reserved":false,"is_disabled":false,"rental_uris":{"android":"levelo://app?vid=d5b74c70-a66b-4f2c-810d-2594b9a0ef51","ios":"levelo://app?vid=d5b74c70-a66b-4f2c-810d-2594b9a0ef51"},"vehicle_type_id":"4","last_reported":1727449751,"current_range_meters":38400,"station_id":"ce4bhpp2rcd13ifvqhfg","pricing_plan_id":"cebpf4jnsgd1na2vs0mg"},{"bike_id":"77b1eef7-5034-4931-a64e-d7f949108dc0","system_id":"levelo_inurba_marseille","lat":43.25092,"lon":5.39518,"is_reserved":false,"is_disabled":false,"rental_uris":{"android":"levelo://app?vid=77b1eef7-5034-4931-a64e-d7f949108dc0","ios":"levelo://app?vid=77b1eef7-5034-4931-a64e-d7f949108dc0"},"vehicle_type_id":"4","last_reported":1727449751,"current_range_meters":3200,"station_id":"ce4bhm12rcd13ifvqgkg","pricing_plan_id":"cebpf4jnsgd1na2vs0mg"},{"bike_id":"21e07afd-c138-4612-8de3-3b0323406d26","system_id":"levelo_inurba_marseille","lat":43.26573,"lon":5.39003,"is_reserved":false,"is_disabled":false,"rental_uris":{"android":"levelo://app?vid=21e07afd-c138-4612-8de3-3b0323406d26","ios":"levelo://app?vid=21e07afd-c138-4612-8de3-3b0323406d26"},"vehicle_type_id":"4","last_reported":1727449751,"current_range_meters":34800,"station_id":"ce4bhe12rcd13ifvqf30","pricing_plan_id":"cebpf4jnsgd1na2vs0mg"},{"bike_id":"b579715c-20e2-4755-8fdf-8d2fd1b7b809","system_id":"levelo_inurba_marseille","lat":43.337444,"lon":5.374475,"is_reserved":false,"is_disabled":false,"rental_uris":{"android":"levelo://app?vid=b579715c-20e2-4755-8fdf-8d2fd1b7b809","ios":"levelo://app?vid=b579715c-20e2-4755-8fdf-8d2fd1b7b809"},"vehicle_type_id":"4","last_reported":1727449751,"current_range_meters":34800,"station_id":"","pricing_plan_id":"cebpf4jnsgd1na2vs0mg"},{"bike_id":"00f44831-083c-413c-bfc7-58fbd629c98d","system_id":"levelo_inurba_marseille","lat":43.306,"lon":5.37221,"is_reserved":false,"is_disabled":false,"rental_uris":{"android":"levelo://app?vid=00f44831-083c-413c-bfc7-58fbd629c98d","ios":"levelo://app?vid=00f44831-083c-413c-bfc7-58fbd629c98d"},"vehicle_type_id":"4","last_reported":1727449751,"current_range_meters":28400,"station_id":"ce4bgqh2rcd13ifvqc4g","pricing_plan_id":"cebpf4jnsgd1na2vs0mg"},{"bike_id":"5e8ea60f-0eeb-48ff-9af9-c25283e5d926","system_id":"levelo_inurba_marseille","lat":43.26808,"lon":5.4026,"is_reserved":false,"is_disabled":false,"rental_uris":{"android":"levelo://app?vid=5e8ea60f-0eeb-48ff-9af9-c25283e5d926","ios":"levelo://app?vid=5e8ea60f-0eeb-48ff-9af9-c25283e5d926"},"vehicle_type_id":"4","last_reported":1727449751,"current_range_meters":19200,"station_id":"ce501612rcd8frsf0b60","pricing_plan_id":"cebpf4jnsgd1na2vs0mg"},{"bike_id":"1cfde44a-e1d1-49cf-b093-b6581a43ba68","system_id":"levelo_inurba_marseille","lat":43.29718,"lon":5.37712,"is_reserved":false,"is_disabled":false,"rental_uris":{"android":"levelo://app?vid=1cfde44a-e1d1-49cf-b093-b6581a43ba68","ios":"levelo://app?vid=1cfde44a-e1d1-49cf-b093-b6581a43ba68"},"vehicle_type_id":"4","last_reported":1727449751,"current_range_meters":24000,"station_id":"ce4bgkh2rcd13ifvqbl0","pricing_plan_id":"cebpf4jnsgd1na2vs0mg"},{"bike_id":"7cc0f744-ef3a-4ec1-8099-2f538f8423d3","system_id":"levelo_inurba_marseille","lat":43.29031,"lon":5.39967,"is_reserved":false,"is_disabled":false,"rental_uris":{"android":"levelo://app?vid=7cc0f744-ef3a-4ec1-8099-2f538f8423d3","ios":"levelo://app?vid=7cc0f744-ef3a-4ec1-8099-2f538f8423d3"},"vehicle_type_id":"4","last_reported":1727449751,"current_range_meters":6800,"station_id":"ce4bh392rcd13ifvqdm0","pricing_plan_id":"cebpf4jnsgd1na2vs0mg"},{"bike_id":"6a3102cc-e255-46c2-a2dd-69819d1fdd6f","system_id":"levelo_inurba_marseille","lat":43.23193,"lon":5.35539,"is_reserved":false,"is_disabled":false,"rental_uris":{"android":"levelo://app?vid=6a3102cc-e255-46c2-a2dd-69819d1fdd6f","ios":"levelo://app?vid=6a3102cc-e255-46c2-a2dd-69819d1fdd6f"},"vehicle_type_id":"4","last_reported":1727449751,"current_range_meters":17200,"station_id":"ce4bhu92rcd13ifvqi70","pricing_plan_id":"cebpf4jnsgd1na2vs0mg"},{"bike_id":"a8ad96dc-e0f4-4a3f-9725-4f83b8c05346","system_id":"levelo_inurba_marseille","lat":43.23188,"lon":5.3998,"is_reserved":false,"is_disabled":false,"rental_uris":{"android":"levelo://app?vid=a8ad96dc-e0f4-4a3f-9725-4f83b8c05346","ios":"levelo://app?vid=a8ad96dc-e0f4-4a3f-9725-4f83b8c05346"},"vehicle_type_id":"4","last_reported":1727449751,"current_range_meters":39200,"station_id":"ce4bhn12rcd13ifvqgqg","pricing_plan_id":"cebpf4jnsgd1na2vs0mg"},{"bike_id":"fd6e197d-3ea4-491e-be63-35531aa72442","system_id":"levelo_inurba_marseille","lat":43.30604,"lon":5.37152,"is_reserved":false,"is_disabled":false,"rental_uris":{"android":"levelo://app?vid=fd6e197d-3ea4-491e-be63-35531aa72442","ios":"levelo://app?vid=fd6e197d-3ea4-491e-be63-35531aa72442"},"vehicle_type_id":"4","last_reported":1727449751,"current_range_meters":9600,"station_id":"","pricing_plan_id":"cebpf4jnsgd1na2vs0mg"},{"bike_id":"01290127-e395-4c09-b63e-f23cd333c192","system_id":"levelo_inurba_marseille","lat":43.28086,"lon":5.39665,"is_reserved":false,"is_disabled":false,"rental_uris":{"android":"levelo://app?vid=01290127-e395-4c09-b63e-f23cd333c192","ios":"levelo://app?vid=01290127-e395-4c09-b63e-f23cd333c192"},"vehicle_type_id":"4","last_reported":1727449751,"current_range_meters":30800,"station_id":"ce4bho12rcd13ifvqh2g","pricing_plan_id":"cebpf4jnsgd1na2vs0mg"},{"bike_id":"d1721c2f-3986-4b19-9cf9-b2bfdb978ae6","system_id":"levelo_inurba_marseille","lat":43.33753,"lon":5.37424,"is_reserved":false,"is_disabled":false,"rental_uris":{"android":"levelo://app?vid=d1721c2f-3986-4b19-9cf9-b2bfdb978ae6","ios":"levelo://app?vid=d1721c2f-3986-4b19-9cf9-b2bfdb978ae6"},"vehicle_type_id":"4","last_reported":1727449751,"current_range_meters":28000,"station_id":"","pricing_plan_id":"cebpf4jnsgd1na2vs0mg"},{"bike_id":"e3081d30-a933-4566-81bd-b60b998dd6fd","system_id":"levelo_inurba_marseille","lat":43.27374,"lon":5.36257,"is_reserved":false,"is_disabled":false,"rental_uris":{"android":"levelo://app?vid=e3081d30-a933-4566-81bd-b60b998dd6fd","ios":"levelo://app?vid=e3081d30-a933-4566-81bd-b60b998dd6fd"},"vehicle_type_id":"4","last_reported":1727449751,"current_range_meters":26000,"station_id":"ce4bhbh2rcd13ifvqeo0","pricing_plan_id":"cebpf4jnsgd1na2vs0mg"},{"bike_id":"9b3c27e2-c335-4a9a-bade-7e68d357b1d1","system_id":"levelo_inurba_marseille","lat":43.30421,"lon":5.41282,"is_reserved":false,"is_disabled":false,"rental_uris":{"android":"levelo://app?vid=9b3c27e2-c335-4a9a-bade-7e68d357b1d1","ios":"levelo://app?vid=9b3c27e2-c335-4a9a-bade-7e68d357b1d1"},"vehicle_type_id":"4","last_reported":1727449751,"current_range_meters":7200,"station_id":"ce4bhop2rcd13ifvqh8g","pricing_plan_id":"cebpf4jnsgd1na2vs0mg"},{"bike_id":"c40f2b99-ce97-4b03-933a-e2ed32b4fcfc","system_id":"levelo_inurba_marseille","lat":43.31364,"lon":5.38479,"is_reserved":false,"is_disabled":false,"rental_uris":{"android":"levelo://app?vid=c40f2b99-ce97-4b03-933a-e2ed32b4fcfc","ios":"levelo://app?vid=c40f2b99-ce97-4b03-933a-e2ed32b4fcfc"},"vehicle_type_id":"4","last_reported":1727449751,"current_range_meters":37600,"station_id":"ce4bgt92rcd13ifvqcf0","pricing_plan_id":"cebpf4jnsgd1na2vs0mg"},{"bike_id":"2c6ef1ad-f5db-4d7b-bae2-7189565fd5ae","system_id":"levelo_inurba_marseille","lat":43.31084,"lon":5.42427,"is_reserved":false,"is_disabled":false,"rental_uris":{"android":"levelo://app?vid=2c6ef1ad-f5db-4d7b-bae2-7189565fd5ae","ios":"levelo://app?vid=2c6ef1ad-f5db-4d7b-bae2-7189565fd5ae"},"vehicle_type_id":"4","last_reported":1727449751,"current_range_meters":24000,"station_id":"ce4bhp92rcd13ifvqhag","pricing_plan_id":"cebpf4jnsgd1na2vs0mg"},{"bike_id":"65c7323b-cce4-4d68-8ccf-eed8494600c3","system_id":"levelo_inurba_marseille","lat":43.295277,"lon":5.385511,"is_reserved":false,"is_disabled":false,"rental_uris":{"android":"levelo://app?vid=65c7323b-cce4-4d68-8ccf-eed8494600c3","ios":"levelo://app?vid=65c7323b-cce4-4d68-8ccf-eed8494600c3"},"vehicle_type_id":"4","last_reported":1727449751,"current_range_meters":14800,"station_id":"ce4bgih2rcd13ifvqba0","pricing_plan_id":"cebpf4jnsgd1na2vs0mg"},{"bike_id":"e6944f33-199d-4236-8ad7-241285668cf5","system_id":"levelo_inurba_marseille","lat":43.31364,"lon":5.38491,"is_reserved":false,"is_disabled":false,"rental_uris":{"android":"levelo://app?vid=e6944f33-199d-4236-8ad7-241285668cf5","ios":"levelo://app?vid=e6944f33-199d-4236-8ad7-241285668cf5"},"vehicle_type_id":"4","last_reported":1727449751,"current_range_meters":28800,"station_id":"ce4bgt92rcd13ifvqcf0","pricing_plan_id":"cebpf4jnsgd1na2vs0mg"},{"bike_id":"7bf6871c-a92b-4596-9011-8f1d8c229d8e","system_id":"levelo_inurba_marseille","lat":43.25847,"lon":5.38868,"is_reserved":false,"is_disabled":false,"rental_uris":{"android":"levelo://app?vid=7bf6871c-a92b-4596-9011-8f1d8c229d8e","ios":"levelo://app?vid=7bf6871c-a92b-4596-9011-8f1d8c229d8e"},"vehicle_type_id":"4","last_reported":1727449751,"current_range_meters":36400,"station_id":"","pricing_plan_id":"cebpf4jnsgd1na2vs0mg"},{"bike_id":"38b4139d-1246-47d9-bb39-4c6e121292d3","system_id":"levelo_inurba_marseille","lat":43.30936,"lon":5.40138,"is_reserved":false,"is_disabled":false,"rental_uris":{"android":"levelo://app?vid=38b4139d-1246-47d9-bb39-4c6e121292d3","ios":"levelo://app?vid=38b4139d-1246-47d9-bb39-4c6e121292d3"},"vehicle_type_id":"4","last_reported":1727449751,"current_range_meters":14400,"station_id":"ce4bgvp2rcd13ifvqct0","pricing_plan_id":"cebpf4jnsgd1na2vs0mg"},{"bike_id":"4ebbc4df-b6c5-40b1-9b77-0a6f9fe7579f","system_id":"levelo_inurba_marseille","lat":43.23064,"lon":5.35487,"is_reserved":false,"is_disabled":false,"rental_uris":{"android":"levelo://app?vid=4ebbc4df-b6c5-40b1-9b77-0a6f9fe7579f","ios":"levelo://app?vid=4ebbc4df-b6c5-40b1-9b77-0a6f9fe7579f"},"vehicle_type_id":"4","last_reported":1727449751,"current_range_meters":36400,"station_id":"cpo3342slgdg3j2ifvpg","pricing_plan_id":"cebpf4jnsgd1na2vs0mg"},{"bike_id":"87cdf576-e805-476d-8728-708052341378","system_id":"levelo_inurba_marseille","lat":43.279137,"lon":5.395749,"is_reserved":false,"is_disabled":false,"rental_uris":{"android":"levelo://app?vid=87cdf576-e805-476d-8728-708052341378","ios":"levelo://app?vid=87cdf576-e805-476d-8728-708052341378"},"vehicle_type_id":"4","last_reported":1727449751,"current_range_meters":27200,"station_id":"ce4bh692rcd13ifvqea0","pricing_plan_id":"cebpf4jnsgd1na2vs0mg"},{"bike_id":"8a535f4b-1889-47bd-b13e-8757f77ab53c","system_id":"levelo_inurba_marseille","lat":43.31226,"lon":5.36861,"is_reserved":false,"is_disabled":false,"rental_uris":{"android":"levelo://app?vid=8a535f4b-1889-47bd-b13e-8757f77ab53c","ios":"levelo://app?vid=8a535f4b-1889-47bd-b13e-8757f77ab53c"},"vehicle_type_id":"4","last_reported":1727449751,"current_range_meters":0,"station_id":"ce4bgl92rcd13ifvqbq0","pricing_plan_id":"cebpf4jnsgd1na2vs0mg"},{"bike_id":"7b7681cb-62bd-4157-bf73-d22f839cfb52","system_id":"levelo_inurba_marseille","lat":43.2319,"lon":5.35554,"is_reserved":false,"is_disabled":false,"rental_uris":{"android":"levelo://app?vid=7b7681cb-62bd-4157-bf73-d22f839cfb52","ios":"levelo://app?vid=7b7681cb-62bd-4157-bf73-d22f839cfb52"},"vehicle_type_id":"4","last_reported":1727449751,"current_range_meters":25200,"station_id":"ce4bhu92rcd13ifvqi70","pricing_plan_id":"cebpf4jnsgd1na2vs0mg"},{"bike_id":"930a1fad-a088-4100-b262-fd7198b4bfe4","system_id":"levelo_inurba_marseille","lat":43.28699,"lon":5.37388,"is_reserved":false,"is_disabled":false,"rental_uris":{"android":"levelo://app?vid=930a1fad-a088-4100-b262-fd7198b4bfe4","ios":"levelo://app?vid=930a1fad-a088-4100-b262-fd7198b4bfe4"},"vehicle_type_id":"4","last_reported":1727449751,"current_range_meters":29600,"station_id":"ce4bh3p2rcd13ifvqdq0","pricing_plan_id":"cebpf4jnsgd1na2vs0mg"},{"bike_id":"5a1515c2-c4a0-426e-bcdd-5d88297e214e","system_id":"levelo_inurba_marseille","lat":43.29897,"lon":5.43666,"is_reserved":false,"is_disabled":false,"rental_uris":{"android":"levelo://app?vid=5a1515c2-c4a0-426e-bcdd-5d88297e214e","ios":"levelo://app?vid=5a1515c2-c4a0-426e-bcdd-5d88297e214e"},"vehicle_type_id":"4","last_reported":1727449751,"current_range_meters":17200,"station_id":"ce4bhpp2rcd13ifvqhfg","pricing_plan_id":"cebpf4jnsgd1na2vs0mg"},{"bike_id":"cb07f0fe-09ef-4da3-b729-def49a7fb7f8","system_id":"levelo_inurba_marseille","lat":43.23188,"lon":5.39978,"is_reserved":false,"is_disabled":false,"rental_uris":{"android":"levelo://app?vid=cb07f0fe-09ef-4da3-b729-def49a7fb7f8","ios":"levelo://app?vid=cb07f0fe-09ef-4da3-b729-def49a7fb7f8"},"vehicle_type_id":"4","last_reported":1727449751,"current_range_meters":35200,"station_id":"ce4bhn12rcd13ifvqgqg","pricing_plan_id":"cebpf4jnsgd1na2vs0mg"},{"bike_id":"c4a76034-09a6-49ab-b8e4-c7d11e992a3c","system_id":"levelo_inurba_marseille","lat":43.29534,"lon":5.38549,"is_reserved":false,"is_disabled":false,"rental_uris":{"android":"levelo://app?vid=c4a76034-09a6-49ab-b8e4-c7d11e992a3c","ios":"levelo://app?vid=c4a76034-09a6-49ab-b8e4-c7d11e992a3c"},"vehicle_type_id":"4","last_reported":1727449751,"current_range_meters":34800,"station_id":"ce4bgih2rcd13ifvqba0","pricing_plan_id":"cebpf4jnsgd1na2vs0mg"},{"bike_id":"c2cd2645-e5a2-40ee-8079-b18572e37ef5","system_id":"levelo_inurba_marseille","lat":43.30548,"lon":5.36553,"is_reserved":false,"is_disabled":false,"rental_uris":{"android":"levelo://app?vid=c2cd2645-e5a2-40ee-8079-b18572e37ef5","ios":"levelo://app?vid=c2cd2645-e5a2-40ee-8079-b18572e37ef5"},"vehicle_type_id":"4","last_reported":1727449751,"current_range_meters":33600,"station_id":"ce4bgs12rcd13ifvqcag","pricing_plan_id":"cebpf4jnsgd1na2vs0mg"},{"bike_id":"bc11c6e6-3a36-4925-9338-549a8c49bfbe","system_id":"levelo_inurba_marseille","lat":43.32106,"lon":5.36767,"is_reserved":false,"is_disabled":false,"rental_uris":{"android":"levelo://app?vid=bc11c6e6-3a36-4925-9338-549a8c49bfbe","ios":"levelo://app?vid=bc11c6e6-3a36-4925-9338-549a8c49bfbe"},"vehicle_type_id":"4","last_reported":1727449751,"current_range_meters":26000,"station_id":"ce4bhrh2rcd13ifvqhug","pricing_plan_id":"cebpf4jnsgd1na2vs0mg"},{"bike_id":"f5b6ee0b-494c-4009-9ac6-5b1ab8fab1ec","system_id":"levelo_inurba_marseille","lat":43.30095,"lon":5.39063,"is_reserved":false,"is_disabled":false,"rental_uris":{"android":"levelo://app?vid=f5b6ee0b-494c-4009-9ac6-5b1ab8fab1ec","ios":"levelo://app?vid=f5b6ee0b-494c-4009-9ac6-5b1ab8fab1ec"},"vehicle_type_id":"4","last_reported":1727449751,"current_range_meters":2800,"station_id":"ce4bh192rcd13ifvqdb0","pricing_plan_id":"cebpf4jnsgd1na2vs0mg"},{"bike_id":"79404905-ffdf-4227-be9a-8d6af7e27de3","system_id":"levelo_inurba_marseille","lat":43.2861,"lon":5.351,"is_reserved":false,"is_disabled":false,"rental_uris":{"android":"levelo://app?vid=79404905-ffdf-4227-be9a-8d6af7e27de3","ios":"levelo://app?vid=79404905-ffdf-4227-be9a-8d6af7e27de3"},"vehicle_type_id":"4","last_reported":1727449751,"current_range_meters":10800,"station_id":"ce4bhch2rcd13ifvqeug","pricing_plan_id":"cebpf4jnsgd1na2vs0mg"},{"bike_id":"14fb1cc9-d692-40af-a3a3-eab1a9e2541a","system_id":"levelo_inurba_marseille","lat":43.29923,"lon":5.37503,"is_reserved":false,"is_disabled":false,"rental_uris":{"android":"levelo://app?vid=14fb1cc9-d692-40af-a3a3-eab1a9e2541a","ios":"levelo://app?vid=14fb1cc9-d692-40af-a3a3-eab1a9e2541a"},"vehicle_type_id":"4","last_reported":1727449751,"current_range_meters":15200,"station_id":"ce4bgjh2rcd13ifvqbg0","pricing_plan_id":"cebpf4jnsgd1na2vs0mg"},{"bike_id":"d0bd302e-f716-4830-aecc-658c9f43e7b8","system_id":"levelo_inurba_marseille","lat":43.2894,"lon":5.36396,"is_reserved":false,"is_disabled":false,"rental_uris":{"android":"levelo://app?vid=d0bd302e-f716-4830-aecc-658c9f43e7b8","ios":"levelo://app?vid=d0bd302e-f716-4830-aecc-658c9f43e7b8"},"vehicle_type_id":"4","last_reported":1727449751,"current_range_meters":38800,"station_id":"ce4bhc92rcd13ifvqetg","pricing_plan_id":"cebpf4jnsgd1na2vs0mg"},{"bike_id":"242b1752-1b7b-4426-a624-9be8ef8393be","system_id":"levelo_inurba_marseille","lat":43.24179,"lon":5.39743,"is_reserved":false,"is_disabled":false,"rental_uris":{"android":"levelo://app?vid=242b1752-1b7b-4426-a624-9be8ef8393be","ios":"levelo://app?vid=242b1752-1b7b-4426-a624-9be8ef8393be"},"vehicle_type_id":"4","last_reported":1727449751,"current_range_meters":5600,"station_id":"ce4bhn12rcd13ifvqgpg","pricing_plan_id":"cebpf4jnsgd1na2vs0mg"},{"bike_id":"666969e5-3cc8-4adf-ae51-c5057c6e9f6e","system_id":"levelo_inurba_marseille","lat":43.29007,"lon":5.3561,"is_reserved":false,"is_disabled":false,"rental_uris":{"android":"levelo://app?vid=666969e5-3cc8-4adf-ae51-c5057c6e9f6e","ios":"levelo://app?vid=666969e5-3cc8-4adf-ae51-c5057c6e9f6e"},"vehicle_type_id":"4","last_reported":1727449751,"current_range_meters":38400,"station_id":"ce4bhb92rcd13ifvqen0","pricing_plan_id":"cebpf4jnsgd1na2vs0mg"},{"bike_id":"6f9bfdeb-8902-4d0f-80ef-dc417a73d20b","system_id":"levelo_inurba_marseille","lat":43.27812,"lon":5.40705,"is_reserved":false,"is_disabled":false,"rental_uris":{"android":"levelo://app?vid=6f9bfdeb-8902-4d0f-80ef-dc417a73d20b","ios":"levelo://app?vid=6f9bfdeb-8902-4d0f-80ef-dc417a73d20b"},"vehicle_type_id":"4","last_reported":1727449751,"current_range_meters":25200,"station_id":"ce4bhnh2rcd13ifvqgtg","pricing_plan_id":"cebpf4jnsgd1na2vs0mg"},{"bike_id":"5a1314d1-d2b6-4452-82db-d72854c016cd","system_id":"levelo_inurba_marseille","lat":43.31755,"lon":5.39017,"is_reserved":false,"is_disabled":false,"rental_uris":{"android":"levelo://app?vid=5a1314d1-d2b6-4452-82db-d72854c016cd","ios":"levelo://app?vid=5a1314d1-d2b6-4452-82db-d72854c016cd"},"vehicle_type_id":"4","last_reported":1727449751,"current_range_meters":27200,"station_id":"ce4bhqp2rcd13ifvqhng","pricing_plan_id":"cebpf4jnsgd1na2vs0mg"},{"bike_id":"7fb01608-db38-4e79-a406-53adff72aae6","system_id":"levelo_inurba_marseille","lat":43.28444,"lon":5.39202,"is_reserved":false,"is_disabled":false,"rental_uris":{"android":"levelo://app?vid=7fb01608-db38-4e79-a406-53adff72aae6","ios":"levelo://app?vid=7fb01608-db38-4e79-a406-53adff72aae6"},"vehicle_type_id":"4","last_reported":1727449751,"current_range_meters":9600,"station_id":"ce4bhoh2rcd13ifvqh5g","pricing_plan_id":"cebpf4jnsgd1na2vs0mg"},{"bike_id":"ad5cd147-2fcf-4b3d-bb3f-08affe01f67e","system_id":"levelo_inurba_marseille","lat":43.29216,"lon":5.3605,"is_reserved":false,"is_disabled":false,"rental_uris":{"android":"levelo://app?vid=ad5cd147-2fcf-4b3d-bb3f-08affe01f67e","ios":"levelo://app?vid=ad5cd147-2fcf-4b3d-bb3f-08affe01f67e"},"vehicle_type_id":"4","last_reported":1727449751,"current_range_meters":38800,"station_id":"ce4bhbh2rcd13ifvqeqg","pricing_plan_id":"cebpf4jnsgd1na2vs0mg"},{"bike_id":"0e67e17e-96e2-4d04-a88b-9a4826dfee15","system_id":"levelo_inurba_marseille","lat":43.298015,"lon":5.403981,"is_reserved":false,"is_disabled":false,"rental_uris":{"android":"levelo://app?vid=0e67e17e-96e2-4d04-a88b-9a4826dfee15","ios":"levelo://app?vid=0e67e17e-96e2-4d04-a88b-9a4826dfee15"},"vehicle_type_id":"4","last_reported":1727449751,"current_range_meters":5600,"station_id":"ce4bh112rcd13ifvqd90","pricing_plan_id":"cebpf4jnsgd1na2vs0mg"},{"bike_id":"039a0dfb-fa3e-4c39-97bd-d89dacf41a04","system_id":"levelo_inurba_marseille","lat":43.31991,"lon":5.38138,"is_reserved":false,"is_disabled":false,"rental_uris":{"android":"levelo://app?vid=039a0dfb-fa3e-4c39-97bd-d89dacf41a04","ios":"levelo://app?vid=039a0dfb-fa3e-4c39-97bd-d89dacf41a04"},"vehicle_type_id":"4","last_reported":1727449751,"current_range_meters":20400,"station_id":"ce4bhr12rcd13ifvqhpg","pricing_plan_id":"cebpf4jnsgd1na2vs0mg"},{"bike_id":"b5d7dce2-dfdd-4e8c-b306-d2027a9da59b","system_id":"levelo_inurba_marseille","lat":43.29894,"lon":5.43665,"is_reserved":false,"is_disabled":false,"rental_uris":{"android":"levelo://app?vid=b5d7dce2-dfdd-4e8c-b306-d2027a9da59b","ios":"levelo://app?vid=b5d7dce2-dfdd-4e8c-b306-d2027a9da59b"},"vehicle_type_id":"4","last_reported":1727449751,"current_range_meters":35200,"station_id":"ce4bhpp2rcd13ifvqhfg","pricing_plan_id":"cebpf4jnsgd1na2vs0mg"},{"bike_id":"6014f5b7-ffb7-43a1-8c22-17bd4d5e94b5","system_id":"levelo_inurba_marseille","lat":43.28461,"lon":5.35884,"is_reserved":false,"is_disabled":false,"rental_uris":{"android":"levelo://app?vid=6014f5b7-ffb7-43a1-8c22-17bd4d5e94b5","ios":"levelo://app?vid=6014f5b7-ffb7-43a1-8c22-17bd4d5e94b5"},"vehicle_type_id":"4","last_reported":1727449751,"current_range_meters":2800,"station_id":"ce4bhah2rcd13ifvqei0","pricing_plan_id":"cebpf4jnsgd1na2vs0mg"},{"bike_id":"450eb202-fc74-42ef-8e75-49bb6db4991a","system_id":"levelo_inurba_marseille","lat":43.289764,"lon":5.37839,"is_reserved":false,"is_disabled":false,"rental_uris":{"android":"levelo://app?vid=450eb202-fc74-42ef-8e75-49bb6db4991a","ios":"levelo://app?vid=450eb202-fc74-42ef-8e75-49bb6db4991a"},"vehicle_type_id":"4","last_reported":1727449751,"current_range_meters":24400,"station_id":"ce4bh9p2rcd13ifvqed0","pricing_plan_id":"cebpf4jnsgd1na2vs0mg"},{"bike_id":"c48fb40f-13be-4ae6-9130-ce556eeb5aa8","system_id":"levelo_inurba_marseille","lat":43.3211,"lon":5.36767,"is_reserved":false,"is_disabled":false,"rental_uris":{"android":"levelo://app?vid=c48fb40f-13be-4ae6-9130-ce556eeb5aa8","ios":"levelo://app?vid=c48fb40f-13be-4ae6-9130-ce556eeb5aa8"},"vehicle_type_id":"4","last_reported":1727449751,"current_range_meters":33600,"station_id":"ce4bhrh2rcd13ifvqhug","pricing_plan_id":"cebpf4jnsgd1na2vs0mg"},{"bike_id":"92ed948a-9f9a-4968-accc-b2fe3b391b37","system_id":"levelo_inurba_marseille","lat":43.32662,"lon":5.40988,"is_reserved":false,"is_disabled":false,"rental_uris":{"android":"levelo://app?vid=92ed948a-9f9a-4968-accc-b2fe3b391b37","ios":"levelo://app?vid=92ed948a-9f9a-4968-accc-b2fe3b391b37"},"vehicle_type_id":"4","last_reported":1727449751,"current_range_meters":12400,"station_id":"ce4bhpp2rcd13ifvqhgg","pricing_plan_id":"cebpf4jnsgd1na2vs0mg"},{"bike_id":"5b1a290e-64f9-4e8b-8212-09a39a699a23","system_id":"levelo_inurba_marseille","lat":43.26808,"lon":5.40264,"is_reserved":false,"is_disabled":false,"rental_uris":{"android":"levelo://app?vid=5b1a290e-64f9-4e8b-8212-09a39a699a23","ios":"levelo://app?vid=5b1a290e-64f9-4e8b-8212-09a39a699a23"},"vehicle_type_id":"4","last_reported":1727449751,"current_range_meters":20400,"station_id":"ce501612rcd8frsf0b60","pricing_plan_id":"cebpf4jnsgd1na2vs0mg"},{"bike_id":"0ec4d074-35b9-48dd-9b90-3d3a72982ca2","system_id":"levelo_inurba_marseille","lat":43.26038,"lon":5.38196,"is_reserved":false,"is_disabled":false,"rental_uris":{"android":"levelo://app?vid=0ec4d074-35b9-48dd-9b90-3d3a72982ca2","ios":"levelo://app?vid=0ec4d074-35b9-48dd-9b90-3d3a72982ca2"},"vehicle_type_id":"4","last_reported":1727449751,"current_range_meters":31200,"station_id":"","pricing_plan_id":"cebpf4jnsgd1na2vs0mg"},{"bike_id":"70ecda68-9961-40a6-9954-df52276c7785","system_id":"levelo_inurba_marseille","lat":43.2846,"lon":5.35887,"is_reserved":false,"is_disabled":false,"rental_uris":{"android":"levelo://app?vid=70ecda68-9961-40a6-9954-df52276c7785","ios":"levelo://app?vid=70ecda68-9961-40a6-9954-df52276c7785"},"vehicle_type_id":"4","last_reported":1727449751,"current_range_meters":27200,"station_id":"ce4bhah2rcd13ifvqei0","pricing_plan_id":"cebpf4jnsgd1na2vs0mg"},{"bike_id":"3e273e53-83a3-4bcd-bb2e-da1ce865a4ab","system_id":"levelo_inurba_marseille","lat":43.29978,"lon":5.38485,"is_reserved":false,"is_disabled":false,"rental_uris":{"android":"levelo://app?vid=3e273e53-83a3-4bcd-bb2e-da1ce865a4ab","ios":"levelo://app?vid=3e273e53-83a3-4bcd-bb2e-da1ce865a4ab"},"vehicle_type_id":"4","last_reported":1727449751,"current_range_meters":6000,"station_id":"ce4bgj92rcd13ifvqbd0","pricing_plan_id":"cebpf4jnsgd1na2vs0mg"},{"bike_id":"445a8082-ceb4-4c06-8e6d-0d6594f4e273","system_id":"levelo_inurba_marseille","lat":43.28419,"lon":5.34989,"is_reserved":false,"is_disabled":false,"rental_uris":{"android":"levelo://app?vid=445a8082-ceb4-4c06-8e6d-0d6594f4e273","ios":"levelo://app?vid=445a8082-ceb4-4c06-8e6d-0d6594f4e273"},"vehicle_type_id":"4","last_reported":1727449751,"current_range_meters":38800,"station_id":"ce4bhbh2rcd13ifvqepg","pricing_plan_id":"cebpf4jnsgd1na2vs0mg"},{"bike_id":"7386a245-c73a-4512-91e3-205b4897c083","system_id":"levelo_inurba_marseille","lat":43.29886,"lon":5.38912,"is_reserved":false,"is_disabled":false,"rental_uris":{"android":"levelo://app?vid=7386a245-c73a-4512-91e3-205b4897c083","ios":"levelo://app?vid=7386a245-c73a-4512-91e3-205b4897c083"},"vehicle_type_id":"4","last_reported":1727449751,"current_range_meters":24000,"station_id":"ce4bh392rcd13ifvqdl0","pricing_plan_id":"cebpf4jnsgd1na2vs0mg"},{"bike_id":"a10ecd72-b515-4b4a-a4df-f642a92cca9d","system_id":"levelo_inurba_marseille","lat":43.25113,"lon":5.40322,"is_reserved":false,"is_disabled":false,"rental_uris":{"android":"levelo://app?vid=a10ecd72-b515-4b4a-a4df-f642a92cca9d","ios":"levelo://app?vid=a10ecd72-b515-4b4a-a4df-f642a92cca9d"},"vehicle_type_id":"4","last_reported":1727449751,"current_range_meters":10000,"station_id":"ce4bhlh2rcd13ifvqgig","pricing_plan_id":"cebpf4jnsgd1na2vs0mg"},{"bike_id":"5cfc4393-5db9-4a84-b3c2-3bc3214b535e","system_id":"levelo_inurba_marseille","lat":43.26807,"lon":5.40267,"is_reserved":false,"is_disabled":false,"rental_uris":{"android":"levelo://app?vid=5cfc4393-5db9-4a84-b3c2-3bc3214b535e","ios":"levelo://app?vid=5cfc4393-5db9-4a84-b3c2-3bc3214b535e"},"vehicle_type_id":"4","last_reported":1727449751,"current_range_meters":22000,"station_id":"ce501612rcd8frsf0b60","pricing_plan_id":"cebpf4jnsgd1na2vs0mg"},{"bike_id":"71e296f6-f461-4205-9b5b-c5206ed95fb6","system_id":"levelo_inurba_marseille","lat":43.28425,"lon":5.34986,"is_reserved":false,"is_disabled":false,"rental_uris":{"android":"levelo://app?vid=71e296f6-f461-4205-9b5b-c5206ed95fb6","ios":"levelo://app?vid=71e296f6-f461-4205-9b5b-c5206ed95fb6"},"vehicle_type_id":"4","last_reported":1727449751,"current_range_meters":24800,"station_id":"ce4bhbh2rcd13ifvqepg","pricing_plan_id":"cebpf4jnsgd1na2vs0mg"},{"bike_id":"592a5b2e-8a48-4153-9dd9-f1de765faa5c","system_id":"levelo_inurba_marseille","lat":43.29538,"lon":5.38551,"is_reserved":false,"is_disabled":false,"rental_uris":{"android":"levelo://app?vid=592a5b2e-8a48-4153-9dd9-f1de765faa5c","ios":"levelo://app?vid=592a5b2e-8a48-4153-9dd9-f1de765faa5c"},"vehicle_type_id":"4","last_reported":1727449751,"current_range_meters":30000,"station_id":"ce4bgih2rcd13ifvqba0","pricing_plan_id":"cebpf4jnsgd1na2vs0mg"},{"bike_id":"7b1576a4-4caf-4cc0-984c-b50623be8a8f","system_id":"levelo_inurba_marseille","lat":43.33774,"lon":5.3743,"is_reserved":false,"is_disabled":false,"rental_uris":{"android":"levelo://app?vid=7b1576a4-4caf-4cc0-984c-b50623be8a8f","ios":"levelo://app?vid=7b1576a4-4caf-4cc0-984c-b50623be8a8f"},"vehicle_type_id":"4","last_reported":1727449751,"current_range_meters":10000,"station_id":"","pricing_plan_id":"cebpf4jnsgd1na2vs0mg"},{"bike_id":"af443126-7238-4d92-bd04-c04604cde739","system_id":"levelo_inurba_marseille","lat":43.2958,"lon":5.36737,"is_reserved":false,"is_disabled":false,"rental_uris":{"android":"levelo://app?vid=af443126-7238-4d92-bd04-c04604cde739","ios":"levelo://app?vid=af443126-7238-4d92-bd04-c04604cde739"},"vehicle_type_id":"4","last_reported":1727449751,"current_range_meters":12800,"station_id":"ce4bgph2rcd13ifvqc2g","pricing_plan_id":"cebpf4jnsgd1na2vs0mg"},{"bike_id":"613129f8-2639-4f91-a258-3f64bf011efa","system_id":"levelo_inurba_marseille","lat":43.23174,"lon":5.39983,"is_reserved":false,"is_disabled":false,"rental_uris":{"android":"levelo://app?vid=613129f8-2639-4f91-a258-3f64bf011efa","ios":"levelo://app?vid=613129f8-2639-4f91-a258-3f64bf011efa"},"vehicle_type_id":"4","last_reported":1727449751,"current_range_meters":20800,"station_id":"ce4bhn12rcd13ifvqgqg","pricing_plan_id":"cebpf4jnsgd1na2vs0mg"},{"bike_id":"6eec2f39-522b-49ce-bc38-33ed97ec766c","system_id":"levelo_inurba_marseille","lat":43.258636,"lon":5.399031,"is_reserved":false,"is_disabled":false,"rental_uris":{"android":"levelo://app?vid=6eec2f39-522b-49ce-bc38-33ed97ec766c","ios":"levelo://app?vid=6eec2f39-522b-49ce-bc38-33ed97ec766c"},"vehicle_type_id":"4","last_reported":1727449751,"current_range_meters":27600,"station_id":"ce4bhl92rcd13ifvqghg","pricing_plan_id":"cebpf4jnsgd1na2vs0mg"},{"bike_id":"a183fa89-4b4e-4254-ac88-f36b047a11d4","system_id":"levelo_inurba_marseille","lat":43.27946,"lon":5.41048,"is_reserved":false,"is_disabled":false,"rental_uris":{"android":"levelo://app?vid=a183fa89-4b4e-4254-ac88-f36b047a11d4","ios":"levelo://app?vid=a183fa89-4b4e-4254-ac88-f36b047a11d4"},"vehicle_type_id":"4","last_reported":1727449751,"current_range_meters":6400,"station_id":"ce4bhnp2rcd13ifvqh0g","pricing_plan_id":"cebpf4jnsgd1na2vs0mg"},{"bike_id":"b2fd8bcb-4ba8-4fa5-ba12-dce56b1359dc","system_id":"levelo_inurba_marseille","lat":43.25117,"lon":5.40316,"is_reserved":false,"is_disabled":false,"rental_uris":{"android":"levelo://app?vid=b2fd8bcb-4ba8-4fa5-ba12-dce56b1359dc","ios":"levelo://app?vid=b2fd8bcb-4ba8-4fa5-ba12-dce56b1359dc"},"vehicle_type_id":"4","last_reported":1727449751,"current_range_meters":12000,"station_id":"ce4bhlh2rcd13ifvqgig","pricing_plan_id":"cebpf4jnsgd1na2vs0mg"},{"bike_id":"dab151fb-512c-4b06-8aa3-2c0f7a9ea7e0","system_id":"levelo_inurba_marseille","lat":43.31527,"lon":5.38036,"is_reserved":false,"is_disabled":false,"rental_uris":{"android":"levelo://app?vid=dab151fb-512c-4b06-8aa3-2c0f7a9ea7e0","ios":"levelo://app?vid=dab151fb-512c-4b06-8aa3-2c0f7a9ea7e0"},"vehicle_type_id":"4","last_reported":1727449751,"current_range_meters":20000,"station_id":"ce4bhsp2rcd13ifvqi50","pricing_plan_id":"cebpf4jnsgd1na2vs0mg"},{"bike_id":"6f8eb636-0b45-4d92-8c74-49b2e366bec0","system_id":"levelo_inurba_marseille","lat":43.27178,"lon":5.40994,"is_reserved":false,"is_disabled":false,"rental_uris":{"android":"levelo://app?vid=6f8eb636-0b45-4d92-8c74-49b2e366bec0","ios":"levelo://app?vid=6f8eb636-0b45-4d92-8c74-49b2e366bec0"},"vehicle_type_id":"4","last_reported":1727449751,"current_range_meters":4400,"station_id":"ce4bhl12rcd13ifvqgf0","pricing_plan_id":"cebpf4jnsgd1na2vs0mg"},{"bike_id":"a3fff605-12f5-4d1d-9446-bcdcde6d406e","system_id":"levelo_inurba_marseille","lat":43.27808,"lon":5.40705,"is_reserved":false,"is_disabled":false,"rental_uris":{"android":"levelo://app?vid=a3fff605-12f5-4d1d-9446-bcdcde6d406e","ios":"levelo://app?vid=a3fff605-12f5-4d1d-9446-bcdcde6d406e"},"vehicle_type_id":"4","last_reported":1727449751,"current_range_meters":25200,"station_id":"ce4bhnh2rcd13ifvqgtg","pricing_plan_id":"cebpf4jnsgd1na2vs0mg"},{"bike_id":"c33d8175-97de-4742-a008-280a103f7035","system_id":"levelo_inurba_marseille","lat":43.31331,"lon":5.39693,"is_reserved":false,"is_disabled":false,"rental_uris":{"android":"levelo://app?vid=c33d8175-97de-4742-a008-280a103f7035","ios":"levelo://app?vid=c33d8175-97de-4742-a008-280a103f7035"},"vehicle_type_id":"4","last_reported":1727449751,"current_range_meters":28000,"station_id":"ce4bgvp2rcd13ifvqcu0","pricing_plan_id":"cebpf4jnsgd1na2vs0mg"},{"bike_id":"5bdbf410-83cc-48e5-938d-b677d90c90b0","system_id":"levelo_inurba_marseille","lat":43.27068,"lon":5.42276,"is_reserved":false,"is_disabled":false,"rental_uris":{"android":"levelo://app?vid=5bdbf410-83cc-48e5-938d-b677d90c90b0","ios":"levelo://app?vid=5bdbf410-83cc-48e5-938d-b677d90c90b0"},"vehicle_type_id":"4","last_reported":1727449751,"current_range_meters":26800,"station_id":"ce4bhk92rcd13ifvqgb0","pricing_plan_id":"cebpf4jnsgd1na2vs0mg"},{"bike_id":"dab5bfcc-03a9-48ee-8ae9-740299d3d74b","system_id":"levelo_inurba_marseille","lat":43.29191,"lon":5.358,"is_reserved":false,"is_disabled":false,"rental_uris":{"android":"levelo://app?vid=dab5bfcc-03a9-48ee-8ae9-740299d3d74b","ios":"levelo://app?vid=dab5bfcc-03a9-48ee-8ae9-740299d3d74b"},"vehicle_type_id":"4","last_reported":1727449751,"current_range_meters":38800,"station_id":"ce4bhb12rcd13ifvqel0","pricing_plan_id":"cebpf4jnsgd1na2vs0mg"},{"bike_id":"269673db-529a-49e2-bc75-06be730eb552","system_id":"levelo_inurba_marseille","lat":43.32478,"lon":5.36563,"is_reserved":false,"is_disabled":false,"rental_uris":{"android":"levelo://app?vid=269673db-529a-49e2-bc75-06be730eb552","ios":"levelo://app?vid=269673db-529a-49e2-bc75-06be730eb552"},"vehicle_type_id":"4","last_reported":1727449751,"current_range_meters":8000,"station_id":"ce4bhs12rcd13ifvqhvg","pricing_plan_id":"cebpf4jnsgd1na2vs0mg"},{"bike_id":"c03b97e6-27c9-4d64-a683-284734028739","system_id":"levelo_inurba_marseille","lat":43.27372,"lon":5.36258,"is_reserved":false,"is_disabled":false,"rental_uris":{"android":"levelo://app?vid=c03b97e6-27c9-4d64-a683-284734028739","ios":"levelo://app?vid=c03b97e6-27c9-4d64-a683-284734028739"},"vehicle_type_id":"4","last_reported":1727449751,"current_range_meters":32400,"station_id":"ce4bhbh2rcd13ifvqeo0","pricing_plan_id":"cebpf4jnsgd1na2vs0mg"},{"bike_id":"d4115dbd-2de6-4099-aed4-faf2af26eaed","system_id":"levelo_inurba_marseille","lat":43.27922,"lon":5.39574,"is_reserved":false,"is_disabled":false,"rental_uris":{"android":"levelo://app?vid=d4115dbd-2de6-4099-aed4-faf2af26eaed","ios":"levelo://app?vid=d4115dbd-2de6-4099-aed4-faf2af26eaed"},"vehicle_type_id":"4","last_reported":1727449751,"current_range_meters":10800,"station_id":"ce4bhf92rcd13ifvqf40","pricing_plan_id":"cebpf4jnsgd1na2vs0mg"},{"bike_id":"7b9f8371-1b86-4eec-ba02-e0a8bc3f0345","system_id":"levelo_inurba_marseille","lat":43.268224,"lon":5.411057,"is_reserved":false,"is_disabled":false,"rental_uris":{"android":"levelo://app?vid=7b9f8371-1b86-4eec-ba02-e0a8bc3f0345","ios":"levelo://app?vid=7b9f8371-1b86-4eec-ba02-e0a8bc3f0345"},"vehicle_type_id":"4","last_reported":1727449751,"current_range_meters":35200,"station_id":"","pricing_plan_id":"cebpf4jnsgd1na2vs0mg"},{"bike_id":"f6756cad-7af0-4799-a7cd-26aaf260641d","system_id":"levelo_inurba_marseille","lat":43.27679,"lon":5.38866,"is_reserved":false,"is_disabled":false,"rental_uris":{"android":"levelo://app?vid=f6756cad-7af0-4799-a7cd-26aaf260641d","ios":"levelo://app?vid=f6756cad-7af0-4799-a7cd-26aaf260641d"},"vehicle_type_id":"4","last_reported":1727449751,"current_range_meters":39200,"station_id":"ce4bhi12rcd13ifvqfo0","pricing_plan_id":"cebpf4jnsgd1na2vs0mg"},{"bike_id":"e4e5e624-aa02-490b-932d-ecf9dba57536","system_id":"levelo_inurba_marseille","lat":43.29195,"lon":5.35806,"is_reserved":false,"is_disabled":false,"rental_uris":{"android":"levelo://app?vid=e4e5e624-aa02-490b-932d-ecf9dba57536","ios":"levelo://app?vid=e4e5e624-aa02-490b-932d-ecf9dba57536"},"vehicle_type_id":"4","last_reported":1727449751,"current_range_meters":25200,"station_id":"ce4bhb12rcd13ifvqel0","pricing_plan_id":"cebpf4jnsgd1na2vs0mg"},{"bike_id":"56a36f47-e214-4fd4-8a42-667c6809a795","system_id":"levelo_inurba_marseille","lat":43.272093,"lon":5.391813,"is_reserved":false,"is_disabled":false,"rental_uris":{"android":"levelo://app?vid=56a36f47-e214-4fd4-8a42-667c6809a795","ios":"levelo://app?vid=56a36f47-e214-4fd4-8a42-667c6809a795"},"vehicle_type_id":"4","last_reported":1727449751,"current_range_meters":2000,"station_id":"ce4bhg12rcd13ifvqf60","pricing_plan_id":"cebpf4jnsgd1na2vs0mg"},{"bike_id":"5e6ae0fa-e82e-4924-ba08-83c9a2b4a699","system_id":"levelo_inurba_marseille","lat":43.25891,"lon":5.38582,"is_reserved":false,"is_disabled":false,"rental_uris":{"android":"levelo://app?vid=5e6ae0fa-e82e-4924-ba08-83c9a2b4a699","ios":"levelo://app?vid=5e6ae0fa-e82e-4924-ba08-83c9a2b4a699"},"vehicle_type_id":"4","last_reported":1727449751,"current_range_meters":31200,"station_id":"","pricing_plan_id":"cebpf4jnsgd1na2vs0mg"},{"bike_id":"f813f11b-4ca6-4267-91dd-d734d7ae315c","system_id":"levelo_inurba_marseille","lat":43.2719,"lon":5.40998,"is_reserved":false,"is_disabled":false,"rental_uris":{"android":"levelo://app?vid=f813f11b-4ca6-4267-91dd-d734d7ae315c","ios":"levelo://app?vid=f813f11b-4ca6-4267-91dd-d734d7ae315c"},"vehicle_type_id":"4","last_reported":1727449751,"current_range_meters":24000,"station_id":"ce4bhl12rcd13ifvqgf0","pricing_plan_id":"cebpf4jnsgd1na2vs0mg"},{"bike_id":"b7909a5b-23ef-4327-8960-b969d5379794","system_id":"levelo_inurba_marseille","lat":43.28615,"lon":5.35103,"is_reserved":false,"is_disabled":false,"rental_uris":{"android":"levelo://app?vid=b7909a5b-23ef-4327-8960-b969d5379794","ios":"levelo://app?vid=b7909a5b-23ef-4327-8960-b969d5379794"},"vehicle_type_id":"4","last_reported":1727449751,"current_range_meters":22000,"station_id":"ce4bhch2rcd13ifvqeug","pricing_plan_id":"cebpf4jnsgd1na2vs0mg"},{"bike_id":"8f8843d7-baf3-43ff-918f-e0cfa572b212","system_id":"levelo_inurba_marseille","lat":43.26553,"lon":5.37286,"is_reserved":false,"is_disabled":false,"rental_uris":{"android":"levelo://app?vid=8f8843d7-baf3-43ff-918f-e0cfa572b212","ios":"levelo://app?vid=8f8843d7-baf3-43ff-918f-e0cfa572b212"},"vehicle_type_id":"4","last_reported":1727449751,"current_range_meters":24400,"station_id":"ce4bhg12rcd13ifvqf70","pricing_plan_id":"cebpf4jnsgd1na2vs0mg"},{"bike_id":"1d00e2b8-1d50-4da3-ab39-282b1fd9080c","system_id":"levelo_inurba_marseille","lat":43.25113,"lon":5.40323,"is_reserved":false,"is_disabled":false,"rental_uris":{"android":"levelo://app?vid=1d00e2b8-1d50-4da3-ab39-282b1fd9080c","ios":"levelo://app?vid=1d00e2b8-1d50-4da3-ab39-282b1fd9080c"},"vehicle_type_id":"4","last_reported":1727449751,"current_range_meters":8000,"station_id":"ce4bhlh2rcd13ifvqgig","pricing_plan_id":"cebpf4jnsgd1na2vs0mg"},{"bike_id":"d26af867-24a5-42de-b3a6-1876e8cf0bac","system_id":"levelo_inurba_marseille","lat":43.31713,"lon":5.4371,"is_reserved":false,"is_disabled":false,"rental_uris":{"android":"levelo://app?vid=d26af867-24a5-42de-b3a6-1876e8cf0bac","ios":"levelo://app?vid=d26af867-24a5-42de-b3a6-1876e8cf0bac"},"vehicle_type_id":"4","last_reported":1727449751,"current_range_meters":24800,"station_id":"ce4bhp92rcd13ifvqhcg","pricing_plan_id":"cebpf4jnsgd1na2vs0mg"},{"bike_id":"27eff856-06b2-4c05-bc94-3b830d8eae4a","system_id":"levelo_inurba_marseille","lat":43.23182,"lon":5.39991,"is_reserved":false,"is_disabled":false,"rental_uris":{"android":"levelo://app?vid=27eff856-06b2-4c05-bc94-3b830d8eae4a","ios":"levelo://app?vid=27eff856-06b2-4c05-bc94-3b830d8eae4a"},"vehicle_type_id":"4","last_reported":1727449751,"current_range_meters":34800,"station_id":"ce4bhn12rcd13ifvqgqg","pricing_plan_id":"cebpf4jnsgd1na2vs0mg"},{"bike_id":"32e63f50-de51-4c02-848e-8aeb580cfdd0","system_id":"levelo_inurba_marseille","lat":43.2717,"lon":5.40989,"is_reserved":false,"is_disabled":false,"rental_uris":{"android":"levelo://app?vid=32e63f50-de51-4c02-848e-8aeb580cfdd0","ios":"levelo://app?vid=32e63f50-de51-4c02-848e-8aeb580cfdd0"},"vehicle_type_id":"4","last_reported":1727449751,"current_range_meters":3200,"station_id":"ce4bhl12rcd13ifvqgf0","pricing_plan_id":"cebpf4jnsgd1na2vs0mg"},