{"last_updated":1718475015,"ttl":30,"version":"2.2","data":{"bikes":[{"bike_id":"e2d69af0-06f4-4ab8-b611-16c391bdddee","system_id":"levelo_inurba_marseille","lat":43.313391,"lon":5.36706,"is_reserved":false,"is_disabled":false,"rental_uris":{"android":"levelo://app?vid=e2d69af0-06f4-4ab8-b611-16c391bdddee","ios":"levelo://app?vid=e2d69af0-06f4-4ab8-b611-16c391bdddee"},"vehicle_type_id":"4","last_reported":1718475015,"current_range_meters":16400,"station_id":"ce4bgr92rcd13ifvqc6g","pricing_plan_id":"cebpf4jnsgd1na2vs0mg"},{"bike_id":"cb9e5a6b-0257-4124-8999-80bb49fcf6a7","system_id":"levelo_inurba_marseille","lat":43.31341,"lon":5.367098,"is_reserved":false,"is_disabled":false,"rental_uris":{"android":"levelo://app?vid=cb9e5a6b-0257-4124-8999-80bb49fcf6a7","ios":"levelo://app?vid=cb9e5a6b-0257-4124-8999-80bb49fcf6a7"},"vehicle_type_id":"4","last_reported":1718475015,"current_range_meters":10400,"station_id":"ce4bgr92rcd13ifvqc6g","pricing_plan_id":"cebpf4jnsgd1na2vs0mg"},{"bike_id":"07512cb6-03b1-4143-81a6-7f364f4269b5","system_id":"levelo_inurba_marseille","lat":43.31473,"lon":5.373085,"is_reserved":false,"is_disabled":false,"rental_uris":{"android":"levelo://app?vid=07512cb6-03b1-4143-81a6-7f364f4269b5","ios":"levelo://app?vid=07512cb6-03b1-4143-81a6-7f364f4269b5"},"vehicle_type_id":"4","last_reported":1718475015,"current_range_meters":28000,"station_id":"ce4bgt12rcd13ifvqcd0","pricing_plan_id":"cebpf4jnsgd1na2vs0mg"},{"bike_id":"39df351c-b7a5-4d5f-93f2-3b42ad2d09e4","system_id":"levelo_inurba_marseille","lat":43.314811,"lon":5.373103,"is_reserved":false,"is_disabled":false,"rental_uris":{"android":"levelo://app?vid=39df351c-b7a5-4d5f-93f2-3b42ad2d09e4","ios":"levelo://app?vid=39df351c-b7a5-4d5f-93f2-3b42ad2d09e4"},"vehicle_type_id":"4","last_reported":1718475015,"current_range_meters":6000,"station_id":"ce4bgt12rcd13ifvqcd0","pricing_plan_id":"cebpf4jnsgd1na2vs0mg"},{"bike_id":"734f0ba1-d88e-4495-b8ef-88da428fd87e","system_id":"levelo_inurba_marseille","lat":43.309034,"lon":5.371783,"is_reserved":false,"is_disabled":false,"rental_uris":{"android":"levelo://app?vid=734f0ba1-d88e-4495-b8ef-88da428fd87e","ios":"levelo://app?vid=734f0ba1-d88e-4495-b8ef-88da428fd87e"},"vehicle_type_id":"4","last_reported":1718475015,"current_range_meters":4800,"station_id":"ce4bguh2rcd13ifvqckg","pricing_plan_id":"cebpf4jnsgd1na2vs0mg"},{"bike_id":"f157bddd-1aa9-4b05-9652-889519768537","system_id":"levelo_inurba_marseille","lat":43.309039,"lon":5.371797,"is_reserved":false,"is_disabled":false,"rental_uris":{"android":"levelo://app?vid=f157bddd-1aa9-4b05-9652-889519768537","ios":"levelo://app?vid=f157bddd-1aa9-4b05-9652-889519768537"},"vehicle_type_id":"4","last_reported":1718475015,"current_range_meters":17200,"station_id":"ce4bguh2rcd13ifvqckg","pricing_plan_id":"cebpf4jnsgd1na2vs0mg"},{"bike_id":"7c155b7f-5e33-439f-8427-6f93142cd231","system_id":"levelo_inurba_marseille","lat":43.3134,"lon":5.37459,"is_reserved":false,"is_disabled":false,"rental_uris":{"android":"levelo://app?vid=7c155b7f-5e33-439f-8427-6f93142cd231","ios":"levelo://app?vid=7c155b7f-5e33-439f-8427-6f93142cd231"},"vehicle_type_id":"4","last_reported":1718475015,"current_range_meters":0,"station_id":"","pricing_plan_id":"cebpf4jnsgd1na2vs0mg"},{"bike_id":"8ed0bb9f-30fb-4513-9e46-d07878d04315","system_id":"levelo_inurba_marseille","lat":43.3069,"lon":5.36562,"is_reserved":false,"is_disabled":false,"rental_uris":{"android":"levelo://app?vid=8ed0bb9f-30fb-4513-9e46-d07878d04315","ios":"levelo://app?vid=8ed0bb9f-30fb-4513-9e46-d07878d04315"},"vehicle_type_id":"4","last_reported":1718475015,"current_range_meters":0,"station_id":"","pricing_plan_id":"cebpf4jnsgd1na2vs0mg"},{"bike_id":"37471f4c-741d-4423-ad28-3beb8104ff11","system_id":"levelo_inurba_marseille","lat":43.31901,"lon":5.37226,"is_reserved":false,"is_disabled":false,"rental_uris":{"android":"levelo://app?vid=37471f4c-741d-4423-ad28-3beb8104ff11","ios":"levelo://app?vid=37471f4c-741d-4423-ad28-3beb8104ff11"},"vehicle_type_id":"4","last_reported":1718475015,"current_range_meters":10800,"station_id":"","pricing_plan_id":"cebpf4jnsgd1na2vs0mg"},{"bike_id":"2ea65fec-b4ee-4a0b-9ee4-79aaf521e089","system_id":"levelo_inurba_marseille","lat":43.311125,"lon":5.377624,"is_reserved":false,"is_disabled":false,"rental_uris":{"android":"levelo://app?vid=2ea65fec-b4ee-4a0b-9ee4-79aaf521e089","ios":"levelo://app?vid=2ea65fec-b4ee-4a0b-9ee4-79aaf521e089"},"vehicle_type_id":"4","last_reported":1718475015,"current_range_meters":21600,"station_id":"ce4bgt92rcd13ifvqcg0","pricing_plan_id":"cebpf4jnsgd1na2vs0mg"},{"bike_id":"5a74d1fc-6d8e-4137-b7dc-d1aeec399eb3","system_id":"levelo_inurba_marseille","lat":43.316993,"lon":5.37727,"is_reserved":false,"is_disabled":false,"rental_uris":{"android":"levelo://app?vid=5a74d1fc-6d8e-4137-b7dc-d1aeec399eb3","ios":"levelo://app?vid=5a74d1fc-6d8e-4137-b7dc-d1aeec399eb3"},"vehicle_type_id":"4","last_reported":1718475015,"current_range_meters":0,"station_id":"ce4bgth2rcd13ifvqch0","pricing_plan_id":"cebpf4jnsgd1na2vs0mg"},{"bike_id":"1b4cb508-1bd0-4abb-90e1-db692453866d","system_id":"levelo_inurba_marseille","lat":43.317075,"lon":5.377367,"is_reserved":false,"is_disabled":false,"rental_uris":{"android":"levelo://app?vid=1b4cb508-1bd0-4abb-90e1-db692453866d","ios":"levelo://app?vid=1b4cb508-1bd0-4abb-90e1-db692453866d"},"vehicle_type_id":"4","last_reported":1718475015,"current_range_meters":20800,"station_id":"ce4bgth2rcd13ifvqch0","pricing_plan_id":"cebpf4jnsgd1na2vs0mg"},{"bike_id":"f2bdecf8-a6c2-4f3c-81fb-c1c044a9cbee","system_id":"levelo_inurba_marseille","lat":43.30348,"lon":5.366666,"is_reserved":false,"is_disabled":false,"rental_uris":{"android":"levelo://app?vid=f2bdecf8-a6c2-4f3c-81fb-c1c044a9cbee","ios":"levelo://app?vid=f2bdecf8-a6c2-4f3c-81fb-c1c044a9cbee"},"vehicle_type_id":"4","last_reported":1718475015,"current_range_meters":30000,"station_id":"","pricing_plan_id":"cebpf4jnsgd1na2vs0mg"},{"bike_id":"7e391f6d-054b-4dd4-b71e-da8f130a0581","system_id":"levelo_inurba_marseille","lat":43.305157,"lon":5.375783,"is_reserved":false,"is_disabled":false,"rental_uris":{"android":"levelo://app?vid=7e391f6d-054b-4dd4-b71e-da8f130a0581","ios":"levelo://app?vid=7e391f6d-054b-4dd4-b71e-da8f130a0581"},"vehicle_type_id":"4","last_reported":1718475015,"current_range_meters":7200,"station_id":"","pricing_plan_id":"cebpf4jnsgd1na2vs0mg"},{"bike_id":"3ea2ad65-c216-4c8c-a503-35fad50f2455","system_id":"levelo_inurba_marseille","lat":43.301939,"lon":5.366286,"is_reserved":false,"is_disabled":false,"rental_uris":{"android":"levelo://app?vid=3ea2ad65-c216-4c8c-a503-35fad50f2455","ios":"levelo://app?vid=3ea2ad65-c216-4c8c-a503-35fad50f2455"},"vehicle_type_id":"4","last_reported":1718475015,"current_range_meters":31200,"station_id":"ce4bgrh2rcd13ifvqc8g","pricing_plan_id":"cebpf4jnsgd1na2vs0mg"},{"bike_id":"46bd24a7-39cb-4140-9c87-be771b07b699","system_id":"levelo_inurba_marseille","lat":43.308012,"lon":5.381511,"is_reserved":false,"is_disabled":false,"rental_uris":{"android":"levelo://app?vid=46bd24a7-39cb-4140-9c87-be771b07b699","ios":"levelo://app?vid=46bd24a7-39cb-4140-9c87-be771b07b699"},"vehicle_type_id":"4","last_reported":1718475015,"current_range_meters":800,"station_id":"ce4bgt12rcd13ifvqce0","pricing_plan_id":"cebpf4jnsgd1na2vs0mg"},{"bike_id":"91e65379-4f29-418a-9716-66ddce7b432c","system_id":"levelo_inurba_marseille","lat":43.301177,"lon":5.367139,"is_reserved":false,"is_disabled":false,"rental_uris":{"android":"levelo://app?vid=91e65379-4f29-418a-9716-66ddce7b432c","ios":"levelo://app?vid=91e65379-4f29-418a-9716-66ddce7b432c"},"vehicle_type_id":"4","last_reported":1718475015,"current_range_meters":0,"station_id":"","pricing_plan_id":"cebpf4jnsgd1na2vs0mg"},{"bike_id":"d3de8b71-4433-41d7-9c3f-3e50c612dd47","system_id":"levelo_inurba_marseille","lat":43.30791,"lon":5.38168,"is_reserved":false,"is_disabled":false,"rental_uris":{"android":"levelo://app?vid=d3de8b71-4433-41d7-9c3f-3e50c612dd47","ios":"levelo://app?vid=d3de8b71-4433-41d7-9c3f-3e50c612dd47"},"vehicle_type_id":"4","last_reported":1718475015,"current_range_meters":10400,"station_id":"","pricing_plan_id":"cebpf4jnsgd1na2vs0mg"},{"bike_id":"a3acc647-2393-4da3-b51b-4e52e0796686","system_id":"levelo_inurba_marseille","lat":43.304606,"lon":5.379026,"is_reserved":false,"is_disabled":false,"rental_uris":{"android":"levelo://app?vid=a3acc647-2393-4da3-b51b-4e52e0796686","ios":"levelo://app?vid=a3acc647-2393-4da3-b51b-4e52e0796686"},"vehicle_type_id":"4","last_reported":1718475015,"current_range_meters":31200,"station_id":"ce4bgup2rcd13ifvqcn0","pricing_plan_id":"cebpf4jnsgd1na2vs0mg"},{"bike_id":"6199a4bb-c287-4cb5-8bb6-e3a157441d97","system_id":"levelo_inurba_marseille","lat":43.304606,"lon":5.379026,"is_reserved":false,"is_disabled":false,"rental_uris":{"android":"levelo://app?vid=6199a4bb-c287-4cb5-8bb6-e3a157441d97","ios":"levelo://app?vid=6199a4bb-c287-4cb5-8bb6-e3a157441d97"},"vehicle_type_id":"4","last_reported":1718475015,"current_range_meters":10800,"station_id":"ce4bgup2rcd13ifvqcn0","pricing_plan_id":"cebpf4jnsgd1na2vs0mg"},{"bike_id":"584aede8-f4ac-44f5-8857-dd8b85945671","system_id":"levelo_inurba_marseille","lat":43.304606,"lon":5.379026,"is_reserved":false,"is_disabled":false,"rental_uris":{"android":"levelo://app?vid=584aede8-f4ac-44f5-8857-dd8b85945671","ios":"levelo://app?vid=584aede8-f4ac-44f5-8857-dd8b85945671"},"vehicle_type_id":"4","last_reported":1718475015,"current_range_meters":400,"station_id":"ce4bgup2rcd13ifvqcn0","pricing_plan_id":"cebpf4jnsgd1na2vs0mg"},{"bike_id":"e7fcaa0f-5834-46e4-8b9c-5dfd0a9df264","system_id":"levelo_inurba_marseille","lat":43.324771,"lon":5.36557,"is_reserved":false,"is_disabled":false,"rental_uris":{"android":"levelo://app?vid=e7fcaa0f-5834-46e4-8b9c-5dfd0a9df264","ios":"levelo://app?vid=e7fcaa0f-5834-46e4-8b9c-5dfd0a9df264"},"vehicle_type_id":"4","last_reported":1718475015,"current_range_meters":6400,"station_id":"ce4bhs12rcd13ifvqhvg","pricing_plan_id":"cebpf4jnsgd1na2vs0mg"},{"bike_id":"38b2c9e1-4c23-45fd-99ed-bbe9e26de9f4","system_id":"levelo_inurba_marseille","lat":43.324771,"lon":5.36557,"is_reserved":false,"is_disabled":false,"rental_uris":{"android":"levelo://app?vid=38b2c9e1-4c23-45fd-99ed-bbe9e26de9f4","ios":"levelo://app?vid=38b2c9e1-4c23-45fd-99ed-bbe9e26de9f4"},"vehicle_type_id":"4","last_reported":1718475015,"current_range_meters":18000,"station_id":"ce4bhs12rcd13ifvqhvg","pricing_plan_id":"cebpf4jnsgd1na2vs0mg"},{"bike_id":"a6094c0a-422b-45f1-a7d8-f94870b64e5f","system_id":"levelo_inurba_marseille","lat":43.324771,"lon":5.36557,"is_reserved":false,"is_disabled":false,"rental_uris":{"android":"levelo://app?vid=a6094c0a-422b-45f1-a7d8-f94870b64e5f","ios":"levelo://app?vid=a6094c0a-422b-45f1-a7d8-f94870b64e5f"},"vehicle_type_id":"4","last_reported":1718475015,"current_range_meters":29600,"station_id":"ce4bhs12rcd13ifvqhvg","pricing_plan_id":"cebpf4jnsgd1na2vs0mg"},{"bike_id":"e04d8555-f083-4eb8-8189-d92050db7a4b","system_id":"levelo_inurba_marseille","lat":43.324771,"lon":5.36557,"is_reserved":false,"is_disabled":false,"rental_uris":{"android":"levelo://app?vid=e04d8555-f083-4eb8-8189-d92050db7a4b","ios":"levelo://app?vid=e04d8555-f083-4eb8-8189-d92050db7a4b"},"vehicle_type_id":"4","last_reported":1718475015,"current_range_meters":4000,"station_id":"ce4bhs12rcd13ifvqhvg","pricing_plan_id":"cebpf4jnsgd1na2vs0mg"},{"bike_id":"d46abc99-67ad-4556-ac08-9e7538173fae","system_id":"levelo_inurba_marseille","lat":43.324771,"lon":5.36557,"is_reserved":false,"is_disabled":false,"rental_uris":{"android":"levelo://app?vid=d46abc99-67ad-4556-ac08-9e7538173fae","ios":"levelo://app?vid=d46abc99-67ad-4556-ac08-9e7538173fae"},"vehicle_type_id":"4","last_reported":1718475015,"current_range_meters":21200,"station_id":"ce4bhs12rcd13ifvqhvg","pricing_plan_id":"cebpf4jnsgd1na2vs0mg"},{"bike_id":"0bd7e063-1a25-4aae-af49-2f3318c320b1","system_id":"levelo_inurba_marseille","lat":43.324771,"lon":5.36557,"is_reserved":false,"is_disabled":false,"rental_uris":{"android":"levelo://app?vid=0bd7e063-1a25-4aae-af49-2f3318c320b1","ios":"levelo://app?vid=0bd7e063-1a25-4aae-af49-2f3318c320b1"},"vehicle_type_id":"4","last_reported":1718475015,"current_range_meters":15600,"station_id":"ce4bhs12rcd13ifvqhvg","pricing_plan_id":"cebpf4jnsgd1na2vs0mg"},{"bike_id":"c1f62fdd-d038-4e9b-b660-fdbcc84b953e","system_id":"levelo_inurba_marseille","lat":43.32488,"lon":5.36566,"is_reserved":false,"is_disabled":false,"rental_uris":{"android":"levelo://app?vid=c1f62fdd-d038-4e9b-b660-fdbcc84b953e","ios":"levelo://app?vid=c1f62fdd-d038-4e9b-b660-fdbcc84b953e"},"vehicle_type_id":"4","last_reported":1718475015,"current_range_meters":0,"station_id":"ce4bhs12rcd13ifvqhvg","pricing_plan_id":"cebpf4jnsgd1na2vs0mg"},{"bike_id":"7e87196e-7da2-4a73-bb1f-08a78330daec","system_id":"levelo_inurba_marseille","lat":43.324771,"lon":5.36557,"is_reserved":false,"is_disabled":false,"rental_uris":{"android":"levelo://app?vid=7e87196e-7da2-4a73-bb1f-08a78330daec","ios":"levelo://app?vid=7e87196e-7da2-4a73-bb1f-08a78330daec"},"vehicle_type_id":"4","last_reported":1718475015,"current_range_meters":3600,"station_id":"ce4bhs12rcd13ifvqhvg","pricing_plan_id":"cebpf4jnsgd1na2vs0mg"},{"bike_id":"0c078b81-df41-4216-b1d1-63c7b8f03d19","system_id":"levelo_inurba_marseille","lat":43.310804,"lon":5.38359,"is_reserved":false,"is_disabled":false,"rental_uris":{"android":"levelo://app?vid=0c078b81-df41-4216-b1d1-63c7b8f03d19","ios":"levelo://app?vid=0c078b81-df41-4216-b1d1-63c7b8f03d19"},"vehicle_type_id":"4","last_reported":1718475015,"current_range_meters":0,"station_id":"ce4bgv92rcd13ifvqcr0","pricing_plan_id":"cebpf4jnsgd1na2vs0mg"},{"bike_id":"58fa8cf3-1406-4e3f-9bf8-b9a2d652a3e8","system_id":"levelo_inurba_marseille","lat":43.310804,"lon":5.38359,"is_reserved":false,"is_disabled":false,"rental_uris":{"android":"levelo://app?vid=58fa8cf3-1406-4e3f-9bf8-b9a2d652a3e8","ios":"levelo://app?vid=58fa8cf3-1406-4e3f-9bf8-b9a2d652a3e8"},"vehicle_type_id":"4","last_reported":1718475015,"current_range_meters":0,"station_id":"ce4bgv92rcd13ifvqcr0","pricing_plan_id":"cebpf4jnsgd1na2vs0mg"},{"bike_id":"f11fd050-d2ae-4379-8054-de78f5757f77","system_id":"levelo_inurba_marseille","lat":43.302784,"lon":5.377158,"is_reserved":false,"is_disabled":false,"rental_uris":{"android":"levelo://app?vid=f11fd050-d2ae-4379-8054-de78f5757f77","ios":"levelo://app?vid=f11fd050-d2ae-4379-8054-de78f5757f77"},"vehicle_type_id":"4","last_reported":1718475015,"current_range_meters":9600,"station_id":"ce4bguh2rcd13ifvqcj0","pricing_plan_id":"cebpf4jnsgd1na2vs0mg"},{"bike_id":"88e2ef8e-16c1-4810-b009-de846a008235","system_id":"levelo_inurba_marseille","lat":43.302827,"lon":5.37696,"is_reserved":false,"is_disabled":false,"rental_uris":{"android":"levelo://app?vid=88e2ef8e-16c1-4810-b009-de846a008235","ios":"levelo://app?vid=88e2ef8e-16c1-4810-b009-de846a008235"},"vehicle_type_id":"4","last_reported":1718475015,"current_range_meters":17600,"station_id":"ce4bguh2rcd13ifvqcj0","pricing_plan_id":"cebpf4jnsgd1na2vs0mg"},{"bike_id":"0aa56b24-bc9f-437d-9c40-21a38999b890","system_id":"levelo_inurba_marseille","lat":43.302707,"lon":5.376993,"is_reserved":false,"is_disabled":false,"rental_uris":{"android":"levelo://app?vid=0aa56b24-bc9f-437d-9c40-21a38999b890","ios":"levelo://app?vid=0aa56b24-bc9f-437d-9c40-21a38999b890"},"vehicle_type_id":"4","last_reported":1718475015,"current_range_meters":25200,"station_id":"ce4bguh2rcd13ifvqcj0","pricing_plan_id":"cebpf4jnsgd1na2vs0mg"},{"bike_id":"fd2d0131-01f4-41b1-a50c-7800cb222ce3","system_id":"levelo_inurba_marseille","lat":43.30143,"lon":5.37413,"is_reserved":false,"is_disabled":false,"rental_uris":{"android":"levelo://app?vid=fd2d0131-01f4-41b1-a50c-7800cb222ce3","ios":"levelo://app?vid=fd2d0131-01f4-41b1-a50c-7800cb222ce3"},"vehicle_type_id":"4","last_reported":1718475015,"current_range_meters":2400,"station_id":"ce4bgs92rcd13ifvqcc0","pricing_plan_id":"cebpf4jnsgd1na2vs0mg"},{"bike_id":"7ee80641-a6bc-4dda-980a-ba9246d31197","system_id":"levelo_inurba_marseille","lat":43.301429,"lon":5.37413,"is_reserved":false,"is_disabled":false,"rental_uris":{"android":"levelo://app?vid=7ee80641-a6bc-4dda-980a-ba9246d31197","ios":"levelo://app?vid=7ee80641-a6bc-4dda-980a-ba9246d31197"},"vehicle_type_id":"4","last_reported":1718475015,"current_range_meters":10000,"station_id":"ce4bgs92rcd13ifvqcc0","pricing_plan_id":"cebpf4jnsgd1na2vs0mg"},{"bike_id":"9c1ecd73-cb5c-4b0e-98e4-b78afe79e2d3","system_id":"levelo_inurba_marseille","lat":43.302784,"lon":5.377158,"is_reserved":false,"is_disabled":false,"rental_uris":{"android":"levelo://app?vid=9c1ecd73-cb5c-4b0e-98e4-b78afe79e2d3","ios":"levelo://app?vid=9c1ecd73-cb5c-4b0e-98e4-b78afe79e2d3"},"vehicle_type_id":"4","last_reported":1718475015,"current_range_meters":29600,"station_id":"ce4bguh2rcd13ifvqcj0","pricing_plan_id":"cebpf4jnsgd1na2vs0mg"},{"bike_id":"30b3d114-7fc4-4b9e-b233-331e99125d43","system_id":"levelo_inurba_marseille","lat":43.319935,"lon":5.381699,"is_reserved":false,"is_disabled":false,"rental_uris":{"android":"levelo://app?vid=30b3d114-7fc4-4b9e-b233-331e99125d43","ios":"levelo://app?vid=30b3d114-7fc4-4b9e-b233-331e99125d43"},"vehicle_type_id":"4","last_reported":1718475015,"current_range_meters":14800,"station_id":"ce4bhr12rcd13ifvqhpg","pricing_plan_id":"cebpf4jnsgd1na2vs0mg"},{"bike_id":"3b477e3a-6ece-46c2-a3d0-f434ed507e91","system_id":"levelo_inurba_marseille","lat":43.319935,"lon":5.381699,"is_reserved":false,"is_disabled":false,"rental_uris":{"android":"levelo://app?vid=3b477e3a-6ece-46c2-a3d0-f434ed507e91","ios":"levelo://app?vid=3b477e3a-6ece-46c2-a3d0-f434ed507e91"},"vehicle_type_id":"4","last_reported":1718475015,"current_range_meters":0,"station_id":"ce4bhr12rcd13ifvqhpg","pricing_plan_id":"cebpf4jnsgd1na2vs0mg"},{"bike_id":"e214c535-f8f3-421c-8e42-04e36fb19963","system_id":"levelo_inurba_marseille","lat":43.313683,"lon":5.384907,"is_reserved":false,"is_disabled":false,"rental_uris":{"android":"levelo://app?vid=e214c535-f8f3-421c-8e42-04e36fb19963","ios":"levelo://app?vid=e214c535-f8f3-421c-8e42-04e36fb19963"},"vehicle_type_id":"4","last_reported":1718475015,"current_range_meters":0,"station_id":"ce4bgt92rcd13ifvqcf0","pricing_plan_id":"cebpf4jnsgd1na2vs0mg"},{"bike_id":"aeff1caf-0e22-402b-bfeb-6d92cd80f742","system_id":"levelo_inurba_marseille","lat":43.299222,"lon":5.365554,"is_reserved":false,"is_disabled":false,"rental_uris":{"android":"levelo://app?vid=aeff1caf-0e22-402b-bfeb-6d92cd80f742","ios":"levelo://app?vid=aeff1caf-0e22-402b-bfeb-6d92cd80f742"},"vehicle_type_id":"4","last_reported":1718475015,"current_range_meters":12400,"station_id":"ce4bgm92rcd13ifvqbr0","pricing_plan_id":"cebpf4jnsgd1na2vs0mg"},{"bike_id":"49e32c55-54fc-4d65-afbc-3083103f4cbf","system_id":"levelo_inurba_marseille","lat":43.29939,"lon":5.37461,"is_reserved":false,"is_disabled":false,"rental_uris":{"android":"levelo://app?vid=49e32c55-54fc-4d65-afbc-3083103f4cbf","ios":"levelo://app?vid=49e32c55-54fc-4d65-afbc-3083103f4cbf"},"vehicle_type_id":"4","last_reported":1718475015,"current_range_meters":0,"station_id":"","pricing_plan_id":"cebpf4jnsgd1na2vs0mg"},{"bike_id":"abbd990a-1942-4810-9aa3-e23c2bbf236d","system_id":"levelo_inurba_marseille","lat":43.298433,"lon":5.362774,"is_reserved":false,"is_disabled":false,"rental_uris":{"android":"levelo://app?vid=abbd990a-1942-4810-9aa3-e23c2bbf236d","ios":"levelo://app?vid=abbd990a-1942-4810-9aa3-e23c2bbf236d"},"vehicle_type_id":"4","last_reported":1718475015,"current_range_meters":7200,"station_id":"ce4bgpp2rcd13ifvqc3g","pricing_plan_id":"cebpf4jnsgd1na2vs0mg"},{"bike_id":"75aca7ad-8e64-4028-a161-a694a2dc7648","system_id":"levelo_inurba_marseille","lat":43.305364,"lon":5.384119,"is_reserved":false,"is_disabled":false,"rental_uris":{"android":"levelo://app?vid=75aca7ad-8e64-4028-a161-a694a2dc7648","ios":"levelo://app?vid=75aca7ad-8e64-4028-a161-a694a2dc7648"},"vehicle_type_id":"4","last_reported":1718475015,"current_range_meters":0,"station_id":"ce4bgg92rcd13ifvqb30","pricing_plan_id":"cebpf4jnsgd1na2vs0mg"},{"bike_id":"04896729-28a0-48de-ab45-9e1f660be0de","system_id":"levelo_inurba_marseille","lat":43.297774,"lon":5.370875,"is_reserved":false,"is_disabled":false,"rental_uris":{"android":"levelo://app?vid=04896729-28a0-48de-ab45-9e1f660be0de","ios":"levelo://app?vid=04896729-28a0-48de-ab45-9e1f660be0de"},"vehicle_type_id":"4","last_reported":1718475015,"current_range_meters":31200,"station_id":"ce4bgop2rcd13ifvqc1g","pricing_plan_id":"cebpf4jnsgd1na2vs0mg"},{"bike_id":"52649ea8-9ee8-4de6-9a03-56b98a048313","system_id":"levelo_inurba_marseille","lat":43.322872,"lon":5.382756,"is_reserved":false,"is_disabled":false,"rental_uris":{"android":"levelo://app?vid=52649ea8-9ee8-4de6-9a03-56b98a048313","ios":"levelo://app?vid=52649ea8-9ee8-4de6-9a03-56b98a048313"},"vehicle_type_id":"4","last_reported":1718475015,"current_range_meters":14800,"station_id":"ce4bhr12rcd13ifvqhqg","pricing_plan_id":"cebpf4jnsgd1na2vs0mg"},{"bike_id":"7a6bc355-85f3-4b16-85e4-66bf4f10b1f7","system_id":"levelo_inurba_marseille","lat":43.297163,"lon":5.365866,"is_reserved":false,"is_disabled":false,"rental_uris":{"android":"levelo://app?vid=7a6bc355-85f3-4b16-85e4-66bf4f10b1f7","ios":"levelo://app?vid=7a6bc355-85f3-4b16-85e4-66bf4f10b1f7"},"vehicle_type_id":"4","last_reported":1718475015,"current_range_meters":3600,"station_id":"ce4bgn12rcd13ifvqbt0","pricing_plan_id":"cebpf4jnsgd1na2vs0mg"},{"bike_id":"25d25407-f90b-4036-9e62-91bd762a2e0e","system_id":"levelo_inurba_marseille","lat":43.297163,"lon":5.365866,"is_reserved":false,"is_disabled":false,"rental_uris":{"android":"levelo://app?vid=25d25407-f90b-4036-9e62-91bd762a2e0e","ios":"levelo://app?vid=25d25407-f90b-4036-9e62-91bd762a2e0e"},"vehicle_type_id":"4","last_reported":1718475015,"current_range_meters":4800,"station_id":"ce4bgn12rcd13ifvqbt0","pricing_plan_id":"cebpf4jnsgd1na2vs0mg"},{"bike_id":"8029ecd1-33e2-4630-a400-989116e1b619","system_id":"levelo_inurba_marseille","lat":43.323327,"lon":5.382903,"is_reserved":false,"is_disabled":false,"rental_uris":{"android":"levelo://app?vid=8029ecd1-33e2-4630-a400-989116e1b619","ios":"levelo://app?vid=8029ecd1-33e2-4630-a400-989116e1b619"},"vehicle_type_id":"4","last_reported":1718475015,"current_range_meters":30000,"station_id":"","pricing_plan_id":"cebpf4jnsgd1na2vs0mg"},{"bike_id":"bc9a7f62-b925-4e5b-a3ba-a5a38804c91b","system_id":"levelo_inurba_marseille","lat":43.32386,"lon":5.38361,"is_reserved":false,"is_disabled":false,"rental_uris":{"android":"levelo://app?vid=bc9a7f62-b925-4e5b-a3ba-a5a38804c91b","ios":"levelo://app?vid=bc9a7f62-b925-4e5b-a3ba-a5a38804c91b"},"vehicle_type_id":"4","last_reported":1718475015,"current_range_meters":0,"station_id":"","pricing_plan_id":"cebpf4jnsgd1na2vs0mg"},{"bike_id":"e0b23e41-729d-4142-a362-2f942dff8d00","system_id":"levelo_inurba_marseille","lat":43.299028,"lon":5.381509,"is_reserved":false,"is_disabled":false,"rental_uris":{"android":"levelo://app?vid=e0b23e41-729d-4142-a362-2f942dff8d00","ios":"levelo://app?vid=e0b23e41-729d-4142-a362-2f942dff8d00"},"vehicle_type_id":"4","last_reported":1718475015,"current_range_meters":31200,"station_id":"ce4bgj12rcd13ifvqbc0","pricing_plan_id":"cebpf4jnsgd1na2vs0mg"},{"bike_id":"b28611ab-add9-47f8-b3cd-3bbd1ae51f47","system_id":"levelo_inurba_marseille","lat":43.296921,"lon":5.376579,"is_reserved":false,"is_disabled":false,"rental_uris":{"android":"levelo://app?vid=b28611ab-add9-47f8-b3cd-3bbd1ae51f47","ios":"levelo://app?vid=b28611ab-add9-47f8-b3cd-3bbd1ae51f47"},"vehicle_type_id":"4","last_reported":1718475015,"current_range_meters":11200,"station_id":"ce4bgkh2rcd13ifvqbl0","pricing_plan_id":"cebpf4jnsgd1na2vs0mg"},{"bike_id":"3951e1de-854b-42e7-a3a8-dd4764288523","system_id":"levelo_inurba_marseille","lat":43.309589,"lon":5.390258,"is_reserved":false,"is_disabled":false,"rental_uris":{"android":"levelo://app?vid=3951e1de-854b-42e7-a3a8-dd4764288523","ios":"levelo://app?vid=3951e1de-854b-42e7-a3a8-dd4764288523"},"vehicle_type_id":"4","last_reported":1718475015,"current_range_meters":0,"station_id":"ce4bgup2rcd13ifvqco0","pricing_plan_id":"cebpf4jnsgd1na2vs0mg"},{"bike_id":"10599321-6128-4fc7-894e-866063062a67","system_id":"levelo_inurba_marseille","lat":43.309589,"lon":5.390258,"is_reserved":false,"is_disabled":false,"rental_uris":{"android":"levelo://app?vid=10599321-6128-4fc7-894e-866063062a67","ios":"levelo://app?vid=10599321-6128-4fc7-894e-866063062a67"},"vehicle_type_id":"4","last_reported":1718475015,"current_range_meters":11200,"station_id":"ce4bgup2rcd13ifvqco0","pricing_plan_id":"cebpf4jnsgd1na2vs0mg"},{"bike_id":"689002ce-381e-4616-a884-d7af9221fd1d","system_id":"levelo_inurba_marseille","lat":43.317557,"lon":5.390173,"is_reserved":false,"is_disabled":false,"rental_uris":{"android":"levelo://app?vid=689002ce-381e-4616-a884-d7af9221fd1d","ios":"levelo://app?vid=689002ce-381e-4616-a884-d7af9221fd1d"},"vehicle_type_id":"4","last_reported":1718475015,"current_range_meters":29200,"station_id":"ce4bhqp2rcd13ifvqhng","pricing_plan_id":"cebpf4jnsgd1na2vs0mg"},{"bike_id":"45d7487e-615a-49aa-a785-87118bb29440","system_id":"levelo_inurba_marseille","lat":43.317557,"lon":5.390173,"is_reserved":false,"is_disabled":false,"rental_uris":{"android":"levelo://app?vid=45d7487e-615a-49aa-a785-87118bb29440","ios":"levelo://app?vid=45d7487e-615a-49aa-a785-87118bb29440"},"vehicle_type_id":"4","last_reported":1718475015,"current_range_meters":8000,"station_id":"ce4bhqp2rcd13ifvqhng","pricing_plan_id":"cebpf4jnsgd1na2vs0mg"},{"bike_id":"debfd459-063a-4eea-adfb-2da06b758482","system_id":"levelo_inurba_marseille","lat":43.304274,"lon":5.388873,"is_reserved":false,"is_disabled":false,"rental_uris":{"android":"levelo://app?vid=debfd459-063a-4eea-adfb-2da06b758482","ios":"levelo://app?vid=debfd459-063a-4eea-adfb-2da06b758482"},"vehicle_type_id":"4","last_reported":1718475015,"current_range_meters":20800,"station_id":"ce4bgk12rcd13ifvqbi0","pricing_plan_id":"cebpf4jnsgd1na2vs0mg"},{"bike_id":"d60de987-d4d5-46e3-9b5e-4181c48e8816","system_id":"levelo_inurba_marseille","lat":43.29797,"lon":5.38102,"is_reserved":false,"is_disabled":false,"rental_uris":{"android":"levelo://app?vid=d60de987-d4d5-46e3-9b5e-4181c48e8816","ios":"levelo://app?vid=d60de987-d4d5-46e3-9b5e-4181c48e8816"},"vehicle_type_id":"4","last_reported":1718475015,"current_range_meters":31600,"station_id":"ce4bgip2rcd13ifvqbb0","pricing_plan_id":"cebpf4jnsgd1na2vs0mg"},{"bike_id":"042ec3f8-6acf-4c45-a06a-9fbc3adfe6d9","system_id":"levelo_inurba_marseille","lat":43.295748,"lon":5.37522,"is_reserved":false,"is_disabled":false,"rental_uris":{"android":"levelo://app?vid=042ec3f8-6acf-4c45-a06a-9fbc3adfe6d9","ios":"levelo://app?vid=042ec3f8-6acf-4c45-a06a-9fbc3adfe6d9"},"vehicle_type_id":"4","last_reported":1718475015,"current_range_meters":15200,"station_id":"ce4bgh92rcd13ifvqb50","pricing_plan_id":"cebpf4jnsgd1na2vs0mg"},{"bike_id":"3ccb1de2-c61e-40fc-95e2-a84c93f921a2","system_id":"levelo_inurba_marseille","lat":43.298037,"lon":5.381066,"is_reserved":false,"is_disabled":false,"rental_uris":{"android":"levelo://app?vid=3ccb1de2-c61e-40fc-95e2-a84c93f921a2","ios":"levelo://app?vid=3ccb1de2-c61e-40fc-95e2-a84c93f921a2"},"vehicle_type_id":"4","last_reported":1718475015,"current_range_meters":30000,"station_id":"ce4bgip2rcd13ifvqbb0","pricing_plan_id":"cebpf4jnsgd1na2vs0mg"},{"bike_id":"88293ef0-c3f7-4220-a1cc-a5439547c72c","system_id":"levelo_inurba_marseille","lat":43.296277,"lon":5.377108,"is_reserved":false,"is_disabled":false,"rental_uris":{"android":"levelo://app?vid=88293ef0-c3f7-4220-a1cc-a5439547c72c","ios":"levelo://app?vid=88293ef0-c3f7-4220-a1cc-a5439547c72c"},"vehicle_type_id":"4","last_reported":1718475015,"current_range_meters":29200,"station_id":"ce4bgi92rcd13ifvqb90","pricing_plan_id":"cebpf4jnsgd1na2vs0mg"},{"bike_id":"cfbb7299-620f-451a-898a-83973d84549d","system_id":"levelo_inurba_marseille","lat":43.295279,"lon":5.375048,"is_reserved":false,"is_disabled":false,"rental_uris":{"android":"levelo://app?vid=cfbb7299-620f-451a-898a-83973d84549d","ios":"levelo://app?vid=cfbb7299-620f-451a-898a-83973d84549d"},"vehicle_type_id":"4","last_reported":1718475015,"current_range_meters":0,"station_id":"ce4bgkp2rcd13ifvqbmg","pricing_plan_id":"cebpf4jnsgd1na2vs0mg"},{"bike_id":"83b3b942-15cd-4e0f-a4db-dd86db6d042a","system_id":"levelo_inurba_marseille","lat":43.295279,"lon":5.375048,"is_reserved":false,"is_disabled":false,"rental_uris":{"android":"levelo://app?vid=83b3b942-15cd-4e0f-a4db-dd86db6d042a","ios":"levelo://app?vid=83b3b942-15cd-4e0f-a4db-dd86db6d042a"},"vehicle_type_id":"4","last_reported":1718475015,"current_range_meters":19600,"station_id":"ce4bgkp2rcd13ifvqbmg","pricing_plan_id":"cebpf4jnsgd1na2vs0mg"},{"bike_id":"2aa1ab7a-8ce6-4b6b-b3d4-a6d41733f78c","system_id":"levelo_inurba_marseille","lat":43.29995,"lon":5.385096,"is_reserved":false,"is_disabled":false,"rental_uris":{"android":"levelo://app?vid=2aa1ab7a-8ce6-4b6b-b3d4-a6d41733f78c","ios":"levelo://app?vid=2aa1ab7a-8ce6-4b6b-b3d4-a6d41733f78c"},"vehicle_type_id":"4","last_reported":1718475015,"current_range_meters":30000,"station_id":"ce4bgj92rcd13ifvqbd0","pricing_plan_id":"cebpf4jnsgd1na2vs0mg"},{"bike_id":"b4190753-5f58-44b5-87be-a91ecc0dd9d0","system_id":"levelo_inurba_marseille","lat":43.295279,"lon":5.375048,"is_reserved":false,"is_disabled":false,"rental_uris":{"android":"levelo://app?vid=b4190753-5f58-44b5-87be-a91ecc0dd9d0","ios":"levelo://app?vid=b4190753-5f58-44b5-87be-a91ecc0dd9d0"},"vehicle_type_id":"4","last_reported":1718475015,"current_range_meters":400,"station_id":"ce4bgkp2rcd13ifvqbmg","pricing_plan_id":"cebpf4jnsgd1na2vs0mg"},{"bike_id":"ae7e5b83-7df9-494c-b047-58e6e72bff7c","system_id":"levelo_inurba_marseille","lat":43.299717,"lon":5.384845,"is_reserved":false,"is_disabled":false,"rental_uris":{"android":"levelo://app?vid=ae7e5b83-7df9-494c-b047-58e6e72bff7c","ios":"levelo://app?vid=ae7e5b83-7df9-494c-b047-58e6e72bff7c"},"vehicle_type_id":"4","last_reported":1718475015,"current_range_meters":0,"station_id":"ce4bgj92rcd13ifvqbd0","pricing_plan_id":"cebpf4jnsgd1na2vs0mg"},{"bike_id":"5ce04c63-ebfb-401c-8b81-3f5dca8d4f54","system_id":"levelo_inurba_marseille","lat":43.32367,"lon":5.388836,"is_reserved":false,"is_disabled":false,"rental_uris":{"android":"levelo://app?vid=5ce04c63-ebfb-401c-8b81-3f5dca8d4f54","ios":"levelo://app?vid=5ce04c63-ebfb-401c-8b81-3f5dca8d4f54"},"vehicle_type_id":"4","last_reported":1718475015,"current_range_meters":11200,"station_id":"ce4bhqp2rcd13ifvqhog","pricing_plan_id":"cebpf4jnsgd1na2vs0mg"},{"bike_id":"f4420b61-33fc-4f30-8716-5973b186ee29","system_id":"levelo_inurba_marseille","lat":43.32363,"lon":5.38881,"is_reserved":false,"is_disabled":false,"rental_uris":{"android":"levelo://app?vid=f4420b61-33fc-4f30-8716-5973b186ee29","ios":"levelo://app?vid=f4420b61-33fc-4f30-8716-5973b186ee29"},"vehicle_type_id":"4","last_reported":1718475015,"current_range_meters":6000,"station_id":"ce4bhqp2rcd13ifvqhog","pricing_plan_id":"cebpf4jnsgd1na2vs0mg"},{"bike_id":"5ecf71d5-5cdf-4eb5-ab30-1a550a99891b","system_id":"levelo_inurba_marseille","lat":43.3237,"lon":5.38879,"is_reserved":false,"is_disabled":false,"rental_uris":{"android":"levelo://app?vid=5ecf71d5-5cdf-4eb5-ab30-1a550a99891b","ios":"levelo://app?vid=5ecf71d5-5cdf-4eb5-ab30-1a550a99891b"},"vehicle_type_id":"4","last_reported":1718475015,"current_range_meters":16000,"station_id":"ce4bhqp2rcd13ifvqhog","pricing_plan_id":"cebpf4jnsgd1na2vs0mg"},{"bike_id":"d86f7998-7a25-40fb-a0d1-14387a955595","system_id":"levelo_inurba_marseille","lat":43.32367,"lon":5.388836,"is_reserved":false,"is_disabled":false,"rental_uris":{"android":"levelo://app?vid=d86f7998-7a25-40fb-a0d1-14387a955595","ios":"levelo://app?vid=d86f7998-7a25-40fb-a0d1-14387a955595"},"vehicle_type_id":"4","last_reported":1718475015,"current_range_meters":2000,"station_id":"ce4bhqp2rcd13ifvqhog","pricing_plan_id":"cebpf4jnsgd1na2vs0mg"},{"bike_id":"be7bde44-2736-46f6-86d2-f673ea749756","system_id":"levelo_inurba_marseille","lat":43.32367,"lon":5.38884,"is_reserved":false,"is_disabled":false,"rental_uris":{"android":"levelo://app?vid=be7bde44-2736-46f6-86d2-f673ea749756","ios":"levelo://app?vid=be7bde44-2736-46f6-86d2-f673ea749756"},"vehicle_type_id":"4","last_reported":1718475015,"current_range_meters":0,"station_id":"ce4bhqp2rcd13ifvqhog","pricing_plan_id":"cebpf4jnsgd1na2vs0mg"},{"bike_id":"fd876dc6-8829-4d9d-8370-b96f6858509d","system_id":"levelo_inurba_marseille","lat":43.32367,"lon":5.388836,"is_reserved":false,"is_disabled":false,"rental_uris":{"android":"levelo://app?vid=fd876dc6-8829-4d9d-8370-b96f6858509d","ios":"levelo://app?vid=fd876dc6-8829-4d9d-8370-b96f6858509d"},"vehicle_type_id":"4","last_reported":1718475015,"current_range_meters":14800,"station_id":"ce4bhqp2rcd13ifvqhog","pricing_plan_id":"cebpf4jnsgd1na2vs0mg"},{"bike_id":"667e898e-fe25-421d-8814-20c44f849d13","system_id":"levelo_inurba_marseille","lat":43.32366,"lon":5.38886,"is_reserved":false,"is_disabled":false,"rental_uris":{"android":"levelo://app?vid=667e898e-fe25-421d-8814-20c44f849d13","ios":"levelo://app?vid=667e898e-fe25-421d-8814-20c44f849d13"},"vehicle_type_id":"4","last_reported":1718475015,"current_range_meters":5600,"station_id":"ce4bhqp2rcd13ifvqhog","pricing_plan_id":"cebpf4jnsgd1na2vs0mg"},{"bike_id":"cdcb4623-6523-4b9f-88f1-7bd66f1a2926","system_id":"levelo_inurba_marseille","lat":43.323685,"lon":5.38884,"is_reserved":false,"is_disabled":false,"rental_uris":{"android":"levelo://app?vid=cdcb4623-6523-4b9f-88f1-7bd66f1a2926","ios":"levelo://app?vid=cdcb4623-6523-4b9f-88f1-7bd66f1a2926"},"vehicle_type_id":"4","last_reported":1718475015,"current_range_meters":6400,"station_id":"ce4bhqp2rcd13ifvqhog","pricing_plan_id":"cebpf4jnsgd1na2vs0mg"},{"bike_id":"3b29fd31-1a15-408a-9859-999a92754cdf","system_id":"levelo_inurba_marseille","lat":43.32366,"lon":5.38888,"is_reserved":false,"is_disabled":false,"rental_uris":{"android":"levelo://app?vid=3b29fd31-1a15-408a-9859-999a92754cdf","ios":"levelo://app?vid=3b29fd31-1a15-408a-9859-999a92754cdf"},"vehicle_type_id":"4","last_reported":1718475015,"current_range_meters":5600,"station_id":"ce4bhqp2rcd13ifvqhog","pricing_plan_id":"cebpf4jnsgd1na2vs0mg"},{"bike_id":"7561201b-0e8e-45e5-8890-9800c6bdc8e0","system_id":"levelo_inurba_marseille","lat":43.32367,"lon":5.388836,"is_reserved":false,"is_disabled":false,"rental_uris":{"android":"levelo://app?vid=7561201b-0e8e-45e5-8890-9800c6bdc8e0","ios":"levelo://app?vid=7561201b-0e8e-45e5-8890-9800c6bdc8e0"},"vehicle_type_id":"4","last_reported":1718475015,"current_range_meters":10800,"station_id":"ce4bhqp2rcd13ifvqhog","pricing_plan_id":"cebpf4jnsgd1na2vs0mg"},{"bike_id":"1763e0e6-00a0-4a0e-9526-2cdbf2b3c90f","system_id":"levelo_inurba_marseille","lat":43.29602,"lon":5.381084,"is_reserved":false,"is_disabled":false,"rental_uris":{"android":"levelo://app?vid=1763e0e6-00a0-4a0e-9526-2cdbf2b3c90f","ios":"levelo://app?vid=1763e0e6-00a0-4a0e-9526-2cdbf2b3c90f"},"vehicle_type_id":"4","last_reported":1718475015,"current_range_meters":17200,"station_id":"ce4bgl12rcd13ifvqbo0","pricing_plan_id":"cebpf4jnsgd1na2vs0mg"},{"bike_id":"33d4f18e-4fe7-4602-ad97-d7aca2f2bb49","system_id":"levelo_inurba_marseille","lat":43.292749,"lon":5.368402,"is_reserved":false,"is_disabled":false,"rental_uris":{"android":"levelo://app?vid=33d4f18e-4fe7-4602-ad97-d7aca2f2bb49","ios":"levelo://app?vid=33d4f18e-4fe7-4602-ad97-d7aca2f2bb49"},"vehicle_type_id":"4","last_reported":1718475015,"current_range_meters":25600,"station_id":"ce4bhbp2rcd13ifvqesg","pricing_plan_id":"cebpf4jnsgd1na2vs0mg"},{"bike_id":"3e6e0026-2fa6-464e-b53f-b502c207849e","system_id":"levelo_inurba_marseille","lat":43.292749,"lon":5.368398,"is_reserved":false,"is_disabled":false,"rental_uris":{"android":"levelo://app?vid=3e6e0026-2fa6-464e-b53f-b502c207849e","ios":"levelo://app?vid=3e6e0026-2fa6-464e-b53f-b502c207849e"},"vehicle_type_id":"4","last_reported":1718475015,"current_range_meters":14000,"station_id":"ce4bhbp2rcd13ifvqesg","pricing_plan_id":"cebpf4jnsgd1na2vs0mg"},{"bike_id":"d352be92-dec7-4d9c-bde3-d763523402e8","system_id":"levelo_inurba_marseille","lat":43.292749,"lon":5.368398,"is_reserved":false,"is_disabled":false,"rental_uris":{"android":"levelo://app?vid=d352be92-dec7-4d9c-bde3-d763523402e8","ios":"levelo://app?vid=d352be92-dec7-4d9c-bde3-d763523402e8"},"vehicle_type_id":"4","last_reported":1718475015,"current_range_meters":2400,"station_id":"ce4bhbp2rcd13ifvqesg","pricing_plan_id":"cebpf4jnsgd1na2vs0mg"},{"bike_id":"64ac55ed-5d9a-4c22-b573-6eaf18e0479c","system_id":"levelo_inurba_marseille","lat":43.29275,"lon":5.36848,"is_reserved":false,"is_disabled":false,"rental_uris":{"android":"levelo://app?vid=64ac55ed-5d9a-4c22-b573-6eaf18e0479c","ios":"levelo://app?vid=64ac55ed-5d9a-4c22-b573-6eaf18e0479c"},"vehicle_type_id":"4","last_reported":1718475015,"current_range_meters":8000,"station_id":"ce4bhbp2rcd13ifvqesg","pricing_plan_id":"cebpf4jnsgd1na2vs0mg"},{"bike_id":"b95dcf7d-904b-484d-8391-2e747e4aedfd","system_id":"levelo_inurba_marseille","lat":43.292749,"lon":5.368402,"is_reserved":false,"is_disabled":false,"rental_uris":{"android":"levelo://app?vid=b95dcf7d-904b-484d-8391-2e747e4aedfd","ios":"levelo://app?vid=b95dcf7d-904b-484d-8391-2e747e4aedfd"},"vehicle_type_id":"4","last_reported":1718475015,"current_range_meters":0,"station_id":"ce4bhbp2rcd13ifvqesg","pricing_plan_id":"cebpf4jnsgd1na2vs0mg"},{"bike_id":"dac3685a-4443-4514-8455-8ababd8823de","system_id":"levelo_inurba_marseille","lat":43.292749,"lon":5.368398,"is_reserved":false,"is_disabled":false,"rental_uris":{"android":"levelo://app?vid=dac3685a-4443-4514-8455-8ababd8823de","ios":"levelo://app?vid=dac3685a-4443-4514-8455-8ababd8823de"},"vehicle_type_id":"4","last_reported":1718475015,"current_range_meters":8400,"station_id":"ce4bhbp2rcd13ifvqesg","pricing_plan_id":"cebpf4jnsgd1na2vs0mg"},{"bike_id":"28c46e14-ba21-44be-9e06-f485713e93e6","system_id":"levelo_inurba_marseille","lat":43.292749,"lon":5.368398,"is_reserved":false,"is_disabled":false,"rental_uris":{"android":"levelo://app?vid=28c46e14-ba21-44be-9e06-f485713e93e6","ios":"levelo://app?vid=28c46e14-ba21-44be-9e06-f485713e93e6"},"vehicle_type_id":"4","last_reported":1718475015,"current_range_meters":2800,"station_id":"ce4bhbp2rcd13ifvqesg","pricing_plan_id":"cebpf4jnsgd1na2vs0mg"},{"bike_id":"d1a1c510-9f82-4bb1-9f06-4cbf2a0380c6","system_id":"levelo_inurba_marseille","lat":43.29303,"lon":5.37449,"is_reserved":false,"is_disabled":false,"rental_uris":{"android":"levelo://app?vid=d1a1c510-9f82-4bb1-9f06-4cbf2a0380c6","ios":"levelo://app?vid=d1a1c510-9f82-4bb1-9f06-4cbf2a0380c6"},"vehicle_type_id":"4","last_reported":1718475015,"current_range_meters":31200,"station_id":"ce4bgi12rcd13ifvqb70","pricing_plan_id":"cebpf4jnsgd1na2vs0mg"},{"bike_id":"44f03b0b-9ac0-402f-9995-d2975ae5c5b2","system_id":"levelo_inurba_marseille","lat":43.311223,"lon":5.39498,"is_reserved":false,"is_disabled":false,"rental_uris":{"android":"levelo://app?vid=44f03b0b-9ac0-402f-9995-d2975ae5c5b2","ios":"levelo://app?vid=44f03b0b-9ac0-402f-9995-d2975ae5c5b2"},"vehicle_type_id":"4","last_reported":1718475015,"current_range_meters":18800,"station_id":"","pricing_plan_id":"cebpf4jnsgd1na2vs0mg"},{"bike_id":"f4d81316-7bff-4cde-b71a-ab1d38ad8cf8","system_id":"levelo_inurba_marseille","lat":43.29302,"lon":5.37448,"is_reserved":false,"is_disabled":false,"rental_uris":{"android":"levelo://app?vid=f4d81316-7bff-4cde-b71a-ab1d38ad8cf8","ios":"levelo://app?vid=f4d81316-7bff-4cde-b71a-ab1d38ad8cf8"},"vehicle_type_id":"4","last_reported":1718475015,"current_range_meters":31200,"station_id":"ce4bgi12rcd13ifvqb70","pricing_plan_id":"cebpf4jnsgd1na2vs0mg"},{"bike_id":"53e6dfb3-4e96-4eef-835a-ec4c49e0a37c","system_id":"levelo_inurba_marseille","lat":43.305994,"lon":5.393687,"is_reserved":false,"is_disabled":false,"rental_uris":{"android":"levelo://app?vid=53e6dfb3-4e96-4eef-835a-ec4c49e0a37c","ios":"levelo://app?vid=53e6dfb3-4e96-4eef-835a-ec4c49e0a37c"},"vehicle_type_id":"4","last_reported":1718475015,"current_range_meters":0,"station_id":"ce4bh0p2rcd13ifvqd80","pricing_plan_id":"cebpf4jnsgd1na2vs0mg"},{"bike_id":"4bf901f8-7a36-4be3-a838-21245516bd5c","system_id":"levelo_inurba_marseille","lat":43.303067,"lon":5.392075,"is_reserved":false,"is_disabled":false,"rental_uris":{"android":"levelo://app?vid=4bf901f8-7a36-4be3-a838-21245516bd5c","ios":"levelo://app?vid=4bf901f8-7a36-4be3-a838-21245516bd5c"},"vehicle_type_id":"4","last_reported":1718475015,"current_range_meters":23200,"station_id":"","pricing_plan_id":"cebpf4jnsgd1na2vs0mg"},{"bike_id":"b5630923-47b1-4721-bd15-b7085aae6c3e","system_id":"levelo_inurba_marseille","lat":43.30304,"lon":5.39211,"is_reserved":false,"is_disabled":false,"rental_uris":{"android":"levelo://app?vid=b5630923-47b1-4721-bd15-b7085aae6c3e","ios":"levelo://app?vid=b5630923-47b1-4721-bd15-b7085aae6c3e"},"vehicle_type_id":"4","last_reported":1718475015,"current_range_meters":28000,"station_id":"ce4bgkh2rcd13ifvqbk0","pricing_plan_id":"cebpf4jnsgd1na2vs0mg"},{"bike_id":"24a3b046-6201-4ac7-905b-5c420402dac2","system_id":"levelo_inurba_marseille","lat":43.29365,"lon":5.37862,"is_reserved":false,"is_disabled":false,"rental_uris":{"android":"levelo://app?vid=24a3b046-6201-4ac7-905b-5c420402dac2","ios":"levelo://app?vid=24a3b046-6201-4ac7-905b-5c420402dac2"},"vehicle_type_id":"4","last_reported":1718475015,"current_range_meters":4000,"station_id":"","pricing_plan_id":"cebpf4jnsgd1na2vs0mg"},{"bike_id":"0beaa767-fe9f-4cf5-bf34-8044dc7d82a8","system_id":"levelo_inurba_marseille","lat":43.292311,"lon":5.360731,"is_reserved":false,"is_disabled":false,"rental_uris":{"android":"levelo://app?vid=0beaa767-fe9f-4cf5-bf34-8044dc7d82a8","ios":"levelo://app?vid=0beaa767-fe9f-4cf5-bf34-8044dc7d82a8"},"vehicle_type_id":"4","last_reported":1718475015,"current_range_meters":28400,"station_id":"ce4bhbh2rcd13ifvqeqg","pricing_plan_id":"cebpf4jnsgd1na2vs0mg"},{"bike_id":"8a237b79-1025-4d97-97c4-1185a927b3ee","system_id":"levelo_inurba_marseille","lat":43.292311,"lon":5.360731,"is_reserved":false,"is_disabled":false,"rental_uris":{"android":"levelo://app?vid=8a237b79-1025-4d97-97c4-1185a927b3ee","ios":"levelo://app?vid=8a237b79-1025-4d97-97c4-1185a927b3ee"},"vehicle_type_id":"4","last_reported":1718475015,"current_range_meters":0,"station_id":"ce4bhbh2rcd13ifvqeqg","pricing_plan_id":"cebpf4jnsgd1na2vs0mg"},{"bike_id":"41e7b18c-ecca-42df-a424-ccba37d6099d","system_id":"levelo_inurba_marseille","lat":43.313291,"lon":5.396838,"is_reserved":false,"is_disabled":false,"rental_uris":{"android":"levelo://app?vid=41e7b18c-ecca-42df-a424-ccba37d6099d","ios":"levelo://app?vid=41e7b18c-ecca-42df-a424-ccba37d6099d"},"vehicle_type_id":"4","last_reported":1718475015,"current_range_meters":5200,"station_id":"ce4bgvp2rcd13ifvqcu0","pricing_plan_id":"cebpf4jnsgd1na2vs0mg"},{"bike_id":"2d18374f-5e5b-41b5-b47c-3c073d070b31","system_id":"levelo_inurba_marseille","lat":43.291967,"lon":5.35799,"is_reserved":false,"is_disabled":false,"rental_uris":{"android":"levelo://app?vid=2d18374f-5e5b-41b5-b47c-3c073d070b31","ios":"levelo://app?vid=2d18374f-5e5b-41b5-b47c-3c073d070b31"},"vehicle_type_id":"4","last_reported":1718475015,"current_range_meters":0,"station_id":"ce4bhb12rcd13ifvqel0","pricing_plan_id":"cebpf4jnsgd1na2vs0mg"},{"bike_id":"cb91ae50-41cb-42d6-a176-421647b5297d","system_id":"levelo_inurba_marseille","lat":43.292005,"lon":5.357875,"is_reserved":false,"is_disabled":false,"rental_uris":{"android":"levelo://app?vid=cb91ae50-41cb-42d6-a176-421647b5297d","ios":"levelo://app?vid=cb91ae50-41cb-42d6-a176-421647b5297d"},"vehicle_type_id":"4","last_reported":1718475015,"current_range_meters":9600,"station_id":"ce4bhb12rcd13ifvqel0","pricing_plan_id":"cebpf4jnsgd1na2vs0mg"},{"bike_id":"df147614-3463-4ca6-9880-92ff86e2f603","system_id":"levelo_inurba_marseille","lat":43.29192,"lon":5.35794,"is_reserved":false,"is_disabled":false,"rental_uris":{"android":"levelo://app?vid=df147614-3463-4ca6-9880-92ff86e2f603","ios":"levelo://app?vid=df147614-3463-4ca6-9880-92ff86e2f603"},"vehicle_type_id":"4","last_reported":1718475015,"current_range_meters":6000,"station_id":"ce4bhb12rcd13ifvqel0","pricing_plan_id":"cebpf4jnsgd1na2vs0mg"},{"bike_id":"a32628e4-a143-4b87-a622-8bd88eb7dab9","system_id":"levelo_inurba_marseille","lat":43.313291,"lon":5.396838,"is_reserved":false,"is_disabled":false,"rental_uris":{"android":"levelo://app?vid=a32628e4-a143-4b87-a622-8bd88eb7dab9","ios":"levelo://app?vid=a32628e4-a143-4b87-a622-8bd88eb7dab9"},"vehicle_type_id":"4","last_reported":1718475015,"current_range_meters":17600,"station_id":"ce4bgvp2rcd13ifvqcu0","pricing_plan_id":"cebpf4jnsgd1na2vs0mg"},{"bike_id":"3ca9132d-eba6-403e-a724-3ef0cdc8a13c","system_id":"levelo_inurba_marseille","lat":43.313291,"lon":5.396838,"is_reserved":false,"is_disabled":false,"rental_uris":{"android":"levelo://app?vid=3ca9132d-eba6-403e-a724-3ef0cdc8a13c","ios":"levelo://app?vid=3ca9132d-eba6-403e-a724-3ef0cdc8a13c"},"vehicle_type_id":"4","last_reported":1718475015,"current_range_meters":22800,"station_id":"ce4bgvp2rcd13ifvqcu0","pricing_plan_id":"cebpf4jnsgd1na2vs0mg"},{"bike_id":"445f9d16-fb8c-401e-8a48-c9f7a0170ad5","system_id":"levelo_inurba_marseille","lat":43.29529,"lon":5.385581,"is_reserved":false,"is_disabled":false,"rental_uris":{"android":"levelo://app?vid=445f9d16-fb8c-401e-8a48-c9f7a0170ad5","ios":"levelo://app?vid=445f9d16-fb8c-401e-8a48-c9f7a0170ad5"},"vehicle_type_id":"4","last_reported":1718475015,"current_range_meters":6800,"station_id":"ce4bgih2rcd13ifvqba0","pricing_plan_id":"cebpf4jnsgd1na2vs0mg"},{"bike_id":"5f8e1ab5-b771-4298-8f33-0e87985b8a88","system_id":"levelo_inurba_marseille","lat":43.29529,"lon":5.385581,"is_reserved":false,"is_disabled":false,"rental_uris":{"android":"levelo://app?vid=5f8e1ab5-b771-4298-8f33-0e87985b8a88","ios":"levelo://app?vid=5f8e1ab5-b771-4298-8f33-0e87985b8a88"},"vehicle_type_id":"4","last_reported":1718475015,"current_range_meters":23600,"station_id":"ce4bgih2rcd13ifvqba0","pricing_plan_id":"cebpf4jnsgd1na2vs0mg"},{"bike_id":"5eb883c1-e01a-4bc7-a457-ca9c3219ead8","system_id":"levelo_inurba_marseille","lat":43.294153,"lon":5.386305,"is_reserved":false,"is_disabled":false,"rental_uris":{"android":"levelo://app?vid=5eb883c1-e01a-4bc7-a457-ca9c3219ead8","ios":"levelo://app?vid=5eb883c1-e01a-4bc7-a457-ca9c3219ead8"},"vehicle_type_id":"4","last_reported":1718475015,"current_range_meters":0,"station_id":"ce4bh2h2rcd13ifvqdh0","pricing_plan_id":"cebpf4jnsgd1na2vs0mg"},{"bike_id":"8bed2af9-8b86-418a-838d-0a11c607934a","system_id":"levelo_inurba_marseille","lat":43.294162,"lon":5.386292,"is_reserved":false,"is_disabled":false,"rental_uris":{"android":"levelo://app?vid=8bed2af9-8b86-418a-838d-0a11c607934a","ios":"levelo://app?vid=8bed2af9-8b86-418a-838d-0a11c607934a"},"vehicle_type_id":"4","last_reported":1718475015,"current_range_meters":2000,"station_id":"ce4bh2h2rcd13ifvqdh0","pricing_plan_id":"cebpf4jnsgd1na2vs0mg"},{"bike_id":"6ed3ee39-24f4-48e1-8d72-b37a2461763f","system_id":"levelo_inurba_marseille","lat":43.294162,"lon":5.386292,"is_reserved":false,"is_disabled":false,"rental_uris":{"android":"levelo://app?vid=6ed3ee39-24f4-48e1-8d72-b37a2461763f","ios":"levelo://app?vid=6ed3ee39-24f4-48e1-8d72-b37a2461763f"},"vehicle_type_id":"4","last_reported":1718475015,"current_range_meters":0,"station_id":"ce4bh2h2rcd13ifvqdh0","pricing_plan_id":"cebpf4jnsgd1na2vs0mg"},{"bike_id":"e96c1b31-a498-4764-882c-c667096f76c2","system_id":"levelo_inurba_marseille","lat":43.292642,"lon":5.384254,"is_reserved":false,"is_disabled":false,"rental_uris":{"android":"levelo://app?vid=e96c1b31-a498-4764-882c-c667096f76c2","ios":"levelo://app?vid=e96c1b31-a498-4764-882c-c667096f76c2"},"vehicle_type_id":"4","last_reported":1718475015,"current_range_meters":16800,"station_id":"ce4bh692rcd13ifvqea0","pricing_plan_id":"cebpf4jnsgd1na2vs0mg"},{"bike_id":"b6fd2666-af68-4aeb-b5e5-382394f38fc2","system_id":"levelo_inurba_marseille","lat":43.289468,"lon":5.363719,"is_reserved":false,"is_disabled":false,"rental_uris":{"android":"levelo://app?vid=b6fd2666-af68-4aeb-b5e5-382394f38fc2","ios":"levelo://app?vid=b6fd2666-af68-4aeb-b5e5-382394f38fc2"},"vehicle_type_id":"4","last_reported":1718475015,"current_range_meters":0,"station_id":"ce4bhc92rcd13ifvqetg","pricing_plan_id":"cebpf4jnsgd1na2vs0mg"},{"bike_id":"b982a918-e7dd-4910-94d9-29a3592d533e","system_id":"levelo_inurba_marseille","lat":43.304274,"lon":5.397513,"is_reserved":false,"is_disabled":false,"rental_uris":{"android":"levelo://app?vid=b982a918-e7dd-4910-94d9-29a3592d533e","ios":"levelo://app?vid=b982a918-e7dd-4910-94d9-29a3592d533e"},"vehicle_type_id":"4","last_reported":1718475015,"current_range_meters":0,"station_id":"ce4bh092rcd13ifvqd20","pricing_plan_id":"cebpf4jnsgd1na2vs0mg"},{"bike_id":"5a5b4d8c-23af-4c99-adfa-fdc48f619ebc","system_id":"levelo_inurba_marseille","lat":43.292642,"lon":5.384254,"is_reserved":false,"is_disabled":false,"rental_uris":{"android":"levelo://app?vid=5a5b4d8c-23af-4c99-adfa-fdc48f619ebc","ios":"levelo://app?vid=5a5b4d8c-23af-4c99-adfa-fdc48f619ebc"},"vehicle_type_id":"4","last_reported":1718475015,"current_range_meters":400,"station_id":"ce4bh692rcd13ifvqea0","pricing_plan_id":"cebpf4jnsgd1na2vs0mg"},{"bike_id":"77598045-6686-48dd-98ca-f7fd2f74fb52","system_id":"levelo_inurba_marseille","lat":43.29265,"lon":5.38444,"is_reserved":false,"is_disabled":false,"rental_uris":{"android":"levelo://app?vid=77598045-6686-48dd-98ca-f7fd2f74fb52","ios":"levelo://app?vid=77598045-6686-48dd-98ca-f7fd2f74fb52"},"vehicle_type_id":"4","last_reported":1718475015,"current_range_meters":0,"station_id":"ce4bh692rcd13ifvqea0","pricing_plan_id":"cebpf4jnsgd1na2vs0mg"},{"bike_id":"434ea09a-f771-4c34-b68c-4aa7ce0d46f0","system_id":"levelo_inurba_marseille","lat":43.292642,"lon":5.384254,"is_reserved":false,"is_disabled":false,"rental_uris":{"android":"levelo://app?vid=434ea09a-f771-4c34-b68c-4aa7ce0d46f0","ios":"levelo://app?vid=434ea09a-f771-4c34-b68c-4aa7ce0d46f0"},"vehicle_type_id":"4","last_reported":1718475015,"current_range_meters":0,"station_id":"ce4bh692rcd13ifvqea0","pricing_plan_id":"cebpf4jnsgd1na2vs0mg"},{"bike_id":"77582499-d57c-4a74-ba55-d25770ff0835","system_id":"levelo_inurba_marseille","lat":43.290067,"lon":5.356173,"is_reserved":false,"is_disabled":false,"rental_uris":{"android":"levelo://app?vid=77582499-d57c-4a74-ba55-d25770ff0835","ios":"levelo://app?vid=77582499-d57c-4a74-ba55-d25770ff0835"},"vehicle_type_id":"4","last_reported":1718475015,"current_range_meters":0,"station_id":"ce4bhb92rcd13ifvqen0","pricing_plan_id":"cebpf4jnsgd1na2vs0mg"},{"bike_id":"b1bc6ea2-0850-444d-81fd-d46f007728b2","system_id":"levelo_inurba_marseille","lat":43.290103,"lon":5.356114,"is_reserved":false,"is_disabled":false,"rental_uris":{"android":"levelo://app?vid=b1bc6ea2-0850-444d-81fd-d46f007728b2","ios":"levelo://app?vid=b1bc6ea2-0850-444d-81fd-d46f007728b2"},"vehicle_type_id":"4","last_reported":1718475015,"current_range_meters":3200,"station_id":"ce4bhb92rcd13ifvqen0","pricing_plan_id":"cebpf4jnsgd1na2vs0mg"},{"bike_id":"6fa9c676-ede4-4ba8-a035-0d89f6f55e13","system_id":"levelo_inurba_marseille","lat":43.290103,"lon":5.356114,"is_reserved":false,"is_disabled":false,"rental_uris":{"android":"levelo://app?vid=6fa9c676-ede4-4ba8-a035-0d89f6f55e13","ios":"levelo://app?vid=6fa9c676-ede4-4ba8-a035-0d89f6f55e13"},"vehicle_type_id":"4","last_reported":1718475015,"current_range_meters":0,"station_id":"ce4bhb92rcd13ifvqen0","pricing_plan_id":"cebpf4jnsgd1na2vs0mg"},{"bike_id":"1a7783db-b282-45b8-97eb-16fd4caf0f61","system_id":"levelo_inurba_marseille","lat":43.29005,"lon":5.35613,"is_reserved":false,"is_disabled":false,"rental_uris":{"android":"levelo://app?vid=1a7783db-b282-45b8-97eb-16fd4caf0f61","ios":"levelo://app?vid=1a7783db-b282-45b8-97eb-16fd4caf0f61"},"vehicle_type_id":"4","last_reported":1718475015,"current_range_meters":0,"station_id":"ce4bhb92rcd13ifvqen0","pricing_plan_id":"cebpf4jnsgd1na2vs0mg"},{"bike_id":"126ae501-adcf-42e6-bc83-d48f991ef66a","system_id":"levelo_inurba_marseille","lat":43.290104,"lon":5.356111,"is_reserved":false,"is_disabled":false,"rental_uris":{"android":"levelo://app?vid=126ae501-adcf-42e6-bc83-d48f991ef66a","ios":"levelo://app?vid=126ae501-adcf-42e6-bc83-d48f991ef66a"},"vehicle_type_id":"4","last_reported":1718475015,"current_range_meters":2800,"station_id":"ce4bhb92rcd13ifvqen0","pricing_plan_id":"cebpf4jnsgd1na2vs0mg"},{"bike_id":"3c33e1db-5424-47b0-be26-af00801b835c","system_id":"levelo_inurba_marseille","lat":43.290104,"lon":5.356111,"is_reserved":false,"is_disabled":false,"rental_uris":{"android":"levelo://app?vid=3c33e1db-5424-47b0-be26-af00801b835c","ios":"levelo://app?vid=3c33e1db-5424-47b0-be26-af00801b835c"},"vehicle_type_id":"4","last_reported":1718475015,"current_range_meters":16400,"station_id":"ce4bhb92rcd13ifvqen0","pricing_plan_id":"cebpf4jnsgd1na2vs0mg"},{"bike_id":"d963860a-f925-474e-b596-bdb9eadb2230","system_id":"levelo_inurba_marseille","lat":43.29002,"lon":5.35618,"is_reserved":false,"is_disabled":false,"rental_uris":{"android":"levelo://app?vid=d963860a-f925-474e-b596-bdb9eadb2230","ios":"levelo://app?vid=d963860a-f925-474e-b596-bdb9eadb2230"},"vehicle_type_id":"4","last_reported":1718475015,"current_range_meters":0,"station_id":"ce4bhb92rcd13ifvqen0","pricing_plan_id":"cebpf4jnsgd1na2vs0mg"},{"bike_id":"567b718d-6260-4fc0-bc7a-763b35eb7bc0","system_id":"levelo_inurba_marseille","lat":43.290103,"lon":5.356114,"is_reserved":false,"is_disabled":false,"rental_uris":{"android":"levelo://app?vid=567b718d-6260-4fc0-bc7a-763b35eb7bc0","ios":"levelo://app?vid=567b718d-6260-4fc0-bc7a-763b35eb7bc0"},"vehicle_type_id":"4","last_reported":1718475015,"current_range_meters":0,"station_id":"ce4bhb92rcd13ifvqen0","pricing_plan_id":"cebpf4jnsgd1na2vs0mg"},{"bike_id":"f1adc012-2f2f-4643-adcc-4453c8523e03","system_id":"levelo_inurba_marseille","lat":43.295169,"lon":5.390426,"is_reserved":false,"is_disabled":false,"rental_uris":{"android":"levelo://app?vid=f1adc012-2f2f-4643-adcc-4453c8523e03","ios":"levelo://app?vid=f1adc012-2f2f-4643-adcc-4453c8523e03"},"vehicle_type_id":"4","last_reported":1718475015,"current_range_meters":19200,"station_id":"ce4bh3p2rcd13ifvqdp0","pricing_plan_id":"cebpf4jnsgd1na2vs0mg"},{"bike_id":"482da28b-3998-4642-8c8f-b2658b9109ea","system_id":"levelo_inurba_marseille","lat":43.330442,"lon":5.389148,"is_reserved":false,"is_disabled":false,"rental_uris":{"android":"levelo://app?vid=482da28b-3998-4642-8c8f-b2658b9109ea","ios":"levelo://app?vid=482da28b-3998-4642-8c8f-b2658b9109ea"},"vehicle_type_id":"4","last_reported":1718475015,"current_range_meters":3600,"station_id":"ce4bhr92rcd13ifvqhrg","pricing_plan_id":"cebpf4jnsgd1na2vs0mg"},{"bike_id":"4ed9bff0-ebea-4c7e-97b8-1e4dda1ab8e6","system_id":"levelo_inurba_marseille","lat":43.295169,"lon":5.390426,"is_reserved":false,"is_disabled":false,"rental_uris":{"android":"levelo://app?vid=4ed9bff0-ebea-4c7e-97b8-1e4dda1ab8e6","ios":"levelo://app?vid=4ed9bff0-ebea-4c7e-97b8-1e4dda1ab8e6"},"vehicle_type_id":"4","last_reported":1718475015,"current_range_meters":0,"station_id":"ce4bh3p2rcd13ifvqdp0","pricing_plan_id":"cebpf4jnsgd1na2vs0mg"},{"bike_id":"289f2477-a8e3-4b67-a482-f7d99f9422c9","system_id":"levelo_inurba_marseille","lat":43.330442,"lon":5.389148,"is_reserved":false,"is_disabled":false,"rental_uris":{"android":"levelo://app?vid=289f2477-a8e3-4b67-a482-f7d99f9422c9","ios":"levelo://app?vid=289f2477-a8e3-4b67-a482-f7d99f9422c9"},"vehicle_type_id":"4","last_reported":1718475015,"current_range_meters":1600,"station_id":"ce4bhr92rcd13ifvqhrg","pricing_plan_id":"cebpf4jnsgd1na2vs0mg"},{"bike_id":"0ed7f7c0-a081-4fa8-a389-de914b7cada3","system_id":"levelo_inurba_marseille","lat":43.28856,"lon":5.358371,"is_reserved":false,"is_disabled":false,"rental_uris":{"android":"levelo://app?vid=0ed7f7c0-a081-4fa8-a389-de914b7cada3","ios":"levelo://app?vid=0ed7f7c0-a081-4fa8-a389-de914b7cada3"},"vehicle_type_id":"4","last_reported":1718475015,"current_range_meters":18400,"station_id":"ce4bhb12rcd13ifvqem0","pricing_plan_id":"cebpf4jnsgd1na2vs0mg"},{"bike_id":"f3c44872-1e78-4416-b6b2-ac9a272a73a1","system_id":"levelo_inurba_marseille","lat":43.312609,"lon":5.401662,"is_reserved":false,"is_disabled":false,"rental_uris":{"android":"levelo://app?vid=f3c44872-1e78-4416-b6b2-ac9a272a73a1","ios":"levelo://app?vid=f3c44872-1e78-4416-b6b2-ac9a272a73a1"},"vehicle_type_id":"4","last_reported":1718475015,"current_range_meters":26400,"station_id":"ce4bh092rcd13ifvqd30","pricing_plan_id":"cebpf4jnsgd1na2vs0mg"},{"bike_id":"6217e3ab-a758-4434-9f32-3f6df2c1eeba","system_id":"levelo_inurba_marseille","lat":43.312609,"lon":5.401662,"is_reserved":false,"is_disabled":false,"rental_uris":{"android":"levelo://app?vid=6217e3ab-a758-4434-9f32-3f6df2c1eeba","ios":"levelo://app?vid=6217e3ab-a758-4434-9f32-3f6df2c1eeba"},"vehicle_type_id":"4","last_reported":1718475015,"current_range_meters":28000,"station_id":"ce4bh092rcd13ifvqd30","pricing_plan_id":"cebpf4jnsgd1na2vs0mg"},{"bike_id":"96b94a75-6725-4b66-9bd8-e65f2baf16ba","system_id":"levelo_inurba_marseille","lat":43.309371,"lon":5.401449,"is_reserved":false,"is_disabled":false,"rental_uris":{"android":"levelo://app?vid=96b94a75-6725-4b66-9bd8-e65f2baf16ba","ios":"levelo://app?vid=96b94a75-6725-4b66-9bd8-e65f2baf16ba"},"vehicle_type_id":"4","last_reported":1718475015,"current_range_meters":1600,"station_id":"ce4bgvp2rcd13ifvqct0","pricing_plan_id":"cebpf4jnsgd1na2vs0mg"},{"bike_id":"9e5cea80-56b8-4fae-a0d4-4c1f7106ee5e","system_id":"levelo_inurba_marseille","lat":43.312609,"lon":5.401662,"is_reserved":false,"is_disabled":false,"rental_uris":{"android":"levelo://app?vid=9e5cea80-56b8-4fae-a0d4-4c1f7106ee5e","ios":"levelo://app?vid=9e5cea80-56b8-4fae-a0d4-4c1f7106ee5e"},"vehicle_type_id":"4","last_reported":1718475015,"current_range_meters":5200,"station_id":"ce4bh092rcd13ifvqd30","pricing_plan_id":"cebpf4jnsgd1na2vs0mg"},{"bike_id":"330f51ef-2846-4857-ad6b-1d284020ff92","system_id":"levelo_inurba_marseille","lat":43.3094,"lon":5.40147,"is_reserved":false,"is_disabled":false,"rental_uris":{"android":"levelo://app?vid=330f51ef-2846-4857-ad6b-1d284020ff92","ios":"levelo://app?vid=330f51ef-2846-4857-ad6b-1d284020ff92"},"vehicle_type_id":"4","last_reported":1718475015,"current_range_meters":9200,"station_id":"ce4bgvp2rcd13ifvqct0","pricing_plan_id":"cebpf4jnsgd1na2vs0mg"},{"bike_id":"e1512863-0927-4702-b249-40d36e19f2c0","system_id":"levelo_inurba_marseille","lat":43.33755,"lon":5.374847,"is_reserved":false,"is_disabled":false,"rental_uris":{"android":"levelo://app?vid=e1512863-0927-4702-b249-40d36e19f2c0","ios":"levelo://app?vid=e1512863-0927-4702-b249-40d36e19f2c0"},"vehicle_type_id":"4","last_reported":1718475015,"current_range_meters":22000,"station_id":"","pricing_plan_id":"cebpf4jnsgd1na2vs0mg"},{"bike_id":"586b97bc-6a88-48f3-bfee-564598a90b64","system_id":"levelo_inurba_marseille","lat":43.306412,"lon":5.401035,"is_reserved":false,"is_disabled":false,"rental_uris":{"android":"levelo://app?vid=586b97bc-6a88-48f3-bfee-564598a90b64","ios":"levelo://app?vid=586b97bc-6a88-48f3-bfee-564598a90b64"},"vehicle_type_id":"4","last_reported":1718475015,"current_range_meters":6400,"station_id":"ce4bh112rcd13ifvqda0","pricing_plan_id":"cebpf4jnsgd1na2vs0mg"},{"bike_id":"05bb90e8-d6e6-47f8-ba5b-a5006b546235","system_id":"levelo_inurba_marseille","lat":43.30137,"lon":5.39856,"is_reserved":false,"is_disabled":false,"rental_uris":{"android":"levelo://app?vid=05bb90e8-d6e6-47f8-ba5b-a5006b546235","ios":"levelo://app?vid=05bb90e8-d6e6-47f8-ba5b-a5006b546235"},"vehicle_type_id":"4","last_reported":1718475015,"current_range_meters":0,"station_id":"ce4bh0h2rcd13ifvqd40","pricing_plan_id":"cebpf4jnsgd1na2vs0mg"},{"bike_id":"081ac582-e2fb-49ce-9fdc-e15377b5f2b1","system_id":"levelo_inurba_marseille","lat":43.3014,"lon":5.3987,"is_reserved":false,"is_disabled":false,"rental_uris":{"android":"levelo://app?vid=081ac582-e2fb-49ce-9fdc-e15377b5f2b1","ios":"levelo://app?vid=081ac582-e2fb-49ce-9fdc-e15377b5f2b1"},"vehicle_type_id":"4","last_reported":1718475015,"current_range_meters":26000,"station_id":"ce4bh0h2rcd13ifvqd40","pricing_plan_id":"cebpf4jnsgd1na2vs0mg"},{"bike_id":"41ed46d0-71c9-477c-8f4a-906bbe389ff3","system_id":"levelo_inurba_marseille","lat":43.301117,"lon":5.398795,"is_reserved":false,"is_disabled":false,"rental_uris":{"android":"levelo://app?vid=41ed46d0-71c9-477c-8f4a-906bbe389ff3","ios":"levelo://app?vid=41ed46d0-71c9-477c-8f4a-906bbe389ff3"},"vehicle_type_id":"4","last_reported":1718475015,"current_range_meters":20400,"station_id":"ce4bh0h2rcd13ifvqd40","pricing_plan_id":"cebpf4jnsgd1na2vs0mg"},{"bike_id":"cc5f24c1-fa47-4a5f-b588-14709c8201e6","system_id":"levelo_inurba_marseille","lat":43.28727,"lon":5.36078,"is_reserved":false,"is_disabled":false,"rental_uris":{"android":"levelo://app?vid=cc5f24c1-fa47-4a5f-b588-14709c8201e6","ios":"levelo://app?vid=cc5f24c1-fa47-4a5f-b588-14709c8201e6"},"vehicle_type_id":"4","last_reported":1718475015,"current_range_meters":1200,"station_id":"cki0cbj6b192h4jlfktg","pricing_plan_id":"cebpf4jnsgd1na2vs0mg"},{"bike_id":"63d8ee41-d174-439b-a1d5-c47a31dc4fa0","system_id":"levelo_inurba_marseille","lat":43.28664,"lon":5.36355,"is_reserved":false,"is_disabled":false,"rental_uris":{"android":"levelo://app?vid=63d8ee41-d174-439b-a1d5-c47a31dc4fa0","ios":"levelo://app?vid=63d8ee41-d174-439b-a1d5-c47a31dc4fa0"},"vehicle_type_id":"4","last_reported":1718475015,"current_range_meters":20400,"station_id":"","pricing_plan_id":"cebpf4jnsgd1na2vs0mg"},{"bike_id":"b7e96685-500d-493c-a98b-77898f0cf509","system_id":"levelo_inurba_marseille","lat":43.298681,"lon":5.397225,"is_reserved":false,"is_disabled":false,"rental_uris":{"android":"levelo://app?vid=b7e96685-500d-493c-a98b-77898f0cf509","ios":"levelo://app?vid=b7e96685-500d-493c-a98b-77898f0cf509"},"vehicle_type_id":"4","last_reported":1718475015,"current_range_meters":29600,"station_id":"ce4bh0h2rcd13ifvqd50","pricing_plan_id":"cebpf4jnsgd1na2vs0mg"},{"bike_id":"4dc1a57e-b96b-4265-b7ef-84d705bb8cea","system_id":"levelo_inurba_marseille","lat":43.29866,"lon":5.39735,"is_reserved":false,"is_disabled":false,"rental_uris":{"android":"levelo://app?vid=4dc1a57e-b96b-4265-b7ef-84d705bb8cea","ios":"levelo://app?vid=4dc1a57e-b96b-4265-b7ef-84d705bb8cea"},"vehicle_type_id":"4","last_reported":1718475015,"current_range_meters":8800,"station_id":"ce4bh0h2rcd13ifvqd50","pricing_plan_id":"cebpf4jnsgd1na2vs0mg"},{"bike_id":"27df32d8-1529-45dd-b859-8f5f026d3d56","system_id":"levelo_inurba_marseille","lat":43.28695,"lon":5.373956,"is_reserved":false,"is_disabled":false,"rental_uris":{"android":"levelo://app?vid=27df32d8-1529-45dd-b859-8f5f026d3d56","ios":"levelo://app?vid=27df32d8-1529-45dd-b859-8f5f026d3d56"},"vehicle_type_id":"4","last_reported":1718475015,"current_range_meters":0,"station_id":"ce4bh3p2rcd13ifvqdq0","pricing_plan_id":"cebpf4jnsgd1na2vs0mg"},{"bike_id":"3fddc232-7952-47ea-b0f0-8f15ec15676f","system_id":"levelo_inurba_marseille","lat":43.295194,"lon":5.39397,"is_reserved":false,"is_disabled":false,"rental_uris":{"android":"levelo://app?vid=3fddc232-7952-47ea-b0f0-8f15ec15676f","ios":"levelo://app?vid=3fddc232-7952-47ea-b0f0-8f15ec15676f"},"vehicle_type_id":"4","last_reported":1718475015,"current_range_meters":14800,"station_id":"ce4bh292rcd13ifvqdf0","pricing_plan_id":"cebpf4jnsgd1na2vs0mg"},{"bike_id":"70f71cb6-5b9b-41f0-8506-bf0cc058f1d7","system_id":"levelo_inurba_marseille","lat":43.302759,"lon":5.400793,"is_reserved":false,"is_disabled":false,"rental_uris":{"android":"levelo://app?vid=70f71cb6-5b9b-41f0-8506-bf0cc058f1d7","ios":"levelo://app?vid=70f71cb6-5b9b-41f0-8506-bf0cc058f1d7"},"vehicle_type_id":"4","last_reported":1718475015,"current_range_meters":0,"station_id":"ce4bgvh2rcd13ifvqcs0","pricing_plan_id":"cebpf4jnsgd1na2vs0mg"},{"bike_id":"457d1735-c3bd-4b64-a03b-c793f8e37238","system_id":"levelo_inurba_marseille","lat":43.286039,"lon":5.370679,"is_reserved":false,"is_disabled":false,"rental_uris":{"android":"levelo://app?vid=457d1735-c3bd-4b64-a03b-c793f8e37238","ios":"levelo://app?vid=457d1735-c3bd-4b64-a03b-c793f8e37238"},"vehicle_type_id":"4","last_reported":1718475015,"current_range_meters":9600,"station_id":"ce4bht12rcd13ifvqi60","pricing_plan_id":"cebpf4jnsgd1na2vs0mg"},{"bike_id":"b1780746-909e-4211-861b-ea702631afc4","system_id":"levelo_inurba_marseille","lat":43.286039,"lon":5.370681,"is_reserved":false,"is_disabled":false,"rental_uris":{"android":"levelo://app?vid=b1780746-909e-4211-861b-ea702631afc4","ios":"levelo://app?vid=b1780746-909e-4211-861b-ea702631afc4"},"vehicle_type_id":"4","last_reported":1718475015,"current_range_meters":7600,"station_id":"ce4bht12rcd13ifvqi60","pricing_plan_id":"cebpf4jnsgd1na2vs0mg"},{"bike_id":"e419b45d-3c30-4650-a11d-e86b4f32dd0d","system_id":"levelo_inurba_marseille","lat":43.286039,"lon":5.370681,"is_reserved":false,"is_disabled":false,"rental_uris":{"android":"levelo://app?vid=e419b45d-3c30-4650-a11d-e86b4f32dd0d","ios":"levelo://app?vid=e419b45d-3c30-4650-a11d-e86b4f32dd0d"},"vehicle_type_id":"4","last_reported":1718475015,"current_range_meters":23200,"station_id":"ce4bht12rcd13ifvqi60","pricing_plan_id":"cebpf4jnsgd1na2vs0mg"},{"bike_id":"b488d6f5-c0bc-4c5f-bd7c-4f96f7614802","system_id":"levelo_inurba_marseille","lat":43.286039,"lon":5.370681,"is_reserved":false,"is_disabled":false,"rental_uris":{"android":"levelo://app?vid=b488d6f5-c0bc-4c5f-bd7c-4f96f7614802","ios":"levelo://app?vid=b488d6f5-c0bc-4c5f-bd7c-4f96f7614802"},"vehicle_type_id":"4","last_reported":1718475015,"current_range_meters":400,"station_id":"ce4bht12rcd13ifvqi60","pricing_plan_id":"cebpf4jnsgd1na2vs0mg"},{"bike_id":"2b03ea9c-c05b-4169-81c1-801395719749","system_id":"levelo_inurba_marseille","lat":43.286039,"lon":5.370679,"is_reserved":false,"is_disabled":false,"rental_uris":{"android":"levelo://app?vid=2b03ea9c-c05b-4169-81c1-801395719749","ios":"levelo://app?vid=2b03ea9c-c05b-4169-81c1-801395719749"},"vehicle_type_id":"4","last_reported":1718475015,"current_range_meters":19200,"station_id":"ce4bht12rcd13ifvqi60","pricing_plan_id":"cebpf4jnsgd1na2vs0mg"},{"bike_id":"54170f31-708c-4bb1-9f84-383ae71ec517","system_id":"levelo_inurba_marseille","lat":43.287184,"lon":5.37937,"is_reserved":false,"is_disabled":false,"rental_uris":{"android":"levelo://app?vid=54170f31-708c-4bb1-9f84-383ae71ec517","ios":"levelo://app?vid=54170f31-708c-4bb1-9f84-383ae71ec517"},"vehicle_type_id":"4","last_reported":1718475015,"current_range_meters":4400,"station_id":"ce4bh9p2rcd13ifvqec0","pricing_plan_id":"cebpf4jnsgd1na2vs0mg"},{"bike_id":"46f6c5c5-b685-4065-81b3-222e17f3ac1a","system_id":"levelo_inurba_marseille","lat":43.287184,"lon":5.37937,"is_reserved":false,"is_disabled":false,"rental_uris":{"android":"levelo://app?vid=46f6c5c5-b685-4065-81b3-222e17f3ac1a","ios":"levelo://app?vid=46f6c5c5-b685-4065-81b3-222e17f3ac1a"},"vehicle_type_id":"4","last_reported":1718475015,"current_range_meters":10000,"station_id":"ce4bh9p2rcd13ifvqec0","pricing_plan_id":"cebpf4jnsgd1na2vs0mg"},{"bike_id":"86c769ea-4344-42f2-aea1-4164bed40949","system_id":"levelo_inurba_marseille","lat":43.316821,"lon":5.404737,"is_reserved":false,"is_disabled":false,"rental_uris":{"android":"levelo://app?vid=86c769ea-4344-42f2-aea1-4164bed40949","ios":"levelo://app?vid=86c769ea-4344-42f2-aea1-4164bed40949"},"vehicle_type_id":"4","last_reported":1718475015,"current_range_meters":9600,"station_id":"ce4bh012rcd13ifvqd00","pricing_plan_id":"cebpf4jnsgd1na2vs0mg"},{"bike_id":"06376276-9888-433f-bfc5-1160500169d2","system_id":"levelo_inurba_marseille","lat":43.316828,"lon":5.404723,"is_reserved":false,"is_disabled":false,"rental_uris":{"android":"levelo://app?vid=06376276-9888-433f-bfc5-1160500169d2","ios":"levelo://app?vid=06376276-9888-433f-bfc5-1160500169d2"},"vehicle_type_id":"4","last_reported":1718475015,"current_range_meters":24400,"station_id":"ce4bh012rcd13ifvqd00","pricing_plan_id":"cebpf4jnsgd1na2vs0mg"},{"bike_id":"dd9ea3fe-efce-49d2-8f36-5ffb13237069","system_id":"levelo_inurba_marseille","lat":43.316821,"lon":5.404737,"is_reserved":false,"is_disabled":false,"rental_uris":{"android":"levelo://app?vid=dd9ea3fe-efce-49d2-8f36-5ffb13237069","ios":"levelo://app?vid=dd9ea3fe-efce-49d2-8f36-5ffb13237069"},"vehicle_type_id":"4","last_reported":1718475015,"current_range_meters":21600,"station_id":"ce4bh012rcd13ifvqd00","pricing_plan_id":"cebpf4jnsgd1na2vs0mg"},{"bike_id":"11a0b4ee-9e0b-417b-b18a-eac504322f51","system_id":"levelo_inurba_marseille","lat":43.316821,"lon":5.404737,"is_reserved":false,"is_disabled":false,"rental_uris":{"android":"levelo://app?vid=11a0b4ee-9e0b-417b-b18a-eac504322f51","ios":"levelo://app?vid=11a0b4ee-9e0b-417b-b18a-eac504322f51"},"vehicle_type_id":"4","last_reported":1718475015,"current_range_meters":28800,"station_id":"ce4bh012rcd13ifvqd00","pricing_plan_id":"cebpf4jnsgd1na2vs0mg"},{"bike_id":"4d2bb032-fe30-46d5-aa2f-3cfceefc216d","system_id":"levelo_inurba_marseille","lat":43.291994,"lon":5.392907,"is_reserved":false,"is_disabled":false,"rental_uris":{"android":"levelo://app?vid=4d2bb032-fe30-46d5-aa2f-3cfceefc216d","ios":"levelo://app?vid=4d2bb032-fe30-46d5-aa2f-3cfceefc216d"},"vehicle_type_id":"4","last_reported":1718475015,"current_range_meters":20000,"station_id":"ce4bh192rcd13ifvqdd0","pricing_plan_id":"cebpf4jnsgd1na2vs0mg"},{"bike_id":"82df441a-3fd2-41b4-b5d0-505e941aeb04","system_id":"levelo_inurba_marseille","lat":43.291994,"lon":5.392907,"is_reserved":false,"is_disabled":false,"rental_uris":{"android":"levelo://app?vid=82df441a-3fd2-41b4-b5d0-505e941aeb04","ios":"levelo://app?vid=82df441a-3fd2-41b4-b5d0-505e941aeb04"},"vehicle_type_id":"4","last_reported":1718475015,"current_range_meters":26800,"station_id":"ce4bh192rcd13ifvqdd0","pricing_plan_id":"cebpf4jnsgd1na2vs0mg"},{"bike_id":"2c0cea36-287a-45dd-af66-26eefbaa697d","system_id":"levelo_inurba_marseille","lat":43.284538,"lon":5.358657,"is_reserved":false,"is_disabled":false,"rental_uris":{"android":"levelo://app?vid=2c0cea36-287a-45dd-af66-26eefbaa697d","ios":"levelo://app?vid=2c0cea36-287a-45dd-af66-26eefbaa697d"},"vehicle_type_id":"4","last_reported":1718475015,"current_range_meters":27200,"station_id":"ce4bhah2rcd13ifvqei0","pricing_plan_id":"cebpf4jnsgd1na2vs0mg"},{"bike_id":"62fe55b8-caa5-4a10-a870-b95faad818e2","system_id":"levelo_inurba_marseille","lat":43.285856,"lon":5.350771,"is_reserved":false,"is_disabled":false,"rental_uris":{"android":"levelo://app?vid=62fe55b8-caa5-4a10-a870-b95faad818e2","ios":"levelo://app?vid=62fe55b8-caa5-4a10-a870-b95faad818e2"},"vehicle_type_id":"4","last_reported":1718475015,"current_range_meters":400,"station_id":"ce4bhch2rcd13ifvqeug","pricing_plan_id":"cebpf4jnsgd1na2vs0mg"},{"bike_id":"3e9e62d1-eedd-4332-8597-358e303d3acc","system_id":"levelo_inurba_marseille","lat":43.285856,"lon":5.350771,"is_reserved":false,"is_disabled":false,"rental_uris":{"android":"levelo://app?vid=3e9e62d1-eedd-4332-8597-358e303d3acc","ios":"levelo://app?vid=3e9e62d1-eedd-4332-8597-358e303d3acc"},"vehicle_type_id":"4","last_reported":1718475015,"current_range_meters":19200,"station_id":"ce4bhch2rcd13ifvqeug","pricing_plan_id":"cebpf4jnsgd1na2vs0mg"},{"bike_id":"c789b1dd-1f23-4255-89e4-a6c1dd79ae5b","system_id":"levelo_inurba_marseille","lat":43.286447,"lon":5.386063,"is_reserved":false,"is_disabled":false,"rental_uris":{"android":"levelo://app?vid=c789b1dd-1f23-4255-89e4-a6c1dd79ae5b","ios":"levelo://app?vid=c789b1dd-1f23-4255-89e4-a6c1dd79ae5b"},"vehicle_type_id":"4","last_reported":1718475015,"current_range_meters":0,"station_id":"","pricing_plan_id":"cebpf4jnsgd1na2vs0mg"},{"bike_id":"a071a142-e141-4f10-a77f-eb1b9aeb9b23","system_id":"levelo_inurba_marseille","lat":43.286595,"lon":5.386795,"is_reserved":false,"is_disabled":false,"rental_uris":{"android":"levelo://app?vid=a071a142-e141-4f10-a77f-eb1b9aeb9b23","ios":"levelo://app?vid=a071a142-e141-4f10-a77f-eb1b9aeb9b23"},"vehicle_type_id":"4","last_reported":1718475015,"current_range_meters":5600,"station_id":"ce4bh492rcd13ifvqdug","pricing_plan_id":"cebpf4jnsgd1na2vs0mg"},{"bike_id":"18b971c1-389c-4e03-991b-3b02b70177a1","system_id":"levelo_inurba_marseille","lat":43.323337,"lon":5.406237,"is_reserved":false,"is_disabled":false,"rental_uris":{"android":"levelo://app?vid=18b971c1-389c-4e03-991b-3b02b70177a1","ios":"levelo://app?vid=18b971c1-389c-4e03-991b-3b02b70177a1"},"vehicle_type_id":"4","last_reported":1718475015,"current_range_meters":13600,"station_id":"ce4bhq92rcd13ifvqhjg","pricing_plan_id":"cebpf4jnsgd1na2vs0mg"},{"bike_id":"01e4e9b1-0ee7-440f-a35f-5235e48b5dde","system_id":"levelo_inurba_marseille","lat":43.323464,"lon":5.406297,"is_reserved":false,"is_disabled":false,"rental_uris":{"android":"levelo://app?vid=01e4e9b1-0ee7-440f-a35f-5235e48b5dde","ios":"levelo://app?vid=01e4e9b1-0ee7-440f-a35f-5235e48b5dde"},"vehicle_type_id":"4","last_reported":1718475015,"current_range_meters":26400,"station_id":"ce4bhq92rcd13ifvqhjg","pricing_plan_id":"cebpf4jnsgd1na2vs0mg"},{"bike_id":"bc7ae56f-7c99-47ff-ae4a-9f0a1e0a23ea","system_id":"levelo_inurba_marseille","lat":43.33717,"lon":5.391857,"is_reserved":false,"is_disabled":false,"rental_uris":{"android":"levelo://app?vid=bc7ae56f-7c99-47ff-ae4a-9f0a1e0a23ea","ios":"levelo://app?vid=bc7ae56f-7c99-47ff-ae4a-9f0a1e0a23ea"},"vehicle_type_id":"4","last_reported":1718475015,"current_range_meters":30000,"station_id":"ce4bhr92rcd13ifvqhsg","pricing_plan_id":"cebpf4jnsgd1na2vs0mg"},{"bike_id":"c5eab18f-79fa-4fb8-9ddc-ef74c68f1f3b","system_id":"levelo_inurba_marseille","lat":43.33717,"lon":5.391857,"is_reserved":false,"is_disabled":false,"rental_uris":{"android":"levelo://app?vid=c5eab18f-79fa-4fb8-9ddc-ef74c68f1f3b","ios":"levelo://app?vid=c5eab18f-79fa-4fb8-9ddc-ef74c68f1f3b"},"vehicle_type_id":"4","last_reported":1718475015,"current_range_meters":6400,"station_id":"ce4bhr92rcd13ifvqhsg","pricing_plan_id":"cebpf4jnsgd1na2vs0mg"},{"bike_id":"4ac683cc-1dcb-4847-b406-ffc52fb8fe38","system_id":"levelo_inurba_marseille","lat":43.33736,"lon":5.39182,"is_reserved":false,"is_disabled":false,"rental_uris":{"android":"levelo://app?vid=4ac683cc-1dcb-4847-b406-ffc52fb8fe38","ios":"levelo://app?vid=4ac683cc-1dcb-4847-b406-ffc52fb8fe38"},"vehicle_type_id":"4","last_reported":1718475015,"current_range_meters":0,"station_id":"ce4bhr92rcd13ifvqhsg","pricing_plan_id":"cebpf4jnsgd1na2vs0mg"},{"bike_id":"9846c02f-92de-4ccf-83eb-b029d6d33dc3","system_id":"levelo_inurba_marseille","lat":43.323464,"lon":5.406297,"is_reserved":false,"is_disabled":false,"rental_uris":{"android":"levelo://app?vid=9846c02f-92de-4ccf-83eb-b029d6d33dc3","ios":"levelo://app?vid=9846c02f-92de-4ccf-83eb-b029d6d33dc3"},"vehicle_type_id":"4","last_reported":1718475015,"current_range_meters":16400,"station_id":"ce4bhq92rcd13ifvqhjg","pricing_plan_id":"cebpf4jnsgd1na2vs0mg"},{"bike_id":"59a10112-315f-4a52-8e76-96941ca73862","system_id":"levelo_inurba_marseille","lat":43.28477,"lon":5.38418,"is_reserved":false,"is_disabled":false,"rental_uris":{"android":"levelo://app?vid=59a10112-315f-4a52-8e76-96941ca73862","ios":"levelo://app?vid=59a10112-315f-4a52-8e76-96941ca73862"},"vehicle_type_id":"4","last_reported":1718475015,"current_range_meters":0,"station_id":"ce4bh512rcd13ifvqe3g","pricing_plan_id":"cebpf4jnsgd1na2vs0mg"},{"bike_id":"c5b513c7-9b13-4d93-9d66-2d2dd0023dfd","system_id":"levelo_inurba_marseille","lat":43.283494,"lon":5.380945,"is_reserved":false,"is_disabled":false,"rental_uris":{"android":"levelo://app?vid=c5b513c7-9b13-4d93-9d66-2d2dd0023dfd","ios":"levelo://app?vid=c5b513c7-9b13-4d93-9d66-2d2dd0023dfd"},"vehicle_type_id":"4","last_reported":1718475015,"current_range_meters":4400,"station_id":"ce4bh412rcd13ifvqdr0","pricing_plan_id":"cebpf4jnsgd1na2vs0mg"},{"bike_id":"a62dbefb-3534-4708-bff2-0a6647db2f32","system_id":"levelo_inurba_marseille","lat":43.283498,"lon":5.380948,"is_reserved":false,"is_disabled":false,"rental_uris":{"android":"levelo://app?vid=a62dbefb-3534-4708-bff2-0a6647db2f32","ios":"levelo://app?vid=a62dbefb-3534-4708-bff2-0a6647db2f32"},"vehicle_type_id":"4","last_reported":1718475015,"current_range_meters":2800,"station_id":"ce4bh412rcd13ifvqdr0","pricing_plan_id":"cebpf4jnsgd1na2vs0mg"},{"bike_id":"e1fb7767-bc74-4273-aec8-e98867c1fef9","system_id":"levelo_inurba_marseille","lat":43.284219,"lon":5.3497,"is_reserved":false,"is_disabled":false,"rental_uris":{"android":"levelo://app?vid=e1fb7767-bc74-4273-aec8-e98867c1fef9","ios":"levelo://app?vid=e1fb7767-bc74-4273-aec8-e98867c1fef9"},"vehicle_type_id":"4","last_reported":1718475015,"current_range_meters":24000,"station_id":"ce4bhbh2rcd13ifvqepg","pricing_plan_id":"cebpf4jnsgd1na2vs0mg"},{"bike_id":"ac333872-d563-419e-acfa-29c65deb91d2","system_id":"levelo_inurba_marseille","lat":43.283502,"lon":5.386471,"is_reserved":false,"is_disabled":false,"rental_uris":{"android":"levelo://app?vid=ac333872-d563-419e-acfa-29c65deb91d2","ios":"levelo://app?vid=ac333872-d563-419e-acfa-29c65deb91d2"},"vehicle_type_id":"4","last_reported":1718475015,"current_range_meters":18400,"station_id":"ce4bh492rcd13ifvqdvg","pricing_plan_id":"cebpf4jnsgd1na2vs0mg"},{"bike_id":"671aebe2-9069-4823-987d-656fc5dd69a7","system_id":"levelo_inurba_marseille","lat":43.28269,"lon":5.35062,"is_reserved":false,"is_disabled":false,"rental_uris":{"android":"levelo://app?vid=671aebe2-9069-4823-987d-656fc5dd69a7","ios":"levelo://app?vid=671aebe2-9069-4823-987d-656fc5dd69a7"},"vehicle_type_id":"4","last_reported":1718475015,"current_range_meters":0,"station_id":"ce4bhbp2rcd13ifvqerg","pricing_plan_id":"cebpf4jnsgd1na2vs0mg"},{"bike_id":"6a35977c-6388-49e6-910d-c1fecad8574f","system_id":"levelo_inurba_marseille","lat":43.28263,"lon":5.35066,"is_reserved":false,"is_disabled":false,"rental_uris":{"android":"levelo://app?vid=6a35977c-6388-49e6-910d-c1fecad8574f","ios":"levelo://app?vid=6a35977c-6388-49e6-910d-c1fecad8574f"},"vehicle_type_id":"4","last_reported":1718475015,"current_range_meters":0,"station_id":"ce4bhbp2rcd13ifvqerg","pricing_plan_id":"cebpf4jnsgd1na2vs0mg"},{"bike_id":"5fbe9fb5-47c2-4c3c-973f-68945171f992","system_id":"levelo_inurba_marseille","lat":43.28039,"lon":5.369297,"is_reserved":false,"is_disabled":false,"rental_uris":{"android":"levelo://app?vid=5fbe9fb5-47c2-4c3c-973f-68945171f992","ios":"levelo://app?vid=5fbe9fb5-47c2-4c3c-973f-68945171f992"},"vehicle_type_id":"4","last_reported":1718475015,"current_range_meters":31200,"station_id":"ce4bha12rcd13ifvqef0","pricing_plan_id":"cebpf4jnsgd1na2vs0mg"},{"bike_id":"8dad50d6-6229-4730-bf5b-d9ad01226e1f","system_id":"levelo_inurba_marseille","lat":43.28039,"lon":5.369297,"is_reserved":false,"is_disabled":false,"rental_uris":{"android":"levelo://app?vid=8dad50d6-6229-4730-bf5b-d9ad01226e1f","ios":"levelo://app?vid=8dad50d6-6229-4730-bf5b-d9ad01226e1f"},"vehicle_type_id":"4","last_reported":1718475015,"current_range_meters":8000,"station_id":"ce4bha12rcd13ifvqef0","pricing_plan_id":"cebpf4jnsgd1na2vs0mg"},{"bike_id":"92279943-9ce8-4f33-bbd9-ee8505582c90","system_id":"levelo_inurba_marseille","lat":43.280382,"lon":5.369291,"is_reserved":false,"is_disabled":false,"rental_uris":{"android":"levelo://app?vid=92279943-9ce8-4f33-bbd9-ee8505582c90","ios":"levelo://app?vid=92279943-9ce8-4f33-bbd9-ee8505582c90"},"vehicle_type_id":"4","last_reported":1718475015,"current_range_meters":30000,"station_id":"ce4bha12rcd13ifvqef0","pricing_plan_id":"cebpf4jnsgd1na2vs0mg"},{"bike_id":"15f365e9-deec-4db0-94bd-e64f5a36538b","system_id":"levelo_inurba_marseille","lat":43.28039,"lon":5.369297,"is_reserved":false,"is_disabled":false,"rental_uris":{"android":"levelo://app?vid=15f365e9-deec-4db0-94bd-e64f5a36538b","ios":"levelo://app?vid=15f365e9-deec-4db0-94bd-e64f5a36538b"},"vehicle_type_id":"4","last_reported":1718475015,"current_range_meters":4800,"station_id":"ce4bha12rcd13ifvqef0","pricing_plan_id":"cebpf4jnsgd1na2vs0mg"},{"bike_id":"6edfa1d5-461a-4d8c-bea2-a78c27af77a1","system_id":"levelo_inurba_marseille","lat":43.28221,"lon":5.38319,"is_reserved":false,"is_disabled":false,"rental_uris":{"android":"levelo://app?vid=6edfa1d5-461a-4d8c-bea2-a78c27af77a1","ios":"levelo://app?vid=6edfa1d5-461a-4d8c-bea2-a78c27af77a1"},"vehicle_type_id":"4","last_reported":1718475015,"current_range_meters":12400,"station_id":"","pricing_plan_id":"cebpf4jnsgd1na2vs0mg"},{"bike_id":"bc098ab0-add5-4e79-9ece-66f246dbbbd9","system_id":"levelo_inurba_marseille","lat":43.326605,"lon":5.409903,"is_reserved":false,"is_disabled":false,"rental_uris":{"android":"levelo://app?vid=bc098ab0-add5-4e79-9ece-66f246dbbbd9","ios":"levelo://app?vid=bc098ab0-add5-4e79-9ece-66f246dbbbd9"},"vehicle_type_id":"4","last_reported":1718475015,"current_range_meters":5200,"station_id":"ce4bhpp2rcd13ifvqhgg","pricing_plan_id":"cebpf4jnsgd1na2vs0mg"},{"bike_id":"82e05668-63ef-4220-a5de-2b0223a01918","system_id":"levelo_inurba_marseille","lat":43.326605,"lon":5.409903,"is_reserved":false,"is_disabled":false,"rental_uris":{"android":"levelo://app?vid=82e05668-63ef-4220-a5de-2b0223a01918","ios":"levelo://app?vid=82e05668-63ef-4220-a5de-2b0223a01918"},"vehicle_type_id":"4","last_reported":1718475015,"current_range_meters":16800,"station_id":"ce4bhpp2rcd13ifvqhgg","pricing_plan_id":"cebpf4jnsgd1na2vs0mg"},{"bike_id":"b8ba5c37-c098-4c74-baf5-9c75d1627ac1","system_id":"levelo_inurba_marseille","lat":43.326605,"lon":5.409903,"is_reserved":false,"is_disabled":false,"rental_uris":{"android":"levelo://app?vid=b8ba5c37-c098-4c74-baf5-9c75d1627ac1","ios":"levelo://app?vid=b8ba5c37-c098-4c74-baf5-9c75d1627ac1"},"vehicle_type_id":"4","last_reported":1718475015,"current_range_meters":15600,"station_id":"ce4bhpp2rcd13ifvqhgg","pricing_plan_id":"cebpf4jnsgd1na2vs0mg"},{"bike_id":"844d4f40-f188-4259-b795-22ec494f7103","system_id":"levelo_inurba_marseille","lat":43.326605,"lon":5.409903,"is_reserved":false,"is_disabled":false,"rental_uris":{"android":"levelo://app?vid=844d4f40-f188-4259-b795-22ec494f7103","ios":"levelo://app?vid=844d4f40-f188-4259-b795-22ec494f7103"},"vehicle_type_id":"4","last_reported":1718475015,"current_range_meters":11600,"station_id":"ce4bhpp2rcd13ifvqhgg","pricing_plan_id":"cebpf4jnsgd1na2vs0mg"},{"bike_id":"f9221afe-5cf2-431b-8e64-778f3083d105","system_id":"levelo_inurba_marseille","lat":43.28703,"lon":5.39974,"is_reserved":false,"is_disabled":false,"rental_uris":{"android":"levelo://app?vid=f9221afe-5cf2-431b-8e64-778f3083d105","ios":"levelo://app?vid=f9221afe-5cf2-431b-8e64-778f3083d105"},"vehicle_type_id":"4","last_reported":1718475015,"current_range_meters":18400,"station_id":"ce4bho92rcd13ifvqh3g","pricing_plan_id":"cebpf4jnsgd1na2vs0mg"},{"bike_id":"ed11c8d5-7600-40ea-973c-5e63e92750d8","system_id":"levelo_inurba_marseille","lat":43.292571,"lon":5.409107,"is_reserved":false,"is_disabled":false,"rental_uris":{"android":"levelo://app?vid=ed11c8d5-7600-40ea-973c-5e63e92750d8","ios":"levelo://app?vid=ed11c8d5-7600-40ea-973c-5e63e92750d8"},"vehicle_type_id":"4","last_reported":1718475015,"current_range_meters":15600,"station_id":"ce4bh192rcd13ifvqdc0","pricing_plan_id":"cebpf4jnsgd1na2vs0mg"},{"bike_id":"dcbc233f-5158-4e07-8280-c51c605db628","system_id":"levelo_inurba_marseille","lat":43.292569,"lon":5.409107,"is_reserved":false,"is_disabled":false,"rental_uris":{"android":"levelo://app?vid=dcbc233f-5158-4e07-8280-c51c605db628","ios":"levelo://app?vid=dcbc233f-5158-4e07-8280-c51c605db628"},"vehicle_type_id":"4","last_reported":1718475015,"current_range_meters":4400,"station_id":"ce4bh192rcd13ifvqdc0","pricing_plan_id":"cebpf4jnsgd1na2vs0mg"},{"bike_id":"2a257fbb-3786-4ced-91ba-cec199a01799","system_id":"levelo_inurba_marseille","lat":43.292569,"lon":5.409107,"is_reserved":false,"is_disabled":false,"rental_uris":{"android":"levelo://app?vid=2a257fbb-3786-4ced-91ba-cec199a01799","ios":"levelo://app?vid=2a257fbb-3786-4ced-91ba-cec199a01799"},"vehicle_type_id":"4","last_reported":1718475015,"current_range_meters":27600,"station_id":"ce4bh192rcd13ifvqdc0","pricing_plan_id":"cebpf4jnsgd1na2vs0mg"},{"bike_id":"4915b476-e225-4fca-b861-1914427b1a02","system_id":"levelo_inurba_marseille","lat":43.292569,"lon":5.409107,"is_reserved":false,"is_disabled":false,"rental_uris":{"android":"levelo://app?vid=4915b476-e225-4fca-b861-1914427b1a02","ios":"levelo://app?vid=4915b476-e225-4fca-b861-1914427b1a02"},"vehicle_type_id":"4","last_reported":1718475015,"current_range_meters":0,"station_id":"ce4bh192rcd13ifvqdc0","pricing_plan_id":"cebpf4jnsgd1na2vs0mg"},{"bike_id":"121931d4-f4cd-41d1-abda-c6780ebfb54e","system_id":"levelo_inurba_marseille","lat":43.292569,"lon":5.409107,"is_reserved":false,"is_disabled":false,"rental_uris":{"android":"levelo://app?vid=121931d4-f4cd-41d1-abda-c6780ebfb54e","ios":"levelo://app?vid=121931d4-f4cd-41d1-abda-c6780ebfb54e"},"vehicle_type_id":"4","last_reported":1718475015,"current_range_meters":10800,"station_id":"ce4bh192rcd13ifvqdc0","pricing_plan_id":"cebpf4jnsgd1na2vs0mg"},{"bike_id":"a3026cf2-13d5-4d38-b223-39496b6b2d1b","system_id":"levelo_inurba_marseille","lat":43.292569,"lon":5.409107,"is_reserved":false,"is_disabled":false,"rental_uris":{"android":"levelo://app?vid=a3026cf2-13d5-4d38-b223-39496b6b2d1b","ios":"levelo://app?vid=a3026cf2-13d5-4d38-b223-39496b6b2d1b"},"vehicle_type_id":"4","last_reported":1718475015,"current_range_meters":16400,"station_id":"ce4bh192rcd13ifvqdc0","pricing_plan_id":"cebpf4jnsgd1na2vs0mg"},{"bike_id":"33898158-f2e7-48fb-8ce1-659222aef7d5","system_id":"levelo_inurba_marseille","lat":43.27618,"lon":5.361009,"is_reserved":false,"is_disabled":false,"rental_uris":{"android":"levelo://app?vid=33898158-f2e7-48fb-8ce1-659222aef7d5","ios":"levelo://app?vid=33898158-f2e7-48fb-8ce1-659222aef7d5"},"vehicle_type_id":"4","last_reported":1718475015,"current_range_meters":10000,"station_id":"ce4bgj92rcd13ifvqbe0","pricing_plan_id":"cebpf4jnsgd1na2vs0mg"},{"bike_id":"57cc394b-f651-4484-ae66-408946e865c7","system_id":"levelo_inurba_marseille","lat":43.276179,"lon":5.361009,"is_reserved":false,"is_disabled":false,"rental_uris":{"android":"levelo://app?vid=57cc394b-f651-4484-ae66-408946e865c7","ios":"levelo://app?vid=57cc394b-f651-4484-ae66-408946e865c7"},"vehicle_type_id":"4","last_reported":1718475015,"current_range_meters":3600,"station_id":"ce4bgj92rcd13ifvqbe0","pricing_plan_id":"cebpf4jnsgd1na2vs0mg"},{"bike_id":"7265ab0f-a703-40f3-8f08-d9fb545f067c","system_id":"levelo_inurba_marseille","lat":43.325233,"lon":5.414318,"is_reserved":false,"is_disabled":false,"rental_uris":{"android":"levelo://app?vid=7265ab0f-a703-40f3-8f08-d9fb545f067c","ios":"levelo://app?vid=7265ab0f-a703-40f3-8f08-d9fb545f067c"},"vehicle_type_id":"4","last_reported":1718475015,"current_range_meters":7600,"station_id":"ce4bhq12rcd13ifvqhhg","pricing_plan_id":"cebpf4jnsgd1na2vs0mg"},{"bike_id":"0452c519-3eb1-47cf-8c4b-0571bfa8ffd1","system_id":"levelo_inurba_marseille","lat":43.276179,"lon":5.361009,"is_reserved":false,"is_disabled":false,"rental_uris":{"android":"levelo://app?vid=0452c519-3eb1-47cf-8c4b-0571bfa8ffd1","ios":"levelo://app?vid=0452c519-3eb1-47cf-8c4b-0571bfa8ffd1"},"vehicle_type_id":"4","last_reported":1718475015,"current_range_meters":30800,"station_id":"ce4bgj92rcd13ifvqbe0","pricing_plan_id":"cebpf4jnsgd1na2vs0mg"},{"bike_id":"d06540cc-9186-433a-bc89-e83cc848c952","system_id":"levelo_inurba_marseille","lat":43.325233,"lon":5.414318,"is_reserved":false,"is_disabled":false,"rental_uris":{"android":"levelo://app?vid=d06540cc-9186-433a-bc89-e83cc848c952","ios":"levelo://app?vid=d06540cc-9186-433a-bc89-e83cc848c952"},"vehicle_type_id":"4","last_reported":1718475015,"current_range_meters":11200,"station_id":"ce4bhq12rcd13ifvqhhg","pricing_plan_id":"cebpf4jnsgd1na2vs0mg"},{"bike_id":"376aa40d-8fdf-4381-b64a-86527cee1e93","system_id":"levelo_inurba_marseille","lat":43.3254,"lon":5.41459,"is_reserved":false,"is_disabled":false,"rental_uris":{"android":"levelo://app?vid=376aa40d-8fdf-4381-b64a-86527cee1e93","ios":"levelo://app?vid=376aa40d-8fdf-4381-b64a-86527cee1e93"},"vehicle_type_id":"4","last_reported":1718475015,"current_range_meters":0,"station_id":"ce4bhq12rcd13ifvqhhg","pricing_plan_id":"cebpf4jnsgd1na2vs0mg"},{"bike_id":"a6d8af6d-3cf1-47f4-94c3-1a0a1304b0d5","system_id":"levelo_inurba_marseille","lat":43.303837,"lon":5.418724,"is_reserved":false,"is_disabled":false,"rental_uris":{"android":"levelo://app?vid=a6d8af6d-3cf1-47f4-94c3-1a0a1304b0d5","ios":"levelo://app?vid=a6d8af6d-3cf1-47f4-94c3-1a0a1304b0d5"},"vehicle_type_id":"4","last_reported":1718475015,"current_range_meters":6000,"station_id":"ce4bhop2rcd13ifvqh7g","pricing_plan_id":"cebpf4jnsgd1na2vs0mg"},{"bike_id":"b74cc08e-42ed-475e-bb93-fb7758ab8ca3","system_id":"levelo_inurba_marseille","lat":43.27823,"lon":5.39136,"is_reserved":false,"is_disabled":false,"rental_uris":{"android":"levelo://app?vid=b74cc08e-42ed-475e-bb93-fb7758ab8ca3","ios":"levelo://app?vid=b74cc08e-42ed-475e-bb93-fb7758ab8ca3"},"vehicle_type_id":"4","last_reported":1718475015,"current_range_meters":800,"station_id":"","pricing_plan_id":"cebpf4jnsgd1na2vs0mg"},{"bike_id":"292e3873-feff-496a-bdc2-479edfcafe91","system_id":"levelo_inurba_marseille","lat":43.303837,"lon":5.418724,"is_reserved":false,"is_disabled":false,"rental_uris":{"android":"levelo://app?vid=292e3873-feff-496a-bdc2-479edfcafe91","ios":"levelo://app?vid=292e3873-feff-496a-bdc2-479edfcafe91"},"vehicle_type_id":"4","last_reported":1718475015,"current_range_meters":24800,"station_id":"ce4bhop2rcd13ifvqh7g","pricing_plan_id":"cebpf4jnsgd1na2vs0mg"},{"bike_id":"8fd2c1a3-e6e1-40bc-8887-f77daa706d91","system_id":"levelo_inurba_marseille","lat":43.27387,"lon":5.36259,"is_reserved":false,"is_disabled":false,"rental_uris":{"android":"levelo://app?vid=8fd2c1a3-e6e1-40bc-8887-f77daa706d91","ios":"levelo://app?vid=8fd2c1a3-e6e1-40bc-8887-f77daa706d91"},"vehicle_type_id":"4","last_reported":1718475015,"current_range_meters":8000,"station_id":"ce4bhbh2rcd13ifvqeo0","pricing_plan_id":"cebpf4jnsgd1na2vs0mg"},{"bike_id":"d445a8ff-62cf-478c-a97f-cd2e09cc61d1","system_id":"levelo_inurba_marseille","lat":43.27375,"lon":5.36251,"is_reserved":false,"is_disabled":false,"rental_uris":{"android":"levelo://app?vid=d445a8ff-62cf-478c-a97f-cd2e09cc61d1","ios":"levelo://app?vid=d445a8ff-62cf-478c-a97f-cd2e09cc61d1"},"vehicle_type_id":"4","last_reported":1718475015,"current_range_meters":0,"station_id":"ce4bhbh2rcd13ifvqeo0","pricing_plan_id":"cebpf4jnsgd1na2vs0mg"},{"bike_id":"f36adb98-96d7-4459-bf40-6d6f116bb9d2","system_id":"levelo_inurba_marseille","lat":43.273613,"lon":5.362705,"is_reserved":false,"is_disabled":false,"rental_uris":{"android":"levelo://app?vid=f36adb98-96d7-4459-bf40-6d6f116bb9d2","ios":"levelo://app?vid=f36adb98-96d7-4459-bf40-6d6f116bb9d2"},"vehicle_type_id":"4","last_reported":1718475015,"current_range_meters":3200,"station_id":"ce4bhbh2rcd13ifvqeo0","pricing_plan_id":"cebpf4jnsgd1na2vs0mg"},{"bike_id":"8cc7686e-f33d-421d-b7ff-af1e63b8c3ee","system_id":"levelo_inurba_marseille","lat":43.273717,"lon":5.362649,"is_reserved":false,"is_disabled":false,"rental_uris":{"android":"levelo://app?vid=8cc7686e-f33d-421d-b7ff-af1e63b8c3ee","ios":"levelo://app?vid=8cc7686e-f33d-421d-b7ff-af1e63b8c3ee"},"vehicle_type_id":"4","last_reported":1718475015,"current_range_meters":21600,"station_id":"","pricing_plan_id":"cebpf4jnsgd1na2vs0mg"},{"bike_id":"96862916-bc7e-438c-a9ad-ed576d5c4806","system_id":"levelo_inurba_marseille","lat":43.336134,"lon":5.410341,"is_reserved":false,"is_disabled":false,"rental_uris":{"android":"levelo://app?vid=96862916-bc7e-438c-a9ad-ed576d5c4806","ios":"levelo://app?vid=96862916-bc7e-438c-a9ad-ed576d5c4806"},"vehicle_type_id":"4","last_reported":1718475015,"current_range_meters":14000,"station_id":"ce4bhqh2rcd13ifvqhmg","pricing_plan_id":"cebpf4jnsgd1na2vs0mg"},{"bike_id":"e7c2dcb6-763d-4f2c-af13-7882f9a56f76","system_id":"levelo_inurba_marseille","lat":43.33612,"lon":5.410321,"is_reserved":false,"is_disabled":false,"rental_uris":{"android":"levelo://app?vid=e7c2dcb6-763d-4f2c-af13-7882f9a56f76","ios":"levelo://app?vid=e7c2dcb6-763d-4f2c-af13-7882f9a56f76"},"vehicle_type_id":"4","last_reported":1718475015,"current_range_meters":25600,"station_id":"ce4bhqh2rcd13ifvqhmg","pricing_plan_id":"cebpf4jnsgd1na2vs0mg"},{"bike_id":"c22952db-dc69-4587-b3b6-075709430e5c","system_id":"levelo_inurba_marseille","lat":43.336134,"lon":5.410341,"is_reserved":false,"is_disabled":false,"rental_uris":{"android":"levelo://app?vid=c22952db-dc69-4587-b3b6-075709430e5c","ios":"levelo://app?vid=c22952db-dc69-4587-b3b6-075709430e5c"},"vehicle_type_id":"4","last_reported":1718475015,"current_range_meters":5200,"station_id":"ce4bhqh2rcd13ifvqhmg","pricing_plan_id":"cebpf4jnsgd1na2vs0mg"},{"bike_id":"b8133f7b-8cba-4f8c-b230-b7ae4a0facac","system_id":"levelo_inurba_marseille","lat":43.2756,"lon":5.38427,"is_reserved":false,"is_disabled":false,"rental_uris":{"android":"levelo://app?vid=b8133f7b-8cba-4f8c-b230-b7ae4a0facac","ios":"levelo://app?vid=b8133f7b-8cba-4f8c-b230-b7ae4a0facac"},"vehicle_type_id":"4","last_reported":1718475015,"current_range_meters":0,"station_id":"ce4bhh92rcd13ifvqfi0","pricing_plan_id":"cebpf4jnsgd1na2vs0mg"},{"bike_id":"d82422d9-d3c3-499c-9923-70b2365f2b84","system_id":"levelo_inurba_marseille","lat":43.33612,"lon":5.410321,"is_reserved":false,"is_disabled":false,"rental_uris":{"android":"levelo://app?vid=d82422d9-d3c3-499c-9923-70b2365f2b84","ios":"levelo://app?vid=d82422d9-d3c3-499c-9923-70b2365f2b84"},"vehicle_type_id":"4","last_reported":1718475015,"current_range_meters":24000,"station_id":"ce4bhqh2rcd13ifvqhmg","pricing_plan_id":"cebpf4jnsgd1na2vs0mg"},{"bike_id":"f5f6b47c-3658-4ba7-8820-7ead6eb714e6","system_id":"levelo_inurba_marseille","lat":43.33612,"lon":5.410321,"is_reserved":false,"is_disabled":false,"rental_uris":{"android":"levelo://app?vid=f5f6b47c-3658-4ba7-8820-7ead6eb714e6","ios":"levelo://app?vid=f5f6b47c-3658-4ba7-8820-7ead6eb714e6"},"vehicle_type_id":"4","last_reported":1718475015,"current_range_meters":14800,"station_id":"ce4bhqh2rcd13ifvqhmg","pricing_plan_id":"cebpf4jnsgd1na2vs0mg"},{"bike_id":"4810483d-195c-4b8b-968c-6420d3945e59","system_id":"levelo_inurba_marseille","lat":43.275625,"lon":5.384392,"is_reserved":false,"is_disabled":false,"rental_uris":{"android":"levelo://app?vid=4810483d-195c-4b8b-968c-6420d3945e59","ios":"levelo://app?vid=4810483d-195c-4b8b-968c-6420d3945e59"},"vehicle_type_id":"4","last_reported":1718475015,"current_range_meters":0,"station_id":"ce4bhh92rcd13ifvqfi0","pricing_plan_id":"cebpf4jnsgd1na2vs0mg"},{"bike_id":"16ca9fe5-7e70-490a-bdae-cc3e9d3e7e33","system_id":"levelo_inurba_marseille","lat":43.276769,"lon":5.388787,"is_reserved":false,"is_disabled":false,"rental_uris":{"android":"levelo://app?vid=16ca9fe5-7e70-490a-bdae-cc3e9d3e7e33","ios":"levelo://app?vid=16ca9fe5-7e70-490a-bdae-cc3e9d3e7e33"},"vehicle_type_id":"4","last_reported":1718475015,"current_range_meters":800,"station_id":"ce4bhi12rcd13ifvqfo0","pricing_plan_id":"cebpf4jnsgd1na2vs0mg"},{"bike_id":"c9e5712b-ce7d-4300-a95a-1a952d6579dc","system_id":"levelo_inurba_marseille","lat":43.27669,"lon":5.38895,"is_reserved":false,"is_disabled":false,"rental_uris":{"android":"levelo://app?vid=c9e5712b-ce7d-4300-a95a-1a952d6579dc","ios":"levelo://app?vid=c9e5712b-ce7d-4300-a95a-1a952d6579dc"},"vehicle_type_id":"4","last_reported":1718475015,"current_range_meters":0,"station_id":"ce4bhi12rcd13ifvqfo0","pricing_plan_id":"cebpf4jnsgd1na2vs0mg"},{"bike_id":"35057ea3-f3a9-4b46-9fa3-95f4846ea680","system_id":"levelo_inurba_marseille","lat":43.279952,"lon":5.400085,"is_reserved":false,"is_disabled":false,"rental_uris":{"android":"levelo://app?vid=35057ea3-f3a9-4b46-9fa3-95f4846ea680","ios":"levelo://app?vid=35057ea3-f3a9-4b46-9fa3-95f4846ea680"},"vehicle_type_id":"4","last_reported":1718475015,"current_range_meters":11200,"station_id":"ce4bho92rcd13ifvqh4g","pricing_plan_id":"cebpf4jnsgd1na2vs0mg"},{"bike_id":"b1d6207e-382a-4340-9b57-a3071719b63d","system_id":"levelo_inurba_marseille","lat":43.317267,"lon":5.424007,"is_reserved":false,"is_disabled":false,"rental_uris":{"android":"levelo://app?vid=b1d6207e-382a-4340-9b57-a3071719b63d","ios":"levelo://app?vid=b1d6207e-382a-4340-9b57-a3071719b63d"},"vehicle_type_id":"4","last_reported":1718475015,"current_range_meters":800,"station_id":"ce4bhp92rcd13ifvqhbg","pricing_plan_id":"cebpf4jnsgd1na2vs0mg"},{"bike_id":"328e4be0-6e8f-413f-81ac-1f03ed36b1db","system_id":"levelo_inurba_marseille","lat":43.27325,"lon":5.39079,"is_reserved":false,"is_disabled":false,"rental_uris":{"android":"levelo://app?vid=328e4be0-6e8f-413f-81ac-1f03ed36b1db","ios":"levelo://app?vid=328e4be0-6e8f-413f-81ac-1f03ed36b1db"},"vehicle_type_id":"4","last_reported":1718475015,"current_range_meters":0,"station_id":"ce4bhgp2rcd13ifvqfe0","pricing_plan_id":"cebpf4jnsgd1na2vs0mg"},{"bike_id":"ef681bc9-abdd-411d-a805-8c0b8ed2fd36","system_id":"levelo_inurba_marseille","lat":43.274103,"lon":5.394016,"is_reserved":false,"is_disabled":false,"rental_uris":{"android":"levelo://app?vid=ef681bc9-abdd-411d-a805-8c0b8ed2fd36","ios":"levelo://app?vid=ef681bc9-abdd-411d-a805-8c0b8ed2fd36"},"vehicle_type_id":"4","last_reported":1718475015,"current_range_meters":0,"station_id":"ce4bhdp2rcd13ifvqf20","pricing_plan_id":"cebpf4jnsgd1na2vs0mg"},{"bike_id":"0d77ac75-3d8a-475e-8507-8953f0f27d52","system_id":"levelo_inurba_marseille","lat":43.29556,"lon":5.42285,"is_reserved":false,"is_disabled":false,"rental_uris":{"android":"levelo://app?vid=0d77ac75-3d8a-475e-8507-8953f0f27d52","ios":"levelo://app?vid=0d77ac75-3d8a-475e-8507-8953f0f27d52"},"vehicle_type_id":"4","last_reported":1718475015,"current_range_meters":1200,"station_id":"ce4bhph2rcd13ifvqhdg","pricing_plan_id":"cebpf4jnsgd1na2vs0mg"},{"bike_id":"c3642604-3bba-4cbe-9c75-1b6fd3025354","system_id":"levelo_inurba_marseille","lat":43.295523,"lon":5.422926,"is_reserved":false,"is_disabled":false,"rental_uris":{"android":"levelo://app?vid=c3642604-3bba-4cbe-9c75-1b6fd3025354","ios":"levelo://app?vid=c3642604-3bba-4cbe-9c75-1b6fd3025354"},"vehicle_type_id":"4","last_reported":1718475015,"current_range_meters":20400,"station_id":"ce4bhph2rcd13ifvqhdg","pricing_plan_id":"cebpf4jnsgd1na2vs0mg"},{"bike_id":"a99d3c99-1b1e-4721-9b84-fab20cf806af","system_id":"levelo_inurba_marseille","lat":43.295523,"lon":5.422926,"is_reserved":false,"is_disabled":false,"rental_uris":{"android":"levelo://app?vid=a99d3c99-1b1e-4721-9b84-fab20cf806af","ios":"levelo://app?vid=a99d3c99-1b1e-4721-9b84-fab20cf806af"},"vehicle_type_id":"4","last_reported":1718475015,"current_range_meters":25600,"station_id":"ce4bhph2rcd13ifvqhdg","pricing_plan_id":"cebpf4jnsgd1na2vs0mg"},{"bike_id":"10207ad7-6ef0-4063-b47f-9e71ec58bc9e","system_id":"levelo_inurba_marseille","lat":43.26681,"lon":5.382694,"is_reserved":false,"is_disabled":false,"rental_uris":{"android":"levelo://app?vid=10207ad7-6ef0-4063-b47f-9e71ec58bc9e","ios":"levelo://app?vid=10207ad7-6ef0-4063-b47f-9e71ec58bc9e"},"vehicle_type_id":"4","last_reported":1718475015,"current_range_meters":27200,"station_id":"ce4bhg92rcd13ifvqf90","pricing_plan_id":"cebpf4jnsgd1na2vs0mg"},{"bike_id":"7a14d961-2562-4576-9332-2c093b4707a0","system_id":"levelo_inurba_marseille","lat":43.272118,"lon":5.391758,"is_reserved":false,"is_disabled":false,"rental_uris":{"android":"levelo://app?vid=7a14d961-2562-4576-9332-2c093b4707a0","ios":"levelo://app?vid=7a14d961-2562-4576-9332-2c093b4707a0"},"vehicle_type_id":"4","last_reported":1718475015,"current_range_meters":4000,"station_id":"ce4bhhp2rcd13ifvqfm0","pricing_plan_id":"cebpf4jnsgd1na2vs0mg"},{"bike_id":"42284b21-695c-466c-a94c-769577897247","system_id":"levelo_inurba_marseille","lat":43.278128,"lon":5.407195,"is_reserved":false,"is_disabled":false,"rental_uris":{"android":"levelo://app?vid=42284b21-695c-466c-a94c-769577897247","ios":"levelo://app?vid=42284b21-695c-466c-a94c-769577897247"},"vehicle_type_id":"4","last_reported":1718475015,"current_range_meters":27600,"station_id":"ce4bhnh2rcd13ifvqgtg","pricing_plan_id":"cebpf4jnsgd1na2vs0mg"},