{"last_updated":1777499442,"ttl":60,"version":"2.2","data":{"bikes":[{"bike_id":"e116e98a-e7c1-4e2d-9ae3-1a759c33b548","system_id":"levelo_inurba_marseille","lat":43.337444,"lon":5.374475,"is_reserved":false,"is_disabled":false,"rental_uris":{"android":"levelo://app?vid=e116e98a-e7c1-4e2d-9ae3-1a759c33b548","ios":"levelo://app?vid=e116e98a-e7c1-4e2d-9ae3-1a759c33b548"},"vehicle_type_id":"4","last_reported":1777499443,"current_range_meters":2800,"station_id":"ce4bgop2rcd13ifvqc1g","pricing_plan_id":"cebpf4jnsgd1na2vs0mg"},{"bike_id":"88997f0b-2a21-4597-be7e-73df4164d688","system_id":"levelo_inurba_marseille","lat":43.27849,"lon":5.39211,"is_reserved":false,"is_disabled":false,"rental_uris":{"android":"levelo://app?vid=88997f0b-2a21-4597-be7e-73df4164d688","ios":"levelo://app?vid=88997f0b-2a21-4597-be7e-73df4164d688"},"vehicle_type_id":"4","last_reported":1777499443,"current_range_meters":2800,"station_id":"ce4bhjp2rcd13ifvqga0","pricing_plan_id":"cebpf4jnsgd1na2vs0mg"},{"bike_id":"16fcaa98-136d-4bf1-b3b3-f8340380b05d","system_id":"levelo_inurba_marseille","lat":43.3077,"lon":5.38163,"is_reserved":false,"is_disabled":false,"rental_uris":{"android":"levelo://app?vid=16fcaa98-136d-4bf1-b3b3-f8340380b05d","ios":"levelo://app?vid=16fcaa98-136d-4bf1-b3b3-f8340380b05d"},"vehicle_type_id":"4","last_reported":1777499443,"current_range_meters":2800,"station_id":"ce4bgt12rcd13ifvqce0","pricing_plan_id":"cebpf4jnsgd1na2vs0mg"},{"bike_id":"0a5d1767-9589-44ef-a4c6-f150a9a295a6","system_id":"levelo_inurba_marseille","lat":43.23977,"lon":5.36634,"is_reserved":false,"is_disabled":false,"rental_uris":{"android":"levelo://app?vid=0a5d1767-9589-44ef-a4c6-f150a9a295a6","ios":"levelo://app?vid=0a5d1767-9589-44ef-a4c6-f150a9a295a6"},"vehicle_type_id":"4","last_reported":1777499443,"current_range_meters":2800,"station_id":"ce4bhi12rcd13ifvqfp0","pricing_plan_id":"cebpf4jnsgd1na2vs0mg"},{"bike_id":"76907408-a8ff-4688-9cbf-66e48bb415e8","system_id":"levelo_inurba_marseille","lat":43.28716,"lon":5.46712,"is_reserved":false,"is_disabled":false,"rental_uris":{"android":"levelo://app?vid=76907408-a8ff-4688-9cbf-66e48bb415e8","ios":"levelo://app?vid=76907408-a8ff-4688-9cbf-66e48bb415e8"},"vehicle_type_id":"4","last_reported":1777499443,"current_range_meters":2800,"station_id":"st_d6tc3vkotcvc738tfjhg","pricing_plan_id":"cebpf4jnsgd1na2vs0mg"},{"bike_id":"c2724531-639a-4f0d-a38c-8ac8815f54a8","system_id":"levelo_inurba_marseille","lat":43.30116,"lon":5.38765,"is_reserved":false,"is_disabled":false,"rental_uris":{"android":"levelo://app?vid=c2724531-639a-4f0d-a38c-8ac8815f54a8","ios":"levelo://app?vid=c2724531-639a-4f0d-a38c-8ac8815f54a8"},"vehicle_type_id":"4","last_reported":1777499443,"current_range_meters":2800,"station_id":"ce4bghh2rcd13ifvqb60","pricing_plan_id":"cebpf4jnsgd1na2vs0mg"},{"bike_id":"5367fafd-42a5-4c52-bd35-5d85953af91c","system_id":"levelo_inurba_marseille","lat":43.3145,"lon":5.37379,"is_reserved":false,"is_disabled":true,"rental_uris":{"android":"levelo://app?vid=5367fafd-42a5-4c52-bd35-5d85953af91c","ios":"levelo://app?vid=5367fafd-42a5-4c52-bd35-5d85953af91c"},"vehicle_type_id":"4","last_reported":1777499443,"current_range_meters":3200,"station_id":"","pricing_plan_id":"cebpf4jnsgd1na2vs0mg"},{"bike_id":"ca7e766e-0c22-4bb4-9391-ff9b9db52725","system_id":"levelo_inurba_marseille","lat":43.28188,"lon":5.40756,"is_reserved":false,"is_disabled":false,"rental_uris":{"android":"levelo://app?vid=ca7e766e-0c22-4bb4-9391-ff9b9db52725","ios":"levelo://app?vid=ca7e766e-0c22-4bb4-9391-ff9b9db52725"},"vehicle_type_id":"4","last_reported":1777499443,"current_range_meters":3200,"station_id":"","pricing_plan_id":"cebpf4jnsgd1na2vs0mg"},{"bike_id":"6e5b6dae-47c2-4560-a34e-9c7316bfef54","system_id":"levelo_inurba_marseille","lat":43.28452,"lon":5.39199,"is_reserved":false,"is_disabled":true,"rental_uris":{"android":"levelo://app?vid=6e5b6dae-47c2-4560-a34e-9c7316bfef54","ios":"levelo://app?vid=6e5b6dae-47c2-4560-a34e-9c7316bfef54"},"vehicle_type_id":"4","last_reported":1777499443,"current_range_meters":3200,"station_id":"ce4bhoh2rcd13ifvqh5g","pricing_plan_id":"cebpf4jnsgd1na2vs0mg"},{"bike_id":"7c5db40c-515f-4cf4-ba32-6b127fb7742b","system_id":"levelo_inurba_marseille","lat":43.30152,"lon":5.37987,"is_reserved":false,"is_disabled":false,"rental_uris":{"android":"levelo://app?vid=7c5db40c-515f-4cf4-ba32-6b127fb7742b","ios":"levelo://app?vid=7c5db40c-515f-4cf4-ba32-6b127fb7742b"},"vehicle_type_id":"4","last_reported":1777499443,"current_range_meters":3200,"station_id":"","pricing_plan_id":"cebpf4jnsgd1na2vs0mg"},{"bike_id":"9491e6c6-2dd7-4afc-ae57-d0c881ef797c","system_id":"levelo_inurba_marseille","lat":43.28696,"lon":5.37389,"is_reserved":false,"is_disabled":false,"rental_uris":{"android":"levelo://app?vid=9491e6c6-2dd7-4afc-ae57-d0c881ef797c","ios":"levelo://app?vid=9491e6c6-2dd7-4afc-ae57-d0c881ef797c"},"vehicle_type_id":"4","last_reported":1777499443,"current_range_meters":3200,"station_id":"ce4bh3p2rcd13ifvqdq0","pricing_plan_id":"cebpf4jnsgd1na2vs0mg"},{"bike_id":"3e94c699-8c53-437d-b7f2-14d3ea381ded","system_id":"levelo_inurba_marseille","lat":43.2982,"lon":5.38097,"is_reserved":false,"is_disabled":false,"rental_uris":{"android":"levelo://app?vid=3e94c699-8c53-437d-b7f2-14d3ea381ded","ios":"levelo://app?vid=3e94c699-8c53-437d-b7f2-14d3ea381ded"},"vehicle_type_id":"4","last_reported":1777499443,"current_range_meters":3200,"station_id":"ce4bgip2rcd13ifvqbb0","pricing_plan_id":"cebpf4jnsgd1na2vs0mg"},{"bike_id":"43fdb549-43c4-4e83-9216-7de77072648d","system_id":"levelo_inurba_marseille","lat":43.29272,"lon":5.38362,"is_reserved":false,"is_disabled":false,"rental_uris":{"android":"levelo://app?vid=43fdb549-43c4-4e83-9216-7de77072648d","ios":"levelo://app?vid=43fdb549-43c4-4e83-9216-7de77072648d"},"vehicle_type_id":"4","last_reported":1777499443,"current_range_meters":3200,"station_id":"","pricing_plan_id":"cebpf4jnsgd1na2vs0mg"},{"bike_id":"1c28d351-cb39-469d-9299-02130efdbcdd","system_id":"levelo_inurba_marseille","lat":43.28431,"lon":5.34971,"is_reserved":false,"is_disabled":true,"rental_uris":{"android":"levelo://app?vid=1c28d351-cb39-469d-9299-02130efdbcdd","ios":"levelo://app?vid=1c28d351-cb39-469d-9299-02130efdbcdd"},"vehicle_type_id":"4","last_reported":1777499443,"current_range_meters":3200,"station_id":"ce4bhbh2rcd13ifvqepg","pricing_plan_id":"cebpf4jnsgd1na2vs0mg"},{"bike_id":"823582b1-712b-4b3d-bfc0-decb360d1ce3","system_id":"levelo_inurba_marseille","lat":43.28937,"lon":5.39631,"is_reserved":false,"is_disabled":false,"rental_uris":{"android":"levelo://app?vid=823582b1-712b-4b3d-bfc0-decb360d1ce3","ios":"levelo://app?vid=823582b1-712b-4b3d-bfc0-decb360d1ce3"},"vehicle_type_id":"4","last_reported":1777499443,"current_range_meters":3200,"station_id":"ce4bh3h2rcd13ifvqdn0","pricing_plan_id":"cebpf4jnsgd1na2vs0mg"},{"bike_id":"b9c0ca4a-61af-4a0b-994f-7b554a71a91c","system_id":"levelo_inurba_marseille","lat":43.32349,"lon":5.36711,"is_reserved":false,"is_disabled":false,"rental_uris":{"android":"levelo://app?vid=b9c0ca4a-61af-4a0b-994f-7b554a71a91c","ios":"levelo://app?vid=b9c0ca4a-61af-4a0b-994f-7b554a71a91c"},"vehicle_type_id":"4","last_reported":1777499443,"current_range_meters":3600,"station_id":"ce4bhsh2rcd13ifvqi2g","pricing_plan_id":"cebpf4jnsgd1na2vs0mg"},{"bike_id":"145c254e-4088-4fef-87dc-d9bee17d760f","system_id":"levelo_inurba_marseille","lat":43.32103,"lon":5.36774,"is_reserved":false,"is_disabled":false,"rental_uris":{"android":"levelo://app?vid=145c254e-4088-4fef-87dc-d9bee17d760f","ios":"levelo://app?vid=145c254e-4088-4fef-87dc-d9bee17d760f"},"vehicle_type_id":"4","last_reported":1777499443,"current_range_meters":3600,"station_id":"ce4bhrh2rcd13ifvqhug","pricing_plan_id":"cebpf4jnsgd1na2vs0mg"},{"bike_id":"7c306abb-d894-415b-b8cd-272cb8d0a2c7","system_id":"levelo_inurba_marseille","lat":43.28423,"lon":5.37504,"is_reserved":false,"is_disabled":false,"rental_uris":{"android":"levelo://app?vid=7c306abb-d894-415b-b8cd-272cb8d0a2c7","ios":"levelo://app?vid=7c306abb-d894-415b-b8cd-272cb8d0a2c7"},"vehicle_type_id":"4","last_reported":1777499443,"current_range_meters":3600,"station_id":"ce4bh412rcd13ifvqds0","pricing_plan_id":"cebpf4jnsgd1na2vs0mg"},{"bike_id":"edccdd1d-648f-4871-92e6-8ea165d5b8a0","system_id":"levelo_inurba_marseille","lat":43.29523,"lon":5.39029,"is_reserved":false,"is_disabled":false,"rental_uris":{"android":"levelo://app?vid=edccdd1d-648f-4871-92e6-8ea165d5b8a0","ios":"levelo://app?vid=edccdd1d-648f-4871-92e6-8ea165d5b8a0"},"vehicle_type_id":"4","last_reported":1777499443,"current_range_meters":3600,"station_id":"ce4bh3p2rcd13ifvqdp0","pricing_plan_id":"cebpf4jnsgd1na2vs0mg"},{"bike_id":"1db34559-bc22-4688-95be-9fc0333390e7","system_id":"levelo_inurba_marseille","lat":43.29066,"lon":5.36569,"is_reserved":false,"is_disabled":false,"rental_uris":{"android":"levelo://app?vid=1db34559-bc22-4688-95be-9fc0333390e7","ios":"levelo://app?vid=1db34559-bc22-4688-95be-9fc0333390e7"},"vehicle_type_id":"4","last_reported":1777499443,"current_range_meters":3600,"station_id":"","pricing_plan_id":"cebpf4jnsgd1na2vs0mg"},{"bike_id":"d4e98318-0a58-42ab-afd3-b4c37e5f6909","system_id":"levelo_inurba_marseille","lat":43.27202,"lon":5.39166,"is_reserved":false,"is_disabled":false,"rental_uris":{"android":"levelo://app?vid=d4e98318-0a58-42ab-afd3-b4c37e5f6909","ios":"levelo://app?vid=d4e98318-0a58-42ab-afd3-b4c37e5f6909"},"vehicle_type_id":"4","last_reported":1777499443,"current_range_meters":3600,"station_id":"ce4bhhp2rcd13ifvqfm0","pricing_plan_id":"cebpf4jnsgd1na2vs0mg"},{"bike_id":"32ce4a48-baf2-48fe-a472-5404969ae354","system_id":"levelo_inurba_marseille","lat":43.29875,"lon":5.38905,"is_reserved":false,"is_disabled":false,"rental_uris":{"android":"levelo://app?vid=32ce4a48-baf2-48fe-a472-5404969ae354","ios":"levelo://app?vid=32ce4a48-baf2-48fe-a472-5404969ae354"},"vehicle_type_id":"4","last_reported":1777499443,"current_range_meters":3600,"station_id":"ce4bh392rcd13ifvqdl0","pricing_plan_id":"cebpf4jnsgd1na2vs0mg"},{"bike_id":"acfc0e43-1a51-4b9a-a7c7-c9f954f74d05","system_id":"levelo_inurba_marseille","lat":43.28987,"lon":5.39977,"is_reserved":false,"is_disabled":false,"rental_uris":{"android":"levelo://app?vid=acfc0e43-1a51-4b9a-a7c7-c9f954f74d05","ios":"levelo://app?vid=acfc0e43-1a51-4b9a-a7c7-c9f954f74d05"},"vehicle_type_id":"4","last_reported":1777499443,"current_range_meters":3600,"station_id":"","pricing_plan_id":"cebpf4jnsgd1na2vs0mg"},{"bike_id":"6ce1fbf6-aa33-457e-92f8-add9d9043d49","system_id":"levelo_inurba_marseille","lat":43.28089,"lon":5.38207,"is_reserved":false,"is_disabled":false,"rental_uris":{"android":"levelo://app?vid=6ce1fbf6-aa33-457e-92f8-add9d9043d49","ios":"levelo://app?vid=6ce1fbf6-aa33-457e-92f8-add9d9043d49"},"vehicle_type_id":"4","last_reported":1777499443,"current_range_meters":3600,"station_id":"","pricing_plan_id":"cebpf4jnsgd1na2vs0mg"},{"bike_id":"6d0408bc-f208-412f-a620-7cffe9a9d99d","system_id":"levelo_inurba_marseille","lat":43.30438,"lon":5.39741,"is_reserved":false,"is_disabled":false,"rental_uris":{"android":"levelo://app?vid=6d0408bc-f208-412f-a620-7cffe9a9d99d","ios":"levelo://app?vid=6d0408bc-f208-412f-a620-7cffe9a9d99d"},"vehicle_type_id":"4","last_reported":1777499443,"current_range_meters":3600,"station_id":"ce4bh092rcd13ifvqd20","pricing_plan_id":"cebpf4jnsgd1na2vs0mg"},{"bike_id":"0b661933-8573-4b22-af13-69629e77b293","system_id":"levelo_inurba_marseille","lat":43.30229,"lon":5.40465,"is_reserved":false,"is_disabled":false,"rental_uris":{"android":"levelo://app?vid=0b661933-8573-4b22-af13-69629e77b293","ios":"levelo://app?vid=0b661933-8573-4b22-af13-69629e77b293"},"vehicle_type_id":"4","last_reported":1777499443,"current_range_meters":3600,"station_id":"","pricing_plan_id":"cebpf4jnsgd1na2vs0mg"},{"bike_id":"b1497ecf-414c-4eb9-b8f7-fc818654f846","system_id":"levelo_inurba_marseille","lat":43.29796,"lon":5.3811,"is_reserved":false,"is_disabled":false,"rental_uris":{"android":"levelo://app?vid=b1497ecf-414c-4eb9-b8f7-fc818654f846","ios":"levelo://app?vid=b1497ecf-414c-4eb9-b8f7-fc818654f846"},"vehicle_type_id":"4","last_reported":1777499443,"current_range_meters":3600,"station_id":"ce4bgip2rcd13ifvqbb0","pricing_plan_id":"cebpf4jnsgd1na2vs0mg"},{"bike_id":"4efd232b-ef39-490c-93c2-48999f105f2e","system_id":"levelo_inurba_marseille","lat":43.24691,"lon":5.40093,"is_reserved":false,"is_disabled":false,"rental_uris":{"android":"levelo://app?vid=4efd232b-ef39-490c-93c2-48999f105f2e","ios":"levelo://app?vid=4efd232b-ef39-490c-93c2-48999f105f2e"},"vehicle_type_id":"4","last_reported":1777499443,"current_range_meters":3600,"station_id":"","pricing_plan_id":"cebpf4jnsgd1na2vs0mg"},{"bike_id":"7e03833e-cf2c-47f8-9d51-99216df07041","system_id":"levelo_inurba_marseille","lat":43.2923,"lon":5.36076,"is_reserved":false,"is_disabled":false,"rental_uris":{"android":"levelo://app?vid=7e03833e-cf2c-47f8-9d51-99216df07041","ios":"levelo://app?vid=7e03833e-cf2c-47f8-9d51-99216df07041"},"vehicle_type_id":"4","last_reported":1777499443,"current_range_meters":3600,"station_id":"ce4bhbh2rcd13ifvqeqg","pricing_plan_id":"cebpf4jnsgd1na2vs0mg"},{"bike_id":"1d78446e-045e-4762-9c7d-382930134a83","system_id":"levelo_inurba_marseille","lat":43.24822,"lon":5.37433,"is_reserved":false,"is_disabled":false,"rental_uris":{"android":"levelo://app?vid=1d78446e-045e-4762-9c7d-382930134a83","ios":"levelo://app?vid=1d78446e-045e-4762-9c7d-382930134a83"},"vehicle_type_id":"4","last_reported":1777499443,"current_range_meters":3600,"station_id":"ce4bhgh2rcd13ifvqfb0","pricing_plan_id":"cebpf4jnsgd1na2vs0mg"},{"bike_id":"5dcad831-c798-4f57-862e-8847ba27791f","system_id":"levelo_inurba_marseille","lat":43.28107,"lon":5.37848,"is_reserved":false,"is_disabled":false,"rental_uris":{"android":"levelo://app?vid=5dcad831-c798-4f57-862e-8847ba27791f","ios":"levelo://app?vid=5dcad831-c798-4f57-862e-8847ba27791f"},"vehicle_type_id":"4","last_reported":1777499443,"current_range_meters":3600,"station_id":"ce4bha12rcd13ifvqee0","pricing_plan_id":"cebpf4jnsgd1na2vs0mg"},{"bike_id":"c53b0575-4201-44a3-8e35-94bea536841a","system_id":"levelo_inurba_marseille","lat":43.29724,"lon":5.37701,"is_reserved":false,"is_disabled":true,"rental_uris":{"android":"levelo://app?vid=c53b0575-4201-44a3-8e35-94bea536841a","ios":"levelo://app?vid=c53b0575-4201-44a3-8e35-94bea536841a"},"vehicle_type_id":"4","last_reported":1777499443,"current_range_meters":4000,"station_id":"ce4bgkh2rcd13ifvqbl0","pricing_plan_id":"cebpf4jnsgd1na2vs0mg"},{"bike_id":"c4932f5a-867e-4991-9b71-bc80069f4e17","system_id":"levelo_inurba_marseille","lat":43.28663,"lon":5.36352,"is_reserved":false,"is_disabled":false,"rental_uris":{"android":"levelo://app?vid=c4932f5a-867e-4991-9b71-bc80069f4e17","ios":"levelo://app?vid=c4932f5a-867e-4991-9b71-bc80069f4e17"},"vehicle_type_id":"4","last_reported":1777499443,"current_range_meters":4000,"station_id":"ce4bhah2rcd13ifvqej0","pricing_plan_id":"cebpf4jnsgd1na2vs0mg"},{"bike_id":"21fa33d0-28a0-4e0a-9999-8d9d767ac49c","system_id":"levelo_inurba_marseille","lat":43.27052,"lon":5.38632,"is_reserved":false,"is_disabled":false,"rental_uris":{"android":"levelo://app?vid=21fa33d0-28a0-4e0a-9999-8d9d767ac49c","ios":"levelo://app?vid=21fa33d0-28a0-4e0a-9999-8d9d767ac49c"},"vehicle_type_id":"4","last_reported":1777499443,"current_range_meters":4000,"station_id":"","pricing_plan_id":"cebpf4jnsgd1na2vs0mg"},{"bike_id":"e56c1985-fff4-4847-ac92-fee4e7183c40","system_id":"levelo_inurba_marseille","lat":43.32309,"lon":5.38281,"is_reserved":false,"is_disabled":false,"rental_uris":{"android":"levelo://app?vid=e56c1985-fff4-4847-ac92-fee4e7183c40","ios":"levelo://app?vid=e56c1985-fff4-4847-ac92-fee4e7183c40"},"vehicle_type_id":"4","last_reported":1777499443,"current_range_meters":4000,"station_id":"ce4bhr12rcd13ifvqhqg","pricing_plan_id":"cebpf4jnsgd1na2vs0mg"},{"bike_id":"cd452882-a937-4a2c-9850-74f221b58528","system_id":"levelo_inurba_marseille","lat":43.30259,"lon":5.40063,"is_reserved":false,"is_disabled":false,"rental_uris":{"android":"levelo://app?vid=cd452882-a937-4a2c-9850-74f221b58528","ios":"levelo://app?vid=cd452882-a937-4a2c-9850-74f221b58528"},"vehicle_type_id":"4","last_reported":1777499443,"current_range_meters":4000,"station_id":"ce4bgvh2rcd13ifvqcs0","pricing_plan_id":"cebpf4jnsgd1na2vs0mg"},{"bike_id":"ef3a68ef-5b94-411a-921f-f7cda00ffdfc","system_id":"levelo_inurba_marseille","lat":43.29479,"lon":5.39022,"is_reserved":false,"is_disabled":false,"rental_uris":{"android":"levelo://app?vid=ef3a68ef-5b94-411a-921f-f7cda00ffdfc","ios":"levelo://app?vid=ef3a68ef-5b94-411a-921f-f7cda00ffdfc"},"vehicle_type_id":"4","last_reported":1777499443,"current_range_meters":4000,"station_id":"ce4bh3p2rcd13ifvqdp0","pricing_plan_id":"cebpf4jnsgd1na2vs0mg"},{"bike_id":"da0349b2-4622-4334-9b40-81111cf2be05","system_id":"levelo_inurba_marseille","lat":43.3154,"lon":5.38042,"is_reserved":false,"is_disabled":false,"rental_uris":{"android":"levelo://app?vid=da0349b2-4622-4334-9b40-81111cf2be05","ios":"levelo://app?vid=da0349b2-4622-4334-9b40-81111cf2be05"},"vehicle_type_id":"4","last_reported":1777499443,"current_range_meters":4400,"station_id":"ce4bhsp2rcd13ifvqi50","pricing_plan_id":"cebpf4jnsgd1na2vs0mg"},{"bike_id":"5a0e82d9-007a-4ab6-99a8-1c3937c52dee","system_id":"levelo_inurba_marseille","lat":43.31894,"lon":5.36823,"is_reserved":false,"is_disabled":false,"rental_uris":{"android":"levelo://app?vid=5a0e82d9-007a-4ab6-99a8-1c3937c52dee","ios":"levelo://app?vid=5a0e82d9-007a-4ab6-99a8-1c3937c52dee"},"vehicle_type_id":"4","last_reported":1777499443,"current_range_meters":4400,"station_id":"st_d6o2h0d0559c73evc1b0","pricing_plan_id":"cebpf4jnsgd1na2vs0mg"},{"bike_id":"392cee7e-dd43-45e6-9f15-545701048377","system_id":"levelo_inurba_marseille","lat":43.27199,"lon":5.39178,"is_reserved":false,"is_disabled":false,"rental_uris":{"android":"levelo://app?vid=392cee7e-dd43-45e6-9f15-545701048377","ios":"levelo://app?vid=392cee7e-dd43-45e6-9f15-545701048377"},"vehicle_type_id":"4","last_reported":1777499443,"current_range_meters":4400,"station_id":"ce4bhhp2rcd13ifvqfm0","pricing_plan_id":"cebpf4jnsgd1na2vs0mg"},{"bike_id":"99ab8265-e128-4005-99d8-70021ca8b0fe","system_id":"levelo_inurba_marseille","lat":43.295208,"lon":5.394003,"is_reserved":false,"is_disabled":false,"rental_uris":{"android":"levelo://app?vid=99ab8265-e128-4005-99d8-70021ca8b0fe","ios":"levelo://app?vid=99ab8265-e128-4005-99d8-70021ca8b0fe"},"vehicle_type_id":"4","last_reported":1777499443,"current_range_meters":4400,"station_id":"ce4bh292rcd13ifvqdf0","pricing_plan_id":"cebpf4jnsgd1na2vs0mg"},{"bike_id":"ff4152af-18c8-411e-a459-6b385583029b","system_id":"levelo_inurba_marseille","lat":43.30887,"lon":5.39641,"is_reserved":false,"is_disabled":false,"rental_uris":{"android":"levelo://app?vid=ff4152af-18c8-411e-a459-6b385583029b","ios":"levelo://app?vid=ff4152af-18c8-411e-a459-6b385583029b"},"vehicle_type_id":"4","last_reported":1777499443,"current_range_meters":4400,"station_id":"ce4bh012rcd13ifvqcv0","pricing_plan_id":"cebpf4jnsgd1na2vs0mg"},{"bike_id":"cd5fa923-7cad-4362-80bd-a901b52e8500","system_id":"levelo_inurba_marseille","lat":43.27985,"lon":5.41663,"is_reserved":false,"is_disabled":false,"rental_uris":{"android":"levelo://app?vid=cd5fa923-7cad-4362-80bd-a901b52e8500","ios":"levelo://app?vid=cd5fa923-7cad-4362-80bd-a901b52e8500"},"vehicle_type_id":"4","last_reported":1777499443,"current_range_meters":4400,"station_id":"ce4bho12rcd13ifvqh1g","pricing_plan_id":"cebpf4jnsgd1na2vs0mg"},{"bike_id":"857100cb-01bf-4b1a-a137-d994308ad307","system_id":"levelo_inurba_marseille","lat":43.29523,"lon":5.39026,"is_reserved":false,"is_disabled":false,"rental_uris":{"android":"levelo://app?vid=857100cb-01bf-4b1a-a137-d994308ad307","ios":"levelo://app?vid=857100cb-01bf-4b1a-a137-d994308ad307"},"vehicle_type_id":"4","last_reported":1777499443,"current_range_meters":4400,"station_id":"ce4bh3p2rcd13ifvqdp0","pricing_plan_id":"cebpf4jnsgd1na2vs0mg"},{"bike_id":"e03a9553-f014-4591-84d1-bb481db182e5","system_id":"levelo_inurba_marseille","lat":43.28701,"lon":5.46686,"is_reserved":false,"is_disabled":false,"rental_uris":{"android":"levelo://app?vid=e03a9553-f014-4591-84d1-bb481db182e5","ios":"levelo://app?vid=e03a9553-f014-4591-84d1-bb481db182e5"},"vehicle_type_id":"4","last_reported":1777499443,"current_range_meters":4400,"station_id":"st_d6tc3vkotcvc738tfjhg","pricing_plan_id":"cebpf4jnsgd1na2vs0mg"},{"bike_id":"ea26fbb8-1fe9-45fd-86a8-020ce9ce5f0e","system_id":"levelo_inurba_marseille","lat":43.27103,"lon":5.39138,"is_reserved":false,"is_disabled":false,"rental_uris":{"android":"levelo://app?vid=ea26fbb8-1fe9-45fd-86a8-020ce9ce5f0e","ios":"levelo://app?vid=ea26fbb8-1fe9-45fd-86a8-020ce9ce5f0e"},"vehicle_type_id":"4","last_reported":1777499443,"current_range_meters":4400,"station_id":"","pricing_plan_id":"cebpf4jnsgd1na2vs0mg"},{"bike_id":"f11e3633-986d-40f4-8b5f-6b5e41220dfc","system_id":"levelo_inurba_marseille","lat":43.319,"lon":5.36818,"is_reserved":false,"is_disabled":false,"rental_uris":{"android":"levelo://app?vid=f11e3633-986d-40f4-8b5f-6b5e41220dfc","ios":"levelo://app?vid=f11e3633-986d-40f4-8b5f-6b5e41220dfc"},"vehicle_type_id":"4","last_reported":1777499443,"current_range_meters":4400,"station_id":"st_d6o2h0d0559c73evc1b0","pricing_plan_id":"cebpf4jnsgd1na2vs0mg"},{"bike_id":"1132fbdf-d3e2-4de2-bcb2-c2fe9eae3094","system_id":"levelo_inurba_marseille","lat":43.28082,"lon":5.39666,"is_reserved":false,"is_disabled":false,"rental_uris":{"android":"levelo://app?vid=1132fbdf-d3e2-4de2-bcb2-c2fe9eae3094","ios":"levelo://app?vid=1132fbdf-d3e2-4de2-bcb2-c2fe9eae3094"},"vehicle_type_id":"4","last_reported":1777499443,"current_range_meters":4400,"station_id":"ce4bho12rcd13ifvqh2g","pricing_plan_id":"cebpf4jnsgd1na2vs0mg"},{"bike_id":"f0398846-44e6-4cbc-b3e8-b01250712719","system_id":"levelo_inurba_marseille","lat":43.28664,"lon":5.36332,"is_reserved":false,"is_disabled":false,"rental_uris":{"android":"levelo://app?vid=f0398846-44e6-4cbc-b3e8-b01250712719","ios":"levelo://app?vid=f0398846-44e6-4cbc-b3e8-b01250712719"},"vehicle_type_id":"4","last_reported":1777499443,"current_range_meters":4400,"station_id":"ce4bhah2rcd13ifvqej0","pricing_plan_id":"cebpf4jnsgd1na2vs0mg"},{"bike_id":"a9932caa-e714-4a5b-8d31-eb6a95ff627b","system_id":"levelo_inurba_marseille","lat":43.28107,"lon":5.37829,"is_reserved":false,"is_disabled":false,"rental_uris":{"android":"levelo://app?vid=a9932caa-e714-4a5b-8d31-eb6a95ff627b","ios":"levelo://app?vid=a9932caa-e714-4a5b-8d31-eb6a95ff627b"},"vehicle_type_id":"4","last_reported":1777499443,"current_range_meters":4400,"station_id":"ce4bha12rcd13ifvqee0","pricing_plan_id":"cebpf4jnsgd1na2vs0mg"},{"bike_id":"ea36c9e8-58b8-4f79-a3ce-b396281d3b24","system_id":"levelo_inurba_marseille","lat":43.305074,"lon":5.380769,"is_reserved":false,"is_disabled":false,"rental_uris":{"android":"levelo://app?vid=ea36c9e8-58b8-4f79-a3ce-b396281d3b24","ios":"levelo://app?vid=ea36c9e8-58b8-4f79-a3ce-b396281d3b24"},"vehicle_type_id":"4","last_reported":1777499443,"current_range_meters":4400,"station_id":"","pricing_plan_id":"cebpf4jnsgd1na2vs0mg"},{"bike_id":"797fe398-0e88-4021-aa34-08f74073a77e","system_id":"levelo_inurba_marseille","lat":43.2953,"lon":5.39031,"is_reserved":false,"is_disabled":false,"rental_uris":{"android":"levelo://app?vid=797fe398-0e88-4021-aa34-08f74073a77e","ios":"levelo://app?vid=797fe398-0e88-4021-aa34-08f74073a77e"},"vehicle_type_id":"4","last_reported":1777499443,"current_range_meters":4400,"station_id":"ce4bh3p2rcd13ifvqdp0","pricing_plan_id":"cebpf4jnsgd1na2vs0mg"},{"bike_id":"de127ff3-4dbd-40a5-926e-7a6862dbaee1","system_id":"levelo_inurba_marseille","lat":43.24475,"lon":5.42529,"is_reserved":false,"is_disabled":false,"rental_uris":{"android":"levelo://app?vid=de127ff3-4dbd-40a5-926e-7a6862dbaee1","ios":"levelo://app?vid=de127ff3-4dbd-40a5-926e-7a6862dbaee1"},"vehicle_type_id":"4","last_reported":1777499443,"current_range_meters":4800,"station_id":"st_d4a3vfp97mjs738cd8kg","pricing_plan_id":"cebpf4jnsgd1na2vs0mg"},{"bike_id":"d95faafa-3229-49af-ac36-99c740ad799d","system_id":"levelo_inurba_marseille","lat":43.29536,"lon":5.38998,"is_reserved":false,"is_disabled":false,"rental_uris":{"android":"levelo://app?vid=d95faafa-3229-49af-ac36-99c740ad799d","ios":"levelo://app?vid=d95faafa-3229-49af-ac36-99c740ad799d"},"vehicle_type_id":"4","last_reported":1777499443,"current_range_meters":4800,"station_id":"ce4bh3p2rcd13ifvqdp0","pricing_plan_id":"cebpf4jnsgd1na2vs0mg"},{"bike_id":"d4d191c1-1e42-44ce-acaa-f4fdd3a7ce8e","system_id":"levelo_inurba_marseille","lat":43.28524,"lon":5.38507,"is_reserved":false,"is_disabled":false,"rental_uris":{"android":"levelo://app?vid=d4d191c1-1e42-44ce-acaa-f4fdd3a7ce8e","ios":"levelo://app?vid=d4d191c1-1e42-44ce-acaa-f4fdd3a7ce8e"},"vehicle_type_id":"4","last_reported":1777499443,"current_range_meters":4800,"station_id":"","pricing_plan_id":"cebpf4jnsgd1na2vs0mg"},{"bike_id":"83a82950-3efb-4a04-9eb7-13259ab970cf","system_id":"levelo_inurba_marseille","lat":43.28482,"lon":5.35885,"is_reserved":false,"is_disabled":false,"rental_uris":{"android":"levelo://app?vid=83a82950-3efb-4a04-9eb7-13259ab970cf","ios":"levelo://app?vid=83a82950-3efb-4a04-9eb7-13259ab970cf"},"vehicle_type_id":"4","last_reported":1777499443,"current_range_meters":4800,"station_id":"ce4bhah2rcd13ifvqei0","pricing_plan_id":"cebpf4jnsgd1na2vs0mg"},{"bike_id":"c221a120-8e98-40bd-8495-75f882903dd5","system_id":"levelo_inurba_marseille","lat":43.31987,"lon":5.38139,"is_reserved":false,"is_disabled":false,"rental_uris":{"android":"levelo://app?vid=c221a120-8e98-40bd-8495-75f882903dd5","ios":"levelo://app?vid=c221a120-8e98-40bd-8495-75f882903dd5"},"vehicle_type_id":"4","last_reported":1777499443,"current_range_meters":4800,"station_id":"ce4bhr12rcd13ifvqhpg","pricing_plan_id":"cebpf4jnsgd1na2vs0mg"},{"bike_id":"f6dce53f-7018-47f9-bfd2-251ba4be96ae","system_id":"levelo_inurba_marseille","lat":43.26377,"lon":5.41072,"is_reserved":false,"is_disabled":false,"rental_uris":{"android":"levelo://app?vid=f6dce53f-7018-47f9-bfd2-251ba4be96ae","ios":"levelo://app?vid=f6dce53f-7018-47f9-bfd2-251ba4be96ae"},"vehicle_type_id":"4","last_reported":1777499443,"current_range_meters":4800,"station_id":"st_d4e5ca6na9uc73bfl5fg","pricing_plan_id":"cebpf4jnsgd1na2vs0mg"},{"bike_id":"24ece96c-de68-44c6-8cd2-ca134b921b67","system_id":"levelo_inurba_marseille","lat":43.29228,"lon":5.3929,"is_reserved":false,"is_disabled":false,"rental_uris":{"android":"levelo://app?vid=24ece96c-de68-44c6-8cd2-ca134b921b67","ios":"levelo://app?vid=24ece96c-de68-44c6-8cd2-ca134b921b67"},"vehicle_type_id":"4","last_reported":1777499443,"current_range_meters":4800,"station_id":"ce4bh192rcd13ifvqdd0","pricing_plan_id":"cebpf4jnsgd1na2vs0mg"},{"bike_id":"7bd770c4-4531-4c57-a651-ffa6ac060caa","system_id":"levelo_inurba_marseille","lat":43.27562,"lon":5.38402,"is_reserved":false,"is_disabled":false,"rental_uris":{"android":"levelo://app?vid=7bd770c4-4531-4c57-a651-ffa6ac060caa","ios":"levelo://app?vid=7bd770c4-4531-4c57-a651-ffa6ac060caa"},"vehicle_type_id":"4","last_reported":1777499443,"current_range_meters":4800,"station_id":"ce4bhh92rcd13ifvqfi0","pricing_plan_id":"cebpf4jnsgd1na2vs0mg"},{"bike_id":"36a88428-e754-4363-93d1-89cd7a8e2550","system_id":"levelo_inurba_marseille","lat":43.29205,"lon":5.38601,"is_reserved":false,"is_disabled":false,"rental_uris":{"android":"levelo://app?vid=36a88428-e754-4363-93d1-89cd7a8e2550","ios":"levelo://app?vid=36a88428-e754-4363-93d1-89cd7a8e2550"},"vehicle_type_id":"4","last_reported":1777499443,"current_range_meters":4800,"station_id":"","pricing_plan_id":"cebpf4jnsgd1na2vs0mg"},{"bike_id":"cdecdba8-0440-4e27-8f88-2f26c7919ff8","system_id":"levelo_inurba_marseille","lat":43.2851,"lon":5.37134,"is_reserved":false,"is_disabled":false,"rental_uris":{"android":"levelo://app?vid=cdecdba8-0440-4e27-8f88-2f26c7919ff8","ios":"levelo://app?vid=cdecdba8-0440-4e27-8f88-2f26c7919ff8"},"vehicle_type_id":"4","last_reported":1777499443,"current_range_meters":4800,"station_id":"","pricing_plan_id":"cebpf4jnsgd1na2vs0mg"},{"bike_id":"5f4360fa-9be3-4759-a27f-c7197cedd7e1","system_id":"levelo_inurba_marseille","lat":43.29792,"lon":5.39849,"is_reserved":false,"is_disabled":false,"rental_uris":{"android":"levelo://app?vid=5f4360fa-9be3-4759-a27f-c7197cedd7e1","ios":"levelo://app?vid=5f4360fa-9be3-4759-a27f-c7197cedd7e1"},"vehicle_type_id":"4","last_reported":1777499443,"current_range_meters":4800,"station_id":"","pricing_plan_id":"cebpf4jnsgd1na2vs0mg"},{"bike_id":"92f3985c-2c50-4589-a4e5-b365bc0828db","system_id":"levelo_inurba_marseille","lat":43.27202,"lon":5.40964,"is_reserved":false,"is_disabled":false,"rental_uris":{"android":"levelo://app?vid=92f3985c-2c50-4589-a4e5-b365bc0828db","ios":"levelo://app?vid=92f3985c-2c50-4589-a4e5-b365bc0828db"},"vehicle_type_id":"4","last_reported":1777499443,"current_range_meters":4800,"station_id":"ce4bhl12rcd13ifvqgf0","pricing_plan_id":"cebpf4jnsgd1na2vs0mg"},{"bike_id":"c393576f-dc7e-40b1-876f-3c25a664dd5f","system_id":"levelo_inurba_marseille","lat":43.32113,"lon":5.3679,"is_reserved":false,"is_disabled":false,"rental_uris":{"android":"levelo://app?vid=c393576f-dc7e-40b1-876f-3c25a664dd5f","ios":"levelo://app?vid=c393576f-dc7e-40b1-876f-3c25a664dd5f"},"vehicle_type_id":"4","last_reported":1777499443,"current_range_meters":4800,"station_id":"ce4bhrh2rcd13ifvqhug","pricing_plan_id":"cebpf4jnsgd1na2vs0mg"},{"bike_id":"fc2bd838-71b1-45c3-a0a7-44fcf685e7c1","system_id":"levelo_inurba_marseille","lat":43.29546,"lon":5.38545,"is_reserved":false,"is_disabled":false,"rental_uris":{"android":"levelo://app?vid=fc2bd838-71b1-45c3-a0a7-44fcf685e7c1","ios":"levelo://app?vid=fc2bd838-71b1-45c3-a0a7-44fcf685e7c1"},"vehicle_type_id":"4","last_reported":1777499443,"current_range_meters":4800,"station_id":"ce4bgih2rcd13ifvqba0","pricing_plan_id":"cebpf4jnsgd1na2vs0mg"},{"bike_id":"c46d8a22-772b-40f4-a01d-512476bc1bbf","system_id":"levelo_inurba_marseille","lat":43.24953,"lon":5.40498,"is_reserved":false,"is_disabled":false,"rental_uris":{"android":"levelo://app?vid=c46d8a22-772b-40f4-a01d-512476bc1bbf","ios":"levelo://app?vid=c46d8a22-772b-40f4-a01d-512476bc1bbf"},"vehicle_type_id":"4","last_reported":1777499443,"current_range_meters":4800,"station_id":"st_d2ngiaodas8pm72gd1h0","pricing_plan_id":"cebpf4jnsgd1na2vs0mg"},{"bike_id":"0b68c8dc-741a-48da-823d-02ffd3bef2ee","system_id":"levelo_inurba_marseille","lat":43.31281,"lon":5.40165,"is_reserved":false,"is_disabled":false,"rental_uris":{"android":"levelo://app?vid=0b68c8dc-741a-48da-823d-02ffd3bef2ee","ios":"levelo://app?vid=0b68c8dc-741a-48da-823d-02ffd3bef2ee"},"vehicle_type_id":"4","last_reported":1777499443,"current_range_meters":4800,"station_id":"ce4bh092rcd13ifvqd30","pricing_plan_id":"cebpf4jnsgd1na2vs0mg"},{"bike_id":"34f79ee3-0315-4628-b92d-415ca46576e9","system_id":"levelo_inurba_marseille","lat":43.24669,"lon":5.38163,"is_reserved":false,"is_disabled":false,"rental_uris":{"android":"levelo://app?vid=34f79ee3-0315-4628-b92d-415ca46576e9","ios":"levelo://app?vid=34f79ee3-0315-4628-b92d-415ca46576e9"},"vehicle_type_id":"4","last_reported":1777499443,"current_range_meters":4800,"station_id":"ce4bhih2rcd13ifvqfr0","pricing_plan_id":"cebpf4jnsgd1na2vs0mg"},{"bike_id":"736f5d6a-fb48-49c1-a247-178d6748c12c","system_id":"levelo_inurba_marseille","lat":43.30791,"lon":5.37652,"is_reserved":false,"is_disabled":false,"rental_uris":{"android":"levelo://app?vid=736f5d6a-fb48-49c1-a247-178d6748c12c","ios":"levelo://app?vid=736f5d6a-fb48-49c1-a247-178d6748c12c"},"vehicle_type_id":"4","last_reported":1777499443,"current_range_meters":4800,"station_id":"ce4bgv92rcd13ifvqcq0","pricing_plan_id":"cebpf4jnsgd1na2vs0mg"},{"bike_id":"55bac593-352e-4642-8639-19fe2b8d6c00","system_id":"levelo_inurba_marseille","lat":43.27647,"lon":5.35809,"is_reserved":false,"is_disabled":false,"rental_uris":{"android":"levelo://app?vid=55bac593-352e-4642-8639-19fe2b8d6c00","ios":"levelo://app?vid=55bac593-352e-4642-8639-19fe2b8d6c00"},"vehicle_type_id":"4","last_reported":1777499443,"current_range_meters":4800,"station_id":"","pricing_plan_id":"cebpf4jnsgd1na2vs0mg"},{"bike_id":"39c090b7-9a74-4e0c-add2-1000b75cfa22","system_id":"levelo_inurba_marseille","lat":43.25827,"lon":5.39442,"is_reserved":false,"is_disabled":false,"rental_uris":{"android":"levelo://app?vid=39c090b7-9a74-4e0c-add2-1000b75cfa22","ios":"levelo://app?vid=39c090b7-9a74-4e0c-add2-1000b75cfa22"},"vehicle_type_id":"4","last_reported":1777499443,"current_range_meters":4800,"station_id":"ce4bhip2rcd13ifvqft0","pricing_plan_id":"cebpf4jnsgd1na2vs0mg"},{"bike_id":"4a6e6396-5ef9-4e02-befe-28d9d3170066","system_id":"levelo_inurba_marseille","lat":43.31126,"lon":5.37754,"is_reserved":false,"is_disabled":false,"rental_uris":{"android":"levelo://app?vid=4a6e6396-5ef9-4e02-befe-28d9d3170066","ios":"levelo://app?vid=4a6e6396-5ef9-4e02-befe-28d9d3170066"},"vehicle_type_id":"4","last_reported":1777499443,"current_range_meters":4800,"station_id":"ce4bgt92rcd13ifvqcg0","pricing_plan_id":"cebpf4jnsgd1na2vs0mg"},{"bike_id":"4a73686a-2bbf-42e8-8bbf-53907833fffc","system_id":"levelo_inurba_marseille","lat":43.30944,"lon":5.40139,"is_reserved":false,"is_disabled":false,"rental_uris":{"android":"levelo://app?vid=4a73686a-2bbf-42e8-8bbf-53907833fffc","ios":"levelo://app?vid=4a73686a-2bbf-42e8-8bbf-53907833fffc"},"vehicle_type_id":"4","last_reported":1777499443,"current_range_meters":4800,"station_id":"ce4bgvp2rcd13ifvqct0","pricing_plan_id":"cebpf4jnsgd1na2vs0mg"},{"bike_id":"d7ff4366-a2b4-446e-ba29-d062b2256f1c","system_id":"levelo_inurba_marseille","lat":43.29909,"lon":5.4367,"is_reserved":false,"is_disabled":false,"rental_uris":{"android":"levelo://app?vid=d7ff4366-a2b4-446e-ba29-d062b2256f1c","ios":"levelo://app?vid=d7ff4366-a2b4-446e-ba29-d062b2256f1c"},"vehicle_type_id":"4","last_reported":1777499443,"current_range_meters":4800,"station_id":"ce4bhpp2rcd13ifvqhfg","pricing_plan_id":"cebpf4jnsgd1na2vs0mg"},{"bike_id":"a25b3b45-c83d-4cac-832c-c6baa24c1205","system_id":"levelo_inurba_marseille","lat":43.30731,"lon":5.42435,"is_reserved":false,"is_disabled":false,"rental_uris":{"android":"levelo://app?vid=a25b3b45-c83d-4cac-832c-c6baa24c1205","ios":"levelo://app?vid=a25b3b45-c83d-4cac-832c-c6baa24c1205"},"vehicle_type_id":"4","last_reported":1777499443,"current_range_meters":4800,"station_id":"st_cvj6ca6bvosntc0bfgr0","pricing_plan_id":"cebpf4jnsgd1na2vs0mg"},{"bike_id":"3ca2dceb-a1c9-40c7-94fc-b40af6f37826","system_id":"levelo_inurba_marseille","lat":43.30375,"lon":5.41878,"is_reserved":false,"is_disabled":false,"rental_uris":{"android":"levelo://app?vid=3ca2dceb-a1c9-40c7-94fc-b40af6f37826","ios":"levelo://app?vid=3ca2dceb-a1c9-40c7-94fc-b40af6f37826"},"vehicle_type_id":"4","last_reported":1777499443,"current_range_meters":5600,"station_id":"ce4bhop2rcd13ifvqh7g","pricing_plan_id":"cebpf4jnsgd1na2vs0mg"},{"bike_id":"ca2d4f0a-0400-4230-9f24-b89a8056cf34","system_id":"levelo_inurba_marseille","lat":43.29541,"lon":5.38541,"is_reserved":false,"is_disabled":false,"rental_uris":{"android":"levelo://app?vid=ca2d4f0a-0400-4230-9f24-b89a8056cf34","ios":"levelo://app?vid=ca2d4f0a-0400-4230-9f24-b89a8056cf34"},"vehicle_type_id":"4","last_reported":1777499443,"current_range_meters":5600,"station_id":"ce4bgih2rcd13ifvqba0","pricing_plan_id":"cebpf4jnsgd1na2vs0mg"},{"bike_id":"dcd3e25f-5746-4434-bb90-db714cca926b","system_id":"levelo_inurba_marseille","lat":43.29888,"lon":5.39733,"is_reserved":false,"is_disabled":false,"rental_uris":{"android":"levelo://app?vid=dcd3e25f-5746-4434-bb90-db714cca926b","ios":"levelo://app?vid=dcd3e25f-5746-4434-bb90-db714cca926b"},"vehicle_type_id":"4","last_reported":1777499443,"current_range_meters":5600,"station_id":"ce4bh0h2rcd13ifvqd50","pricing_plan_id":"cebpf4jnsgd1na2vs0mg"},{"bike_id":"94f11d13-a2b0-4f18-a58b-01e14d3c2001","system_id":"levelo_inurba_marseille","lat":43.24054,"lon":5.37688,"is_reserved":false,"is_disabled":true,"rental_uris":{"android":"levelo://app?vid=94f11d13-a2b0-4f18-a58b-01e14d3c2001","ios":"levelo://app?vid=94f11d13-a2b0-4f18-a58b-01e14d3c2001"},"vehicle_type_id":"4","last_reported":1777499443,"current_range_meters":5600,"station_id":"","pricing_plan_id":"cebpf4jnsgd1na2vs0mg"},{"bike_id":"e1d26622-7491-4fdf-a6f0-77cbc7cac2ef","system_id":"levelo_inurba_marseille","lat":43.24165,"lon":5.36403,"is_reserved":false,"is_disabled":false,"rental_uris":{"android":"levelo://app?vid=e1d26622-7491-4fdf-a6f0-77cbc7cac2ef","ios":"levelo://app?vid=e1d26622-7491-4fdf-a6f0-77cbc7cac2ef"},"vehicle_type_id":"4","last_reported":1777499443,"current_range_meters":5600,"station_id":"cpo36qri1sfpv3e86is0","pricing_plan_id":"cebpf4jnsgd1na2vs0mg"},{"bike_id":"a974bb6e-3cdc-4940-872b-960ebbe24e6a","system_id":"levelo_inurba_marseille","lat":43.30425,"lon":5.39739,"is_reserved":false,"is_disabled":false,"rental_uris":{"android":"levelo://app?vid=a974bb6e-3cdc-4940-872b-960ebbe24e6a","ios":"levelo://app?vid=a974bb6e-3cdc-4940-872b-960ebbe24e6a"},"vehicle_type_id":"4","last_reported":1777499443,"current_range_meters":5600,"station_id":"ce4bh092rcd13ifvqd20","pricing_plan_id":"cebpf4jnsgd1na2vs0mg"},{"bike_id":"ffa6519e-3279-44c7-85d8-de7ae8f6a300","system_id":"levelo_inurba_marseille","lat":43.27202,"lon":5.39175,"is_reserved":false,"is_disabled":false,"rental_uris":{"android":"levelo://app?vid=ffa6519e-3279-44c7-85d8-de7ae8f6a300","ios":"levelo://app?vid=ffa6519e-3279-44c7-85d8-de7ae8f6a300"},"vehicle_type_id":"4","last_reported":1777499443,"current_range_meters":5600,"station_id":"ce4bhhp2rcd13ifvqfm0","pricing_plan_id":"cebpf4jnsgd1na2vs0mg"},{"bike_id":"b52ffd43-f0b5-471b-895f-34632dd32259","system_id":"levelo_inurba_marseille","lat":43.2819,"lon":5.39046,"is_reserved":false,"is_disabled":false,"rental_uris":{"android":"levelo://app?vid=b52ffd43-f0b5-471b-895f-34632dd32259","ios":"levelo://app?vid=b52ffd43-f0b5-471b-895f-34632dd32259"},"vehicle_type_id":"4","last_reported":1777499443,"current_range_meters":5600,"station_id":"ce4bhn92rcd13ifvqgsg","pricing_plan_id":"cebpf4jnsgd1na2vs0mg"},{"bike_id":"550b61bf-024e-4f9e-9492-2a8f7afeae1e","system_id":"levelo_inurba_marseille","lat":43.30846,"lon":5.40503,"is_reserved":false,"is_disabled":false,"rental_uris":{"android":"levelo://app?vid=550b61bf-024e-4f9e-9492-2a8f7afeae1e","ios":"levelo://app?vid=550b61bf-024e-4f9e-9492-2a8f7afeae1e"},"vehicle_type_id":"4","last_reported":1777499443,"current_range_meters":5600,"station_id":"","pricing_plan_id":"cebpf4jnsgd1na2vs0mg"},{"bike_id":"2d25c2ef-7361-4b19-8e13-2f3751f3fcdd","system_id":"levelo_inurba_marseille","lat":43.25185,"lon":5.41136,"is_reserved":false,"is_disabled":false,"rental_uris":{"android":"levelo://app?vid=2d25c2ef-7361-4b19-8e13-2f3751f3fcdd","ios":"levelo://app?vid=2d25c2ef-7361-4b19-8e13-2f3751f3fcdd"},"vehicle_type_id":"4","last_reported":1777499443,"current_range_meters":5600,"station_id":"","pricing_plan_id":"cebpf4jnsgd1na2vs0mg"},{"bike_id":"3464860c-c07a-4ed3-98cb-a27ef8e3782e","system_id":"levelo_inurba_marseille","lat":43.29532,"lon":5.38546,"is_reserved":false,"is_disabled":false,"rental_uris":{"android":"levelo://app?vid=3464860c-c07a-4ed3-98cb-a27ef8e3782e","ios":"levelo://app?vid=3464860c-c07a-4ed3-98cb-a27ef8e3782e"},"vehicle_type_id":"4","last_reported":1777499443,"current_range_meters":5600,"station_id":"ce4bgih2rcd13ifvqba0","pricing_plan_id":"cebpf4jnsgd1na2vs0mg"},{"bike_id":"d29eb708-8881-444e-9044-09968ccad5bd","system_id":"levelo_inurba_marseille","lat":43.31513,"lon":5.3731,"is_reserved":false,"is_disabled":false,"rental_uris":{"android":"levelo://app?vid=d29eb708-8881-444e-9044-09968ccad5bd","ios":"levelo://app?vid=d29eb708-8881-444e-9044-09968ccad5bd"},"vehicle_type_id":"4","last_reported":1777499443,"current_range_meters":6000,"station_id":"ce4bgt12rcd13ifvqcd0","pricing_plan_id":"cebpf4jnsgd1na2vs0mg"},{"bike_id":"5537dfa5-a5e0-4afa-afaa-71ea6ad83ffd","system_id":"levelo_inurba_marseille","lat":43.28879,"lon":5.358,"is_reserved":false,"is_disabled":true,"rental_uris":{"android":"levelo://app?vid=5537dfa5-a5e0-4afa-afaa-71ea6ad83ffd","ios":"levelo://app?vid=5537dfa5-a5e0-4afa-afaa-71ea6ad83ffd"},"vehicle_type_id":"4","last_reported":1777499443,"current_range_meters":6000,"station_id":"ce4bhb12rcd13ifvqem0","pricing_plan_id":"cebpf4jnsgd1na2vs0mg"},{"bike_id":"bbc2f778-ecf6-4419-b9a7-78a6f4492f95","system_id":"levelo_inurba_marseille","lat":43.292273,"lon":5.360653,"is_reserved":false,"is_disabled":false,"rental_uris":{"android":"levelo://app?vid=bbc2f778-ecf6-4419-b9a7-78a6f4492f95","ios":"levelo://app?vid=bbc2f778-ecf6-4419-b9a7-78a6f4492f95"},"vehicle_type_id":"4","last_reported":1777499443,"current_range_meters":6000,"station_id":"ce4bhbh2rcd13ifvqeqg","pricing_plan_id":"cebpf4jnsgd1na2vs0mg"},{"bike_id":"2881b417-e0fd-4239-8e78-7c6a9af45f77","system_id":"levelo_inurba_marseille","lat":43.30614,"lon":5.37179,"is_reserved":false,"is_disabled":false,"rental_uris":{"android":"levelo://app?vid=2881b417-e0fd-4239-8e78-7c6a9af45f77","ios":"levelo://app?vid=2881b417-e0fd-4239-8e78-7c6a9af45f77"},"vehicle_type_id":"4","last_reported":1777499443,"current_range_meters":6000,"station_id":"ce4bgqh2rcd13ifvqc4g","pricing_plan_id":"cebpf4jnsgd1na2vs0mg"},{"bike_id":"5e4372d3-fba2-470f-9034-af3ba5bb5e2e","system_id":"levelo_inurba_marseille","lat":43.27337,"lon":5.39073,"is_reserved":false,"is_disabled":true,"rental_uris":{"android":"levelo://app?vid=5e4372d3-fba2-470f-9034-af3ba5bb5e2e","ios":"levelo://app?vid=5e4372d3-fba2-470f-9034-af3ba5bb5e2e"},"vehicle_type_id":"4","last_reported":1777499443,"current_range_meters":6000,"station_id":"ce4bhgp2rcd13ifvqfe0","pricing_plan_id":"cebpf4jnsgd1na2vs0mg"},{"bike_id":"2f798a50-39ab-4470-a6ac-8519317ed515","system_id":"levelo_inurba_marseille","lat":43.2986,"lon":5.39734,"is_reserved":false,"is_disabled":false,"rental_uris":{"android":"levelo://app?vid=2f798a50-39ab-4470-a6ac-8519317ed515","ios":"levelo://app?vid=2f798a50-39ab-4470-a6ac-8519317ed515"},"vehicle_type_id":"4","last_reported":1777499443,"current_range_meters":6000,"station_id":"ce4bh0h2rcd13ifvqd50","pricing_plan_id":"cebpf4jnsgd1na2vs0mg"},{"bike_id":"afce14e9-d3d8-4e4c-a556-c5c0519b0370","system_id":"levelo_inurba_marseille","lat":43.2991,"lon":5.39185,"is_reserved":false,"is_disabled":false,"rental_uris":{"android":"levelo://app?vid=afce14e9-d3d8-4e4c-a556-c5c0519b0370","ios":"levelo://app?vid=afce14e9-d3d8-4e4c-a556-c5c0519b0370"},"vehicle_type_id":"4","last_reported":1777499443,"current_range_meters":6000,"station_id":"","pricing_plan_id":"cebpf4jnsgd1na2vs0mg"},{"bike_id":"4da23bbf-8aab-4991-bb00-1a569a4581cc","system_id":"levelo_inurba_marseille","lat":43.27075,"lon":5.42285,"is_reserved":false,"is_disabled":false,"rental_uris":{"android":"levelo://app?vid=4da23bbf-8aab-4991-bb00-1a569a4581cc","ios":"levelo://app?vid=4da23bbf-8aab-4991-bb00-1a569a4581cc"},"vehicle_type_id":"4","last_reported":1777499443,"current_range_meters":6000,"station_id":"ce4bhk92rcd13ifvqgb0","pricing_plan_id":"cebpf4jnsgd1na2vs0mg"},{"bike_id":"42ad84ec-5622-4d53-af54-fb4dbce28b0b","system_id":"levelo_inurba_marseille","lat":43.28575,"lon":5.39483,"is_reserved":false,"is_disabled":false,"rental_uris":{"android":"levelo://app?vid=42ad84ec-5622-4d53-af54-fb4dbce28b0b","ios":"levelo://app?vid=42ad84ec-5622-4d53-af54-fb4dbce28b0b"},"vehicle_type_id":"4","last_reported":1777499443,"current_range_meters":6000,"station_id":"ce4bh292rcd13ifvqdg0","pricing_plan_id":"cebpf4jnsgd1na2vs0mg"},{"bike_id":"6ef68ef1-996c-49b6-a851-cb193957e5f0","system_id":"levelo_inurba_marseille","lat":43.29533,"lon":5.38547,"is_reserved":false,"is_disabled":false,"rental_uris":{"android":"levelo://app?vid=6ef68ef1-996c-49b6-a851-cb193957e5f0","ios":"levelo://app?vid=6ef68ef1-996c-49b6-a851-cb193957e5f0"},"vehicle_type_id":"4","last_reported":1777499443,"current_range_meters":6000,"station_id":"ce4bgih2rcd13ifvqba0","pricing_plan_id":"cebpf4jnsgd1na2vs0mg"},{"bike_id":"510fc79e-9732-4d6f-9901-92a69d0052be","system_id":"levelo_inurba_marseille","lat":43.25345,"lon":5.42147,"is_reserved":false,"is_disabled":false,"rental_uris":{"android":"levelo://app?vid=510fc79e-9732-4d6f-9901-92a69d0052be","ios":"levelo://app?vid=510fc79e-9732-4d6f-9901-92a69d0052be"},"vehicle_type_id":"4","last_reported":1777499443,"current_range_meters":6000,"station_id":"st_d2m65c5bi1j21697t3ng","pricing_plan_id":"cebpf4jnsgd1na2vs0mg"},{"bike_id":"b4a497ea-222e-419c-a826-4feb72e6ade8","system_id":"levelo_inurba_marseille","lat":43.28708,"lon":5.46665,"is_reserved":false,"is_disabled":false,"rental_uris":{"android":"levelo://app?vid=b4a497ea-222e-419c-a826-4feb72e6ade8","ios":"levelo://app?vid=b4a497ea-222e-419c-a826-4feb72e6ade8"},"vehicle_type_id":"4","last_reported":1777499443,"current_range_meters":6400,"station_id":"st_d6tc3vkotcvc738tfjhg","pricing_plan_id":"cebpf4jnsgd1na2vs0mg"},{"bike_id":"066dfa00-b1f7-4430-8185-d8b0b60f921f","system_id":"levelo_inurba_marseille","lat":43.30098,"lon":5.3908,"is_reserved":false,"is_disabled":false,"rental_uris":{"android":"levelo://app?vid=066dfa00-b1f7-4430-8185-d8b0b60f921f","ios":"levelo://app?vid=066dfa00-b1f7-4430-8185-d8b0b60f921f"},"vehicle_type_id":"4","last_reported":1777499443,"current_range_meters":6400,"station_id":"ce4bh192rcd13ifvqdb0","pricing_plan_id":"cebpf4jnsgd1na2vs0mg"},{"bike_id":"95ca8cc5-afd5-46a2-b335-22ee4def044e","system_id":"levelo_inurba_marseille","lat":43.24676,"lon":5.43108,"is_reserved":false,"is_disabled":false,"rental_uris":{"android":"levelo://app?vid=95ca8cc5-afd5-46a2-b335-22ee4def044e","ios":"levelo://app?vid=95ca8cc5-afd5-46a2-b335-22ee4def044e"},"vehicle_type_id":"4","last_reported":1777499443,"current_range_meters":6400,"station_id":"st_d2m6c4gdas8pm72e190g","pricing_plan_id":"cebpf4jnsgd1na2vs0mg"},{"bike_id":"8a4a0249-4f4c-41b5-bc94-e064df2c0d36","system_id":"levelo_inurba_marseille","lat":43.30445,"lon":5.38888,"is_reserved":false,"is_disabled":false,"rental_uris":{"android":"levelo://app?vid=8a4a0249-4f4c-41b5-bc94-e064df2c0d36","ios":"levelo://app?vid=8a4a0249-4f4c-41b5-bc94-e064df2c0d36"},"vehicle_type_id":"4","last_reported":1777499443,"current_range_meters":6400,"station_id":"ce4bgk12rcd13ifvqbi0","pricing_plan_id":"cebpf4jnsgd1na2vs0mg"},{"bike_id":"69bed6b3-f53b-4286-bac2-14ab33299680","system_id":"levelo_inurba_marseille","lat":43.30584,"lon":5.39352,"is_reserved":false,"is_disabled":true,"rental_uris":{"android":"levelo://app?vid=69bed6b3-f53b-4286-bac2-14ab33299680","ios":"levelo://app?vid=69bed6b3-f53b-4286-bac2-14ab33299680"},"vehicle_type_id":"4","last_reported":1777499443,"current_range_meters":6400,"station_id":"ce4bh0p2rcd13ifvqd80","pricing_plan_id":"cebpf4jnsgd1na2vs0mg"},{"bike_id":"c561ea75-a407-4ccd-b0e3-67fd9691422f","system_id":"levelo_inurba_marseille","lat":43.29518,"lon":5.38516,"is_reserved":false,"is_disabled":false,"rental_uris":{"android":"levelo://app?vid=c561ea75-a407-4ccd-b0e3-67fd9691422f","ios":"levelo://app?vid=c561ea75-a407-4ccd-b0e3-67fd9691422f"},"vehicle_type_id":"4","last_reported":1777499443,"current_range_meters":6400,"station_id":"ce4bgih2rcd13ifvqba0","pricing_plan_id":"cebpf4jnsgd1na2vs0mg"},{"bike_id":"5563704b-f889-41a1-a394-6e3417437bea","system_id":"levelo_inurba_marseille","lat":43.30354,"lon":5.39259,"is_reserved":false,"is_disabled":true,"rental_uris":{"android":"levelo://app?vid=5563704b-f889-41a1-a394-6e3417437bea","ios":"levelo://app?vid=5563704b-f889-41a1-a394-6e3417437bea"},"vehicle_type_id":"4","last_reported":1777499443,"current_range_meters":6400,"station_id":"","pricing_plan_id":"cebpf4jnsgd1na2vs0mg"},{"bike_id":"8590541e-035f-4e24-8205-af45929a1424","system_id":"levelo_inurba_marseille","lat":43.28847,"lon":5.35866,"is_reserved":false,"is_disabled":false,"rental_uris":{"android":"levelo://app?vid=8590541e-035f-4e24-8205-af45929a1424","ios":"levelo://app?vid=8590541e-035f-4e24-8205-af45929a1424"},"vehicle_type_id":"4","last_reported":1777499443,"current_range_meters":6400,"station_id":"ce4bhb12rcd13ifvqem0","pricing_plan_id":"cebpf4jnsgd1na2vs0mg"},{"bike_id":"e80f8c62-7705-40b7-808f-fa9231dbf360","system_id":"levelo_inurba_marseille","lat":43.29906,"lon":5.39747,"is_reserved":false,"is_disabled":false,"rental_uris":{"android":"levelo://app?vid=e80f8c62-7705-40b7-808f-fa9231dbf360","ios":"levelo://app?vid=e80f8c62-7705-40b7-808f-fa9231dbf360"},"vehicle_type_id":"4","last_reported":1777499443,"current_range_meters":6400,"station_id":"ce4bh0h2rcd13ifvqd50","pricing_plan_id":"cebpf4jnsgd1na2vs0mg"},{"bike_id":"84caa600-f83f-4ce9-888d-fe1ec9949215","system_id":"levelo_inurba_marseille","lat":43.26371,"lon":5.41081,"is_reserved":false,"is_disabled":false,"rental_uris":{"android":"levelo://app?vid=84caa600-f83f-4ce9-888d-fe1ec9949215","ios":"levelo://app?vid=84caa600-f83f-4ce9-888d-fe1ec9949215"},"vehicle_type_id":"4","last_reported":1777499443,"current_range_meters":6800,"station_id":"st_d4e5ca6na9uc73bfl5fg","pricing_plan_id":"cebpf4jnsgd1na2vs0mg"},{"bike_id":"d2bffbeb-b1c3-4c62-834a-33d6be2c2f87","system_id":"levelo_inurba_marseille","lat":43.27199,"lon":5.39177,"is_reserved":false,"is_disabled":true,"rental_uris":{"android":"levelo://app?vid=d2bffbeb-b1c3-4c62-834a-33d6be2c2f87","ios":"levelo://app?vid=d2bffbeb-b1c3-4c62-834a-33d6be2c2f87"},"vehicle_type_id":"4","last_reported":1777499443,"current_range_meters":6800,"station_id":"ce4bhhp2rcd13ifvqfm0","pricing_plan_id":"cebpf4jnsgd1na2vs0mg"},{"bike_id":"e8c45a74-740f-4fc5-b008-5dd3be21b931","system_id":"levelo_inurba_marseille","lat":43.31146,"lon":5.38034,"is_reserved":false,"is_disabled":false,"rental_uris":{"android":"levelo://app?vid=e8c45a74-740f-4fc5-b008-5dd3be21b931","ios":"levelo://app?vid=e8c45a74-740f-4fc5-b008-5dd3be21b931"},"vehicle_type_id":"4","last_reported":1777499443,"current_range_meters":6800,"station_id":"","pricing_plan_id":"cebpf4jnsgd1na2vs0mg"},{"bike_id":"31042abc-fdb4-45c6-af1d-f214e842ea8b","system_id":"levelo_inurba_marseille","lat":43.3096,"lon":5.42166,"is_reserved":false,"is_disabled":false,"rental_uris":{"android":"levelo://app?vid=31042abc-fdb4-45c6-af1d-f214e842ea8b","ios":"levelo://app?vid=31042abc-fdb4-45c6-af1d-f214e842ea8b"},"vehicle_type_id":"4","last_reported":1777499443,"current_range_meters":6800,"station_id":"","pricing_plan_id":"cebpf4jnsgd1na2vs0mg"},{"bike_id":"bccd3b93-1cdb-49b7-8d2b-b6c4f5686242","system_id":"levelo_inurba_marseille","lat":43.30101,"lon":5.39061,"is_reserved":false,"is_disabled":false,"rental_uris":{"android":"levelo://app?vid=bccd3b93-1cdb-49b7-8d2b-b6c4f5686242","ios":"levelo://app?vid=bccd3b93-1cdb-49b7-8d2b-b6c4f5686242"},"vehicle_type_id":"4","last_reported":1777499443,"current_range_meters":6800,"station_id":"ce4bh192rcd13ifvqdb0","pricing_plan_id":"cebpf4jnsgd1na2vs0mg"},{"bike_id":"8795c779-0e99-4a77-a45d-0721141a9d8a","system_id":"levelo_inurba_marseille","lat":43.28988,"lon":5.37813,"is_reserved":false,"is_disabled":false,"rental_uris":{"android":"levelo://app?vid=8795c779-0e99-4a77-a45d-0721141a9d8a","ios":"levelo://app?vid=8795c779-0e99-4a77-a45d-0721141a9d8a"},"vehicle_type_id":"4","last_reported":1777499443,"current_range_meters":6800,"station_id":"ce4bh9p2rcd13ifvqed0","pricing_plan_id":"cebpf4jnsgd1na2vs0mg"},{"bike_id":"f870abd2-3a19-4cc7-bc8c-3115c7462e1f","system_id":"levelo_inurba_marseille","lat":43.28686,"lon":5.36359,"is_reserved":false,"is_disabled":false,"rental_uris":{"android":"levelo://app?vid=f870abd2-3a19-4cc7-bc8c-3115c7462e1f","ios":"levelo://app?vid=f870abd2-3a19-4cc7-bc8c-3115c7462e1f"},"vehicle_type_id":"4","last_reported":1777499443,"current_range_meters":6800,"station_id":"ce4bhah2rcd13ifvqej0","pricing_plan_id":"cebpf4jnsgd1na2vs0mg"},{"bike_id":"b98306a6-5611-4674-9d87-336fabb8dd2a","system_id":"levelo_inurba_marseille","lat":43.28233,"lon":5.39063,"is_reserved":false,"is_disabled":false,"rental_uris":{"android":"levelo://app?vid=b98306a6-5611-4674-9d87-336fabb8dd2a","ios":"levelo://app?vid=b98306a6-5611-4674-9d87-336fabb8dd2a"},"vehicle_type_id":"4","last_reported":1777499443,"current_range_meters":6800,"station_id":"ce4bhn92rcd13ifvqgsg","pricing_plan_id":"cebpf4jnsgd1na2vs0mg"},{"bike_id":"a496669f-42ea-4ec8-b909-b71bb128370f","system_id":"levelo_inurba_marseille","lat":43.33538,"lon":5.37467,"is_reserved":false,"is_disabled":false,"rental_uris":{"android":"levelo://app?vid=a496669f-42ea-4ec8-b909-b71bb128370f","ios":"levelo://app?vid=a496669f-42ea-4ec8-b909-b71bb128370f"},"vehicle_type_id":"4","last_reported":1777499443,"current_range_meters":6800,"station_id":"st_d46tts09ee8s73dlu43g","pricing_plan_id":"cebpf4jnsgd1na2vs0mg"},{"bike_id":"cd735691-a8cf-469c-b880-28ec2dcf0dc2","system_id":"levelo_inurba_marseille","lat":43.33538,"lon":5.37477,"is_reserved":false,"is_disabled":false,"rental_uris":{"android":"levelo://app?vid=cd735691-a8cf-469c-b880-28ec2dcf0dc2","ios":"levelo://app?vid=cd735691-a8cf-469c-b880-28ec2dcf0dc2"},"vehicle_type_id":"4","last_reported":1777499443,"current_range_meters":6800,"station_id":"st_d46tts09ee8s73dlu43g","pricing_plan_id":"cebpf4jnsgd1na2vs0mg"},{"bike_id":"7e661621-2d60-436d-82ab-1d584e90908a","system_id":"levelo_inurba_marseille","lat":43.27822,"lon":5.40709,"is_reserved":false,"is_disabled":false,"rental_uris":{"android":"levelo://app?vid=7e661621-2d60-436d-82ab-1d584e90908a","ios":"levelo://app?vid=7e661621-2d60-436d-82ab-1d584e90908a"},"vehicle_type_id":"4","last_reported":1777499443,"current_range_meters":6800,"station_id":"ce4bhnh2rcd13ifvqgtg","pricing_plan_id":"cebpf4jnsgd1na2vs0mg"},{"bike_id":"07919e2d-9a9f-4079-9fd2-ae993e85b930","system_id":"levelo_inurba_marseille","lat":43.21192,"lon":5.35062,"is_reserved":false,"is_disabled":false,"rental_uris":{"android":"levelo://app?vid=07919e2d-9a9f-4079-9fd2-ae993e85b930","ios":"levelo://app?vid=07919e2d-9a9f-4079-9fd2-ae993e85b930"},"vehicle_type_id":"4","last_reported":1777499443,"current_range_meters":6800,"station_id":"st_cvj6sg6p6f1abm77japg","pricing_plan_id":"cebpf4jnsgd1na2vs0mg"},{"bike_id":"347fc724-6efe-47b7-aa56-619f40d79d75","system_id":"levelo_inurba_marseille","lat":43.28926,"lon":5.38394,"is_reserved":false,"is_disabled":false,"rental_uris":{"android":"levelo://app?vid=347fc724-6efe-47b7-aa56-619f40d79d75","ios":"levelo://app?vid=347fc724-6efe-47b7-aa56-619f40d79d75"},"vehicle_type_id":"4","last_reported":1777499443,"current_range_meters":6800,"station_id":"ce4bh612rcd13ifvqe6g","pricing_plan_id":"cebpf4jnsgd1na2vs0mg"},{"bike_id":"c6923348-c930-4e5f-bb86-1cc84631b70a","system_id":"levelo_inurba_marseille","lat":43.30939,"lon":5.40136,"is_reserved":false,"is_disabled":false,"rental_uris":{"android":"levelo://app?vid=c6923348-c930-4e5f-bb86-1cc84631b70a","ios":"levelo://app?vid=c6923348-c930-4e5f-bb86-1cc84631b70a"},"vehicle_type_id":"4","last_reported":1777499443,"current_range_meters":6800,"station_id":"ce4bgvp2rcd13ifvqct0","pricing_plan_id":"cebpf4jnsgd1na2vs0mg"},{"bike_id":"b91f4f99-7987-40ea-afbb-1e1af65ec675","system_id":"levelo_inurba_marseille","lat":43.29446,"lon":5.40905,"is_reserved":false,"is_disabled":false,"rental_uris":{"android":"levelo://app?vid=b91f4f99-7987-40ea-afbb-1e1af65ec675","ios":"levelo://app?vid=b91f4f99-7987-40ea-afbb-1e1af65ec675"},"vehicle_type_id":"4","last_reported":1777499443,"current_range_meters":6800,"station_id":"","pricing_plan_id":"cebpf4jnsgd1na2vs0mg"},{"bike_id":"c49761ac-9f33-4552-bf2f-10763f93fa50","system_id":"levelo_inurba_marseille","lat":43.31902,"lon":5.36805,"is_reserved":false,"is_disabled":false,"rental_uris":{"android":"levelo://app?vid=c49761ac-9f33-4552-bf2f-10763f93fa50","ios":"levelo://app?vid=c49761ac-9f33-4552-bf2f-10763f93fa50"},"vehicle_type_id":"4","last_reported":1777499443,"current_range_meters":6800,"station_id":"st_d6o2h0d0559c73evc1b0","pricing_plan_id":"cebpf4jnsgd1na2vs0mg"},{"bike_id":"95408503-783e-4868-8bb9-2c1790ee6005","system_id":"levelo_inurba_marseille","lat":43.29533,"lon":5.39048,"is_reserved":false,"is_disabled":false,"rental_uris":{"android":"levelo://app?vid=95408503-783e-4868-8bb9-2c1790ee6005","ios":"levelo://app?vid=95408503-783e-4868-8bb9-2c1790ee6005"},"vehicle_type_id":"4","last_reported":1777499443,"current_range_meters":6800,"station_id":"ce4bh3p2rcd13ifvqdp0","pricing_plan_id":"cebpf4jnsgd1na2vs0mg"},{"bike_id":"5c1303fe-fdb4-4930-8ec8-be7605f3043f","system_id":"levelo_inurba_marseille","lat":43.30461,"lon":5.37902,"is_reserved":false,"is_disabled":false,"rental_uris":{"android":"levelo://app?vid=5c1303fe-fdb4-4930-8ec8-be7605f3043f","ios":"levelo://app?vid=5c1303fe-fdb4-4930-8ec8-be7605f3043f"},"vehicle_type_id":"4","last_reported":1777499443,"current_range_meters":6800,"station_id":"ce4bgup2rcd13ifvqcn0","pricing_plan_id":"cebpf4jnsgd1na2vs0mg"},{"bike_id":"4c4fd5bf-edd1-4e64-bbba-8e4e3d30b47b","system_id":"levelo_inurba_marseille","lat":43.29152,"lon":5.43097,"is_reserved":false,"is_disabled":false,"rental_uris":{"android":"levelo://app?vid=4c4fd5bf-edd1-4e64-bbba-8e4e3d30b47b","ios":"levelo://app?vid=4c4fd5bf-edd1-4e64-bbba-8e4e3d30b47b"},"vehicle_type_id":"4","last_reported":1777499443,"current_range_meters":6800,"station_id":"","pricing_plan_id":"cebpf4jnsgd1na2vs0mg"},{"bike_id":"002595fb-0208-4831-9515-51e4e12484a4","system_id":"levelo_inurba_marseille","lat":43.29517,"lon":5.38571,"is_reserved":false,"is_disabled":false,"rental_uris":{"android":"levelo://app?vid=002595fb-0208-4831-9515-51e4e12484a4","ios":"levelo://app?vid=002595fb-0208-4831-9515-51e4e12484a4"},"vehicle_type_id":"4","last_reported":1777499443,"current_range_meters":6800,"station_id":"ce4bgih2rcd13ifvqba0","pricing_plan_id":"cebpf4jnsgd1na2vs0mg"},{"bike_id":"b5592bc3-7c5d-4ba9-b1ae-b173928aef8c","system_id":"levelo_inurba_marseille","lat":43.28503,"lon":5.48374,"is_reserved":false,"is_disabled":false,"rental_uris":{"android":"levelo://app?vid=b5592bc3-7c5d-4ba9-b1ae-b173928aef8c","ios":"levelo://app?vid=b5592bc3-7c5d-4ba9-b1ae-b173928aef8c"},"vehicle_type_id":"4","last_reported":1777499443,"current_range_meters":7200,"station_id":"","pricing_plan_id":"cebpf4jnsgd1na2vs0mg"},{"bike_id":"d8de0a64-e3bb-4f89-8f07-313cae5af722","system_id":"levelo_inurba_marseille","lat":43.22571,"lon":5.41658,"is_reserved":false,"is_disabled":false,"rental_uris":{"android":"levelo://app?vid=d8de0a64-e3bb-4f89-8f07-313cae5af722","ios":"levelo://app?vid=d8de0a64-e3bb-4f89-8f07-313cae5af722"},"vehicle_type_id":"4","last_reported":1777499443,"current_range_meters":7200,"station_id":"st_d2o4gvlbi1j2169b742g","pricing_plan_id":"cebpf4jnsgd1na2vs0mg"},{"bike_id":"a750cf25-5dfc-44c2-8510-6a2a9f9a56c2","system_id":"levelo_inurba_marseille","lat":43.31324,"lon":5.39686,"is_reserved":false,"is_disabled":false,"rental_uris":{"android":"levelo://app?vid=a750cf25-5dfc-44c2-8510-6a2a9f9a56c2","ios":"levelo://app?vid=a750cf25-5dfc-44c2-8510-6a2a9f9a56c2"},"vehicle_type_id":"4","last_reported":1777499443,"current_range_meters":7200,"station_id":"ce4bgvp2rcd13ifvqcu0","pricing_plan_id":"cebpf4jnsgd1na2vs0mg"},{"bike_id":"74b97888-2010-4f62-9143-1297c2114922","system_id":"levelo_inurba_marseille","lat":43.27838,"lon":5.39203,"is_reserved":false,"is_disabled":true,"rental_uris":{"android":"levelo://app?vid=74b97888-2010-4f62-9143-1297c2114922","ios":"levelo://app?vid=74b97888-2010-4f62-9143-1297c2114922"},"vehicle_type_id":"4","last_reported":1777499443,"current_range_meters":7200,"station_id":"ce4bhjp2rcd13ifvqga0","pricing_plan_id":"cebpf4jnsgd1na2vs0mg"},{"bike_id":"6ef27de1-2d5a-4a1b-a0f9-323c819af607","system_id":"levelo_inurba_marseille","lat":43.28721,"lon":5.37393,"is_reserved":false,"is_disabled":false,"rental_uris":{"android":"levelo://app?vid=6ef27de1-2d5a-4a1b-a0f9-323c819af607","ios":"levelo://app?vid=6ef27de1-2d5a-4a1b-a0f9-323c819af607"},"vehicle_type_id":"4","last_reported":1777499443,"current_range_meters":7200,"station_id":"ce4bh3p2rcd13ifvqdq0","pricing_plan_id":"cebpf4jnsgd1na2vs0mg"},{"bike_id":"20c418db-2f1d-4a9c-9013-660ef304788e","system_id":"levelo_inurba_marseille","lat":43.32351,"lon":5.3674,"is_reserved":false,"is_disabled":false,"rental_uris":{"android":"levelo://app?vid=20c418db-2f1d-4a9c-9013-660ef304788e","ios":"levelo://app?vid=20c418db-2f1d-4a9c-9013-660ef304788e"},"vehicle_type_id":"4","last_reported":1777499443,"current_range_meters":7200,"station_id":"ce4bhsh2rcd13ifvqi2g","pricing_plan_id":"cebpf4jnsgd1na2vs0mg"},{"bike_id":"8d2b163f-4007-499f-a9b0-be0d24f5f3bb","system_id":"levelo_inurba_marseille","lat":43.28844,"lon":5.39299,"is_reserved":false,"is_disabled":false,"rental_uris":{"android":"levelo://app?vid=8d2b163f-4007-499f-a9b0-be0d24f5f3bb","ios":"levelo://app?vid=8d2b163f-4007-499f-a9b0-be0d24f5f3bb"},"vehicle_type_id":"4","last_reported":1777499443,"current_range_meters":7200,"station_id":"ce4bh2p2rcd13ifvqdi0","pricing_plan_id":"cebpf4jnsgd1na2vs0mg"},{"bike_id":"acc57406-75de-43a2-a6ec-d941193f0be0","system_id":"levelo_inurba_marseille","lat":43.32349,"lon":5.36735,"is_reserved":false,"is_disabled":false,"rental_uris":{"android":"levelo://app?vid=acc57406-75de-43a2-a6ec-d941193f0be0","ios":"levelo://app?vid=acc57406-75de-43a2-a6ec-d941193f0be0"},"vehicle_type_id":"4","last_reported":1777499443,"current_range_meters":7200,"station_id":"ce4bhsh2rcd13ifvqi2g","pricing_plan_id":"cebpf4jnsgd1na2vs0mg"},{"bike_id":"4973a181-d17c-430e-bbdc-8fc4d0df0c6f","system_id":"levelo_inurba_marseille","lat":43.23148,"lon":5.43713,"is_reserved":false,"is_disabled":false,"rental_uris":{"android":"levelo://app?vid=4973a181-d17c-430e-bbdc-8fc4d0df0c6f","ios":"levelo://app?vid=4973a181-d17c-430e-bbdc-8fc4d0df0c6f"},"vehicle_type_id":"4","last_reported":1777499443,"current_range_meters":7200,"station_id":"ce4bhmp2rcd13ifvqgog","pricing_plan_id":"cebpf4jnsgd1na2vs0mg"},{"bike_id":"7a7628b1-4282-4fa2-905b-47029bcd5203","system_id":"levelo_inurba_marseille","lat":43.29913,"lon":5.36528,"is_reserved":false,"is_disabled":false,"rental_uris":{"android":"levelo://app?vid=7a7628b1-4282-4fa2-905b-47029bcd5203","ios":"levelo://app?vid=7a7628b1-4282-4fa2-905b-47029bcd5203"},"vehicle_type_id":"4","last_reported":1777499443,"current_range_meters":7200,"station_id":"ce4bgm92rcd13ifvqbr0","pricing_plan_id":"cebpf4jnsgd1na2vs0mg"},{"bike_id":"2c514eca-0c7c-4c54-8544-da1a555049b6","system_id":"levelo_inurba_marseille","lat":43.26515,"lon":5.3695,"is_reserved":false,"is_disabled":false,"rental_uris":{"android":"levelo://app?vid=2c514eca-0c7c-4c54-8544-da1a555049b6","ios":"levelo://app?vid=2c514eca-0c7c-4c54-8544-da1a555049b6"},"vehicle_type_id":"4","last_reported":1777499443,"current_range_meters":7200,"station_id":"","pricing_plan_id":"cebpf4jnsgd1na2vs0mg"},{"bike_id":"4d3b0fb9-4fcc-46d7-8f90-81b232f0c7b3","system_id":"levelo_inurba_marseille","lat":43.30134,"lon":5.43117,"is_reserved":false,"is_disabled":false,"rental_uris":{"android":"levelo://app?vid=4d3b0fb9-4fcc-46d7-8f90-81b232f0c7b3","ios":"levelo://app?vid=4d3b0fb9-4fcc-46d7-8f90-81b232f0c7b3"},"vehicle_type_id":"4","last_reported":1777499443,"current_range_meters":7200,"station_id":"st_d3js3co5814s73ftftug","pricing_plan_id":"cebpf4jnsgd1na2vs0mg"},{"bike_id":"b4708557-5c1b-41a3-a0cb-d47843cb2d67","system_id":"levelo_inurba_marseille","lat":43.29262,"lon":5.40901,"is_reserved":false,"is_disabled":false,"rental_uris":{"android":"levelo://app?vid=b4708557-5c1b-41a3-a0cb-d47843cb2d67","ios":"levelo://app?vid=b4708557-5c1b-41a3-a0cb-d47843cb2d67"},"vehicle_type_id":"4","last_reported":1777499443,"current_range_meters":7200,"station_id":"ce4bh192rcd13ifvqdc0","pricing_plan_id":"cebpf4jnsgd1na2vs0mg"},{"bike_id":"a0962752-11ad-4b5b-9547-24da32793d8b","system_id":"levelo_inurba_marseille","lat":43.28667,"lon":5.36358,"is_reserved":false,"is_disabled":false,"rental_uris":{"android":"levelo://app?vid=a0962752-11ad-4b5b-9547-24da32793d8b","ios":"levelo://app?vid=a0962752-11ad-4b5b-9547-24da32793d8b"},"vehicle_type_id":"4","last_reported":1777499443,"current_range_meters":7200,"station_id":"ce4bhah2rcd13ifvqej0","pricing_plan_id":"cebpf4jnsgd1na2vs0mg"},{"bike_id":"d839e1ef-71f9-4430-bd80-f7cf0384b538","system_id":"levelo_inurba_marseille","lat":43.25125,"lon":5.40325,"is_reserved":false,"is_disabled":false,"rental_uris":{"android":"levelo://app?vid=d839e1ef-71f9-4430-bd80-f7cf0384b538","ios":"levelo://app?vid=d839e1ef-71f9-4430-bd80-f7cf0384b538"},"vehicle_type_id":"4","last_reported":1777499443,"current_range_meters":7200,"station_id":"ce4bhlh2rcd13ifvqgig","pricing_plan_id":"cebpf4jnsgd1na2vs0mg"},{"bike_id":"9704bc80-93c0-4593-9446-7d79d9f301af","system_id":"levelo_inurba_marseille","lat":43.28624,"lon":5.39867,"is_reserved":false,"is_disabled":false,"rental_uris":{"android":"levelo://app?vid=9704bc80-93c0-4593-9446-7d79d9f301af","ios":"levelo://app?vid=9704bc80-93c0-4593-9446-7d79d9f301af"},"vehicle_type_id":"4","last_reported":1777499443,"current_range_meters":7200,"station_id":"st_d4a7ka997mjs738ck50g","pricing_plan_id":"cebpf4jnsgd1na2vs0mg"},{"bike_id":"2f197069-3e81-4c0a-a743-6e155a924841","system_id":"levelo_inurba_marseille","lat":43.286063,"lon":5.398654,"is_reserved":false,"is_disabled":false,"rental_uris":{"android":"levelo://app?vid=2f197069-3e81-4c0a-a743-6e155a924841","ios":"levelo://app?vid=2f197069-3e81-4c0a-a743-6e155a924841"},"vehicle_type_id":"4","last_reported":1777499443,"current_range_meters":7200,"station_id":"st_d4a7ka997mjs738ck50g","pricing_plan_id":"cebpf4jnsgd1na2vs0mg"},{"bike_id":"d5388f7a-4e0a-4376-b76b-701e4b281dc2","system_id":"levelo_inurba_marseille","lat":43.27068,"lon":5.40265,"is_reserved":false,"is_disabled":true,"rental_uris":{"android":"levelo://app?vid=d5388f7a-4e0a-4376-b76b-701e4b281dc2","ios":"levelo://app?vid=d5388f7a-4e0a-4376-b76b-701e4b281dc2"},"vehicle_type_id":"4","last_reported":1777499443,"current_range_meters":7200,"station_id":"ce4bhk92rcd13ifvqgc0","pricing_plan_id":"cebpf4jnsgd1na2vs0mg"},{"bike_id":"dde9cb7a-d2cd-49d4-9390-db18f4c0f172","system_id":"levelo_inurba_marseille","lat":43.337444,"lon":5.374475,"is_reserved":false,"is_disabled":false,"rental_uris":{"android":"levelo://app?vid=dde9cb7a-d2cd-49d4-9390-db18f4c0f172","ios":"levelo://app?vid=dde9cb7a-d2cd-49d4-9390-db18f4c0f172"},"vehicle_type_id":"4","last_reported":1777499443,"current_range_meters":8000,"station_id":"ce4bgj12rcd13ifvqbc0","pricing_plan_id":"cebpf4jnsgd1na2vs0mg"},{"bike_id":"2c6e488e-5f57-41b5-a027-d13b49a7c8eb","system_id":"levelo_inurba_marseille","lat":43.29896,"lon":5.43652,"is_reserved":false,"is_disabled":false,"rental_uris":{"android":"levelo://app?vid=2c6e488e-5f57-41b5-a027-d13b49a7c8eb","ios":"levelo://app?vid=2c6e488e-5f57-41b5-a027-d13b49a7c8eb"},"vehicle_type_id":"4","last_reported":1777499443,"current_range_meters":8000,"station_id":"ce4bhpp2rcd13ifvqhfg","pricing_plan_id":"cebpf4jnsgd1na2vs0mg"},{"bike_id":"7a4f9c5b-0770-4973-b065-ff441b4f0ec4","system_id":"levelo_inurba_marseille","lat":43.28858,"lon":5.4251,"is_reserved":false,"is_disabled":false,"rental_uris":{"android":"levelo://app?vid=7a4f9c5b-0770-4973-b065-ff441b4f0ec4","ios":"levelo://app?vid=7a4f9c5b-0770-4973-b065-ff441b4f0ec4"},"vehicle_type_id":"4","last_reported":1777499443,"current_range_meters":8000,"station_id":"st_d3b462108ojc7389ooeg","pricing_plan_id":"cebpf4jnsgd1na2vs0mg"},{"bike_id":"0438d68d-b4c6-4b23-a7e1-82657231ebe9","system_id":"levelo_inurba_marseille","lat":43.285,"lon":5.48406,"is_reserved":false,"is_disabled":false,"rental_uris":{"android":"levelo://app?vid=0438d68d-b4c6-4b23-a7e1-82657231ebe9","ios":"levelo://app?vid=0438d68d-b4c6-4b23-a7e1-82657231ebe9"},"vehicle_type_id":"4","last_reported":1777499443,"current_range_meters":8000,"station_id":"","pricing_plan_id":"cebpf4jnsgd1na2vs0mg"},{"bike_id":"82a8043e-804e-4dc9-b426-b4d299449f67","system_id":"levelo_inurba_marseille","lat":43.31054,"lon":5.37187,"is_reserved":false,"is_disabled":false,"rental_uris":{"android":"levelo://app?vid=82a8043e-804e-4dc9-b426-b4d299449f67","ios":"levelo://app?vid=82a8043e-804e-4dc9-b426-b4d299449f67"},"vehicle_type_id":"4","last_reported":1777499443,"current_range_meters":8000,"station_id":"st_d4kl2rp97mjs73e7tdfg","pricing_plan_id":"cebpf4jnsgd1na2vs0mg"},{"bike_id":"1cbd7a2f-c172-4047-b937-0c242d2d7b98","system_id":"levelo_inurba_marseille","lat":43.29948,"lon":5.39097,"is_reserved":false,"is_disabled":false,"rental_uris":{"android":"levelo://app?vid=1cbd7a2f-c172-4047-b937-0c242d2d7b98","ios":"levelo://app?vid=1cbd7a2f-c172-4047-b937-0c242d2d7b98"},"vehicle_type_id":"4","last_reported":1777499443,"current_range_meters":8000,"station_id":"","pricing_plan_id":"cebpf4jnsgd1na2vs0mg"},{"bike_id":"0f4c2c03-1b07-40ee-bb30-bb7761559ef9","system_id":"levelo_inurba_marseille","lat":43.23166,"lon":5.40004,"is_reserved":false,"is_disabled":false,"rental_uris":{"android":"levelo://app?vid=0f4c2c03-1b07-40ee-bb30-bb7761559ef9","ios":"levelo://app?vid=0f4c2c03-1b07-40ee-bb30-bb7761559ef9"},"vehicle_type_id":"4","last_reported":1777499443,"current_range_meters":8000,"station_id":"ce4bhn12rcd13ifvqgqg","pricing_plan_id":"cebpf4jnsgd1na2vs0mg"},{"bike_id":"ffbdf26b-e976-4ff5-ba3a-313cefc48e50","system_id":"levelo_inurba_marseille","lat":43.274364,"lon":5.361684,"is_reserved":false,"is_disabled":false,"rental_uris":{"android":"levelo://app?vid=ffbdf26b-e976-4ff5-ba3a-313cefc48e50","ios":"levelo://app?vid=ffbdf26b-e976-4ff5-ba3a-313cefc48e50"},"vehicle_type_id":"4","last_reported":1777499443,"current_range_meters":8000,"station_id":"ce4bhbh2rcd13ifvqeo0","pricing_plan_id":"cebpf4jnsgd1na2vs0mg"},{"bike_id":"87a8d930-7997-4f14-ba22-09e556016ed7","system_id":"levelo_inurba_marseille","lat":43.29523,"lon":5.39018,"is_reserved":false,"is_disabled":false,"rental_uris":{"android":"levelo://app?vid=87a8d930-7997-4f14-ba22-09e556016ed7","ios":"levelo://app?vid=87a8d930-7997-4f14-ba22-09e556016ed7"},"vehicle_type_id":"4","last_reported":1777499443,"current_range_meters":8000,"station_id":"ce4bh3p2rcd13ifvqdp0","pricing_plan_id":"cebpf4jnsgd1na2vs0mg"},{"bike_id":"b77da25d-5a17-44ab-9c4a-56c7b1afa988","system_id":"levelo_inurba_marseille","lat":43.31119,"lon":5.37766,"is_reserved":false,"is_disabled":false,"rental_uris":{"android":"levelo://app?vid=b77da25d-5a17-44ab-9c4a-56c7b1afa988","ios":"levelo://app?vid=b77da25d-5a17-44ab-9c4a-56c7b1afa988"},"vehicle_type_id":"4","last_reported":1777499443,"current_range_meters":8000,"station_id":"","pricing_plan_id":"cebpf4jnsgd1na2vs0mg"},{"bike_id":"a4c6045c-f52e-4bc6-99bb-b3f5097eb70b","system_id":"levelo_inurba_marseille","lat":43.24568,"lon":5.40237,"is_reserved":false,"is_disabled":false,"rental_uris":{"android":"levelo://app?vid=a4c6045c-f52e-4bc6-99bb-b3f5097eb70b","ios":"levelo://app?vid=a4c6045c-f52e-4bc6-99bb-b3f5097eb70b"},"vehicle_type_id":"4","last_reported":1777499443,"current_range_meters":8000,"station_id":"","pricing_plan_id":"cebpf4jnsgd1na2vs0mg"},{"bike_id":"c3bd92b3-d288-490d-8844-d42c64b64444","system_id":"levelo_inurba_marseille","lat":43.30805,"lon":5.3814,"is_reserved":false,"is_disabled":false,"rental_uris":{"android":"levelo://app?vid=c3bd92b3-d288-490d-8844-d42c64b64444","ios":"levelo://app?vid=c3bd92b3-d288-490d-8844-d42c64b64444"},"vehicle_type_id":"4","last_reported":1777499443,"current_range_meters":8000,"station_id":"ce4bgt12rcd13ifvqce0","pricing_plan_id":"cebpf4jnsgd1na2vs0mg"},{"bike_id":"907b975e-fb54-4198-ad71-0a6fda3075d0","system_id":"levelo_inurba_marseille","lat":43.29905,"lon":5.39734,"is_reserved":false,"is_disabled":true,"rental_uris":{"android":"levelo://app?vid=907b975e-fb54-4198-ad71-0a6fda3075d0","ios":"levelo://app?vid=907b975e-fb54-4198-ad71-0a6fda3075d0"},"vehicle_type_id":"4","last_reported":1777499443,"current_range_meters":8000,"station_id":"ce4bh0h2rcd13ifvqd50","pricing_plan_id":"cebpf4jnsgd1na2vs0mg"},{"bike_id":"ddc40977-c26e-45b2-93f1-3e656df4b343","system_id":"levelo_inurba_marseille","lat":43.28982,"lon":5.37875,"is_reserved":false,"is_disabled":false,"rental_uris":{"android":"levelo://app?vid=ddc40977-c26e-45b2-93f1-3e656df4b343","ios":"levelo://app?vid=ddc40977-c26e-45b2-93f1-3e656df4b343"},"vehicle_type_id":"4","last_reported":1777499443,"current_range_meters":8000,"station_id":"ce4bh9p2rcd13ifvqed0","pricing_plan_id":"cebpf4jnsgd1na2vs0mg"},{"bike_id":"9a859507-8be6-48d0-b50b-2a4aa35502e5","system_id":"levelo_inurba_marseille","lat":43.27179,"lon":5.40989,"is_reserved":false,"is_disabled":false,"rental_uris":{"android":"levelo://app?vid=9a859507-8be6-48d0-b50b-2a4aa35502e5","ios":"levelo://app?vid=9a859507-8be6-48d0-b50b-2a4aa35502e5"},"vehicle_type_id":"4","last_reported":1777499443,"current_range_meters":8000,"station_id":"ce4bhl12rcd13ifvqgf0","pricing_plan_id":"cebpf4jnsgd1na2vs0mg"},{"bike_id":"26335112-9b2a-4a27-9ec1-b93b9cc755ad","system_id":"levelo_inurba_marseille","lat":43.30857,"lon":5.41892,"is_reserved":false,"is_disabled":false,"rental_uris":{"android":"levelo://app?vid=26335112-9b2a-4a27-9ec1-b93b9cc755ad","ios":"levelo://app?vid=26335112-9b2a-4a27-9ec1-b93b9cc755ad"},"vehicle_type_id":"4","last_reported":1777499443,"current_range_meters":8000,"station_id":"","pricing_plan_id":"cebpf4jnsgd1na2vs0mg"},{"bike_id":"bf9b525b-6169-435d-b06d-d31fa4c2a776","system_id":"levelo_inurba_marseille","lat":43.24468,"lon":5.42531,"is_reserved":false,"is_disabled":false,"rental_uris":{"android":"levelo://app?vid=bf9b525b-6169-435d-b06d-d31fa4c2a776","ios":"levelo://app?vid=bf9b525b-6169-435d-b06d-d31fa4c2a776"},"vehicle_type_id":"4","last_reported":1777499443,"current_range_meters":8000,"station_id":"st_d4a3vfp97mjs738cd8kg","pricing_plan_id":"cebpf4jnsgd1na2vs0mg"},{"bike_id":"b9f72cc4-32ae-486e-901a-ebc074ce6d78","system_id":"levelo_inurba_marseille","lat":43.28694,"lon":5.37383,"is_reserved":false,"is_disabled":false,"rental_uris":{"android":"levelo://app?vid=b9f72cc4-32ae-486e-901a-ebc074ce6d78","ios":"levelo://app?vid=b9f72cc4-32ae-486e-901a-ebc074ce6d78"},"vehicle_type_id":"4","last_reported":1777499443,"current_range_meters":8000,"station_id":"ce4bh3p2rcd13ifvqdq0","pricing_plan_id":"cebpf4jnsgd1na2vs0mg"},{"bike_id":"bbc3c05e-aac0-405d-847a-bea6b7c4a0ad","system_id":"levelo_inurba_marseille","lat":43.29884,"lon":5.39727,"is_reserved":false,"is_disabled":false,"rental_uris":{"android":"levelo://app?vid=bbc3c05e-aac0-405d-847a-bea6b7c4a0ad","ios":"levelo://app?vid=bbc3c05e-aac0-405d-847a-bea6b7c4a0ad"},"vehicle_type_id":"4","last_reported":1777499443,"current_range_meters":8000,"station_id":"ce4bh0h2rcd13ifvqd50","pricing_plan_id":"cebpf4jnsgd1na2vs0mg"},{"bike_id":"8829f460-aa5f-4233-9846-cd6731fc4acd","system_id":"levelo_inurba_marseille","lat":43.26983,"lon":5.40434,"is_reserved":false,"is_disabled":false,"rental_uris":{"android":"levelo://app?vid=8829f460-aa5f-4233-9846-cd6731fc4acd","ios":"levelo://app?vid=8829f460-aa5f-4233-9846-cd6731fc4acd"},"vehicle_type_id":"4","last_reported":1777499443,"current_range_meters":8400,"station_id":"","pricing_plan_id":"cebpf4jnsgd1na2vs0mg"},{"bike_id":"345bc929-f498-4128-a39a-b953913f5208","system_id":"levelo_inurba_marseille","lat":43.25574,"lon":5.38249,"is_reserved":false,"is_disabled":false,"rental_uris":{"android":"levelo://app?vid=345bc929-f498-4128-a39a-b953913f5208","ios":"levelo://app?vid=345bc929-f498-4128-a39a-b953913f5208"},"vehicle_type_id":"4","last_reported":1777499443,"current_range_meters":8400,"station_id":"ce4bhih2rcd13ifvqfs0","pricing_plan_id":"cebpf4jnsgd1na2vs0mg"},{"bike_id":"77eb40db-cfb8-4174-994b-5cff78da6f81","system_id":"levelo_inurba_marseille","lat":43.28655,"lon":5.36345,"is_reserved":false,"is_disabled":false,"rental_uris":{"android":"levelo://app?vid=77eb40db-cfb8-4174-994b-5cff78da6f81","ios":"levelo://app?vid=77eb40db-cfb8-4174-994b-5cff78da6f81"},"vehicle_type_id":"4","last_reported":1777499443,"current_range_meters":8400,"station_id":"ce4bhah2rcd13ifvqej0","pricing_plan_id":"cebpf4jnsgd1na2vs0mg"},{"bike_id":"8d820e9e-e468-4ef4-b4d1-11b769f0d4c2","system_id":"levelo_inurba_marseille","lat":43.28431,"lon":5.3918,"is_reserved":false,"is_disabled":false,"rental_uris":{"android":"levelo://app?vid=8d820e9e-e468-4ef4-b4d1-11b769f0d4c2","ios":"levelo://app?vid=8d820e9e-e468-4ef4-b4d1-11b769f0d4c2"},"vehicle_type_id":"4","last_reported":1777499443,"current_range_meters":8400,"station_id":"ce4bhoh2rcd13ifvqh5g","pricing_plan_id":"cebpf4jnsgd1na2vs0mg"},{"bike_id":"262fc285-b6eb-4eda-9ac1-639b6caaacc5","system_id":"levelo_inurba_marseille","lat":43.32371,"lon":5.36756,"is_reserved":false,"is_disabled":false,"rental_uris":{"android":"levelo://app?vid=262fc285-b6eb-4eda-9ac1-639b6caaacc5","ios":"levelo://app?vid=262fc285-b6eb-4eda-9ac1-639b6caaacc5"},"vehicle_type_id":"4","last_reported":1777499443,"current_range_meters":8400,"station_id":"ce4bhsh2rcd13ifvqi2g","pricing_plan_id":"cebpf4jnsgd1na2vs0mg"},{"bike_id":"d97ed6ed-9254-4b2c-9752-a3aaf3378900","system_id":"levelo_inurba_marseille","lat":43.3356,"lon":5.3745,"is_reserved":false,"is_disabled":false,"rental_uris":{"android":"levelo://app?vid=d97ed6ed-9254-4b2c-9752-a3aaf3378900","ios":"levelo://app?vid=d97ed6ed-9254-4b2c-9752-a3aaf3378900"},"vehicle_type_id":"4","last_reported":1777499443,"current_range_meters":8400,"station_id":"st_d46tts09ee8s73dlu43g","pricing_plan_id":"cebpf4jnsgd1na2vs0mg"},{"bike_id":"aa4a5261-6c55-406c-ab2e-ac3475161cf3","system_id":"levelo_inurba_marseille","lat":43.28686,"lon":5.36341,"is_reserved":false,"is_disabled":false,"rental_uris":{"android":"levelo://app?vid=aa4a5261-6c55-406c-ab2e-ac3475161cf3","ios":"levelo://app?vid=aa4a5261-6c55-406c-ab2e-ac3475161cf3"},"vehicle_type_id":"4","last_reported":1777499443,"current_range_meters":8400,"station_id":"ce4bhah2rcd13ifvqej0","pricing_plan_id":"cebpf4jnsgd1na2vs0mg"},{"bike_id":"00ff0799-7689-45c9-8cd0-76bddacfdb63","system_id":"levelo_inurba_marseille","lat":43.2815,"lon":5.42665,"is_reserved":false,"is_disabled":false,"rental_uris":{"android":"levelo://app?vid=00ff0799-7689-45c9-8cd0-76bddacfdb63","ios":"levelo://app?vid=00ff0799-7689-45c9-8cd0-76bddacfdb63"},"vehicle_type_id":"4","last_reported":1777499443,"current_range_meters":8400,"station_id":"ce4bhnh2rcd13ifvqgug","pricing_plan_id":"cebpf4jnsgd1na2vs0mg"},{"bike_id":"483bceac-8a40-4ca9-a59f-b53f2d8dd2bb","system_id":"levelo_inurba_marseille","lat":43.29191,"lon":5.39315,"is_reserved":false,"is_disabled":false,"rental_uris":{"android":"levelo://app?vid=483bceac-8a40-4ca9-a59f-b53f2d8dd2bb","ios":"levelo://app?vid=483bceac-8a40-4ca9-a59f-b53f2d8dd2bb"},"vehicle_type_id":"4","last_reported":1777499443,"current_range_meters":8400,"station_id":"ce4bh192rcd13ifvqdd0","pricing_plan_id":"cebpf4jnsgd1na2vs0mg"},{"bike_id":"b5bfb65b-96a6-411e-b0fd-ef98e613a04a","system_id":"levelo_inurba_marseille","lat":43.29537,"lon":5.38546,"is_reserved":false,"is_disabled":false,"rental_uris":{"android":"levelo://app?vid=b5bfb65b-96a6-411e-b0fd-ef98e613a04a","ios":"levelo://app?vid=b5bfb65b-96a6-411e-b0fd-ef98e613a04a"},"vehicle_type_id":"4","last_reported":1777499443,"current_range_meters":8400,"station_id":"ce4bgih2rcd13ifvqba0","pricing_plan_id":"cebpf4jnsgd1na2vs0mg"},{"bike_id":"73d36e8f-c10a-47a5-b1bc-bdbbb165a673","system_id":"levelo_inurba_marseille","lat":43.25088,"lon":5.39515,"is_reserved":false,"is_disabled":false,"rental_uris":{"android":"levelo://app?vid=73d36e8f-c10a-47a5-b1bc-bdbbb165a673","ios":"levelo://app?vid=73d36e8f-c10a-47a5-b1bc-bdbbb165a673"},"vehicle_type_id":"4","last_reported":1777499443,"current_range_meters":8400,"station_id":"ce4bhm12rcd13ifvqgkg","pricing_plan_id":"cebpf4jnsgd1na2vs0mg"},{"bike_id":"6adcbb52-63bc-4434-9cbe-52f174c39402","system_id":"levelo_inurba_marseille","lat":43.29533,"lon":5.38535,"is_reserved":false,"is_disabled":false,"rental_uris":{"android":"levelo://app?vid=6adcbb52-63bc-4434-9cbe-52f174c39402","ios":"levelo://app?vid=6adcbb52-63bc-4434-9cbe-52f174c39402"},"vehicle_type_id":"4","last_reported":1777499443,"current_range_meters":8400,"station_id":"ce4bgih2rcd13ifvqba0","pricing_plan_id":"cebpf4jnsgd1na2vs0mg"},{"bike_id":"945b3f65-3522-4839-bb4a-92155b98bfd3","system_id":"levelo_inurba_marseille","lat":43.28407,"lon":5.34997,"is_reserved":false,"is_disabled":true,"rental_uris":{"android":"levelo://app?vid=945b3f65-3522-4839-bb4a-92155b98bfd3","ios":"levelo://app?vid=945b3f65-3522-4839-bb4a-92155b98bfd3"},"vehicle_type_id":"4","last_reported":1777499443,"current_range_meters":8400,"station_id":"ce4bhbh2rcd13ifvqepg","pricing_plan_id":"cebpf4jnsgd1na2vs0mg"},{"bike_id":"0a7821c8-bd70-4a35-bff5-59058c7628e8","system_id":"levelo_inurba_marseille","lat":43.29423,"lon":5.39036,"is_reserved":false,"is_disabled":false,"rental_uris":{"android":"levelo://app?vid=0a7821c8-bd70-4a35-bff5-59058c7628e8","ios":"levelo://app?vid=0a7821c8-bd70-4a35-bff5-59058c7628e8"},"vehicle_type_id":"4","last_reported":1777499443,"current_range_meters":8400,"station_id":"","pricing_plan_id":"cebpf4jnsgd1na2vs0mg"},{"bike_id":"6f0d5a4b-08e1-4336-9fc6-d57686cf0751","system_id":"levelo_inurba_marseille","lat":43.28411,"lon":5.37525,"is_reserved":false,"is_disabled":false,"rental_uris":{"android":"levelo://app?vid=6f0d5a4b-08e1-4336-9fc6-d57686cf0751","ios":"levelo://app?vid=6f0d5a4b-08e1-4336-9fc6-d57686cf0751"},"vehicle_type_id":"4","last_reported":1777499443,"current_range_meters":8400,"station_id":"ce4bh412rcd13ifvqds0","pricing_plan_id":"cebpf4jnsgd1na2vs0mg"},{"bike_id":"acf51c63-cf78-493c-a43a-a6f1a5bc1497","system_id":"levelo_inurba_marseille","lat":43.23197,"lon":5.39982,"is_reserved":false,"is_disabled":false,"rental_uris":{"android":"levelo://app?vid=acf51c63-cf78-493c-a43a-a6f1a5bc1497","ios":"levelo://app?vid=acf51c63-cf78-493c-a43a-a6f1a5bc1497"},"vehicle_type_id":"4","last_reported":1777499443,"current_range_meters":8400,"station_id":"ce4bhn12rcd13ifvqgqg","pricing_plan_id":"cebpf4jnsgd1na2vs0mg"},{"bike_id":"e08b3358-9331-4057-bf0e-0517bf375bf2","system_id":"levelo_inurba_marseille","lat":43.28721,"lon":5.37393,"is_reserved":false,"is_disabled":false,"rental_uris":{"android":"levelo://app?vid=e08b3358-9331-4057-bf0e-0517bf375bf2","ios":"levelo://app?vid=e08b3358-9331-4057-bf0e-0517bf375bf2"},"vehicle_type_id":"4","last_reported":1777499443,"current_range_meters":8400,"station_id":"ce4bh3p2rcd13ifvqdq0","pricing_plan_id":"cebpf4jnsgd1na2vs0mg"},{"bike_id":"d20e7dd1-c0ce-4e63-b6fe-439fd2d44a3a","system_id":"levelo_inurba_marseille","lat":43.28676,"lon":5.36362,"is_reserved":false,"is_disabled":false,"rental_uris":{"android":"levelo://app?vid=d20e7dd1-c0ce-4e63-b6fe-439fd2d44a3a","ios":"levelo://app?vid=d20e7dd1-c0ce-4e63-b6fe-439fd2d44a3a"},"vehicle_type_id":"4","last_reported":1777499443,"current_range_meters":8400,"station_id":"ce4bhah2rcd13ifvqej0","pricing_plan_id":"cebpf4jnsgd1na2vs0mg"},{"bike_id":"ae5dfbbd-1caf-4019-b26d-f227bc82a32c","system_id":"levelo_inurba_marseille","lat":43.31993,"lon":5.38165,"is_reserved":false,"is_disabled":false,"rental_uris":{"android":"levelo://app?vid=ae5dfbbd-1caf-4019-b26d-f227bc82a32c","ios":"levelo://app?vid=ae5dfbbd-1caf-4019-b26d-f227bc82a32c"},"vehicle_type_id":"4","last_reported":1777499443,"current_range_meters":8400,"station_id":"ce4bhr12rcd13ifvqhpg","pricing_plan_id":"cebpf4jnsgd1na2vs0mg"},{"bike_id":"dd649e74-ed5e-4ce6-b6fc-191746436a7b","system_id":"levelo_inurba_marseille","lat":43.25075,"lon":5.42513,"is_reserved":false,"is_disabled":false,"rental_uris":{"android":"levelo://app?vid=dd649e74-ed5e-4ce6-b6fc-191746436a7b","ios":"levelo://app?vid=dd649e74-ed5e-4ce6-b6fc-191746436a7b"},"vehicle_type_id":"4","last_reported":1777499443,"current_range_meters":8400,"station_id":"","pricing_plan_id":"cebpf4jnsgd1na2vs0mg"},{"bike_id":"dee044cf-2f66-47af-8c49-b579901e7a7b","system_id":"levelo_inurba_marseille","lat":43.24949,"lon":5.40494,"is_reserved":false,"is_disabled":false,"rental_uris":{"android":"levelo://app?vid=dee044cf-2f66-47af-8c49-b579901e7a7b","ios":"levelo://app?vid=dee044cf-2f66-47af-8c49-b579901e7a7b"},"vehicle_type_id":"4","last_reported":1777499443,"current_range_meters":8400,"station_id":"st_d2ngiaodas8pm72gd1h0","pricing_plan_id":"cebpf4jnsgd1na2vs0mg"},{"bike_id":"3be4a7db-61a4-4555-aa09-c404800b0f79","system_id":"levelo_inurba_marseille","lat":43.33159,"lon":5.37683,"is_reserved":false,"is_disabled":false,"rental_uris":{"android":"levelo://app?vid=3be4a7db-61a4-4555-aa09-c404800b0f79","ios":"levelo://app?vid=3be4a7db-61a4-4555-aa09-c404800b0f79"},"vehicle_type_id":"4","last_reported":1777499443,"current_range_meters":8400,"station_id":"st_d46cu089ee8s73dldbu0","pricing_plan_id":"cebpf4jnsgd1na2vs0mg"},{"bike_id":"486754d9-e4fe-4ce6-be2d-73e031393d75","system_id":"levelo_inurba_marseille","lat":43.26561,"lon":5.37278,"is_reserved":false,"is_disabled":false,"rental_uris":{"android":"levelo://app?vid=486754d9-e4fe-4ce6-be2d-73e031393d75","ios":"levelo://app?vid=486754d9-e4fe-4ce6-be2d-73e031393d75"},"vehicle_type_id":"4","last_reported":1777499443,"current_range_meters":8400,"station_id":"ce4bhg12rcd13ifvqf70","pricing_plan_id":"cebpf4jnsgd1na2vs0mg"},{"bike_id":"60d77da4-6419-429b-9e7a-b2cf161a2f69","system_id":"levelo_inurba_marseille","lat":43.32642,"lon":5.39497,"is_reserved":false,"is_disabled":false,"rental_uris":{"android":"levelo://app?vid=60d77da4-6419-429b-9e7a-b2cf161a2f69","ios":"levelo://app?vid=60d77da4-6419-429b-9e7a-b2cf161a2f69"},"vehicle_type_id":"4","last_reported":1777499443,"current_range_meters":8400,"station_id":"","pricing_plan_id":"cebpf4jnsgd1na2vs0mg"},{"bike_id":"67f14d76-7533-4b57-a379-d5e462e525ab","system_id":"levelo_inurba_marseille","lat":43.24958,"lon":5.4049,"is_reserved":false,"is_disabled":false,"rental_uris":{"android":"levelo://app?vid=67f14d76-7533-4b57-a379-d5e462e525ab","ios":"levelo://app?vid=67f14d76-7533-4b57-a379-d5e462e525ab"},"vehicle_type_id":"4","last_reported":1777499443,"current_range_meters":8800,"station_id":"st_d2ngiaodas8pm72gd1h0","pricing_plan_id":"cebpf4jnsgd1na2vs0mg"},{"bike_id":"5a8c60a4-2348-419c-bc04-e77900ec74d4","system_id":"levelo_inurba_marseille","lat":43.2811,"lon":5.37849,"is_reserved":false,"is_disabled":false,"rental_uris":{"android":"levelo://app?vid=5a8c60a4-2348-419c-bc04-e77900ec74d4","ios":"levelo://app?vid=5a8c60a4-2348-419c-bc04-e77900ec74d4"},"vehicle_type_id":"4","last_reported":1777499443,"current_range_meters":8800,"station_id":"ce4bha12rcd13ifvqee0","pricing_plan_id":"cebpf4jnsgd1na2vs0mg"},{"bike_id":"1f7a6ae0-f1ec-49cf-b1ad-70943b7230f5","system_id":"levelo_inurba_marseille","lat":43.28663,"lon":5.41514,"is_reserved":false,"is_disabled":false,"rental_uris":{"android":"levelo://app?vid=1f7a6ae0-f1ec-49cf-b1ad-70943b7230f5","ios":"levelo://app?vid=1f7a6ae0-f1ec-49cf-b1ad-70943b7230f5"},"vehicle_type_id":"4","last_reported":1777499443,"current_range_meters":8800,"station_id":"","pricing_plan_id":"cebpf4jnsgd1na2vs0mg"},{"bike_id":"3c3103cb-26c9-410d-a5af-cb2f4bb78f8c","system_id":"levelo_inurba_marseille","lat":43.29773,"lon":5.39359,"is_reserved":false,"is_disabled":false,"rental_uris":{"android":"levelo://app?vid=3c3103cb-26c9-410d-a5af-cb2f4bb78f8c","ios":"levelo://app?vid=3c3103cb-26c9-410d-a5af-cb2f4bb78f8c"},"vehicle_type_id":"4","last_reported":1777499443,"current_range_meters":8800,"station_id":"chh1huq6cuj3fo74tm60","pricing_plan_id":"cebpf4jnsgd1na2vs0mg"},{"bike_id":"c9a70d1c-d704-4c7d-bc3b-2b3d635492af","system_id":"levelo_inurba_marseille","lat":43.27189,"lon":5.40985,"is_reserved":false,"is_disabled":false,"rental_uris":{"android":"levelo://app?vid=c9a70d1c-d704-4c7d-bc3b-2b3d635492af","ios":"levelo://app?vid=c9a70d1c-d704-4c7d-bc3b-2b3d635492af"},"vehicle_type_id":"4","last_reported":1777499443,"current_range_meters":8800,"station_id":"ce4bhl12rcd13ifvqgf0","pricing_plan_id":"cebpf4jnsgd1na2vs0mg"},{"bike_id":"9c85ea94-e0db-4d3e-baca-fa152ee440d3","system_id":"levelo_inurba_marseille","lat":43.25565,"lon":5.38218,"is_reserved":false,"is_disabled":false,"rental_uris":{"android":"levelo://app?vid=9c85ea94-e0db-4d3e-baca-fa152ee440d3","ios":"levelo://app?vid=9c85ea94-e0db-4d3e-baca-fa152ee440d3"},"vehicle_type_id":"4","last_reported":1777499443,"current_range_meters":8800,"station_id":"ce4bhih2rcd13ifvqfs0","pricing_plan_id":"cebpf4jnsgd1na2vs0mg"},{"bike_id":"67770120-bd85-4b15-af1e-f85ca14859f3","system_id":"levelo_inurba_marseille","lat":43.28869,"lon":5.42516,"is_reserved":false,"is_disabled":false,"rental_uris":{"android":"levelo://app?vid=67770120-bd85-4b15-af1e-f85ca14859f3","ios":"levelo://app?vid=67770120-bd85-4b15-af1e-f85ca14859f3"},"vehicle_type_id":"4","last_reported":1777499443,"current_range_meters":8800,"station_id":"st_d3b462108ojc7389ooeg","pricing_plan_id":"cebpf4jnsgd1na2vs0mg"},{"bike_id":"b664614e-0298-48de-96bc-27654df9d7fb","system_id":"levelo_inurba_marseille","lat":43.2569,"lon":5.39978,"is_reserved":false,"is_disabled":false,"rental_uris":{"android":"levelo://app?vid=b664614e-0298-48de-96bc-27654df9d7fb","ios":"levelo://app?vid=b664614e-0298-48de-96bc-27654df9d7fb"},"vehicle_type_id":"4","last_reported":1777499443,"current_range_meters":8800,"station_id":"","pricing_plan_id":"cebpf4jnsgd1na2vs0mg"},{"bike_id":"a3fe8c5c-70c7-4f3f-87e8-08f9ad008d4b","system_id":"levelo_inurba_marseille","lat":43.30142,"lon":5.38794,"is_reserved":false,"is_disabled":false,"rental_uris":{"android":"levelo://app?vid=a3fe8c5c-70c7-4f3f-87e8-08f9ad008d4b","ios":"levelo://app?vid=a3fe8c5c-70c7-4f3f-87e8-08f9ad008d4b"},"vehicle_type_id":"4","last_reported":1777499443,"current_range_meters":8800,"station_id":"ce4bghh2rcd13ifvqb60","pricing_plan_id":"cebpf4jnsgd1na2vs0mg"},{"bike_id":"5cc847c3-c7ab-4803-a64a-cfb2e18548c3","system_id":"levelo_inurba_marseille","lat":43.29647,"lon":5.37031,"is_reserved":false,"is_disabled":false,"rental_uris":{"android":"levelo://app?vid=5cc847c3-c7ab-4803-a64a-cfb2e18548c3","ios":"levelo://app?vid=5cc847c3-c7ab-4803-a64a-cfb2e18548c3"},"vehicle_type_id":"4","last_reported":1777499443,"current_range_meters":8800,"station_id":"","pricing_plan_id":"cebpf4jnsgd1na2vs0mg"},{"bike_id":"b432775d-0815-483e-8816-3dba71ffd2cd","system_id":"levelo_inurba_marseille","lat":43.28937,"lon":5.36622,"is_reserved":false,"is_disabled":false,"rental_uris":{"android":"levelo://app?vid=b432775d-0815-483e-8816-3dba71ffd2cd","ios":"levelo://app?vid=b432775d-0815-483e-8816-3dba71ffd2cd"},"vehicle_type_id":"4","last_reported":1777499443,"current_range_meters":8800,"station_id":"ce4bhap2rcd13ifvqek0","pricing_plan_id":"cebpf4jnsgd1na2vs0mg"},{"bike_id":"05e4ef0d-58ba-48e6-b531-b9d38c0f53a4","system_id":"levelo_inurba_marseille","lat":43.30192,"lon":5.36628,"is_reserved":false,"is_disabled":false,"rental_uris":{"android":"levelo://app?vid=05e4ef0d-58ba-48e6-b531-b9d38c0f53a4","ios":"levelo://app?vid=05e4ef0d-58ba-48e6-b531-b9d38c0f53a4"},"vehicle_type_id":"4","last_reported":1777499443,"current_range_meters":8800,"station_id":"ce4bgrh2rcd13ifvqc8g","pricing_plan_id":"cebpf4jnsgd1na2vs0mg"},{"bike_id":"7be06c3a-8473-4b45-a3f6-aea060cfe576","system_id":"levelo_inurba_marseille","lat":43.25603,"lon":5.38202,"is_reserved":false,"is_disabled":false,"rental_uris":{"android":"levelo://app?vid=7be06c3a-8473-4b45-a3f6-aea060cfe576","ios":"levelo://app?vid=7be06c3a-8473-4b45-a3f6-aea060cfe576"},"vehicle_type_id":"4","last_reported":1777499443,"current_range_meters":8800,"station_id":"ce4bhih2rcd13ifvqfs0","pricing_plan_id":"cebpf4jnsgd1na2vs0mg"},{"bike_id":"081193c3-5c1d-4449-a803-3414be36e008","system_id":"levelo_inurba_marseille","lat":43.30104,"lon":5.39068,"is_reserved":false,"is_disabled":false,"rental_uris":{"android":"levelo://app?vid=081193c3-5c1d-4449-a803-3414be36e008","ios":"levelo://app?vid=081193c3-5c1d-4449-a803-3414be36e008"},"vehicle_type_id":"4","last_reported":1777499443,"current_range_meters":8800,"station_id":"ce4bh192rcd13ifvqdb0","pricing_plan_id":"cebpf4jnsgd1na2vs0mg"},{"bike_id":"ee6a3540-ce9d-481a-aea0-1ace92116eeb","system_id":"levelo_inurba_marseille","lat":43.30443,"lon":5.38873,"is_reserved":false,"is_disabled":true,"rental_uris":{"android":"levelo://app?vid=ee6a3540-ce9d-481a-aea0-1ace92116eeb","ios":"levelo://app?vid=ee6a3540-ce9d-481a-aea0-1ace92116eeb"},"vehicle_type_id":"4","last_reported":1777499443,"current_range_meters":8800,"station_id":"ce4bgk12rcd13ifvqbi0","pricing_plan_id":"cebpf4jnsgd1na2vs0mg"},{"bike_id":"8e94c400-bf74-4fb6-80b8-f54c0ec64626","system_id":"levelo_inurba_marseille","lat":43.29878,"lon":5.39727,"is_reserved":false,"is_disabled":false,"rental_uris":{"android":"levelo://app?vid=8e94c400-bf74-4fb6-80b8-f54c0ec64626","ios":"levelo://app?vid=8e94c400-bf74-4fb6-80b8-f54c0ec64626"},"vehicle_type_id":"4","last_reported":1777499443,"current_range_meters":8800,"station_id":"ce4bh0h2rcd13ifvqd50","pricing_plan_id":"cebpf4jnsgd1na2vs0mg"},{"bike_id":"4ebf2ac9-d757-47ad-ba0b-714b235991dd","system_id":"levelo_inurba_marseille","lat":43.28162,"lon":5.42644,"is_reserved":false,"is_disabled":false,"rental_uris":{"android":"levelo://app?vid=4ebf2ac9-d757-47ad-ba0b-714b235991dd","ios":"levelo://app?vid=4ebf2ac9-d757-47ad-ba0b-714b235991dd"},"vehicle_type_id":"4","last_reported":1777499443,"current_range_meters":8800,"station_id":"ce4bhnh2rcd13ifvqgug","pricing_plan_id":"cebpf4jnsgd1na2vs0mg"},{"bike_id":"42996d10-7192-4a9b-94e6-de2ceb25ee0d","system_id":"levelo_inurba_marseille","lat":43.29536,"lon":5.38538,"is_reserved":false,"is_disabled":false,"rental_uris":{"android":"levelo://app?vid=42996d10-7192-4a9b-94e6-de2ceb25ee0d","ios":"levelo://app?vid=42996d10-7192-4a9b-94e6-de2ceb25ee0d"},"vehicle_type_id":"4","last_reported":1777499443,"current_range_meters":8800,"station_id":"ce4bgih2rcd13ifvqba0","pricing_plan_id":"cebpf4jnsgd1na2vs0mg"},{"bike_id":"30f68e38-20af-4e90-8f06-355a06db73fd","system_id":"levelo_inurba_marseille","lat":43.283498,"lon":5.38112,"is_reserved":false,"is_disabled":false,"rental_uris":{"android":"levelo://app?vid=30f68e38-20af-4e90-8f06-355a06db73fd","ios":"levelo://app?vid=30f68e38-20af-4e90-8f06-355a06db73fd"},"vehicle_type_id":"4","last_reported":1777499443,"current_range_meters":8800,"station_id":"ce4bh412rcd13ifvqdr0","pricing_plan_id":"cebpf4jnsgd1na2vs0mg"},{"bike_id":"a2a694ab-bd57-45a8-a651-048e4cefae01","system_id":"levelo_inurba_marseille","lat":43.28729,"lon":5.46679,"is_reserved":false,"is_disabled":false,"rental_uris":{"android":"levelo://app?vid=a2a694ab-bd57-45a8-a651-048e4cefae01","ios":"levelo://app?vid=a2a694ab-bd57-45a8-a651-048e4cefae01"},"vehicle_type_id":"4","last_reported":1777499443,"current_range_meters":8800,"station_id":"st_d6tc3vkotcvc738tfjhg","pricing_plan_id":"cebpf4jnsgd1na2vs0mg"},{"bike_id":"9da0ce04-fea7-4211-9b8c-75f2176dd9ad","system_id":"levelo_inurba_marseille","lat":43.29872,"lon":5.39734,"is_reserved":false,"is_disabled":false,"rental_uris":{"android":"levelo://app?vid=9da0ce04-fea7-4211-9b8c-75f2176dd9ad","ios":"levelo://app?vid=9da0ce04-fea7-4211-9b8c-75f2176dd9ad"},"vehicle_type_id":"4","last_reported":1777499443,"current_range_meters":8800,"station_id":"ce4bh0h2rcd13ifvqd50","pricing_plan_id":"cebpf4jnsgd1na2vs0mg"},{"bike_id":"9087a029-3792-4d95-bab1-f70d1a6c3adc","system_id":"levelo_inurba_marseille","lat":43.27562,"lon":5.38407,"is_reserved":false,"is_disabled":false,"rental_uris":{"android":"levelo://app?vid=9087a029-3792-4d95-bab1-f70d1a6c3adc","ios":"levelo://app?vid=9087a029-3792-4d95-bab1-f70d1a6c3adc"},"vehicle_type_id":"4","last_reported":1777499443,"current_range_meters":8800,"station_id":"ce4bhh92rcd13ifvqfi0","pricing_plan_id":"cebpf4jnsgd1na2vs0mg"},{"bike_id":"bcd1743e-bca8-4bd5-8fb6-f561d5b1c6e5","system_id":"levelo_inurba_marseille","lat":43.30079,"lon":5.3976,"is_reserved":false,"is_disabled":false,"rental_uris":{"android":"levelo://app?vid=bcd1743e-bca8-4bd5-8fb6-f561d5b1c6e5","ios":"levelo://app?vid=bcd1743e-bca8-4bd5-8fb6-f561d5b1c6e5"},"vehicle_type_id":"4","last_reported":1777499443,"current_range_meters":8800,"station_id":"","pricing_plan_id":"cebpf4jnsgd1na2vs0mg"},{"bike_id":"7dea69af-d47d-4fc9-8b9c-1b671f63ec28","system_id":"levelo_inurba_marseille","lat":43.292,"lon":5.39299,"is_reserved":false,"is_disabled":false,"rental_uris":{"android":"levelo://app?vid=7dea69af-d47d-4fc9-8b9c-1b671f63ec28","ios":"levelo://app?vid=7dea69af-d47d-4fc9-8b9c-1b671f63ec28"},"vehicle_type_id":"4","last_reported":1777499443,"current_range_meters":8800,"station_id":"ce4bh192rcd13ifvqdd0","pricing_plan_id":"cebpf4jnsgd1na2vs0mg"},{"bike_id":"fa7e045d-8c9f-4859-94b9-0ac50a9adab0","system_id":"levelo_inurba_marseille","lat":43.31116,"lon":5.37777,"is_reserved":false,"is_disabled":false,"rental_uris":{"android":"levelo://app?vid=fa7e045d-8c9f-4859-94b9-0ac50a9adab0","ios":"levelo://app?vid=fa7e045d-8c9f-4859-94b9-0ac50a9adab0"},"vehicle_type_id":"4","last_reported":1777499443,"current_range_meters":8800,"station_id":"ce4bgt92rcd13ifvqcg0","pricing_plan_id":"cebpf4jnsgd1na2vs0mg"},{"bike_id":"ccf64a06-0402-4d19-ab1d-73eaade10aee","system_id":"levelo_inurba_marseille","lat":43.3116,"lon":5.387,"is_reserved":false,"is_disabled":false,"rental_uris":{"android":"levelo://app?vid=ccf64a06-0402-4d19-ab1d-73eaade10aee","ios":"levelo://app?vid=ccf64a06-0402-4d19-ab1d-73eaade10aee"},"vehicle_type_id":"4","last_reported":1777499443,"current_range_meters":8800,"station_id":"ce4bgv12rcd13ifvqcp0","pricing_plan_id":"cebpf4jnsgd1na2vs0mg"},{"bike_id":"67d593ff-ef40-4505-a1f6-820208243d43","system_id":"levelo_inurba_marseille","lat":43.28459,"lon":5.39222,"is_reserved":false,"is_disabled":false,"rental_uris":{"android":"levelo://app?vid=67d593ff-ef40-4505-a1f6-820208243d43","ios":"levelo://app?vid=67d593ff-ef40-4505-a1f6-820208243d43"},"vehicle_type_id":"4","last_reported":1777499443,"current_range_meters":8800,"station_id":"ce4bhoh2rcd13ifvqh5g","pricing_plan_id":"cebpf4jnsgd1na2vs0mg"},{"bike_id":"5bb9c1c5-7495-453c-9b09-a522a41f8d43","system_id":"levelo_inurba_marseille","lat":43.25531,"lon":5.40318,"is_reserved":false,"is_disabled":false,"rental_uris":{"android":"levelo://app?vid=5bb9c1c5-7495-453c-9b09-a522a41f8d43","ios":"levelo://app?vid=5bb9c1c5-7495-453c-9b09-a522a41f8d43"},"vehicle_type_id":"4","last_reported":1777499443,"current_range_meters":8800,"station_id":"","pricing_plan_id":"cebpf4jnsgd1na2vs0mg"},{"bike_id":"c8948370-8c37-4be4-871c-799685e22b12","system_id":"levelo_inurba_marseille","lat":43.26369,"lon":5.41088,"is_reserved":false,"is_disabled":false,"rental_uris":{"android":"levelo://app?vid=c8948370-8c37-4be4-871c-799685e22b12","ios":"levelo://app?vid=c8948370-8c37-4be4-871c-799685e22b12"},"vehicle_type_id":"4","last_reported":1777499443,"current_range_meters":8800,"station_id":"st_d4e5ca6na9uc73bfl5fg","pricing_plan_id":"cebpf4jnsgd1na2vs0mg"},{"bike_id":"63020567-19a9-43a3-bb18-25472ade9a5f","system_id":"levelo_inurba_marseille","lat":43.29535,"lon":5.38538,"is_reserved":false,"is_disabled":false,"rental_uris":{"android":"levelo://app?vid=63020567-19a9-43a3-bb18-25472ade9a5f","ios":"levelo://app?vid=63020567-19a9-43a3-bb18-25472ade9a5f"},"vehicle_type_id":"4","last_reported":1777499443,"current_range_meters":8800,"station_id":"ce4bgih2rcd13ifvqba0","pricing_plan_id":"cebpf4jnsgd1na2vs0mg"},{"bike_id":"105f32f6-c368-4de0-8ad5-1075cdf8978e","system_id":"levelo_inurba_marseille","lat":43.24097,"lon":5.36474,"is_reserved":false,"is_disabled":false,"rental_uris":{"android":"levelo://app?vid=105f32f6-c368-4de0-8ad5-1075cdf8978e","ios":"levelo://app?vid=105f32f6-c368-4de0-8ad5-1075cdf8978e"},"vehicle_type_id":"4","last_reported":1777499443,"current_range_meters":8800,"station_id":"","pricing_plan_id":"cebpf4jnsgd1na2vs0mg"},{"bike_id":"46523cb2-6b8e-455f-9277-3808cf80d4d2","system_id":"levelo_inurba_marseille","lat":43.337444,"lon":5.374475,"is_reserved":false,"is_disabled":true,"rental_uris":{"android":"levelo://app?vid=46523cb2-6b8e-455f-9277-3808cf80d4d2","ios":"levelo://app?vid=46523cb2-6b8e-455f-9277-3808cf80d4d2"},"vehicle_type_id":"4","last_reported":1777499443,"current_range_meters":9200,"station_id":"","pricing_plan_id":"cebpf4jnsgd1na2vs0mg"},{"bike_id":"aa1066a2-52ee-4b5e-9ea8-f5bfb38bf0a4","system_id":"levelo_inurba_marseille","lat":43.32343,"lon":5.36733,"is_reserved":false,"is_disabled":false,"rental_uris":{"android":"levelo://app?vid=aa1066a2-52ee-4b5e-9ea8-f5bfb38bf0a4","ios":"levelo://app?vid=aa1066a2-52ee-4b5e-9ea8-f5bfb38bf0a4"},