{"last_updated":1702674367,"ttl":30,"version":"2.2","data":{"bikes":[{"bike_id":"9eea7540-24ba-473f-9243-0bded8c603a8","system_id":"levelo_inurba_marseille","lat":43.31341,"lon":5.367098,"is_reserved":false,"is_disabled":false,"rental_uris":{"android":"levelo://app?vid=9eea7540-24ba-473f-9243-0bded8c603a8","ios":"levelo://app?vid=9eea7540-24ba-473f-9243-0bded8c603a8"},"vehicle_type_id":"4","last_reported":1702674368,"current_range_meters":20800,"station_id":"ce4bgr92rcd13ifvqc6g","pricing_plan_id":"free"},{"bike_id":"3f8b821f-e430-4a35-bf14-f8b6e777ea11","system_id":"levelo_inurba_marseille","lat":43.313939,"lon":5.375306,"is_reserved":false,"is_disabled":false,"rental_uris":{"android":"levelo://app?vid=3f8b821f-e430-4a35-bf14-f8b6e777ea11","ios":"levelo://app?vid=3f8b821f-e430-4a35-bf14-f8b6e777ea11"},"vehicle_type_id":"4","last_reported":1702674368,"current_range_meters":0,"station_id":"","pricing_plan_id":"free"},{"bike_id":"21f18285-55e2-4f19-950f-e1604680d775","system_id":"levelo_inurba_marseille","lat":43.305368,"lon":5.367343,"is_reserved":false,"is_disabled":false,"rental_uris":{"android":"levelo://app?vid=21f18285-55e2-4f19-950f-e1604680d775","ios":"levelo://app?vid=21f18285-55e2-4f19-950f-e1604680d775"},"vehicle_type_id":"4","last_reported":1702674368,"current_range_meters":3200,"station_id":"ce4bgrp2rcd13ifvqc9g","pricing_plan_id":"free"},{"bike_id":"17b398c2-9b59-49dc-9417-4bec749212e1","system_id":"levelo_inurba_marseille","lat":43.286591,"lon":5.363346,"is_reserved":false,"is_disabled":false,"rental_uris":{"android":"levelo://app?vid=17b398c2-9b59-49dc-9417-4bec749212e1","ios":"levelo://app?vid=17b398c2-9b59-49dc-9417-4bec749212e1"},"vehicle_type_id":"4","last_reported":1702674368,"current_range_meters":18400,"station_id":"ce4bhah2rcd13ifvqej0","pricing_plan_id":"free"},{"bike_id":"955e4ab2-16e5-44e8-a986-a2f50ff96c06","system_id":"levelo_inurba_marseille","lat":43.305382,"lon":5.365389,"is_reserved":false,"is_disabled":false,"rental_uris":{"android":"levelo://app?vid=955e4ab2-16e5-44e8-a986-a2f50ff96c06","ios":"levelo://app?vid=955e4ab2-16e5-44e8-a986-a2f50ff96c06"},"vehicle_type_id":"4","last_reported":1702674368,"current_range_meters":18000,"station_id":"","pricing_plan_id":"free"},{"bike_id":"37480a4d-1ce9-421b-8587-12d2f7ed17e2","system_id":"levelo_inurba_marseille","lat":43.305989,"lon":5.37225,"is_reserved":false,"is_disabled":false,"rental_uris":{"android":"levelo://app?vid=37480a4d-1ce9-421b-8587-12d2f7ed17e2","ios":"levelo://app?vid=37480a4d-1ce9-421b-8587-12d2f7ed17e2"},"vehicle_type_id":"4","last_reported":1702674368,"current_range_meters":10400,"station_id":"ce4bgqh2rcd13ifvqc4g","pricing_plan_id":"free"},{"bike_id":"e8c16822-fe47-4c92-b5ea-b40c0197fa8c","system_id":"levelo_inurba_marseille","lat":43.305989,"lon":5.37225,"is_reserved":false,"is_disabled":false,"rental_uris":{"android":"levelo://app?vid=e8c16822-fe47-4c92-b5ea-b40c0197fa8c","ios":"levelo://app?vid=e8c16822-fe47-4c92-b5ea-b40c0197fa8c"},"vehicle_type_id":"4","last_reported":1702674368,"current_range_meters":28400,"station_id":"ce4bgqh2rcd13ifvqc4g","pricing_plan_id":"free"},{"bike_id":"688d589f-e7b3-4777-8e07-6fd8148f2d76","system_id":"levelo_inurba_marseille","lat":43.31125,"lon":5.37769,"is_reserved":false,"is_disabled":false,"rental_uris":{"android":"levelo://app?vid=688d589f-e7b3-4777-8e07-6fd8148f2d76","ios":"levelo://app?vid=688d589f-e7b3-4777-8e07-6fd8148f2d76"},"vehicle_type_id":"4","last_reported":1702674368,"current_range_meters":0,"station_id":"ce4bgt92rcd13ifvqcg0","pricing_plan_id":"free"},{"bike_id":"f4f300bf-fb1c-4cca-8e5b-93856af5707d","system_id":"levelo_inurba_marseille","lat":43.307945,"lon":5.376487,"is_reserved":false,"is_disabled":false,"rental_uris":{"android":"levelo://app?vid=f4f300bf-fb1c-4cca-8e5b-93856af5707d","ios":"levelo://app?vid=f4f300bf-fb1c-4cca-8e5b-93856af5707d"},"vehicle_type_id":"4","last_reported":1702674368,"current_range_meters":4400,"station_id":"ce4bgv92rcd13ifvqcq0","pricing_plan_id":"free"},{"bike_id":"65f362cf-4185-40bd-9bdc-75ac3684eac7","system_id":"levelo_inurba_marseille","lat":43.307945,"lon":5.376487,"is_reserved":false,"is_disabled":false,"rental_uris":{"android":"levelo://app?vid=65f362cf-4185-40bd-9bdc-75ac3684eac7","ios":"levelo://app?vid=65f362cf-4185-40bd-9bdc-75ac3684eac7"},"vehicle_type_id":"4","last_reported":1702674368,"current_range_meters":21200,"station_id":"ce4bgv92rcd13ifvqcq0","pricing_plan_id":"free"},{"bike_id":"5e39cacd-4f47-46aa-b469-20ce9e1ba57c","system_id":"levelo_inurba_marseille","lat":43.32139,"lon":5.36749,"is_reserved":false,"is_disabled":false,"rental_uris":{"android":"levelo://app?vid=5e39cacd-4f47-46aa-b469-20ce9e1ba57c","ios":"levelo://app?vid=5e39cacd-4f47-46aa-b469-20ce9e1ba57c"},"vehicle_type_id":"4","last_reported":1702674368,"current_range_meters":5600,"station_id":"","pricing_plan_id":"free"},{"bike_id":"06a2b8ec-4516-47cb-8f32-5a7996493b2d","system_id":"levelo_inurba_marseille","lat":43.317075,"lon":5.377367,"is_reserved":false,"is_disabled":false,"rental_uris":{"android":"levelo://app?vid=06a2b8ec-4516-47cb-8f32-5a7996493b2d","ios":"levelo://app?vid=06a2b8ec-4516-47cb-8f32-5a7996493b2d"},"vehicle_type_id":"4","last_reported":1702674368,"current_range_meters":4800,"station_id":"ce4bgth2rcd13ifvqch0","pricing_plan_id":"free"},{"bike_id":"33858e5b-f48b-40ee-88f1-169fb62afdc9","system_id":"levelo_inurba_marseille","lat":43.315293,"lon":5.380349,"is_reserved":false,"is_disabled":false,"rental_uris":{"android":"levelo://app?vid=33858e5b-f48b-40ee-88f1-169fb62afdc9","ios":"levelo://app?vid=33858e5b-f48b-40ee-88f1-169fb62afdc9"},"vehicle_type_id":"4","last_reported":1702674368,"current_range_meters":22400,"station_id":"ce4bhsp2rcd13ifvqi50","pricing_plan_id":"free"},{"bike_id":"112889bc-8d0f-431d-9767-314715ea602b","system_id":"levelo_inurba_marseille","lat":43.3155,"lon":5.380293,"is_reserved":false,"is_disabled":false,"rental_uris":{"android":"levelo://app?vid=112889bc-8d0f-431d-9767-314715ea602b","ios":"levelo://app?vid=112889bc-8d0f-431d-9767-314715ea602b"},"vehicle_type_id":"4","last_reported":1702674368,"current_range_meters":18800,"station_id":"ce4bhsp2rcd13ifvqi50","pricing_plan_id":"free"},{"bike_id":"082d8808-4885-4919-9cc0-ea9b6bef0528","system_id":"levelo_inurba_marseille","lat":43.31532,"lon":5.38037,"is_reserved":false,"is_disabled":false,"rental_uris":{"android":"levelo://app?vid=082d8808-4885-4919-9cc0-ea9b6bef0528","ios":"levelo://app?vid=082d8808-4885-4919-9cc0-ea9b6bef0528"},"vehicle_type_id":"4","last_reported":1702674368,"current_range_meters":8800,"station_id":"ce4bhsp2rcd13ifvqi50","pricing_plan_id":"free"},{"bike_id":"c5aa7319-d910-4e91-8f41-7476377dc0a4","system_id":"levelo_inurba_marseille","lat":43.30407,"lon":5.37604,"is_reserved":false,"is_disabled":false,"rental_uris":{"android":"levelo://app?vid=c5aa7319-d910-4e91-8f41-7476377dc0a4","ios":"levelo://app?vid=c5aa7319-d910-4e91-8f41-7476377dc0a4"},"vehicle_type_id":"4","last_reported":1702674368,"current_range_meters":10800,"station_id":"","pricing_plan_id":"free"},{"bike_id":"5dd554d1-3b0d-4543-9b49-d17ca54dffa5","system_id":"levelo_inurba_marseille","lat":43.308012,"lon":5.381511,"is_reserved":false,"is_disabled":false,"rental_uris":{"android":"levelo://app?vid=5dd554d1-3b0d-4543-9b49-d17ca54dffa5","ios":"levelo://app?vid=5dd554d1-3b0d-4543-9b49-d17ca54dffa5"},"vehicle_type_id":"4","last_reported":1702674368,"current_range_meters":0,"station_id":"ce4bgt12rcd13ifvqce0","pricing_plan_id":"free"},{"bike_id":"e727bf59-f813-48d0-9ce3-6b6a95a2cc6a","system_id":"levelo_inurba_marseille","lat":43.308012,"lon":5.381511,"is_reserved":false,"is_disabled":false,"rental_uris":{"android":"levelo://app?vid=e727bf59-f813-48d0-9ce3-6b6a95a2cc6a","ios":"levelo://app?vid=e727bf59-f813-48d0-9ce3-6b6a95a2cc6a"},"vehicle_type_id":"4","last_reported":1702674368,"current_range_meters":0,"station_id":"ce4bgt12rcd13ifvqce0","pricing_plan_id":"free"},{"bike_id":"88f7ea2a-62f7-4a88-9e9d-900940b4d7e5","system_id":"levelo_inurba_marseille","lat":43.32477,"lon":5.365628,"is_reserved":false,"is_disabled":false,"rental_uris":{"android":"levelo://app?vid=88f7ea2a-62f7-4a88-9e9d-900940b4d7e5","ios":"levelo://app?vid=88f7ea2a-62f7-4a88-9e9d-900940b4d7e5"},"vehicle_type_id":"4","last_reported":1702674368,"current_range_meters":19200,"station_id":"ce4bhs12rcd13ifvqhvg","pricing_plan_id":"free"},{"bike_id":"f1cde3ff-6cd4-4e86-99bc-06e7a73fc0a0","system_id":"levelo_inurba_marseille","lat":43.32481,"lon":5.365593,"is_reserved":false,"is_disabled":false,"rental_uris":{"android":"levelo://app?vid=f1cde3ff-6cd4-4e86-99bc-06e7a73fc0a0","ios":"levelo://app?vid=f1cde3ff-6cd4-4e86-99bc-06e7a73fc0a0"},"vehicle_type_id":"4","last_reported":1702674368,"current_range_meters":20400,"station_id":"ce4bhs12rcd13ifvqhvg","pricing_plan_id":"free"},{"bike_id":"dfe62985-6f65-471f-8bdb-4e96693a7937","system_id":"levelo_inurba_marseille","lat":43.3249,"lon":5.36593,"is_reserved":false,"is_disabled":false,"rental_uris":{"android":"levelo://app?vid=dfe62985-6f65-471f-8bdb-4e96693a7937","ios":"levelo://app?vid=dfe62985-6f65-471f-8bdb-4e96693a7937"},"vehicle_type_id":"4","last_reported":1702674368,"current_range_meters":20800,"station_id":"ce4bhs12rcd13ifvqhvg","pricing_plan_id":"free"},{"bike_id":"29103955-731a-4e6b-aade-0a731f58f869","system_id":"levelo_inurba_marseille","lat":43.301429,"lon":5.37413,"is_reserved":false,"is_disabled":false,"rental_uris":{"android":"levelo://app?vid=29103955-731a-4e6b-aade-0a731f58f869","ios":"levelo://app?vid=29103955-731a-4e6b-aade-0a731f58f869"},"vehicle_type_id":"4","last_reported":1702674368,"current_range_meters":27600,"station_id":"ce4bgs92rcd13ifvqcc0","pricing_plan_id":"free"},{"bike_id":"2716ecf2-2796-49fc-8310-074102d61e52","system_id":"levelo_inurba_marseille","lat":43.313571,"lon":5.384829,"is_reserved":false,"is_disabled":false,"rental_uris":{"android":"levelo://app?vid=2716ecf2-2796-49fc-8310-074102d61e52","ios":"levelo://app?vid=2716ecf2-2796-49fc-8310-074102d61e52"},"vehicle_type_id":"4","last_reported":1702674368,"current_range_meters":9600,"station_id":"ce4bgt92rcd13ifvqcf0","pricing_plan_id":"free"},{"bike_id":"0073900a-5c47-44b8-b6b2-5bccaf75d5e4","system_id":"levelo_inurba_marseille","lat":43.299724,"lon":5.371829,"is_reserved":false,"is_disabled":false,"rental_uris":{"android":"levelo://app?vid=0073900a-5c47-44b8-b6b2-5bccaf75d5e4","ios":"levelo://app?vid=0073900a-5c47-44b8-b6b2-5bccaf75d5e4"},"vehicle_type_id":"4","last_reported":1702674368,"current_range_meters":22000,"station_id":"ce4bgr92rcd13ifvqc7g","pricing_plan_id":"free"},{"bike_id":"8df6905d-0fe9-4435-887f-9ae2ac01ae4f","system_id":"levelo_inurba_marseille","lat":43.299222,"lon":5.365554,"is_reserved":false,"is_disabled":false,"rental_uris":{"android":"levelo://app?vid=8df6905d-0fe9-4435-887f-9ae2ac01ae4f","ios":"levelo://app?vid=8df6905d-0fe9-4435-887f-9ae2ac01ae4f"},"vehicle_type_id":"4","last_reported":1702674368,"current_range_meters":4000,"station_id":"ce4bgm92rcd13ifvqbr0","pricing_plan_id":"free"},{"bike_id":"f5c66534-57aa-43f9-bd31-24fc654a47b8","system_id":"levelo_inurba_marseille","lat":43.299724,"lon":5.371829,"is_reserved":false,"is_disabled":false,"rental_uris":{"android":"levelo://app?vid=f5c66534-57aa-43f9-bd31-24fc654a47b8","ios":"levelo://app?vid=f5c66534-57aa-43f9-bd31-24fc654a47b8"},"vehicle_type_id":"4","last_reported":1702674368,"current_range_meters":1200,"station_id":"ce4bgr92rcd13ifvqc7g","pricing_plan_id":"free"},{"bike_id":"4cfeee5c-a63d-4ec0-b4ff-b5cc74f4f508","system_id":"levelo_inurba_marseille","lat":43.3131,"lon":5.38637,"is_reserved":false,"is_disabled":false,"rental_uris":{"android":"levelo://app?vid=4cfeee5c-a63d-4ec0-b4ff-b5cc74f4f508","ios":"levelo://app?vid=4cfeee5c-a63d-4ec0-b4ff-b5cc74f4f508"},"vehicle_type_id":"4","last_reported":1702674368,"current_range_meters":0,"station_id":"","pricing_plan_id":"free"},{"bike_id":"302ae721-80ee-4d48-9bc0-76c943256b90","system_id":"levelo_inurba_marseille","lat":43.298433,"lon":5.362774,"is_reserved":false,"is_disabled":false,"rental_uris":{"android":"levelo://app?vid=302ae721-80ee-4d48-9bc0-76c943256b90","ios":"levelo://app?vid=302ae721-80ee-4d48-9bc0-76c943256b90"},"vehicle_type_id":"4","last_reported":1702674368,"current_range_meters":7200,"station_id":"ce4bgpp2rcd13ifvqc3g","pricing_plan_id":"free"},{"bike_id":"04378296-36e4-4591-9054-497136b40447","system_id":"levelo_inurba_marseille","lat":43.298433,"lon":5.362774,"is_reserved":false,"is_disabled":false,"rental_uris":{"android":"levelo://app?vid=04378296-36e4-4591-9054-497136b40447","ios":"levelo://app?vid=04378296-36e4-4591-9054-497136b40447"},"vehicle_type_id":"4","last_reported":1702674368,"current_range_meters":15200,"station_id":"ce4bgpp2rcd13ifvqc3g","pricing_plan_id":"free"},{"bike_id":"c4e77394-aef9-4077-b745-e99148625344","system_id":"levelo_inurba_marseille","lat":43.32733,"lon":5.36707,"is_reserved":false,"is_disabled":false,"rental_uris":{"android":"levelo://app?vid=c4e77394-aef9-4077-b745-e99148625344","ios":"levelo://app?vid=c4e77394-aef9-4077-b745-e99148625344"},"vehicle_type_id":"4","last_reported":1702674368,"current_range_meters":25200,"station_id":"","pricing_plan_id":"free"},{"bike_id":"819cb438-2e9c-4e0b-902b-5e19ef554d5c","system_id":"levelo_inurba_marseille","lat":43.305617,"lon":5.384433,"is_reserved":false,"is_disabled":false,"rental_uris":{"android":"levelo://app?vid=819cb438-2e9c-4e0b-902b-5e19ef554d5c","ios":"levelo://app?vid=819cb438-2e9c-4e0b-902b-5e19ef554d5c"},"vehicle_type_id":"4","last_reported":1702674368,"current_range_meters":19600,"station_id":"ce4bgg92rcd13ifvqb30","pricing_plan_id":"free"},{"bike_id":"8a524f98-94c1-4f11-8e97-5585e7ff4c88","system_id":"levelo_inurba_marseille","lat":43.298433,"lon":5.362774,"is_reserved":false,"is_disabled":false,"rental_uris":{"android":"levelo://app?vid=8a524f98-94c1-4f11-8e97-5585e7ff4c88","ios":"levelo://app?vid=8a524f98-94c1-4f11-8e97-5585e7ff4c88"},"vehicle_type_id":"4","last_reported":1702674368,"current_range_meters":23200,"station_id":"ce4bgpp2rcd13ifvqc3g","pricing_plan_id":"free"},{"bike_id":"19d0bf9a-c90c-4e16-8406-2a2de7bc0411","system_id":"levelo_inurba_marseille","lat":43.299243,"lon":5.374807,"is_reserved":false,"is_disabled":false,"rental_uris":{"android":"levelo://app?vid=19d0bf9a-c90c-4e16-8406-2a2de7bc0411","ios":"levelo://app?vid=19d0bf9a-c90c-4e16-8406-2a2de7bc0411"},"vehicle_type_id":"4","last_reported":1702674368,"current_range_meters":25200,"station_id":"ce4bgjh2rcd13ifvqbg0","pricing_plan_id":"free"},{"bike_id":"828fc972-9ea7-43b7-aaef-9217245b48b5","system_id":"levelo_inurba_marseille","lat":43.298433,"lon":5.362774,"is_reserved":false,"is_disabled":false,"rental_uris":{"android":"levelo://app?vid=828fc972-9ea7-43b7-aaef-9217245b48b5","ios":"levelo://app?vid=828fc972-9ea7-43b7-aaef-9217245b48b5"},"vehicle_type_id":"4","last_reported":1702674368,"current_range_meters":11600,"station_id":"ce4bgpp2rcd13ifvqc3g","pricing_plan_id":"free"},{"bike_id":"c697c5d1-c048-4f10-b165-aaaa6b0c60a2","system_id":"levelo_inurba_marseille","lat":43.298433,"lon":5.362774,"is_reserved":false,"is_disabled":false,"rental_uris":{"android":"levelo://app?vid=c697c5d1-c048-4f10-b165-aaaa6b0c60a2","ios":"levelo://app?vid=c697c5d1-c048-4f10-b165-aaaa6b0c60a2"},"vehicle_type_id":"4","last_reported":1702674368,"current_range_meters":31600,"station_id":"ce4bgpp2rcd13ifvqc3g","pricing_plan_id":"free"},{"bike_id":"2283926f-3d86-4a8d-96fd-9f31be798410","system_id":"levelo_inurba_marseille","lat":43.298433,"lon":5.362774,"is_reserved":false,"is_disabled":false,"rental_uris":{"android":"levelo://app?vid=2283926f-3d86-4a8d-96fd-9f31be798410","ios":"levelo://app?vid=2283926f-3d86-4a8d-96fd-9f31be798410"},"vehicle_type_id":"4","last_reported":1702674368,"current_range_meters":15600,"station_id":"ce4bgpp2rcd13ifvqc3g","pricing_plan_id":"free"},{"bike_id":"276c7f7b-d0d0-4a35-bc22-b898142981fc","system_id":"levelo_inurba_marseille","lat":43.311722,"lon":5.387247,"is_reserved":false,"is_disabled":false,"rental_uris":{"android":"levelo://app?vid=276c7f7b-d0d0-4a35-bc22-b898142981fc","ios":"levelo://app?vid=276c7f7b-d0d0-4a35-bc22-b898142981fc"},"vehicle_type_id":"4","last_reported":1702674368,"current_range_meters":16400,"station_id":"ce4bgv12rcd13ifvqcp0","pricing_plan_id":"free"},{"bike_id":"06132c46-579e-4f44-9812-ed48bc45300a","system_id":"levelo_inurba_marseille","lat":43.299243,"lon":5.37481,"is_reserved":false,"is_disabled":false,"rental_uris":{"android":"levelo://app?vid=06132c46-579e-4f44-9812-ed48bc45300a","ios":"levelo://app?vid=06132c46-579e-4f44-9812-ed48bc45300a"},"vehicle_type_id":"4","last_reported":1702674368,"current_range_meters":18000,"station_id":"ce4bgjh2rcd13ifvqbg0","pricing_plan_id":"free"},{"bike_id":"17d8b686-3474-4c02-ab86-1b2b4085dbef","system_id":"levelo_inurba_marseille","lat":43.311646,"lon":5.387157,"is_reserved":false,"is_disabled":false,"rental_uris":{"android":"levelo://app?vid=17d8b686-3474-4c02-ab86-1b2b4085dbef","ios":"levelo://app?vid=17d8b686-3474-4c02-ab86-1b2b4085dbef"},"vehicle_type_id":"4","last_reported":1702674368,"current_range_meters":14800,"station_id":"ce4bgv12rcd13ifvqcp0","pricing_plan_id":"free"},{"bike_id":"39924610-9d2d-4317-8ba3-1e461af1ed0a","system_id":"levelo_inurba_marseille","lat":43.311722,"lon":5.387247,"is_reserved":false,"is_disabled":false,"rental_uris":{"android":"levelo://app?vid=39924610-9d2d-4317-8ba3-1e461af1ed0a","ios":"levelo://app?vid=39924610-9d2d-4317-8ba3-1e461af1ed0a"},"vehicle_type_id":"4","last_reported":1702674368,"current_range_meters":26400,"station_id":"ce4bgv12rcd13ifvqcp0","pricing_plan_id":"free"},{"bike_id":"bf3ded93-ff12-458b-b154-e9649af84b7c","system_id":"levelo_inurba_marseille","lat":43.297774,"lon":5.370875,"is_reserved":false,"is_disabled":false,"rental_uris":{"android":"levelo://app?vid=bf3ded93-ff12-458b-b154-e9649af84b7c","ios":"levelo://app?vid=bf3ded93-ff12-458b-b154-e9649af84b7c"},"vehicle_type_id":"4","last_reported":1702674368,"current_range_meters":15200,"station_id":"ce4bgop2rcd13ifvqc1g","pricing_plan_id":"free"},{"bike_id":"cb559df9-b405-48a1-9eb4-7367463ff55c","system_id":"levelo_inurba_marseille","lat":43.32291,"lon":5.38281,"is_reserved":false,"is_disabled":false,"rental_uris":{"android":"levelo://app?vid=cb559df9-b405-48a1-9eb4-7367463ff55c","ios":"levelo://app?vid=cb559df9-b405-48a1-9eb4-7367463ff55c"},"vehicle_type_id":"4","last_reported":1702674368,"current_range_meters":5600,"station_id":"ce4bhr12rcd13ifvqhqg","pricing_plan_id":"free"},{"bike_id":"ff3c1fbe-c05f-4ff4-ad25-569fb49190dd","system_id":"levelo_inurba_marseille","lat":43.29573,"lon":5.367355,"is_reserved":false,"is_disabled":false,"rental_uris":{"android":"levelo://app?vid=ff3c1fbe-c05f-4ff4-ad25-569fb49190dd","ios":"levelo://app?vid=ff3c1fbe-c05f-4ff4-ad25-569fb49190dd"},"vehicle_type_id":"4","last_reported":1702674368,"current_range_meters":2800,"station_id":"ce4bgph2rcd13ifvqc2g","pricing_plan_id":"free"},{"bike_id":"a1b9a1dc-3a3a-4194-815c-ccf58a820e91","system_id":"levelo_inurba_marseille","lat":43.309589,"lon":5.390258,"is_reserved":false,"is_disabled":false,"rental_uris":{"android":"levelo://app?vid=a1b9a1dc-3a3a-4194-815c-ccf58a820e91","ios":"levelo://app?vid=a1b9a1dc-3a3a-4194-815c-ccf58a820e91"},"vehicle_type_id":"4","last_reported":1702674368,"current_range_meters":0,"station_id":"ce4bgup2rcd13ifvqco0","pricing_plan_id":"free"},{"bike_id":"bf08215b-25c1-4647-96f9-4b1a7f0262b4","system_id":"levelo_inurba_marseille","lat":43.309589,"lon":5.390258,"is_reserved":false,"is_disabled":false,"rental_uris":{"android":"levelo://app?vid=bf08215b-25c1-4647-96f9-4b1a7f0262b4","ios":"levelo://app?vid=bf08215b-25c1-4647-96f9-4b1a7f0262b4"},"vehicle_type_id":"4","last_reported":1702674368,"current_range_meters":23200,"station_id":"ce4bgup2rcd13ifvqco0","pricing_plan_id":"free"},{"bike_id":"986cfa39-45dd-4e03-ae3d-17bb205055e9","system_id":"levelo_inurba_marseille","lat":43.317557,"lon":5.390173,"is_reserved":false,"is_disabled":false,"rental_uris":{"android":"levelo://app?vid=986cfa39-45dd-4e03-ae3d-17bb205055e9","ios":"levelo://app?vid=986cfa39-45dd-4e03-ae3d-17bb205055e9"},"vehicle_type_id":"4","last_reported":1702674368,"current_range_meters":19600,"station_id":"ce4bhqp2rcd13ifvqhng","pricing_plan_id":"free"},{"bike_id":"40461759-1609-44de-8ba3-787675b7e6fa","system_id":"levelo_inurba_marseille","lat":43.298031,"lon":5.380895,"is_reserved":false,"is_disabled":false,"rental_uris":{"android":"levelo://app?vid=40461759-1609-44de-8ba3-787675b7e6fa","ios":"levelo://app?vid=40461759-1609-44de-8ba3-787675b7e6fa"},"vehicle_type_id":"4","last_reported":1702674368,"current_range_meters":0,"station_id":"","pricing_plan_id":"free"},{"bike_id":"c64134eb-620b-4285-900d-a283184e47d0","system_id":"levelo_inurba_marseille","lat":43.29801,"lon":5.38093,"is_reserved":false,"is_disabled":false,"rental_uris":{"android":"levelo://app?vid=c64134eb-620b-4285-900d-a283184e47d0","ios":"levelo://app?vid=c64134eb-620b-4285-900d-a283184e47d0"},"vehicle_type_id":"4","last_reported":1702674368,"current_range_meters":0,"station_id":"","pricing_plan_id":"free"},{"bike_id":"d0344e2e-e571-450b-93b2-9637e12d1845","system_id":"levelo_inurba_marseille","lat":43.297935,"lon":5.380845,"is_reserved":false,"is_disabled":false,"rental_uris":{"android":"levelo://app?vid=d0344e2e-e571-450b-93b2-9637e12d1845","ios":"levelo://app?vid=d0344e2e-e571-450b-93b2-9637e12d1845"},"vehicle_type_id":"4","last_reported":1702674368,"current_range_meters":1200,"station_id":"","pricing_plan_id":"free"},{"bike_id":"45baa3a4-52bf-4a45-b31b-16290fc200bd","system_id":"levelo_inurba_marseille","lat":43.29756,"lon":5.38071,"is_reserved":false,"is_disabled":false,"rental_uris":{"android":"levelo://app?vid=45baa3a4-52bf-4a45-b31b-16290fc200bd","ios":"levelo://app?vid=45baa3a4-52bf-4a45-b31b-16290fc200bd"},"vehicle_type_id":"4","last_reported":1702674368,"current_range_meters":27200,"station_id":"ce4bgip2rcd13ifvqbb0","pricing_plan_id":"free"},{"bike_id":"ccee1225-c1de-4fac-bfa8-8600bd882b93","system_id":"levelo_inurba_marseille","lat":43.296277,"lon":5.377108,"is_reserved":false,"is_disabled":false,"rental_uris":{"android":"levelo://app?vid=ccee1225-c1de-4fac-bfa8-8600bd882b93","ios":"levelo://app?vid=ccee1225-c1de-4fac-bfa8-8600bd882b93"},"vehicle_type_id":"4","last_reported":1702674368,"current_range_meters":0,"station_id":"ce4bgi92rcd13ifvqb90","pricing_plan_id":"free"},{"bike_id":"871ccdaf-bde0-4e69-b9ab-6ca43783cfd8","system_id":"levelo_inurba_marseille","lat":43.299717,"lon":5.384845,"is_reserved":false,"is_disabled":false,"rental_uris":{"android":"levelo://app?vid=871ccdaf-bde0-4e69-b9ab-6ca43783cfd8","ios":"levelo://app?vid=871ccdaf-bde0-4e69-b9ab-6ca43783cfd8"},"vehicle_type_id":"4","last_reported":1702674368,"current_range_meters":12000,"station_id":"ce4bgj92rcd13ifvqbd0","pricing_plan_id":"free"},{"bike_id":"13893eb6-8d19-4328-8848-32f7c97ea882","system_id":"levelo_inurba_marseille","lat":43.29601,"lon":5.381084,"is_reserved":false,"is_disabled":false,"rental_uris":{"android":"levelo://app?vid=13893eb6-8d19-4328-8848-32f7c97ea882","ios":"levelo://app?vid=13893eb6-8d19-4328-8848-32f7c97ea882"},"vehicle_type_id":"4","last_reported":1702674368,"current_range_meters":9200,"station_id":"ce4bgl12rcd13ifvqbo0","pricing_plan_id":"free"},{"bike_id":"3d7e95dc-7677-4998-bf66-e9babaf23052","system_id":"levelo_inurba_marseille","lat":43.29298,"lon":5.37464,"is_reserved":false,"is_disabled":false,"rental_uris":{"android":"levelo://app?vid=3d7e95dc-7677-4998-bf66-e9babaf23052","ios":"levelo://app?vid=3d7e95dc-7677-4998-bf66-e9babaf23052"},"vehicle_type_id":"4","last_reported":1702674368,"current_range_meters":30800,"station_id":"ce4bgi12rcd13ifvqb70","pricing_plan_id":"free"},{"bike_id":"1a697ff6-0b99-4472-b0df-a7f3b70a920c","system_id":"levelo_inurba_marseille","lat":43.305994,"lon":5.393687,"is_reserved":false,"is_disabled":false,"rental_uris":{"android":"levelo://app?vid=1a697ff6-0b99-4472-b0df-a7f3b70a920c","ios":"levelo://app?vid=1a697ff6-0b99-4472-b0df-a7f3b70a920c"},"vehicle_type_id":"4","last_reported":1702674368,"current_range_meters":15600,"station_id":"ce4bh0p2rcd13ifvqd80","pricing_plan_id":"free"},{"bike_id":"7dbf39b9-5876-469b-9273-45d19b685467","system_id":"levelo_inurba_marseille","lat":43.303002,"lon":5.392142,"is_reserved":false,"is_disabled":false,"rental_uris":{"android":"levelo://app?vid=7dbf39b9-5876-469b-9273-45d19b685467","ios":"levelo://app?vid=7dbf39b9-5876-469b-9273-45d19b685467"},"vehicle_type_id":"4","last_reported":1702674368,"current_range_meters":3200,"station_id":"ce4bgkh2rcd13ifvqbk0","pricing_plan_id":"free"},{"bike_id":"b73a668a-312a-4e46-8553-f825cf0dd972","system_id":"levelo_inurba_marseille","lat":43.302992,"lon":5.392136,"is_reserved":false,"is_disabled":false,"rental_uris":{"android":"levelo://app?vid=b73a668a-312a-4e46-8553-f825cf0dd972","ios":"levelo://app?vid=b73a668a-312a-4e46-8553-f825cf0dd972"},"vehicle_type_id":"4","last_reported":1702674368,"current_range_meters":24800,"station_id":"ce4bgkh2rcd13ifvqbk0","pricing_plan_id":"free"},{"bike_id":"9f251749-8bf9-4726-9bb3-65e3d061f79d","system_id":"levelo_inurba_marseille","lat":43.292311,"lon":5.360731,"is_reserved":false,"is_disabled":false,"rental_uris":{"android":"levelo://app?vid=9f251749-8bf9-4726-9bb3-65e3d061f79d","ios":"levelo://app?vid=9f251749-8bf9-4726-9bb3-65e3d061f79d"},"vehicle_type_id":"4","last_reported":1702674368,"current_range_meters":19200,"station_id":"ce4bhbh2rcd13ifvqeqg","pricing_plan_id":"free"},{"bike_id":"4ae6c84b-6986-4de0-ba78-3eeb5da624b2","system_id":"levelo_inurba_marseille","lat":43.292311,"lon":5.360731,"is_reserved":false,"is_disabled":false,"rental_uris":{"android":"levelo://app?vid=4ae6c84b-6986-4de0-ba78-3eeb5da624b2","ios":"levelo://app?vid=4ae6c84b-6986-4de0-ba78-3eeb5da624b2"},"vehicle_type_id":"4","last_reported":1702674368,"current_range_meters":9600,"station_id":"ce4bhbh2rcd13ifvqeqg","pricing_plan_id":"free"},{"bike_id":"a5144aa9-2434-492e-9989-cc8b54eb7d61","system_id":"levelo_inurba_marseille","lat":43.292311,"lon":5.360731,"is_reserved":false,"is_disabled":false,"rental_uris":{"android":"levelo://app?vid=a5144aa9-2434-492e-9989-cc8b54eb7d61","ios":"levelo://app?vid=a5144aa9-2434-492e-9989-cc8b54eb7d61"},"vehicle_type_id":"4","last_reported":1702674368,"current_range_meters":26000,"station_id":"ce4bhbh2rcd13ifvqeqg","pricing_plan_id":"free"},{"bike_id":"8dd6c927-939b-432a-824b-bbfeb8928cee","system_id":"levelo_inurba_marseille","lat":43.29203,"lon":5.359583,"is_reserved":false,"is_disabled":false,"rental_uris":{"android":"levelo://app?vid=8dd6c927-939b-432a-824b-bbfeb8928cee","ios":"levelo://app?vid=8dd6c927-939b-432a-824b-bbfeb8928cee"},"vehicle_type_id":"4","last_reported":1702674368,"current_range_meters":0,"station_id":"","pricing_plan_id":"free"},{"bike_id":"6620d3a4-89d6-4631-9acc-a6d18a76549e","system_id":"levelo_inurba_marseille","lat":43.292015,"lon":5.358021,"is_reserved":false,"is_disabled":false,"rental_uris":{"android":"levelo://app?vid=6620d3a4-89d6-4631-9acc-a6d18a76549e","ios":"levelo://app?vid=6620d3a4-89d6-4631-9acc-a6d18a76549e"},"vehicle_type_id":"4","last_reported":1702674368,"current_range_meters":8800,"station_id":"ce4bhb12rcd13ifvqel0","pricing_plan_id":"free"},{"bike_id":"afa08908-9754-4431-9b1c-baa0c0ec63ca","system_id":"levelo_inurba_marseille","lat":43.29196,"lon":5.35807,"is_reserved":false,"is_disabled":false,"rental_uris":{"android":"levelo://app?vid=afa08908-9754-4431-9b1c-baa0c0ec63ca","ios":"levelo://app?vid=afa08908-9754-4431-9b1c-baa0c0ec63ca"},"vehicle_type_id":"4","last_reported":1702674368,"current_range_meters":14000,"station_id":"ce4bhb12rcd13ifvqel0","pricing_plan_id":"free"},{"bike_id":"13fbc514-e701-4d27-9689-deadb82d14f9","system_id":"levelo_inurba_marseille","lat":43.313291,"lon":5.396838,"is_reserved":false,"is_disabled":false,"rental_uris":{"android":"levelo://app?vid=13fbc514-e701-4d27-9689-deadb82d14f9","ios":"levelo://app?vid=13fbc514-e701-4d27-9689-deadb82d14f9"},"vehicle_type_id":"4","last_reported":1702674368,"current_range_meters":13600,"station_id":"ce4bgvp2rcd13ifvqcu0","pricing_plan_id":"free"},{"bike_id":"d6589bf1-53ac-4632-9df9-93fa3c4e523a","system_id":"levelo_inurba_marseille","lat":43.313291,"lon":5.396838,"is_reserved":false,"is_disabled":false,"rental_uris":{"android":"levelo://app?vid=d6589bf1-53ac-4632-9df9-93fa3c4e523a","ios":"levelo://app?vid=d6589bf1-53ac-4632-9df9-93fa3c4e523a"},"vehicle_type_id":"4","last_reported":1702674368,"current_range_meters":24000,"station_id":"ce4bgvp2rcd13ifvqcu0","pricing_plan_id":"free"},{"bike_id":"5d8f4c0a-1894-4784-9947-4c7cec0be9bc","system_id":"levelo_inurba_marseille","lat":43.313291,"lon":5.396838,"is_reserved":false,"is_disabled":false,"rental_uris":{"android":"levelo://app?vid=5d8f4c0a-1894-4784-9947-4c7cec0be9bc","ios":"levelo://app?vid=5d8f4c0a-1894-4784-9947-4c7cec0be9bc"},"vehicle_type_id":"4","last_reported":1702674368,"current_range_meters":15600,"station_id":"ce4bgvp2rcd13ifvqcu0","pricing_plan_id":"free"},{"bike_id":"c295fa6b-9a5f-4b0b-8ef0-b3692d9bde4e","system_id":"levelo_inurba_marseille","lat":43.313291,"lon":5.396838,"is_reserved":false,"is_disabled":false,"rental_uris":{"android":"levelo://app?vid=c295fa6b-9a5f-4b0b-8ef0-b3692d9bde4e","ios":"levelo://app?vid=c295fa6b-9a5f-4b0b-8ef0-b3692d9bde4e"},"vehicle_type_id":"4","last_reported":1702674368,"current_range_meters":19600,"station_id":"ce4bgvp2rcd13ifvqcu0","pricing_plan_id":"free"},{"bike_id":"bf44158b-494c-4cad-9aff-5f5634588f57","system_id":"levelo_inurba_marseille","lat":43.309038,"lon":5.396546,"is_reserved":false,"is_disabled":false,"rental_uris":{"android":"levelo://app?vid=bf44158b-494c-4cad-9aff-5f5634588f57","ios":"levelo://app?vid=bf44158b-494c-4cad-9aff-5f5634588f57"},"vehicle_type_id":"4","last_reported":1702674368,"current_range_meters":28800,"station_id":"ce4bh012rcd13ifvqcv0","pricing_plan_id":"free"},{"bike_id":"7a201445-ea91-4cda-b57a-0aa7d8997653","system_id":"levelo_inurba_marseille","lat":43.29529,"lon":5.385581,"is_reserved":false,"is_disabled":false,"rental_uris":{"android":"levelo://app?vid=7a201445-ea91-4cda-b57a-0aa7d8997653","ios":"levelo://app?vid=7a201445-ea91-4cda-b57a-0aa7d8997653"},"vehicle_type_id":"4","last_reported":1702674368,"current_range_meters":18000,"station_id":"ce4bgih2rcd13ifvqba0","pricing_plan_id":"free"},{"bike_id":"870eb474-87ab-49b0-b65a-9628af824bc9","system_id":"levelo_inurba_marseille","lat":43.29529,"lon":5.385581,"is_reserved":false,"is_disabled":false,"rental_uris":{"android":"levelo://app?vid=870eb474-87ab-49b0-b65a-9628af824bc9","ios":"levelo://app?vid=870eb474-87ab-49b0-b65a-9628af824bc9"},"vehicle_type_id":"4","last_reported":1702674368,"current_range_meters":10800,"station_id":"ce4bgih2rcd13ifvqba0","pricing_plan_id":"free"},{"bike_id":"e331f47f-70b1-439d-91c7-dabc80fcc114","system_id":"levelo_inurba_marseille","lat":43.29529,"lon":5.385581,"is_reserved":false,"is_disabled":false,"rental_uris":{"android":"levelo://app?vid=e331f47f-70b1-439d-91c7-dabc80fcc114","ios":"levelo://app?vid=e331f47f-70b1-439d-91c7-dabc80fcc114"},"vehicle_type_id":"4","last_reported":1702674368,"current_range_meters":400,"station_id":"ce4bgih2rcd13ifvqba0","pricing_plan_id":"free"},{"bike_id":"fdd2a506-3ce4-45f2-96cb-38173ec0e746","system_id":"levelo_inurba_marseille","lat":43.273129,"lon":5.390725,"is_reserved":false,"is_disabled":false,"rental_uris":{"android":"levelo://app?vid=fdd2a506-3ce4-45f2-96cb-38173ec0e746","ios":"levelo://app?vid=fdd2a506-3ce4-45f2-96cb-38173ec0e746"},"vehicle_type_id":"4","last_reported":1702674368,"current_range_meters":800,"station_id":"ce4bhgp2rcd13ifvqfe0","pricing_plan_id":"free"},{"bike_id":"91e24fbd-50bd-4156-9dd5-c466f11aa206","system_id":"levelo_inurba_marseille","lat":43.29529,"lon":5.385581,"is_reserved":false,"is_disabled":false,"rental_uris":{"android":"levelo://app?vid=91e24fbd-50bd-4156-9dd5-c466f11aa206","ios":"levelo://app?vid=91e24fbd-50bd-4156-9dd5-c466f11aa206"},"vehicle_type_id":"4","last_reported":1702674368,"current_range_meters":5200,"station_id":"ce4bgih2rcd13ifvqba0","pricing_plan_id":"free"},{"bike_id":"e5cf0a37-6eec-4ee8-8e21-6d9a153e789b","system_id":"levelo_inurba_marseille","lat":43.29529,"lon":5.385581,"is_reserved":false,"is_disabled":false,"rental_uris":{"android":"levelo://app?vid=e5cf0a37-6eec-4ee8-8e21-6d9a153e789b","ios":"levelo://app?vid=e5cf0a37-6eec-4ee8-8e21-6d9a153e789b"},"vehicle_type_id":"4","last_reported":1702674368,"current_range_meters":28800,"station_id":"ce4bgih2rcd13ifvqba0","pricing_plan_id":"free"},{"bike_id":"9c34db6f-6a13-41e6-bcf8-6d6f01b2fd74","system_id":"levelo_inurba_marseille","lat":43.29529,"lon":5.385581,"is_reserved":false,"is_disabled":false,"rental_uris":{"android":"levelo://app?vid=9c34db6f-6a13-41e6-bcf8-6d6f01b2fd74","ios":"levelo://app?vid=9c34db6f-6a13-41e6-bcf8-6d6f01b2fd74"},"vehicle_type_id":"4","last_reported":1702674368,"current_range_meters":19600,"station_id":"ce4bgih2rcd13ifvqba0","pricing_plan_id":"free"},{"bike_id":"82c40f62-de8a-49cf-8e0a-14d36bc34cfa","system_id":"levelo_inurba_marseille","lat":43.302008,"lon":5.394694,"is_reserved":false,"is_disabled":false,"rental_uris":{"android":"levelo://app?vid=82c40f62-de8a-49cf-8e0a-14d36bc34cfa","ios":"levelo://app?vid=82c40f62-de8a-49cf-8e0a-14d36bc34cfa"},"vehicle_type_id":"4","last_reported":1702674368,"current_range_meters":30400,"station_id":"ce4bh0p2rcd13ifvqd70","pricing_plan_id":"free"},{"bike_id":"38422a11-5311-4076-82a9-a4571befd8ba","system_id":"levelo_inurba_marseille","lat":43.280784,"lon":5.396622,"is_reserved":false,"is_disabled":false,"rental_uris":{"android":"levelo://app?vid=38422a11-5311-4076-82a9-a4571befd8ba","ios":"levelo://app?vid=38422a11-5311-4076-82a9-a4571befd8ba"},"vehicle_type_id":"4","last_reported":1702674368,"current_range_meters":7600,"station_id":"ce4bho12rcd13ifvqh2g","pricing_plan_id":"free"},{"bike_id":"02634f4b-c3c3-48ba-9319-c814afd54d94","system_id":"levelo_inurba_marseille","lat":43.294153,"lon":5.386305,"is_reserved":false,"is_disabled":false,"rental_uris":{"android":"levelo://app?vid=02634f4b-c3c3-48ba-9319-c814afd54d94","ios":"levelo://app?vid=02634f4b-c3c3-48ba-9319-c814afd54d94"},"vehicle_type_id":"4","last_reported":1702674368,"current_range_meters":28400,"station_id":"ce4bh2h2rcd13ifvqdh0","pricing_plan_id":"free"},{"bike_id":"be577728-a5ce-4ae6-b68c-47283be7111a","system_id":"levelo_inurba_marseille","lat":43.294153,"lon":5.386305,"is_reserved":false,"is_disabled":false,"rental_uris":{"android":"levelo://app?vid=be577728-a5ce-4ae6-b68c-47283be7111a","ios":"levelo://app?vid=be577728-a5ce-4ae6-b68c-47283be7111a"},"vehicle_type_id":"4","last_reported":1702674368,"current_range_meters":1600,"station_id":"ce4bh2h2rcd13ifvqdh0","pricing_plan_id":"free"},{"bike_id":"99130a69-409e-442e-9c66-0c450b4580dc","system_id":"levelo_inurba_marseille","lat":43.294153,"lon":5.386305,"is_reserved":false,"is_disabled":false,"rental_uris":{"android":"levelo://app?vid=99130a69-409e-442e-9c66-0c450b4580dc","ios":"levelo://app?vid=99130a69-409e-442e-9c66-0c450b4580dc"},"vehicle_type_id":"4","last_reported":1702674368,"current_range_meters":4400,"station_id":"ce4bh2h2rcd13ifvqdh0","pricing_plan_id":"free"},{"bike_id":"e9c919c0-ec39-491b-ad85-14ba37e06e3a","system_id":"levelo_inurba_marseille","lat":43.294153,"lon":5.386305,"is_reserved":false,"is_disabled":false,"rental_uris":{"android":"levelo://app?vid=e9c919c0-ec39-491b-ad85-14ba37e06e3a","ios":"levelo://app?vid=e9c919c0-ec39-491b-ad85-14ba37e06e3a"},"vehicle_type_id":"4","last_reported":1702674368,"current_range_meters":6800,"station_id":"ce4bh2h2rcd13ifvqdh0","pricing_plan_id":"free"},{"bike_id":"3a6b22b6-b0f8-48c8-9d69-c05727d7bc02","system_id":"levelo_inurba_marseille","lat":43.294153,"lon":5.386305,"is_reserved":false,"is_disabled":false,"rental_uris":{"android":"levelo://app?vid=3a6b22b6-b0f8-48c8-9d69-c05727d7bc02","ios":"levelo://app?vid=3a6b22b6-b0f8-48c8-9d69-c05727d7bc02"},"vehicle_type_id":"4","last_reported":1702674368,"current_range_meters":10800,"station_id":"ce4bh2h2rcd13ifvqdh0","pricing_plan_id":"free"},{"bike_id":"cfb65549-fc92-4b85-bc0f-a3c45e30126f","system_id":"levelo_inurba_marseille","lat":43.294153,"lon":5.386305,"is_reserved":false,"is_disabled":false,"rental_uris":{"android":"levelo://app?vid=cfb65549-fc92-4b85-bc0f-a3c45e30126f","ios":"levelo://app?vid=cfb65549-fc92-4b85-bc0f-a3c45e30126f"},"vehicle_type_id":"4","last_reported":1702674368,"current_range_meters":3200,"station_id":"ce4bh2h2rcd13ifvqdh0","pricing_plan_id":"free"},{"bike_id":"5186915c-e84f-462b-91bd-fbae9cc83056","system_id":"levelo_inurba_marseille","lat":43.33057,"lon":5.38803,"is_reserved":false,"is_disabled":false,"rental_uris":{"android":"levelo://app?vid=5186915c-e84f-462b-91bd-fbae9cc83056","ios":"levelo://app?vid=5186915c-e84f-462b-91bd-fbae9cc83056"},"vehicle_type_id":"4","last_reported":1702674368,"current_range_meters":400,"station_id":"","pricing_plan_id":"free"},{"bike_id":"92bab57e-24ac-4363-ae0f-d449672c101a","system_id":"levelo_inurba_marseille","lat":43.29273,"lon":5.38447,"is_reserved":false,"is_disabled":false,"rental_uris":{"android":"levelo://app?vid=92bab57e-24ac-4363-ae0f-d449672c101a","ios":"levelo://app?vid=92bab57e-24ac-4363-ae0f-d449672c101a"},"vehicle_type_id":"4","last_reported":1702674368,"current_range_meters":0,"station_id":"ce4bh692rcd13ifvqea0","pricing_plan_id":"free"},{"bike_id":"b36a6ad4-86ad-4e62-b845-cd641d962fb4","system_id":"levelo_inurba_marseille","lat":43.29261,"lon":5.38424,"is_reserved":false,"is_disabled":false,"rental_uris":{"android":"levelo://app?vid=b36a6ad4-86ad-4e62-b845-cd641d962fb4","ios":"levelo://app?vid=b36a6ad4-86ad-4e62-b845-cd641d962fb4"},"vehicle_type_id":"4","last_reported":1702674368,"current_range_meters":21200,"station_id":"ce4bh692rcd13ifvqea0","pricing_plan_id":"free"},{"bike_id":"d3eba333-0e33-4047-8d81-15d6bfe75f56","system_id":"levelo_inurba_marseille","lat":43.304274,"lon":5.397513,"is_reserved":false,"is_disabled":false,"rental_uris":{"android":"levelo://app?vid=d3eba333-0e33-4047-8d81-15d6bfe75f56","ios":"levelo://app?vid=d3eba333-0e33-4047-8d81-15d6bfe75f56"},"vehicle_type_id":"4","last_reported":1702674368,"current_range_meters":1200,"station_id":"ce4bh092rcd13ifvqd20","pricing_plan_id":"free"},{"bike_id":"b121af9d-fed1-4c0b-a9a4-88ed41b4a584","system_id":"levelo_inurba_marseille","lat":43.304296,"lon":5.397513,"is_reserved":false,"is_disabled":false,"rental_uris":{"android":"levelo://app?vid=b121af9d-fed1-4c0b-a9a4-88ed41b4a584","ios":"levelo://app?vid=b121af9d-fed1-4c0b-a9a4-88ed41b4a584"},"vehicle_type_id":"4","last_reported":1702674368,"current_range_meters":2000,"station_id":"ce4bh092rcd13ifvqd20","pricing_plan_id":"free"},{"bike_id":"663c6a5d-323c-48ff-9d42-df19b11bab4c","system_id":"levelo_inurba_marseille","lat":43.28856,"lon":5.358371,"is_reserved":false,"is_disabled":false,"rental_uris":{"android":"levelo://app?vid=663c6a5d-323c-48ff-9d42-df19b11bab4c","ios":"levelo://app?vid=663c6a5d-323c-48ff-9d42-df19b11bab4c"},"vehicle_type_id":"4","last_reported":1702674368,"current_range_meters":25600,"station_id":"ce4bhb12rcd13ifvqem0","pricing_plan_id":"free"},{"bike_id":"d86a8d0c-f765-44f4-9eb7-161f9ac5bec9","system_id":"levelo_inurba_marseille","lat":43.29261,"lon":5.38448,"is_reserved":false,"is_disabled":false,"rental_uris":{"android":"levelo://app?vid=d86a8d0c-f765-44f4-9eb7-161f9ac5bec9","ios":"levelo://app?vid=d86a8d0c-f765-44f4-9eb7-161f9ac5bec9"},"vehicle_type_id":"4","last_reported":1702674368,"current_range_meters":22000,"station_id":"ce4bh692rcd13ifvqea0","pricing_plan_id":"free"},{"bike_id":"ed87e9a3-5f44-42f8-a322-dc7df6dd1d1f","system_id":"levelo_inurba_marseille","lat":43.290104,"lon":5.356111,"is_reserved":false,"is_disabled":false,"rental_uris":{"android":"levelo://app?vid=ed87e9a3-5f44-42f8-a322-dc7df6dd1d1f","ios":"levelo://app?vid=ed87e9a3-5f44-42f8-a322-dc7df6dd1d1f"},"vehicle_type_id":"4","last_reported":1702674368,"current_range_meters":19600,"station_id":"ce4bhb92rcd13ifvqen0","pricing_plan_id":"free"},{"bike_id":"51d36c70-a038-4c4d-b52d-7e47d9b09903","system_id":"levelo_inurba_marseille","lat":43.290995,"lon":5.381361,"is_reserved":false,"is_disabled":false,"rental_uris":{"android":"levelo://app?vid=51d36c70-a038-4c4d-b52d-7e47d9b09903","ios":"levelo://app?vid=51d36c70-a038-4c4d-b52d-7e47d9b09903"},"vehicle_type_id":"4","last_reported":1702674368,"current_range_meters":28800,"station_id":"ce4bh512rcd13ifvqe2g","pricing_plan_id":"free"},{"bike_id":"6ae162ef-1760-49ea-91b0-5e221a27107c","system_id":"levelo_inurba_marseille","lat":43.290995,"lon":5.381361,"is_reserved":false,"is_disabled":false,"rental_uris":{"android":"levelo://app?vid=6ae162ef-1760-49ea-91b0-5e221a27107c","ios":"levelo://app?vid=6ae162ef-1760-49ea-91b0-5e221a27107c"},"vehicle_type_id":"4","last_reported":1702674368,"current_range_meters":20400,"station_id":"ce4bh512rcd13ifvqe2g","pricing_plan_id":"free"},{"bike_id":"f1635740-00e0-45d3-bb50-27ef11f19acd","system_id":"levelo_inurba_marseille","lat":43.290995,"lon":5.381361,"is_reserved":false,"is_disabled":false,"rental_uris":{"android":"levelo://app?vid=f1635740-00e0-45d3-bb50-27ef11f19acd","ios":"levelo://app?vid=f1635740-00e0-45d3-bb50-27ef11f19acd"},"vehicle_type_id":"4","last_reported":1702674368,"current_range_meters":14800,"station_id":"ce4bh512rcd13ifvqe2g","pricing_plan_id":"free"},{"bike_id":"4a25c240-fa65-423d-9ee0-7ffd89d976f4","system_id":"levelo_inurba_marseille","lat":43.295169,"lon":5.390426,"is_reserved":false,"is_disabled":false,"rental_uris":{"android":"levelo://app?vid=4a25c240-fa65-423d-9ee0-7ffd89d976f4","ios":"levelo://app?vid=4a25c240-fa65-423d-9ee0-7ffd89d976f4"},"vehicle_type_id":"4","last_reported":1702674368,"current_range_meters":17600,"station_id":"ce4bh3p2rcd13ifvqdp0","pricing_plan_id":"free"},{"bike_id":"1e184303-a4e3-46c6-905d-b378dcb8bc9f","system_id":"levelo_inurba_marseille","lat":43.29788,"lon":5.393442,"is_reserved":false,"is_disabled":false,"rental_uris":{"android":"levelo://app?vid=1e184303-a4e3-46c6-905d-b378dcb8bc9f","ios":"levelo://app?vid=1e184303-a4e3-46c6-905d-b378dcb8bc9f"},"vehicle_type_id":"4","last_reported":1702674368,"current_range_meters":22400,"station_id":"chh1huq6cuj3fo74tm60","pricing_plan_id":"free"},{"bike_id":"44692166-8d7d-4e8d-87c7-5da47502fed9","system_id":"levelo_inurba_marseille","lat":43.29783,"lon":5.39347,"is_reserved":false,"is_disabled":false,"rental_uris":{"android":"levelo://app?vid=44692166-8d7d-4e8d-87c7-5da47502fed9","ios":"levelo://app?vid=44692166-8d7d-4e8d-87c7-5da47502fed9"},"vehicle_type_id":"4","last_reported":1702674368,"current_range_meters":13200,"station_id":"chh1huq6cuj3fo74tm60","pricing_plan_id":"free"},{"bike_id":"0e71d97d-54a3-4f89-a6d2-26152e894221","system_id":"levelo_inurba_marseille","lat":43.295169,"lon":5.390426,"is_reserved":false,"is_disabled":false,"rental_uris":{"android":"levelo://app?vid=0e71d97d-54a3-4f89-a6d2-26152e894221","ios":"levelo://app?vid=0e71d97d-54a3-4f89-a6d2-26152e894221"},"vehicle_type_id":"4","last_reported":1702674368,"current_range_meters":19600,"station_id":"ce4bh3p2rcd13ifvqdp0","pricing_plan_id":"free"},{"bike_id":"b3d9fdb4-0bbe-4df9-8aca-3bbf8baddb9a","system_id":"levelo_inurba_marseille","lat":43.295169,"lon":5.390426,"is_reserved":false,"is_disabled":false,"rental_uris":{"android":"levelo://app?vid=b3d9fdb4-0bbe-4df9-8aca-3bbf8baddb9a","ios":"levelo://app?vid=b3d9fdb4-0bbe-4df9-8aca-3bbf8baddb9a"},"vehicle_type_id":"4","last_reported":1702674368,"current_range_meters":20000,"station_id":"ce4bh3p2rcd13ifvqdp0","pricing_plan_id":"free"},{"bike_id":"ca6bc7f5-06fc-474b-b945-1e78dcfb6a86","system_id":"levelo_inurba_marseille","lat":43.289743,"lon":5.378304,"is_reserved":false,"is_disabled":false,"rental_uris":{"android":"levelo://app?vid=ca6bc7f5-06fc-474b-b945-1e78dcfb6a86","ios":"levelo://app?vid=ca6bc7f5-06fc-474b-b945-1e78dcfb6a86"},"vehicle_type_id":"4","last_reported":1702674368,"current_range_meters":30000,"station_id":"ce4bh9p2rcd13ifvqed0","pricing_plan_id":"free"},{"bike_id":"fc78cc6a-f9da-4684-86ce-2d41b1094757","system_id":"levelo_inurba_marseille","lat":43.289743,"lon":5.378304,"is_reserved":false,"is_disabled":false,"rental_uris":{"android":"levelo://app?vid=fc78cc6a-f9da-4684-86ce-2d41b1094757","ios":"levelo://app?vid=fc78cc6a-f9da-4684-86ce-2d41b1094757"},"vehicle_type_id":"4","last_reported":1702674368,"current_range_meters":31200,"station_id":"ce4bh9p2rcd13ifvqed0","pricing_plan_id":"free"},{"bike_id":"46c4ecb1-08fb-41ae-8344-2f9e1bee96a0","system_id":"levelo_inurba_marseille","lat":43.295169,"lon":5.390426,"is_reserved":false,"is_disabled":false,"rental_uris":{"android":"levelo://app?vid=46c4ecb1-08fb-41ae-8344-2f9e1bee96a0","ios":"levelo://app?vid=46c4ecb1-08fb-41ae-8344-2f9e1bee96a0"},"vehicle_type_id":"4","last_reported":1702674368,"current_range_meters":19200,"station_id":"ce4bh3p2rcd13ifvqdp0","pricing_plan_id":"free"},{"bike_id":"e1e78c68-404c-4e39-8fe2-7308ee946656","system_id":"levelo_inurba_marseille","lat":43.295169,"lon":5.390426,"is_reserved":false,"is_disabled":false,"rental_uris":{"android":"levelo://app?vid=e1e78c68-404c-4e39-8fe2-7308ee946656","ios":"levelo://app?vid=e1e78c68-404c-4e39-8fe2-7308ee946656"},"vehicle_type_id":"4","last_reported":1702674368,"current_range_meters":27200,"station_id":"ce4bh3p2rcd13ifvqdp0","pricing_plan_id":"free"},{"bike_id":"9125335d-b385-4577-8fe1-9e5ab1a511f0","system_id":"levelo_inurba_marseille","lat":43.289743,"lon":5.378304,"is_reserved":false,"is_disabled":false,"rental_uris":{"android":"levelo://app?vid=9125335d-b385-4577-8fe1-9e5ab1a511f0","ios":"levelo://app?vid=9125335d-b385-4577-8fe1-9e5ab1a511f0"},"vehicle_type_id":"4","last_reported":1702674368,"current_range_meters":31200,"station_id":"ce4bh9p2rcd13ifvqed0","pricing_plan_id":"free"},{"bike_id":"2018049b-147d-4242-8f26-f7e6b385e71f","system_id":"levelo_inurba_marseille","lat":43.289743,"lon":5.378304,"is_reserved":false,"is_disabled":false,"rental_uris":{"android":"levelo://app?vid=2018049b-147d-4242-8f26-f7e6b385e71f","ios":"levelo://app?vid=2018049b-147d-4242-8f26-f7e6b385e71f"},"vehicle_type_id":"4","last_reported":1702674368,"current_range_meters":14800,"station_id":"ce4bh9p2rcd13ifvqed0","pricing_plan_id":"free"},{"bike_id":"760eea16-5059-49b9-b5fc-db01f652c3f9","system_id":"levelo_inurba_marseille","lat":43.289741,"lon":5.378306,"is_reserved":false,"is_disabled":false,"rental_uris":{"android":"levelo://app?vid=760eea16-5059-49b9-b5fc-db01f652c3f9","ios":"levelo://app?vid=760eea16-5059-49b9-b5fc-db01f652c3f9"},"vehicle_type_id":"4","last_reported":1702674368,"current_range_meters":28800,"station_id":"ce4bh9p2rcd13ifvqed0","pricing_plan_id":"free"},{"bike_id":"e01fd7e3-eda8-47d4-bde3-61acc50b7d44","system_id":"levelo_inurba_marseille","lat":43.28856,"lon":5.358371,"is_reserved":false,"is_disabled":false,"rental_uris":{"android":"levelo://app?vid=e01fd7e3-eda8-47d4-bde3-61acc50b7d44","ios":"levelo://app?vid=e01fd7e3-eda8-47d4-bde3-61acc50b7d44"},"vehicle_type_id":"4","last_reported":1702674368,"current_range_meters":20800,"station_id":"ce4bhb12rcd13ifvqem0","pricing_plan_id":"free"},{"bike_id":"159d3bf6-2b9e-451a-aafb-c35e9e4fcd79","system_id":"levelo_inurba_marseille","lat":43.28858,"lon":5.35876,"is_reserved":false,"is_disabled":false,"rental_uris":{"android":"levelo://app?vid=159d3bf6-2b9e-451a-aafb-c35e9e4fcd79","ios":"levelo://app?vid=159d3bf6-2b9e-451a-aafb-c35e9e4fcd79"},"vehicle_type_id":"4","last_reported":1702674368,"current_range_meters":20800,"station_id":"ce4bhb12rcd13ifvqem0","pricing_plan_id":"free"},{"bike_id":"c7ac5e0b-0bde-43cc-bb35-9a7c1c186722","system_id":"levelo_inurba_marseille","lat":43.28852,"lon":5.35891,"is_reserved":false,"is_disabled":false,"rental_uris":{"android":"levelo://app?vid=c7ac5e0b-0bde-43cc-bb35-9a7c1c186722","ios":"levelo://app?vid=c7ac5e0b-0bde-43cc-bb35-9a7c1c186722"},"vehicle_type_id":"4","last_reported":1702674368,"current_range_meters":10800,"station_id":"ce4bhb12rcd13ifvqem0","pricing_plan_id":"free"},{"bike_id":"f0cd831c-cfb9-44c7-9487-103b6df223ca","system_id":"levelo_inurba_marseille","lat":43.337445,"lon":5.374596,"is_reserved":false,"is_disabled":false,"rental_uris":{"android":"levelo://app?vid=f0cd831c-cfb9-44c7-9487-103b6df223ca","ios":"levelo://app?vid=f0cd831c-cfb9-44c7-9487-103b6df223ca"},"vehicle_type_id":"4","last_reported":1702674368,"current_range_meters":29600,"station_id":"","pricing_plan_id":"free"},{"bike_id":"ba5c9d2f-c79a-403c-8e78-b58ff4753b4c","system_id":"levelo_inurba_marseille","lat":43.30942,"lon":5.40145,"is_reserved":false,"is_disabled":false,"rental_uris":{"android":"levelo://app?vid=ba5c9d2f-c79a-403c-8e78-b58ff4753b4c","ios":"levelo://app?vid=ba5c9d2f-c79a-403c-8e78-b58ff4753b4c"},"vehicle_type_id":"4","last_reported":1702674368,"current_range_meters":4000,"station_id":"","pricing_plan_id":"free"},{"bike_id":"de308cad-8c55-4c58-a1b6-bd476ec453be","system_id":"levelo_inurba_marseille","lat":43.30941,"lon":5.40147,"is_reserved":false,"is_disabled":false,"rental_uris":{"android":"levelo://app?vid=de308cad-8c55-4c58-a1b6-bd476ec453be","ios":"levelo://app?vid=de308cad-8c55-4c58-a1b6-bd476ec453be"},"vehicle_type_id":"4","last_reported":1702674368,"current_range_meters":9200,"station_id":"ce4bgvp2rcd13ifvqct0","pricing_plan_id":"free"},{"bike_id":"811eac48-7c36-4ce9-9a27-879aa1e1514e","system_id":"levelo_inurba_marseille","lat":43.3375,"lon":5.37452,"is_reserved":false,"is_disabled":false,"rental_uris":{"android":"levelo://app?vid=811eac48-7c36-4ce9-9a27-879aa1e1514e","ios":"levelo://app?vid=811eac48-7c36-4ce9-9a27-879aa1e1514e"},"vehicle_type_id":"4","last_reported":1702674368,"current_range_meters":28000,"station_id":"","pricing_plan_id":"free"},{"bike_id":"a15a6f31-d26a-498f-aab0-fad2629bd007","system_id":"levelo_inurba_marseille","lat":43.337535,"lon":5.37446,"is_reserved":false,"is_disabled":false,"rental_uris":{"android":"levelo://app?vid=a15a6f31-d26a-498f-aab0-fad2629bd007","ios":"levelo://app?vid=a15a6f31-d26a-498f-aab0-fad2629bd007"},"vehicle_type_id":"4","last_reported":1702674368,"current_range_meters":1200,"station_id":"","pricing_plan_id":"free"},{"bike_id":"ef80ceab-dc9f-4b6c-8f52-707d5177f481","system_id":"levelo_inurba_marseille","lat":43.33752,"lon":5.37466,"is_reserved":false,"is_disabled":false,"rental_uris":{"android":"levelo://app?vid=ef80ceab-dc9f-4b6c-8f52-707d5177f481","ios":"levelo://app?vid=ef80ceab-dc9f-4b6c-8f52-707d5177f481"},"vehicle_type_id":"4","last_reported":1702674368,"current_range_meters":31200,"station_id":"","pricing_plan_id":"free"},{"bike_id":"9e5231e6-9497-41e6-bfd0-a7d79b8fad43","system_id":"levelo_inurba_marseille","lat":43.33758,"lon":5.37454,"is_reserved":false,"is_disabled":false,"rental_uris":{"android":"levelo://app?vid=9e5231e6-9497-41e6-bfd0-a7d79b8fad43","ios":"levelo://app?vid=9e5231e6-9497-41e6-bfd0-a7d79b8fad43"},"vehicle_type_id":"4","last_reported":1702674368,"current_range_meters":28000,"station_id":"","pricing_plan_id":"free"},{"bike_id":"930bba3a-4350-44cf-bb9b-310a6cbdb5ef","system_id":"levelo_inurba_marseille","lat":43.33759,"lon":5.374607,"is_reserved":false,"is_disabled":false,"rental_uris":{"android":"levelo://app?vid=930bba3a-4350-44cf-bb9b-310a6cbdb5ef","ios":"levelo://app?vid=930bba3a-4350-44cf-bb9b-310a6cbdb5ef"},"vehicle_type_id":"4","last_reported":1702674368,"current_range_meters":27200,"station_id":"","pricing_plan_id":"free"},{"bike_id":"1b1bd80c-92ec-4f8e-8e80-a125315f4b22","system_id":"levelo_inurba_marseille","lat":43.33768,"lon":5.37428,"is_reserved":false,"is_disabled":false,"rental_uris":{"android":"levelo://app?vid=1b1bd80c-92ec-4f8e-8e80-a125315f4b22","ios":"levelo://app?vid=1b1bd80c-92ec-4f8e-8e80-a125315f4b22"},"vehicle_type_id":"4","last_reported":1702674368,"current_range_meters":8000,"station_id":"","pricing_plan_id":"free"},{"bike_id":"10eadedf-b2e9-4bb9-a1f0-77df69175439","system_id":"levelo_inurba_marseille","lat":43.33771,"lon":5.37426,"is_reserved":false,"is_disabled":false,"rental_uris":{"android":"levelo://app?vid=10eadedf-b2e9-4bb9-a1f0-77df69175439","ios":"levelo://app?vid=10eadedf-b2e9-4bb9-a1f0-77df69175439"},"vehicle_type_id":"4","last_reported":1702674368,"current_range_meters":29200,"station_id":"","pricing_plan_id":"free"},{"bike_id":"46937d05-36c2-495a-9b30-7603f646a5e5","system_id":"levelo_inurba_marseille","lat":43.33774,"lon":5.37425,"is_reserved":false,"is_disabled":false,"rental_uris":{"android":"levelo://app?vid=46937d05-36c2-495a-9b30-7603f646a5e5","ios":"levelo://app?vid=46937d05-36c2-495a-9b30-7603f646a5e5"},"vehicle_type_id":"4","last_reported":1702674368,"current_range_meters":26800,"station_id":"","pricing_plan_id":"free"},{"bike_id":"4189c09d-d993-419c-b27b-d4e06aeb42f7","system_id":"levelo_inurba_marseille","lat":43.286961,"lon":5.373785,"is_reserved":false,"is_disabled":false,"rental_uris":{"android":"levelo://app?vid=4189c09d-d993-419c-b27b-d4e06aeb42f7","ios":"levelo://app?vid=4189c09d-d993-419c-b27b-d4e06aeb42f7"},"vehicle_type_id":"4","last_reported":1702674368,"current_range_meters":31200,"station_id":"ce4bh3p2rcd13ifvqdq0","pricing_plan_id":"free"},{"bike_id":"97cf9a29-c3cb-4368-91f5-88dca59fee3f","system_id":"levelo_inurba_marseille","lat":43.295196,"lon":5.39397,"is_reserved":false,"is_disabled":false,"rental_uris":{"android":"levelo://app?vid=97cf9a29-c3cb-4368-91f5-88dca59fee3f","ios":"levelo://app?vid=97cf9a29-c3cb-4368-91f5-88dca59fee3f"},"vehicle_type_id":"4","last_reported":1702674368,"current_range_meters":4400,"station_id":"ce4bh292rcd13ifvqdf0","pricing_plan_id":"free"},{"bike_id":"f2a668c4-cecf-4528-b46f-d71b13153779","system_id":"levelo_inurba_marseille","lat":43.298685,"lon":5.397479,"is_reserved":false,"is_disabled":false,"rental_uris":{"android":"levelo://app?vid=f2a668c4-cecf-4528-b46f-d71b13153779","ios":"levelo://app?vid=f2a668c4-cecf-4528-b46f-d71b13153779"},"vehicle_type_id":"4","last_reported":1702674368,"current_range_meters":0,"station_id":"ce4bh0h2rcd13ifvqd50","pricing_plan_id":"free"},{"bike_id":"1b604e8e-1e44-44b6-acab-672a198b82a8","system_id":"levelo_inurba_marseille","lat":43.29514,"lon":5.394042,"is_reserved":false,"is_disabled":false,"rental_uris":{"android":"levelo://app?vid=1b604e8e-1e44-44b6-acab-672a198b82a8","ios":"levelo://app?vid=1b604e8e-1e44-44b6-acab-672a198b82a8"},"vehicle_type_id":"4","last_reported":1702674368,"current_range_meters":0,"station_id":"ce4bh292rcd13ifvqdf0","pricing_plan_id":"free"},{"bike_id":"709b446b-8df0-41d8-81fd-964fab1071ab","system_id":"levelo_inurba_marseille","lat":43.302759,"lon":5.400793,"is_reserved":false,"is_disabled":false,"rental_uris":{"android":"levelo://app?vid=709b446b-8df0-41d8-81fd-964fab1071ab","ios":"levelo://app?vid=709b446b-8df0-41d8-81fd-964fab1071ab"},"vehicle_type_id":"4","last_reported":1702674368,"current_range_meters":22400,"station_id":"ce4bgvh2rcd13ifvqcs0","pricing_plan_id":"free"},{"bike_id":"9f65235a-80bb-4691-b79d-9988ede6f89d","system_id":"levelo_inurba_marseille","lat":43.287185,"lon":5.379373,"is_reserved":false,"is_disabled":false,"rental_uris":{"android":"levelo://app?vid=9f65235a-80bb-4691-b79d-9988ede6f89d","ios":"levelo://app?vid=9f65235a-80bb-4691-b79d-9988ede6f89d"},"vehicle_type_id":"4","last_reported":1702674368,"current_range_meters":0,"station_id":"ce4bh9p2rcd13ifvqec0","pricing_plan_id":"free"},{"bike_id":"8ec1d24f-fae8-42bc-ac2c-8c97bcd1bd58","system_id":"levelo_inurba_marseille","lat":43.31688,"lon":5.40473,"is_reserved":false,"is_disabled":false,"rental_uris":{"android":"levelo://app?vid=8ec1d24f-fae8-42bc-ac2c-8c97bcd1bd58","ios":"levelo://app?vid=8ec1d24f-fae8-42bc-ac2c-8c97bcd1bd58"},"vehicle_type_id":"4","last_reported":1702674368,"current_range_meters":2000,"station_id":"ce4bh012rcd13ifvqd00","pricing_plan_id":"free"},{"bike_id":"15e43c5c-45e9-4cf0-8cb1-213ee8167c83","system_id":"levelo_inurba_marseille","lat":43.31685,"lon":5.40477,"is_reserved":false,"is_disabled":false,"rental_uris":{"android":"levelo://app?vid=15e43c5c-45e9-4cf0-8cb1-213ee8167c83","ios":"levelo://app?vid=15e43c5c-45e9-4cf0-8cb1-213ee8167c83"},"vehicle_type_id":"4","last_reported":1702674368,"current_range_meters":1600,"station_id":"ce4bh012rcd13ifvqd00","pricing_plan_id":"free"},{"bike_id":"1c71bab1-da10-412c-a58a-919cf52a8adc","system_id":"levelo_inurba_marseille","lat":43.291994,"lon":5.392907,"is_reserved":false,"is_disabled":false,"rental_uris":{"android":"levelo://app?vid=1c71bab1-da10-412c-a58a-919cf52a8adc","ios":"levelo://app?vid=1c71bab1-da10-412c-a58a-919cf52a8adc"},"vehicle_type_id":"4","last_reported":1702674368,"current_range_meters":22800,"station_id":"ce4bh192rcd13ifvqdd0","pricing_plan_id":"free"},{"bike_id":"1985b2b0-c422-476e-a8e2-0674d0578e04","system_id":"levelo_inurba_marseille","lat":43.291994,"lon":5.392907,"is_reserved":false,"is_disabled":false,"rental_uris":{"android":"levelo://app?vid=1985b2b0-c422-476e-a8e2-0674d0578e04","ios":"levelo://app?vid=1985b2b0-c422-476e-a8e2-0674d0578e04"},"vehicle_type_id":"4","last_reported":1702674368,"current_range_meters":5200,"station_id":"ce4bh192rcd13ifvqdd0","pricing_plan_id":"free"},{"bike_id":"e6a90bdf-0985-4c7d-a0fa-5fd811cec259","system_id":"levelo_inurba_marseille","lat":43.28864,"lon":5.38773,"is_reserved":false,"is_disabled":false,"rental_uris":{"android":"levelo://app?vid=e6a90bdf-0985-4c7d-a0fa-5fd811cec259","ios":"levelo://app?vid=e6a90bdf-0985-4c7d-a0fa-5fd811cec259"},"vehicle_type_id":"4","last_reported":1702674368,"current_range_meters":30400,"station_id":"","pricing_plan_id":"free"},{"bike_id":"15aa2a7f-bd98-4973-ac49-d771f417191f","system_id":"levelo_inurba_marseille","lat":43.284534,"lon":5.358662,"is_reserved":false,"is_disabled":false,"rental_uris":{"android":"levelo://app?vid=15aa2a7f-bd98-4973-ac49-d771f417191f","ios":"levelo://app?vid=15aa2a7f-bd98-4973-ac49-d771f417191f"},"vehicle_type_id":"4","last_reported":1702674368,"current_range_meters":15200,"station_id":"ce4bhah2rcd13ifvqei0","pricing_plan_id":"free"},{"bike_id":"693c88ac-fe5b-4c68-9d31-ba5d72c7ce58","system_id":"levelo_inurba_marseille","lat":43.284534,"lon":5.358662,"is_reserved":false,"is_disabled":false,"rental_uris":{"android":"levelo://app?vid=693c88ac-fe5b-4c68-9d31-ba5d72c7ce58","ios":"levelo://app?vid=693c88ac-fe5b-4c68-9d31-ba5d72c7ce58"},"vehicle_type_id":"4","last_reported":1702674368,"current_range_meters":25600,"station_id":"ce4bhah2rcd13ifvqei0","pricing_plan_id":"free"},{"bike_id":"5844ceb8-15eb-4e80-acbd-5a0ab3df7356","system_id":"levelo_inurba_marseille","lat":43.284538,"lon":5.358657,"is_reserved":false,"is_disabled":false,"rental_uris":{"android":"levelo://app?vid=5844ceb8-15eb-4e80-acbd-5a0ab3df7356","ios":"levelo://app?vid=5844ceb8-15eb-4e80-acbd-5a0ab3df7356"},"vehicle_type_id":"4","last_reported":1702674368,"current_range_meters":30400,"station_id":"ce4bhah2rcd13ifvqei0","pricing_plan_id":"free"},{"bike_id":"f6a8b12b-f6d4-46ba-939d-74c18fccd09b","system_id":"levelo_inurba_marseille","lat":43.285848,"lon":5.350787,"is_reserved":false,"is_disabled":false,"rental_uris":{"android":"levelo://app?vid=f6a8b12b-f6d4-46ba-939d-74c18fccd09b","ios":"levelo://app?vid=f6a8b12b-f6d4-46ba-939d-74c18fccd09b"},"vehicle_type_id":"4","last_reported":1702674368,"current_range_meters":19200,"station_id":"ce4bhch2rcd13ifvqeug","pricing_plan_id":"free"},{"bike_id":"975ce48b-5ee6-4141-baec-20904ecd16ae","system_id":"levelo_inurba_marseille","lat":43.283998,"lon":5.375062,"is_reserved":false,"is_disabled":false,"rental_uris":{"android":"levelo://app?vid=975ce48b-5ee6-4141-baec-20904ecd16ae","ios":"levelo://app?vid=975ce48b-5ee6-4141-baec-20904ecd16ae"},"vehicle_type_id":"4","last_reported":1702674368,"current_range_meters":0,"station_id":"ce4bh412rcd13ifvqds0","pricing_plan_id":"free"},{"bike_id":"b9e4929b-7371-4fec-a5ad-d54849454cfc","system_id":"levelo_inurba_marseille","lat":43.283998,"lon":5.375062,"is_reserved":false,"is_disabled":false,"rental_uris":{"android":"levelo://app?vid=b9e4929b-7371-4fec-a5ad-d54849454cfc","ios":"levelo://app?vid=b9e4929b-7371-4fec-a5ad-d54849454cfc"},"vehicle_type_id":"4","last_reported":1702674368,"current_range_meters":3600,"station_id":"ce4bh412rcd13ifvqds0","pricing_plan_id":"free"},{"bike_id":"9e228cb7-66a4-4046-8b02-d31d5c85525f","system_id":"levelo_inurba_marseille","lat":43.283998,"lon":5.375062,"is_reserved":false,"is_disabled":false,"rental_uris":{"android":"levelo://app?vid=9e228cb7-66a4-4046-8b02-d31d5c85525f","ios":"levelo://app?vid=9e228cb7-66a4-4046-8b02-d31d5c85525f"},"vehicle_type_id":"4","last_reported":1702674368,"current_range_meters":19600,"station_id":"ce4bh412rcd13ifvqds0","pricing_plan_id":"free"},{"bike_id":"32c1ada8-b047-41b7-9e67-e99209cb69c2","system_id":"levelo_inurba_marseille","lat":43.295713,"lon":5.399639,"is_reserved":false,"is_disabled":false,"rental_uris":{"android":"levelo://app?vid=32c1ada8-b047-41b7-9e67-e99209cb69c2","ios":"levelo://app?vid=32c1ada8-b047-41b7-9e67-e99209cb69c2"},"vehicle_type_id":"4","last_reported":1702674368,"current_range_meters":15200,"station_id":"ce4bh312rcd13ifvqdj0","pricing_plan_id":"free"},{"bike_id":"4f76a8da-3cfa-4365-a2b3-e9dbccabd185","system_id":"levelo_inurba_marseille","lat":43.284217,"lon":5.349697,"is_reserved":false,"is_disabled":false,"rental_uris":{"android":"levelo://app?vid=4f76a8da-3cfa-4365-a2b3-e9dbccabd185","ios":"levelo://app?vid=4f76a8da-3cfa-4365-a2b3-e9dbccabd185"},"vehicle_type_id":"4","last_reported":1702674368,"current_range_meters":12400,"station_id":"ce4bhbh2rcd13ifvqepg","pricing_plan_id":"free"},{"bike_id":"01d4cfe7-bb9f-4a10-a1b5-680d1ad1a1f9","system_id":"levelo_inurba_marseille","lat":43.286595,"lon":5.386795,"is_reserved":false,"is_disabled":false,"rental_uris":{"android":"levelo://app?vid=01d4cfe7-bb9f-4a10-a1b5-680d1ad1a1f9","ios":"levelo://app?vid=01d4cfe7-bb9f-4a10-a1b5-680d1ad1a1f9"},"vehicle_type_id":"4","last_reported":1702674368,"current_range_meters":8400,"station_id":"ce4bh492rcd13ifvqdug","pricing_plan_id":"free"},{"bike_id":"98966661-10d6-40d8-a027-e8f53fedf6da","system_id":"levelo_inurba_marseille","lat":43.28737,"lon":5.38941,"is_reserved":false,"is_disabled":false,"rental_uris":{"android":"levelo://app?vid=98966661-10d6-40d8-a027-e8f53fedf6da","ios":"levelo://app?vid=98966661-10d6-40d8-a027-e8f53fedf6da"},"vehicle_type_id":"4","last_reported":1702674368,"current_range_meters":14800,"station_id":"","pricing_plan_id":"free"},{"bike_id":"15cdad0a-f271-4a6d-ae40-e7e5830b09a0","system_id":"levelo_inurba_marseille","lat":43.32329,"lon":5.40621,"is_reserved":false,"is_disabled":false,"rental_uris":{"android":"levelo://app?vid=15cdad0a-f271-4a6d-ae40-e7e5830b09a0","ios":"levelo://app?vid=15cdad0a-f271-4a6d-ae40-e7e5830b09a0"},"vehicle_type_id":"4","last_reported":1702674368,"current_range_meters":8000,"station_id":"ce4bhq92rcd13ifvqhjg","pricing_plan_id":"free"},{"bike_id":"16373837-b161-407f-b0fa-3d0f27559010","system_id":"levelo_inurba_marseille","lat":43.323464,"lon":5.406297,"is_reserved":false,"is_disabled":false,"rental_uris":{"android":"levelo://app?vid=16373837-b161-407f-b0fa-3d0f27559010","ios":"levelo://app?vid=16373837-b161-407f-b0fa-3d0f27559010"},"vehicle_type_id":"4","last_reported":1702674368,"current_range_meters":31200,"station_id":"ce4bhq92rcd13ifvqhjg","pricing_plan_id":"free"},{"bike_id":"4e7f35df-b5be-41f8-a088-b359fd0719b0","system_id":"levelo_inurba_marseille","lat":43.323464,"lon":5.406297,"is_reserved":false,"is_disabled":false,"rental_uris":{"android":"levelo://app?vid=4e7f35df-b5be-41f8-a088-b359fd0719b0","ios":"levelo://app?vid=4e7f35df-b5be-41f8-a088-b359fd0719b0"},"vehicle_type_id":"4","last_reported":1702674368,"current_range_meters":11200,"station_id":"ce4bhq92rcd13ifvqhjg","pricing_plan_id":"free"},{"bike_id":"5b5160c0-8464-4f3c-bd74-29cc70c76df5","system_id":"levelo_inurba_marseille","lat":43.284787,"lon":5.384116,"is_reserved":false,"is_disabled":false,"rental_uris":{"android":"levelo://app?vid=5b5160c0-8464-4f3c-bd74-29cc70c76df5","ios":"levelo://app?vid=5b5160c0-8464-4f3c-bd74-29cc70c76df5"},"vehicle_type_id":"4","last_reported":1702674368,"current_range_meters":6000,"station_id":"ce4bh512rcd13ifvqe3g","pricing_plan_id":"free"},{"bike_id":"7e0d6b19-cd8d-4593-9105-ae0e1cab3e63","system_id":"levelo_inurba_marseille","lat":43.284787,"lon":5.384116,"is_reserved":false,"is_disabled":false,"rental_uris":{"android":"levelo://app?vid=7e0d6b19-cd8d-4593-9105-ae0e1cab3e63","ios":"levelo://app?vid=7e0d6b19-cd8d-4593-9105-ae0e1cab3e63"},"vehicle_type_id":"4","last_reported":1702674368,"current_range_meters":24800,"station_id":"ce4bh512rcd13ifvqe3g","pricing_plan_id":"free"},{"bike_id":"fcca2a8a-096a-4421-8ba1-4e19392c9737","system_id":"levelo_inurba_marseille","lat":43.288501,"lon":5.393087,"is_reserved":false,"is_disabled":false,"rental_uris":{"android":"levelo://app?vid=fcca2a8a-096a-4421-8ba1-4e19392c9737","ios":"levelo://app?vid=fcca2a8a-096a-4421-8ba1-4e19392c9737"},"vehicle_type_id":"4","last_reported":1702674368,"current_range_meters":25600,"station_id":"ce4bh2p2rcd13ifvqdi0","pricing_plan_id":"free"},{"bike_id":"48d5209a-a7bb-4d1f-baa9-b8683d2edcb6","system_id":"levelo_inurba_marseille","lat":43.283498,"lon":5.380948,"is_reserved":false,"is_disabled":false,"rental_uris":{"android":"levelo://app?vid=48d5209a-a7bb-4d1f-baa9-b8683d2edcb6","ios":"levelo://app?vid=48d5209a-a7bb-4d1f-baa9-b8683d2edcb6"},"vehicle_type_id":"4","last_reported":1702674368,"current_range_meters":17600,"station_id":"ce4bh412rcd13ifvqdr0","pricing_plan_id":"free"},{"bike_id":"c813b757-e794-4f4a-bf68-3fadb7b74d00","system_id":"levelo_inurba_marseille","lat":43.289363,"lon":5.396322,"is_reserved":false,"is_disabled":false,"rental_uris":{"android":"levelo://app?vid=c813b757-e794-4f4a-bf68-3fadb7b74d00","ios":"levelo://app?vid=c813b757-e794-4f4a-bf68-3fadb7b74d00"},"vehicle_type_id":"4","last_reported":1702674368,"current_range_meters":12000,"station_id":"ce4bh3h2rcd13ifvqdn0","pricing_plan_id":"free"},{"bike_id":"c37a6206-89c0-47e5-b47b-f6c9d3f8c8c7","system_id":"levelo_inurba_marseille","lat":43.28039,"lon":5.369297,"is_reserved":false,"is_disabled":false,"rental_uris":{"android":"levelo://app?vid=c37a6206-89c0-47e5-b47b-f6c9d3f8c8c7","ios":"levelo://app?vid=c37a6206-89c0-47e5-b47b-f6c9d3f8c8c7"},"vehicle_type_id":"4","last_reported":1702674368,"current_range_meters":28800,"station_id":"ce4bha12rcd13ifvqef0","pricing_plan_id":"free"},{"bike_id":"1c879b48-8c27-4970-9dab-d312615135bd","system_id":"levelo_inurba_marseille","lat":43.283502,"lon":5.386471,"is_reserved":false,"is_disabled":false,"rental_uris":{"android":"levelo://app?vid=1c879b48-8c27-4970-9dab-d312615135bd","ios":"levelo://app?vid=1c879b48-8c27-4970-9dab-d312615135bd"},"vehicle_type_id":"4","last_reported":1702674368,"current_range_meters":10000,"station_id":"ce4bh492rcd13ifvqdvg","pricing_plan_id":"free"},{"bike_id":"e56d8063-d5a3-4f90-8e63-53df27f4c2f6","system_id":"levelo_inurba_marseille","lat":43.282744,"lon":5.350533,"is_reserved":false,"is_disabled":false,"rental_uris":{"android":"levelo://app?vid=e56d8063-d5a3-4f90-8e63-53df27f4c2f6","ios":"levelo://app?vid=e56d8063-d5a3-4f90-8e63-53df27f4c2f6"},"vehicle_type_id":"4","last_reported":1702674368,"current_range_meters":14800,"station_id":"ce4bhbp2rcd13ifvqerg","pricing_plan_id":"free"},{"bike_id":"8cc5c416-4ab4-4c4f-a22f-0508774ed150","system_id":"levelo_inurba_marseille","lat":43.280382,"lon":5.369291,"is_reserved":false,"is_disabled":false,"rental_uris":{"android":"levelo://app?vid=8cc5c416-4ab4-4c4f-a22f-0508774ed150","ios":"levelo://app?vid=8cc5c416-4ab4-4c4f-a22f-0508774ed150"},"vehicle_type_id":"4","last_reported":1702674368,"current_range_meters":15200,"station_id":"ce4bha12rcd13ifvqef0","pricing_plan_id":"free"},{"bike_id":"62c32a41-5c85-445e-a62d-27f8a6e615c9","system_id":"levelo_inurba_marseille","lat":43.280382,"lon":5.369291,"is_reserved":false,"is_disabled":false,"rental_uris":{"android":"levelo://app?vid=62c32a41-5c85-445e-a62d-27f8a6e615c9","ios":"levelo://app?vid=62c32a41-5c85-445e-a62d-27f8a6e615c9"},"vehicle_type_id":"4","last_reported":1702674368,"current_range_meters":30000,"station_id":"ce4bha12rcd13ifvqef0","pricing_plan_id":"free"},{"bike_id":"51c67930-0f81-4e81-8ba2-97e5f5bf98b2","system_id":"levelo_inurba_marseille","lat":43.28039,"lon":5.369297,"is_reserved":false,"is_disabled":false,"rental_uris":{"android":"levelo://app?vid=51c67930-0f81-4e81-8ba2-97e5f5bf98b2","ios":"levelo://app?vid=51c67930-0f81-4e81-8ba2-97e5f5bf98b2"},"vehicle_type_id":"4","last_reported":1702674368,"current_range_meters":10000,"station_id":"ce4bha12rcd13ifvqef0","pricing_plan_id":"free"},{"bike_id":"8fb47eb9-d1de-47c3-9a4f-063d68d00739","system_id":"levelo_inurba_marseille","lat":43.280382,"lon":5.369291,"is_reserved":false,"is_disabled":false,"rental_uris":{"android":"levelo://app?vid=8fb47eb9-d1de-47c3-9a4f-063d68d00739","ios":"levelo://app?vid=8fb47eb9-d1de-47c3-9a4f-063d68d00739"},"vehicle_type_id":"4","last_reported":1702674368,"current_range_meters":31600,"station_id":"ce4bha12rcd13ifvqef0","pricing_plan_id":"free"},{"bike_id":"866b9d67-381b-4562-a7ca-4f4f676ccc7e","system_id":"levelo_inurba_marseille","lat":43.2803,"lon":5.369413,"is_reserved":false,"is_disabled":false,"rental_uris":{"android":"levelo://app?vid=866b9d67-381b-4562-a7ca-4f4f676ccc7e","ios":"levelo://app?vid=866b9d67-381b-4562-a7ca-4f4f676ccc7e"},"vehicle_type_id":"4","last_reported":1702674368,"current_range_meters":6400,"station_id":"ce4bha12rcd13ifvqef0","pricing_plan_id":"free"},{"bike_id":"e04d024f-d664-423c-b963-3e21ecbf2e8d","system_id":"levelo_inurba_marseille","lat":43.280281,"lon":5.3694,"is_reserved":false,"is_disabled":false,"rental_uris":{"android":"levelo://app?vid=e04d024f-d664-423c-b963-3e21ecbf2e8d","ios":"levelo://app?vid=e04d024f-d664-423c-b963-3e21ecbf2e8d"},"vehicle_type_id":"4","last_reported":1702674368,"current_range_meters":25600,"station_id":"ce4bha12rcd13ifvqef0","pricing_plan_id":"free"},{"bike_id":"959e5081-9979-4728-8b5c-e55abf52b7e0","system_id":"levelo_inurba_marseille","lat":43.284462,"lon":5.392121,"is_reserved":false,"is_disabled":false,"rental_uris":{"android":"levelo://app?vid=959e5081-9979-4728-8b5c-e55abf52b7e0","ios":"levelo://app?vid=959e5081-9979-4728-8b5c-e55abf52b7e0"},"vehicle_type_id":"4","last_reported":1702674368,"current_range_meters":20400,"station_id":"ce4bhoh2rcd13ifvqh5g","pricing_plan_id":"free"},{"bike_id":"892fa481-57da-4bc6-8807-f130ca3153c1","system_id":"levelo_inurba_marseille","lat":43.28573,"lon":5.394992,"is_reserved":false,"is_disabled":false,"rental_uris":{"android":"levelo://app?vid=892fa481-57da-4bc6-8807-f130ca3153c1","ios":"levelo://app?vid=892fa481-57da-4bc6-8807-f130ca3153c1"},"vehicle_type_id":"4","last_reported":1702674368,"current_range_meters":19200,"station_id":"ce4bh292rcd13ifvqdg0","pricing_plan_id":"free"},{"bike_id":"2482c0f2-2ef1-41c8-b826-1527bdb396ef","system_id":"levelo_inurba_marseille","lat":43.28574,"lon":5.39499,"is_reserved":false,"is_disabled":false,"rental_uris":{"android":"levelo://app?vid=2482c0f2-2ef1-41c8-b826-1527bdb396ef","ios":"levelo://app?vid=2482c0f2-2ef1-41c8-b826-1527bdb396ef"},"vehicle_type_id":"4","last_reported":1702674368,"current_range_meters":23200,"station_id":"ce4bh292rcd13ifvqdg0","pricing_plan_id":"free"},{"bike_id":"a1bc684c-e85f-4ac7-9924-20bf0f258e8f","system_id":"levelo_inurba_marseille","lat":43.285742,"lon":5.395004,"is_reserved":false,"is_disabled":false,"rental_uris":{"android":"levelo://app?vid=a1bc684c-e85f-4ac7-9924-20bf0f258e8f","ios":"levelo://app?vid=a1bc684c-e85f-4ac7-9924-20bf0f258e8f"},"vehicle_type_id":"4","last_reported":1702674368,"current_range_meters":3200,"station_id":"ce4bh292rcd13ifvqdg0","pricing_plan_id":"free"},{"bike_id":"e79e3b44-98ba-4ac6-835c-4d82dbc69092","system_id":"levelo_inurba_marseille","lat":43.326605,"lon":5.409903,"is_reserved":false,"is_disabled":false,"rental_uris":{"android":"levelo://app?vid=e79e3b44-98ba-4ac6-835c-4d82dbc69092","ios":"levelo://app?vid=e79e3b44-98ba-4ac6-835c-4d82dbc69092"},"vehicle_type_id":"4","last_reported":1702674368,"current_range_meters":26800,"station_id":"ce4bhpp2rcd13ifvqhgg","pricing_plan_id":"free"},{"bike_id":"cc5bfe55-a9af-48b1-90df-ff1080f280d7","system_id":"levelo_inurba_marseille","lat":43.2792,"lon":5.35335,"is_reserved":false,"is_disabled":false,"rental_uris":{"android":"levelo://app?vid=cc5bfe55-a9af-48b1-90df-ff1080f280d7","ios":"levelo://app?vid=cc5bfe55-a9af-48b1-90df-ff1080f280d7"},"vehicle_type_id":"4","last_reported":1702674368,"current_range_meters":0,"station_id":"","pricing_plan_id":"free"},{"bike_id":"8e947133-bf12-40e9-844b-70fd0138712f","system_id":"levelo_inurba_marseille","lat":43.279087,"lon":5.380114,"is_reserved":false,"is_disabled":false,"rental_uris":{"android":"levelo://app?vid=8e947133-bf12-40e9-844b-70fd0138712f","ios":"levelo://app?vid=8e947133-bf12-40e9-844b-70fd0138712f"},"vehicle_type_id":"4","last_reported":1702674368,"current_range_meters":4800,"station_id":"ce4bhf92rcd13ifvqf50","pricing_plan_id":"free"},{"bike_id":"026ae723-500f-4488-9074-1c785625255d","system_id":"levelo_inurba_marseille","lat":43.279087,"lon":5.380114,"is_reserved":false,"is_disabled":false,"rental_uris":{"android":"levelo://app?vid=026ae723-500f-4488-9074-1c785625255d","ios":"levelo://app?vid=026ae723-500f-4488-9074-1c785625255d"},"vehicle_type_id":"4","last_reported":1702674368,"current_range_meters":30000,"station_id":"ce4bhf92rcd13ifvqf50","pricing_plan_id":"free"},{"bike_id":"b663b273-15da-453c-85ab-14a211eda56c","system_id":"levelo_inurba_marseille","lat":43.287154,"lon":5.399979,"is_reserved":false,"is_disabled":false,"rental_uris":{"android":"levelo://app?vid=b663b273-15da-453c-85ab-14a211eda56c","ios":"levelo://app?vid=b663b273-15da-453c-85ab-14a211eda56c"},"vehicle_type_id":"4","last_reported":1702674368,"current_range_meters":4000,"station_id":"ce4bho92rcd13ifvqh3g","pricing_plan_id":"free"},{"bike_id":"bf5bb9ac-8293-409d-96d3-ce25d14ae8e2","system_id":"levelo_inurba_marseille","lat":43.279087,"lon":5.380114,"is_reserved":false,"is_disabled":false,"rental_uris":{"android":"levelo://app?vid=bf5bb9ac-8293-409d-96d3-ce25d14ae8e2","ios":"levelo://app?vid=bf5bb9ac-8293-409d-96d3-ce25d14ae8e2"},"vehicle_type_id":"4","last_reported":1702674368,"current_range_meters":30400,"station_id":"ce4bhf92rcd13ifvqf50","pricing_plan_id":"free"},{"bike_id":"c40aebd4-c148-4d4d-9243-dcfaa5c4b14c","system_id":"levelo_inurba_marseille","lat":43.27621,"lon":5.36101,"is_reserved":false,"is_disabled":false,"rental_uris":{"android":"levelo://app?vid=c40aebd4-c148-4d4d-9243-dcfaa5c4b14c","ios":"levelo://app?vid=c40aebd4-c148-4d4d-9243-dcfaa5c4b14c"},"vehicle_type_id":"4","last_reported":1702674368,"current_range_meters":18400,"station_id":"ce4bgj92rcd13ifvqbe0","pricing_plan_id":"free"},{"bike_id":"9364e81e-0e92-4783-ab1e-61959cf6d510","system_id":"levelo_inurba_marseille","lat":43.27613,"lon":5.36105,"is_reserved":false,"is_disabled":false,"rental_uris":{"android":"levelo://app?vid=9364e81e-0e92-4783-ab1e-61959cf6d510","ios":"levelo://app?vid=9364e81e-0e92-4783-ab1e-61959cf6d510"},"vehicle_type_id":"4","last_reported":1702674368,"current_range_meters":10400,"station_id":"ce4bgj92rcd13ifvqbe0","pricing_plan_id":"free"},{"bike_id":"60bbc476-e74c-400a-93d5-71ff320c465d","system_id":"levelo_inurba_marseille","lat":43.280784,"lon":5.396622,"is_reserved":false,"is_disabled":false,"rental_uris":{"android":"levelo://app?vid=60bbc476-e74c-400a-93d5-71ff320c465d","ios":"levelo://app?vid=60bbc476-e74c-400a-93d5-71ff320c465d"},"vehicle_type_id":"4","last_reported":1702674368,"current_range_meters":13600,"station_id":"ce4bho12rcd13ifvqh2g","pricing_plan_id":"free"},{"bike_id":"c464e340-6b4f-402f-9f7f-c69a6e9b2cc8","system_id":"levelo_inurba_marseille","lat":43.278401,"lon":5.392152,"is_reserved":false,"is_disabled":false,"rental_uris":{"android":"levelo://app?vid=c464e340-6b4f-402f-9f7f-c69a6e9b2cc8","ios":"levelo://app?vid=c464e340-6b4f-402f-9f7f-c69a6e9b2cc8"},"vehicle_type_id":"4","last_reported":1702674368,"current_range_meters":6000,"station_id":"ce4bhjp2rcd13ifvqga0","pricing_plan_id":"free"},{"bike_id":"166e28ea-7406-4b92-96f7-b7b578902756","system_id":"levelo_inurba_marseille","lat":43.278401,"lon":5.392152,"is_reserved":false,"is_disabled":false,"rental_uris":{"android":"levelo://app?vid=166e28ea-7406-4b92-96f7-b7b578902756","ios":"levelo://app?vid=166e28ea-7406-4b92-96f7-b7b578902756"},"vehicle_type_id":"4","last_reported":1702674368,"current_range_meters":4000,"station_id":"ce4bhjp2rcd13ifvqga0","pricing_plan_id":"free"},{"bike_id":"8e1e848d-d96b-4302-ada5-5df8b44d4656","system_id":"levelo_inurba_marseille","lat":43.30346,"lon":5.41896,"is_reserved":false,"is_disabled":false,"rental_uris":{"android":"levelo://app?vid=8e1e848d-d96b-4302-ada5-5df8b44d4656","ios":"levelo://app?vid=8e1e848d-d96b-4302-ada5-5df8b44d4656"},"vehicle_type_id":"4","last_reported":1702674368,"current_range_meters":16400,"station_id":"ce4bhop2rcd13ifvqh7g","pricing_plan_id":"free"},{"bike_id":"70de0018-7b76-4ebb-aed4-49edffe3eeb6","system_id":"levelo_inurba_marseille","lat":43.33599,"lon":5.41009,"is_reserved":false,"is_disabled":false,"rental_uris":{"android":"levelo://app?vid=70de0018-7b76-4ebb-aed4-49edffe3eeb6","ios":"levelo://app?vid=70de0018-7b76-4ebb-aed4-49edffe3eeb6"},"vehicle_type_id":"4","last_reported":1702674368,"current_range_meters":1200,"station_id":"ce4bhqh2rcd13ifvqhmg","pricing_plan_id":"free"},{"bike_id":"79e39573-7a95-43d4-899f-8857266b242c","system_id":"levelo_inurba_marseille","lat":43.275625,"lon":5.384392,"is_reserved":false,"is_disabled":false,"rental_uris":{"android":"levelo://app?vid=79e39573-7a95-43d4-899f-8857266b242c","ios":"levelo://app?vid=79e39573-7a95-43d4-899f-8857266b242c"},"vehicle_type_id":"4","last_reported":1702674368,"current_range_meters":4000,"station_id":"ce4bhh92rcd13ifvqfi0","pricing_plan_id":"free"},{"bike_id":"85906091-c18b-4709-b70e-908ad6f2b893","system_id":"levelo_inurba_marseille","lat":43.275625,"lon":5.384392,"is_reserved":false,"is_disabled":false,"rental_uris":{"android":"levelo://app?vid=85906091-c18b-4709-b70e-908ad6f2b893","ios":"levelo://app?vid=85906091-c18b-4709-b70e-908ad6f2b893"},"vehicle_type_id":"4","last_reported":1702674368,"current_range_meters":8400,"station_id":"ce4bhh92rcd13ifvqfi0","pricing_plan_id":"free"},{"bike_id":"df71b7f6-9715-49c4-8b54-852772476bb4","system_id":"levelo_inurba_marseille","lat":43.275625,"lon":5.384392,"is_reserved":false,"is_disabled":false,"rental_uris":{"android":"levelo://app?vid=df71b7f6-9715-49c4-8b54-852772476bb4","ios":"levelo://app?vid=df71b7f6-9715-49c4-8b54-852772476bb4"},"vehicle_type_id":"4","last_reported":1702674368,"current_range_meters":4000,"station_id":"ce4bhh92rcd13ifvqfi0","pricing_plan_id":"free"},{"bike_id":"33864370-4430-4dd2-b741-a297768752df","system_id":"levelo_inurba_marseille","lat":43.336134,"lon":5.410341,"is_reserved":false,"is_disabled":false,"rental_uris":{"android":"levelo://app?vid=33864370-4430-4dd2-b741-a297768752df","ios":"levelo://app?vid=33864370-4430-4dd2-b741-a297768752df"},"vehicle_type_id":"4","last_reported":1702674368,"current_range_meters":20400,"station_id":"ce4bhqh2rcd13ifvqhmg","pricing_plan_id":"free"},{"bike_id":"6f20950f-1374-4020-b4f9-6e56dbc5c7e3","system_id":"levelo_inurba_marseille","lat":43.336134,"lon":5.410341,"is_reserved":false,"is_disabled":false,"rental_uris":{"android":"levelo://app?vid=6f20950f-1374-4020-b4f9-6e56dbc5c7e3","ios":"levelo://app?vid=6f20950f-1374-4020-b4f9-6e56dbc5c7e3"},"vehicle_type_id":"4","last_reported":1702674368,"current_range_meters":18000,"station_id":"ce4bhqh2rcd13ifvqhmg","pricing_plan_id":"free"},{"bike_id":"6ac2844f-d840-4fbb-ab96-2e239b43d33b","system_id":"levelo_inurba_marseille","lat":43.27558,"lon":5.384283,"is_reserved":false,"is_disabled":false,"rental_uris":{"android":"levelo://app?vid=6ac2844f-d840-4fbb-ab96-2e239b43d33b","ios":"levelo://app?vid=6ac2844f-d840-4fbb-ab96-2e239b43d33b"},"vehicle_type_id":"4","last_reported":1702674368,"current_range_meters":20000,"station_id":"ce4bhh92rcd13ifvqfi0","pricing_plan_id":"free"},{"bike_id":"f36764fc-7a21-4abe-b48b-9cf0cc11e0ff","system_id":"levelo_inurba_marseille","lat":43.279952,"lon":5.400085,"is_reserved":false,"is_disabled":false,"rental_uris":{"android":"levelo://app?vid=f36764fc-7a21-4abe-b48b-9cf0cc11e0ff","ios":"levelo://app?vid=f36764fc-7a21-4abe-b48b-9cf0cc11e0ff"},"vehicle_type_id":"4","last_reported":1702674368,"current_range_meters":16800,"station_id":"ce4bho92rcd13ifvqh4g","pricing_plan_id":"free"},{"bike_id":"ed338ba8-ca08-4526-8cf4-45bf0a14c1e8","system_id":"levelo_inurba_marseille","lat":43.279952,"lon":5.400085,"is_reserved":false,"is_disabled":false,"rental_uris":{"android":"levelo://app?vid=ed338ba8-ca08-4526-8cf4-45bf0a14c1e8","ios":"levelo://app?vid=ed338ba8-ca08-4526-8cf4-45bf0a14c1e8"},"vehicle_type_id":"4","last_reported":1702674368,"current_range_meters":16800,"station_id":"ce4bho92rcd13ifvqh4g","pricing_plan_id":"free"},{"bike_id":"25042987-187e-4971-80aa-4edf5237efc1","system_id":"levelo_inurba_marseille","lat":43.279975,"lon":5.40009,"is_reserved":false,"is_disabled":false,"rental_uris":{"android":"levelo://app?vid=25042987-187e-4971-80aa-4edf5237efc1","ios":"levelo://app?vid=25042987-187e-4971-80aa-4edf5237efc1"},"vehicle_type_id":"4","last_reported":1702674368,"current_range_meters":29200,"station_id":"ce4bho92rcd13ifvqh4g","pricing_plan_id":"free"},{"bike_id":"d96cc6aa-f307-4216-99ed-c9924f6230ce","system_id":"levelo_inurba_marseille","lat":43.279975,"lon":5.40009,"is_reserved":false,"is_disabled":false,"rental_uris":{"android":"levelo://app?vid=d96cc6aa-f307-4216-99ed-c9924f6230ce","ios":"levelo://app?vid=d96cc6aa-f307-4216-99ed-c9924f6230ce"},"vehicle_type_id":"4","last_reported":1702674368,"current_range_meters":26800,"station_id":"ce4bho92rcd13ifvqh4g","pricing_plan_id":"free"},{"bike_id":"7e907a90-0f45-4013-a335-a203442269f6","system_id":"levelo_inurba_marseille","lat":43.279975,"lon":5.40009,"is_reserved":false,"is_disabled":false,"rental_uris":{"android":"levelo://app?vid=7e907a90-0f45-4013-a335-a203442269f6","ios":"levelo://app?vid=7e907a90-0f45-4013-a335-a203442269f6"},"vehicle_type_id":"4","last_reported":1702674368,"current_range_meters":14800,"station_id":"ce4bho92rcd13ifvqh4g","pricing_plan_id":"free"},{"bike_id":"58836c95-6366-4507-b317-696c63def311","system_id":"levelo_inurba_marseille","lat":43.317121,"lon":5.423936,"is_reserved":false,"is_disabled":false,"rental_uris":{"android":"levelo://app?vid=58836c95-6366-4507-b317-696c63def311","ios":"levelo://app?vid=58836c95-6366-4507-b317-696c63def311"},"vehicle_type_id":"4","last_reported":1702674368,"current_range_meters":30000,"station_id":"ce4bhp92rcd13ifvqhbg","pricing_plan_id":"free"},{"bike_id":"bcccc262-9445-490b-8e10-137ab8bc680c","system_id":"levelo_inurba_marseille","lat":43.317121,"lon":5.423936,"is_reserved":false,"is_disabled":false,"rental_uris":{"android":"levelo://app?vid=bcccc262-9445-490b-8e10-137ab8bc680c","ios":"levelo://app?vid=bcccc262-9445-490b-8e10-137ab8bc680c"},"vehicle_type_id":"4","last_reported":1702674368,"current_range_meters":23200,"station_id":"ce4bhp92rcd13ifvqhbg","pricing_plan_id":"free"},{"bike_id":"cdc69067-dad5-415d-b4f3-0a438e350196","system_id":"levelo_inurba_marseille","lat":43.317121,"lon":5.423936,"is_reserved":false,"is_disabled":false,"rental_uris":{"android":"levelo://app?vid=cdc69067-dad5-415d-b4f3-0a438e350196","ios":"levelo://app?vid=cdc69067-dad5-415d-b4f3-0a438e350196"},"vehicle_type_id":"4","last_reported":1702674368,"current_range_meters":29200,"station_id":"ce4bhp92rcd13ifvqhbg","pricing_plan_id":"free"},{"bike_id":"93a9a0b0-f09a-4679-973e-f3ebca0caf36","system_id":"levelo_inurba_marseille","lat":43.310785,"lon":5.424305,"is_reserved":false,"is_disabled":false,"rental_uris":{"android":"levelo://app?vid=93a9a0b0-f09a-4679-973e-f3ebca0caf36","ios":"levelo://app?vid=93a9a0b0-f09a-4679-973e-f3ebca0caf36"},"vehicle_type_id":"4","last_reported":1702674368,"current_range_meters":29600,"station_id":"ce4bhp92rcd13ifvqhag","pricing_plan_id":"free"},{"bike_id":"13b63d08-aaa3-4985-bf57-1f32727c58d1","system_id":"levelo_inurba_marseille","lat":43.310785,"lon":5.424305,"is_reserved":false,"is_disabled":false,"rental_uris":{"android":"levelo://app?vid=13b63d08-aaa3-4985-bf57-1f32727c58d1","ios":"levelo://app?vid=13b63d08-aaa3-4985-bf57-1f32727c58d1"},"vehicle_type_id":"4","last_reported":1702674368,"current_range_meters":27600,"station_id":"ce4bhp92rcd13ifvqhag","pricing_plan_id":"free"},{"bike_id":"3ca2c2d2-99b0-4aa6-a05d-e30f02e6a7fb","system_id":"levelo_inurba_marseille","lat":43.276092,"lon":5.395289,"is_reserved":false,"is_disabled":false,"rental_uris":{"android":"levelo://app?vid=3ca2c2d2-99b0-4aa6-a05d-e30f02e6a7fb","ios":"levelo://app?vid=3ca2c2d2-99b0-4aa6-a05d-e30f02e6a7fb"},"vehicle_type_id":"4","last_reported":1702674368,"current_range_meters":25200,"station_id":"","pricing_plan_id":"free"},{"bike_id":"d85ccd0f-017a-4247-b89e-73a3b46faf4b","system_id":"levelo_inurba_marseille","lat":43.30413,"lon":5.42539,"is_reserved":false,"is_disabled":false,"rental_uris":{"android":"levelo://app?vid=d85ccd0f-017a-4247-b89e-73a3b46faf4b","ios":"levelo://app?vid=d85ccd0f-017a-4247-b89e-73a3b46faf4b"},"vehicle_type_id":"4","last_reported":1702674368,"current_range_meters":20400,"station_id":"ce4bhoh2rcd13ifvqh6g","pricing_plan_id":"free"},{"bike_id":"1d2472e2-350f-44fa-a627-38e6bb5829da","system_id":"levelo_inurba_marseille","lat":43.295511,"lon":5.422926,"is_reserved":false,"is_disabled":false,"rental_uris":{"android":"levelo://app?vid=1d2472e2-350f-44fa-a627-38e6bb5829da","ios":"levelo://app?vid=1d2472e2-350f-44fa-a627-38e6bb5829da"},"vehicle_type_id":"4","last_reported":1702674368,"current_range_meters":31600,"station_id":"ce4bhph2rcd13ifvqhdg","pricing_plan_id":"free"},{"bike_id":"de9feb39-3844-4206-aa16-9fe6fe1926e0","system_id":"levelo_inurba_marseille","lat":43.295511,"lon":5.422926,"is_reserved":false,"is_disabled":false,"rental_uris":{"android":"levelo://app?vid=de9feb39-3844-4206-aa16-9fe6fe1926e0","ios":"levelo://app?vid=de9feb39-3844-4206-aa16-9fe6fe1926e0"},"vehicle_type_id":"4","last_reported":1702674368,"current_range_meters":18000,"station_id":"ce4bhph2rcd13ifvqhdg","pricing_plan_id":"free"},{"bike_id":"c52928c9-4db5-4734-b2a1-722395fc76c7","system_id":"levelo_inurba_marseille","lat":43.27187,"lon":5.39224,"is_reserved":false,"is_disabled":false,"rental_uris":{"android":"levelo://app?vid=c52928c9-4db5-4734-b2a1-722395fc76c7","ios":"levelo://app?vid=c52928c9-4db5-4734-b2a1-722395fc76c7"},"vehicle_type_id":"4","last_reported":1702674368,"current_range_meters":19600,"station_id":"ce4bhhp2rcd13ifvqfm0","pricing_plan_id":"free"},{"bike_id":"56bcfaa2-cd67-4456-9399-0a7806d20d1a","system_id":"levelo_inurba_marseille","lat":43.278128,"lon":5.407195,"is_reserved":false,"is_disabled":false,"rental_uris":{"android":"levelo://app?vid=56bcfaa2-cd67-4456-9399-0a7806d20d1a","ios":"levelo://app?vid=56bcfaa2-cd67-4456-9399-0a7806d20d1a"},"vehicle_type_id":"4","last_reported":1702674368,"current_range_meters":30400,"station_id":"ce4bhnh2rcd13ifvqgtg","pricing_plan_id":"free"},{"bike_id":"30f59ffe-e1fa-4ed8-a4e3-ce159c007c40","system_id":"levelo_inurba_marseille","lat":43.278128,"lon":5.407195,"is_reserved":false,"is_disabled":false,"rental_uris":{"android":"levelo://app?vid=30f59ffe-e1fa-4ed8-a4e3-ce159c007c40","ios":"levelo://app?vid=30f59ffe-e1fa-4ed8-a4e3-ce159c007c40"},"vehicle_type_id":"4","last_reported":1702674368,"current_range_meters":9600,"station_id":"ce4bhnh2rcd13ifvqgtg","pricing_plan_id":"free"},{"bike_id":"ce54373d-f121-48ba-b057-bf474070de42","system_id":"levelo_inurba_marseille","lat":43.279485,"lon":5.410292,"is_reserved":false,"is_disabled":false,"rental_uris":{"android":"levelo://app?vid=ce54373d-f121-48ba-b057-bf474070de42","ios":"levelo://app?vid=ce54373d-f121-48ba-b057-bf474070de42"},"vehicle_type_id":"4","last_reported":1702674368,"current_range_meters":4000,"station_id":"ce4bhnp2rcd13ifvqh0g","pricing_plan_id":"free"},{"bike_id":"0242ed6e-1049-4ecf-8f0c-3a985489cd2e","system_id":"levelo_inurba_marseille","lat":43.279394,"lon":5.410348,"is_reserved":false,"is_disabled":false,"rental_uris":{"android":"levelo://app?vid=0242ed6e-1049-4ecf-8f0c-3a985489cd2e","ios":"levelo://app?vid=0242ed6e-1049-4ecf-8f0c-3a985489cd2e"},"vehicle_type_id":"4","last_reported":1702674368,"current_range_meters":8000,"station_id":"ce4bhnp2rcd13ifvqh0g","pricing_plan_id":"free"},{"bike_id":"db774753-4382-453e-a138-c32d538f9839","system_id":"levelo_inurba_marseille","lat":43.358632,"lon":5.356663,"is_reserved":false,"is_disabled":false,"rental_uris":{"android":"levelo://app?vid=db774753-4382-453e-a138-c32d538f9839","ios":"levelo://app?vid=db774753-4382-453e-a138-c32d538f9839"},"vehicle_type_id":"4","last_reported":1702674368,"current_range_meters":10800,"station_id":"","pricing_plan_id":"free"},{"bike_id":"2f52d334-fff4-4d0a-ad53-f2326be459c3","system_id":"levelo_inurba_marseille","lat":43.26681,"lon":5.382694,"is_reserved":false,"is_disabled":false,"rental_uris":{"android":"levelo://app?vid=2f52d334-fff4-4d0a-ad53-f2326be459c3","ios":"levelo://app?vid=2f52d334-fff4-4d0a-ad53-f2326be459c3"},"vehicle_type_id":"4","last_reported":1702674368,"current_range_meters":30000,"station_id":"ce4bhg92rcd13ifvqf90","pricing_plan_id":"free"},{"bike_id":"237bae23-ecc5-4195-bb80-4c9c96f653f7","system_id":"levelo_inurba_marseille","lat":43.26681,"lon":5.382694,"is_reserved":false,"is_disabled":false,"rental_uris":{"android":"levelo://app?vid=237bae23-ecc5-4195-bb80-4c9c96f653f7","ios":"levelo://app?vid=237bae23-ecc5-4195-bb80-4c9c96f653f7"},"vehicle_type_id":"4","last_reported":1702674368,"current_range_meters":30400,"station_id":"ce4bhg92rcd13ifvqf90","pricing_plan_id":"free"},{"bike_id":"5ec1bef7-bec5-427e-8245-7aecd6413a2f","system_id":"levelo_inurba_marseille","lat":43.27996,"lon":5.416624,"is_reserved":false,"is_disabled":false,"rental_uris":{"android":"levelo://app?vid=5ec1bef7-bec5-427e-8245-7aecd6413a2f","ios":"levelo://app?vid=5ec1bef7-bec5-427e-8245-7aecd6413a2f"},"vehicle_type_id":"4","last_reported":1702674368,"current_range_meters":26400,"station_id":"ce4bho12rcd13ifvqh1g","pricing_plan_id":"free"},{"bike_id":"95e9dd1f-f2f5-405d-b720-08fe860b3dcc","system_id":"levelo_inurba_marseille","lat":43.308051,"lon":5.43527,"is_reserved":false,"is_disabled":false,"rental_uris":{"android":"levelo://app?vid=95e9dd1f-f2f5-405d-b720-08fe860b3dcc","ios":"levelo://app?vid=95e9dd1f-f2f5-405d-b720-08fe860b3dcc"},"vehicle_type_id":"4","last_reported":1702674368,"current_range_meters":26800,"station_id":"ce4bhph2rcd13ifvqheg","pricing_plan_id":"free"},{"bike_id":"485d583c-fd74-4b35-b248-b664c0bd57a5","system_id":"levelo_inurba_marseille","lat":43.26189,"lon":5.3744,"is_reserved":false,"is_disabled":false,"rental_uris":{"android":"levelo://app?vid=485d583c-fd74-4b35-b248-b664c0bd57a5","ios":"levelo://app?vid=485d583c-fd74-4b35-b248-b664c0bd57a5"},"vehicle_type_id":"4","last_reported":1702674368,"current_range_meters":2800,"station_id":"ce4bhgp2rcd13ifvqfc0","pricing_plan_id":"free"},{"bike_id":"151ad32e-e8a8-4f27-83ce-9e7eab520933","system_id":"levelo_inurba_marseille","lat":43.303837,"lon":5.418724,"is_reserved":false,"is_disabled":false,"rental_uris":{"android":"levelo://app?vid=151ad32e-e8a8-4f27-83ce-9e7eab520933","ios":"levelo://app?vid=151ad32e-e8a8-4f27-83ce-9e7eab520933"},"vehicle_type_id":"4","last_reported":1702674368,"current_range_meters":27200,"station_id":"ce4bhop2rcd13ifvqh7g","pricing_plan_id":"free"},{"bike_id":"7341c66a-0342-4605-93c5-396fe1094054","system_id":"levelo_inurba_marseille","lat":43.26202,"lon":5.379299,"is_reserved":false,"is_disabled":false,"rental_uris":{"android":"levelo://app?vid=7341c66a-0342-4605-93c5-396fe1094054","ios":"levelo://app?vid=7341c66a-0342-4605-93c5-396fe1094054"},"vehicle_type_id":"4","last_reported":1702674368,"current_range_meters":19600,"station_id":"ce4bhjp2rcd13ifvqg90","pricing_plan_id":"free"},{"bike_id":"dd56b8c8-65e0-491e-8f20-9ee5b66ffaa9","system_id":"levelo_inurba_marseille","lat":43.298768,"lon":5.43643,"is_reserved":false,"is_disabled":false,"rental_uris":{"android":"levelo://app?vid=dd56b8c8-65e0-491e-8f20-9ee5b66ffaa9","ios":"levelo://app?vid=dd56b8c8-65e0-491e-8f20-9ee5b66ffaa9"},"vehicle_type_id":"4","last_reported":1702674368,"current_range_meters":11200,"station_id":"ce4bhpp2rcd13ifvqhfg","pricing_plan_id":"free"},{"bike_id":"5210aabb-ffe2-4184-837b-8626f2e8558a","system_id":"levelo_inurba_marseille","lat":43.2607,"lon":5.393983,"is_reserved":false,"is_disabled":false,"rental_uris":{"android":"levelo://app?vid=5210aabb-ffe2-4184-837b-8626f2e8558a","ios":"levelo://app?vid=5210aabb-ffe2-4184-837b-8626f2e8558a"},"vehicle_type_id":"4","last_reported":1702674368,"current_range_meters":5200,"station_id":"ce4bhh92rcd13ifvqfj0","pricing_plan_id":"free"},{"bike_id":"b76e4b50-f6f0-431f-a6f8-b141c06663a4","system_id":"levelo_inurba_marseille","lat":43.275028,"lon":5.424534,"is_reserved":false,"is_disabled":false,"rental_uris":{"android":"levelo://app?vid=b76e4b50-f6f0-431f-a6f8-b141c06663a4","ios":"levelo://app?vid=b76e4b50-f6f0-431f-a6f8-b141c06663a4"},"vehicle_type_id":"4","last_reported":1702674368,"current_range_meters":16000,"station_id":"ce4bhn92rcd13ifvqgrg","pricing_plan_id":"free"},{"bike_id":"cc5d76b0-a393-4a4c-baa6-a656fc269eb7","system_id":"levelo_inurba_marseille","lat":43.275028,"lon":5.424534,"is_reserved":false,"is_disabled":false,"rental_uris":{"android":"levelo://app?vid=cc5d76b0-a393-4a4c-baa6-a656fc269eb7","ios":"levelo://app?vid=cc5d76b0-a393-4a4c-baa6-a656fc269eb7"},"vehicle_type_id":"4","last_reported":1702674368,"current_range_meters":30400,"station_id":"ce4bhn92rcd13ifvqgrg","pricing_plan_id":"free"},{"bike_id":"684c1270-0092-4a86-ad29-c7608ce182e8","system_id":"levelo_inurba_marseille","lat":43.254947,"lon":5.376454,"is_reserved":false,"is_disabled":false,"rental_uris":{"android":"levelo://app?vid=684c1270-0092-4a86-ad29-c7608ce182e8","ios":"levelo://app?vid=684c1270-0092-4a86-ad29-c7608ce182e8"},"vehicle_type_id":"4","last_reported":1702674368,"current_range_meters":30400,"station_id":"ce4bhh12rcd13ifvqff0","pricing_plan_id":"free"},{"bike_id":"762b4db7-1596-41fa-bb04-9170038c5919","system_id":"levelo_inurba_marseille","lat":43.254947,"lon":5.376454,"is_reserved":false,"is_disabled":false,"rental_uris":{"android":"levelo://app?vid=762b4db7-1596-41fa-bb04-9170038c5919","ios":"levelo://app?vid=762b4db7-1596-41fa-bb04-9170038c5919"},"vehicle_type_id":"4","last_reported":1702674368,"current_range_meters":31200,"station_id":"ce4bhh12rcd13ifvqff0","pricing_plan_id":"free"},{"bike_id":"e44f9abc-0e7a-4a73-99f3-c036d5df87c5","system_id":"levelo_inurba_marseille","lat":43.257079,"lon":5.411051,"is_reserved":false,"is_disabled":false,"rental_uris":{"android":"levelo://app?vid=e44f9abc-0e7a-4a73-99f3-c036d5df87c5","ios":"levelo://app?vid=e44f9abc-0e7a-4a73-99f3-c036d5df87c5"},"vehicle_type_id":"4","last_reported":1702674368,"current_range_meters":24800,"station_id":"ce4bhkp2rcd13ifvqgd0","pricing_plan_id":"free"},{"bike_id":"a94d0d87-f21b-4bcf-99be-0f6ac5ca1a70","system_id":"levelo_inurba_marseille","lat":43.250009,"lon":5.389195,"is_reserved":false,"is_disabled":false,"rental_uris":{"android":"levelo://app?vid=a94d0d87-f21b-4bcf-99be-0f6ac5ca1a70","ios":"levelo://app?vid=a94d0d87-f21b-4bcf-99be-0f6ac5ca1a70"},"vehicle_type_id":"4","last_reported":1702674368,"current_range_meters":25200,"station_id":"ce4bhgp2rcd13ifvqfd0","pricing_plan_id":"free"},{"bike_id":"b5cb3743-452f-4776-b4d9-0bee5c680441","system_id":"levelo_inurba_marseille","lat":43.24693,"lon":5.382096,"is_reserved":false,"is_disabled":false,"rental_uris":{"android":"levelo://app?vid=b5cb3743-452f-4776-b4d9-0bee5c680441","ios":"levelo://app?vid=b5cb3743-452f-4776-b4d9-0bee5c680441"},"vehicle_type_id":"4","last_reported":1702674368,"current_range_meters":24800,"station_id":"ce4bhih2rcd13ifvqfr0","pricing_plan_id":"free"},{"bike_id":"e71c1fdd-fb4f-42e2-8a84-6ebc7da9cf21","system_id":"levelo_inurba_marseille","lat":43.25115,"lon":5.40323,"is_reserved":false,"is_disabled":false,"rental_uris":{"android":"levelo://app?vid=e71c1fdd-fb4f-42e2-8a84-6ebc7da9cf21","ios":"levelo://app?vid=e71c1fdd-fb4f-42e2-8a84-6ebc7da9cf21"},"vehicle_type_id":"4","last_reported":1702674368,"current_range_meters":0,"station_id":"","pricing_plan_id":"free"},{"bike_id":"2e4535e2-8cb3-4f5f-8b51-5ea01dbc0b0b","system_id":"levelo_inurba_marseille","lat":43.246461,"lon":5.389014,"is_reserved":false,"is_disabled":false,"rental_uris":{"android":"levelo://app?vid=2e4535e2-8cb3-4f5f-8b51-5ea01dbc0b0b","ios":"levelo://app?vid=2e4535e2-8cb3-4f5f-8b51-5ea01dbc0b0b"},"vehicle_type_id":"4","last_reported":1702674368,"current_range_meters":30400,"station_id":"ce4bhg12rcd13ifvqf60","pricing_plan_id":"free"},{"bike_id":"ecdb582b-98ab-4291-8a23-b6c84ea08e81","system_id":"levelo_inurba_marseille","lat":43.243884,"lon":5.370737,"is_reserved":false,"is_disabled":false,"rental_uris":{"android":"levelo://app?vid=ecdb582b-98ab-4291-8a23-b6c84ea08e81","ios":"levelo://app?vid=ecdb582b-98ab-4291-8a23-b6c84ea08e81"},"vehicle_type_id":"4","last_reported":1702674368,"current_range_meters":2000,"station_id":"ce4bhhh2rcd13ifvqfk0","pricing_plan_id":"free"},{"bike_id":"58cec10c-dbbd-4574-85d5-85d6f42d0783","system_id":"levelo_inurba_marseille","lat":43.243884,"lon":5.370737,"is_reserved":false,"is_disabled":false,"rental_uris":{"android":"levelo://app?vid=58cec10c-dbbd-4574-85d5-85d6f42d0783","ios":"levelo://app?vid=58cec10c-dbbd-4574-85d5-85d6f42d0783"},"vehicle_type_id":"4","last_reported":1702674368,"current_range_meters":8800,"station_id":"ce4bhhh2rcd13ifvqfk0","pricing_plan_id":"free"},{"bike_id":"e9e27456-3f97-4c18-83bc-8f4de754de9d","system_id":"levelo_inurba_marseille","lat":43.245581,"lon":5.395069,"is_reserved":false,"is_disabled":false,"rental_uris":{"android":"levelo://app?vid=e9e27456-3f97-4c18-83bc-8f4de754de9d","ios":"levelo://app?vid=e9e27456-3f97-4c18-83bc-8f4de754de9d"},"vehicle_type_id":"4","last_reported":1702674368,"current_range_meters":17600,"station_id":"ce4bhlp2rcd13ifvqgjg","pricing_plan_id":"free"},{"bike_id":"659d534c-a54b-4ce6-beb2-abe0f7b2ae67","system_id":"levelo_inurba_marseille","lat":43.240623,"lon":5.377642,"is_reserved":false,"is_disabled":false,"rental_uris":{"android":"levelo://app?vid=659d534c-a54b-4ce6-beb2-abe0f7b2ae67","ios":"levelo://app?vid=659d534c-a54b-4ce6-beb2-abe0f7b2ae67"},"vehicle_type_id":"4","last_reported":1702674368,"current_range_meters":29200,"station_id":"ce4bhnp2rcd13ifvqgvg","pricing_plan_id":"free"},{"bike_id":"600bdeb8-ea2a-4d1c-a6da-f7a255388a48","system_id":"levelo_inurba_marseille","lat":43.23198,"lon":5.35552,"is_reserved":false,"is_disabled":false,"rental_uris":{"android":"levelo://app?vid=600bdeb8-ea2a-4d1c-a6da-f7a255388a48","ios":"levelo://app?vid=600bdeb8-ea2a-4d1c-a6da-f7a255388a48"},"vehicle_type_id":"4","last_reported":1702674368,"current_range_meters":13600,"station_id":"ce4bhu92rcd13ifvqi70","pricing_plan_id":"free"},{"bike_id":"547672b1-18af-4711-b9a3-86e73cab70b4","system_id":"levelo_inurba_marseille","lat":43.23197,"lon":5.3555,"is_reserved":false,"is_disabled":false,"rental_uris":{"android":"levelo://app?vid=547672b1-18af-4711-b9a3-86e73cab70b4","ios":"levelo://app?vid=547672b1-18af-4711-b9a3-86e73cab70b4"},"vehicle_type_id":"4","last_reported":1702674368,"current_range_meters":19600,"station_id":"ce4bhu92rcd13ifvqi70","pricing_plan_id":"free"},{"bike_id":"185da70e-7a95-41eb-8b73-66c95513e7d7","system_id":"levelo_inurba_marseille","lat":43.231919,"lon":5.355532,"is_reserved":false,"is_disabled":false,"rental_uris":{"android":"levelo://app?vid=185da70e-7a95-41eb-8b73-66c95513e7d7","ios":"levelo://app?vid=185da70e-7a95-41eb-8b73-66c95513e7d7"},"vehicle_type_id":"4","last_reported":1702674368,"current_range_meters":19200,"station_id":"ce4bhu92rcd13ifvqi70","pricing_plan_id":"free"},