{"last_updated":1751573456,"ttl":60,"version":"2.2","data":{"bikes":[{"bike_id":"3da29fb8-fc97-44c6-b9ac-31dd456b2fd4","system_id":"levelo_inurba_marseille","lat":43.33771,"lon":5.37424,"is_reserved":false,"is_disabled":true,"rental_uris":{"android":"levelo://app?vid=3da29fb8-fc97-44c6-b9ac-31dd456b2fd4","ios":"levelo://app?vid=3da29fb8-fc97-44c6-b9ac-31dd456b2fd4"},"vehicle_type_id":"4","last_reported":1751573456,"current_range_meters":0,"station_id":"","pricing_plan_id":"cebpf4jnsgd1na2vs0mg"},{"bike_id":"01861ad8-a8d7-4be6-816e-651927c87584","system_id":"levelo_inurba_marseille","lat":43.33751,"lon":5.37456,"is_reserved":false,"is_disabled":true,"rental_uris":{"android":"levelo://app?vid=01861ad8-a8d7-4be6-816e-651927c87584","ios":"levelo://app?vid=01861ad8-a8d7-4be6-816e-651927c87584"},"vehicle_type_id":"4","last_reported":1751573456,"current_range_meters":0,"station_id":"","pricing_plan_id":"cebpf4jnsgd1na2vs0mg"},{"bike_id":"fa970b88-b003-4494-bc40-b404de4a92ce","system_id":"levelo_inurba_marseille","lat":43.26887,"lon":5.36846,"is_reserved":false,"is_disabled":true,"rental_uris":{"android":"levelo://app?vid=fa970b88-b003-4494-bc40-b404de4a92ce","ios":"levelo://app?vid=fa970b88-b003-4494-bc40-b404de4a92ce"},"vehicle_type_id":"4","last_reported":1751573456,"current_range_meters":0,"station_id":"","pricing_plan_id":"cebpf4jnsgd1na2vs0mg"},{"bike_id":"da921d92-526f-401b-95dc-b12109d1091d","system_id":"levelo_inurba_marseille","lat":43.36192,"lon":5.34914,"is_reserved":false,"is_disabled":true,"rental_uris":{"android":"levelo://app?vid=da921d92-526f-401b-95dc-b12109d1091d","ios":"levelo://app?vid=da921d92-526f-401b-95dc-b12109d1091d"},"vehicle_type_id":"4","last_reported":1751573456,"current_range_meters":0,"station_id":"","pricing_plan_id":"cebpf4jnsgd1na2vs0mg"},{"bike_id":"6e5b5a4d-1ee5-4068-9613-fb44ab4d8a9a","system_id":"levelo_inurba_marseille","lat":43.34876,"lon":5.34617,"is_reserved":false,"is_disabled":true,"rental_uris":{"android":"levelo://app?vid=6e5b5a4d-1ee5-4068-9613-fb44ab4d8a9a","ios":"levelo://app?vid=6e5b5a4d-1ee5-4068-9613-fb44ab4d8a9a"},"vehicle_type_id":"4","last_reported":1751573456,"current_range_meters":0,"station_id":"","pricing_plan_id":"cebpf4jnsgd1na2vs0mg"},{"bike_id":"c06ae37b-d724-42ec-a210-31394db9615f","system_id":"levelo_inurba_marseille","lat":43.28432,"lon":5.39052,"is_reserved":false,"is_disabled":true,"rental_uris":{"android":"levelo://app?vid=c06ae37b-d724-42ec-a210-31394db9615f","ios":"levelo://app?vid=c06ae37b-d724-42ec-a210-31394db9615f"},"vehicle_type_id":"4","last_reported":1751573456,"current_range_meters":0,"station_id":"","pricing_plan_id":"cebpf4jnsgd1na2vs0mg"},{"bike_id":"8e365e3c-559a-4ba6-a6c5-4c159e2434fc","system_id":"levelo_inurba_marseille","lat":43.21756,"lon":5.34566,"is_reserved":false,"is_disabled":true,"rental_uris":{"android":"levelo://app?vid=8e365e3c-559a-4ba6-a6c5-4c159e2434fc","ios":"levelo://app?vid=8e365e3c-559a-4ba6-a6c5-4c159e2434fc"},"vehicle_type_id":"4","last_reported":1751573456,"current_range_meters":0,"station_id":"","pricing_plan_id":"cebpf4jnsgd1na2vs0mg"},{"bike_id":"5fe1f33a-ebc4-4182-b521-7ef3eadc1773","system_id":"levelo_inurba_marseille","lat":43.26893,"lon":5.36867,"is_reserved":false,"is_disabled":true,"rental_uris":{"android":"levelo://app?vid=5fe1f33a-ebc4-4182-b521-7ef3eadc1773","ios":"levelo://app?vid=5fe1f33a-ebc4-4182-b521-7ef3eadc1773"},"vehicle_type_id":"4","last_reported":1751573456,"current_range_meters":0,"station_id":"","pricing_plan_id":"cebpf4jnsgd1na2vs0mg"},{"bike_id":"3f394701-d621-4f9e-83aa-48691cf29f6e","system_id":"levelo_inurba_marseille","lat":43.31129,"lon":5.40962,"is_reserved":false,"is_disabled":true,"rental_uris":{"android":"levelo://app?vid=3f394701-d621-4f9e-83aa-48691cf29f6e","ios":"levelo://app?vid=3f394701-d621-4f9e-83aa-48691cf29f6e"},"vehicle_type_id":"4","last_reported":1751573456,"current_range_meters":0,"station_id":"","pricing_plan_id":"cebpf4jnsgd1na2vs0mg"},{"bike_id":"c8bdee6f-2ae9-4b92-95e3-02278f2d6814","system_id":"levelo_inurba_marseille","lat":43.26569,"lon":5.403196,"is_reserved":false,"is_disabled":true,"rental_uris":{"android":"levelo://app?vid=c8bdee6f-2ae9-4b92-95e3-02278f2d6814","ios":"levelo://app?vid=c8bdee6f-2ae9-4b92-95e3-02278f2d6814"},"vehicle_type_id":"4","last_reported":1751573456,"current_range_meters":0,"station_id":"","pricing_plan_id":"cebpf4jnsgd1na2vs0mg"},{"bike_id":"25a99ecd-3e6b-4ea1-afb1-e3582e58847d","system_id":"levelo_inurba_marseille","lat":43.29852,"lon":5.3629,"is_reserved":false,"is_disabled":true,"rental_uris":{"android":"levelo://app?vid=25a99ecd-3e6b-4ea1-afb1-e3582e58847d","ios":"levelo://app?vid=25a99ecd-3e6b-4ea1-afb1-e3582e58847d"},"vehicle_type_id":"4","last_reported":1751573456,"current_range_meters":0,"station_id":"ce4bgpp2rcd13ifvqc3g","pricing_plan_id":"cebpf4jnsgd1na2vs0mg"},{"bike_id":"86e68152-a4d7-42b7-9afc-be2df6d6332e","system_id":"levelo_inurba_marseille","lat":43.28484,"lon":5.38412,"is_reserved":false,"is_disabled":true,"rental_uris":{"android":"levelo://app?vid=86e68152-a4d7-42b7-9afc-be2df6d6332e","ios":"levelo://app?vid=86e68152-a4d7-42b7-9afc-be2df6d6332e"},"vehicle_type_id":"4","last_reported":1751573456,"current_range_meters":0,"station_id":"ce4bh512rcd13ifvqe3g","pricing_plan_id":"cebpf4jnsgd1na2vs0mg"},{"bike_id":"6b0db074-bd6e-4644-810f-4dc5948b0b24","system_id":"levelo_inurba_marseille","lat":43.27374,"lon":5.362543,"is_reserved":false,"is_disabled":true,"rental_uris":{"android":"levelo://app?vid=6b0db074-bd6e-4644-810f-4dc5948b0b24","ios":"levelo://app?vid=6b0db074-bd6e-4644-810f-4dc5948b0b24"},"vehicle_type_id":"4","last_reported":1751573456,"current_range_meters":0,"station_id":"ce4bhbh2rcd13ifvqeo0","pricing_plan_id":"cebpf4jnsgd1na2vs0mg"},{"bike_id":"ec6e70f8-ac33-4182-ac4c-7af977586c70","system_id":"levelo_inurba_marseille","lat":43.2798,"lon":5.38747,"is_reserved":false,"is_disabled":true,"rental_uris":{"android":"levelo://app?vid=ec6e70f8-ac33-4182-ac4c-7af977586c70","ios":"levelo://app?vid=ec6e70f8-ac33-4182-ac4c-7af977586c70"},"vehicle_type_id":"4","last_reported":1751573456,"current_range_meters":0,"station_id":"ce4bhg12rcd13ifvqf80","pricing_plan_id":"cebpf4jnsgd1na2vs0mg"},{"bike_id":"4dc741dc-851b-4ea5-ae64-1cabd14febef","system_id":"levelo_inurba_marseille","lat":43.24807,"lon":5.37436,"is_reserved":false,"is_disabled":true,"rental_uris":{"android":"levelo://app?vid=4dc741dc-851b-4ea5-ae64-1cabd14febef","ios":"levelo://app?vid=4dc741dc-851b-4ea5-ae64-1cabd14febef"},"vehicle_type_id":"4","last_reported":1751573456,"current_range_meters":0,"station_id":"ce4bhgh2rcd13ifvqfb0","pricing_plan_id":"cebpf4jnsgd1na2vs0mg"},{"bike_id":"031ffef9-24ba-4401-b1e2-e2fe37de45da","system_id":"levelo_inurba_marseille","lat":43.27709,"lon":5.3886,"is_reserved":false,"is_disabled":true,"rental_uris":{"android":"levelo://app?vid=031ffef9-24ba-4401-b1e2-e2fe37de45da","ios":"levelo://app?vid=031ffef9-24ba-4401-b1e2-e2fe37de45da"},"vehicle_type_id":"4","last_reported":1751573456,"current_range_meters":0,"station_id":"ce4bhi12rcd13ifvqfo0","pricing_plan_id":"cebpf4jnsgd1na2vs0mg"},{"bike_id":"4b382e27-0154-44c8-adf9-ea2be4479010","system_id":"levelo_inurba_marseille","lat":43.27055,"lon":5.40258,"is_reserved":false,"is_disabled":true,"rental_uris":{"android":"levelo://app?vid=4b382e27-0154-44c8-adf9-ea2be4479010","ios":"levelo://app?vid=4b382e27-0154-44c8-adf9-ea2be4479010"},"vehicle_type_id":"4","last_reported":1751573456,"current_range_meters":0,"station_id":"ce4bhk92rcd13ifvqgc0","pricing_plan_id":"cebpf4jnsgd1na2vs0mg"},{"bike_id":"45a36d42-3f75-4451-929c-2980bab85fb7","system_id":"levelo_inurba_marseille","lat":43.23156,"lon":5.43728,"is_reserved":false,"is_disabled":true,"rental_uris":{"android":"levelo://app?vid=45a36d42-3f75-4451-929c-2980bab85fb7","ios":"levelo://app?vid=45a36d42-3f75-4451-929c-2980bab85fb7"},"vehicle_type_id":"4","last_reported":1751573456,"current_range_meters":0,"station_id":"ce4bhmp2rcd13ifvqgog","pricing_plan_id":"cebpf4jnsgd1na2vs0mg"},{"bike_id":"4d2311d9-a955-49d9-a8d3-dba3e479d8b3","system_id":"levelo_inurba_marseille","lat":43.24049,"lon":5.37763,"is_reserved":false,"is_disabled":true,"rental_uris":{"android":"levelo://app?vid=4d2311d9-a955-49d9-a8d3-dba3e479d8b3","ios":"levelo://app?vid=4d2311d9-a955-49d9-a8d3-dba3e479d8b3"},"vehicle_type_id":"4","last_reported":1751573456,"current_range_meters":0,"station_id":"ce4bhnp2rcd13ifvqgvg","pricing_plan_id":"cebpf4jnsgd1na2vs0mg"},{"bike_id":"3cd8a91e-3967-465c-a6f8-6ad83ba9f37b","system_id":"levelo_inurba_marseille","lat":43.24043,"lon":5.37751,"is_reserved":false,"is_disabled":true,"rental_uris":{"android":"levelo://app?vid=3cd8a91e-3967-465c-a6f8-6ad83ba9f37b","ios":"levelo://app?vid=3cd8a91e-3967-465c-a6f8-6ad83ba9f37b"},"vehicle_type_id":"4","last_reported":1751573456,"current_range_meters":0,"station_id":"ce4bhnp2rcd13ifvqgvg","pricing_plan_id":"cebpf4jnsgd1na2vs0mg"},{"bike_id":"d9dd2f8e-d9cb-4d9a-94ed-29bbb2688c45","system_id":"levelo_inurba_marseille","lat":43.32658,"lon":5.409957,"is_reserved":false,"is_disabled":true,"rental_uris":{"android":"levelo://app?vid=d9dd2f8e-d9cb-4d9a-94ed-29bbb2688c45","ios":"levelo://app?vid=d9dd2f8e-d9cb-4d9a-94ed-29bbb2688c45"},"vehicle_type_id":"4","last_reported":1751573456,"current_range_meters":0,"station_id":"ce4bhpp2rcd13ifvqhgg","pricing_plan_id":"cebpf4jnsgd1na2vs0mg"},{"bike_id":"e1d1f11b-4ee1-414f-b3e6-0d53e6e841c3","system_id":"levelo_inurba_marseille","lat":43.241653,"lon":5.364007,"is_reserved":false,"is_disabled":true,"rental_uris":{"android":"levelo://app?vid=e1d1f11b-4ee1-414f-b3e6-0d53e6e841c3","ios":"levelo://app?vid=e1d1f11b-4ee1-414f-b3e6-0d53e6e841c3"},"vehicle_type_id":"4","last_reported":1751573456,"current_range_meters":0,"station_id":"cpo36qri1sfpv3e86is0","pricing_plan_id":"cebpf4jnsgd1na2vs0mg"},{"bike_id":"34525e0e-88eb-4fe8-be83-e19f0f1185d3","system_id":"levelo_inurba_marseille","lat":43.22503,"lon":5.3477,"is_reserved":false,"is_disabled":true,"rental_uris":{"android":"levelo://app?vid=34525e0e-88eb-4fe8-be83-e19f0f1185d3","ios":"levelo://app?vid=34525e0e-88eb-4fe8-be83-e19f0f1185d3"},"vehicle_type_id":"4","last_reported":1751573456,"current_range_meters":0,"station_id":"st_cvj5dfep6f1abm77gieg","pricing_plan_id":"cebpf4jnsgd1na2vs0mg"},{"bike_id":"9795e511-4f68-494d-9846-41f87f5dd923","system_id":"levelo_inurba_marseille","lat":43.22501,"lon":5.34775,"is_reserved":false,"is_disabled":true,"rental_uris":{"android":"levelo://app?vid=9795e511-4f68-494d-9846-41f87f5dd923","ios":"levelo://app?vid=9795e511-4f68-494d-9846-41f87f5dd923"},"vehicle_type_id":"4","last_reported":1751573456,"current_range_meters":0,"station_id":"st_cvj5dfep6f1abm77gieg","pricing_plan_id":"cebpf4jnsgd1na2vs0mg"},{"bike_id":"711daaef-62a7-4507-b46e-24f8c3ebc905","system_id":"levelo_inurba_marseille","lat":43.21759,"lon":5.34578,"is_reserved":false,"is_disabled":true,"rental_uris":{"android":"levelo://app?vid=711daaef-62a7-4507-b46e-24f8c3ebc905","ios":"levelo://app?vid=711daaef-62a7-4507-b46e-24f8c3ebc905"},"vehicle_type_id":"4","last_reported":1751573456,"current_range_meters":0,"station_id":"st_cvj6r9ubvosntc0bgbag","pricing_plan_id":"cebpf4jnsgd1na2vs0mg"},{"bike_id":"7750661e-3127-4501-aa76-1d7cb6be5070","system_id":"levelo_inurba_marseille","lat":43.21745,"lon":5.34596,"is_reserved":false,"is_disabled":true,"rental_uris":{"android":"levelo://app?vid=7750661e-3127-4501-aa76-1d7cb6be5070","ios":"levelo://app?vid=7750661e-3127-4501-aa76-1d7cb6be5070"},"vehicle_type_id":"4","last_reported":1751573456,"current_range_meters":0,"station_id":"st_cvj6r9ubvosntc0bgbag","pricing_plan_id":"cebpf4jnsgd1na2vs0mg"},{"bike_id":"bc5dd2b3-3385-463b-a084-678650a16b75","system_id":"levelo_inurba_marseille","lat":43.268446,"lon":5.370804,"is_reserved":false,"is_disabled":true,"rental_uris":{"android":"levelo://app?vid=bc5dd2b3-3385-463b-a084-678650a16b75","ios":"levelo://app?vid=bc5dd2b3-3385-463b-a084-678650a16b75"},"vehicle_type_id":"4","last_reported":1751573456,"current_range_meters":800,"station_id":"","pricing_plan_id":"cebpf4jnsgd1na2vs0mg"},{"bike_id":"0a185492-26a8-4775-85c2-10610805774a","system_id":"levelo_inurba_marseille","lat":43.27706,"lon":5.43069,"is_reserved":false,"is_disabled":true,"rental_uris":{"android":"levelo://app?vid=0a185492-26a8-4775-85c2-10610805774a","ios":"levelo://app?vid=0a185492-26a8-4775-85c2-10610805774a"},"vehicle_type_id":"4","last_reported":1751573456,"current_range_meters":800,"station_id":"","pricing_plan_id":"cebpf4jnsgd1na2vs0mg"},{"bike_id":"88653ed2-22dc-43c9-a988-35a49eb3c0c5","system_id":"levelo_inurba_marseille","lat":43.31679,"lon":5.37742,"is_reserved":false,"is_disabled":true,"rental_uris":{"android":"levelo://app?vid=88653ed2-22dc-43c9-a988-35a49eb3c0c5","ios":"levelo://app?vid=88653ed2-22dc-43c9-a988-35a49eb3c0c5"},"vehicle_type_id":"4","last_reported":1751573456,"current_range_meters":800,"station_id":"ce4bgth2rcd13ifvqch0","pricing_plan_id":"cebpf4jnsgd1na2vs0mg"},{"bike_id":"4e1a53d4-0f2d-45b7-90cf-ae4750aeb38e","system_id":"levelo_inurba_marseille","lat":43.29098,"lon":5.38139,"is_reserved":false,"is_disabled":true,"rental_uris":{"android":"levelo://app?vid=4e1a53d4-0f2d-45b7-90cf-ae4750aeb38e","ios":"levelo://app?vid=4e1a53d4-0f2d-45b7-90cf-ae4750aeb38e"},"vehicle_type_id":"4","last_reported":1751573456,"current_range_meters":800,"station_id":"ce4bh512rcd13ifvqe2g","pricing_plan_id":"cebpf4jnsgd1na2vs0mg"},{"bike_id":"a6d7a0d5-d9ae-4fc1-b44b-2efbae6ccc62","system_id":"levelo_inurba_marseille","lat":43.21751,"lon":5.34593,"is_reserved":false,"is_disabled":true,"rental_uris":{"android":"levelo://app?vid=a6d7a0d5-d9ae-4fc1-b44b-2efbae6ccc62","ios":"levelo://app?vid=a6d7a0d5-d9ae-4fc1-b44b-2efbae6ccc62"},"vehicle_type_id":"4","last_reported":1751573456,"current_range_meters":800,"station_id":"st_cvj6r9ubvosntc0bgbag","pricing_plan_id":"cebpf4jnsgd1na2vs0mg"},{"bike_id":"d9c84d48-14f4-4fa9-b311-d9719d24accf","system_id":"levelo_inurba_marseille","lat":43.2657,"lon":5.39006,"is_reserved":false,"is_disabled":true,"rental_uris":{"android":"levelo://app?vid=d9c84d48-14f4-4fa9-b311-d9719d24accf","ios":"levelo://app?vid=d9c84d48-14f4-4fa9-b311-d9719d24accf"},"vehicle_type_id":"4","last_reported":1751573456,"current_range_meters":1200,"station_id":"ce4bhe12rcd13ifvqf30","pricing_plan_id":"cebpf4jnsgd1na2vs0mg"},{"bike_id":"33546c70-ed3d-486d-b213-13202816cfc9","system_id":"levelo_inurba_marseille","lat":43.26025,"lon":5.3755,"is_reserved":false,"is_disabled":true,"rental_uris":{"android":"levelo://app?vid=33546c70-ed3d-486d-b213-13202816cfc9","ios":"levelo://app?vid=33546c70-ed3d-486d-b213-13202816cfc9"},"vehicle_type_id":"4","last_reported":1751573456,"current_range_meters":1200,"station_id":"ce4bhgh2rcd13ifvqfa0","pricing_plan_id":"cebpf4jnsgd1na2vs0mg"},{"bike_id":"82fe187f-756c-4548-a7c4-3fc3ac31b7d2","system_id":"levelo_inurba_marseille","lat":43.21749,"lon":5.34595,"is_reserved":false,"is_disabled":true,"rental_uris":{"android":"levelo://app?vid=82fe187f-756c-4548-a7c4-3fc3ac31b7d2","ios":"levelo://app?vid=82fe187f-756c-4548-a7c4-3fc3ac31b7d2"},"vehicle_type_id":"4","last_reported":1751573456,"current_range_meters":1200,"station_id":"st_cvj6r9ubvosntc0bgbag","pricing_plan_id":"cebpf4jnsgd1na2vs0mg"},{"bike_id":"2e4dae45-631c-453b-9763-f5f7c5891183","system_id":"levelo_inurba_marseille","lat":43.294128,"lon":5.386296,"is_reserved":false,"is_disabled":true,"rental_uris":{"android":"levelo://app?vid=2e4dae45-631c-453b-9763-f5f7c5891183","ios":"levelo://app?vid=2e4dae45-631c-453b-9763-f5f7c5891183"},"vehicle_type_id":"4","last_reported":1751573456,"current_range_meters":1600,"station_id":"ce4bh2h2rcd13ifvqdh0","pricing_plan_id":"cebpf4jnsgd1na2vs0mg"},{"bike_id":"c21a6757-3374-4e5f-9845-a517e299645c","system_id":"levelo_inurba_marseille","lat":43.29053,"lon":5.35913,"is_reserved":false,"is_disabled":true,"rental_uris":{"android":"levelo://app?vid=c21a6757-3374-4e5f-9845-a517e299645c","ios":"levelo://app?vid=c21a6757-3374-4e5f-9845-a517e299645c"},"vehicle_type_id":"4","last_reported":1751573456,"current_range_meters":1600,"station_id":"ce4bha92rcd13ifvqeg0","pricing_plan_id":"cebpf4jnsgd1na2vs0mg"},{"bike_id":"95da757d-b0cb-4757-9ea5-02e73242e4f4","system_id":"levelo_inurba_marseille","lat":43.23967,"lon":5.36629,"is_reserved":false,"is_disabled":true,"rental_uris":{"android":"levelo://app?vid=95da757d-b0cb-4757-9ea5-02e73242e4f4","ios":"levelo://app?vid=95da757d-b0cb-4757-9ea5-02e73242e4f4"},"vehicle_type_id":"4","last_reported":1751573456,"current_range_meters":1600,"station_id":"ce4bhi12rcd13ifvqfp0","pricing_plan_id":"cebpf4jnsgd1na2vs0mg"},{"bike_id":"cd2a3af2-854b-4519-92e5-1eaf70ba8a37","system_id":"levelo_inurba_marseille","lat":43.211893,"lon":5.350675,"is_reserved":false,"is_disabled":true,"rental_uris":{"android":"levelo://app?vid=cd2a3af2-854b-4519-92e5-1eaf70ba8a37","ios":"levelo://app?vid=cd2a3af2-854b-4519-92e5-1eaf70ba8a37"},"vehicle_type_id":"4","last_reported":1751573456,"current_range_meters":1600,"station_id":"st_cvj6sg6p6f1abm77japg","pricing_plan_id":"cebpf4jnsgd1na2vs0mg"},{"bike_id":"32b41c72-2f6b-460d-8866-a8380b3ce1fe","system_id":"levelo_inurba_marseille","lat":43.31497,"lon":5.37317,"is_reserved":false,"is_disabled":true,"rental_uris":{"android":"levelo://app?vid=32b41c72-2f6b-460d-8866-a8380b3ce1fe","ios":"levelo://app?vid=32b41c72-2f6b-460d-8866-a8380b3ce1fe"},"vehicle_type_id":"4","last_reported":1751573456,"current_range_meters":2000,"station_id":"ce4bgt12rcd13ifvqcd0","pricing_plan_id":"cebpf4jnsgd1na2vs0mg"},{"bike_id":"120d2189-2561-47b6-8764-902c6b0c56fe","system_id":"levelo_inurba_marseille","lat":43.30243,"lon":5.40067,"is_reserved":false,"is_disabled":false,"rental_uris":{"android":"levelo://app?vid=120d2189-2561-47b6-8764-902c6b0c56fe","ios":"levelo://app?vid=120d2189-2561-47b6-8764-902c6b0c56fe"},"vehicle_type_id":"4","last_reported":1751573456,"current_range_meters":2800,"station_id":"ce4bgvh2rcd13ifvqcs0","pricing_plan_id":"cebpf4jnsgd1na2vs0mg"},{"bike_id":"513292a4-b86e-41ab-9d6d-271bbda4dbcb","system_id":"levelo_inurba_marseille","lat":43.29281,"lon":5.40111,"is_reserved":false,"is_disabled":false,"rental_uris":{"android":"levelo://app?vid=513292a4-b86e-41ab-9d6d-271bbda4dbcb","ios":"levelo://app?vid=513292a4-b86e-41ab-9d6d-271bbda4dbcb"},"vehicle_type_id":"4","last_reported":1751573456,"current_range_meters":2800,"station_id":"ce4bh312rcd13ifvqdk0","pricing_plan_id":"cebpf4jnsgd1na2vs0mg"},{"bike_id":"d31dab42-ab09-4a76-9f25-512564f0ebcd","system_id":"levelo_inurba_marseille","lat":43.28078,"lon":5.39667,"is_reserved":false,"is_disabled":false,"rental_uris":{"android":"levelo://app?vid=d31dab42-ab09-4a76-9f25-512564f0ebcd","ios":"levelo://app?vid=d31dab42-ab09-4a76-9f25-512564f0ebcd"},"vehicle_type_id":"4","last_reported":1751573456,"current_range_meters":2800,"station_id":"ce4bho12rcd13ifvqh2g","pricing_plan_id":"cebpf4jnsgd1na2vs0mg"},{"bike_id":"bec043b9-e5fa-4c0f-bce3-55c31d955485","system_id":"levelo_inurba_marseille","lat":43.29712,"lon":5.36615,"is_reserved":false,"is_disabled":false,"rental_uris":{"android":"levelo://app?vid=bec043b9-e5fa-4c0f-bce3-55c31d955485","ios":"levelo://app?vid=bec043b9-e5fa-4c0f-bce3-55c31d955485"},"vehicle_type_id":"4","last_reported":1751573456,"current_range_meters":3200,"station_id":"ce4bgn12rcd13ifvqbt0","pricing_plan_id":"cebpf4jnsgd1na2vs0mg"},{"bike_id":"c4de6507-532e-4091-8a67-7c8ab60341ee","system_id":"levelo_inurba_marseille","lat":43.243901,"lon":5.3706,"is_reserved":false,"is_disabled":false,"rental_uris":{"android":"levelo://app?vid=c4de6507-532e-4091-8a67-7c8ab60341ee","ios":"levelo://app?vid=c4de6507-532e-4091-8a67-7c8ab60341ee"},"vehicle_type_id":"4","last_reported":1751573456,"current_range_meters":3200,"station_id":"ce4bhhh2rcd13ifvqfk0","pricing_plan_id":"cebpf4jnsgd1na2vs0mg"},{"bike_id":"a68632b2-7ef2-4447-912b-56601f48650b","system_id":"levelo_inurba_marseille","lat":43.27967,"lon":5.38751,"is_reserved":false,"is_disabled":false,"rental_uris":{"android":"levelo://app?vid=a68632b2-7ef2-4447-912b-56601f48650b","ios":"levelo://app?vid=a68632b2-7ef2-4447-912b-56601f48650b"},"vehicle_type_id":"4","last_reported":1751573456,"current_range_meters":3600,"station_id":"ce4bhg12rcd13ifvqf80","pricing_plan_id":"cebpf4jnsgd1na2vs0mg"},{"bike_id":"a45972f2-7d38-43e6-8046-8adbf4690b65","system_id":"levelo_inurba_marseille","lat":43.24067,"lon":5.37752,"is_reserved":false,"is_disabled":false,"rental_uris":{"android":"levelo://app?vid=a45972f2-7d38-43e6-8046-8adbf4690b65","ios":"levelo://app?vid=a45972f2-7d38-43e6-8046-8adbf4690b65"},"vehicle_type_id":"4","last_reported":1751573456,"current_range_meters":3600,"station_id":"ce4bhnp2rcd13ifvqgvg","pricing_plan_id":"cebpf4jnsgd1na2vs0mg"},{"bike_id":"b5f9c177-e511-4a26-9abb-a8c98a9e71b2","system_id":"levelo_inurba_marseille","lat":43.21188,"lon":5.35071,"is_reserved":false,"is_disabled":false,"rental_uris":{"android":"levelo://app?vid=b5f9c177-e511-4a26-9abb-a8c98a9e71b2","ios":"levelo://app?vid=b5f9c177-e511-4a26-9abb-a8c98a9e71b2"},"vehicle_type_id":"4","last_reported":1751573456,"current_range_meters":3600,"station_id":"st_cvj6sg6p6f1abm77japg","pricing_plan_id":"cebpf4jnsgd1na2vs0mg"},{"bike_id":"9be7a893-e946-4685-bf23-a9e7661ccb7c","system_id":"levelo_inurba_marseille","lat":43.32357,"lon":5.36762,"is_reserved":false,"is_disabled":false,"rental_uris":{"android":"levelo://app?vid=9be7a893-e946-4685-bf23-a9e7661ccb7c","ios":"levelo://app?vid=9be7a893-e946-4685-bf23-a9e7661ccb7c"},"vehicle_type_id":"4","last_reported":1751573456,"current_range_meters":4000,"station_id":"ce4bhsh2rcd13ifvqi2g","pricing_plan_id":"cebpf4jnsgd1na2vs0mg"},{"bike_id":"8802b3a9-1bee-485f-ac19-80c76f88fc0e","system_id":"levelo_inurba_marseille","lat":43.292603,"lon":5.384433,"is_reserved":false,"is_disabled":false,"rental_uris":{"android":"levelo://app?vid=8802b3a9-1bee-485f-ac19-80c76f88fc0e","ios":"levelo://app?vid=8802b3a9-1bee-485f-ac19-80c76f88fc0e"},"vehicle_type_id":"4","last_reported":1751573456,"current_range_meters":4400,"station_id":"ce4bh692rcd13ifvqea0","pricing_plan_id":"cebpf4jnsgd1na2vs0mg"},{"bike_id":"7bc8fa11-d8b8-475b-98de-638fca728653","system_id":"levelo_inurba_marseille","lat":43.30805,"lon":5.38161,"is_reserved":false,"is_disabled":false,"rental_uris":{"android":"levelo://app?vid=7bc8fa11-d8b8-475b-98de-638fca728653","ios":"levelo://app?vid=7bc8fa11-d8b8-475b-98de-638fca728653"},"vehicle_type_id":"4","last_reported":1751573456,"current_range_meters":4800,"station_id":"ce4bgt12rcd13ifvqce0","pricing_plan_id":"cebpf4jnsgd1na2vs0mg"},{"bike_id":"7531d6e2-0002-41a9-94f1-4deeeb0569bf","system_id":"levelo_inurba_marseille","lat":43.311629,"lon":5.386462,"is_reserved":false,"is_disabled":false,"rental_uris":{"android":"levelo://app?vid=7531d6e2-0002-41a9-94f1-4deeeb0569bf","ios":"levelo://app?vid=7531d6e2-0002-41a9-94f1-4deeeb0569bf"},"vehicle_type_id":"4","last_reported":1751573456,"current_range_meters":4800,"station_id":"ce4bgv12rcd13ifvqcp0","pricing_plan_id":"cebpf4jnsgd1na2vs0mg"},{"bike_id":"c0780162-8088-415e-a9cf-843d87bd521c","system_id":"levelo_inurba_marseille","lat":43.29038,"lon":5.39956,"is_reserved":false,"is_disabled":false,"rental_uris":{"android":"levelo://app?vid=c0780162-8088-415e-a9cf-843d87bd521c","ios":"levelo://app?vid=c0780162-8088-415e-a9cf-843d87bd521c"},"vehicle_type_id":"4","last_reported":1751573456,"current_range_meters":4800,"station_id":"ce4bh392rcd13ifvqdm0","pricing_plan_id":"cebpf4jnsgd1na2vs0mg"},{"bike_id":"83d2f70d-2cd5-442c-933c-65b60aeb4ec4","system_id":"levelo_inurba_marseille","lat":43.2797,"lon":5.38738,"is_reserved":false,"is_disabled":false,"rental_uris":{"android":"levelo://app?vid=83d2f70d-2cd5-442c-933c-65b60aeb4ec4","ios":"levelo://app?vid=83d2f70d-2cd5-442c-933c-65b60aeb4ec4"},"vehicle_type_id":"4","last_reported":1751573456,"current_range_meters":4800,"station_id":"ce4bhg12rcd13ifvqf80","pricing_plan_id":"cebpf4jnsgd1na2vs0mg"},{"bike_id":"399cac11-a3eb-4056-a9d3-55f665ac3f8a","system_id":"levelo_inurba_marseille","lat":43.29415,"lon":5.38626,"is_reserved":false,"is_disabled":false,"rental_uris":{"android":"levelo://app?vid=399cac11-a3eb-4056-a9d3-55f665ac3f8a","ios":"levelo://app?vid=399cac11-a3eb-4056-a9d3-55f665ac3f8a"},"vehicle_type_id":"4","last_reported":1751573456,"current_range_meters":5600,"station_id":"ce4bh2h2rcd13ifvqdh0","pricing_plan_id":"cebpf4jnsgd1na2vs0mg"},{"bike_id":"89b420a0-5417-4f52-a3b3-31406447d0de","system_id":"levelo_inurba_marseille","lat":43.23964,"lon":5.3663,"is_reserved":false,"is_disabled":false,"rental_uris":{"android":"levelo://app?vid=89b420a0-5417-4f52-a3b3-31406447d0de","ios":"levelo://app?vid=89b420a0-5417-4f52-a3b3-31406447d0de"},"vehicle_type_id":"4","last_reported":1751573456,"current_range_meters":5600,"station_id":"ce4bhi12rcd13ifvqfp0","pricing_plan_id":"cebpf4jnsgd1na2vs0mg"},{"bike_id":"8a66890a-a59b-4bef-8e35-490c4eae833b","system_id":"levelo_inurba_marseille","lat":43.22477,"lon":5.34769,"is_reserved":false,"is_disabled":false,"rental_uris":{"android":"levelo://app?vid=8a66890a-a59b-4bef-8e35-490c4eae833b","ios":"levelo://app?vid=8a66890a-a59b-4bef-8e35-490c4eae833b"},"vehicle_type_id":"4","last_reported":1751573456,"current_range_meters":5600,"station_id":"st_cvj5dfep6f1abm77gieg","pricing_plan_id":"cebpf4jnsgd1na2vs0mg"},{"bike_id":"96b35004-93c5-4a2b-9f77-723bef6d49c4","system_id":"levelo_inurba_marseille","lat":43.28023,"lon":5.3839,"is_reserved":false,"is_disabled":false,"rental_uris":{"android":"levelo://app?vid=96b35004-93c5-4a2b-9f77-723bef6d49c4","ios":"levelo://app?vid=96b35004-93c5-4a2b-9f77-723bef6d49c4"},"vehicle_type_id":"4","last_reported":1751573456,"current_range_meters":6000,"station_id":"","pricing_plan_id":"cebpf4jnsgd1na2vs0mg"},{"bike_id":"08d0cbd5-bd6b-4c3e-a6ec-3e8876d916f8","system_id":"levelo_inurba_marseille","lat":43.2903,"lon":5.3865,"is_reserved":false,"is_disabled":false,"rental_uris":{"android":"levelo://app?vid=08d0cbd5-bd6b-4c3e-a6ec-3e8876d916f8","ios":"levelo://app?vid=08d0cbd5-bd6b-4c3e-a6ec-3e8876d916f8"},"vehicle_type_id":"4","last_reported":1751573456,"current_range_meters":6000,"station_id":"ce4bh4p2rcd13ifvqe0g","pricing_plan_id":"cebpf4jnsgd1na2vs0mg"},{"bike_id":"05c7b799-9781-4950-8cd4-d185fec2ae95","system_id":"levelo_inurba_marseille","lat":43.21183,"lon":5.3507,"is_reserved":false,"is_disabled":false,"rental_uris":{"android":"levelo://app?vid=05c7b799-9781-4950-8cd4-d185fec2ae95","ios":"levelo://app?vid=05c7b799-9781-4950-8cd4-d185fec2ae95"},"vehicle_type_id":"4","last_reported":1751573456,"current_range_meters":6000,"station_id":"st_cvj6sg6p6f1abm77japg","pricing_plan_id":"cebpf4jnsgd1na2vs0mg"},{"bike_id":"4fb8c60b-ad83-47e8-9abb-a8e48f656ede","system_id":"levelo_inurba_marseille","lat":43.30801,"lon":5.3817,"is_reserved":false,"is_disabled":false,"rental_uris":{"android":"levelo://app?vid=4fb8c60b-ad83-47e8-9abb-a8e48f656ede","ios":"levelo://app?vid=4fb8c60b-ad83-47e8-9abb-a8e48f656ede"},"vehicle_type_id":"4","last_reported":1751573456,"current_range_meters":6400,"station_id":"ce4bgt12rcd13ifvqce0","pricing_plan_id":"cebpf4jnsgd1na2vs0mg"},{"bike_id":"24dcc44b-dda1-46e0-908d-484f5b6b21bc","system_id":"levelo_inurba_marseille","lat":43.27069,"lon":5.42274,"is_reserved":false,"is_disabled":false,"rental_uris":{"android":"levelo://app?vid=24dcc44b-dda1-46e0-908d-484f5b6b21bc","ios":"levelo://app?vid=24dcc44b-dda1-46e0-908d-484f5b6b21bc"},"vehicle_type_id":"4","last_reported":1751573456,"current_range_meters":6800,"station_id":"ce4bhk92rcd13ifvqgb0","pricing_plan_id":"cebpf4jnsgd1na2vs0mg"},{"bike_id":"a79737e5-2267-41bb-aabb-aa1a55336b15","system_id":"levelo_inurba_marseille","lat":43.28704,"lon":5.39984,"is_reserved":false,"is_disabled":false,"rental_uris":{"android":"levelo://app?vid=a79737e5-2267-41bb-aabb-aa1a55336b15","ios":"levelo://app?vid=a79737e5-2267-41bb-aabb-aa1a55336b15"},"vehicle_type_id":"4","last_reported":1751573456,"current_range_meters":6800,"station_id":"ce4bho92rcd13ifvqh3g","pricing_plan_id":"cebpf4jnsgd1na2vs0mg"},{"bike_id":"4d8e3b01-a659-4741-8263-860e998b1ee4","system_id":"levelo_inurba_marseille","lat":43.21189,"lon":5.35072,"is_reserved":false,"is_disabled":false,"rental_uris":{"android":"levelo://app?vid=4d8e3b01-a659-4741-8263-860e998b1ee4","ios":"levelo://app?vid=4d8e3b01-a659-4741-8263-860e998b1ee4"},"vehicle_type_id":"4","last_reported":1751573456,"current_range_meters":6800,"station_id":"st_cvj6sg6p6f1abm77japg","pricing_plan_id":"cebpf4jnsgd1na2vs0mg"},{"bike_id":"19a1aff0-12f9-496e-89ed-5fc0c2c80d1a","system_id":"levelo_inurba_marseille","lat":43.299622,"lon":5.384897,"is_reserved":false,"is_disabled":false,"rental_uris":{"android":"levelo://app?vid=19a1aff0-12f9-496e-89ed-5fc0c2c80d1a","ios":"levelo://app?vid=19a1aff0-12f9-496e-89ed-5fc0c2c80d1a"},"vehicle_type_id":"4","last_reported":1751573456,"current_range_meters":7200,"station_id":"ce4bgj92rcd13ifvqbd0","pricing_plan_id":"cebpf4jnsgd1na2vs0mg"},{"bike_id":"98c59ac5-2ebb-4b20-a970-7e48cec0d47b","system_id":"levelo_inurba_marseille","lat":43.285717,"lon":5.395014,"is_reserved":false,"is_disabled":false,"rental_uris":{"android":"levelo://app?vid=98c59ac5-2ebb-4b20-a970-7e48cec0d47b","ios":"levelo://app?vid=98c59ac5-2ebb-4b20-a970-7e48cec0d47b"},"vehicle_type_id":"4","last_reported":1751573456,"current_range_meters":7200,"station_id":"ce4bh292rcd13ifvqdg0","pricing_plan_id":"cebpf4jnsgd1na2vs0mg"},{"bike_id":"1c520856-5ec8-4bad-b317-b6970dda5acf","system_id":"levelo_inurba_marseille","lat":43.26794,"lon":5.4027,"is_reserved":false,"is_disabled":false,"rental_uris":{"android":"levelo://app?vid=1c520856-5ec8-4bad-b317-b6970dda5acf","ios":"levelo://app?vid=1c520856-5ec8-4bad-b317-b6970dda5acf"},"vehicle_type_id":"4","last_reported":1751573456,"current_range_meters":7200,"station_id":"ce501612rcd8frsf0b60","pricing_plan_id":"cebpf4jnsgd1na2vs0mg"},{"bike_id":"5da7fa08-afcc-43fb-94ac-50e30ba326da","system_id":"levelo_inurba_marseille","lat":43.28924,"lon":5.384054,"is_reserved":false,"is_disabled":false,"rental_uris":{"android":"levelo://app?vid=5da7fa08-afcc-43fb-94ac-50e30ba326da","ios":"levelo://app?vid=5da7fa08-afcc-43fb-94ac-50e30ba326da"},"vehicle_type_id":"4","last_reported":1751573456,"current_range_meters":8000,"station_id":"ce4bh612rcd13ifvqe6g","pricing_plan_id":"cebpf4jnsgd1na2vs0mg"},{"bike_id":"ee52bb69-c8b2-41be-a2e5-3247fedc1a39","system_id":"levelo_inurba_marseille","lat":43.24078,"lon":5.37201,"is_reserved":false,"is_disabled":false,"rental_uris":{"android":"levelo://app?vid=ee52bb69-c8b2-41be-a2e5-3247fedc1a39","ios":"levelo://app?vid=ee52bb69-c8b2-41be-a2e5-3247fedc1a39"},"vehicle_type_id":"4","last_reported":1751573456,"current_range_meters":8400,"station_id":"","pricing_plan_id":"cebpf4jnsgd1na2vs0mg"},{"bike_id":"e23e16a3-1327-4c71-ac4b-6bb697cbacb9","system_id":"levelo_inurba_marseille","lat":43.30897,"lon":5.40045,"is_reserved":false,"is_disabled":false,"rental_uris":{"android":"levelo://app?vid=e23e16a3-1327-4c71-ac4b-6bb697cbacb9","ios":"levelo://app?vid=e23e16a3-1327-4c71-ac4b-6bb697cbacb9"},"vehicle_type_id":"4","last_reported":1751573456,"current_range_meters":8400,"station_id":"","pricing_plan_id":"cebpf4jnsgd1na2vs0mg"},{"bike_id":"9a7d342a-ff8e-46c4-af1e-6e0519bd67dc","system_id":"levelo_inurba_marseille","lat":43.291433,"lon":5.355899,"is_reserved":false,"is_disabled":false,"rental_uris":{"android":"levelo://app?vid=9a7d342a-ff8e-46c4-af1e-6e0519bd67dc","ios":"levelo://app?vid=9a7d342a-ff8e-46c4-af1e-6e0519bd67dc"},"vehicle_type_id":"4","last_reported":1751573456,"current_range_meters":8400,"station_id":"","pricing_plan_id":"cebpf4jnsgd1na2vs0mg"},{"bike_id":"aafc0a92-de93-448e-8e57-869e6e285408","system_id":"levelo_inurba_marseille","lat":43.28206,"lon":5.34909,"is_reserved":false,"is_disabled":false,"rental_uris":{"android":"levelo://app?vid=aafc0a92-de93-448e-8e57-869e6e285408","ios":"levelo://app?vid=aafc0a92-de93-448e-8e57-869e6e285408"},"vehicle_type_id":"4","last_reported":1751573456,"current_range_meters":8400,"station_id":"","pricing_plan_id":"cebpf4jnsgd1na2vs0mg"},{"bike_id":"a7c7b9bd-7d52-4ff3-a6b2-7d912c970c2f","system_id":"levelo_inurba_marseille","lat":43.29438,"lon":5.3859,"is_reserved":false,"is_disabled":false,"rental_uris":{"android":"levelo://app?vid=a7c7b9bd-7d52-4ff3-a6b2-7d912c970c2f","ios":"levelo://app?vid=a7c7b9bd-7d52-4ff3-a6b2-7d912c970c2f"},"vehicle_type_id":"4","last_reported":1751573456,"current_range_meters":8400,"station_id":"ce4bh2h2rcd13ifvqdh0","pricing_plan_id":"cebpf4jnsgd1na2vs0mg"},{"bike_id":"6374cd1d-10ee-494e-8109-1cd0c2fd0453","system_id":"levelo_inurba_marseille","lat":43.28346,"lon":5.3811,"is_reserved":false,"is_disabled":false,"rental_uris":{"android":"levelo://app?vid=6374cd1d-10ee-494e-8109-1cd0c2fd0453","ios":"levelo://app?vid=6374cd1d-10ee-494e-8109-1cd0c2fd0453"},"vehicle_type_id":"4","last_reported":1751573456,"current_range_meters":8400,"station_id":"ce4bh412rcd13ifvqdr0","pricing_plan_id":"cebpf4jnsgd1na2vs0mg"},{"bike_id":"6627a7e0-d1c9-4b11-9928-cc7955399ce7","system_id":"levelo_inurba_marseille","lat":43.26222,"lon":5.37461,"is_reserved":false,"is_disabled":false,"rental_uris":{"android":"levelo://app?vid=6627a7e0-d1c9-4b11-9928-cc7955399ce7","ios":"levelo://app?vid=6627a7e0-d1c9-4b11-9928-cc7955399ce7"},"vehicle_type_id":"4","last_reported":1751573456,"current_range_meters":8400,"station_id":"ce4bhgp2rcd13ifvqfc0","pricing_plan_id":"cebpf4jnsgd1na2vs0mg"},{"bike_id":"424abb1a-ff45-4881-81c8-97f0ebe2a268","system_id":"levelo_inurba_marseille","lat":43.2885,"lon":5.39301,"is_reserved":false,"is_disabled":false,"rental_uris":{"android":"levelo://app?vid=424abb1a-ff45-4881-81c8-97f0ebe2a268","ios":"levelo://app?vid=424abb1a-ff45-4881-81c8-97f0ebe2a268"},"vehicle_type_id":"4","last_reported":1751573456,"current_range_meters":8800,"station_id":"ce4bh2p2rcd13ifvqdi0","pricing_plan_id":"cebpf4jnsgd1na2vs0mg"},{"bike_id":"42dec154-a0e3-4b57-b84c-6327cf2ccc97","system_id":"levelo_inurba_marseille","lat":43.24548,"lon":5.39521,"is_reserved":false,"is_disabled":false,"rental_uris":{"android":"levelo://app?vid=42dec154-a0e3-4b57-b84c-6327cf2ccc97","ios":"levelo://app?vid=42dec154-a0e3-4b57-b84c-6327cf2ccc97"},"vehicle_type_id":"4","last_reported":1751573456,"current_range_meters":8800,"station_id":"ce4bhlp2rcd13ifvqgjg","pricing_plan_id":"cebpf4jnsgd1na2vs0mg"},{"bike_id":"22c65f34-5b9a-4ce8-b3b0-5a1a52b259a2","system_id":"levelo_inurba_marseille","lat":43.29696,"lon":5.40106,"is_reserved":false,"is_disabled":false,"rental_uris":{"android":"levelo://app?vid=22c65f34-5b9a-4ce8-b3b0-5a1a52b259a2","ios":"levelo://app?vid=22c65f34-5b9a-4ce8-b3b0-5a1a52b259a2"},"vehicle_type_id":"4","last_reported":1751573456,"current_range_meters":9200,"station_id":"","pricing_plan_id":"cebpf4jnsgd1na2vs0mg"},{"bike_id":"bf00a211-3496-4df0-8e4e-99767047ca09","system_id":"levelo_inurba_marseille","lat":43.299407,"lon":5.375957,"is_reserved":false,"is_disabled":false,"rental_uris":{"android":"levelo://app?vid=bf00a211-3496-4df0-8e4e-99767047ca09","ios":"levelo://app?vid=bf00a211-3496-4df0-8e4e-99767047ca09"},"vehicle_type_id":"4","last_reported":1751573456,"current_range_meters":9200,"station_id":"","pricing_plan_id":"cebpf4jnsgd1na2vs0mg"},{"bike_id":"e26ba497-efc7-4420-b8c5-9fa5e27f2ce4","system_id":"levelo_inurba_marseille","lat":43.31344,"lon":5.37055,"is_reserved":false,"is_disabled":false,"rental_uris":{"android":"levelo://app?vid=e26ba497-efc7-4420-b8c5-9fa5e27f2ce4","ios":"levelo://app?vid=e26ba497-efc7-4420-b8c5-9fa5e27f2ce4"},"vehicle_type_id":"4","last_reported":1751573456,"current_range_meters":9200,"station_id":"","pricing_plan_id":"cebpf4jnsgd1na2vs0mg"},{"bike_id":"a226d4f4-e145-4269-8e08-81a85f0268c0","system_id":"levelo_inurba_marseille","lat":43.26027,"lon":5.3755,"is_reserved":false,"is_disabled":false,"rental_uris":{"android":"levelo://app?vid=a226d4f4-e145-4269-8e08-81a85f0268c0","ios":"levelo://app?vid=a226d4f4-e145-4269-8e08-81a85f0268c0"},"vehicle_type_id":"4","last_reported":1751573456,"current_range_meters":9200,"station_id":"ce4bhgh2rcd13ifvqfa0","pricing_plan_id":"cebpf4jnsgd1na2vs0mg"},{"bike_id":"2f80f1c2-f2f0-48e6-9ef3-2b3667cc68dd","system_id":"levelo_inurba_marseille","lat":43.28438,"lon":5.39197,"is_reserved":false,"is_disabled":false,"rental_uris":{"android":"levelo://app?vid=2f80f1c2-f2f0-48e6-9ef3-2b3667cc68dd","ios":"levelo://app?vid=2f80f1c2-f2f0-48e6-9ef3-2b3667cc68dd"},"vehicle_type_id":"4","last_reported":1751573456,"current_range_meters":9200,"station_id":"ce4bhoh2rcd13ifvqh5g","pricing_plan_id":"cebpf4jnsgd1na2vs0mg"},{"bike_id":"c8d8f144-9e03-49f5-a46f-da0c0bdb0a88","system_id":"levelo_inurba_marseille","lat":43.26804,"lon":5.40265,"is_reserved":false,"is_disabled":false,"rental_uris":{"android":"levelo://app?vid=c8d8f144-9e03-49f5-a46f-da0c0bdb0a88","ios":"levelo://app?vid=c8d8f144-9e03-49f5-a46f-da0c0bdb0a88"},"vehicle_type_id":"4","last_reported":1751573456,"current_range_meters":9200,"station_id":"ce501612rcd8frsf0b60","pricing_plan_id":"cebpf4jnsgd1na2vs0mg"},{"bike_id":"bcfd0eda-b9ab-4bec-9ca3-3f2b86617415","system_id":"levelo_inurba_marseille","lat":43.21188,"lon":5.35076,"is_reserved":false,"is_disabled":false,"rental_uris":{"android":"levelo://app?vid=bcfd0eda-b9ab-4bec-9ca3-3f2b86617415","ios":"levelo://app?vid=bcfd0eda-b9ab-4bec-9ca3-3f2b86617415"},"vehicle_type_id":"4","last_reported":1751573456,"current_range_meters":9200,"station_id":"st_cvj6sg6p6f1abm77japg","pricing_plan_id":"cebpf4jnsgd1na2vs0mg"},{"bike_id":"3d513bcd-92bb-4303-8df5-e2cc921cd4b6","system_id":"levelo_inurba_marseille","lat":43.27835,"lon":5.39201,"is_reserved":false,"is_disabled":false,"rental_uris":{"android":"levelo://app?vid=3d513bcd-92bb-4303-8df5-e2cc921cd4b6","ios":"levelo://app?vid=3d513bcd-92bb-4303-8df5-e2cc921cd4b6"},"vehicle_type_id":"4","last_reported":1751573456,"current_range_meters":9600,"station_id":"ce4bhjp2rcd13ifvqga0","pricing_plan_id":"cebpf4jnsgd1na2vs0mg"},{"bike_id":"c3e02b04-1275-4d03-a5fb-3c70493d7956","system_id":"levelo_inurba_marseille","lat":43.28472,"lon":5.38413,"is_reserved":false,"is_disabled":false,"rental_uris":{"android":"levelo://app?vid=c3e02b04-1275-4d03-a5fb-3c70493d7956","ios":"levelo://app?vid=c3e02b04-1275-4d03-a5fb-3c70493d7956"},"vehicle_type_id":"4","last_reported":1751573456,"current_range_meters":10000,"station_id":"ce4bh512rcd13ifvqe3g","pricing_plan_id":"cebpf4jnsgd1na2vs0mg"},{"bike_id":"cbbdce2c-b9f0-4cd2-8f88-eb6e5e548fca","system_id":"levelo_inurba_marseille","lat":43.28937,"lon":5.36399,"is_reserved":false,"is_disabled":false,"rental_uris":{"android":"levelo://app?vid=cbbdce2c-b9f0-4cd2-8f88-eb6e5e548fca","ios":"levelo://app?vid=cbbdce2c-b9f0-4cd2-8f88-eb6e5e548fca"},"vehicle_type_id":"4","last_reported":1751573456,"current_range_meters":10000,"station_id":"ce4bhc92rcd13ifvqetg","pricing_plan_id":"cebpf4jnsgd1na2vs0mg"},{"bike_id":"8d44bb93-4d53-4d09-b373-545fed3146c0","system_id":"levelo_inurba_marseille","lat":43.25729,"lon":5.41111,"is_reserved":false,"is_disabled":false,"rental_uris":{"android":"levelo://app?vid=8d44bb93-4d53-4d09-b373-545fed3146c0","ios":"levelo://app?vid=8d44bb93-4d53-4d09-b373-545fed3146c0"},"vehicle_type_id":"4","last_reported":1751573456,"current_range_meters":10000,"station_id":"ce4bhkp2rcd13ifvqgd0","pricing_plan_id":"cebpf4jnsgd1na2vs0mg"},{"bike_id":"df6cc161-c315-4ce0-a2a6-61c4dcfa0537","system_id":"levelo_inurba_marseille","lat":43.27951,"lon":5.41043,"is_reserved":false,"is_disabled":false,"rental_uris":{"android":"levelo://app?vid=df6cc161-c315-4ce0-a2a6-61c4dcfa0537","ios":"levelo://app?vid=df6cc161-c315-4ce0-a2a6-61c4dcfa0537"},"vehicle_type_id":"4","last_reported":1751573456,"current_range_meters":10000,"station_id":"ce4bhnp2rcd13ifvqh0g","pricing_plan_id":"cebpf4jnsgd1na2vs0mg"},{"bike_id":"835fc217-fd10-4346-8e19-5449c5c7c844","system_id":"levelo_inurba_marseille","lat":43.29302,"lon":5.37186,"is_reserved":false,"is_disabled":false,"rental_uris":{"android":"levelo://app?vid=835fc217-fd10-4346-8e19-5449c5c7c844","ios":"levelo://app?vid=835fc217-fd10-4346-8e19-5449c5c7c844"},"vehicle_type_id":"4","last_reported":1751573456,"current_range_meters":10800,"station_id":"ce4bgh92rcd13ifvqb40","pricing_plan_id":"cebpf4jnsgd1na2vs0mg"},{"bike_id":"17699069-b26e-4b96-a171-e415d41424d5","system_id":"levelo_inurba_marseille","lat":43.29597,"lon":5.38099,"is_reserved":false,"is_disabled":false,"rental_uris":{"android":"levelo://app?vid=17699069-b26e-4b96-a171-e415d41424d5","ios":"levelo://app?vid=17699069-b26e-4b96-a171-e415d41424d5"},"vehicle_type_id":"4","last_reported":1751573456,"current_range_meters":10800,"station_id":"ce4bgl12rcd13ifvqbo0","pricing_plan_id":"cebpf4jnsgd1na2vs0mg"},{"bike_id":"37510016-0832-46ff-9542-4f2163021cc8","system_id":"levelo_inurba_marseille","lat":43.31221,"lon":5.36858,"is_reserved":false,"is_disabled":false,"rental_uris":{"android":"levelo://app?vid=37510016-0832-46ff-9542-4f2163021cc8","ios":"levelo://app?vid=37510016-0832-46ff-9542-4f2163021cc8"},"vehicle_type_id":"4","last_reported":1751573456,"current_range_meters":10800,"station_id":"ce4bgl92rcd13ifvqbq0","pricing_plan_id":"cebpf4jnsgd1na2vs0mg"},{"bike_id":"c3cf8957-4b67-4d8f-8586-7d8e1bd47473","system_id":"levelo_inurba_marseille","lat":43.30312,"lon":5.36902,"is_reserved":false,"is_disabled":false,"rental_uris":{"android":"levelo://app?vid=c3cf8957-4b67-4d8f-8586-7d8e1bd47473","ios":"levelo://app?vid=c3cf8957-4b67-4d8f-8586-7d8e1bd47473"},"vehicle_type_id":"4","last_reported":1751573456,"current_range_meters":10800,"station_id":"ce4bgqh2rcd13ifvqc5g","pricing_plan_id":"cebpf4jnsgd1na2vs0mg"},{"bike_id":"f9e41279-5e4d-4a35-97ee-4d7231efc233","system_id":"levelo_inurba_marseille","lat":43.29043,"lon":5.37566,"is_reserved":false,"is_disabled":false,"rental_uris":{"android":"levelo://app?vid=f9e41279-5e4d-4a35-97ee-4d7231efc233","ios":"levelo://app?vid=f9e41279-5e4d-4a35-97ee-4d7231efc233"},"vehicle_type_id":"4","last_reported":1751573456,"current_range_meters":10800,"station_id":"ce4bh692rcd13ifvqe90","pricing_plan_id":"cebpf4jnsgd1na2vs0mg"},{"bike_id":"7f31cae1-9e47-40be-af25-cafa3596a3cd","system_id":"levelo_inurba_marseille","lat":43.2594,"lon":5.40882,"is_reserved":false,"is_disabled":false,"rental_uris":{"android":"levelo://app?vid=7f31cae1-9e47-40be-af25-cafa3596a3cd","ios":"levelo://app?vid=7f31cae1-9e47-40be-af25-cafa3596a3cd"},"vehicle_type_id":"4","last_reported":1751573456,"current_range_meters":10800,"station_id":"ce4bhm92rcd13ifvqglg","pricing_plan_id":"cebpf4jnsgd1na2vs0mg"},{"bike_id":"6eb43f9c-164b-4e94-81ae-db0c1df160e3","system_id":"levelo_inurba_marseille","lat":43.2953,"lon":5.38546,"is_reserved":false,"is_disabled":false,"rental_uris":{"android":"levelo://app?vid=6eb43f9c-164b-4e94-81ae-db0c1df160e3","ios":"levelo://app?vid=6eb43f9c-164b-4e94-81ae-db0c1df160e3"},"vehicle_type_id":"4","last_reported":1751573456,"current_range_meters":11200,"station_id":"ce4bgih2rcd13ifvqba0","pricing_plan_id":"cebpf4jnsgd1na2vs0mg"},{"bike_id":"0e030323-4386-4e72-9a0d-0f6a2ff539de","system_id":"levelo_inurba_marseille","lat":43.29617,"lon":5.40563,"is_reserved":false,"is_disabled":false,"rental_uris":{"android":"levelo://app?vid=0e030323-4386-4e72-9a0d-0f6a2ff539de","ios":"levelo://app?vid=0e030323-4386-4e72-9a0d-0f6a2ff539de"},"vehicle_type_id":"4","last_reported":1751573456,"current_range_meters":11200,"station_id":"ce4bh0h2rcd13ifvqd60","pricing_plan_id":"cebpf4jnsgd1na2vs0mg"},{"bike_id":"c25df59a-c8ba-4d8f-8f5d-1adc9a2199cc","system_id":"levelo_inurba_marseille","lat":43.28847,"lon":5.39297,"is_reserved":false,"is_disabled":false,"rental_uris":{"android":"levelo://app?vid=c25df59a-c8ba-4d8f-8f5d-1adc9a2199cc","ios":"levelo://app?vid=c25df59a-c8ba-4d8f-8f5d-1adc9a2199cc"},"vehicle_type_id":"4","last_reported":1751573456,"current_range_meters":11200,"station_id":"ce4bh2p2rcd13ifvqdi0","pricing_plan_id":"cebpf4jnsgd1na2vs0mg"},{"bike_id":"c17c5156-0fdc-44ef-a458-76536071ae93","system_id":"levelo_inurba_marseille","lat":43.292874,"lon":5.401353,"is_reserved":false,"is_disabled":false,"rental_uris":{"android":"levelo://app?vid=c17c5156-0fdc-44ef-a458-76536071ae93","ios":"levelo://app?vid=c17c5156-0fdc-44ef-a458-76536071ae93"},"vehicle_type_id":"4","last_reported":1751573456,"current_range_meters":11200,"station_id":"ce4bh312rcd13ifvqdk0","pricing_plan_id":"cebpf4jnsgd1na2vs0mg"},{"bike_id":"0f15cd50-4698-4f72-8d5c-fbcbcab9557c","system_id":"levelo_inurba_marseille","lat":43.30644,"lon":5.40097,"is_reserved":false,"is_disabled":false,"rental_uris":{"android":"levelo://app?vid=0f15cd50-4698-4f72-8d5c-fbcbcab9557c","ios":"levelo://app?vid=0f15cd50-4698-4f72-8d5c-fbcbcab9557c"},"vehicle_type_id":"4","last_reported":1751573456,"current_range_meters":11600,"station_id":"ce4bh112rcd13ifvqda0","pricing_plan_id":"cebpf4jnsgd1na2vs0mg"},{"bike_id":"4a4fd06f-9b0c-4d71-ae69-8da3ec40f669","system_id":"levelo_inurba_marseille","lat":43.28701,"lon":5.37376,"is_reserved":false,"is_disabled":false,"rental_uris":{"android":"levelo://app?vid=4a4fd06f-9b0c-4d71-ae69-8da3ec40f669","ios":"levelo://app?vid=4a4fd06f-9b0c-4d71-ae69-8da3ec40f669"},"vehicle_type_id":"4","last_reported":1751573456,"current_range_meters":11600,"station_id":"ce4bh3p2rcd13ifvqdq0","pricing_plan_id":"cebpf4jnsgd1na2vs0mg"},{"bike_id":"26a47253-63ac-43e0-9671-1791b7ebabf4","system_id":"levelo_inurba_marseille","lat":43.27315,"lon":5.39077,"is_reserved":false,"is_disabled":false,"rental_uris":{"android":"levelo://app?vid=26a47253-63ac-43e0-9671-1791b7ebabf4","ios":"levelo://app?vid=26a47253-63ac-43e0-9671-1791b7ebabf4"},"vehicle_type_id":"4","last_reported":1751573456,"current_range_meters":11600,"station_id":"ce4bhgp2rcd13ifvqfe0","pricing_plan_id":"cebpf4jnsgd1na2vs0mg"},{"bike_id":"8d071a64-16a8-4919-9e72-4fdecaee4db1","system_id":"levelo_inurba_marseille","lat":43.28153,"lon":5.42668,"is_reserved":false,"is_disabled":false,"rental_uris":{"android":"levelo://app?vid=8d071a64-16a8-4919-9e72-4fdecaee4db1","ios":"levelo://app?vid=8d071a64-16a8-4919-9e72-4fdecaee4db1"},"vehicle_type_id":"4","last_reported":1751573456,"current_range_meters":11600,"station_id":"ce4bhnh2rcd13ifvqgug","pricing_plan_id":"cebpf4jnsgd1na2vs0mg"},{"bike_id":"0210bdb8-183b-44cd-a368-96acb1f86957","system_id":"levelo_inurba_marseille","lat":43.23201,"lon":5.35548,"is_reserved":false,"is_disabled":false,"rental_uris":{"android":"levelo://app?vid=0210bdb8-183b-44cd-a368-96acb1f86957","ios":"levelo://app?vid=0210bdb8-183b-44cd-a368-96acb1f86957"},"vehicle_type_id":"4","last_reported":1751573456,"current_range_meters":11600,"station_id":"ce4bhu92rcd13ifvqi70","pricing_plan_id":"cebpf4jnsgd1na2vs0mg"},{"bike_id":"a588469b-12ca-41c6-8c6f-3f3bda5b7f15","system_id":"levelo_inurba_marseille","lat":43.31581,"lon":5.38365,"is_reserved":false,"is_disabled":false,"rental_uris":{"android":"levelo://app?vid=a588469b-12ca-41c6-8c6f-3f3bda5b7f15","ios":"levelo://app?vid=a588469b-12ca-41c6-8c6f-3f3bda5b7f15"},"vehicle_type_id":"4","last_reported":1751573456,"current_range_meters":12000,"station_id":"","pricing_plan_id":"cebpf4jnsgd1na2vs0mg"},{"bike_id":"75963e32-b0ff-4a34-bc17-462aef52bc1f","system_id":"levelo_inurba_marseille","lat":43.29968,"lon":5.38492,"is_reserved":false,"is_disabled":false,"rental_uris":{"android":"levelo://app?vid=75963e32-b0ff-4a34-bc17-462aef52bc1f","ios":"levelo://app?vid=75963e32-b0ff-4a34-bc17-462aef52bc1f"},"vehicle_type_id":"4","last_reported":1751573456,"current_range_meters":12000,"station_id":"ce4bgj92rcd13ifvqbd0","pricing_plan_id":"cebpf4jnsgd1na2vs0mg"},{"bike_id":"9babb435-aafb-4346-94ee-63722a463a40","system_id":"levelo_inurba_marseille","lat":43.29028,"lon":5.39968,"is_reserved":false,"is_disabled":false,"rental_uris":{"android":"levelo://app?vid=9babb435-aafb-4346-94ee-63722a463a40","ios":"levelo://app?vid=9babb435-aafb-4346-94ee-63722a463a40"},"vehicle_type_id":"4","last_reported":1751573456,"current_range_meters":12000,"station_id":"ce4bh392rcd13ifvqdm0","pricing_plan_id":"cebpf4jnsgd1na2vs0mg"},{"bike_id":"22d9ee4c-62e6-44b3-907d-d5b3ffcf9eb8","system_id":"levelo_inurba_marseille","lat":43.24805,"lon":5.37457,"is_reserved":false,"is_disabled":false,"rental_uris":{"android":"levelo://app?vid=22d9ee4c-62e6-44b3-907d-d5b3ffcf9eb8","ios":"levelo://app?vid=22d9ee4c-62e6-44b3-907d-d5b3ffcf9eb8"},"vehicle_type_id":"4","last_reported":1751573456,"current_range_meters":12000,"station_id":"ce4bhgh2rcd13ifvqfb0","pricing_plan_id":"cebpf4jnsgd1na2vs0mg"},{"bike_id":"899d99b2-dc69-40bd-8e4f-56780a17324b","system_id":"levelo_inurba_marseille","lat":43.27069,"lon":5.42278,"is_reserved":false,"is_disabled":false,"rental_uris":{"android":"levelo://app?vid=899d99b2-dc69-40bd-8e4f-56780a17324b","ios":"levelo://app?vid=899d99b2-dc69-40bd-8e4f-56780a17324b"},"vehicle_type_id":"4","last_reported":1751573456,"current_range_meters":12000,"station_id":"ce4bhk92rcd13ifvqgb0","pricing_plan_id":"cebpf4jnsgd1na2vs0mg"},{"bike_id":"912d67f3-78e7-48fd-8929-37f0572cfee4","system_id":"levelo_inurba_marseille","lat":43.26377,"lon":5.37396,"is_reserved":false,"is_disabled":false,"rental_uris":{"android":"levelo://app?vid=912d67f3-78e7-48fd-8929-37f0572cfee4","ios":"levelo://app?vid=912d67f3-78e7-48fd-8929-37f0572cfee4"},"vehicle_type_id":"4","last_reported":1751573456,"current_range_meters":12400,"station_id":"","pricing_plan_id":"cebpf4jnsgd1na2vs0mg"},{"bike_id":"bccb34f9-0872-4b0d-9793-613ffc5c3e0b","system_id":"levelo_inurba_marseille","lat":43.2763,"lon":5.36093,"is_reserved":false,"is_disabled":false,"rental_uris":{"android":"levelo://app?vid=bccb34f9-0872-4b0d-9793-613ffc5c3e0b","ios":"levelo://app?vid=bccb34f9-0872-4b0d-9793-613ffc5c3e0b"},"vehicle_type_id":"4","last_reported":1751573456,"current_range_meters":12400,"station_id":"ce4bgj92rcd13ifvqbe0","pricing_plan_id":"cebpf4jnsgd1na2vs0mg"},{"bike_id":"47fc2d78-4572-44c3-862a-21e16603ccb3","system_id":"levelo_inurba_marseille","lat":43.30424,"lon":5.39733,"is_reserved":false,"is_disabled":false,"rental_uris":{"android":"levelo://app?vid=47fc2d78-4572-44c3-862a-21e16603ccb3","ios":"levelo://app?vid=47fc2d78-4572-44c3-862a-21e16603ccb3"},"vehicle_type_id":"4","last_reported":1751573456,"current_range_meters":12400,"station_id":"ce4bh092rcd13ifvqd20","pricing_plan_id":"cebpf4jnsgd1na2vs0mg"},{"bike_id":"5919a0bf-ecdd-451a-92c6-10ab7ba1f3f2","system_id":"levelo_inurba_marseille","lat":43.24813,"lon":5.3746,"is_reserved":false,"is_disabled":false,"rental_uris":{"android":"levelo://app?vid=5919a0bf-ecdd-451a-92c6-10ab7ba1f3f2","ios":"levelo://app?vid=5919a0bf-ecdd-451a-92c6-10ab7ba1f3f2"},"vehicle_type_id":"4","last_reported":1751573456,"current_range_meters":12400,"station_id":"ce4bhgh2rcd13ifvqfb0","pricing_plan_id":"cebpf4jnsgd1na2vs0mg"},{"bike_id":"380f7bdc-6d03-4fa7-b38c-ef1ec7d057dc","system_id":"levelo_inurba_marseille","lat":43.3042,"lon":5.41298,"is_reserved":false,"is_disabled":false,"rental_uris":{"android":"levelo://app?vid=380f7bdc-6d03-4fa7-b38c-ef1ec7d057dc","ios":"levelo://app?vid=380f7bdc-6d03-4fa7-b38c-ef1ec7d057dc"},"vehicle_type_id":"4","last_reported":1751573456,"current_range_meters":12400,"station_id":"ce4bhop2rcd13ifvqh8g","pricing_plan_id":"cebpf4jnsgd1na2vs0mg"},{"bike_id":"d799b321-3a7d-4201-b46e-ffe2ad124f19","system_id":"levelo_inurba_marseille","lat":43.32888,"lon":5.38391,"is_reserved":false,"is_disabled":false,"rental_uris":{"android":"levelo://app?vid=d799b321-3a7d-4201-b46e-ffe2ad124f19","ios":"levelo://app?vid=d799b321-3a7d-4201-b46e-ffe2ad124f19"},"vehicle_type_id":"4","last_reported":1751573456,"current_range_meters":12800,"station_id":"","pricing_plan_id":"cebpf4jnsgd1na2vs0mg"},{"bike_id":"c01b6c2b-e54a-4077-9ea7-37af968af64d","system_id":"levelo_inurba_marseille","lat":43.30139,"lon":5.38777,"is_reserved":false,"is_disabled":false,"rental_uris":{"android":"levelo://app?vid=c01b6c2b-e54a-4077-9ea7-37af968af64d","ios":"levelo://app?vid=c01b6c2b-e54a-4077-9ea7-37af968af64d"},"vehicle_type_id":"4","last_reported":1751573456,"current_range_meters":13600,"station_id":"ce4bghh2rcd13ifvqb60","pricing_plan_id":"cebpf4jnsgd1na2vs0mg"},{"bike_id":"05cead15-229f-4df7-be28-65114c415172","system_id":"levelo_inurba_marseille","lat":43.29375,"lon":5.37861,"is_reserved":false,"is_disabled":false,"rental_uris":{"android":"levelo://app?vid=05cead15-229f-4df7-be28-65114c415172","ios":"levelo://app?vid=05cead15-229f-4df7-be28-65114c415172"},"vehicle_type_id":"4","last_reported":1751573456,"current_range_meters":13600,"station_id":"ce4bgjh2rcd13ifvqbf0","pricing_plan_id":"cebpf4jnsgd1na2vs0mg"},{"bike_id":"1b892a3d-870b-4564-82b6-2f9d3714ac4d","system_id":"levelo_inurba_marseille","lat":43.2465,"lon":5.38892,"is_reserved":false,"is_disabled":false,"rental_uris":{"android":"levelo://app?vid=1b892a3d-870b-4564-82b6-2f9d3714ac4d","ios":"levelo://app?vid=1b892a3d-870b-4564-82b6-2f9d3714ac4d"},"vehicle_type_id":"4","last_reported":1751573456,"current_range_meters":13600,"station_id":"ce4bhg12rcd13ifvqf60","pricing_plan_id":"cebpf4jnsgd1na2vs0mg"},{"bike_id":"ba154a12-11bd-42a5-958a-5992f5d043d1","system_id":"levelo_inurba_marseille","lat":43.30505,"lon":5.37079,"is_reserved":false,"is_disabled":false,"rental_uris":{"android":"levelo://app?vid=ba154a12-11bd-42a5-958a-5992f5d043d1","ios":"levelo://app?vid=ba154a12-11bd-42a5-958a-5992f5d043d1"},"vehicle_type_id":"4","last_reported":1751573456,"current_range_meters":14000,"station_id":"","pricing_plan_id":"cebpf4jnsgd1na2vs0mg"},{"bike_id":"2c1eddcc-9d4f-4d7e-b256-d9df639c13bc","system_id":"levelo_inurba_marseille","lat":43.29039,"lon":5.39964,"is_reserved":false,"is_disabled":false,"rental_uris":{"android":"levelo://app?vid=2c1eddcc-9d4f-4d7e-b256-d9df639c13bc","ios":"levelo://app?vid=2c1eddcc-9d4f-4d7e-b256-d9df639c13bc"},"vehicle_type_id":"4","last_reported":1751573456,"current_range_meters":14000,"station_id":"ce4bh392rcd13ifvqdm0","pricing_plan_id":"cebpf4jnsgd1na2vs0mg"},{"bike_id":"11eeea03-1144-4303-bf59-07423ebdd022","system_id":"levelo_inurba_marseille","lat":43.28033,"lon":5.36955,"is_reserved":false,"is_disabled":false,"rental_uris":{"android":"levelo://app?vid=11eeea03-1144-4303-bf59-07423ebdd022","ios":"levelo://app?vid=11eeea03-1144-4303-bf59-07423ebdd022"},"vehicle_type_id":"4","last_reported":1751573456,"current_range_meters":14000,"station_id":"ce4bha12rcd13ifvqef0","pricing_plan_id":"cebpf4jnsgd1na2vs0mg"},{"bike_id":"57ad81a2-1e8c-4bb9-80cf-c9e7538acd5e","system_id":"levelo_inurba_marseille","lat":43.258578,"lon":5.39906,"is_reserved":false,"is_disabled":false,"rental_uris":{"android":"levelo://app?vid=57ad81a2-1e8c-4bb9-80cf-c9e7538acd5e","ios":"levelo://app?vid=57ad81a2-1e8c-4bb9-80cf-c9e7538acd5e"},"vehicle_type_id":"4","last_reported":1751573456,"current_range_meters":14000,"station_id":"ce4bhl92rcd13ifvqghg","pricing_plan_id":"cebpf4jnsgd1na2vs0mg"},{"bike_id":"136a9611-6902-45b0-87ab-686a823c4d24","system_id":"levelo_inurba_marseille","lat":43.26486,"lon":5.39532,"is_reserved":false,"is_disabled":false,"rental_uris":{"android":"levelo://app?vid=136a9611-6902-45b0-87ab-686a823c4d24","ios":"levelo://app?vid=136a9611-6902-45b0-87ab-686a823c4d24"},"vehicle_type_id":"4","last_reported":1751573456,"current_range_meters":14400,"station_id":"ce4bhi12rcd13ifvqfq0","pricing_plan_id":"cebpf4jnsgd1na2vs0mg"},{"bike_id":"37b84a38-055a-4a6e-a56a-8ff3d0c1b2ec","system_id":"levelo_inurba_marseille","lat":43.21193,"lon":5.35071,"is_reserved":false,"is_disabled":false,"rental_uris":{"android":"levelo://app?vid=37b84a38-055a-4a6e-a56a-8ff3d0c1b2ec","ios":"levelo://app?vid=37b84a38-055a-4a6e-a56a-8ff3d0c1b2ec"},"vehicle_type_id":"4","last_reported":1751573456,"current_range_meters":14400,"station_id":"st_cvj6sg6p6f1abm77japg","pricing_plan_id":"cebpf4jnsgd1na2vs0mg"},{"bike_id":"d6a97fc8-7c5d-4b77-9d38-d22003db8fe5","system_id":"levelo_inurba_marseille","lat":43.34721,"lon":5.36602,"is_reserved":false,"is_disabled":false,"rental_uris":{"android":"levelo://app?vid=d6a97fc8-7c5d-4b77-9d38-d22003db8fe5","ios":"levelo://app?vid=d6a97fc8-7c5d-4b77-9d38-d22003db8fe5"},"vehicle_type_id":"4","last_reported":1751573456,"current_range_meters":14800,"station_id":"","pricing_plan_id":"cebpf4jnsgd1na2vs0mg"},{"bike_id":"efb07070-9b77-4a74-9f78-7e4b67157e6a","system_id":"levelo_inurba_marseille","lat":43.308228,"lon":5.396435,"is_reserved":false,"is_disabled":false,"rental_uris":{"android":"levelo://app?vid=efb07070-9b77-4a74-9f78-7e4b67157e6a","ios":"levelo://app?vid=efb07070-9b77-4a74-9f78-7e4b67157e6a"},"vehicle_type_id":"4","last_reported":1751573456,"current_range_meters":14800,"station_id":"ce4bh012rcd13ifvqcv0","pricing_plan_id":"cebpf4jnsgd1na2vs0mg"},{"bike_id":"a10f52d5-f0b3-4e38-8e1b-891c225cb35e","system_id":"levelo_inurba_marseille","lat":43.21194,"lon":5.35053,"is_reserved":false,"is_disabled":false,"rental_uris":{"android":"levelo://app?vid=a10f52d5-f0b3-4e38-8e1b-891c225cb35e","ios":"levelo://app?vid=a10f52d5-f0b3-4e38-8e1b-891c225cb35e"},"vehicle_type_id":"4","last_reported":1751573456,"current_range_meters":14800,"station_id":"st_cvj6sg6p6f1abm77japg","pricing_plan_id":"cebpf4jnsgd1na2vs0mg"},{"bike_id":"4d4995e7-0bba-4ac2-a238-afd84a5e99b5","system_id":"levelo_inurba_marseille","lat":43.304848,"lon":5.398345,"is_reserved":false,"is_disabled":false,"rental_uris":{"android":"levelo://app?vid=4d4995e7-0bba-4ac2-a238-afd84a5e99b5","ios":"levelo://app?vid=4d4995e7-0bba-4ac2-a238-afd84a5e99b5"},"vehicle_type_id":"4","last_reported":1751573456,"current_range_meters":15200,"station_id":"","pricing_plan_id":"cebpf4jnsgd1na2vs0mg"},{"bike_id":"175513bb-dce2-48e2-83c8-1e9f1cb23cd0","system_id":"levelo_inurba_marseille","lat":43.286255,"lon":5.412651,"is_reserved":false,"is_disabled":false,"rental_uris":{"android":"levelo://app?vid=175513bb-dce2-48e2-83c8-1e9f1cb23cd0","ios":"levelo://app?vid=175513bb-dce2-48e2-83c8-1e9f1cb23cd0"},"vehicle_type_id":"4","last_reported":1751573456,"current_range_meters":15200,"station_id":"","pricing_plan_id":"cebpf4jnsgd1na2vs0mg"},{"bike_id":"68e58f17-24b6-4841-ae02-84db56bcb790","system_id":"levelo_inurba_marseille","lat":43.3013,"lon":5.398596,"is_reserved":false,"is_disabled":false,"rental_uris":{"android":"levelo://app?vid=68e58f17-24b6-4841-ae02-84db56bcb790","ios":"levelo://app?vid=68e58f17-24b6-4841-ae02-84db56bcb790"},"vehicle_type_id":"4","last_reported":1751573456,"current_range_meters":15200,"station_id":"ce4bh0h2rcd13ifvqd40","pricing_plan_id":"cebpf4jnsgd1na2vs0mg"},{"bike_id":"d2bf14df-3f08-4e98-877f-c7a5b364bc6f","system_id":"levelo_inurba_marseille","lat":43.278,"lon":5.40708,"is_reserved":false,"is_disabled":false,"rental_uris":{"android":"levelo://app?vid=d2bf14df-3f08-4e98-877f-c7a5b364bc6f","ios":"levelo://app?vid=d2bf14df-3f08-4e98-877f-c7a5b364bc6f"},"vehicle_type_id":"4","last_reported":1751573456,"current_range_meters":15200,"station_id":"ce4bhnh2rcd13ifvqgtg","pricing_plan_id":"cebpf4jnsgd1na2vs0mg"},{"bike_id":"f2d1945a-625c-433b-8fdd-844f4394e949","system_id":"levelo_inurba_marseille","lat":43.31729,"lon":5.43681,"is_reserved":false,"is_disabled":false,"rental_uris":{"android":"levelo://app?vid=f2d1945a-625c-433b-8fdd-844f4394e949","ios":"levelo://app?vid=f2d1945a-625c-433b-8fdd-844f4394e949"},"vehicle_type_id":"4","last_reported":1751573456,"current_range_meters":15200,"station_id":"ce4bhp92rcd13ifvqhcg","pricing_plan_id":"cebpf4jnsgd1na2vs0mg"},{"bike_id":"a6715104-7492-4ec6-a996-23050baf8551","system_id":"levelo_inurba_marseille","lat":43.22497,"lon":5.34738,"is_reserved":false,"is_disabled":false,"rental_uris":{"android":"levelo://app?vid=a6715104-7492-4ec6-a996-23050baf8551","ios":"levelo://app?vid=a6715104-7492-4ec6-a996-23050baf8551"},"vehicle_type_id":"4","last_reported":1751573456,"current_range_meters":15200,"station_id":"st_cvj5dfep6f1abm77gieg","pricing_plan_id":"cebpf4jnsgd1na2vs0mg"},{"bike_id":"0b03e171-2415-4997-a909-94fffa24318c","system_id":"levelo_inurba_marseille","lat":43.32067,"lon":5.40867,"is_reserved":false,"is_disabled":false,"rental_uris":{"android":"levelo://app?vid=0b03e171-2415-4997-a909-94fffa24318c","ios":"levelo://app?vid=0b03e171-2415-4997-a909-94fffa24318c"},"vehicle_type_id":"4","last_reported":1751573456,"current_range_meters":16000,"station_id":"","pricing_plan_id":"cebpf4jnsgd1na2vs0mg"},{"bike_id":"0c4b7fdb-b39e-49b3-a2b0-ae3d0f43e89d","system_id":"levelo_inurba_marseille","lat":43.32887,"lon":5.40586,"is_reserved":false,"is_disabled":false,"rental_uris":{"android":"levelo://app?vid=0c4b7fdb-b39e-49b3-a2b0-ae3d0f43e89d","ios":"levelo://app?vid=0c4b7fdb-b39e-49b3-a2b0-ae3d0f43e89d"},"vehicle_type_id":"4","last_reported":1751573456,"current_range_meters":16000,"station_id":"","pricing_plan_id":"cebpf4jnsgd1na2vs0mg"},{"bike_id":"80fdd467-db75-4047-b80d-952ab45e5e47","system_id":"levelo_inurba_marseille","lat":43.29304,"lon":5.37455,"is_reserved":false,"is_disabled":false,"rental_uris":{"android":"levelo://app?vid=80fdd467-db75-4047-b80d-952ab45e5e47","ios":"levelo://app?vid=80fdd467-db75-4047-b80d-952ab45e5e47"},"vehicle_type_id":"4","last_reported":1751573456,"current_range_meters":16000,"station_id":"ce4bgi12rcd13ifvqb70","pricing_plan_id":"cebpf4jnsgd1na2vs0mg"},{"bike_id":"af213e10-6367-4cec-af17-63aa54d97712","system_id":"levelo_inurba_marseille","lat":43.27607,"lon":5.36099,"is_reserved":false,"is_disabled":false,"rental_uris":{"android":"levelo://app?vid=af213e10-6367-4cec-af17-63aa54d97712","ios":"levelo://app?vid=af213e10-6367-4cec-af17-63aa54d97712"},"vehicle_type_id":"4","last_reported":1751573456,"current_range_meters":16000,"station_id":"ce4bgj92rcd13ifvqbe0","pricing_plan_id":"cebpf4jnsgd1na2vs0mg"},{"bike_id":"603f229c-09b9-4145-9510-d250a8eff49b","system_id":"levelo_inurba_marseille","lat":43.286324,"lon":5.350959,"is_reserved":false,"is_disabled":false,"rental_uris":{"android":"levelo://app?vid=603f229c-09b9-4145-9510-d250a8eff49b","ios":"levelo://app?vid=603f229c-09b9-4145-9510-d250a8eff49b"},"vehicle_type_id":"4","last_reported":1751573456,"current_range_meters":16000,"station_id":"ce4bhch2rcd13ifvqeug","pricing_plan_id":"cebpf4jnsgd1na2vs0mg"},{"bike_id":"6ee47da4-9cb7-4584-be45-580a2eecea99","system_id":"levelo_inurba_marseille","lat":43.25521,"lon":5.37654,"is_reserved":false,"is_disabled":false,"rental_uris":{"android":"levelo://app?vid=6ee47da4-9cb7-4584-be45-580a2eecea99","ios":"levelo://app?vid=6ee47da4-9cb7-4584-be45-580a2eecea99"},"vehicle_type_id":"4","last_reported":1751573456,"current_range_meters":16000,"station_id":"ce4bhh12rcd13ifvqff0","pricing_plan_id":"cebpf4jnsgd1na2vs0mg"},{"bike_id":"dfbce5f2-d4be-4fb4-b96e-89f73ba79196","system_id":"levelo_inurba_marseille","lat":43.21207,"lon":5.35063,"is_reserved":false,"is_disabled":false,"rental_uris":{"android":"levelo://app?vid=dfbce5f2-d4be-4fb4-b96e-89f73ba79196","ios":"levelo://app?vid=dfbce5f2-d4be-4fb4-b96e-89f73ba79196"},"vehicle_type_id":"4","last_reported":1751573456,"current_range_meters":16000,"station_id":"st_cvj6sg6p6f1abm77japg","pricing_plan_id":"cebpf4jnsgd1na2vs0mg"},{"bike_id":"a3c220bc-6e5b-4f14-8d6f-f2fac84ad833","system_id":"levelo_inurba_marseille","lat":43.29506,"lon":5.37495,"is_reserved":false,"is_disabled":false,"rental_uris":{"android":"levelo://app?vid=a3c220bc-6e5b-4f14-8d6f-f2fac84ad833","ios":"levelo://app?vid=a3c220bc-6e5b-4f14-8d6f-f2fac84ad833"},"vehicle_type_id":"4","last_reported":1751573456,"current_range_meters":16400,"station_id":"ce4bgkp2rcd13ifvqbmg","pricing_plan_id":"cebpf4jnsgd1na2vs0mg"},{"bike_id":"9a7a9a07-4a47-49c4-abbf-47b8034f9e91","system_id":"levelo_inurba_marseille","lat":43.28461,"lon":5.35883,"is_reserved":false,"is_disabled":false,"rental_uris":{"android":"levelo://app?vid=9a7a9a07-4a47-49c4-abbf-47b8034f9e91","ios":"levelo://app?vid=9a7a9a07-4a47-49c4-abbf-47b8034f9e91"},"vehicle_type_id":"4","last_reported":1751573456,"current_range_meters":16400,"station_id":"ce4bhah2rcd13ifvqei0","pricing_plan_id":"cebpf4jnsgd1na2vs0mg"},{"bike_id":"efd39573-3e62-4943-bd41-7a5e046acff7","system_id":"levelo_inurba_marseille","lat":43.2737,"lon":5.36261,"is_reserved":false,"is_disabled":false,"rental_uris":{"android":"levelo://app?vid=efd39573-3e62-4943-bd41-7a5e046acff7","ios":"levelo://app?vid=efd39573-3e62-4943-bd41-7a5e046acff7"},"vehicle_type_id":"4","last_reported":1751573456,"current_range_meters":16400,"station_id":"ce4bhbh2rcd13ifvqeo0","pricing_plan_id":"cebpf4jnsgd1na2vs0mg"},{"bike_id":"b9728e86-325c-43d1-ae98-759ac18ecc6d","system_id":"levelo_inurba_marseille","lat":43.282629,"lon":5.389662,"is_reserved":false,"is_disabled":false,"rental_uris":{"android":"levelo://app?vid=b9728e86-325c-43d1-ae98-759ac18ecc6d","ios":"levelo://app?vid=b9728e86-325c-43d1-ae98-759ac18ecc6d"},"vehicle_type_id":"4","last_reported":1751573456,"current_range_meters":16400,"station_id":"ce4bhf92rcd13ifvqf40","pricing_plan_id":"cebpf4jnsgd1na2vs0mg"},{"bike_id":"b3bdafac-5fdd-4245-9328-43b6d54aec01","system_id":"levelo_inurba_marseille","lat":43.32377,"lon":5.38873,"is_reserved":false,"is_disabled":false,"rental_uris":{"android":"levelo://app?vid=b3bdafac-5fdd-4245-9328-43b6d54aec01","ios":"levelo://app?vid=b3bdafac-5fdd-4245-9328-43b6d54aec01"},"vehicle_type_id":"4","last_reported":1751573456,"current_range_meters":16400,"station_id":"ce4bhqp2rcd13ifvqhog","pricing_plan_id":"cebpf4jnsgd1na2vs0mg"},{"bike_id":"5e197122-e8ec-4f01-b370-6bbfc10c6950","system_id":"levelo_inurba_marseille","lat":43.21196,"lon":5.35068,"is_reserved":false,"is_disabled":false,"rental_uris":{"android":"levelo://app?vid=5e197122-e8ec-4f01-b370-6bbfc10c6950","ios":"levelo://app?vid=5e197122-e8ec-4f01-b370-6bbfc10c6950"},"vehicle_type_id":"4","last_reported":1751573456,"current_range_meters":16400,"station_id":"st_cvj6sg6p6f1abm77japg","pricing_plan_id":"cebpf4jnsgd1na2vs0mg"},{"bike_id":"cc04118e-9312-4bf8-9106-d64e829afbaa","system_id":"levelo_inurba_marseille","lat":43.21195,"lon":5.35075,"is_reserved":false,"is_disabled":false,"rental_uris":{"android":"levelo://app?vid=cc04118e-9312-4bf8-9106-d64e829afbaa","ios":"levelo://app?vid=cc04118e-9312-4bf8-9106-d64e829afbaa"},"vehicle_type_id":"4","last_reported":1751573456,"current_range_meters":16400,"station_id":"st_cvj6sg6p6f1abm77japg","pricing_plan_id":"cebpf4jnsgd1na2vs0mg"},{"bike_id":"0c5e46df-9adb-4aa5-842c-17a1961c0106","system_id":"levelo_inurba_marseille","lat":43.279923,"lon":5.407165,"is_reserved":false,"is_disabled":false,"rental_uris":{"android":"levelo://app?vid=0c5e46df-9adb-4aa5-842c-17a1961c0106","ios":"levelo://app?vid=0c5e46df-9adb-4aa5-842c-17a1961c0106"},"vehicle_type_id":"4","last_reported":1751573456,"current_range_meters":16800,"station_id":"","pricing_plan_id":"cebpf4jnsgd1na2vs0mg"},{"bike_id":"77b8eed9-0f05-4600-980c-e50ed37b8f76","system_id":"levelo_inurba_marseille","lat":43.29801,"lon":5.381,"is_reserved":false,"is_disabled":false,"rental_uris":{"android":"levelo://app?vid=77b8eed9-0f05-4600-980c-e50ed37b8f76","ios":"levelo://app?vid=77b8eed9-0f05-4600-980c-e50ed37b8f76"},"vehicle_type_id":"4","last_reported":1751573456,"current_range_meters":16800,"station_id":"ce4bgip2rcd13ifvqbb0","pricing_plan_id":"cebpf4jnsgd1na2vs0mg"},{"bike_id":"b7fe03b0-14f4-47ff-93fc-0ee4d3ec818d","system_id":"levelo_inurba_marseille","lat":43.29366,"lon":5.37835,"is_reserved":false,"is_disabled":false,"rental_uris":{"android":"levelo://app?vid=b7fe03b0-14f4-47ff-93fc-0ee4d3ec818d","ios":"levelo://app?vid=b7fe03b0-14f4-47ff-93fc-0ee4d3ec818d"},"vehicle_type_id":"4","last_reported":1751573456,"current_range_meters":16800,"station_id":"ce4bgjh2rcd13ifvqbf0","pricing_plan_id":"cebpf4jnsgd1na2vs0mg"},{"bike_id":"439e2b4f-4e90-468c-b736-0957f75a0ab7","system_id":"levelo_inurba_marseille","lat":43.2903,"lon":5.3863,"is_reserved":false,"is_disabled":false,"rental_uris":{"android":"levelo://app?vid=439e2b4f-4e90-468c-b736-0957f75a0ab7","ios":"levelo://app?vid=439e2b4f-4e90-468c-b736-0957f75a0ab7"},"vehicle_type_id":"4","last_reported":1751573456,"current_range_meters":16800,"station_id":"ce4bh4p2rcd13ifvqe0g","pricing_plan_id":"cebpf4jnsgd1na2vs0mg"},{"bike_id":"5598d938-8bfc-4250-bd61-6a56a6c0876b","system_id":"levelo_inurba_marseille","lat":43.27379,"lon":5.36255,"is_reserved":false,"is_disabled":false,"rental_uris":{"android":"levelo://app?vid=5598d938-8bfc-4250-bd61-6a56a6c0876b","ios":"levelo://app?vid=5598d938-8bfc-4250-bd61-6a56a6c0876b"},"vehicle_type_id":"4","last_reported":1751573456,"current_range_meters":16800,"station_id":"ce4bhbh2rcd13ifvqeo0","pricing_plan_id":"cebpf4jnsgd1na2vs0mg"},{"bike_id":"f1b8be6b-5160-46cf-8639-5feed5223608","system_id":"levelo_inurba_marseille","lat":43.26188,"lon":5.37443,"is_reserved":false,"is_disabled":false,"rental_uris":{"android":"levelo://app?vid=f1b8be6b-5160-46cf-8639-5feed5223608","ios":"levelo://app?vid=f1b8be6b-5160-46cf-8639-5feed5223608"},"vehicle_type_id":"4","last_reported":1751573456,"current_range_meters":16800,"station_id":"ce4bhgp2rcd13ifvqfc0","pricing_plan_id":"cebpf4jnsgd1na2vs0mg"},{"bike_id":"876baad4-af20-4b26-9619-557eb59dd3a0","system_id":"levelo_inurba_marseille","lat":43.23193,"lon":5.35551,"is_reserved":false,"is_disabled":false,"rental_uris":{"android":"levelo://app?vid=876baad4-af20-4b26-9619-557eb59dd3a0","ios":"levelo://app?vid=876baad4-af20-4b26-9619-557eb59dd3a0"},"vehicle_type_id":"4","last_reported":1751573456,"current_range_meters":16800,"station_id":"ce4bhu92rcd13ifvqi70","pricing_plan_id":"cebpf4jnsgd1na2vs0mg"},{"bike_id":"6eebadd3-99fa-48af-8556-1f64731f83a2","system_id":"levelo_inurba_marseille","lat":43.23065,"lon":5.35481,"is_reserved":false,"is_disabled":false,"rental_uris":{"android":"levelo://app?vid=6eebadd3-99fa-48af-8556-1f64731f83a2","ios":"levelo://app?vid=6eebadd3-99fa-48af-8556-1f64731f83a2"},"vehicle_type_id":"4","last_reported":1751573456,"current_range_meters":16800,"station_id":"cpo3342slgdg3j2ifvpg","pricing_plan_id":"cebpf4jnsgd1na2vs0mg"},{"bike_id":"04e6c422-f573-4b46-85ae-d31c2fc5977b","system_id":"levelo_inurba_marseille","lat":43.24166,"lon":5.36394,"is_reserved":false,"is_disabled":false,"rental_uris":{"android":"levelo://app?vid=04e6c422-f573-4b46-85ae-d31c2fc5977b","ios":"levelo://app?vid=04e6c422-f573-4b46-85ae-d31c2fc5977b"},"vehicle_type_id":"4","last_reported":1751573456,"current_range_meters":16800,"station_id":"cpo36qri1sfpv3e86is0","pricing_plan_id":"cebpf4jnsgd1na2vs0mg"},{"bike_id":"1c8ab180-05fd-405f-9922-b2b2c2d5142f","system_id":"levelo_inurba_marseille","lat":43.33794,"lon":5.38102,"is_reserved":false,"is_disabled":false,"rental_uris":{"android":"levelo://app?vid=1c8ab180-05fd-405f-9922-b2b2c2d5142f","ios":"levelo://app?vid=1c8ab180-05fd-405f-9922-b2b2c2d5142f"},"vehicle_type_id":"4","last_reported":1751573456,"current_range_meters":17200,"station_id":"","pricing_plan_id":"cebpf4jnsgd1na2vs0mg"},{"bike_id":"27b2c459-7e28-4563-b22f-60d0278cb331","system_id":"levelo_inurba_marseille","lat":43.27632,"lon":5.36103,"is_reserved":false,"is_disabled":false,"rental_uris":{"android":"levelo://app?vid=27b2c459-7e28-4563-b22f-60d0278cb331","ios":"levelo://app?vid=27b2c459-7e28-4563-b22f-60d0278cb331"},"vehicle_type_id":"4","last_reported":1751573456,"current_range_meters":17200,"station_id":"ce4bgj92rcd13ifvqbe0","pricing_plan_id":"cebpf4jnsgd1na2vs0mg"},{"bike_id":"0a538aa1-d128-47ad-9d68-1cbfb5e84d5b","system_id":"levelo_inurba_marseille","lat":43.29679,"lon":5.37291,"is_reserved":false,"is_disabled":false,"rental_uris":{"android":"levelo://app?vid=0a538aa1-d128-47ad-9d68-1cbfb5e84d5b","ios":"levelo://app?vid=0a538aa1-d128-47ad-9d68-1cbfb5e84d5b"},"vehicle_type_id":"4","last_reported":1751573456,"current_range_meters":17200,"station_id":"ce4bgk12rcd13ifvqbj0","pricing_plan_id":"cebpf4jnsgd1na2vs0mg"},{"bike_id":"2eb37fe0-f373-4a0a-9df3-3f422bc1e676","system_id":"levelo_inurba_marseille","lat":43.29039,"lon":5.39959,"is_reserved":false,"is_disabled":false,"rental_uris":{"android":"levelo://app?vid=2eb37fe0-f373-4a0a-9df3-3f422bc1e676","ios":"levelo://app?vid=2eb37fe0-f373-4a0a-9df3-3f422bc1e676"},"vehicle_type_id":"4","last_reported":1751573456,"current_range_meters":17200,"station_id":"ce4bh392rcd13ifvqdm0","pricing_plan_id":"cebpf4jnsgd1na2vs0mg"},{"bike_id":"d7d5b776-bcc7-423d-8a89-6abd09a6c07c","system_id":"levelo_inurba_marseille","lat":43.241663,"lon":5.363937,"is_reserved":false,"is_disabled":false,"rental_uris":{"android":"levelo://app?vid=d7d5b776-bcc7-423d-8a89-6abd09a6c07c","ios":"levelo://app?vid=d7d5b776-bcc7-423d-8a89-6abd09a6c07c"},"vehicle_type_id":"4","last_reported":1751573456,"current_range_meters":17200,"station_id":"cpo36qri1sfpv3e86is0","pricing_plan_id":"cebpf4jnsgd1na2vs0mg"},{"bike_id":"c1a52fe2-4256-4627-9e70-dfbea2fd26d9","system_id":"levelo_inurba_marseille","lat":43.30528,"lon":5.38429,"is_reserved":false,"is_disabled":false,"rental_uris":{"android":"levelo://app?vid=c1a52fe2-4256-4627-9e70-dfbea2fd26d9","ios":"levelo://app?vid=c1a52fe2-4256-4627-9e70-dfbea2fd26d9"},"vehicle_type_id":"4","last_reported":1751573456,"current_range_meters":17600,"station_id":"ce4bgg92rcd13ifvqb30","pricing_plan_id":"cebpf4jnsgd1na2vs0mg"},{"bike_id":"83c4358e-b054-49ea-8967-79d6dc7f7ecc","system_id":"levelo_inurba_marseille","lat":43.2962,"lon":5.37731,"is_reserved":false,"is_disabled":false,"rental_uris":{"android":"levelo://app?vid=83c4358e-b054-49ea-8967-79d6dc7f7ecc","ios":"levelo://app?vid=83c4358e-b054-49ea-8967-79d6dc7f7ecc"},"vehicle_type_id":"4","last_reported":1751573456,"current_range_meters":17600,"station_id":"ce4bgi92rcd13ifvqb90","pricing_plan_id":"cebpf4jnsgd1na2vs0mg"},{"bike_id":"a9a07126-8728-4535-baa6-5644baa44463","system_id":"levelo_inurba_marseille","lat":43.303514,"lon":5.386122,"is_reserved":false,"is_disabled":false,"rental_uris":{"android":"levelo://app?vid=a9a07126-8728-4535-baa6-5644baa44463","ios":"levelo://app?vid=a9a07126-8728-4535-baa6-5644baa44463"},"vehicle_type_id":"4","last_reported":1751573456,"current_range_meters":17600,"station_id":"ce4bgt12rcd13ifvqce0","pricing_plan_id":"cebpf4jnsgd1na2vs0mg"},{"bike_id":"ec5e23bb-f805-4272-af77-05e2ad15dc71","system_id":"levelo_inurba_marseille","lat":43.31356,"lon":5.38493,"is_reserved":false,"is_disabled":false,"rental_uris":{"android":"levelo://app?vid=ec5e23bb-f805-4272-af77-05e2ad15dc71","ios":"levelo://app?vid=ec5e23bb-f805-4272-af77-05e2ad15dc71"},"vehicle_type_id":"4","last_reported":1751573456,"current_range_meters":17600,"station_id":"ce4bgt92rcd13ifvqcf0","pricing_plan_id":"cebpf4jnsgd1na2vs0mg"},{"bike_id":"3ef34ebd-77bb-4db1-b212-49bcceba244f","system_id":"levelo_inurba_marseille","lat":43.29413,"lon":5.38616,"is_reserved":false,"is_disabled":false,"rental_uris":{"android":"levelo://app?vid=3ef34ebd-77bb-4db1-b212-49bcceba244f","ios":"levelo://app?vid=3ef34ebd-77bb-4db1-b212-49bcceba244f"},"vehicle_type_id":"4","last_reported":1751573456,"current_range_meters":17600,"station_id":"ce4bh2h2rcd13ifvqdh0","pricing_plan_id":"cebpf4jnsgd1na2vs0mg"},{"bike_id":"184760c5-7a86-4b66-a8a0-5a810cd15782","system_id":"levelo_inurba_marseille","lat":43.27666,"lon":5.38887,"is_reserved":false,"is_disabled":false,"rental_uris":{"android":"levelo://app?vid=184760c5-7a86-4b66-a8a0-5a810cd15782","ios":"levelo://app?vid=184760c5-7a86-4b66-a8a0-5a810cd15782"},"vehicle_type_id":"4","last_reported":1751573456,"current_range_meters":17600,"station_id":"ce4bhi12rcd13ifvqfo0","pricing_plan_id":"cebpf4jnsgd1na2vs0mg"},{"bike_id":"a8aa723a-977c-4b3a-a3a0-b6ee0c117309","system_id":"levelo_inurba_marseille","lat":43.23968,"lon":5.36631,"is_reserved":false,"is_disabled":false,"rental_uris":{"android":"levelo://app?vid=a8aa723a-977c-4b3a-a3a0-b6ee0c117309","ios":"levelo://app?vid=a8aa723a-977c-4b3a-a3a0-b6ee0c117309"},"vehicle_type_id":"4","last_reported":1751573456,"current_range_meters":17600,"station_id":"ce4bhi12rcd13ifvqfp0","pricing_plan_id":"cebpf4jnsgd1na2vs0mg"},{"bike_id":"2796d2e9-2053-4e01-8a5b-24b1bb7694a9","system_id":"levelo_inurba_marseille","lat":43.2558,"lon":5.38228,"is_reserved":false,"is_disabled":false,"rental_uris":{"android":"levelo://app?vid=2796d2e9-2053-4e01-8a5b-24b1bb7694a9","ios":"levelo://app?vid=2796d2e9-2053-4e01-8a5b-24b1bb7694a9"},"vehicle_type_id":"4","last_reported":1751573456,"current_range_meters":17600,"station_id":"ce4bhih2rcd13ifvqfs0","pricing_plan_id":"cebpf4jnsgd1na2vs0mg"},{"bike_id":"51798763-0f12-4102-9582-ac105b3b9fc2","system_id":"levelo_inurba_marseille","lat":43.25722,"lon":5.4111,"is_reserved":false,"is_disabled":false,"rental_uris":{"android":"levelo://app?vid=51798763-0f12-4102-9582-ac105b3b9fc2","ios":"levelo://app?vid=51798763-0f12-4102-9582-ac105b3b9fc2"},"vehicle_type_id":"4","last_reported":1751573456,"current_range_meters":17600,"station_id":"ce4bhkp2rcd13ifvqgd0","pricing_plan_id":"cebpf4jnsgd1na2vs0mg"},{"bike_id":"32c0fc37-6823-41d0-9497-8d1eea24742c","system_id":"levelo_inurba_marseille","lat":43.2417,"lon":5.36394,"is_reserved":false,"is_disabled":false,"rental_uris":{"android":"levelo://app?vid=32c0fc37-6823-41d0-9497-8d1eea24742c","ios":"levelo://app?vid=32c0fc37-6823-41d0-9497-8d1eea24742c"},"vehicle_type_id":"4","last_reported":1751573456,"current_range_meters":17600,"station_id":"cpo36qri1sfpv3e86is0","pricing_plan_id":"cebpf4jnsgd1na2vs0mg"},{"bike_id":"ba926bfc-9632-4680-b0ed-32a040d6fb83","system_id":"levelo_inurba_marseille","lat":43.21729,"lon":5.34631,"is_reserved":false,"is_disabled":false,"rental_uris":{"android":"levelo://app?vid=ba926bfc-9632-4680-b0ed-32a040d6fb83","ios":"levelo://app?vid=ba926bfc-9632-4680-b0ed-32a040d6fb83"},"vehicle_type_id":"4","last_reported":1751573456,"current_range_meters":17600,"station_id":"st_cvj6r9ubvosntc0bgbag","pricing_plan_id":"cebpf4jnsgd1na2vs0mg"},{"bike_id":"1dbf5c01-4906-40c5-91ac-2fbf53ef82d2","system_id":"levelo_inurba_marseille","lat":43.29775,"lon":5.37118,"is_reserved":false,"is_disabled":false,"rental_uris":{"android":"levelo://app?vid=1dbf5c01-4906-40c5-91ac-2fbf53ef82d2","ios":"levelo://app?vid=1dbf5c01-4906-40c5-91ac-2fbf53ef82d2"},"vehicle_type_id":"4","last_reported":1751573456,"current_range_meters":18000,"station_id":"ce4bgop2rcd13ifvqc1g","pricing_plan_id":"cebpf4jnsgd1na2vs0mg"},{"bike_id":"598c9af4-d805-4ae2-9794-d507bfc46e39","system_id":"levelo_inurba_marseille","lat":43.28977,"lon":5.37813,"is_reserved":false,"is_disabled":false,"rental_uris":{"android":"levelo://app?vid=598c9af4-d805-4ae2-9794-d507bfc46e39","ios":"levelo://app?vid=598c9af4-d805-4ae2-9794-d507bfc46e39"},"vehicle_type_id":"4","last_reported":1751573456,"current_range_meters":18000,"station_id":"ce4bh9p2rcd13ifvqed0","pricing_plan_id":"cebpf4jnsgd1na2vs0mg"},{"bike_id":"82e8bbb2-dcad-4b63-8caa-3d9b669b8184","system_id":"levelo_inurba_marseille","lat":43.28605,"lon":5.35108,"is_reserved":false,"is_disabled":false,"rental_uris":{"android":"levelo://app?vid=82e8bbb2-dcad-4b63-8caa-3d9b669b8184","ios":"levelo://app?vid=82e8bbb2-dcad-4b63-8caa-3d9b669b8184"},"vehicle_type_id":"4","last_reported":1751573456,"current_range_meters":18000,"station_id":"ce4bhch2rcd13ifvqeug","pricing_plan_id":"cebpf4jnsgd1na2vs0mg"},{"bike_id":"5243c9d3-c44b-418d-aeae-29f412b42f25","system_id":"levelo_inurba_marseille","lat":43.2481,"lon":5.3746,"is_reserved":false,"is_disabled":false,"rental_uris":{"android":"levelo://app?vid=5243c9d3-c44b-418d-aeae-29f412b42f25","ios":"levelo://app?vid=5243c9d3-c44b-418d-aeae-29f412b42f25"},"vehicle_type_id":"4","last_reported":1751573456,"current_range_meters":18000,"station_id":"ce4bhgh2rcd13ifvqfb0","pricing_plan_id":"cebpf4jnsgd1na2vs0mg"},{"bike_id":"7d455cf4-771b-4cdc-a5a9-a2d24e0b62cf","system_id":"levelo_inurba_marseille","lat":43.25491,"lon":5.37637,"is_reserved":false,"is_disabled":false,"rental_uris":{"android":"levelo://app?vid=7d455cf4-771b-4cdc-a5a9-a2d24e0b62cf","ios":"levelo://app?vid=7d455cf4-771b-4cdc-a5a9-a2d24e0b62cf"},"vehicle_type_id":"4","last_reported":1751573456,"current_range_meters":18000,"station_id":"ce4bhh12rcd13ifvqff0","pricing_plan_id":"cebpf4jnsgd1na2vs0mg"},{"bike_id":"9c16d799-95bb-411d-8016-1c6dca0b577e","system_id":"levelo_inurba_marseille","lat":43.27992,"lon":5.40025,"is_reserved":false,"is_disabled":false,"rental_uris":{"android":"levelo://app?vid=9c16d799-95bb-411d-8016-1c6dca0b577e","ios":"levelo://app?vid=9c16d799-95bb-411d-8016-1c6dca0b577e"},"vehicle_type_id":"4","last_reported":1751573456,"current_range_meters":18000,"station_id":"ce4bho92rcd13ifvqh4g","pricing_plan_id":"cebpf4jnsgd1na2vs0mg"},{"bike_id":"29cb404e-526a-4310-8c49-8fdbeb50e11e","system_id":"levelo_inurba_marseille","lat":43.32356,"lon":5.36749,"is_reserved":false,"is_disabled":false,"rental_uris":{"android":"levelo://app?vid=29cb404e-526a-4310-8c49-8fdbeb50e11e","ios":"levelo://app?vid=29cb404e-526a-4310-8c49-8fdbeb50e11e"},"vehicle_type_id":"4","last_reported":1751573456,"current_range_meters":18000,"station_id":"ce4bhsh2rcd13ifvqi2g","pricing_plan_id":"cebpf4jnsgd1na2vs0mg"},{"bike_id":"b13877a6-4825-4d82-b46b-67fa8ad66c5d","system_id":"levelo_inurba_marseille","lat":43.21186,"lon":5.35061,"is_reserved":false,"is_disabled":false,"rental_uris":{"android":"levelo://app?vid=b13877a6-4825-4d82-b46b-67fa8ad66c5d","ios":"levelo://app?vid=b13877a6-4825-4d82-b46b-67fa8ad66c5d"},"vehicle_type_id":"4","last_reported":1751573456,"current_range_meters":18000,"station_id":"st_cvj6sg6p6f1abm77japg","pricing_plan_id":"cebpf4jnsgd1na2vs0mg"},{"bike_id":"7712491c-e18b-4b09-bb79-30880b357c07","system_id":"levelo_inurba_marseille","lat":43.21182,"lon":5.35058,"is_reserved":false,"is_disabled":false,"rental_uris":{"android":"levelo://app?vid=7712491c-e18b-4b09-bb79-30880b357c07","ios":"levelo://app?vid=7712491c-e18b-4b09-bb79-30880b357c07"},"vehicle_type_id":"4","last_reported":1751573456,"current_range_meters":18000,"station_id":"st_cvj6sg6p6f1abm77japg","pricing_plan_id":"cebpf4jnsgd1na2vs0mg"},{"bike_id":"8734bc42-361e-4c72-9212-27e99f10c61f","system_id":"levelo_inurba_marseille","lat":43.27368,"lon":5.42767,"is_reserved":false,"is_disabled":false,"rental_uris":{"android":"levelo://app?vid=8734bc42-361e-4c72-9212-27e99f10c61f","ios":"levelo://app?vid=8734bc42-361e-4c72-9212-27e99f10c61f"},"vehicle_type_id":"4","last_reported":1751573456,"current_range_meters":18800,"station_id":"","pricing_plan_id":"cebpf4jnsgd1na2vs0mg"},{"bike_id":"5dc0e370-e5f0-457a-97b1-fa5027dd1f16","system_id":"levelo_inurba_marseille","lat":43.31735,"lon":5.43639,"is_reserved":false,"is_disabled":false,"rental_uris":{"android":"levelo://app?vid=5dc0e370-e5f0-457a-97b1-fa5027dd1f16","ios":"levelo://app?vid=5dc0e370-e5f0-457a-97b1-fa5027dd1f16"},"vehicle_type_id":"4","last_reported":1751573456,"current_range_meters":18800,"station_id":"","pricing_plan_id":"cebpf4jnsgd1na2vs0mg"},{"bike_id":"0ab87bef-8cab-4a90-af9d-a3f0e5d50a52","system_id":"levelo_inurba_marseille","lat":43.273824,"lon":5.362555,"is_reserved":false,"is_disabled":false,"rental_uris":{"android":"levelo://app?vid=0ab87bef-8cab-4a90-af9d-a3f0e5d50a52","ios":"levelo://app?vid=0ab87bef-8cab-4a90-af9d-a3f0e5d50a52"},"vehicle_type_id":"4","last_reported":1751573456,"current_range_meters":18800,"station_id":"ce4bhb12rcd13ifvqel0","pricing_plan_id":"cebpf4jnsgd1na2vs0mg"},{"bike_id":"2537c3b2-a131-4734-8a7b-bf14ef5f71b3","system_id":"levelo_inurba_marseille","lat":43.27844,"lon":5.39204,"is_reserved":false,"is_disabled":false,"rental_uris":{"android":"levelo://app?vid=2537c3b2-a131-4734-8a7b-bf14ef5f71b3","ios":"levelo://app?vid=2537c3b2-a131-4734-8a7b-bf14ef5f71b3"},"vehicle_type_id":"4","last_reported":1751573456,"current_range_meters":18800,"station_id":"ce4bhjp2rcd13ifvqga0","pricing_plan_id":"cebpf4jnsgd1na2vs0mg"},{"bike_id":"cee0b5b6-9b90-457a-85f4-540287a23b84","system_id":"levelo_inurba_marseille","lat":43.211914,"lon":5.350688,"is_reserved":false,"is_disabled":false,"rental_uris":{"android":"levelo://app?vid=cee0b5b6-9b90-457a-85f4-540287a23b84","ios":"levelo://app?vid=cee0b5b6-9b90-457a-85f4-540287a23b84"},"vehicle_type_id":"4","last_reported":1751573456,"current_range_meters":18800,"station_id":"st_cvj6sg6p6f1abm77japg","pricing_plan_id":"cebpf4jnsgd1na2vs0mg"},{"bike_id":"4b8da722-ee9e-48a4-a5e5-3a8a10364708","system_id":"levelo_inurba_marseille","lat":43.31214,"lon":5.3784,"is_reserved":false,"is_disabled":false,"rental_uris":{"android":"levelo://app?vid=4b8da722-ee9e-48a4-a5e5-3a8a10364708","ios":"levelo://app?vid=4b8da722-ee9e-48a4-a5e5-3a8a10364708"},"vehicle_type_id":"4","last_reported":1751573456,"current_range_meters":19200,"station_id":"","pricing_plan_id":"cebpf4jnsgd1na2vs0mg"},{"bike_id":"c00eebcc-6c5a-4a76-84d4-98bdbc5c4f07","system_id":"levelo_inurba_marseille","lat":43.29105,"lon":5.38148,"is_reserved":false,"is_disabled":false,"rental_uris":{"android":"levelo://app?vid=c00eebcc-6c5a-4a76-84d4-98bdbc5c4f07","ios":"levelo://app?vid=c00eebcc-6c5a-4a76-84d4-98bdbc5c4f07"},"vehicle_type_id":"4","last_reported":1751573456,"current_range_meters":19200,"station_id":"ce4bh512rcd13ifvqe2g","pricing_plan_id":"cebpf4jnsgd1na2vs0mg"},{"bike_id":"b1e4d51b-e252-4c50-9e2a-f4e54e2cc734","system_id":"levelo_inurba_marseille","lat":43.2894,"lon":5.36637,"is_reserved":false,"is_disabled":false,"rental_uris":{"android":"levelo://app?vid=b1e4d51b-e252-4c50-9e2a-f4e54e2cc734","ios":"levelo://app?vid=b1e4d51b-e252-4c50-9e2a-f4e54e2cc734"},"vehicle_type_id":"4","last_reported":1751573456,"current_range_meters":19200,"station_id":"ce4bhap2rcd13ifvqek0","pricing_plan_id":"cebpf4jnsgd1na2vs0mg"},{"bike_id":"c1870f37-6f4b-45d5-b5b3-25c1ff3dff10","system_id":"levelo_inurba_marseille","lat":43.3059,"lon":5.39354,"is_reserved":false,"is_disabled":false,"rental_uris":{"android":"levelo://app?vid=c1870f37-6f4b-45d5-b5b3-25c1ff3dff10","ios":"levelo://app?vid=c1870f37-6f4b-45d5-b5b3-25c1ff3dff10"},"vehicle_type_id":"4","last_reported":1751573456,"current_range_meters":19600,"station_id":"ce4bh0p2rcd13ifvqd80","pricing_plan_id":"cebpf4jnsgd1na2vs0mg"},{"bike_id":"bc68b387-7626-4e96-81d5-67cd794e12a0","system_id":"levelo_inurba_marseille","lat":43.26774,"lon":5.371688,"is_reserved":false,"is_disabled":false,"rental_uris":{"android":"levelo://app?vid=bc68b387-7626-4e96-81d5-67cd794e12a0","ios":"levelo://app?vid=bc68b387-7626-4e96-81d5-67cd794e12a0"},"vehicle_type_id":"4","last_reported":1751573456,"current_range_meters":19600,"station_id":"ce4bha12rcd13ifvqef0","pricing_plan_id":"cebpf4jnsgd1na2vs0mg"},{"bike_id":"7ac510a6-907d-4497-8ef4-8084e820f9fa","system_id":"levelo_inurba_marseille","lat":43.286202,"lon":5.351006,"is_reserved":false,"is_disabled":false,"rental_uris":{"android":"levelo://app?vid=7ac510a6-907d-4497-8ef4-8084e820f9fa","ios":"levelo://app?vid=7ac510a6-907d-4497-8ef4-8084e820f9fa"},"vehicle_type_id":"4","last_reported":1751573456,"current_range_meters":19600,"station_id":"ce4bhch2rcd13ifvqeug","pricing_plan_id":"cebpf4jnsgd1na2vs0mg"},{"bike_id":"51fa2768-c5ae-402f-85b5-e8d4be893052","system_id":"levelo_inurba_marseille","lat":43.255,"lon":5.3764,"is_reserved":false,"is_disabled":false,"rental_uris":{"android":"levelo://app?vid=51fa2768-c5ae-402f-85b5-e8d4be893052","ios":"levelo://app?vid=51fa2768-c5ae-402f-85b5-e8d4be893052"},"vehicle_type_id":"4","last_reported":1751573456,"current_range_meters":19600,"station_id":"ce4bhh12rcd13ifvqff0","pricing_plan_id":"cebpf4jnsgd1na2vs0mg"},{"bike_id":"1c494b60-aa41-4af9-83fd-d2ccd388ce43","system_id":"levelo_inurba_marseille","lat":43.25685,"lon":5.4113,"is_reserved":false,"is_disabled":false,"rental_uris":{"android":"levelo://app?vid=1c494b60-aa41-4af9-83fd-d2ccd388ce43","ios":"levelo://app?vid=1c494b60-aa41-4af9-83fd-d2ccd388ce43"},"vehicle_type_id":"4","last_reported":1751573456,"current_range_meters":19600,"station_id":"ce4bhkp2rcd13ifvqgd0","pricing_plan_id":"cebpf4jnsgd1na2vs0mg"},{"bike_id":"41ef8caf-4d60-42e1-bc12-8ad683c829dd","system_id":"levelo_inurba_marseille","lat":43.23183,"lon":5.39989,"is_reserved":false,"is_disabled":false,"rental_uris":{"android":"levelo://app?vid=41ef8caf-4d60-42e1-bc12-8ad683c829dd","ios":"levelo://app?vid=41ef8caf-4d60-42e1-bc12-8ad683c829dd"},"vehicle_type_id":"4","last_reported":1751573456,"current_range_meters":19600,"station_id":"ce4bhn12rcd13ifvqgqg","pricing_plan_id":"cebpf4jnsgd1na2vs0mg"},{"bike_id":"a749287d-23e0-4bf5-9396-a3f4da10fa7c","system_id":"levelo_inurba_marseille","lat":43.30406,"lon":5.41294,"is_reserved":false,"is_disabled":false,"rental_uris":{"android":"levelo://app?vid=a749287d-23e0-4bf5-9396-a3f4da10fa7c","ios":"levelo://app?vid=a749287d-23e0-4bf5-9396-a3f4da10fa7c"},"vehicle_type_id":"4","last_reported":1751573456,"current_range_meters":19600,"station_id":"ce4bhop2rcd13ifvqh8g","pricing_plan_id":"cebpf4jnsgd1na2vs0mg"},{"bike_id":"c13c93ac-6b62-443c-9e36-caf61b27325a","system_id":"levelo_inurba_marseille","lat":43.21182,"lon":5.35083,"is_reserved":false,"is_disabled":false,"rental_uris":{"android":"levelo://app?vid=c13c93ac-6b62-443c-9e36-caf61b27325a","ios":"levelo://app?vid=c13c93ac-6b62-443c-9e36-caf61b27325a"},"vehicle_type_id":"4","last_reported":1751573456,"current_range_meters":19600,"station_id":"st_cvj6sg6p6f1abm77japg","pricing_plan_id":"cebpf4jnsgd1na2vs0mg"},{"bike_id":"980e321b-1561-4739-ba1c-fcdf3098882d","system_id":"levelo_inurba_marseille","lat":43.29915,"lon":5.37472,"is_reserved":false,"is_disabled":false,"rental_uris":{"android":"levelo://app?vid=980e321b-1561-4739-ba1c-fcdf3098882d","ios":"levelo://app?vid=980e321b-1561-4739-ba1c-fcdf3098882d"},"vehicle_type_id":"4","last_reported":1751573456,"current_range_meters":20000,"station_id":"ce4bgjh2rcd13ifvqbg0","pricing_plan_id":"cebpf4jnsgd1na2vs0mg"},{"bike_id":"19ded029-b177-45f1-a195-db7aac40d758","system_id":"levelo_inurba_marseille","lat":43.31475,"lon":5.37306,"is_reserved":false,"is_disabled":false,"rental_uris":{"android":"levelo://app?vid=19ded029-b177-45f1-a195-db7aac40d758","ios":"levelo://app?vid=19ded029-b177-45f1-a195-db7aac40d758"},"vehicle_type_id":"4","last_reported":1751573456,"current_range_meters":20000,"station_id":"ce4bgt12rcd13ifvqcd0","pricing_plan_id":"cebpf4jnsgd1na2vs0mg"},{"bike_id":"c1c90b44-4e3b-483b-81b4-cb0ae090e98f","system_id":"levelo_inurba_marseille","lat":43.248,"lon":5.37464,"is_reserved":false,"is_disabled":false,"rental_uris":{"android":"levelo://app?vid=c1c90b44-4e3b-483b-81b4-cb0ae090e98f","ios":"levelo://app?vid=c1c90b44-4e3b-483b-81b4-cb0ae090e98f"},"vehicle_type_id":"4","last_reported":1751573456,"current_range_meters":20000,"station_id":"ce4bhgh2rcd13ifvqfb0","pricing_plan_id":"cebpf4jnsgd1na2vs0mg"},{"bike_id":"182420fc-aed7-4298-af74-ce29f7b0f555","system_id":"levelo_inurba_marseille","lat":43.26192,"lon":5.37449,"is_reserved":false,"is_disabled":false,"rental_uris":{"android":"levelo://app?vid=182420fc-aed7-4298-af74-ce29f7b0f555","ios":"levelo://app?vid=182420fc-aed7-4298-af74-ce29f7b0f555"},"vehicle_type_id":"4","last_reported":1751573456,"current_range_meters":20000,"station_id":"ce4bhgp2rcd13ifvqfc0","pricing_plan_id":"cebpf4jnsgd1na2vs0mg"},{"bike_id":"380d816a-aa7f-450e-800c-f4a4c2fe0373","system_id":"levelo_inurba_marseille","lat":43.23965,"lon":5.36631,"is_reserved":false,"is_disabled":false,"rental_uris":{"android":"levelo://app?vid=380d816a-aa7f-450e-800c-f4a4c2fe0373","ios":"levelo://app?vid=380d816a-aa7f-450e-800c-f4a4c2fe0373"},"vehicle_type_id":"4","last_reported":1751573456,"current_range_meters":20000,"station_id":"ce4bhi12rcd13ifvqfp0","pricing_plan_id":"cebpf4jnsgd1na2vs0mg"},{"bike_id":"7be93d05-2405-4cfe-a0c4-c6f3670e10c7","system_id":"levelo_inurba_marseille","lat":43.21185,"lon":5.35044,"is_reserved":false,"is_disabled":false,"rental_uris":{"android":"levelo://app?vid=7be93d05-2405-4cfe-a0c4-c6f3670e10c7","ios":"levelo://app?vid=7be93d05-2405-4cfe-a0c4-c6f3670e10c7"},"vehicle_type_id":"4","last_reported":1751573456,"current_range_meters":20000,"station_id":"st_cvj6sg6p6f1abm77japg","pricing_plan_id":"cebpf4jnsgd1na2vs0mg"},{"bike_id":"2e18043f-930d-4669-a5b9-fe55d2e7b1b6","system_id":"levelo_inurba_marseille","lat":43.29036,"lon":5.39962,"is_reserved":false,"is_disabled":false,"rental_uris":{"android":"levelo://app?vid=2e18043f-930d-4669-a5b9-fe55d2e7b1b6","ios":"levelo://app?vid=2e18043f-930d-4669-a5b9-fe55d2e7b1b6"},"vehicle_type_id":"4","last_reported":1751573456,"current_range_meters":20400,"station_id":"ce4bh392rcd13ifvqdm0","pricing_plan_id":"cebpf4jnsgd1na2vs0mg"},{"bike_id":"7a17cd09-e49e-432d-8ffb-e2a5be6510e0","system_id":"levelo_inurba_marseille","lat":43.288907,"lon":5.361121,"is_reserved":false,"is_disabled":false,"rental_uris":{"android":"levelo://app?vid=7a17cd09-e49e-432d-8ffb-e2a5be6510e0","ios":"levelo://app?vid=7a17cd09-e49e-432d-8ffb-e2a5be6510e0"},"vehicle_type_id":"4","last_reported":1751573456,"current_range_meters":20400,"station_id":"ce4bhap2rcd13ifvqek0","pricing_plan_id":"cebpf4jnsgd1na2vs0mg"},{"bike_id":"8448df16-456f-4ece-8f85-d173378c0589","system_id":"levelo_inurba_marseille","lat":43.2862,"lon":5.3509,"is_reserved":false,"is_disabled":false,"rental_uris":{"android":"levelo://app?vid=8448df16-456f-4ece-8f85-d173378c0589","ios":"levelo://app?vid=8448df16-456f-4ece-8f85-d173378c0589"},"vehicle_type_id":"4","last_reported":1751573456,"current_range_meters":20400,"station_id":"ce4bhch2rcd13ifvqeug","pricing_plan_id":"cebpf4jnsgd1na2vs0mg"},{"bike_id":"f4eac2b7-5f74-4287-839b-583e6430f174","system_id":"levelo_inurba_marseille","lat":43.23964,"lon":5.36627,"is_reserved":false,"is_disabled":false,"rental_uris":{"android":"levelo://app?vid=f4eac2b7-5f74-4287-839b-583e6430f174","ios":"levelo://app?vid=f4eac2b7-5f74-4287-839b-583e6430f174"},"vehicle_type_id":"4","last_reported":1751573456,"current_range_meters":20400,"station_id":"ce4bhi12rcd13ifvqfp0","pricing_plan_id":"cebpf4jnsgd1na2vs0mg"},{"bike_id":"19c18197-0e5c-4258-a69a-49088ad8ab80","system_id":"levelo_inurba_marseille","lat":43.29784,"lon":5.37108,"is_reserved":false,"is_disabled":false,"rental_uris":{"android":"levelo://app?vid=19c18197-0e5c-4258-a69a-49088ad8ab80","ios":"levelo://app?vid=19c18197-0e5c-4258-a69a-49088ad8ab80"},"vehicle_type_id":"4","last_reported":1751573456,"current_range_meters":20800,"station_id":"ce4bgop2rcd13ifvqc1g","pricing_plan_id":"cebpf4jnsgd1na2vs0mg"},{"bike_id":"ac8bf242-afc4-4c2e-8e86-62c38679610e","system_id":"levelo_inurba_marseille","lat":43.29986,"lon":5.37166,"is_reserved":false,"is_disabled":false,"rental_uris":{"android":"levelo://app?vid=ac8bf242-afc4-4c2e-8e86-62c38679610e","ios":"levelo://app?vid=ac8bf242-afc4-4c2e-8e86-62c38679610e"},"vehicle_type_id":"4","last_reported":1751573456,"current_range_meters":20800,"station_id":"ce4bgr92rcd13ifvqc7g","pricing_plan_id":"cebpf4jnsgd1na2vs0mg"},{"bike_id":"8c82c1b1-d9f5-4007-9292-5232ccedad46","system_id":"levelo_inurba_marseille","lat":43.30882,"lon":5.37202,"is_reserved":false,"is_disabled":false,"rental_uris":{"android":"levelo://app?vid=8c82c1b1-d9f5-4007-9292-5232ccedad46","ios":"levelo://app?vid=8c82c1b1-d9f5-4007-9292-5232ccedad46"},"vehicle_type_id":"4","last_reported":1751573456,"current_range_meters":20800,"station_id":"ce4bguh2rcd13ifvqckg","pricing_plan_id":"cebpf4jnsgd1na2vs0mg"},{"bike_id":"13c3f892-6fa6-44fa-9a97-86d3782ccd91","system_id":"levelo_inurba_marseille","lat":43.27496,"lon":5.42449,"is_reserved":false,"is_disabled":false,"rental_uris":{"android":"levelo://app?vid=13c3f892-6fa6-44fa-9a97-86d3782ccd91","ios":"levelo://app?vid=13c3f892-6fa6-44fa-9a97-86d3782ccd91"},"vehicle_type_id":"4","last_reported":1751573456,"current_range_meters":20800,"station_id":"ce4bhn92rcd13ifvqgrg","pricing_plan_id":"cebpf4jnsgd1na2vs0mg"},{"bike_id":"5f470112-8139-4343-b082-08a74e0b7074","system_id":"levelo_inurba_marseille","lat":43.2118,"lon":5.35076,"is_reserved":false,"is_disabled":false,"rental_uris":{"android":"levelo://app?vid=5f470112-8139-4343-b082-08a74e0b7074","ios":"levelo://app?vid=5f470112-8139-4343-b082-08a74e0b7074"},"vehicle_type_id":"4","last_reported":1751573456,"current_range_meters":20800,"station_id":"st_cvj6sg6p6f1abm77japg","pricing_plan_id":"cebpf4jnsgd1na2vs0mg"},{"bike_id":"e622dda8-2acc-494a-9c3c-68f2601d8cd5","system_id":"levelo_inurba_marseille","lat":43.292182,"lon":5.376506,"is_reserved":false,"is_disabled":false,"rental_uris":{"android":"levelo://app?vid=e622dda8-2acc-494a-9c3c-68f2601d8cd5","ios":"levelo://app?vid=e622dda8-2acc-494a-9c3c-68f2601d8cd5"},"vehicle_type_id":"4","last_reported":1751573456,"current_range_meters":21600,"station_id":"","pricing_plan_id":"cebpf4jnsgd1na2vs0mg"},{"bike_id":"4a48da3d-a47a-4741-9ae7-8c81693f3bb4","system_id":"levelo_inurba_marseille","lat":43.27619,"lon":5.36096,"is_reserved":false,"is_disabled":false,"rental_uris":{"android":"levelo://app?vid=4a48da3d-a47a-4741-9ae7-8c81693f3bb4","ios":"levelo://app?vid=4a48da3d-a47a-4741-9ae7-8c81693f3bb4"},"vehicle_type_id":"4","last_reported":1751573456,"current_range_meters":21600,"station_id":"ce4bgj92rcd13ifvqbe0","pricing_plan_id":"cebpf4jnsgd1na2vs0mg"},{"bike_id":"2a8ac0e7-0843-4ac4-83f9-31f25b139ba1","system_id":"levelo_inurba_marseille","lat":43.29933,"lon":5.37459,"is_reserved":false,"is_disabled":false,"rental_uris":{"android":"levelo://app?vid=2a8ac0e7-0843-4ac4-83f9-31f25b139ba1","ios":"levelo://app?vid=2a8ac0e7-0843-4ac4-83f9-31f25b139ba1"},"vehicle_type_id":"4","last_reported":1751573456,"current_range_meters":21600,"station_id":"ce4bgjh2rcd13ifvqbg0","pricing_plan_id":"cebpf4jnsgd1na2vs0mg"},{"bike_id":"933b7b82-6e6a-4010-8914-7b475bb02de8","system_id":"levelo_inurba_marseille","lat":43.2847,"lon":5.35893,"is_reserved":false,"is_disabled":false,"rental_uris":{"android":"levelo://app?vid=933b7b82-6e6a-4010-8914-7b475bb02de8","ios":"levelo://app?vid=933b7b82-6e6a-4010-8914-7b475bb02de8"},"vehicle_type_id":"4","last_reported":1751573456,"current_range_meters":21600,"station_id":"ce4bhah2rcd13ifvqei0","pricing_plan_id":"cebpf4jnsgd1na2vs0mg"},{"bike_id":"13aa60e7-ea27-4ef8-b01b-2858f0c10ec4","system_id":"levelo_inurba_marseille","lat":43.286188,"lon":5.351071,"is_reserved":false,"is_disabled":false,"rental_uris":{"android":"levelo://app?vid=13aa60e7-ea27-4ef8-b01b-2858f0c10ec4","ios":"levelo://app?vid=13aa60e7-ea27-4ef8-b01b-2858f0c10ec4"},"vehicle_type_id":"4","last_reported":1751573456,"current_range_meters":21600,"station_id":"ce4bhch2rcd13ifvqeug","pricing_plan_id":"cebpf4jnsgd1na2vs0mg"},{"bike_id":"9f9b4b6b-fc02-4866-bcb0-736521c7b409","system_id":"levelo_inurba_marseille","lat":43.31717,"lon":5.42406,"is_reserved":false,"is_disabled":false,"rental_uris":{"android":"levelo://app?vid=9f9b4b6b-fc02-4866-bcb0-736521c7b409","ios":"levelo://app?vid=9f9b4b6b-fc02-4866-bcb0-736521c7b409"},"vehicle_type_id":"4","last_reported":1751573456,"current_range_meters":21600,"station_id":"ce4bhp92rcd13ifvqhbg","pricing_plan_id":"cebpf4jnsgd1na2vs0mg"},{"bike_id":"07f7fbed-5fcc-4102-97b7-f1bf37fc1cfe","system_id":"levelo_inurba_marseille","lat":43.32067,"lon":5.41526,"is_reserved":false,"is_disabled":false,"rental_uris":{"android":"levelo://app?vid=07f7fbed-5fcc-4102-97b7-f1bf37fc1cfe","ios":"levelo://app?vid=07f7fbed-5fcc-4102-97b7-f1bf37fc1cfe"},"vehicle_type_id":"4","last_reported":1751573456,"current_range_meters":21600,"station_id":"ce4bhq92rcd13ifvqhkg","pricing_plan_id":"cebpf4jnsgd1na2vs0mg"},{"bike_id":"883028a2-fb18-4c21-87b4-59f88d981de6","system_id":"levelo_inurba_marseille","lat":43.282676,"lon":5.350597,"is_reserved":false,"is_disabled":false,"rental_uris":{"android":"levelo://app?vid=883028a2-fb18-4c21-87b4-59f88d981de6","ios":"levelo://app?vid=883028a2-fb18-4c21-87b4-59f88d981de6"},"vehicle_type_id":"4","last_reported":1751573456,"current_range_meters":22000,"station_id":"ce4bh292rcd13ifvqdf0","pricing_plan_id":"cebpf4jnsgd1na2vs0mg"},{"bike_id":"25d65b54-2483-49ad-9e8c-b4102ded682f","system_id":"levelo_inurba_marseille","lat":43.21196,"lon":5.35056,"is_reserved":false,"is_disabled":false,"rental_uris":{"android":"levelo://app?vid=25d65b54-2483-49ad-9e8c-b4102ded682f","ios":"levelo://app?vid=25d65b54-2483-49ad-9e8c-b4102ded682f"},"vehicle_type_id":"4","last_reported":1751573456,"current_range_meters":22000,"station_id":"st_cvj6sg6p6f1abm77japg","pricing_plan_id":"cebpf4jnsgd1na2vs0mg"},