{"last_updated":1736060887,"ttl":60,"version":"2.2","data":{"bikes":[{"bike_id":"6892dc0d-7687-4f90-b4ef-9157386cfd5c","system_id":"levelo_inurba_marseille","lat":43.27062,"lon":5.42274,"is_reserved":false,"is_disabled":false,"rental_uris":{"android":"levelo://app?vid=6892dc0d-7687-4f90-b4ef-9157386cfd5c","ios":"levelo://app?vid=6892dc0d-7687-4f90-b4ef-9157386cfd5c"},"vehicle_type_id":"4","last_reported":1736060888,"current_range_meters":32800,"station_id":"ce4bhk92rcd13ifvqgb0","pricing_plan_id":"cebpf4jnsgd1na2vs0mg"},{"bike_id":"8f29603c-5d9a-4bc6-963d-711ada2a168a","system_id":"levelo_inurba_marseille","lat":43.24631,"lon":5.39833,"is_reserved":false,"is_disabled":true,"rental_uris":{"android":"levelo://app?vid=8f29603c-5d9a-4bc6-963d-711ada2a168a","ios":"levelo://app?vid=8f29603c-5d9a-4bc6-963d-711ada2a168a"},"vehicle_type_id":"4","last_reported":1736060888,"current_range_meters":26000,"station_id":"","pricing_plan_id":"cebpf4jnsgd1na2vs0mg"},{"bike_id":"eb00114d-571c-4297-8268-f06ce8f1a863","system_id":"levelo_inurba_marseille","lat":43.287017,"lon":5.399886,"is_reserved":false,"is_disabled":false,"rental_uris":{"android":"levelo://app?vid=eb00114d-571c-4297-8268-f06ce8f1a863","ios":"levelo://app?vid=eb00114d-571c-4297-8268-f06ce8f1a863"},"vehicle_type_id":"4","last_reported":1736060888,"current_range_meters":38800,"station_id":"ce4bho92rcd13ifvqh3g","pricing_plan_id":"cebpf4jnsgd1na2vs0mg"},{"bike_id":"4517f105-c6cd-42b4-a2b8-453f0a872c81","system_id":"levelo_inurba_marseille","lat":43.24664,"lon":5.38155,"is_reserved":false,"is_disabled":false,"rental_uris":{"android":"levelo://app?vid=4517f105-c6cd-42b4-a2b8-453f0a872c81","ios":"levelo://app?vid=4517f105-c6cd-42b4-a2b8-453f0a872c81"},"vehicle_type_id":"4","last_reported":1736060888,"current_range_meters":19600,"station_id":"ce4bhih2rcd13ifvqfr0","pricing_plan_id":"cebpf4jnsgd1na2vs0mg"},{"bike_id":"f0944754-9899-48b4-b17d-52c4d6db885f","system_id":"levelo_inurba_marseille","lat":43.28411,"lon":5.375253,"is_reserved":false,"is_disabled":false,"rental_uris":{"android":"levelo://app?vid=f0944754-9899-48b4-b17d-52c4d6db885f","ios":"levelo://app?vid=f0944754-9899-48b4-b17d-52c4d6db885f"},"vehicle_type_id":"4","last_reported":1736060888,"current_range_meters":25600,"station_id":"ce4bh412rcd13ifvqds0","pricing_plan_id":"cebpf4jnsgd1na2vs0mg"},{"bike_id":"62d210b5-9cc3-4fe2-abdc-985bb2629f07","system_id":"levelo_inurba_marseille","lat":43.30539,"lon":5.384296,"is_reserved":false,"is_disabled":false,"rental_uris":{"android":"levelo://app?vid=62d210b5-9cc3-4fe2-abdc-985bb2629f07","ios":"levelo://app?vid=62d210b5-9cc3-4fe2-abdc-985bb2629f07"},"vehicle_type_id":"4","last_reported":1736060888,"current_range_meters":28400,"station_id":"ce4bgg92rcd13ifvqb30","pricing_plan_id":"cebpf4jnsgd1na2vs0mg"},{"bike_id":"2f08c9fc-4d21-46b6-8ae3-3acb81bd9994","system_id":"levelo_inurba_marseille","lat":43.324823,"lon":5.365796,"is_reserved":false,"is_disabled":false,"rental_uris":{"android":"levelo://app?vid=2f08c9fc-4d21-46b6-8ae3-3acb81bd9994","ios":"levelo://app?vid=2f08c9fc-4d21-46b6-8ae3-3acb81bd9994"},"vehicle_type_id":"4","last_reported":1736060888,"current_range_meters":38800,"station_id":"ce4bhs12rcd13ifvqhvg","pricing_plan_id":"cebpf4jnsgd1na2vs0mg"},{"bike_id":"f9d53c10-52e1-470c-9b0e-aa8c8e99c505","system_id":"levelo_inurba_marseille","lat":43.285625,"lon":5.395024,"is_reserved":false,"is_disabled":false,"rental_uris":{"android":"levelo://app?vid=f9d53c10-52e1-470c-9b0e-aa8c8e99c505","ios":"levelo://app?vid=f9d53c10-52e1-470c-9b0e-aa8c8e99c505"},"vehicle_type_id":"4","last_reported":1736060888,"current_range_meters":38800,"station_id":"ce4bh292rcd13ifvqdg0","pricing_plan_id":"cebpf4jnsgd1na2vs0mg"},{"bike_id":"91037f15-fe17-4186-85a2-9e0438c13c3d","system_id":"levelo_inurba_marseille","lat":43.272101,"lon":5.392608,"is_reserved":false,"is_disabled":false,"rental_uris":{"android":"levelo://app?vid=91037f15-fe17-4186-85a2-9e0438c13c3d","ios":"levelo://app?vid=91037f15-fe17-4186-85a2-9e0438c13c3d"},"vehicle_type_id":"4","last_reported":1736060888,"current_range_meters":2800,"station_id":"ce4bhhp2rcd13ifvqfm0","pricing_plan_id":"cebpf4jnsgd1na2vs0mg"},{"bike_id":"96819284-f5f8-4223-80ce-09c6b9721901","system_id":"levelo_inurba_marseille","lat":43.30139,"lon":5.37411,"is_reserved":false,"is_disabled":false,"rental_uris":{"android":"levelo://app?vid=96819284-f5f8-4223-80ce-09c6b9721901","ios":"levelo://app?vid=96819284-f5f8-4223-80ce-09c6b9721901"},"vehicle_type_id":"4","last_reported":1736060888,"current_range_meters":24000,"station_id":"ce4bgs92rcd13ifvqcc0","pricing_plan_id":"cebpf4jnsgd1na2vs0mg"},{"bike_id":"e623d705-5f5c-40fb-a0c9-a5df117e256a","system_id":"levelo_inurba_marseille","lat":43.283722,"lon":5.386395,"is_reserved":false,"is_disabled":false,"rental_uris":{"android":"levelo://app?vid=e623d705-5f5c-40fb-a0c9-a5df117e256a","ios":"levelo://app?vid=e623d705-5f5c-40fb-a0c9-a5df117e256a"},"vehicle_type_id":"4","last_reported":1736060888,"current_range_meters":38000,"station_id":"ce4bh492rcd13ifvqdvg","pricing_plan_id":"cebpf4jnsgd1na2vs0mg"},{"bike_id":"4a2d6c53-65a8-4668-acbf-5900d13e8a7e","system_id":"levelo_inurba_marseille","lat":43.311735,"lon":5.38712,"is_reserved":false,"is_disabled":false,"rental_uris":{"android":"levelo://app?vid=4a2d6c53-65a8-4668-acbf-5900d13e8a7e","ios":"levelo://app?vid=4a2d6c53-65a8-4668-acbf-5900d13e8a7e"},"vehicle_type_id":"4","last_reported":1736060888,"current_range_meters":29600,"station_id":"ce4bgv12rcd13ifvqcp0","pricing_plan_id":"cebpf4jnsgd1na2vs0mg"},{"bike_id":"eb554a29-0db3-442a-bad5-c7e547190322","system_id":"levelo_inurba_marseille","lat":43.30597,"lon":5.37218,"is_reserved":false,"is_disabled":false,"rental_uris":{"android":"levelo://app?vid=eb554a29-0db3-442a-bad5-c7e547190322","ios":"levelo://app?vid=eb554a29-0db3-442a-bad5-c7e547190322"},"vehicle_type_id":"4","last_reported":1736060888,"current_range_meters":38800,"station_id":"ce4bgqh2rcd13ifvqc4g","pricing_plan_id":"cebpf4jnsgd1na2vs0mg"},{"bike_id":"304aa64a-4e8e-488b-aff7-fb68ff39ec9c","system_id":"levelo_inurba_marseille","lat":43.27664,"lon":5.38898,"is_reserved":false,"is_disabled":false,"rental_uris":{"android":"levelo://app?vid=304aa64a-4e8e-488b-aff7-fb68ff39ec9c","ios":"levelo://app?vid=304aa64a-4e8e-488b-aff7-fb68ff39ec9c"},"vehicle_type_id":"4","last_reported":1736060888,"current_range_meters":37600,"station_id":"ce4bhi12rcd13ifvqfo0","pricing_plan_id":"cebpf4jnsgd1na2vs0mg"},{"bike_id":"bcf0bc77-feb4-4e25-93da-4721812265a5","system_id":"levelo_inurba_marseille","lat":43.29855,"lon":5.36268,"is_reserved":false,"is_disabled":false,"rental_uris":{"android":"levelo://app?vid=bcf0bc77-feb4-4e25-93da-4721812265a5","ios":"levelo://app?vid=bcf0bc77-feb4-4e25-93da-4721812265a5"},"vehicle_type_id":"4","last_reported":1736060888,"current_range_meters":38800,"station_id":"ce4bgpp2rcd13ifvqc3g","pricing_plan_id":"cebpf4jnsgd1na2vs0mg"},{"bike_id":"522026ea-aa7c-40b4-a8ac-853f513f32ea","system_id":"levelo_inurba_marseille","lat":43.292523,"lon":5.409124,"is_reserved":false,"is_disabled":false,"rental_uris":{"android":"levelo://app?vid=522026ea-aa7c-40b4-a8ac-853f513f32ea","ios":"levelo://app?vid=522026ea-aa7c-40b4-a8ac-853f513f32ea"},"vehicle_type_id":"4","last_reported":1736060888,"current_range_meters":38800,"station_id":"ce4bh192rcd13ifvqdc0","pricing_plan_id":"cebpf4jnsgd1na2vs0mg"},{"bike_id":"aebbc45c-04c0-4c80-b6a5-56c1582fcd00","system_id":"levelo_inurba_marseille","lat":43.243888,"lon":5.370691,"is_reserved":false,"is_disabled":false,"rental_uris":{"android":"levelo://app?vid=aebbc45c-04c0-4c80-b6a5-56c1582fcd00","ios":"levelo://app?vid=aebbc45c-04c0-4c80-b6a5-56c1582fcd00"},"vehicle_type_id":"4","last_reported":1736060888,"current_range_meters":36800,"station_id":"ce4bhhh2rcd13ifvqfk0","pricing_plan_id":"cebpf4jnsgd1na2vs0mg"},{"bike_id":"e0ae16ed-6948-4471-89b0-5636e552028b","system_id":"levelo_inurba_marseille","lat":43.28717,"lon":5.39974,"is_reserved":false,"is_disabled":false,"rental_uris":{"android":"levelo://app?vid=e0ae16ed-6948-4471-89b0-5636e552028b","ios":"levelo://app?vid=e0ae16ed-6948-4471-89b0-5636e552028b"},"vehicle_type_id":"4","last_reported":1736060888,"current_range_meters":36800,"station_id":"ce4bho92rcd13ifvqh3g","pricing_plan_id":"cebpf4jnsgd1na2vs0mg"},{"bike_id":"cfa9ca20-27d4-44a2-a7d9-d2b75ed2f4ac","system_id":"levelo_inurba_marseille","lat":43.310641,"lon":5.383528,"is_reserved":false,"is_disabled":true,"rental_uris":{"android":"levelo://app?vid=cfa9ca20-27d4-44a2-a7d9-d2b75ed2f4ac","ios":"levelo://app?vid=cfa9ca20-27d4-44a2-a7d9-d2b75ed2f4ac"},"vehicle_type_id":"4","last_reported":1736060888,"current_range_meters":8400,"station_id":"ce4bgv92rcd13ifvqcr0","pricing_plan_id":"cebpf4jnsgd1na2vs0mg"},{"bike_id":"2e3020fc-739e-484f-aff1-968aa18f2ac1","system_id":"levelo_inurba_marseille","lat":43.279884,"lon":5.416538,"is_reserved":false,"is_disabled":true,"rental_uris":{"android":"levelo://app?vid=2e3020fc-739e-484f-aff1-968aa18f2ac1","ios":"levelo://app?vid=2e3020fc-739e-484f-aff1-968aa18f2ac1"},"vehicle_type_id":"4","last_reported":1736060888,"current_range_meters":6000,"station_id":"ce4bho12rcd13ifvqh1g","pricing_plan_id":"cebpf4jnsgd1na2vs0mg"},{"bike_id":"e6cb2bb8-6979-4b6e-ad79-ed4106882d63","system_id":"levelo_inurba_marseille","lat":43.26493,"lon":5.39541,"is_reserved":false,"is_disabled":false,"rental_uris":{"android":"levelo://app?vid=e6cb2bb8-6979-4b6e-ad79-ed4106882d63","ios":"levelo://app?vid=e6cb2bb8-6979-4b6e-ad79-ed4106882d63"},"vehicle_type_id":"4","last_reported":1736060888,"current_range_meters":33200,"station_id":"ce4bhi12rcd13ifvqfq0","pricing_plan_id":"cebpf4jnsgd1na2vs0mg"},{"bike_id":"5fe1a43d-98df-40c8-ba1d-eed9b668c71e","system_id":"levelo_inurba_marseille","lat":43.287045,"lon":5.399923,"is_reserved":false,"is_disabled":false,"rental_uris":{"android":"levelo://app?vid=5fe1a43d-98df-40c8-ba1d-eed9b668c71e","ios":"levelo://app?vid=5fe1a43d-98df-40c8-ba1d-eed9b668c71e"},"vehicle_type_id":"4","last_reported":1736060888,"current_range_meters":37600,"station_id":"ce4bho92rcd13ifvqh3g","pricing_plan_id":"cebpf4jnsgd1na2vs0mg"},{"bike_id":"a0adb3c4-caf9-464d-8f3e-6b5be1eb9699","system_id":"levelo_inurba_marseille","lat":43.251158,"lon":5.403266,"is_reserved":false,"is_disabled":false,"rental_uris":{"android":"levelo://app?vid=a0adb3c4-caf9-464d-8f3e-6b5be1eb9699","ios":"levelo://app?vid=a0adb3c4-caf9-464d-8f3e-6b5be1eb9699"},"vehicle_type_id":"4","last_reported":1736060888,"current_range_meters":38800,"station_id":"ce4bhlh2rcd13ifvqgig","pricing_plan_id":"cebpf4jnsgd1na2vs0mg"},{"bike_id":"593d8424-f565-422e-8480-e0f50e2c043e","system_id":"levelo_inurba_marseille","lat":43.27938,"lon":5.38667,"is_reserved":false,"is_disabled":true,"rental_uris":{"android":"levelo://app?vid=593d8424-f565-422e-8480-e0f50e2c043e","ios":"levelo://app?vid=593d8424-f565-422e-8480-e0f50e2c043e"},"vehicle_type_id":"4","last_reported":1736060888,"current_range_meters":35200,"station_id":"","pricing_plan_id":"cebpf4jnsgd1na2vs0mg"},{"bike_id":"a944f865-f260-4d6e-8bfb-34b22d4c0ecd","system_id":"levelo_inurba_marseille","lat":43.30195,"lon":5.36618,"is_reserved":false,"is_disabled":true,"rental_uris":{"android":"levelo://app?vid=a944f865-f260-4d6e-8bfb-34b22d4c0ecd","ios":"levelo://app?vid=a944f865-f260-4d6e-8bfb-34b22d4c0ecd"},"vehicle_type_id":"4","last_reported":1736060888,"current_range_meters":32000,"station_id":"ce4bgrh2rcd13ifvqc8g","pricing_plan_id":"cebpf4jnsgd1na2vs0mg"},{"bike_id":"8cdc1ef2-0806-4959-9c23-8b6d5fa7df18","system_id":"levelo_inurba_marseille","lat":43.32652,"lon":5.40992,"is_reserved":false,"is_disabled":false,"rental_uris":{"android":"levelo://app?vid=8cdc1ef2-0806-4959-9c23-8b6d5fa7df18","ios":"levelo://app?vid=8cdc1ef2-0806-4959-9c23-8b6d5fa7df18"},"vehicle_type_id":"4","last_reported":1736060888,"current_range_meters":38400,"station_id":"ce4bhpp2rcd13ifvqhgg","pricing_plan_id":"cebpf4jnsgd1na2vs0mg"},{"bike_id":"11a2eb82-99a1-42d5-83a9-0353405f227e","system_id":"levelo_inurba_marseille","lat":43.32476,"lon":5.36657,"is_reserved":false,"is_disabled":false,"rental_uris":{"android":"levelo://app?vid=11a2eb82-99a1-42d5-83a9-0353405f227e","ios":"levelo://app?vid=11a2eb82-99a1-42d5-83a9-0353405f227e"},"vehicle_type_id":"4","last_reported":1736060888,"current_range_meters":3200,"station_id":"","pricing_plan_id":"cebpf4jnsgd1na2vs0mg"},{"bike_id":"27fbe8da-5e59-4be3-b3b2-a66506df755f","system_id":"levelo_inurba_marseille","lat":43.289295,"lon":5.363936,"is_reserved":false,"is_disabled":false,"rental_uris":{"android":"levelo://app?vid=27fbe8da-5e59-4be3-b3b2-a66506df755f","ios":"levelo://app?vid=27fbe8da-5e59-4be3-b3b2-a66506df755f"},"vehicle_type_id":"4","last_reported":1736060888,"current_range_meters":38000,"station_id":"ce4bhc92rcd13ifvqetg","pricing_plan_id":"cebpf4jnsgd1na2vs0mg"},{"bike_id":"6a02207a-d457-46a8-9214-cda56e934d4e","system_id":"levelo_inurba_marseille","lat":43.28322,"lon":5.38153,"is_reserved":false,"is_disabled":false,"rental_uris":{"android":"levelo://app?vid=6a02207a-d457-46a8-9214-cda56e934d4e","ios":"levelo://app?vid=6a02207a-d457-46a8-9214-cda56e934d4e"},"vehicle_type_id":"4","last_reported":1736060888,"current_range_meters":39200,"station_id":"ce4bh412rcd13ifvqdr0","pricing_plan_id":"cebpf4jnsgd1na2vs0mg"},{"bike_id":"43154997-c200-4bb7-bede-ab4e4a1c2437","system_id":"levelo_inurba_marseille","lat":43.3024,"lon":5.40089,"is_reserved":false,"is_disabled":false,"rental_uris":{"android":"levelo://app?vid=43154997-c200-4bb7-bede-ab4e4a1c2437","ios":"levelo://app?vid=43154997-c200-4bb7-bede-ab4e4a1c2437"},"vehicle_type_id":"4","last_reported":1736060888,"current_range_meters":24400,"station_id":"ce4bgvh2rcd13ifvqcs0","pricing_plan_id":"cebpf4jnsgd1na2vs0mg"},{"bike_id":"59c9dce1-2489-492d-a14d-6f2b76d238b3","system_id":"levelo_inurba_marseille","lat":43.308,"lon":5.43522,"is_reserved":false,"is_disabled":false,"rental_uris":{"android":"levelo://app?vid=59c9dce1-2489-492d-a14d-6f2b76d238b3","ios":"levelo://app?vid=59c9dce1-2489-492d-a14d-6f2b76d238b3"},"vehicle_type_id":"4","last_reported":1736060888,"current_range_meters":25200,"station_id":"ce4bhph2rcd13ifvqheg","pricing_plan_id":"cebpf4jnsgd1na2vs0mg"},{"bike_id":"bd6129bf-314d-4ef8-9afc-2247af7e71b3","system_id":"levelo_inurba_marseille","lat":43.31357,"lon":5.36724,"is_reserved":false,"is_disabled":false,"rental_uris":{"android":"levelo://app?vid=bd6129bf-314d-4ef8-9afc-2247af7e71b3","ios":"levelo://app?vid=bd6129bf-314d-4ef8-9afc-2247af7e71b3"},"vehicle_type_id":"4","last_reported":1736060888,"current_range_meters":32800,"station_id":"ce4bgr92rcd13ifvqc6g","pricing_plan_id":"cebpf4jnsgd1na2vs0mg"},{"bike_id":"11bab6b1-8f19-4376-9cab-a89cad5be186","system_id":"levelo_inurba_marseille","lat":43.3247,"lon":5.36589,"is_reserved":false,"is_disabled":false,"rental_uris":{"android":"levelo://app?vid=11bab6b1-8f19-4376-9cab-a89cad5be186","ios":"levelo://app?vid=11bab6b1-8f19-4376-9cab-a89cad5be186"},"vehicle_type_id":"4","last_reported":1736060888,"current_range_meters":35600,"station_id":"ce4bhs12rcd13ifvqhvg","pricing_plan_id":"cebpf4jnsgd1na2vs0mg"},{"bike_id":"9bd04c4d-bba3-44a3-88b7-e0bf363fe6b8","system_id":"levelo_inurba_marseille","lat":43.24653,"lon":5.38153,"is_reserved":false,"is_disabled":false,"rental_uris":{"android":"levelo://app?vid=9bd04c4d-bba3-44a3-88b7-e0bf363fe6b8","ios":"levelo://app?vid=9bd04c4d-bba3-44a3-88b7-e0bf363fe6b8"},"vehicle_type_id":"4","last_reported":1736060888,"current_range_meters":34000,"station_id":"ce4bhih2rcd13ifvqfr0","pricing_plan_id":"cebpf4jnsgd1na2vs0mg"},{"bike_id":"ab68ed21-148d-4a0e-ae51-a2dd92014de0","system_id":"levelo_inurba_marseille","lat":43.24992,"lon":5.3893,"is_reserved":false,"is_disabled":true,"rental_uris":{"android":"levelo://app?vid=ab68ed21-148d-4a0e-ae51-a2dd92014de0","ios":"levelo://app?vid=ab68ed21-148d-4a0e-ae51-a2dd92014de0"},"vehicle_type_id":"4","last_reported":1736060888,"current_range_meters":0,"station_id":"ce4bhgp2rcd13ifvqfd0","pricing_plan_id":"cebpf4jnsgd1na2vs0mg"},{"bike_id":"f52c7654-593e-4648-8d72-c1c67a3bd0b7","system_id":"levelo_inurba_marseille","lat":43.28355,"lon":5.38109,"is_reserved":false,"is_disabled":false,"rental_uris":{"android":"levelo://app?vid=f52c7654-593e-4648-8d72-c1c67a3bd0b7","ios":"levelo://app?vid=f52c7654-593e-4648-8d72-c1c67a3bd0b7"},"vehicle_type_id":"4","last_reported":1736060888,"current_range_meters":20800,"station_id":"ce4bh412rcd13ifvqdr0","pricing_plan_id":"cebpf4jnsgd1na2vs0mg"},{"bike_id":"20bc679d-452a-4a4d-9099-08fa7a5c7260","system_id":"levelo_inurba_marseille","lat":43.27204,"lon":5.39176,"is_reserved":false,"is_disabled":false,"rental_uris":{"android":"levelo://app?vid=20bc679d-452a-4a4d-9099-08fa7a5c7260","ios":"levelo://app?vid=20bc679d-452a-4a4d-9099-08fa7a5c7260"},"vehicle_type_id":"4","last_reported":1736060888,"current_range_meters":38400,"station_id":"ce4bhhp2rcd13ifvqfm0","pricing_plan_id":"cebpf4jnsgd1na2vs0mg"},{"bike_id":"4ab67443-cbee-4eb0-9d07-bc8adadc96f0","system_id":"levelo_inurba_marseille","lat":43.30169,"lon":5.38069,"is_reserved":false,"is_disabled":false,"rental_uris":{"android":"levelo://app?vid=4ab67443-cbee-4eb0-9d07-bc8adadc96f0","ios":"levelo://app?vid=4ab67443-cbee-4eb0-9d07-bc8adadc96f0"},"vehicle_type_id":"4","last_reported":1736060888,"current_range_meters":27600,"station_id":"ce4bgjp2rcd13ifvqbh0","pricing_plan_id":"cebpf4jnsgd1na2vs0mg"},{"bike_id":"372470e7-a7ac-4457-8fc9-c101a8d2f6f6","system_id":"levelo_inurba_marseille","lat":43.28452,"lon":5.35889,"is_reserved":false,"is_disabled":false,"rental_uris":{"android":"levelo://app?vid=372470e7-a7ac-4457-8fc9-c101a8d2f6f6","ios":"levelo://app?vid=372470e7-a7ac-4457-8fc9-c101a8d2f6f6"},"vehicle_type_id":"4","last_reported":1736060888,"current_range_meters":28400,"station_id":"ce4bhah2rcd13ifvqei0","pricing_plan_id":"cebpf4jnsgd1na2vs0mg"},{"bike_id":"4d010683-2ccf-478e-baa7-c439fbf0a201","system_id":"levelo_inurba_marseille","lat":43.25713,"lon":5.41115,"is_reserved":false,"is_disabled":false,"rental_uris":{"android":"levelo://app?vid=4d010683-2ccf-478e-baa7-c439fbf0a201","ios":"levelo://app?vid=4d010683-2ccf-478e-baa7-c439fbf0a201"},"vehicle_type_id":"4","last_reported":1736060888,"current_range_meters":38400,"station_id":"ce4bhkp2rcd13ifvqgd0","pricing_plan_id":"cebpf4jnsgd1na2vs0mg"},{"bike_id":"ad036647-e9f4-4246-953d-37ee6601db50","system_id":"levelo_inurba_marseille","lat":43.24665,"lon":5.38183,"is_reserved":false,"is_disabled":false,"rental_uris":{"android":"levelo://app?vid=ad036647-e9f4-4246-953d-37ee6601db50","ios":"levelo://app?vid=ad036647-e9f4-4246-953d-37ee6601db50"},"vehicle_type_id":"4","last_reported":1736060888,"current_range_meters":27200,"station_id":"ce4bhih2rcd13ifvqfr0","pricing_plan_id":"cebpf4jnsgd1na2vs0mg"},{"bike_id":"6f8e1a1e-917a-4e12-9de1-e046faf7223b","system_id":"levelo_inurba_marseille","lat":43.28702,"lon":5.39985,"is_reserved":false,"is_disabled":false,"rental_uris":{"android":"levelo://app?vid=6f8e1a1e-917a-4e12-9de1-e046faf7223b","ios":"levelo://app?vid=6f8e1a1e-917a-4e12-9de1-e046faf7223b"},"vehicle_type_id":"4","last_reported":1736060888,"current_range_meters":37600,"station_id":"ce4bho92rcd13ifvqh3g","pricing_plan_id":"cebpf4jnsgd1na2vs0mg"},{"bike_id":"38cd62c3-7756-4e4d-b6bc-3587fcfe0ce5","system_id":"levelo_inurba_marseille","lat":43.24547,"lon":5.39516,"is_reserved":false,"is_disabled":false,"rental_uris":{"android":"levelo://app?vid=38cd62c3-7756-4e4d-b6bc-3587fcfe0ce5","ios":"levelo://app?vid=38cd62c3-7756-4e4d-b6bc-3587fcfe0ce5"},"vehicle_type_id":"4","last_reported":1736060888,"current_range_meters":20000,"station_id":"ce4bhlp2rcd13ifvqgjg","pricing_plan_id":"cebpf4jnsgd1na2vs0mg"},{"bike_id":"e23a8edf-e2ad-466c-9528-bd5f04fbfc74","system_id":"levelo_inurba_marseille","lat":43.3302,"lon":5.390326,"is_reserved":false,"is_disabled":false,"rental_uris":{"android":"levelo://app?vid=e23a8edf-e2ad-466c-9528-bd5f04fbfc74","ios":"levelo://app?vid=e23a8edf-e2ad-466c-9528-bd5f04fbfc74"},"vehicle_type_id":"4","last_reported":1736060888,"current_range_meters":36000,"station_id":"ce4bhr92rcd13ifvqhrg","pricing_plan_id":"cebpf4jnsgd1na2vs0mg"},{"bike_id":"d5b42207-8f9e-454e-85d7-a83f6e0f47f8","system_id":"levelo_inurba_marseille","lat":43.30626,"lon":5.39235,"is_reserved":false,"is_disabled":false,"rental_uris":{"android":"levelo://app?vid=d5b42207-8f9e-454e-85d7-a83f6e0f47f8","ios":"levelo://app?vid=d5b42207-8f9e-454e-85d7-a83f6e0f47f8"},"vehicle_type_id":"4","last_reported":1736060888,"current_range_meters":17600,"station_id":"","pricing_plan_id":"cebpf4jnsgd1na2vs0mg"},{"bike_id":"1b7d2371-0eba-4a43-8133-800073020b26","system_id":"levelo_inurba_marseille","lat":43.31524,"lon":5.38049,"is_reserved":false,"is_disabled":false,"rental_uris":{"android":"levelo://app?vid=1b7d2371-0eba-4a43-8133-800073020b26","ios":"levelo://app?vid=1b7d2371-0eba-4a43-8133-800073020b26"},"vehicle_type_id":"4","last_reported":1736060888,"current_range_meters":30800,"station_id":"ce4bhsp2rcd13ifvqi50","pricing_plan_id":"cebpf4jnsgd1na2vs0mg"},{"bike_id":"e90e8176-549e-46cc-abcc-f47579d6bb26","system_id":"levelo_inurba_marseille","lat":43.29961,"lon":5.36545,"is_reserved":false,"is_disabled":false,"rental_uris":{"android":"levelo://app?vid=e90e8176-549e-46cc-abcc-f47579d6bb26","ios":"levelo://app?vid=e90e8176-549e-46cc-abcc-f47579d6bb26"},"vehicle_type_id":"4","last_reported":1736060888,"current_range_meters":33600,"station_id":"ce4bgm92rcd13ifvqbr0","pricing_plan_id":"cebpf4jnsgd1na2vs0mg"},{"bike_id":"66d3e1ef-7727-44f9-b619-eeddb54c1fba","system_id":"levelo_inurba_marseille","lat":43.30443,"lon":5.38894,"is_reserved":false,"is_disabled":true,"rental_uris":{"android":"levelo://app?vid=66d3e1ef-7727-44f9-b619-eeddb54c1fba","ios":"levelo://app?vid=66d3e1ef-7727-44f9-b619-eeddb54c1fba"},"vehicle_type_id":"4","last_reported":1736060888,"current_range_meters":11600,"station_id":"ce4bgk12rcd13ifvqbi0","pricing_plan_id":"cebpf4jnsgd1na2vs0mg"},{"bike_id":"26b41503-840d-4ad8-aa30-43d0b2acc4fb","system_id":"levelo_inurba_marseille","lat":43.28704,"lon":5.39989,"is_reserved":false,"is_disabled":false,"rental_uris":{"android":"levelo://app?vid=26b41503-840d-4ad8-aa30-43d0b2acc4fb","ios":"levelo://app?vid=26b41503-840d-4ad8-aa30-43d0b2acc4fb"},"vehicle_type_id":"4","last_reported":1736060888,"current_range_meters":35200,"station_id":"ce4bho92rcd13ifvqh3g","pricing_plan_id":"cebpf4jnsgd1na2vs0mg"},{"bike_id":"dc689cfa-19f0-4e01-94c9-41d3363191b6","system_id":"levelo_inurba_marseille","lat":43.30138,"lon":5.39867,"is_reserved":false,"is_disabled":false,"rental_uris":{"android":"levelo://app?vid=dc689cfa-19f0-4e01-94c9-41d3363191b6","ios":"levelo://app?vid=dc689cfa-19f0-4e01-94c9-41d3363191b6"},"vehicle_type_id":"4","last_reported":1736060888,"current_range_meters":38800,"station_id":"ce4bh0h2rcd13ifvqd40","pricing_plan_id":"cebpf4jnsgd1na2vs0mg"},{"bike_id":"429bb27f-3ae8-4cd2-93b0-17beb566ac92","system_id":"levelo_inurba_marseille","lat":43.302,"lon":5.39499,"is_reserved":false,"is_disabled":false,"rental_uris":{"android":"levelo://app?vid=429bb27f-3ae8-4cd2-93b0-17beb566ac92","ios":"levelo://app?vid=429bb27f-3ae8-4cd2-93b0-17beb566ac92"},"vehicle_type_id":"4","last_reported":1736060888,"current_range_meters":38800,"station_id":"ce4bh0p2rcd13ifvqd70","pricing_plan_id":"cebpf4jnsgd1na2vs0mg"},{"bike_id":"683c3a18-2fe8-4db2-829b-d8065bc8adc1","system_id":"levelo_inurba_marseille","lat":43.240661,"lon":5.377642,"is_reserved":false,"is_disabled":false,"rental_uris":{"android":"levelo://app?vid=683c3a18-2fe8-4db2-829b-d8065bc8adc1","ios":"levelo://app?vid=683c3a18-2fe8-4db2-829b-d8065bc8adc1"},"vehicle_type_id":"4","last_reported":1736060888,"current_range_meters":38800,"station_id":"ce4bhnp2rcd13ifvqgvg","pricing_plan_id":"cebpf4jnsgd1na2vs0mg"},{"bike_id":"9b48d9b4-5573-4732-8354-fd300e25b8cd","system_id":"levelo_inurba_marseille","lat":43.31164,"lon":5.38708,"is_reserved":false,"is_disabled":false,"rental_uris":{"android":"levelo://app?vid=9b48d9b4-5573-4732-8354-fd300e25b8cd","ios":"levelo://app?vid=9b48d9b4-5573-4732-8354-fd300e25b8cd"},"vehicle_type_id":"4","last_reported":1736060888,"current_range_meters":28000,"station_id":"ce4bgv12rcd13ifvqcp0","pricing_plan_id":"cebpf4jnsgd1na2vs0mg"},{"bike_id":"e701aeeb-d4e0-4470-aad9-be342ce267f0","system_id":"levelo_inurba_marseille","lat":43.32295,"lon":5.38274,"is_reserved":false,"is_disabled":false,"rental_uris":{"android":"levelo://app?vid=e701aeeb-d4e0-4470-aad9-be342ce267f0","ios":"levelo://app?vid=e701aeeb-d4e0-4470-aad9-be342ce267f0"},"vehicle_type_id":"4","last_reported":1736060888,"current_range_meters":32800,"station_id":"ce4bhr12rcd13ifvqhqg","pricing_plan_id":"cebpf4jnsgd1na2vs0mg"},{"bike_id":"e67b0a33-91f4-471c-ba05-b95294657cd7","system_id":"levelo_inurba_marseille","lat":43.280817,"lon":5.396307,"is_reserved":false,"is_disabled":false,"rental_uris":{"android":"levelo://app?vid=e67b0a33-91f4-471c-ba05-b95294657cd7","ios":"levelo://app?vid=e67b0a33-91f4-471c-ba05-b95294657cd7"},"vehicle_type_id":"4","last_reported":1736060888,"current_range_meters":36400,"station_id":"ce4bho12rcd13ifvqh2g","pricing_plan_id":"cebpf4jnsgd1na2vs0mg"},{"bike_id":"7bb85a89-f8f3-4545-8a27-2902be2ddc30","system_id":"levelo_inurba_marseille","lat":43.28455,"lon":5.35887,"is_reserved":false,"is_disabled":false,"rental_uris":{"android":"levelo://app?vid=7bb85a89-f8f3-4545-8a27-2902be2ddc30","ios":"levelo://app?vid=7bb85a89-f8f3-4545-8a27-2902be2ddc30"},"vehicle_type_id":"4","last_reported":1736060888,"current_range_meters":32000,"station_id":"ce4bhah2rcd13ifvqei0","pricing_plan_id":"cebpf4jnsgd1na2vs0mg"},{"bike_id":"58524289-f85b-4db2-b506-7378d449201d","system_id":"levelo_inurba_marseille","lat":43.28628,"lon":5.35087,"is_reserved":false,"is_disabled":false,"rental_uris":{"android":"levelo://app?vid=58524289-f85b-4db2-b506-7378d449201d","ios":"levelo://app?vid=58524289-f85b-4db2-b506-7378d449201d"},"vehicle_type_id":"4","last_reported":1736060888,"current_range_meters":28000,"station_id":"ce4bhch2rcd13ifvqeug","pricing_plan_id":"cebpf4jnsgd1na2vs0mg"},{"bike_id":"8bf5141e-3146-496b-828c-aa16db841e56","system_id":"levelo_inurba_marseille","lat":43.32553,"lon":5.41424,"is_reserved":false,"is_disabled":false,"rental_uris":{"android":"levelo://app?vid=8bf5141e-3146-496b-828c-aa16db841e56","ios":"levelo://app?vid=8bf5141e-3146-496b-828c-aa16db841e56"},"vehicle_type_id":"4","last_reported":1736060888,"current_range_meters":38400,"station_id":"ce4bhq12rcd13ifvqhhg","pricing_plan_id":"cebpf4jnsgd1na2vs0mg"},{"bike_id":"2332862a-3884-4317-af82-ee9793e9b62c","system_id":"levelo_inurba_marseille","lat":43.240726,"lon":5.377247,"is_reserved":false,"is_disabled":false,"rental_uris":{"android":"levelo://app?vid=2332862a-3884-4317-af82-ee9793e9b62c","ios":"levelo://app?vid=2332862a-3884-4317-af82-ee9793e9b62c"},"vehicle_type_id":"4","last_reported":1736060888,"current_range_meters":12400,"station_id":"ce4bhnp2rcd13ifvqgvg","pricing_plan_id":"cebpf4jnsgd1na2vs0mg"},{"bike_id":"3fed1827-13aa-4afe-a0f9-8be0a428d811","system_id":"levelo_inurba_marseille","lat":43.323646,"lon":5.388882,"is_reserved":false,"is_disabled":false,"rental_uris":{"android":"levelo://app?vid=3fed1827-13aa-4afe-a0f9-8be0a428d811","ios":"levelo://app?vid=3fed1827-13aa-4afe-a0f9-8be0a428d811"},"vehicle_type_id":"4","last_reported":1736060888,"current_range_meters":38400,"station_id":"ce4bhqp2rcd13ifvqhog","pricing_plan_id":"cebpf4jnsgd1na2vs0mg"},{"bike_id":"48257295-4d6d-4f4a-a8ec-71bc46440d23","system_id":"levelo_inurba_marseille","lat":43.34152,"lon":5.40896,"is_reserved":false,"is_disabled":false,"rental_uris":{"android":"levelo://app?vid=48257295-4d6d-4f4a-a8ec-71bc46440d23","ios":"levelo://app?vid=48257295-4d6d-4f4a-a8ec-71bc46440d23"},"vehicle_type_id":"4","last_reported":1736060888,"current_range_meters":38000,"station_id":"ce4bhqh2rcd13ifvqhlg","pricing_plan_id":"cebpf4jnsgd1na2vs0mg"},{"bike_id":"d6623fb3-7fe3-4914-8803-99fc449c9eb9","system_id":"levelo_inurba_marseille","lat":43.24808,"lon":5.3745,"is_reserved":false,"is_disabled":false,"rental_uris":{"android":"levelo://app?vid=d6623fb3-7fe3-4914-8803-99fc449c9eb9","ios":"levelo://app?vid=d6623fb3-7fe3-4914-8803-99fc449c9eb9"},"vehicle_type_id":"4","last_reported":1736060888,"current_range_meters":30800,"station_id":"ce4bhgh2rcd13ifvqfb0","pricing_plan_id":"cebpf4jnsgd1na2vs0mg"},{"bike_id":"2daca352-e218-4be3-8d91-68f62ea34c74","system_id":"levelo_inurba_marseille","lat":43.29881,"lon":5.39726,"is_reserved":false,"is_disabled":false,"rental_uris":{"android":"levelo://app?vid=2daca352-e218-4be3-8d91-68f62ea34c74","ios":"levelo://app?vid=2daca352-e218-4be3-8d91-68f62ea34c74"},"vehicle_type_id":"4","last_reported":1736060888,"current_range_meters":5600,"station_id":"ce4bh0h2rcd13ifvqd50","pricing_plan_id":"cebpf4jnsgd1na2vs0mg"},{"bike_id":"9805a3be-b5f4-4955-bb12-fc71033cef4e","system_id":"levelo_inurba_marseille","lat":43.23192,"lon":5.39984,"is_reserved":false,"is_disabled":false,"rental_uris":{"android":"levelo://app?vid=9805a3be-b5f4-4955-bb12-fc71033cef4e","ios":"levelo://app?vid=9805a3be-b5f4-4955-bb12-fc71033cef4e"},"vehicle_type_id":"4","last_reported":1736060888,"current_range_meters":30400,"station_id":"ce4bhn12rcd13ifvqgqg","pricing_plan_id":"cebpf4jnsgd1na2vs0mg"},{"bike_id":"9c3ec443-c563-4534-89ef-8d7f66d58613","system_id":"levelo_inurba_marseille","lat":43.29712,"lon":5.36579,"is_reserved":false,"is_disabled":false,"rental_uris":{"android":"levelo://app?vid=9c3ec443-c563-4534-89ef-8d7f66d58613","ios":"levelo://app?vid=9c3ec443-c563-4534-89ef-8d7f66d58613"},"vehicle_type_id":"4","last_reported":1736060888,"current_range_meters":38800,"station_id":"ce4bgn12rcd13ifvqbt0","pricing_plan_id":"cebpf4jnsgd1na2vs0mg"},{"bike_id":"4a9ae638-3a1c-4c74-88bc-52947c053a13","system_id":"levelo_inurba_marseille","lat":43.264994,"lon":5.395535,"is_reserved":false,"is_disabled":false,"rental_uris":{"android":"levelo://app?vid=4a9ae638-3a1c-4c74-88bc-52947c053a13","ios":"levelo://app?vid=4a9ae638-3a1c-4c74-88bc-52947c053a13"},"vehicle_type_id":"4","last_reported":1736060888,"current_range_meters":6800,"station_id":"ce4bhi12rcd13ifvqfq0","pricing_plan_id":"cebpf4jnsgd1na2vs0mg"},{"bike_id":"c8529c5f-726c-44b9-8f81-1b72db6f4e53","system_id":"levelo_inurba_marseille","lat":43.3236,"lon":5.38879,"is_reserved":false,"is_disabled":false,"rental_uris":{"android":"levelo://app?vid=c8529c5f-726c-44b9-8f81-1b72db6f4e53","ios":"levelo://app?vid=c8529c5f-726c-44b9-8f81-1b72db6f4e53"},"vehicle_type_id":"4","last_reported":1736060888,"current_range_meters":38400,"station_id":"ce4bhqp2rcd13ifvqhog","pricing_plan_id":"cebpf4jnsgd1na2vs0mg"},{"bike_id":"66c1f4a8-00f2-48da-ab15-4047c3fa8786","system_id":"levelo_inurba_marseille","lat":43.3088,"lon":5.39628,"is_reserved":false,"is_disabled":false,"rental_uris":{"android":"levelo://app?vid=66c1f4a8-00f2-48da-ab15-4047c3fa8786","ios":"levelo://app?vid=66c1f4a8-00f2-48da-ab15-4047c3fa8786"},"vehicle_type_id":"4","last_reported":1736060888,"current_range_meters":38000,"station_id":"ce4bh012rcd13ifvqcv0","pricing_plan_id":"cebpf4jnsgd1na2vs0mg"},{"bike_id":"9a483109-5bce-4e89-a527-a3ced035742c","system_id":"levelo_inurba_marseille","lat":43.26936,"lon":5.3865,"is_reserved":false,"is_disabled":false,"rental_uris":{"android":"levelo://app?vid=9a483109-5bce-4e89-a527-a3ced035742c","ios":"levelo://app?vid=9a483109-5bce-4e89-a527-a3ced035742c"},"vehicle_type_id":"4","last_reported":1736060888,"current_range_meters":12400,"station_id":"ce4bhh92rcd13ifvqfh0","pricing_plan_id":"cebpf4jnsgd1na2vs0mg"},{"bike_id":"6c503bd7-7bec-4e40-8157-ec408bcaad78","system_id":"levelo_inurba_marseille","lat":43.24795,"lon":5.37445,"is_reserved":false,"is_disabled":false,"rental_uris":{"android":"levelo://app?vid=6c503bd7-7bec-4e40-8157-ec408bcaad78","ios":"levelo://app?vid=6c503bd7-7bec-4e40-8157-ec408bcaad78"},"vehicle_type_id":"4","last_reported":1736060888,"current_range_meters":27600,"station_id":"ce4bhgh2rcd13ifvqfb0","pricing_plan_id":"cebpf4jnsgd1na2vs0mg"},{"bike_id":"e13da276-6e0e-4eb0-a169-78a7d9872bfc","system_id":"levelo_inurba_marseille","lat":43.28936,"lon":5.39629,"is_reserved":false,"is_disabled":false,"rental_uris":{"android":"levelo://app?vid=e13da276-6e0e-4eb0-a169-78a7d9872bfc","ios":"levelo://app?vid=e13da276-6e0e-4eb0-a169-78a7d9872bfc"},"vehicle_type_id":"4","last_reported":1736060888,"current_range_meters":27200,"station_id":"ce4bh3h2rcd13ifvqdn0","pricing_plan_id":"cebpf4jnsgd1na2vs0mg"},{"bike_id":"9101e912-5f73-4ffc-8374-5232183c2d6d","system_id":"levelo_inurba_marseille","lat":43.304141,"lon":5.412921,"is_reserved":false,"is_disabled":false,"rental_uris":{"android":"levelo://app?vid=9101e912-5f73-4ffc-8374-5232183c2d6d","ios":"levelo://app?vid=9101e912-5f73-4ffc-8374-5232183c2d6d"},"vehicle_type_id":"4","last_reported":1736060888,"current_range_meters":38400,"station_id":"ce4bhop2rcd13ifvqh8g","pricing_plan_id":"cebpf4jnsgd1na2vs0mg"},{"bike_id":"7f1ce4ed-0cd0-4d23-b89e-099e0df8c108","system_id":"levelo_inurba_marseille","lat":43.257269,"lon":5.411065,"is_reserved":false,"is_disabled":false,"rental_uris":{"android":"levelo://app?vid=7f1ce4ed-0cd0-4d23-b89e-099e0df8c108","ios":"levelo://app?vid=7f1ce4ed-0cd0-4d23-b89e-099e0df8c108"},"vehicle_type_id":"4","last_reported":1736060888,"current_range_meters":38800,"station_id":"ce4bhkp2rcd13ifvqgd0","pricing_plan_id":"cebpf4jnsgd1na2vs0mg"},{"bike_id":"708e7f48-017b-49b6-8ac7-18c87f91c287","system_id":"levelo_inurba_marseille","lat":43.27894,"lon":5.396,"is_reserved":false,"is_disabled":false,"rental_uris":{"android":"levelo://app?vid=708e7f48-017b-49b6-8ac7-18c87f91c287","ios":"levelo://app?vid=708e7f48-017b-49b6-8ac7-18c87f91c287"},"vehicle_type_id":"4","last_reported":1736060888,"current_range_meters":26000,"station_id":"ce4bhf92rcd13ifvqf40","pricing_plan_id":"cebpf4jnsgd1na2vs0mg"},{"bike_id":"969c8a84-cf60-4395-8c81-a1d2e7dc81af","system_id":"levelo_inurba_marseille","lat":43.25871,"lon":5.39916,"is_reserved":false,"is_disabled":false,"rental_uris":{"android":"levelo://app?vid=969c8a84-cf60-4395-8c81-a1d2e7dc81af","ios":"levelo://app?vid=969c8a84-cf60-4395-8c81-a1d2e7dc81af"},"vehicle_type_id":"4","last_reported":1736060888,"current_range_meters":17200,"station_id":"ce4bhl92rcd13ifvqghg","pricing_plan_id":"cebpf4jnsgd1na2vs0mg"},{"bike_id":"f8142e8a-f886-4c5e-b399-88d8fa1c1d32","system_id":"levelo_inurba_marseille","lat":43.24677,"lon":5.38172,"is_reserved":false,"is_disabled":false,"rental_uris":{"android":"levelo://app?vid=f8142e8a-f886-4c5e-b399-88d8fa1c1d32","ios":"levelo://app?vid=f8142e8a-f886-4c5e-b399-88d8fa1c1d32"},"vehicle_type_id":"4","last_reported":1736060888,"current_range_meters":27600,"station_id":"ce4bhih2rcd13ifvqfr0","pricing_plan_id":"cebpf4jnsgd1na2vs0mg"},{"bike_id":"9d2065c5-e801-47c6-a32c-5834d37e9dab","system_id":"levelo_inurba_marseille","lat":43.323672,"lon":5.388817,"is_reserved":false,"is_disabled":false,"rental_uris":{"android":"levelo://app?vid=9d2065c5-e801-47c6-a32c-5834d37e9dab","ios":"levelo://app?vid=9d2065c5-e801-47c6-a32c-5834d37e9dab"},"vehicle_type_id":"4","last_reported":1736060888,"current_range_meters":36400,"station_id":"ce4bhqp2rcd13ifvqhog","pricing_plan_id":"cebpf4jnsgd1na2vs0mg"},{"bike_id":"8452ac70-b36f-4236-9954-dfaf1a87fa71","system_id":"levelo_inurba_marseille","lat":43.26803,"lon":5.402594,"is_reserved":false,"is_disabled":false,"rental_uris":{"android":"levelo://app?vid=8452ac70-b36f-4236-9954-dfaf1a87fa71","ios":"levelo://app?vid=8452ac70-b36f-4236-9954-dfaf1a87fa71"},"vehicle_type_id":"4","last_reported":1736060888,"current_range_meters":38000,"station_id":"ce501612rcd8frsf0b60","pricing_plan_id":"cebpf4jnsgd1na2vs0mg"},{"bike_id":"e927647c-e523-453f-a8d5-3bb282772c32","system_id":"levelo_inurba_marseille","lat":43.30463,"lon":5.37908,"is_reserved":false,"is_disabled":false,"rental_uris":{"android":"levelo://app?vid=e927647c-e523-453f-a8d5-3bb282772c32","ios":"levelo://app?vid=e927647c-e523-453f-a8d5-3bb282772c32"},"vehicle_type_id":"4","last_reported":1736060888,"current_range_meters":17200,"station_id":"ce4bgup2rcd13ifvqcn0","pricing_plan_id":"cebpf4jnsgd1na2vs0mg"},{"bike_id":"f3d41f41-839d-41a5-aa6d-f2ba87ff18f0","system_id":"levelo_inurba_marseille","lat":43.240806,"lon":5.37736,"is_reserved":false,"is_disabled":true,"rental_uris":{"android":"levelo://app?vid=f3d41f41-839d-41a5-aa6d-f2ba87ff18f0","ios":"levelo://app?vid=f3d41f41-839d-41a5-aa6d-f2ba87ff18f0"},"vehicle_type_id":"4","last_reported":1736060888,"current_range_meters":0,"station_id":"ce4bhnp2rcd13ifvqgvg","pricing_plan_id":"cebpf4jnsgd1na2vs0mg"},{"bike_id":"6d14468d-d4fe-4fb2-b1d6-ebb52c384fb6","system_id":"levelo_inurba_marseille","lat":43.31996,"lon":5.38159,"is_reserved":false,"is_disabled":false,"rental_uris":{"android":"levelo://app?vid=6d14468d-d4fe-4fb2-b1d6-ebb52c384fb6","ios":"levelo://app?vid=6d14468d-d4fe-4fb2-b1d6-ebb52c384fb6"},"vehicle_type_id":"4","last_reported":1736060888,"current_range_meters":38800,"station_id":"ce4bhr12rcd13ifvqhpg","pricing_plan_id":"cebpf4jnsgd1na2vs0mg"},{"bike_id":"9f326815-9d5b-4c57-b098-1465cece3aff","system_id":"levelo_inurba_marseille","lat":43.28095,"lon":5.44129,"is_reserved":false,"is_disabled":false,"rental_uris":{"android":"levelo://app?vid=9f326815-9d5b-4c57-b098-1465cece3aff","ios":"levelo://app?vid=9f326815-9d5b-4c57-b098-1465cece3aff"},"vehicle_type_id":"4","last_reported":1736060888,"current_range_meters":16800,"station_id":"","pricing_plan_id":"cebpf4jnsgd1na2vs0mg"},{"bike_id":"4b919046-5eb1-4cc6-bf0c-9635ff8b07a5","system_id":"levelo_inurba_marseille","lat":43.279477,"lon":5.395379,"is_reserved":false,"is_disabled":false,"rental_uris":{"android":"levelo://app?vid=4b919046-5eb1-4cc6-bf0c-9635ff8b07a5","ios":"levelo://app?vid=4b919046-5eb1-4cc6-bf0c-9635ff8b07a5"},"vehicle_type_id":"4","last_reported":1736060888,"current_range_meters":26000,"station_id":"ce4bh292rcd13ifvqdg0","pricing_plan_id":"cebpf4jnsgd1na2vs0mg"},{"bike_id":"3a7642a6-2f3a-4456-af33-7eee78b941d2","system_id":"levelo_inurba_marseille","lat":43.30477,"lon":5.37884,"is_reserved":false,"is_disabled":false,"rental_uris":{"android":"levelo://app?vid=3a7642a6-2f3a-4456-af33-7eee78b941d2","ios":"levelo://app?vid=3a7642a6-2f3a-4456-af33-7eee78b941d2"},"vehicle_type_id":"4","last_reported":1736060888,"current_range_meters":6400,"station_id":"ce4bgup2rcd13ifvqcn0","pricing_plan_id":"cebpf4jnsgd1na2vs0mg"},{"bike_id":"7b78d5e2-5142-402d-a4f8-0f3037a6c533","system_id":"levelo_inurba_marseille","lat":43.2694,"lon":5.38618,"is_reserved":false,"is_disabled":true,"rental_uris":{"android":"levelo://app?vid=7b78d5e2-5142-402d-a4f8-0f3037a6c533","ios":"levelo://app?vid=7b78d5e2-5142-402d-a4f8-0f3037a6c533"},"vehicle_type_id":"4","last_reported":1736060888,"current_range_meters":9600,"station_id":"ce4bhh92rcd13ifvqfh0","pricing_plan_id":"cebpf4jnsgd1na2vs0mg"},{"bike_id":"a2f3c8c2-40cc-40c5-bc2a-9a8a1f549a5d","system_id":"levelo_inurba_marseille","lat":43.23956,"lon":5.3665,"is_reserved":false,"is_disabled":false,"rental_uris":{"android":"levelo://app?vid=a2f3c8c2-40cc-40c5-bc2a-9a8a1f549a5d","ios":"levelo://app?vid=a2f3c8c2-40cc-40c5-bc2a-9a8a1f549a5d"},"vehicle_type_id":"4","last_reported":1736060888,"current_range_meters":17600,"station_id":"ce4bhi12rcd13ifvqfp0","pricing_plan_id":"cebpf4jnsgd1na2vs0mg"},{"bike_id":"d0d21930-fe1d-478b-8251-bcf89564599d","system_id":"levelo_inurba_marseille","lat":43.29546,"lon":5.42276,"is_reserved":false,"is_disabled":false,"rental_uris":{"android":"levelo://app?vid=d0d21930-fe1d-478b-8251-bcf89564599d","ios":"levelo://app?vid=d0d21930-fe1d-478b-8251-bcf89564599d"},"vehicle_type_id":"4","last_reported":1736060888,"current_range_meters":27600,"station_id":"ce4bhph2rcd13ifvqhdg","pricing_plan_id":"cebpf4jnsgd1na2vs0mg"},{"bike_id":"0bd56123-f8b9-4d53-b166-447025313db1","system_id":"levelo_inurba_marseille","lat":43.255794,"lon":5.382457,"is_reserved":false,"is_disabled":false,"rental_uris":{"android":"levelo://app?vid=0bd56123-f8b9-4d53-b166-447025313db1","ios":"levelo://app?vid=0bd56123-f8b9-4d53-b166-447025313db1"},"vehicle_type_id":"4","last_reported":1736060888,"current_range_meters":22000,"station_id":"ce4bhih2rcd13ifvqfs0","pricing_plan_id":"cebpf4jnsgd1na2vs0mg"},{"bike_id":"d89fdfa9-bed6-4bb7-8a32-c859fdcfcb17","system_id":"levelo_inurba_marseille","lat":43.289355,"lon":5.366363,"is_reserved":false,"is_disabled":false,"rental_uris":{"android":"levelo://app?vid=d89fdfa9-bed6-4bb7-8a32-c859fdcfcb17","ios":"levelo://app?vid=d89fdfa9-bed6-4bb7-8a32-c859fdcfcb17"},"vehicle_type_id":"4","last_reported":1736060888,"current_range_meters":7200,"station_id":"ce4bhap2rcd13ifvqek0","pricing_plan_id":"cebpf4jnsgd1na2vs0mg"},{"bike_id":"ca097f70-8976-4699-b173-05723d0647b2","system_id":"levelo_inurba_marseille","lat":43.28177,"lon":5.42661,"is_reserved":false,"is_disabled":false,"rental_uris":{"android":"levelo://app?vid=ca097f70-8976-4699-b173-05723d0647b2","ios":"levelo://app?vid=ca097f70-8976-4699-b173-05723d0647b2"},"vehicle_type_id":"4","last_reported":1736060888,"current_range_meters":12000,"station_id":"ce4bhnh2rcd13ifvqgug","pricing_plan_id":"cebpf4jnsgd1na2vs0mg"},{"bike_id":"ef497cf8-d1c5-441c-9845-cb32930bfc60","system_id":"levelo_inurba_marseille","lat":43.30475,"lon":5.37902,"is_reserved":false,"is_disabled":false,"rental_uris":{"android":"levelo://app?vid=ef497cf8-d1c5-441c-9845-cb32930bfc60","ios":"levelo://app?vid=ef497cf8-d1c5-441c-9845-cb32930bfc60"},"vehicle_type_id":"4","last_reported":1736060888,"current_range_meters":35600,"station_id":"ce4bgup2rcd13ifvqcn0","pricing_plan_id":"cebpf4jnsgd1na2vs0mg"},{"bike_id":"ef9eb9cc-0356-40e6-b207-4e55b3fad748","system_id":"levelo_inurba_marseille","lat":43.27559,"lon":5.38408,"is_reserved":false,"is_disabled":false,"rental_uris":{"android":"levelo://app?vid=ef9eb9cc-0356-40e6-b207-4e55b3fad748","ios":"levelo://app?vid=ef9eb9cc-0356-40e6-b207-4e55b3fad748"},"vehicle_type_id":"4","last_reported":1736060888,"current_range_meters":35600,"station_id":"ce4bhh92rcd13ifvqfi0","pricing_plan_id":"cebpf4jnsgd1na2vs0mg"},{"bike_id":"40a86cf6-0dc0-439b-9843-ddd59f992d29","system_id":"levelo_inurba_marseille","lat":43.28001,"lon":5.38692,"is_reserved":false,"is_disabled":false,"rental_uris":{"android":"levelo://app?vid=40a86cf6-0dc0-439b-9843-ddd59f992d29","ios":"levelo://app?vid=40a86cf6-0dc0-439b-9843-ddd59f992d29"},"vehicle_type_id":"4","last_reported":1736060888,"current_range_meters":32800,"station_id":"ce4bhg12rcd13ifvqf80","pricing_plan_id":"cebpf4jnsgd1na2vs0mg"},{"bike_id":"bf078f72-daa5-4a9e-8bcf-19d7a4dcbdde","system_id":"levelo_inurba_marseille","lat":43.297926,"lon":5.393458,"is_reserved":false,"is_disabled":false,"rental_uris":{"android":"levelo://app?vid=bf078f72-daa5-4a9e-8bcf-19d7a4dcbdde","ios":"levelo://app?vid=bf078f72-daa5-4a9e-8bcf-19d7a4dcbdde"},"vehicle_type_id":"4","last_reported":1736060888,"current_range_meters":39200,"station_id":"chh1huq6cuj3fo74tm60","pricing_plan_id":"cebpf4jnsgd1na2vs0mg"},{"bike_id":"c2d107a0-a1df-480d-bfa1-7bd57d96fcf0","system_id":"levelo_inurba_marseille","lat":43.30212,"lon":5.39469,"is_reserved":false,"is_disabled":false,"rental_uris":{"android":"levelo://app?vid=c2d107a0-a1df-480d-bfa1-7bd57d96fcf0","ios":"levelo://app?vid=c2d107a0-a1df-480d-bfa1-7bd57d96fcf0"},"vehicle_type_id":"4","last_reported":1736060888,"current_range_meters":38800,"station_id":"ce4bh0p2rcd13ifvqd70","pricing_plan_id":"cebpf4jnsgd1na2vs0mg"},{"bike_id":"830b5d3b-cabb-4fdb-be27-c9d3d8ea9fde","system_id":"levelo_inurba_marseille","lat":43.24812,"lon":5.37454,"is_reserved":false,"is_disabled":false,"rental_uris":{"android":"levelo://app?vid=830b5d3b-cabb-4fdb-be27-c9d3d8ea9fde","ios":"levelo://app?vid=830b5d3b-cabb-4fdb-be27-c9d3d8ea9fde"},"vehicle_type_id":"4","last_reported":1736060888,"current_range_meters":38000,"station_id":"ce4bhgh2rcd13ifvqfb0","pricing_plan_id":"cebpf4jnsgd1na2vs0mg"},{"bike_id":"58c8d0ac-6ae0-4793-be73-45292194ca91","system_id":"levelo_inurba_marseille","lat":43.288459,"lon":5.358599,"is_reserved":false,"is_disabled":false,"rental_uris":{"android":"levelo://app?vid=58c8d0ac-6ae0-4793-be73-45292194ca91","ios":"levelo://app?vid=58c8d0ac-6ae0-4793-be73-45292194ca91"},"vehicle_type_id":"4","last_reported":1736060888,"current_range_meters":37600,"station_id":"ce4bhb12rcd13ifvqem0","pricing_plan_id":"cebpf4jnsgd1na2vs0mg"},{"bike_id":"4b270d4c-61fb-4561-80b8-6ff5c7629d20","system_id":"levelo_inurba_marseille","lat":43.2815,"lon":5.4265,"is_reserved":false,"is_disabled":false,"rental_uris":{"android":"levelo://app?vid=4b270d4c-61fb-4561-80b8-6ff5c7629d20","ios":"levelo://app?vid=4b270d4c-61fb-4561-80b8-6ff5c7629d20"},"vehicle_type_id":"4","last_reported":1736060888,"current_range_meters":28000,"station_id":"ce4bhnh2rcd13ifvqgug","pricing_plan_id":"cebpf4jnsgd1na2vs0mg"},{"bike_id":"8785ddf2-7225-4c15-a282-1f8baeace2a7","system_id":"levelo_inurba_marseille","lat":43.2607,"lon":5.3938,"is_reserved":false,"is_disabled":false,"rental_uris":{"android":"levelo://app?vid=8785ddf2-7225-4c15-a282-1f8baeace2a7","ios":"levelo://app?vid=8785ddf2-7225-4c15-a282-1f8baeace2a7"},"vehicle_type_id":"4","last_reported":1736060888,"current_range_meters":27200,"station_id":"ce4bhh92rcd13ifvqfj0","pricing_plan_id":"cebpf4jnsgd1na2vs0mg"},{"bike_id":"78af5f25-eb72-452b-8003-522c25faacd8","system_id":"levelo_inurba_marseille","lat":43.3176,"lon":5.39013,"is_reserved":false,"is_disabled":false,"rental_uris":{"android":"levelo://app?vid=78af5f25-eb72-452b-8003-522c25faacd8","ios":"levelo://app?vid=78af5f25-eb72-452b-8003-522c25faacd8"},"vehicle_type_id":"4","last_reported":1736060888,"current_range_meters":38000,"station_id":"ce4bhqp2rcd13ifvqhng","pricing_plan_id":"cebpf4jnsgd1na2vs0mg"},{"bike_id":"a6f828f1-5f97-4da7-bf33-7d48a155db3e","system_id":"levelo_inurba_marseille","lat":43.278233,"lon":5.392028,"is_reserved":false,"is_disabled":false,"rental_uris":{"android":"levelo://app?vid=a6f828f1-5f97-4da7-bf33-7d48a155db3e","ios":"levelo://app?vid=a6f828f1-5f97-4da7-bf33-7d48a155db3e"},"vehicle_type_id":"4","last_reported":1736060888,"current_range_meters":24000,"station_id":"ce4bhjp2rcd13ifvqga0","pricing_plan_id":"cebpf4jnsgd1na2vs0mg"},{"bike_id":"cb4e598e-43fb-4420-bc13-ffc9995271ca","system_id":"levelo_inurba_marseille","lat":43.3059,"lon":5.37224,"is_reserved":false,"is_disabled":false,"rental_uris":{"android":"levelo://app?vid=cb4e598e-43fb-4420-bc13-ffc9995271ca","ios":"levelo://app?vid=cb4e598e-43fb-4420-bc13-ffc9995271ca"},"vehicle_type_id":"4","last_reported":1736060888,"current_range_meters":30800,"station_id":"ce4bgqh2rcd13ifvqc4g","pricing_plan_id":"cebpf4jnsgd1na2vs0mg"},{"bike_id":"a522c7f8-85db-4294-bcdd-44c45cbf4d5e","system_id":"levelo_inurba_marseille","lat":43.23194,"lon":5.39975,"is_reserved":false,"is_disabled":false,"rental_uris":{"android":"levelo://app?vid=a522c7f8-85db-4294-bcdd-44c45cbf4d5e","ios":"levelo://app?vid=a522c7f8-85db-4294-bcdd-44c45cbf4d5e"},"vehicle_type_id":"4","last_reported":1736060888,"current_range_meters":38400,"station_id":"ce4bhn12rcd13ifvqgqg","pricing_plan_id":"cebpf4jnsgd1na2vs0mg"},{"bike_id":"3146e349-8953-4d60-9187-c45e3c6929f5","system_id":"levelo_inurba_marseille","lat":43.279725,"lon":5.387446,"is_reserved":false,"is_disabled":false,"rental_uris":{"android":"levelo://app?vid=3146e349-8953-4d60-9187-c45e3c6929f5","ios":"levelo://app?vid=3146e349-8953-4d60-9187-c45e3c6929f5"},"vehicle_type_id":"4","last_reported":1736060888,"current_range_meters":9600,"station_id":"ce4bhg12rcd13ifvqf80","pricing_plan_id":"cebpf4jnsgd1na2vs0mg"},{"bike_id":"e8a185b3-d63a-46a8-a06c-c198a1239fb6","system_id":"levelo_inurba_marseille","lat":43.275424,"lon":5.396504,"is_reserved":false,"is_disabled":false,"rental_uris":{"android":"levelo://app?vid=e8a185b3-d63a-46a8-a06c-c198a1239fb6","ios":"levelo://app?vid=e8a185b3-d63a-46a8-a06c-c198a1239fb6"},"vehicle_type_id":"4","last_reported":1736060888,"current_range_meters":26800,"station_id":"","pricing_plan_id":"cebpf4jnsgd1na2vs0mg"},{"bike_id":"2bb365b9-b0ab-4842-8b8c-e8de6374870a","system_id":"levelo_inurba_marseille","lat":43.24645,"lon":5.38889,"is_reserved":false,"is_disabled":false,"rental_uris":{"android":"levelo://app?vid=2bb365b9-b0ab-4842-8b8c-e8de6374870a","ios":"levelo://app?vid=2bb365b9-b0ab-4842-8b8c-e8de6374870a"},"vehicle_type_id":"4","last_reported":1736060888,"current_range_meters":10000,"station_id":"ce4bhg12rcd13ifvqf60","pricing_plan_id":"cebpf4jnsgd1na2vs0mg"},{"bike_id":"81277b60-47d2-4e36-bce4-f0088598d87f","system_id":"levelo_inurba_marseille","lat":43.29704,"lon":5.36608,"is_reserved":false,"is_disabled":false,"rental_uris":{"android":"levelo://app?vid=81277b60-47d2-4e36-bce4-f0088598d87f","ios":"levelo://app?vid=81277b60-47d2-4e36-bce4-f0088598d87f"},"vehicle_type_id":"4","last_reported":1736060888,"current_range_meters":38000,"station_id":"ce4bgn12rcd13ifvqbt0","pricing_plan_id":"cebpf4jnsgd1na2vs0mg"},{"bike_id":"2740579f-5c5b-4119-bd6a-d4859cbdfb44","system_id":"levelo_inurba_marseille","lat":43.297021,"lon":5.366067,"is_reserved":false,"is_disabled":false,"rental_uris":{"android":"levelo://app?vid=2740579f-5c5b-4119-bd6a-d4859cbdfb44","ios":"levelo://app?vid=2740579f-5c5b-4119-bd6a-d4859cbdfb44"},"vehicle_type_id":"4","last_reported":1736060888,"current_range_meters":38800,"station_id":"ce4bgn12rcd13ifvqbt0","pricing_plan_id":"cebpf4jnsgd1na2vs0mg"},{"bike_id":"34e4255c-9fbc-4de9-a3d7-5e22e73f9618","system_id":"levelo_inurba_marseille","lat":43.311176,"lon":5.377589,"is_reserved":false,"is_disabled":false,"rental_uris":{"android":"levelo://app?vid=34e4255c-9fbc-4de9-a3d7-5e22e73f9618","ios":"levelo://app?vid=34e4255c-9fbc-4de9-a3d7-5e22e73f9618"},"vehicle_type_id":"4","last_reported":1736060888,"current_range_meters":37600,"station_id":"ce4bgt92rcd13ifvqcg0","pricing_plan_id":"cebpf4jnsgd1na2vs0mg"},{"bike_id":"6c0950ff-ad32-4545-a3b0-d009b8de7beb","system_id":"levelo_inurba_marseille","lat":43.264977,"lon":5.395451,"is_reserved":false,"is_disabled":false,"rental_uris":{"android":"levelo://app?vid=6c0950ff-ad32-4545-a3b0-d009b8de7beb","ios":"levelo://app?vid=6c0950ff-ad32-4545-a3b0-d009b8de7beb"},"vehicle_type_id":"4","last_reported":1736060888,"current_range_meters":38800,"station_id":"ce4bhi12rcd13ifvqfq0","pricing_plan_id":"cebpf4jnsgd1na2vs0mg"},{"bike_id":"641d8acc-50b2-4173-ab23-c70f2a11d28e","system_id":"levelo_inurba_marseille","lat":43.2815,"lon":5.42644,"is_reserved":false,"is_disabled":true,"rental_uris":{"android":"levelo://app?vid=641d8acc-50b2-4173-ab23-c70f2a11d28e","ios":"levelo://app?vid=641d8acc-50b2-4173-ab23-c70f2a11d28e"},"vehicle_type_id":"4","last_reported":1736060888,"current_range_meters":34000,"station_id":"ce4bhnh2rcd13ifvqgug","pricing_plan_id":"cebpf4jnsgd1na2vs0mg"},{"bike_id":"2afc55b3-bfd4-4a06-84ed-c9ee7611ba9a","system_id":"levelo_inurba_marseille","lat":43.28455,"lon":5.39203,"is_reserved":false,"is_disabled":false,"rental_uris":{"android":"levelo://app?vid=2afc55b3-bfd4-4a06-84ed-c9ee7611ba9a","ios":"levelo://app?vid=2afc55b3-bfd4-4a06-84ed-c9ee7611ba9a"},"vehicle_type_id":"4","last_reported":1736060888,"current_range_meters":38400,"station_id":"ce4bhoh2rcd13ifvqh5g","pricing_plan_id":"cebpf4jnsgd1na2vs0mg"},{"bike_id":"15e503f5-1d52-42d6-a98f-33a61fd8b554","system_id":"levelo_inurba_marseille","lat":43.28463,"lon":5.35888,"is_reserved":false,"is_disabled":true,"rental_uris":{"android":"levelo://app?vid=15e503f5-1d52-42d6-a98f-33a61fd8b554","ios":"levelo://app?vid=15e503f5-1d52-42d6-a98f-33a61fd8b554"},"vehicle_type_id":"4","last_reported":1736060888,"current_range_meters":27600,"station_id":"ce4bhah2rcd13ifvqei0","pricing_plan_id":"cebpf4jnsgd1na2vs0mg"},{"bike_id":"6a6cde56-543d-4320-b530-a8d4d4944794","system_id":"levelo_inurba_marseille","lat":43.29898,"lon":5.436631,"is_reserved":false,"is_disabled":false,"rental_uris":{"android":"levelo://app?vid=6a6cde56-543d-4320-b530-a8d4d4944794","ios":"levelo://app?vid=6a6cde56-543d-4320-b530-a8d4d4944794"},"vehicle_type_id":"4","last_reported":1736060888,"current_range_meters":28400,"station_id":"ce4bhpp2rcd13ifvqhfg","pricing_plan_id":"cebpf4jnsgd1na2vs0mg"},{"bike_id":"1c32083a-3b07-4502-8e29-beb20d8418d3","system_id":"levelo_inurba_marseille","lat":43.30312,"lon":5.36899,"is_reserved":false,"is_disabled":false,"rental_uris":{"android":"levelo://app?vid=1c32083a-3b07-4502-8e29-beb20d8418d3","ios":"levelo://app?vid=1c32083a-3b07-4502-8e29-beb20d8418d3"},"vehicle_type_id":"4","last_reported":1736060888,"current_range_meters":39200,"station_id":"ce4bgqh2rcd13ifvqc5g","pricing_plan_id":"cebpf4jnsgd1na2vs0mg"},{"bike_id":"939d444f-90af-4242-b314-80106977b85f","system_id":"levelo_inurba_marseille","lat":43.28183,"lon":5.42687,"is_reserved":false,"is_disabled":false,"rental_uris":{"android":"levelo://app?vid=939d444f-90af-4242-b314-80106977b85f","ios":"levelo://app?vid=939d444f-90af-4242-b314-80106977b85f"},"vehicle_type_id":"4","last_reported":1736060888,"current_range_meters":33200,"station_id":"ce4bhnh2rcd13ifvqgug","pricing_plan_id":"cebpf4jnsgd1na2vs0mg"},{"bike_id":"bd609247-c05b-4bfd-8224-3974e4956916","system_id":"levelo_inurba_marseille","lat":43.30914,"lon":5.3686,"is_reserved":false,"is_disabled":true,"rental_uris":{"android":"levelo://app?vid=bd609247-c05b-4bfd-8224-3974e4956916","ios":"levelo://app?vid=bd609247-c05b-4bfd-8224-3974e4956916"},"vehicle_type_id":"4","last_reported":1736060888,"current_range_meters":33200,"station_id":"ce4bgn92rcd13ifvqbvg","pricing_plan_id":"cebpf4jnsgd1na2vs0mg"},{"bike_id":"d84701b0-2902-4d22-9d39-e83ce2cc37b5","system_id":"levelo_inurba_marseille","lat":43.29567,"lon":5.37504,"is_reserved":false,"is_disabled":false,"rental_uris":{"android":"levelo://app?vid=d84701b0-2902-4d22-9d39-e83ce2cc37b5","ios":"levelo://app?vid=d84701b0-2902-4d22-9d39-e83ce2cc37b5"},"vehicle_type_id":"4","last_reported":1736060888,"current_range_meters":38000,"station_id":"ce4bgh92rcd13ifvqb50","pricing_plan_id":"cebpf4jnsgd1na2vs0mg"},{"bike_id":"6a57460f-924c-4af0-b7ed-95637eee2780","system_id":"levelo_inurba_marseille","lat":43.29784,"lon":5.39363,"is_reserved":false,"is_disabled":false,"rental_uris":{"android":"levelo://app?vid=6a57460f-924c-4af0-b7ed-95637eee2780","ios":"levelo://app?vid=6a57460f-924c-4af0-b7ed-95637eee2780"},"vehicle_type_id":"4","last_reported":1736060888,"current_range_meters":38000,"station_id":"chh1huq6cuj3fo74tm60","pricing_plan_id":"cebpf4jnsgd1na2vs0mg"},{"bike_id":"9d914c59-8ca6-472e-bde9-2ac5909794fc","system_id":"levelo_inurba_marseille","lat":43.29959,"lon":5.41323,"is_reserved":false,"is_disabled":false,"rental_uris":{"android":"levelo://app?vid=9d914c59-8ca6-472e-bde9-2ac5909794fc","ios":"levelo://app?vid=9d914c59-8ca6-472e-bde9-2ac5909794fc"},"vehicle_type_id":"4","last_reported":1736060888,"current_range_meters":37600,"station_id":"ce4bhp12rcd13ifvqh9g","pricing_plan_id":"cebpf4jnsgd1na2vs0mg"},{"bike_id":"50b46b06-9521-42f4-a35c-b326c9eae1f5","system_id":"levelo_inurba_marseille","lat":43.32388,"lon":5.38878,"is_reserved":false,"is_disabled":false,"rental_uris":{"android":"levelo://app?vid=50b46b06-9521-42f4-a35c-b326c9eae1f5","ios":"levelo://app?vid=50b46b06-9521-42f4-a35c-b326c9eae1f5"},"vehicle_type_id":"4","last_reported":1736060888,"current_range_meters":34000,"station_id":"ce4bhqp2rcd13ifvqhog","pricing_plan_id":"cebpf4jnsgd1na2vs0mg"},{"bike_id":"816e32d2-6e31-4b88-a72e-c5f2731086d3","system_id":"levelo_inurba_marseille","lat":43.28399,"lon":5.37526,"is_reserved":false,"is_disabled":false,"rental_uris":{"android":"levelo://app?vid=816e32d2-6e31-4b88-a72e-c5f2731086d3","ios":"levelo://app?vid=816e32d2-6e31-4b88-a72e-c5f2731086d3"},"vehicle_type_id":"4","last_reported":1736060888,"current_range_meters":24400,"station_id":"ce4bh412rcd13ifvqds0","pricing_plan_id":"cebpf4jnsgd1na2vs0mg"},{"bike_id":"8d4566f5-07fe-47f4-85a6-9546b8b4eddd","system_id":"levelo_inurba_marseille","lat":43.25099,"lon":5.40325,"is_reserved":false,"is_disabled":false,"rental_uris":{"android":"levelo://app?vid=8d4566f5-07fe-47f4-85a6-9546b8b4eddd","ios":"levelo://app?vid=8d4566f5-07fe-47f4-85a6-9546b8b4eddd"},"vehicle_type_id":"4","last_reported":1736060888,"current_range_meters":8000,"station_id":"ce4bhlh2rcd13ifvqgig","pricing_plan_id":"cebpf4jnsgd1na2vs0mg"},{"bike_id":"ef22ed5c-9277-41a7-9094-412b6c7751ba","system_id":"levelo_inurba_marseille","lat":43.26226,"lon":5.3793,"is_reserved":false,"is_disabled":false,"rental_uris":{"android":"levelo://app?vid=ef22ed5c-9277-41a7-9094-412b6c7751ba","ios":"levelo://app?vid=ef22ed5c-9277-41a7-9094-412b6c7751ba"},"vehicle_type_id":"4","last_reported":1736060888,"current_range_meters":38800,"station_id":"ce4bhjp2rcd13ifvqg90","pricing_plan_id":"cebpf4jnsgd1na2vs0mg"},{"bike_id":"b510d321-b3eb-46d6-88ba-f2d4f82d736a","system_id":"levelo_inurba_marseille","lat":43.26932,"lon":5.38909,"is_reserved":false,"is_disabled":false,"rental_uris":{"android":"levelo://app?vid=b510d321-b3eb-46d6-88ba-f2d4f82d736a","ios":"levelo://app?vid=b510d321-b3eb-46d6-88ba-f2d4f82d736a"},"vehicle_type_id":"4","last_reported":1736060888,"current_range_meters":38800,"station_id":"ce4bhhh2rcd13ifvqfl0","pricing_plan_id":"cebpf4jnsgd1na2vs0mg"},{"bike_id":"f95780cf-3771-4ef5-9dcc-607d216b10de","system_id":"levelo_inurba_marseille","lat":43.285449,"lon":5.37066,"is_reserved":false,"is_disabled":false,"rental_uris":{"android":"levelo://app?vid=f95780cf-3771-4ef5-9dcc-607d216b10de","ios":"levelo://app?vid=f95780cf-3771-4ef5-9dcc-607d216b10de"},"vehicle_type_id":"4","last_reported":1736060888,"current_range_meters":28800,"station_id":"","pricing_plan_id":"cebpf4jnsgd1na2vs0mg"},{"bike_id":"10b5d3ef-9784-4208-88df-bf812b5e154a","system_id":"levelo_inurba_marseille","lat":43.301561,"lon":5.38079,"is_reserved":false,"is_disabled":false,"rental_uris":{"android":"levelo://app?vid=10b5d3ef-9784-4208-88df-bf812b5e154a","ios":"levelo://app?vid=10b5d3ef-9784-4208-88df-bf812b5e154a"},"vehicle_type_id":"4","last_reported":1736060888,"current_range_meters":39200,"station_id":"ce4bgjp2rcd13ifvqbh0","pricing_plan_id":"cebpf4jnsgd1na2vs0mg"},{"bike_id":"983a939f-0c90-4b41-8e07-1ba37a328643","system_id":"levelo_inurba_marseille","lat":43.24166,"lon":5.36392,"is_reserved":false,"is_disabled":false,"rental_uris":{"android":"levelo://app?vid=983a939f-0c90-4b41-8e07-1ba37a328643","ios":"levelo://app?vid=983a939f-0c90-4b41-8e07-1ba37a328643"},"vehicle_type_id":"4","last_reported":1736060888,"current_range_meters":22400,"station_id":"cpo36qri1sfpv3e86is0","pricing_plan_id":"cebpf4jnsgd1na2vs0mg"},{"bike_id":"e92918ec-92c9-453f-8a2f-aeaed83ac5fd","system_id":"levelo_inurba_marseille","lat":43.24077,"lon":5.37743,"is_reserved":false,"is_disabled":false,"rental_uris":{"android":"levelo://app?vid=e92918ec-92c9-453f-8a2f-aeaed83ac5fd","ios":"levelo://app?vid=e92918ec-92c9-453f-8a2f-aeaed83ac5fd"},"vehicle_type_id":"4","last_reported":1736060888,"current_range_meters":8000,"station_id":"ce4bhnp2rcd13ifvqgvg","pricing_plan_id":"cebpf4jnsgd1na2vs0mg"},{"bike_id":"2744d3d7-1c79-4955-8dfb-cd899dddfff5","system_id":"levelo_inurba_marseille","lat":43.284331,"lon":5.39186,"is_reserved":false,"is_disabled":false,"rental_uris":{"android":"levelo://app?vid=2744d3d7-1c79-4955-8dfb-cd899dddfff5","ios":"levelo://app?vid=2744d3d7-1c79-4955-8dfb-cd899dddfff5"},"vehicle_type_id":"4","last_reported":1736060888,"current_range_meters":32000,"station_id":"ce4bhoh2rcd13ifvqh5g","pricing_plan_id":"cebpf4jnsgd1na2vs0mg"},{"bike_id":"1f95228b-2707-4808-8d35-1365263ec69f","system_id":"levelo_inurba_marseille","lat":43.299379,"lon":5.365441,"is_reserved":false,"is_disabled":false,"rental_uris":{"android":"levelo://app?vid=1f95228b-2707-4808-8d35-1365263ec69f","ios":"levelo://app?vid=1f95228b-2707-4808-8d35-1365263ec69f"},"vehicle_type_id":"4","last_reported":1736060888,"current_range_meters":23200,"station_id":"ce4bgm92rcd13ifvqbr0","pricing_plan_id":"cebpf4jnsgd1na2vs0mg"},{"bike_id":"32fac1ac-160b-43ec-a560-a05ca5d5e872","system_id":"levelo_inurba_marseille","lat":43.31886,"lon":5.40742,"is_reserved":false,"is_disabled":false,"rental_uris":{"android":"levelo://app?vid=32fac1ac-160b-43ec-a560-a05ca5d5e872","ios":"levelo://app?vid=32fac1ac-160b-43ec-a560-a05ca5d5e872"},"vehicle_type_id":"4","last_reported":1736060888,"current_range_meters":38800,"station_id":"ce4bhq12rcd13ifvqhig","pricing_plan_id":"cebpf4jnsgd1na2vs0mg"},{"bike_id":"19b9bdca-e18b-40ad-b0aa-142ff2328ae5","system_id":"levelo_inurba_marseille","lat":43.25116,"lon":5.40333,"is_reserved":false,"is_disabled":false,"rental_uris":{"android":"levelo://app?vid=19b9bdca-e18b-40ad-b0aa-142ff2328ae5","ios":"levelo://app?vid=19b9bdca-e18b-40ad-b0aa-142ff2328ae5"},"vehicle_type_id":"4","last_reported":1736060888,"current_range_meters":38000,"station_id":"ce4bhlh2rcd13ifvqgig","pricing_plan_id":"cebpf4jnsgd1na2vs0mg"},{"bike_id":"c319d0d0-1dfe-4b08-8546-55d96ff17d9e","system_id":"levelo_inurba_marseille","lat":43.29256,"lon":5.40906,"is_reserved":false,"is_disabled":false,"rental_uris":{"android":"levelo://app?vid=c319d0d0-1dfe-4b08-8546-55d96ff17d9e","ios":"levelo://app?vid=c319d0d0-1dfe-4b08-8546-55d96ff17d9e"},"vehicle_type_id":"4","last_reported":1736060888,"current_range_meters":37600,"station_id":"ce4bh192rcd13ifvqdc0","pricing_plan_id":"cebpf4jnsgd1na2vs0mg"},{"bike_id":"d9288af1-5f8c-4fd9-8c46-d082ffb038e4","system_id":"levelo_inurba_marseille","lat":43.271854,"lon":5.409925,"is_reserved":false,"is_disabled":false,"rental_uris":{"android":"levelo://app?vid=d9288af1-5f8c-4fd9-8c46-d082ffb038e4","ios":"levelo://app?vid=d9288af1-5f8c-4fd9-8c46-d082ffb038e4"},"vehicle_type_id":"4","last_reported":1736060888,"current_range_meters":38800,"station_id":"ce4bhl12rcd13ifvqgf0","pricing_plan_id":"cebpf4jnsgd1na2vs0mg"},{"bike_id":"e7411666-e923-42df-a623-93dc1befea74","system_id":"levelo_inurba_marseille","lat":43.26943,"lon":5.38645,"is_reserved":false,"is_disabled":false,"rental_uris":{"android":"levelo://app?vid=e7411666-e923-42df-a623-93dc1befea74","ios":"levelo://app?vid=e7411666-e923-42df-a623-93dc1befea74"},"vehicle_type_id":"4","last_reported":1736060888,"current_range_meters":30000,"station_id":"ce4bhh92rcd13ifvqfh0","pricing_plan_id":"cebpf4jnsgd1na2vs0mg"},{"bike_id":"bcc619c8-857b-4da4-aae0-71b0c2252e06","system_id":"levelo_inurba_marseille","lat":43.26694,"lon":5.38282,"is_reserved":false,"is_disabled":true,"rental_uris":{"android":"levelo://app?vid=bcc619c8-857b-4da4-aae0-71b0c2252e06","ios":"levelo://app?vid=bcc619c8-857b-4da4-aae0-71b0c2252e06"},"vehicle_type_id":"4","last_reported":1736060888,"current_range_meters":38800,"station_id":"ce4bhg92rcd13ifvqf90","pricing_plan_id":"cebpf4jnsgd1na2vs0mg"},{"bike_id":"b3803476-a525-4dbc-a964-9ee205fe4c8c","system_id":"levelo_inurba_marseille","lat":43.305347,"lon":5.3843,"is_reserved":false,"is_disabled":false,"rental_uris":{"android":"levelo://app?vid=b3803476-a525-4dbc-a964-9ee205fe4c8c","ios":"levelo://app?vid=b3803476-a525-4dbc-a964-9ee205fe4c8c"},"vehicle_type_id":"4","last_reported":1736060888,"current_range_meters":9200,"station_id":"ce4bgg92rcd13ifvqb30","pricing_plan_id":"cebpf4jnsgd1na2vs0mg"},{"bike_id":"566f9d19-656c-4a7f-911a-9786f420a56c","system_id":"levelo_inurba_marseille","lat":43.28431,"lon":5.39185,"is_reserved":false,"is_disabled":false,"rental_uris":{"android":"levelo://app?vid=566f9d19-656c-4a7f-911a-9786f420a56c","ios":"levelo://app?vid=566f9d19-656c-4a7f-911a-9786f420a56c"},"vehicle_type_id":"4","last_reported":1736060888,"current_range_meters":29600,"station_id":"ce4bhoh2rcd13ifvqh5g","pricing_plan_id":"cebpf4jnsgd1na2vs0mg"},{"bike_id":"81f5ac7a-cb4f-41f3-86cb-c3adfa368f74","system_id":"levelo_inurba_marseille","lat":43.27942,"lon":5.41039,"is_reserved":false,"is_disabled":false,"rental_uris":{"android":"levelo://app?vid=81f5ac7a-cb4f-41f3-86cb-c3adfa368f74","ios":"levelo://app?vid=81f5ac7a-cb4f-41f3-86cb-c3adfa368f74"},"vehicle_type_id":"4","last_reported":1736060888,"current_range_meters":30800,"station_id":"ce4bhnp2rcd13ifvqh0g","pricing_plan_id":"cebpf4jnsgd1na2vs0mg"},{"bike_id":"53f617a7-9ee8-4223-a487-3a2df429000b","system_id":"levelo_inurba_marseille","lat":43.31114,"lon":5.37767,"is_reserved":false,"is_disabled":false,"rental_uris":{"android":"levelo://app?vid=53f617a7-9ee8-4223-a487-3a2df429000b","ios":"levelo://app?vid=53f617a7-9ee8-4223-a487-3a2df429000b"},"vehicle_type_id":"4","last_reported":1736060888,"current_range_meters":39200,"station_id":"ce4bgt92rcd13ifvqcg0","pricing_plan_id":"cebpf4jnsgd1na2vs0mg"},{"bike_id":"e56311a9-696b-4623-ac80-1212db344ea8","system_id":"levelo_inurba_marseille","lat":43.26821,"lon":5.40248,"is_reserved":false,"is_disabled":false,"rental_uris":{"android":"levelo://app?vid=e56311a9-696b-4623-ac80-1212db344ea8","ios":"levelo://app?vid=e56311a9-696b-4623-ac80-1212db344ea8"},"vehicle_type_id":"4","last_reported":1736060888,"current_range_meters":38800,"station_id":"ce501612rcd8frsf0b60","pricing_plan_id":"cebpf4jnsgd1na2vs0mg"},{"bike_id":"92462239-de85-494f-a516-dc3c94d877ef","system_id":"levelo_inurba_marseille","lat":43.303006,"lon":5.392128,"is_reserved":false,"is_disabled":false,"rental_uris":{"android":"levelo://app?vid=92462239-de85-494f-a516-dc3c94d877ef","ios":"levelo://app?vid=92462239-de85-494f-a516-dc3c94d877ef"},"vehicle_type_id":"4","last_reported":1736060888,"current_range_meters":38000,"station_id":"ce4bgkh2rcd13ifvqbk0","pricing_plan_id":"cebpf4jnsgd1na2vs0mg"},{"bike_id":"182c8827-ad8b-4aa6-9862-5b2da55309dc","system_id":"levelo_inurba_marseille","lat":43.29204,"lon":5.36039,"is_reserved":false,"is_disabled":true,"rental_uris":{"android":"levelo://app?vid=182c8827-ad8b-4aa6-9862-5b2da55309dc","ios":"levelo://app?vid=182c8827-ad8b-4aa6-9862-5b2da55309dc"},"vehicle_type_id":"4","last_reported":1736060888,"current_range_meters":6000,"station_id":"ce4bhbh2rcd13ifvqeqg","pricing_plan_id":"cebpf4jnsgd1na2vs0mg"},{"bike_id":"dfd567e7-17c8-4371-90b1-ef8f99896783","system_id":"levelo_inurba_marseille","lat":43.30134,"lon":5.398686,"is_reserved":false,"is_disabled":false,"rental_uris":{"android":"levelo://app?vid=dfd567e7-17c8-4371-90b1-ef8f99896783","ios":"levelo://app?vid=dfd567e7-17c8-4371-90b1-ef8f99896783"},"vehicle_type_id":"4","last_reported":1736060888,"current_range_meters":38000,"station_id":"ce4bh0h2rcd13ifvqd40","pricing_plan_id":"cebpf4jnsgd1na2vs0mg"},{"bike_id":"d8b76d84-2dfc-400f-9630-9e7b0787e9cc","system_id":"levelo_inurba_marseille","lat":43.275,"lon":5.42443,"is_reserved":false,"is_disabled":true,"rental_uris":{"android":"levelo://app?vid=d8b76d84-2dfc-400f-9630-9e7b0787e9cc","ios":"levelo://app?vid=d8b76d84-2dfc-400f-9630-9e7b0787e9cc"},"vehicle_type_id":"4","last_reported":1736060888,"current_range_meters":6000,"station_id":"ce4bhn92rcd13ifvqgrg","pricing_plan_id":"cebpf4jnsgd1na2vs0mg"},{"bike_id":"f4f58fe2-b260-4151-84d9-80d8a695c411","system_id":"levelo_inurba_marseille","lat":43.309535,"lon":5.390428,"is_reserved":false,"is_disabled":false,"rental_uris":{"android":"levelo://app?vid=f4f58fe2-b260-4151-84d9-80d8a695c411","ios":"levelo://app?vid=f4f58fe2-b260-4151-84d9-80d8a695c411"},"vehicle_type_id":"4","last_reported":1736060888,"current_range_meters":33200,"station_id":"ce4bgup2rcd13ifvqco0","pricing_plan_id":"cebpf4jnsgd1na2vs0mg"},{"bike_id":"eaecfcca-aa89-4e9a-8d17-c5be1539665b","system_id":"levelo_inurba_marseille","lat":43.282684,"lon":5.350619,"is_reserved":false,"is_disabled":true,"rental_uris":{"android":"levelo://app?vid=eaecfcca-aa89-4e9a-8d17-c5be1539665b","ios":"levelo://app?vid=eaecfcca-aa89-4e9a-8d17-c5be1539665b"},"vehicle_type_id":"4","last_reported":1736060888,"current_range_meters":3600,"station_id":"ce4bhbp2rcd13ifvqerg","pricing_plan_id":"cebpf4jnsgd1na2vs0mg"},{"bike_id":"896797d5-e48c-435a-a4ff-c7d0b4682116","system_id":"levelo_inurba_marseille","lat":43.27813,"lon":5.40708,"is_reserved":false,"is_disabled":false,"rental_uris":{"android":"levelo://app?vid=896797d5-e48c-435a-a4ff-c7d0b4682116","ios":"levelo://app?vid=896797d5-e48c-435a-a4ff-c7d0b4682116"},"vehicle_type_id":"4","last_reported":1736060888,"current_range_meters":24400,"station_id":"ce4bhnh2rcd13ifvqgtg","pricing_plan_id":"cebpf4jnsgd1na2vs0mg"},{"bike_id":"bbf16901-1354-41cb-b2ef-aa011be26434","system_id":"levelo_inurba_marseille","lat":43.26808,"lon":5.40264,"is_reserved":false,"is_disabled":false,"rental_uris":{"android":"levelo://app?vid=bbf16901-1354-41cb-b2ef-aa011be26434","ios":"levelo://app?vid=bbf16901-1354-41cb-b2ef-aa011be26434"},"vehicle_type_id":"4","last_reported":1736060888,"current_range_meters":38800,"station_id":"ce501612rcd8frsf0b60","pricing_plan_id":"cebpf4jnsgd1na2vs0mg"},{"bike_id":"4e86006f-38d3-401d-be15-e8dd8ff28846","system_id":"levelo_inurba_marseille","lat":43.27897,"lon":5.38001,"is_reserved":false,"is_disabled":false,"rental_uris":{"android":"levelo://app?vid=4e86006f-38d3-401d-be15-e8dd8ff28846","ios":"levelo://app?vid=4e86006f-38d3-401d-be15-e8dd8ff28846"},"vehicle_type_id":"4","last_reported":1736060888,"current_range_meters":38800,"station_id":"ce4bhf92rcd13ifvqf50","pricing_plan_id":"cebpf4jnsgd1na2vs0mg"},{"bike_id":"fcfa119a-c8b6-4888-8725-c347ecac30a1","system_id":"levelo_inurba_marseille","lat":43.29907,"lon":5.39751,"is_reserved":false,"is_disabled":false,"rental_uris":{"android":"levelo://app?vid=fcfa119a-c8b6-4888-8725-c347ecac30a1","ios":"levelo://app?vid=fcfa119a-c8b6-4888-8725-c347ecac30a1"},"vehicle_type_id":"4","last_reported":1736060888,"current_range_meters":38800,"station_id":"ce4bh0h2rcd13ifvqd50","pricing_plan_id":"cebpf4jnsgd1na2vs0mg"},{"bike_id":"a588cb44-8563-4fee-9f1f-8d2ffd45548e","system_id":"levelo_inurba_marseille","lat":43.27894,"lon":5.38022,"is_reserved":false,"is_disabled":false,"rental_uris":{"android":"levelo://app?vid=a588cb44-8563-4fee-9f1f-8d2ffd45548e","ios":"levelo://app?vid=a588cb44-8563-4fee-9f1f-8d2ffd45548e"},"vehicle_type_id":"4","last_reported":1736060888,"current_range_meters":28000,"station_id":"ce4bhf92rcd13ifvqf50","pricing_plan_id":"cebpf4jnsgd1na2vs0mg"},{"bike_id":"36d72a86-2006-4935-94c0-f8a9aba928ab","system_id":"levelo_inurba_marseille","lat":43.279076,"lon":5.395751,"is_reserved":false,"is_disabled":false,"rental_uris":{"android":"levelo://app?vid=36d72a86-2006-4935-94c0-f8a9aba928ab","ios":"levelo://app?vid=36d72a86-2006-4935-94c0-f8a9aba928ab"},"vehicle_type_id":"4","last_reported":1736060888,"current_range_meters":17600,"station_id":"ce4bhf92rcd13ifvqf40","pricing_plan_id":"cebpf4jnsgd1na2vs0mg"},{"bike_id":"7b7b303a-a0b7-4a31-b23c-f8fd5396854f","system_id":"levelo_inurba_marseille","lat":43.27697,"lon":5.38936,"is_reserved":false,"is_disabled":false,"rental_uris":{"android":"levelo://app?vid=7b7b303a-a0b7-4a31-b23c-f8fd5396854f","ios":"levelo://app?vid=7b7b303a-a0b7-4a31-b23c-f8fd5396854f"},"vehicle_type_id":"4","last_reported":1736060888,"current_range_meters":33200,"station_id":"","pricing_plan_id":"cebpf4jnsgd1na2vs0mg"},{"bike_id":"478b79ff-b061-464f-b89b-3fa6af477f65","system_id":"levelo_inurba_marseille","lat":43.28624,"lon":5.35105,"is_reserved":false,"is_disabled":false,"rental_uris":{"android":"levelo://app?vid=478b79ff-b061-464f-b89b-3fa6af477f65","ios":"levelo://app?vid=478b79ff-b061-464f-b89b-3fa6af477f65"},"vehicle_type_id":"4","last_reported":1736060888,"current_range_meters":31200,"station_id":"ce4bhch2rcd13ifvqeug","pricing_plan_id":"cebpf4jnsgd1na2vs0mg"},{"bike_id":"24bccac7-1e4b-45e8-bc23-0feeff5509f0","system_id":"levelo_inurba_marseille","lat":43.264988,"lon":5.395469,"is_reserved":false,"is_disabled":true,"rental_uris":{"android":"levelo://app?vid=24bccac7-1e4b-45e8-bc23-0feeff5509f0","ios":"levelo://app?vid=24bccac7-1e4b-45e8-bc23-0feeff5509f0"},"vehicle_type_id":"4","last_reported":1736060888,"current_range_meters":0,"station_id":"ce4bhi12rcd13ifvqfq0","pricing_plan_id":"cebpf4jnsgd1na2vs0mg"},{"bike_id":"d2c79f78-2783-4296-bfa5-6758b0ef70cf","system_id":"levelo_inurba_marseille","lat":43.262,"lon":5.37926,"is_reserved":false,"is_disabled":false,"rental_uris":{"android":"levelo://app?vid=d2c79f78-2783-4296-bfa5-6758b0ef70cf","ios":"levelo://app?vid=d2c79f78-2783-4296-bfa5-6758b0ef70cf"},"vehicle_type_id":"4","last_reported":1736060888,"current_range_meters":31200,"station_id":"ce4bhjp2rcd13ifvqg90","pricing_plan_id":"cebpf4jnsgd1na2vs0mg"},{"bike_id":"182069f5-9311-441d-b62a-092147390eed","system_id":"levelo_inurba_marseille","lat":43.231854,"lon":5.399821,"is_reserved":false,"is_disabled":false,"rental_uris":{"android":"levelo://app?vid=182069f5-9311-441d-b62a-092147390eed","ios":"levelo://app?vid=182069f5-9311-441d-b62a-092147390eed"},"vehicle_type_id":"4","last_reported":1736060888,"current_range_meters":39200,"station_id":"ce4bhn12rcd13ifvqgqg","pricing_plan_id":"cebpf4jnsgd1na2vs0mg"},{"bike_id":"5d0325b4-bbc6-4de3-bcc4-af792ab62121","system_id":"levelo_inurba_marseille","lat":43.27503,"lon":5.42454,"is_reserved":false,"is_disabled":false,"rental_uris":{"android":"levelo://app?vid=5d0325b4-bbc6-4de3-bcc4-af792ab62121","ios":"levelo://app?vid=5d0325b4-bbc6-4de3-bcc4-af792ab62121"},"vehicle_type_id":"4","last_reported":1736060888,"current_range_meters":12000,"station_id":"ce4bhn92rcd13ifvqgrg","pricing_plan_id":"cebpf4jnsgd1na2vs0mg"},{"bike_id":"463636ee-630d-47e5-bbe1-8d9064300f90","system_id":"levelo_inurba_marseille","lat":43.287032,"lon":5.399919,"is_reserved":false,"is_disabled":false,"rental_uris":{"android":"levelo://app?vid=463636ee-630d-47e5-bbe1-8d9064300f90","ios":"levelo://app?vid=463636ee-630d-47e5-bbe1-8d9064300f90"},"vehicle_type_id":"4","last_reported":1736060888,"current_range_meters":38800,"station_id":"ce4bho92rcd13ifvqh3g","pricing_plan_id":"cebpf4jnsgd1na2vs0mg"},{"bike_id":"b5c851df-5e61-4622-a0e9-2738da4bea79","system_id":"levelo_inurba_marseille","lat":43.30936,"lon":5.40143,"is_reserved":false,"is_disabled":false,"rental_uris":{"android":"levelo://app?vid=b5c851df-5e61-4622-a0e9-2738da4bea79","ios":"levelo://app?vid=b5c851df-5e61-4622-a0e9-2738da4bea79"},"vehicle_type_id":"4","last_reported":1736060888,"current_range_meters":39200,"station_id":"ce4bgvp2rcd13ifvqct0","pricing_plan_id":"cebpf4jnsgd1na2vs0mg"},{"bike_id":"270f72ca-6ff0-4006-b955-8701cfe72efd","system_id":"levelo_inurba_marseille","lat":43.29263,"lon":5.40159,"is_reserved":false,"is_disabled":true,"rental_uris":{"android":"levelo://app?vid=270f72ca-6ff0-4006-b955-8701cfe72efd","ios":"levelo://app?vid=270f72ca-6ff0-4006-b955-8701cfe72efd"},"vehicle_type_id":"4","last_reported":1736060888,"current_range_meters":3200,"station_id":"ce4bh312rcd13ifvqdk0","pricing_plan_id":"cebpf4jnsgd1na2vs0mg"},{"bike_id":"dec48ff9-46f1-45b2-af89-3775a7227852","system_id":"levelo_inurba_marseille","lat":43.273755,"lon":5.362565,"is_reserved":false,"is_disabled":false,"rental_uris":{"android":"levelo://app?vid=dec48ff9-46f1-45b2-af89-3775a7227852","ios":"levelo://app?vid=dec48ff9-46f1-45b2-af89-3775a7227852"},"vehicle_type_id":"4","last_reported":1736060888,"current_range_meters":38800,"station_id":"ce4bhbh2rcd13ifvqeo0","pricing_plan_id":"cebpf4jnsgd1na2vs0mg"},{"bike_id":"177c1e4d-2fcb-4b52-a3bf-88a2132c12b4","system_id":"levelo_inurba_marseille","lat":43.28695,"lon":5.37388,"is_reserved":false,"is_disabled":true,"rental_uris":{"android":"levelo://app?vid=177c1e4d-2fcb-4b52-a3bf-88a2132c12b4","ios":"levelo://app?vid=177c1e4d-2fcb-4b52-a3bf-88a2132c12b4"},"vehicle_type_id":"4","last_reported":1736060888,"current_range_meters":4000,"station_id":"ce4bh3p2rcd13ifvqdq0","pricing_plan_id":"cebpf4jnsgd1na2vs0mg"},{"bike_id":"bff7c09d-b6ea-4091-8ca4-65485a0e06c8","system_id":"levelo_inurba_marseille","lat":43.30204,"lon":5.394755,"is_reserved":false,"is_disabled":false,"rental_uris":{"android":"levelo://app?vid=bff7c09d-b6ea-4091-8ca4-65485a0e06c8","ios":"levelo://app?vid=bff7c09d-b6ea-4091-8ca4-65485a0e06c8"},"vehicle_type_id":"4","last_reported":1736060888,"current_range_meters":38000,"station_id":"ce4bh0p2rcd13ifvqd70","pricing_plan_id":"cebpf4jnsgd1na2vs0mg"},{"bike_id":"359a1aa8-70b2-403f-9709-f8f88023876b","system_id":"levelo_inurba_marseille","lat":43.269477,"lon":5.386391,"is_reserved":false,"is_disabled":false,"rental_uris":{"android":"levelo://app?vid=359a1aa8-70b2-403f-9709-f8f88023876b","ios":"levelo://app?vid=359a1aa8-70b2-403f-9709-f8f88023876b"},"vehicle_type_id":"4","last_reported":1736060888,"current_range_meters":24000,"station_id":"ce4bhh92rcd13ifvqfh0","pricing_plan_id":"cebpf4jnsgd1na2vs0mg"},{"bike_id":"b5de95e0-8f34-41aa-a5fc-c4e76e03a994","system_id":"levelo_inurba_marseille","lat":43.28095,"lon":5.39663,"is_reserved":false,"is_disabled":true,"rental_uris":{"android":"levelo://app?vid=b5de95e0-8f34-41aa-a5fc-c4e76e03a994","ios":"levelo://app?vid=b5de95e0-8f34-41aa-a5fc-c4e76e03a994"},"vehicle_type_id":"4","last_reported":1736060888,"current_range_meters":32400,"station_id":"ce4bho12rcd13ifvqh2g","pricing_plan_id":"cebpf4jnsgd1na2vs0mg"},{"bike_id":"aa33a53e-f806-43a8-ad7e-8e2bd9644426","system_id":"levelo_inurba_marseille","lat":43.32345,"lon":5.40629,"is_reserved":false,"is_disabled":true,"rental_uris":{"android":"levelo://app?vid=aa33a53e-f806-43a8-ad7e-8e2bd9644426","ios":"levelo://app?vid=aa33a53e-f806-43a8-ad7e-8e2bd9644426"},"vehicle_type_id":"4","last_reported":1736060888,"current_range_meters":0,"station_id":"ce4bhq92rcd13ifvqhjg","pricing_plan_id":"cebpf4jnsgd1na2vs0mg"},{"bike_id":"b9dc4ae5-8ee5-4a0e-8a96-a2e835ae7769","system_id":"levelo_inurba_marseille","lat":43.243909,"lon":5.370495,"is_reserved":false,"is_disabled":false,"rental_uris":{"android":"levelo://app?vid=b9dc4ae5-8ee5-4a0e-8a96-a2e835ae7769","ios":"levelo://app?vid=b9dc4ae5-8ee5-4a0e-8a96-a2e835ae7769"},"vehicle_type_id":"4","last_reported":1736060888,"current_range_meters":14000,"station_id":"ce4bhhh2rcd13ifvqfk0","pricing_plan_id":"cebpf4jnsgd1na2vs0mg"},{"bike_id":"be19a5cb-6dd8-4bfa-80d4-2363aed27b68","system_id":"levelo_inurba_marseille","lat":43.304,"lon":5.3847,"is_reserved":false,"is_disabled":false,"rental_uris":{"android":"levelo://app?vid=be19a5cb-6dd8-4bfa-80d4-2363aed27b68","ios":"levelo://app?vid=be19a5cb-6dd8-4bfa-80d4-2363aed27b68"},"vehicle_type_id":"4","last_reported":1736060888,"current_range_meters":33200,"station_id":"","pricing_plan_id":"cebpf4jnsgd1na2vs0mg"},{"bike_id":"fc7e8837-75c9-4586-ab0c-81cac28a04b3","system_id":"levelo_inurba_marseille","lat":43.28725,"lon":5.37941,"is_reserved":false,"is_disabled":false,"rental_uris":{"android":"levelo://app?vid=fc7e8837-75c9-4586-ab0c-81cac28a04b3","ios":"levelo://app?vid=fc7e8837-75c9-4586-ab0c-81cac28a04b3"},"vehicle_type_id":"4","last_reported":1736060888,"current_range_meters":38800,"station_id":"ce4bh9p2rcd13ifvqec0","pricing_plan_id":"cebpf4jnsgd1na2vs0mg"},{"bike_id":"57c24b3c-911d-4174-afb4-60d5c84ea89b","system_id":"levelo_inurba_marseille","lat":43.28458,"lon":5.35882,"is_reserved":false,"is_disabled":false,"rental_uris":{"android":"levelo://app?vid=57c24b3c-911d-4174-afb4-60d5c84ea89b","ios":"levelo://app?vid=57c24b3c-911d-4174-afb4-60d5c84ea89b"},"vehicle_type_id":"4","last_reported":1736060888,"current_range_meters":4000,"station_id":"ce4bhah2rcd13ifvqei0","pricing_plan_id":"cebpf4jnsgd1na2vs0mg"},{"bike_id":"40116a36-a63e-40d8-9def-344c9c3f2a7e","system_id":"levelo_inurba_marseille","lat":43.29048,"lon":5.39941,"is_reserved":false,"is_disabled":false,"rental_uris":{"android":"levelo://app?vid=40116a36-a63e-40d8-9def-344c9c3f2a7e","ios":"levelo://app?vid=40116a36-a63e-40d8-9def-344c9c3f2a7e"},"vehicle_type_id":"4","last_reported":1736060888,"current_range_meters":39200,"station_id":"ce4bh392rcd13ifvqdm0","pricing_plan_id":"cebpf4jnsgd1na2vs0mg"},{"bike_id":"0de43610-e24e-467d-80a0-6c1f5905af19","system_id":"levelo_inurba_marseille","lat":43.30491,"lon":5.37903,"is_reserved":false,"is_disabled":false,"rental_uris":{"android":"levelo://app?vid=0de43610-e24e-467d-80a0-6c1f5905af19","ios":"levelo://app?vid=0de43610-e24e-467d-80a0-6c1f5905af19"},"vehicle_type_id":"4","last_reported":1736060888,"current_range_meters":32000,"station_id":"ce4bgup2rcd13ifvqcn0","pricing_plan_id":"cebpf4jnsgd1na2vs0mg"},{"bike_id":"45744d07-eb73-453c-b6ee-d9a256b9901b","system_id":"levelo_inurba_marseille","lat":43.30956,"lon":5.39048,"is_reserved":false,"is_disabled":true,"rental_uris":{"android":"levelo://app?vid=45744d07-eb73-453c-b6ee-d9a256b9901b","ios":"levelo://app?vid=45744d07-eb73-453c-b6ee-d9a256b9901b"},"vehicle_type_id":"4","last_reported":1736060888,"current_range_meters":16000,"station_id":"ce4bgup2rcd13ifvqco0","pricing_plan_id":"cebpf4jnsgd1na2vs0mg"},{"bike_id":"336b1a63-3ea7-4e1c-8fe5-6b13ba610617","system_id":"levelo_inurba_marseille","lat":43.28602,"lon":5.37063,"is_reserved":false,"is_disabled":false,"rental_uris":{"android":"levelo://app?vid=336b1a63-3ea7-4e1c-8fe5-6b13ba610617","ios":"levelo://app?vid=336b1a63-3ea7-4e1c-8fe5-6b13ba610617"},"vehicle_type_id":"4","last_reported":1736060888,"current_range_meters":38800,"station_id":"ce4bht12rcd13ifvqi60","pricing_plan_id":"cebpf4jnsgd1na2vs0mg"},{"bike_id":"a4b49f45-757c-43f5-bd22-2dc89371c25b","system_id":"levelo_inurba_marseille","lat":43.27993,"lon":5.40004,"is_reserved":false,"is_disabled":false,"rental_uris":{"android":"levelo://app?vid=a4b49f45-757c-43f5-bd22-2dc89371c25b","ios":"levelo://app?vid=a4b49f45-757c-43f5-bd22-2dc89371c25b"},"vehicle_type_id":"4","last_reported":1736060888,"current_range_meters":20800,"station_id":"ce4bho92rcd13ifvqh4g","pricing_plan_id":"cebpf4jnsgd1na2vs0mg"},{"bike_id":"e14fc727-e110-4847-a3c5-e82ea6a6fcb8","system_id":"levelo_inurba_marseille","lat":43.28956,"lon":5.39633,"is_reserved":false,"is_disabled":true,"rental_uris":{"android":"levelo://app?vid=e14fc727-e110-4847-a3c5-e82ea6a6fcb8","ios":"levelo://app?vid=e14fc727-e110-4847-a3c5-e82ea6a6fcb8"},"vehicle_type_id":"4","last_reported":1736060888,"current_range_meters":36800,"station_id":"ce4bh3h2rcd13ifvqdn0","pricing_plan_id":"cebpf4jnsgd1na2vs0mg"},{"bike_id":"90082386-cf33-41a2-be84-4f9e667b59c0","system_id":"levelo_inurba_marseille","lat":43.311673,"lon":5.387166,"is_reserved":false,"is_disabled":false,"rental_uris":{"android":"levelo://app?vid=90082386-cf33-41a2-be84-4f9e667b59c0","ios":"levelo://app?vid=90082386-cf33-41a2-be84-4f9e667b59c0"},"vehicle_type_id":"4","last_reported":1736060888,"current_range_meters":39200,"station_id":"ce4bgv12rcd13ifvqcp0","pricing_plan_id":"cebpf4jnsgd1na2vs0mg"},{"bike_id":"0a99b035-72c7-4044-b4b4-123a52de8ffe","system_id":"levelo_inurba_marseille","lat":43.31114,"lon":5.37762,"is_reserved":false,"is_disabled":false,"rental_uris":{"android":"levelo://app?vid=0a99b035-72c7-4044-b4b4-123a52de8ffe","ios":"levelo://app?vid=0a99b035-72c7-4044-b4b4-123a52de8ffe"},"vehicle_type_id":"4","last_reported":1736060888,"current_range_meters":27200,"station_id":"ce4bgt92rcd13ifvqcg0","pricing_plan_id":"cebpf4jnsgd1na2vs0mg"},{"bike_id":"cdde791c-00c7-4d4f-abe9-f9cd2bd23184","system_id":"levelo_inurba_marseille","lat":43.29797,"lon":5.38105,"is_reserved":false,"is_disabled":false,"rental_uris":{"android":"levelo://app?vid=cdde791c-00c7-4d4f-abe9-f9cd2bd23184","ios":"levelo://app?vid=cdde791c-00c7-4d4f-abe9-f9cd2bd23184"},"vehicle_type_id":"4","last_reported":1736060888,"current_range_meters":38800,"station_id":"ce4bgip2rcd13ifvqbb0","pricing_plan_id":"cebpf4jnsgd1na2vs0mg"},{"bike_id":"049a3f86-6e26-4ed2-b216-bfc60dbb8305","system_id":"levelo_inurba_marseille","lat":43.25137,"lon":5.40315,"is_reserved":false,"is_disabled":false,"rental_uris":{"android":"levelo://app?vid=049a3f86-6e26-4ed2-b216-bfc60dbb8305","ios":"levelo://app?vid=049a3f86-6e26-4ed2-b216-bfc60dbb8305"},"vehicle_type_id":"4","last_reported":1736060888,"current_range_meters":28800,"station_id":"ce4bhlh2rcd13ifvqgig","pricing_plan_id":"cebpf4jnsgd1na2vs0mg"},{"bike_id":"223a4990-4e05-4395-8830-aea2c89ecd7a","system_id":"levelo_inurba_marseille","lat":43.290265,"lon":5.386397,"is_reserved":false,"is_disabled":true,"rental_uris":{"android":"levelo://app?vid=223a4990-4e05-4395-8830-aea2c89ecd7a","ios":"levelo://app?vid=223a4990-4e05-4395-8830-aea2c89ecd7a"},"vehicle_type_id":"4","last_reported":1736060888,"current_range_meters":30000,"station_id":"ce4bh4p2rcd13ifvqe0g","pricing_plan_id":"cebpf4jnsgd1na2vs0mg"},{"bike_id":"68b409ba-7a44-42dc-ae3b-6418ba6f5e03","system_id":"levelo_inurba_marseille","lat":43.29906,"lon":5.37457,"is_reserved":false,"is_disabled":false,"rental_uris":{"android":"levelo://app?vid=68b409ba-7a44-42dc-ae3b-6418ba6f5e03","ios":"levelo://app?vid=68b409ba-7a44-42dc-ae3b-6418ba6f5e03"},"vehicle_type_id":"4","last_reported":1736060888,"current_range_meters":38800,"station_id":"ce4bgjh2rcd13ifvqbg0","pricing_plan_id":"cebpf4jnsgd1na2vs0mg"},{"bike_id":"47482a76-601c-4d8d-9a9c-6565b981ebaf","system_id":"levelo_inurba_marseille","lat":43.29845,"lon":5.3628,"is_reserved":false,"is_disabled":false,"rental_uris":{"android":"levelo://app?vid=47482a76-601c-4d8d-9a9c-6565b981ebaf","ios":"levelo://app?vid=47482a76-601c-4d8d-9a9c-6565b981ebaf"},"vehicle_type_id":"4","last_reported":1736060888,"current_range_meters":23200,"station_id":"ce4bgpp2rcd13ifvqc3g","pricing_plan_id":"cebpf4jnsgd1na2vs0mg"},{"bike_id":"8a474426-cd46-4cf8-9edc-ef843a0ca02e","system_id":"levelo_inurba_marseille","lat":43.26572,"lon":5.39014,"is_reserved":false,"is_disabled":true,"rental_uris":{"android":"levelo://app?vid=8a474426-cd46-4cf8-9edc-ef843a0ca02e","ios":"levelo://app?vid=8a474426-cd46-4cf8-9edc-ef843a0ca02e"},"vehicle_type_id":"4","last_reported":1736060888,"current_range_meters":37600,"station_id":"ce4bhe12rcd13ifvqf30","pricing_plan_id":"cebpf4jnsgd1na2vs0mg"},{"bike_id":"d0234cf8-3190-48a6-bab2-6c84efe1b44c","system_id":"levelo_inurba_marseille","lat":43.24812,"lon":5.37451,"is_reserved":false,"is_disabled":false,"rental_uris":{"android":"levelo://app?vid=d0234cf8-3190-48a6-bab2-6c84efe1b44c","ios":"levelo://app?vid=d0234cf8-3190-48a6-bab2-6c84efe1b44c"},"vehicle_type_id":"4","last_reported":1736060888,"current_range_meters":38800,"station_id":"ce4bhgh2rcd13ifvqfb0","pricing_plan_id":"cebpf4jnsgd1na2vs0mg"},{"bike_id":"bbf998ea-d252-4590-8711-16d78ff4b07c","system_id":"levelo_inurba_marseille","lat":43.24648,"lon":5.3889,"is_reserved":false,"is_disabled":false,"rental_uris":{"android":"levelo://app?vid=bbf998ea-d252-4590-8711-16d78ff4b07c","ios":"levelo://app?vid=bbf998ea-d252-4590-8711-16d78ff4b07c"},"vehicle_type_id":"4","last_reported":1736060888,"current_range_meters":36000,"station_id":"ce4bhg12rcd13ifvqf60","pricing_plan_id":"cebpf4jnsgd1na2vs0mg"},{"bike_id":"fc360652-cbf7-4f54-9091-081207b2fa0b","system_id":"levelo_inurba_marseille","lat":43.24393,"lon":5.37054,"is_reserved":false,"is_disabled":false,"rental_uris":{"android":"levelo://app?vid=fc360652-cbf7-4f54-9091-081207b2fa0b","ios":"levelo://app?vid=fc360652-cbf7-4f54-9091-081207b2fa0b"},"vehicle_type_id":"4","last_reported":1736060888,"current_range_meters":28800,"station_id":"ce4bhhh2rcd13ifvqfk0","pricing_plan_id":"cebpf4jnsgd1na2vs0mg"},{"bike_id":"af68d2e6-d7e3-4eb8-9cf5-37ac1985b5a3","system_id":"levelo_inurba_marseille","lat":43.23063,"lon":5.35475,"is_reserved":false,"is_disabled":false,"rental_uris":{"android":"levelo://app?vid=af68d2e6-d7e3-4eb8-9cf5-37ac1985b5a3","ios":"levelo://app?vid=af68d2e6-d7e3-4eb8-9cf5-37ac1985b5a3"},"vehicle_type_id":"4","last_reported":1736060888,"current_range_meters":18800,"station_id":"cpo3342slgdg3j2ifvpg","pricing_plan_id":"cebpf4jnsgd1na2vs0mg"},{"bike_id":"3a5c757c-0aa5-4b3a-9bf3-bccf04231ed5","system_id":"levelo_inurba_marseille","lat":43.31704,"lon":5.43704,"is_reserved":false,"is_disabled":false,"rental_uris":{"android":"levelo://app?vid=3a5c757c-0aa5-4b3a-9bf3-bccf04231ed5","ios":"levelo://app?vid=3a5c757c-0aa5-4b3a-9bf3-bccf04231ed5"},"vehicle_type_id":"4","last_reported":1736060888,"current_range_meters":38800,"station_id":"ce4bhp92rcd13ifvqhcg","pricing_plan_id":"cebpf4jnsgd1na2vs0mg"},{"bike_id":"f5a4a49b-f269-4ec2-b80a-e579bf67a966","system_id":"levelo_inurba_marseille","lat":43.30914,"lon":5.36862,"is_reserved":false,"is_disabled":true,"rental_uris":{"android":"levelo://app?vid=f5a4a49b-f269-4ec2-b80a-e579bf67a966","ios":"levelo://app?vid=f5a4a49b-f269-4ec2-b80a-e579bf67a966"},"vehicle_type_id":"4","last_reported":1736060888,"current_range_meters":38400,"station_id":"ce4bgn92rcd13ifvqbvg","pricing_plan_id":"cebpf4jnsgd1na2vs0mg"},{"bike_id":"6f21fba1-6f8e-47c4-a476-286cca5f9cc6","system_id":"levelo_inurba_marseille","lat":43.2827,"lon":5.350769,"is_reserved":false,"is_disabled":true,"rental_uris":{"android":"levelo://app?vid=6f21fba1-6f8e-47c4-a476-286cca5f9cc6","ios":"levelo://app?vid=6f21fba1-6f8e-47c4-a476-286cca5f9cc6"},"vehicle_type_id":"4","last_reported":1736060888,"current_range_meters":0,"station_id":"ce4bhbp2rcd13ifvqerg","pricing_plan_id":"cebpf4jnsgd1na2vs0mg"},{"bike_id":"21f0e3c2-495a-43ca-b213-21dd4a411241","system_id":"levelo_inurba_marseille","lat":43.284371,"lon":5.391981,"is_reserved":false,"is_disabled":false,"rental_uris":{"android":"levelo://app?vid=21f0e3c2-495a-43ca-b213-21dd4a411241","ios":"levelo://app?vid=21f0e3c2-495a-43ca-b213-21dd4a411241"},"vehicle_type_id":"4","last_reported":1736060888,"current_range_meters":36400,"station_id":"ce4bhoh2rcd13ifvqh5g","pricing_plan_id":"cebpf4jnsgd1na2vs0mg"},{"bike_id":"f228fb38-90d0-4d47-8dd8-2dfedc8226f2","system_id":"levelo_inurba_marseille","lat":43.2761,"lon":5.36101,"is_reserved":false,"is_disabled":false,"rental_uris":{"android":"levelo://app?vid=f228fb38-90d0-4d47-8dd8-2dfedc8226f2","ios":"levelo://app?vid=f228fb38-90d0-4d47-8dd8-2dfedc8226f2"},"vehicle_type_id":"4","last_reported":1736060888,"current_range_meters":37600,"station_id":"ce4bgj92rcd13ifvqbe0","pricing_plan_id":"cebpf4jnsgd1na2vs0mg"},{"bike_id":"76bbd357-18e0-4c0c-85e5-583a1cf414f1","system_id":"levelo_inurba_marseille","lat":43.245447,"lon":5.395242,"is_reserved":false,"is_disabled":false,"rental_uris":{"android":"levelo://app?vid=76bbd357-18e0-4c0c-85e5-583a1cf414f1","ios":"levelo://app?vid=76bbd357-18e0-4c0c-85e5-583a1cf414f1"},"vehicle_type_id":"4","last_reported":1736060888,"current_range_meters":32000,"station_id":"ce4bhlp2rcd13ifvqgjg","pricing_plan_id":"cebpf4jnsgd1na2vs0mg"},{"bike_id":"8a2871f5-9447-484d-9926-098aa750c257","system_id":"levelo_inurba_marseille","lat":43.28416,"lon":5.37524,"is_reserved":false,"is_disabled":false,"rental_uris":{"android":"levelo://app?vid=8a2871f5-9447-484d-9926-098aa750c257","ios":"levelo://app?vid=8a2871f5-9447-484d-9926-098aa750c257"},"vehicle_type_id":"4","last_reported":1736060888,"current_range_meters":28400,"station_id":"ce4bh412rcd13ifvqds0","pricing_plan_id":"cebpf4jnsgd1na2vs0mg"},{"bike_id":"ed78eb6a-ccc5-4dcf-931f-9cdac5168b99","system_id":"levelo_inurba_marseille","lat":43.29716,"lon":5.39281,"is_reserved":false,"is_disabled":false,"rental_uris":{"android":"levelo://app?vid=ed78eb6a-ccc5-4dcf-931f-9cdac5168b99","ios":"levelo://app?vid=ed78eb6a-ccc5-4dcf-931f-9cdac5168b99"},"vehicle_type_id":"4","last_reported":1736060888,"current_range_meters":12000,"station_id":"chh1huq6cuj3fo74tm60","pricing_plan_id":"cebpf4jnsgd1na2vs0mg"},{"bike_id":"e541bdda-d30f-4206-86d7-38eb13e61909","system_id":"levelo_inurba_marseille","lat":43.30459,"lon":5.37898,"is_reserved":false,"is_disabled":false,"rental_uris":{"android":"levelo://app?vid=e541bdda-d30f-4206-86d7-38eb13e61909","ios":"levelo://app?vid=e541bdda-d30f-4206-86d7-38eb13e61909"},"vehicle_type_id":"4","last_reported":1736060888,"current_range_meters":20400,"station_id":"ce4bgup2rcd13ifvqcn0","pricing_plan_id":"cebpf4jnsgd1na2vs0mg"},{"bike_id":"15866eb7-8044-42af-9b48-3cdf6fb34853","system_id":"levelo_inurba_marseille","lat":43.31494,"lon":5.37311,"is_reserved":false,"is_disabled":false,"rental_uris":{"android":"levelo://app?vid=15866eb7-8044-42af-9b48-3cdf6fb34853","ios":"levelo://app?vid=15866eb7-8044-42af-9b48-3cdf6fb34853"},"vehicle_type_id":"4","last_reported":1736060888,"current_range_meters":36800,"station_id":"ce4bgt12rcd13ifvqcd0","pricing_plan_id":"cebpf4jnsgd1na2vs0mg"},{"bike_id":"d30b1091-2e5d-4e8f-bcf0-ff60bbd34c3b","system_id":"levelo_inurba_marseille","lat":43.26505,"lon":5.3954,"is_reserved":false,"is_disabled":false,"rental_uris":{"android":"levelo://app?vid=d30b1091-2e5d-4e8f-bcf0-ff60bbd34c3b","ios":"levelo://app?vid=d30b1091-2e5d-4e8f-bcf0-ff60bbd34c3b"},"vehicle_type_id":"4","last_reported":1736060888,"current_range_meters":22400,"station_id":"ce4bhi12rcd13ifvqfq0","pricing_plan_id":"cebpf4jnsgd1na2vs0mg"},{"bike_id":"23e7d1f0-b1dd-4e21-bebd-7993fd70f047","system_id":"levelo_inurba_marseille","lat":43.27903,"lon":5.40912,"is_reserved":false,"is_disabled":false,"rental_uris":{"android":"levelo://app?vid=23e7d1f0-b1dd-4e21-bebd-7993fd70f047","ios":"levelo://app?vid=23e7d1f0-b1dd-4e21-bebd-7993fd70f047"},"vehicle_type_id":"4","last_reported":1736060888,"current_range_meters":32800,"station_id":"","pricing_plan_id":"cebpf4jnsgd1na2vs0mg"},{"bike_id":"cc39dd1c-d620-4b70-8667-2e82f1f64a83","system_id":"levelo_inurba_marseille","lat":43.28345,"lon":5.381,"is_reserved":false,"is_disabled":false,"rental_uris":{"android":"levelo://app?vid=cc39dd1c-d620-4b70-8667-2e82f1f64a83","ios":"levelo://app?vid=cc39dd1c-d620-4b70-8667-2e82f1f64a83"},"vehicle_type_id":"4","last_reported":1736060888,"current_range_meters":30000,"station_id":"ce4bh412rcd13ifvqdr0","pricing_plan_id":"cebpf4jnsgd1na2vs0mg"},{"bike_id":"4d29d8ee-0808-4f38-84d5-f152acc8459a","system_id":"levelo_inurba_marseille","lat":43.295751,"lon":5.37502,"is_reserved":false,"is_disabled":true,"rental_uris":{"android":"levelo://app?vid=4d29d8ee-0808-4f38-84d5-f152acc8459a","ios":"levelo://app?vid=4d29d8ee-0808-4f38-84d5-f152acc8459a"},"vehicle_type_id":"4","last_reported":1736060888,"current_range_meters":9600,"station_id":"ce4bgh92rcd13ifvqb50","pricing_plan_id":"cebpf4jnsgd1na2vs0mg"},{"bike_id":"85cba0a3-d6ec-4723-83bf-95316674cece","system_id":"levelo_inurba_marseille","lat":43.27553,"lon":5.3843,"is_reserved":false,"is_disabled":true,"rental_uris":{"android":"levelo://app?vid=85cba0a3-d6ec-4723-83bf-95316674cece","ios":"levelo://app?vid=85cba0a3-d6ec-4723-83bf-95316674cece"},"vehicle_type_id":"4","last_reported":1736060888,"current_range_meters":2800,"station_id":"ce4bhh92rcd13ifvqfi0","pricing_plan_id":"cebpf4jnsgd1na2vs0mg"},{"bike_id":"d5355d3d-6620-4d8e-801e-d620f116c682","system_id":"levelo_inurba_marseille","lat":43.23062,"lon":5.35495,"is_reserved":false,"is_disabled":false,"rental_uris":{"android":"levelo://app?vid=d5355d3d-6620-4d8e-801e-d620f116c682","ios":"levelo://app?vid=d5355d3d-6620-4d8e-801e-d620f116c682"},"vehicle_type_id":"4","last_reported":1736060888,"current_range_meters":14400,"station_id":"cpo3342slgdg3j2ifvpg","pricing_plan_id":"cebpf4jnsgd1na2vs0mg"},{"bike_id":"eb322fa0-38c7-4498-8e9e-ec9b12e70d23","system_id":"levelo_inurba_marseille","lat":43.29933,"lon":5.36546,"is_reserved":false,"is_disabled":false,"rental_uris":{"android":"levelo://app?vid=eb322fa0-38c7-4498-8e9e-ec9b12e70d23","ios":"levelo://app?vid=eb322fa0-38c7-4498-8e9e-ec9b12e70d23"},"vehicle_type_id":"4","last_reported":1736060888,"current_range_meters":33200,"station_id":"ce4bgm92rcd13ifvqbr0","pricing_plan_id":"cebpf4jnsgd1na2vs0mg"},{"bike_id":"266d97a0-8b6a-4815-8e1e-a29e516886ab","system_id":"levelo_inurba_marseille","lat":43.32357,"lon":5.36729,"is_reserved":false,"is_disabled":false,"rental_uris":{"android":"levelo://app?vid=266d97a0-8b6a-4815-8e1e-a29e516886ab","ios":"levelo://app?vid=266d97a0-8b6a-4815-8e1e-a29e516886ab"},"vehicle_type_id":"4","last_reported":1736060888,"current_range_meters":33600,"station_id":"ce4bhsh2rcd13ifvqi2g","pricing_plan_id":"cebpf4jnsgd1na2vs0mg"},{"bike_id":"a7224998-3cd1-44ad-8892-e18e0ad97675","system_id":"levelo_inurba_marseille","lat":43.246697,"lon":5.381559,"is_reserved":false,"is_disabled":false,"rental_uris":{"android":"levelo://app?vid=a7224998-3cd1-44ad-8892-e18e0ad97675","ios":"levelo://app?vid=a7224998-3cd1-44ad-8892-e18e0ad97675"},"vehicle_type_id":"4","last_reported":1736060888,"current_range_meters":38800,"station_id":"ce4bhih2rcd13ifvqfr0","pricing_plan_id":"cebpf4jnsgd1na2vs0mg"},{"bike_id":"4d74f479-1d68-4f3b-b3b7-9f4e4b3d2025","system_id":"levelo_inurba_marseille","lat":43.29262,"lon":5.40912,"is_reserved":false,"is_disabled":false,"rental_uris":{"android":"levelo://app?vid=4d74f479-1d68-4f3b-b3b7-9f4e4b3d2025","ios":"levelo://app?vid=4d74f479-1d68-4f3b-b3b7-9f4e4b3d2025"},"vehicle_type_id":"4","last_reported":1736060888,"current_range_meters":38800,"station_id":"ce4bh192rcd13ifvqdc0","pricing_plan_id":"cebpf4jnsgd1na2vs0mg"},{"bike_id":"44d006be-70be-45b8-b039-62d0905c3f17","system_id":"levelo_inurba_marseille","lat":43.283446,"lon":5.381179,"is_reserved":false,"is_disabled":false,"rental_uris":{"android":"levelo://app?vid=44d006be-70be-45b8-b039-62d0905c3f17","ios":"levelo://app?vid=44d006be-70be-45b8-b039-62d0905c3f17"},"vehicle_type_id":"4","last_reported":1736060888,"current_range_meters":34000,"station_id":"ce4bh412rcd13ifvqdr0","pricing_plan_id":"cebpf4jnsgd1na2vs0mg"},{"bike_id":"db89f7dc-286e-488b-a0fe-29c67fd9c0ee","system_id":"levelo_inurba_marseille","lat":43.26186,"lon":5.37412,"is_reserved":false,"is_disabled":false,"rental_uris":{"android":"levelo://app?vid=db89f7dc-286e-488b-a0fe-29c67fd9c0ee","ios":"levelo://app?vid=db89f7dc-286e-488b-a0fe-29c67fd9c0ee"},"vehicle_type_id":"4","last_reported":1736060888,"current_range_meters":9600,"station_id":"ce4bhgp2rcd13ifvqfc0","pricing_plan_id":"cebpf4jnsgd1na2vs0mg"},{"bike_id":"c64b2e17-ecfc-463c-a656-f757a30f1981","system_id":"levelo_inurba_marseille","lat":43.27378,"lon":5.36255,"is_reserved":false,"is_disabled":false,"rental_uris":{"android":"levelo://app?vid=c64b2e17-ecfc-463c-a656-f757a30f1981","ios":"levelo://app?vid=c64b2e17-ecfc-463c-a656-f757a30f1981"},"vehicle_type_id":"4","last_reported":1736060888,"current_range_meters":28400,"station_id":"ce4bhbh2rcd13ifvqeo0","pricing_plan_id":"cebpf4jnsgd1na2vs0mg"},{"bike_id":"e0ee4d47-9ec0-42b1-97e1-6730629e9b12","system_id":"levelo_inurba_marseille","lat":43.28151,"lon":5.42653,"is_reserved":false,"is_disabled":false,"rental_uris":{"android":"levelo://app?vid=e0ee4d47-9ec0-42b1-97e1-6730629e9b12","ios":"levelo://app?vid=e0ee4d47-9ec0-42b1-97e1-6730629e9b12"},"vehicle_type_id":"4","last_reported":1736060888,"current_range_meters":28000,"station_id":"ce4bhnh2rcd13ifvqgug","pricing_plan_id":"cebpf4jnsgd1na2vs0mg"},{"bike_id":"425f29c7-b392-4559-9c0e-5c6a7964a8de","system_id":"levelo_inurba_marseille","lat":43.31123,"lon":5.37762,"is_reserved":false,"is_disabled":false,"rental_uris":{"android":"levelo://app?vid=425f29c7-b392-4559-9c0e-5c6a7964a8de","ios":"levelo://app?vid=425f29c7-b392-4559-9c0e-5c6a7964a8de"},"vehicle_type_id":"4","last_reported":1736060888,"current_range_meters":14000,"station_id":"ce4bgt92rcd13ifvqcg0","pricing_plan_id":"cebpf4jnsgd1na2vs0mg"},{"bike_id":"cb68bd1d-60b4-4198-9a91-a02146431c2a","system_id":"levelo_inurba_marseille","lat":43.286056,"lon":5.370573,"is_reserved":false,"is_disabled":false,"rental_uris":{"android":"levelo://app?vid=cb68bd1d-60b4-4198-9a91-a02146431c2a","ios":"levelo://app?vid=cb68bd1d-60b4-4198-9a91-a02146431c2a"},"vehicle_type_id":"4","last_reported":1736060888,"current_range_meters":8800,"station_id":"ce4bht12rcd13ifvqi60","pricing_plan_id":"cebpf4jnsgd1na2vs0mg"},{"bike_id":"f3de9f01-0329-4e8f-9301-885f78d99f9b","system_id":"levelo_inurba_marseille","lat":43.27998,"lon":5.40001,"is_reserved":false,"is_disabled":true,"rental_uris":{"android":"levelo://app?vid=f3de9f01-0329-4e8f-9301-885f78d99f9b","ios":"levelo://app?vid=f3de9f01-0329-4e8f-9301-885f78d99f9b"},"vehicle_type_id":"4","last_reported":1736060888,"current_range_meters":26000,"station_id":"ce4bho92rcd13ifvqh4g","pricing_plan_id":"cebpf4jnsgd1na2vs0mg"},{"bike_id":"46ebd6d1-d3bb-426e-9310-36ccef05f104","system_id":"levelo_inurba_marseille","lat":43.27946,"lon":5.41027,"is_reserved":false,"is_disabled":false,"rental_uris":{"android":"levelo://app?vid=46ebd6d1-d3bb-426e-9310-36ccef05f104","ios":"levelo://app?vid=46ebd6d1-d3bb-426e-9310-36ccef05f104"},"vehicle_type_id":"4","last_reported":1736060888,"current_range_meters":32000,"station_id":"ce4bhnp2rcd13ifvqh0g","pricing_plan_id":"cebpf4jnsgd1na2vs0mg"},