{"last_updated":1728990441,"ttl":60,"version":"2.2","data":{"bikes":[{"bike_id":"ca19aae3-ddc9-46d5-8241-83affcfa7618","system_id":"levelo_inurba_marseille","lat":43.25928,"lon":5.40916,"is_reserved":false,"is_disabled":false,"rental_uris":{"android":"levelo://app?vid=ca19aae3-ddc9-46d5-8241-83affcfa7618","ios":"levelo://app?vid=ca19aae3-ddc9-46d5-8241-83affcfa7618"},"vehicle_type_id":"4","last_reported":1728990441,"current_range_meters":12800,"station_id":"ce4bhm92rcd13ifvqglg","pricing_plan_id":"cebpf4jnsgd1na2vs0mg"},{"bike_id":"3f231685-3ca7-4aff-9bf1-413aef655857","system_id":"levelo_inurba_marseille","lat":43.2985,"lon":5.36286,"is_reserved":false,"is_disabled":false,"rental_uris":{"android":"levelo://app?vid=3f231685-3ca7-4aff-9bf1-413aef655857","ios":"levelo://app?vid=3f231685-3ca7-4aff-9bf1-413aef655857"},"vehicle_type_id":"4","last_reported":1728990441,"current_range_meters":32000,"station_id":"ce4bgpp2rcd13ifvqc3g","pricing_plan_id":"cebpf4jnsgd1na2vs0mg"},{"bike_id":"b219e8df-801b-4f0f-a0f6-ea2485c345f9","system_id":"levelo_inurba_marseille","lat":43.22929,"lon":5.35373,"is_reserved":false,"is_disabled":false,"rental_uris":{"android":"levelo://app?vid=b219e8df-801b-4f0f-a0f6-ea2485c345f9","ios":"levelo://app?vid=b219e8df-801b-4f0f-a0f6-ea2485c345f9"},"vehicle_type_id":"4","last_reported":1728990441,"current_range_meters":37600,"station_id":"cpo3532slgdg3j2ikp40","pricing_plan_id":"cebpf4jnsgd1na2vs0mg"},{"bike_id":"31c7e662-d946-45d1-9138-d81aac602548","system_id":"levelo_inurba_marseille","lat":43.30463,"lon":5.37918,"is_reserved":false,"is_disabled":false,"rental_uris":{"android":"levelo://app?vid=31c7e662-d946-45d1-9138-d81aac602548","ios":"levelo://app?vid=31c7e662-d946-45d1-9138-d81aac602548"},"vehicle_type_id":"4","last_reported":1728990441,"current_range_meters":8800,"station_id":"ce4bgup2rcd13ifvqcn0","pricing_plan_id":"cebpf4jnsgd1na2vs0mg"},{"bike_id":"a64e715f-d547-44b3-b9bf-531329fccc13","system_id":"levelo_inurba_marseille","lat":43.292642,"lon":5.367556,"is_reserved":false,"is_disabled":false,"rental_uris":{"android":"levelo://app?vid=a64e715f-d547-44b3-b9bf-531329fccc13","ios":"levelo://app?vid=a64e715f-d547-44b3-b9bf-531329fccc13"},"vehicle_type_id":"4","last_reported":1728990441,"current_range_meters":12000,"station_id":"","pricing_plan_id":"cebpf4jnsgd1na2vs0mg"},{"bike_id":"f560a7de-412c-480d-a0e0-c1bfe0f7cd11","system_id":"levelo_inurba_marseille","lat":43.25088,"lon":5.39523,"is_reserved":false,"is_disabled":false,"rental_uris":{"android":"levelo://app?vid=f560a7de-412c-480d-a0e0-c1bfe0f7cd11","ios":"levelo://app?vid=f560a7de-412c-480d-a0e0-c1bfe0f7cd11"},"vehicle_type_id":"4","last_reported":1728990441,"current_range_meters":8000,"station_id":"ce4bhm12rcd13ifvqgkg","pricing_plan_id":"cebpf4jnsgd1na2vs0mg"},{"bike_id":"d29eb176-6bf8-4d45-8a60-89fc87f9bbf7","system_id":"levelo_inurba_marseille","lat":43.2558,"lon":5.38241,"is_reserved":false,"is_disabled":false,"rental_uris":{"android":"levelo://app?vid=d29eb176-6bf8-4d45-8a60-89fc87f9bbf7","ios":"levelo://app?vid=d29eb176-6bf8-4d45-8a60-89fc87f9bbf7"},"vehicle_type_id":"4","last_reported":1728990441,"current_range_meters":17200,"station_id":"ce4bhih2rcd13ifvqfs0","pricing_plan_id":"cebpf4jnsgd1na2vs0mg"},{"bike_id":"2f32b335-748a-4dc5-bb48-7829ee341c86","system_id":"levelo_inurba_marseille","lat":43.3046,"lon":5.37899,"is_reserved":false,"is_disabled":false,"rental_uris":{"android":"levelo://app?vid=2f32b335-748a-4dc5-bb48-7829ee341c86","ios":"levelo://app?vid=2f32b335-748a-4dc5-bb48-7829ee341c86"},"vehicle_type_id":"4","last_reported":1728990441,"current_range_meters":18000,"station_id":"ce4bgup2rcd13ifvqcn0","pricing_plan_id":"cebpf4jnsgd1na2vs0mg"},{"bike_id":"c68392a0-2043-4a69-9831-98039d40c9e5","system_id":"levelo_inurba_marseille","lat":43.24542,"lon":5.39518,"is_reserved":false,"is_disabled":false,"rental_uris":{"android":"levelo://app?vid=c68392a0-2043-4a69-9831-98039d40c9e5","ios":"levelo://app?vid=c68392a0-2043-4a69-9831-98039d40c9e5"},"vehicle_type_id":"4","last_reported":1728990441,"current_range_meters":37600,"station_id":"ce4bhlp2rcd13ifvqgjg","pricing_plan_id":"cebpf4jnsgd1na2vs0mg"},{"bike_id":"1580fc1f-bd2a-485a-b99b-753495b142db","system_id":"levelo_inurba_marseille","lat":43.26552,"lon":5.37284,"is_reserved":false,"is_disabled":false,"rental_uris":{"android":"levelo://app?vid=1580fc1f-bd2a-485a-b99b-753495b142db","ios":"levelo://app?vid=1580fc1f-bd2a-485a-b99b-753495b142db"},"vehicle_type_id":"4","last_reported":1728990441,"current_range_meters":24800,"station_id":"ce4bhg12rcd13ifvqf70","pricing_plan_id":"cebpf4jnsgd1na2vs0mg"},{"bike_id":"978e1708-2f3b-4d72-b415-dbe1cfaa8617","system_id":"levelo_inurba_marseille","lat":43.25938,"lon":5.40902,"is_reserved":false,"is_disabled":false,"rental_uris":{"android":"levelo://app?vid=978e1708-2f3b-4d72-b415-dbe1cfaa8617","ios":"levelo://app?vid=978e1708-2f3b-4d72-b415-dbe1cfaa8617"},"vehicle_type_id":"4","last_reported":1728990441,"current_range_meters":10000,"station_id":"ce4bhm92rcd13ifvqglg","pricing_plan_id":"cebpf4jnsgd1na2vs0mg"},{"bike_id":"f89d7bd5-58bf-4742-ad77-5a9ea523e427","system_id":"levelo_inurba_marseille","lat":43.2582,"lon":5.39434,"is_reserved":false,"is_disabled":false,"rental_uris":{"android":"levelo://app?vid=f89d7bd5-58bf-4742-ad77-5a9ea523e427","ios":"levelo://app?vid=f89d7bd5-58bf-4742-ad77-5a9ea523e427"},"vehicle_type_id":"4","last_reported":1728990441,"current_range_meters":38000,"station_id":"ce4bhip2rcd13ifvqft0","pricing_plan_id":"cebpf4jnsgd1na2vs0mg"},{"bike_id":"b60b9d06-276a-4bae-a637-b2a348bf4034","system_id":"levelo_inurba_marseille","lat":43.31713,"lon":5.43708,"is_reserved":false,"is_disabled":false,"rental_uris":{"android":"levelo://app?vid=b60b9d06-276a-4bae-a637-b2a348bf4034","ios":"levelo://app?vid=b60b9d06-276a-4bae-a637-b2a348bf4034"},"vehicle_type_id":"4","last_reported":1728990441,"current_range_meters":18800,"station_id":"ce4bhp92rcd13ifvqhcg","pricing_plan_id":"cebpf4jnsgd1na2vs0mg"},{"bike_id":"1d1a5305-93eb-48bd-aca5-91c26433821c","system_id":"levelo_inurba_marseille","lat":43.30538,"lon":5.36534,"is_reserved":false,"is_disabled":false,"rental_uris":{"android":"levelo://app?vid=1d1a5305-93eb-48bd-aca5-91c26433821c","ios":"levelo://app?vid=1d1a5305-93eb-48bd-aca5-91c26433821c"},"vehicle_type_id":"4","last_reported":1728990441,"current_range_meters":35200,"station_id":"ce4bgs12rcd13ifvqcag","pricing_plan_id":"cebpf4jnsgd1na2vs0mg"},{"bike_id":"827f54e2-3a28-4880-bffb-3263589ccf19","system_id":"levelo_inurba_marseille","lat":43.28617,"lon":5.35108,"is_reserved":false,"is_disabled":false,"rental_uris":{"android":"levelo://app?vid=827f54e2-3a28-4880-bffb-3263589ccf19","ios":"levelo://app?vid=827f54e2-3a28-4880-bffb-3263589ccf19"},"vehicle_type_id":"4","last_reported":1728990441,"current_range_meters":3600,"station_id":"ce4bhch2rcd13ifvqeug","pricing_plan_id":"cebpf4jnsgd1na2vs0mg"},{"bike_id":"770b4181-5ae9-4e74-aecc-59e1c212b00e","system_id":"levelo_inurba_marseille","lat":43.29846,"lon":5.36272,"is_reserved":false,"is_disabled":false,"rental_uris":{"android":"levelo://app?vid=770b4181-5ae9-4e74-aecc-59e1c212b00e","ios":"levelo://app?vid=770b4181-5ae9-4e74-aecc-59e1c212b00e"},"vehicle_type_id":"4","last_reported":1728990441,"current_range_meters":34000,"station_id":"ce4bgpp2rcd13ifvqc3g","pricing_plan_id":"cebpf4jnsgd1na2vs0mg"},{"bike_id":"beea5ce3-6e3b-468e-af4b-c0aef7b7dfd3","system_id":"levelo_inurba_marseille","lat":43.24402,"lon":5.37054,"is_reserved":false,"is_disabled":false,"rental_uris":{"android":"levelo://app?vid=beea5ce3-6e3b-468e-af4b-c0aef7b7dfd3","ios":"levelo://app?vid=beea5ce3-6e3b-468e-af4b-c0aef7b7dfd3"},"vehicle_type_id":"4","last_reported":1728990441,"current_range_meters":16800,"station_id":"ce4bhhh2rcd13ifvqfk0","pricing_plan_id":"cebpf4jnsgd1na2vs0mg"},{"bike_id":"e889e8f1-1c27-4144-abe4-ea532c2e1b0a","system_id":"levelo_inurba_marseille","lat":43.28358,"lon":5.3863,"is_reserved":false,"is_disabled":false,"rental_uris":{"android":"levelo://app?vid=e889e8f1-1c27-4144-abe4-ea532c2e1b0a","ios":"levelo://app?vid=e889e8f1-1c27-4144-abe4-ea532c2e1b0a"},"vehicle_type_id":"4","last_reported":1728990441,"current_range_meters":29600,"station_id":"ce4bh492rcd13ifvqdvg","pricing_plan_id":"cebpf4jnsgd1na2vs0mg"},{"bike_id":"1e615543-3bea-4ff0-97e1-ecbf837c5845","system_id":"levelo_inurba_marseille","lat":43.304587,"lon":5.389766,"is_reserved":false,"is_disabled":false,"rental_uris":{"android":"levelo://app?vid=1e615543-3bea-4ff0-97e1-ecbf837c5845","ios":"levelo://app?vid=1e615543-3bea-4ff0-97e1-ecbf837c5845"},"vehicle_type_id":"4","last_reported":1728990441,"current_range_meters":16800,"station_id":"","pricing_plan_id":"cebpf4jnsgd1na2vs0mg"},{"bike_id":"9e21f6d9-4a73-497d-a7e2-5036db2477bd","system_id":"levelo_inurba_marseille","lat":43.28418,"lon":5.34988,"is_reserved":false,"is_disabled":false,"rental_uris":{"android":"levelo://app?vid=9e21f6d9-4a73-497d-a7e2-5036db2477bd","ios":"levelo://app?vid=9e21f6d9-4a73-497d-a7e2-5036db2477bd"},"vehicle_type_id":"4","last_reported":1728990441,"current_range_meters":17200,"station_id":"ce4bhbh2rcd13ifvqepg","pricing_plan_id":"cebpf4jnsgd1na2vs0mg"},{"bike_id":"72358ece-4187-445f-9954-0b053f59dd58","system_id":"levelo_inurba_marseille","lat":43.28269,"lon":5.35078,"is_reserved":false,"is_disabled":false,"rental_uris":{"android":"levelo://app?vid=72358ece-4187-445f-9954-0b053f59dd58","ios":"levelo://app?vid=72358ece-4187-445f-9954-0b053f59dd58"},"vehicle_type_id":"4","last_reported":1728990441,"current_range_meters":39200,"station_id":"ce4bhbp2rcd13ifvqerg","pricing_plan_id":"cebpf4jnsgd1na2vs0mg"},{"bike_id":"e9f67584-b7e7-4bf4-9c0d-6f1fa431ccff","system_id":"levelo_inurba_marseille","lat":43.28853,"lon":5.39318,"is_reserved":false,"is_disabled":false,"rental_uris":{"android":"levelo://app?vid=e9f67584-b7e7-4bf4-9c0d-6f1fa431ccff","ios":"levelo://app?vid=e9f67584-b7e7-4bf4-9c0d-6f1fa431ccff"},"vehicle_type_id":"4","last_reported":1728990441,"current_range_meters":36800,"station_id":"ce4bh2p2rcd13ifvqdi0","pricing_plan_id":"cebpf4jnsgd1na2vs0mg"},{"bike_id":"6781d60f-4dcc-43eb-9bfe-42b2453acf79","system_id":"levelo_inurba_marseille","lat":43.28442,"lon":5.39194,"is_reserved":false,"is_disabled":false,"rental_uris":{"android":"levelo://app?vid=6781d60f-4dcc-43eb-9bfe-42b2453acf79","ios":"levelo://app?vid=6781d60f-4dcc-43eb-9bfe-42b2453acf79"},"vehicle_type_id":"4","last_reported":1728990441,"current_range_meters":28400,"station_id":"ce4bhoh2rcd13ifvqh5g","pricing_plan_id":"cebpf4jnsgd1na2vs0mg"},{"bike_id":"ee0c4638-6d0b-4f43-be5c-7bc6c97e7eae","system_id":"levelo_inurba_marseille","lat":43.29908,"lon":5.38167,"is_reserved":false,"is_disabled":false,"rental_uris":{"android":"levelo://app?vid=ee0c4638-6d0b-4f43-be5c-7bc6c97e7eae","ios":"levelo://app?vid=ee0c4638-6d0b-4f43-be5c-7bc6c97e7eae"},"vehicle_type_id":"4","last_reported":1728990441,"current_range_meters":31200,"station_id":"ce4bgj12rcd13ifvqbc0","pricing_plan_id":"cebpf4jnsgd1na2vs0mg"},{"bike_id":"00958b56-8a73-4ac2-b45b-b25326b3fa13","system_id":"levelo_inurba_marseille","lat":43.29102,"lon":5.38123,"is_reserved":false,"is_disabled":false,"rental_uris":{"android":"levelo://app?vid=00958b56-8a73-4ac2-b45b-b25326b3fa13","ios":"levelo://app?vid=00958b56-8a73-4ac2-b45b-b25326b3fa13"},"vehicle_type_id":"4","last_reported":1728990441,"current_range_meters":36400,"station_id":"ce4bh512rcd13ifvqe2g","pricing_plan_id":"cebpf4jnsgd1na2vs0mg"},{"bike_id":"7807d8a0-6653-4f6e-9b43-e397dfc3c3c2","system_id":"levelo_inurba_marseille","lat":43.30594,"lon":5.39359,"is_reserved":false,"is_disabled":false,"rental_uris":{"android":"levelo://app?vid=7807d8a0-6653-4f6e-9b43-e397dfc3c3c2","ios":"levelo://app?vid=7807d8a0-6653-4f6e-9b43-e397dfc3c3c2"},"vehicle_type_id":"4","last_reported":1728990441,"current_range_meters":39200,"station_id":"ce4bh0p2rcd13ifvqd80","pricing_plan_id":"cebpf4jnsgd1na2vs0mg"},{"bike_id":"4fb1683d-a444-4ca4-8b7c-6e6f014ebc1a","system_id":"levelo_inurba_marseille","lat":43.33027,"lon":5.39039,"is_reserved":false,"is_disabled":false,"rental_uris":{"android":"levelo://app?vid=4fb1683d-a444-4ca4-8b7c-6e6f014ebc1a","ios":"levelo://app?vid=4fb1683d-a444-4ca4-8b7c-6e6f014ebc1a"},"vehicle_type_id":"4","last_reported":1728990441,"current_range_meters":27200,"station_id":"ce4bhr92rcd13ifvqhrg","pricing_plan_id":"cebpf4jnsgd1na2vs0mg"},{"bike_id":"85e0c597-b58e-4ed1-a673-617dd8815077","system_id":"levelo_inurba_marseille","lat":43.29934,"lon":5.41326,"is_reserved":false,"is_disabled":false,"rental_uris":{"android":"levelo://app?vid=85e0c597-b58e-4ed1-a673-617dd8815077","ios":"levelo://app?vid=85e0c597-b58e-4ed1-a673-617dd8815077"},"vehicle_type_id":"4","last_reported":1728990441,"current_range_meters":9600,"station_id":"ce4bhp12rcd13ifvqh9g","pricing_plan_id":"cebpf4jnsgd1na2vs0mg"},{"bike_id":"84c84207-6130-47e1-a650-fae47ae03581","system_id":"levelo_inurba_marseille","lat":43.33021,"lon":5.39047,"is_reserved":false,"is_disabled":false,"rental_uris":{"android":"levelo://app?vid=84c84207-6130-47e1-a650-fae47ae03581","ios":"levelo://app?vid=84c84207-6130-47e1-a650-fae47ae03581"},"vehicle_type_id":"4","last_reported":1728990441,"current_range_meters":7200,"station_id":"ce4bhr92rcd13ifvqhrg","pricing_plan_id":"cebpf4jnsgd1na2vs0mg"},{"bike_id":"00707241-c9a7-4262-a6e1-14ee27f38531","system_id":"levelo_inurba_marseille","lat":43.28276,"lon":5.3508,"is_reserved":false,"is_disabled":false,"rental_uris":{"android":"levelo://app?vid=00707241-c9a7-4262-a6e1-14ee27f38531","ios":"levelo://app?vid=00707241-c9a7-4262-a6e1-14ee27f38531"},"vehicle_type_id":"4","last_reported":1728990441,"current_range_meters":14800,"station_id":"ce4bhbp2rcd13ifvqerg","pricing_plan_id":"cebpf4jnsgd1na2vs0mg"},{"bike_id":"89198ecf-9ad5-429c-84dc-a279ee6e8f88","system_id":"levelo_inurba_marseille","lat":43.33743,"lon":5.37443,"is_reserved":false,"is_disabled":false,"rental_uris":{"android":"levelo://app?vid=89198ecf-9ad5-429c-84dc-a279ee6e8f88","ios":"levelo://app?vid=89198ecf-9ad5-429c-84dc-a279ee6e8f88"},"vehicle_type_id":"4","last_reported":1728990441,"current_range_meters":35600,"station_id":"","pricing_plan_id":"cebpf4jnsgd1na2vs0mg"},{"bike_id":"8fdd4147-e848-49f0-9c54-870bdb6cb1f5","system_id":"levelo_inurba_marseille","lat":43.33608,"lon":5.41027,"is_reserved":false,"is_disabled":false,"rental_uris":{"android":"levelo://app?vid=8fdd4147-e848-49f0-9c54-870bdb6cb1f5","ios":"levelo://app?vid=8fdd4147-e848-49f0-9c54-870bdb6cb1f5"},"vehicle_type_id":"4","last_reported":1728990441,"current_range_meters":35600,"station_id":"ce4bhqh2rcd13ifvqhmg","pricing_plan_id":"cebpf4jnsgd1na2vs0mg"},{"bike_id":"76445514-dd6c-426b-941e-789afb2f2c25","system_id":"levelo_inurba_marseille","lat":43.33605,"lon":5.41039,"is_reserved":false,"is_disabled":false,"rental_uris":{"android":"levelo://app?vid=76445514-dd6c-426b-941e-789afb2f2c25","ios":"levelo://app?vid=76445514-dd6c-426b-941e-789afb2f2c25"},"vehicle_type_id":"4","last_reported":1728990441,"current_range_meters":39200,"station_id":"ce4bhqh2rcd13ifvqhmg","pricing_plan_id":"cebpf4jnsgd1na2vs0mg"},{"bike_id":"7079880e-c7df-4c5d-9305-40db7fa229f9","system_id":"levelo_inurba_marseille","lat":43.24071,"lon":5.37762,"is_reserved":false,"is_disabled":false,"rental_uris":{"android":"levelo://app?vid=7079880e-c7df-4c5d-9305-40db7fa229f9","ios":"levelo://app?vid=7079880e-c7df-4c5d-9305-40db7fa229f9"},"vehicle_type_id":"4","last_reported":1728990441,"current_range_meters":36800,"station_id":"ce4bhnp2rcd13ifvqgvg","pricing_plan_id":"cebpf4jnsgd1na2vs0mg"},{"bike_id":"a0ab07e9-c753-41c4-aa1c-2c6167596919","system_id":"levelo_inurba_marseille","lat":43.30289,"lon":5.3683,"is_reserved":false,"is_disabled":false,"rental_uris":{"android":"levelo://app?vid=a0ab07e9-c753-41c4-aa1c-2c6167596919","ios":"levelo://app?vid=a0ab07e9-c753-41c4-aa1c-2c6167596919"},"vehicle_type_id":"4","last_reported":1728990441,"current_range_meters":38000,"station_id":"ce4bgqh2rcd13ifvqc5g","pricing_plan_id":"cebpf4jnsgd1na2vs0mg"},{"bike_id":"eb5e2a80-e4f0-490c-a49d-148ab8b2d56f","system_id":"levelo_inurba_marseille","lat":43.27938,"lon":5.41047,"is_reserved":false,"is_disabled":false,"rental_uris":{"android":"levelo://app?vid=eb5e2a80-e4f0-490c-a49d-148ab8b2d56f","ios":"levelo://app?vid=eb5e2a80-e4f0-490c-a49d-148ab8b2d56f"},"vehicle_type_id":"4","last_reported":1728990441,"current_range_meters":18000,"station_id":"ce4bhnp2rcd13ifvqh0g","pricing_plan_id":"cebpf4jnsgd1na2vs0mg"},{"bike_id":"cfe8f8d6-a024-473a-8f2e-1a9251c04829","system_id":"levelo_inurba_marseille","lat":43.32476,"lon":5.36565,"is_reserved":false,"is_disabled":false,"rental_uris":{"android":"levelo://app?vid=cfe8f8d6-a024-473a-8f2e-1a9251c04829","ios":"levelo://app?vid=cfe8f8d6-a024-473a-8f2e-1a9251c04829"},"vehicle_type_id":"4","last_reported":1728990441,"current_range_meters":25200,"station_id":"ce4bhs12rcd13ifvqhvg","pricing_plan_id":"cebpf4jnsgd1na2vs0mg"},{"bike_id":"27521189-a10b-488a-82b8-973812fa95e1","system_id":"levelo_inurba_marseille","lat":43.3248,"lon":5.36571,"is_reserved":false,"is_disabled":false,"rental_uris":{"android":"levelo://app?vid=27521189-a10b-488a-82b8-973812fa95e1","ios":"levelo://app?vid=27521189-a10b-488a-82b8-973812fa95e1"},"vehicle_type_id":"4","last_reported":1728990441,"current_range_meters":36800,"station_id":"ce4bhs12rcd13ifvqhvg","pricing_plan_id":"cebpf4jnsgd1na2vs0mg"},{"bike_id":"cbd7d81a-b913-4adf-8a4f-e40c105f9838","system_id":"levelo_inurba_marseille","lat":43.28417,"lon":5.34994,"is_reserved":false,"is_disabled":false,"rental_uris":{"android":"levelo://app?vid=cbd7d81a-b913-4adf-8a4f-e40c105f9838","ios":"levelo://app?vid=cbd7d81a-b913-4adf-8a4f-e40c105f9838"},"vehicle_type_id":"4","last_reported":1728990441,"current_range_meters":37600,"station_id":"ce4bhbh2rcd13ifvqepg","pricing_plan_id":"cebpf4jnsgd1na2vs0mg"},{"bike_id":"c80bffdd-5af6-417a-8b44-520a51e21254","system_id":"levelo_inurba_marseille","lat":43.30535,"lon":5.36548,"is_reserved":false,"is_disabled":false,"rental_uris":{"android":"levelo://app?vid=c80bffdd-5af6-417a-8b44-520a51e21254","ios":"levelo://app?vid=c80bffdd-5af6-417a-8b44-520a51e21254"},"vehicle_type_id":"4","last_reported":1728990441,"current_range_meters":10000,"station_id":"ce4bgs12rcd13ifvqcag","pricing_plan_id":"cebpf4jnsgd1na2vs0mg"},{"bike_id":"545f3ddb-65db-4ab0-b4a4-674579e7db1f","system_id":"levelo_inurba_marseille","lat":43.330688,"lon":5.374795,"is_reserved":false,"is_disabled":false,"rental_uris":{"android":"levelo://app?vid=545f3ddb-65db-4ab0-b4a4-674579e7db1f","ios":"levelo://app?vid=545f3ddb-65db-4ab0-b4a4-674579e7db1f"},"vehicle_type_id":"4","last_reported":1728990441,"current_range_meters":22400,"station_id":"","pricing_plan_id":"cebpf4jnsgd1na2vs0mg"},{"bike_id":"656bbff3-452f-42a7-85d2-4ab0c466f5f1","system_id":"levelo_inurba_marseille","lat":43.27943,"lon":5.4105,"is_reserved":false,"is_disabled":false,"rental_uris":{"android":"levelo://app?vid=656bbff3-452f-42a7-85d2-4ab0c466f5f1","ios":"levelo://app?vid=656bbff3-452f-42a7-85d2-4ab0c466f5f1"},"vehicle_type_id":"4","last_reported":1728990441,"current_range_meters":14400,"station_id":"ce4bhnp2rcd13ifvqh0g","pricing_plan_id":"cebpf4jnsgd1na2vs0mg"},{"bike_id":"af72c931-eb8a-4884-9dc9-d800fea8aa26","system_id":"levelo_inurba_marseille","lat":43.24388,"lon":5.37055,"is_reserved":false,"is_disabled":false,"rental_uris":{"android":"levelo://app?vid=af72c931-eb8a-4884-9dc9-d800fea8aa26","ios":"levelo://app?vid=af72c931-eb8a-4884-9dc9-d800fea8aa26"},"vehicle_type_id":"4","last_reported":1728990441,"current_range_meters":31200,"station_id":"ce4bhhh2rcd13ifvqfk0","pricing_plan_id":"cebpf4jnsgd1na2vs0mg"},{"bike_id":"15b84b64-92a6-416b-be37-aaa2fd34f23e","system_id":"levelo_inurba_marseille","lat":43.30142,"lon":5.37419,"is_reserved":false,"is_disabled":false,"rental_uris":{"android":"levelo://app?vid=15b84b64-92a6-416b-be37-aaa2fd34f23e","ios":"levelo://app?vid=15b84b64-92a6-416b-be37-aaa2fd34f23e"},"vehicle_type_id":"4","last_reported":1728990441,"current_range_meters":8000,"station_id":"ce4bgs92rcd13ifvqcc0","pricing_plan_id":"cebpf4jnsgd1na2vs0mg"},{"bike_id":"9136f388-278c-4699-901a-062515d45084","system_id":"levelo_inurba_marseille","lat":43.28928,"lon":5.36402,"is_reserved":false,"is_disabled":false,"rental_uris":{"android":"levelo://app?vid=9136f388-278c-4699-901a-062515d45084","ios":"levelo://app?vid=9136f388-278c-4699-901a-062515d45084"},"vehicle_type_id":"4","last_reported":1728990441,"current_range_meters":16400,"station_id":"ce4bhc92rcd13ifvqetg","pricing_plan_id":"cebpf4jnsgd1na2vs0mg"},{"bike_id":"0f21b4f0-8615-45b8-991b-a5d236ded134","system_id":"levelo_inurba_marseille","lat":43.29528,"lon":5.39045,"is_reserved":false,"is_disabled":false,"rental_uris":{"android":"levelo://app?vid=0f21b4f0-8615-45b8-991b-a5d236ded134","ios":"levelo://app?vid=0f21b4f0-8615-45b8-991b-a5d236ded134"},"vehicle_type_id":"4","last_reported":1728990441,"current_range_meters":38800,"station_id":"ce4bh3p2rcd13ifvqdp0","pricing_plan_id":"cebpf4jnsgd1na2vs0mg"},{"bike_id":"446168c3-e7fa-4444-a966-fa92840076d1","system_id":"levelo_inurba_marseille","lat":43.30537,"lon":5.36562,"is_reserved":false,"is_disabled":false,"rental_uris":{"android":"levelo://app?vid=446168c3-e7fa-4444-a966-fa92840076d1","ios":"levelo://app?vid=446168c3-e7fa-4444-a966-fa92840076d1"},"vehicle_type_id":"4","last_reported":1728990441,"current_range_meters":24400,"station_id":"ce4bgs12rcd13ifvqcag","pricing_plan_id":"cebpf4jnsgd1na2vs0mg"},{"bike_id":"a2eb58c6-dd46-4b5a-b81d-fe3714bbcfc9","system_id":"levelo_inurba_marseille","lat":43.23957,"lon":5.36637,"is_reserved":false,"is_disabled":false,"rental_uris":{"android":"levelo://app?vid=a2eb58c6-dd46-4b5a-b81d-fe3714bbcfc9","ios":"levelo://app?vid=a2eb58c6-dd46-4b5a-b81d-fe3714bbcfc9"},"vehicle_type_id":"4","last_reported":1728990441,"current_range_meters":8400,"station_id":"ce4bhi12rcd13ifvqfp0","pricing_plan_id":"cebpf4jnsgd1na2vs0mg"},{"bike_id":"f61f5020-9a98-430b-af24-9548f2ac9198","system_id":"levelo_inurba_marseille","lat":43.24393,"lon":5.3707,"is_reserved":false,"is_disabled":false,"rental_uris":{"android":"levelo://app?vid=f61f5020-9a98-430b-af24-9548f2ac9198","ios":"levelo://app?vid=f61f5020-9a98-430b-af24-9548f2ac9198"},"vehicle_type_id":"4","last_reported":1728990441,"current_range_meters":30800,"station_id":"ce4bhhh2rcd13ifvqfk0","pricing_plan_id":"cebpf4jnsgd1na2vs0mg"},{"bike_id":"28bc5a63-ca75-4ce8-ac3a-9b1176b191f0","system_id":"levelo_inurba_marseille","lat":43.29229,"lon":5.3607,"is_reserved":false,"is_disabled":false,"rental_uris":{"android":"levelo://app?vid=28bc5a63-ca75-4ce8-ac3a-9b1176b191f0","ios":"levelo://app?vid=28bc5a63-ca75-4ce8-ac3a-9b1176b191f0"},"vehicle_type_id":"4","last_reported":1728990441,"current_range_meters":28400,"station_id":"ce4bhbh2rcd13ifvqeqg","pricing_plan_id":"cebpf4jnsgd1na2vs0mg"},{"bike_id":"995213a4-b0e8-4737-b0b6-5f59e564978e","system_id":"levelo_inurba_marseille","lat":43.33604,"lon":5.41022,"is_reserved":false,"is_disabled":false,"rental_uris":{"android":"levelo://app?vid=995213a4-b0e8-4737-b0b6-5f59e564978e","ios":"levelo://app?vid=995213a4-b0e8-4737-b0b6-5f59e564978e"},"vehicle_type_id":"4","last_reported":1728990441,"current_range_meters":7200,"station_id":"ce4bhqh2rcd13ifvqhmg","pricing_plan_id":"cebpf4jnsgd1na2vs0mg"},{"bike_id":"b4bbd1cd-7779-4e96-a1d7-5bce1def52a7","system_id":"levelo_inurba_marseille","lat":43.31759,"lon":5.39015,"is_reserved":false,"is_disabled":false,"rental_uris":{"android":"levelo://app?vid=b4bbd1cd-7779-4e96-a1d7-5bce1def52a7","ios":"levelo://app?vid=b4bbd1cd-7779-4e96-a1d7-5bce1def52a7"},"vehicle_type_id":"4","last_reported":1728990441,"current_range_meters":10000,"station_id":"ce4bhqp2rcd13ifvqhng","pricing_plan_id":"cebpf4jnsgd1na2vs0mg"},{"bike_id":"f05cce9d-68e9-46ef-bf15-4511feedd133","system_id":"levelo_inurba_marseille","lat":43.30543,"lon":5.36706,"is_reserved":false,"is_disabled":false,"rental_uris":{"android":"levelo://app?vid=f05cce9d-68e9-46ef-bf15-4511feedd133","ios":"levelo://app?vid=f05cce9d-68e9-46ef-bf15-4511feedd133"},"vehicle_type_id":"4","last_reported":1728990441,"current_range_meters":7200,"station_id":"ce4bgrp2rcd13ifvqc9g","pricing_plan_id":"cebpf4jnsgd1na2vs0mg"},{"bike_id":"dfc3fa00-df4f-4f5d-89e8-4282aca8bae8","system_id":"levelo_inurba_marseille","lat":43.29521,"lon":5.39037,"is_reserved":false,"is_disabled":false,"rental_uris":{"android":"levelo://app?vid=dfc3fa00-df4f-4f5d-89e8-4282aca8bae8","ios":"levelo://app?vid=dfc3fa00-df4f-4f5d-89e8-4282aca8bae8"},"vehicle_type_id":"4","last_reported":1728990441,"current_range_meters":39200,"station_id":"ce4bh3p2rcd13ifvqdp0","pricing_plan_id":"cebpf4jnsgd1na2vs0mg"},{"bike_id":"c0670d96-b06e-446b-a07e-6b5eeebc59d7","system_id":"levelo_inurba_marseille","lat":43.274948,"lon":5.424466,"is_reserved":false,"is_disabled":false,"rental_uris":{"android":"levelo://app?vid=c0670d96-b06e-446b-a07e-6b5eeebc59d7","ios":"levelo://app?vid=c0670d96-b06e-446b-a07e-6b5eeebc59d7"},"vehicle_type_id":"4","last_reported":1728990441,"current_range_meters":12400,"station_id":"ce4bhn92rcd13ifvqgrg","pricing_plan_id":"cebpf4jnsgd1na2vs0mg"},{"bike_id":"485372db-c927-43ac-8631-871bcbd82cc0","system_id":"levelo_inurba_marseille","lat":43.24067,"lon":5.37754,"is_reserved":false,"is_disabled":false,"rental_uris":{"android":"levelo://app?vid=485372db-c927-43ac-8631-871bcbd82cc0","ios":"levelo://app?vid=485372db-c927-43ac-8631-871bcbd82cc0"},"vehicle_type_id":"4","last_reported":1728990441,"current_range_meters":11200,"station_id":"ce4bhnp2rcd13ifvqgvg","pricing_plan_id":"cebpf4jnsgd1na2vs0mg"},{"bike_id":"02c903ab-53e0-41d9-a4f7-29b840913cfb","system_id":"levelo_inurba_marseille","lat":43.25083,"lon":5.39522,"is_reserved":false,"is_disabled":false,"rental_uris":{"android":"levelo://app?vid=02c903ab-53e0-41d9-a4f7-29b840913cfb","ios":"levelo://app?vid=02c903ab-53e0-41d9-a4f7-29b840913cfb"},"vehicle_type_id":"4","last_reported":1728990441,"current_range_meters":16000,"station_id":"ce4bhm12rcd13ifvqgkg","pricing_plan_id":"cebpf4jnsgd1na2vs0mg"},{"bike_id":"a0d3d324-fa7e-4417-aee7-85012ecab44e","system_id":"levelo_inurba_marseille","lat":43.34192,"lon":5.44514,"is_reserved":false,"is_disabled":false,"rental_uris":{"android":"levelo://app?vid=a0d3d324-fa7e-4417-aee7-85012ecab44e","ios":"levelo://app?vid=a0d3d324-fa7e-4417-aee7-85012ecab44e"},"vehicle_type_id":"4","last_reported":1728990441,"current_range_meters":24400,"station_id":"","pricing_plan_id":"cebpf4jnsgd1na2vs0mg"},{"bike_id":"724c8533-6c2a-4d58-9645-9dc7cc8cde49","system_id":"levelo_inurba_marseille","lat":43.27183,"lon":5.40993,"is_reserved":false,"is_disabled":false,"rental_uris":{"android":"levelo://app?vid=724c8533-6c2a-4d58-9645-9dc7cc8cde49","ios":"levelo://app?vid=724c8533-6c2a-4d58-9645-9dc7cc8cde49"},"vehicle_type_id":"4","last_reported":1728990441,"current_range_meters":38000,"station_id":"ce4bhl12rcd13ifvqgf0","pricing_plan_id":"cebpf4jnsgd1na2vs0mg"},{"bike_id":"f02517cf-30cf-42ac-9675-f778726de1d7","system_id":"levelo_inurba_marseille","lat":43.28842,"lon":5.393179,"is_reserved":false,"is_disabled":false,"rental_uris":{"android":"levelo://app?vid=f02517cf-30cf-42ac-9675-f778726de1d7","ios":"levelo://app?vid=f02517cf-30cf-42ac-9675-f778726de1d7"},"vehicle_type_id":"4","last_reported":1728990441,"current_range_meters":36800,"station_id":"ce4bh2p2rcd13ifvqdi0","pricing_plan_id":"cebpf4jnsgd1na2vs0mg"},{"bike_id":"e857dc67-7178-40ce-b4c7-c51d9c28d7e0","system_id":"levelo_inurba_marseille","lat":43.30599,"lon":5.37235,"is_reserved":false,"is_disabled":false,"rental_uris":{"android":"levelo://app?vid=e857dc67-7178-40ce-b4c7-c51d9c28d7e0","ios":"levelo://app?vid=e857dc67-7178-40ce-b4c7-c51d9c28d7e0"},"vehicle_type_id":"4","last_reported":1728990441,"current_range_meters":27600,"station_id":"ce4bgqh2rcd13ifvqc4g","pricing_plan_id":"cebpf4jnsgd1na2vs0mg"},{"bike_id":"11205c31-eace-4506-b390-5ab1545a0fab","system_id":"levelo_inurba_marseille","lat":43.30264,"lon":5.40083,"is_reserved":false,"is_disabled":false,"rental_uris":{"android":"levelo://app?vid=11205c31-eace-4506-b390-5ab1545a0fab","ios":"levelo://app?vid=11205c31-eace-4506-b390-5ab1545a0fab"},"vehicle_type_id":"4","last_reported":1728990441,"current_range_meters":16400,"station_id":"ce4bgvh2rcd13ifvqcs0","pricing_plan_id":"cebpf4jnsgd1na2vs0mg"},{"bike_id":"fbfd8b90-8718-48f3-8776-d2976521fa84","system_id":"levelo_inurba_marseille","lat":43.250031,"lon":5.389129,"is_reserved":false,"is_disabled":false,"rental_uris":{"android":"levelo://app?vid=fbfd8b90-8718-48f3-8776-d2976521fa84","ios":"levelo://app?vid=fbfd8b90-8718-48f3-8776-d2976521fa84"},"vehicle_type_id":"4","last_reported":1728990441,"current_range_meters":32400,"station_id":"ce4bhgp2rcd13ifvqfd0","pricing_plan_id":"cebpf4jnsgd1na2vs0mg"},{"bike_id":"213121a8-db25-438b-b557-ea9ce8dfbb73","system_id":"levelo_inurba_marseille","lat":43.30129,"lon":5.38787,"is_reserved":false,"is_disabled":false,"rental_uris":{"android":"levelo://app?vid=213121a8-db25-438b-b557-ea9ce8dfbb73","ios":"levelo://app?vid=213121a8-db25-438b-b557-ea9ce8dfbb73"},"vehicle_type_id":"4","last_reported":1728990441,"current_range_meters":17200,"station_id":"ce4bghh2rcd13ifvqb60","pricing_plan_id":"cebpf4jnsgd1na2vs0mg"},{"bike_id":"e64e871d-6e9a-4c71-9ea0-c89d508ec004","system_id":"levelo_inurba_marseille","lat":43.23194,"lon":5.35555,"is_reserved":false,"is_disabled":false,"rental_uris":{"android":"levelo://app?vid=e64e871d-6e9a-4c71-9ea0-c89d508ec004","ios":"levelo://app?vid=e64e871d-6e9a-4c71-9ea0-c89d508ec004"},"vehicle_type_id":"4","last_reported":1728990441,"current_range_meters":27200,"station_id":"ce4bhu92rcd13ifvqi70","pricing_plan_id":"cebpf4jnsgd1na2vs0mg"},{"bike_id":"4797564a-effd-45d2-b2fe-02d1b7f531c1","system_id":"levelo_inurba_marseille","lat":43.24387,"lon":5.37064,"is_reserved":false,"is_disabled":false,"rental_uris":{"android":"levelo://app?vid=4797564a-effd-45d2-b2fe-02d1b7f531c1","ios":"levelo://app?vid=4797564a-effd-45d2-b2fe-02d1b7f531c1"},"vehicle_type_id":"4","last_reported":1728990441,"current_range_meters":19200,"station_id":"ce4bhhh2rcd13ifvqfk0","pricing_plan_id":"cebpf4jnsgd1na2vs0mg"},{"bike_id":"e8dd63c6-463b-4cbf-8ee0-d5b78b7532d1","system_id":"levelo_inurba_marseille","lat":43.287013,"lon":5.3739,"is_reserved":false,"is_disabled":false,"rental_uris":{"android":"levelo://app?vid=e8dd63c6-463b-4cbf-8ee0-d5b78b7532d1","ios":"levelo://app?vid=e8dd63c6-463b-4cbf-8ee0-d5b78b7532d1"},"vehicle_type_id":"4","last_reported":1728990441,"current_range_meters":38800,"station_id":"ce4bh3p2rcd13ifvqdq0","pricing_plan_id":"cebpf4jnsgd1na2vs0mg"},{"bike_id":"05d30f34-56d2-4588-aead-0e97761b8f32","system_id":"levelo_inurba_marseille","lat":43.29028,"lon":5.37575,"is_reserved":false,"is_disabled":false,"rental_uris":{"android":"levelo://app?vid=05d30f34-56d2-4588-aead-0e97761b8f32","ios":"levelo://app?vid=05d30f34-56d2-4588-aead-0e97761b8f32"},"vehicle_type_id":"4","last_reported":1728990441,"current_range_meters":17200,"station_id":"ce4bh692rcd13ifvqe90","pricing_plan_id":"cebpf4jnsgd1na2vs0mg"},{"bike_id":"8f1473c8-5614-4fe5-9a08-5f8d5d6a0adb","system_id":"levelo_inurba_marseille","lat":43.32109,"lon":5.36766,"is_reserved":false,"is_disabled":false,"rental_uris":{"android":"levelo://app?vid=8f1473c8-5614-4fe5-9a08-5f8d5d6a0adb","ios":"levelo://app?vid=8f1473c8-5614-4fe5-9a08-5f8d5d6a0adb"},"vehicle_type_id":"4","last_reported":1728990441,"current_range_meters":27200,"station_id":"ce4bhrh2rcd13ifvqhug","pricing_plan_id":"cebpf4jnsgd1na2vs0mg"},{"bike_id":"309d8eee-7f02-4317-bce5-0dc624e6b716","system_id":"levelo_inurba_marseille","lat":43.28278,"lon":5.35078,"is_reserved":false,"is_disabled":false,"rental_uris":{"android":"levelo://app?vid=309d8eee-7f02-4317-bce5-0dc624e6b716","ios":"levelo://app?vid=309d8eee-7f02-4317-bce5-0dc624e6b716"},"vehicle_type_id":"4","last_reported":1728990441,"current_range_meters":20800,"station_id":"ce4bhbp2rcd13ifvqerg","pricing_plan_id":"cebpf4jnsgd1na2vs0mg"},{"bike_id":"06bd8e3b-65e1-4389-97a4-35fe24bebce2","system_id":"levelo_inurba_marseille","lat":43.29553,"lon":5.42296,"is_reserved":false,"is_disabled":false,"rental_uris":{"android":"levelo://app?vid=06bd8e3b-65e1-4389-97a4-35fe24bebce2","ios":"levelo://app?vid=06bd8e3b-65e1-4389-97a4-35fe24bebce2"},"vehicle_type_id":"4","last_reported":1728990441,"current_range_meters":8800,"station_id":"ce4bhph2rcd13ifvqhdg","pricing_plan_id":"cebpf4jnsgd1na2vs0mg"},{"bike_id":"92105899-fa82-4c8e-a914-f69671f7d44b","system_id":"levelo_inurba_marseille","lat":43.29556,"lon":5.42292,"is_reserved":false,"is_disabled":false,"rental_uris":{"android":"levelo://app?vid=92105899-fa82-4c8e-a914-f69671f7d44b","ios":"levelo://app?vid=92105899-fa82-4c8e-a914-f69671f7d44b"},"vehicle_type_id":"4","last_reported":1728990441,"current_range_meters":2000,"station_id":"ce4bhph2rcd13ifvqhdg","pricing_plan_id":"cebpf4jnsgd1na2vs0mg"},{"bike_id":"bbb516b3-7dd6-44d0-bc06-fb26bfbac4e5","system_id":"levelo_inurba_marseille","lat":43.254867,"lon":5.376497,"is_reserved":false,"is_disabled":false,"rental_uris":{"android":"levelo://app?vid=bbb516b3-7dd6-44d0-bc06-fb26bfbac4e5","ios":"levelo://app?vid=bbb516b3-7dd6-44d0-bc06-fb26bfbac4e5"},"vehicle_type_id":"4","last_reported":1728990441,"current_range_meters":34800,"station_id":"ce4bhh12rcd13ifvqff0","pricing_plan_id":"cebpf4jnsgd1na2vs0mg"},{"bike_id":"0f10f84f-5e7d-44ed-8e33-5aad430f1fb0","system_id":"levelo_inurba_marseille","lat":43.323367,"lon":5.406258,"is_reserved":false,"is_disabled":false,"rental_uris":{"android":"levelo://app?vid=0f10f84f-5e7d-44ed-8e33-5aad430f1fb0","ios":"levelo://app?vid=0f10f84f-5e7d-44ed-8e33-5aad430f1fb0"},"vehicle_type_id":"4","last_reported":1728990441,"current_range_meters":22400,"station_id":"ce4bhq92rcd13ifvqhjg","pricing_plan_id":"cebpf4jnsgd1na2vs0mg"},{"bike_id":"9c75a2c9-809f-4518-b812-6dfc1ac280df","system_id":"levelo_inurba_marseille","lat":43.2512,"lon":5.40321,"is_reserved":false,"is_disabled":false,"rental_uris":{"android":"levelo://app?vid=9c75a2c9-809f-4518-b812-6dfc1ac280df","ios":"levelo://app?vid=9c75a2c9-809f-4518-b812-6dfc1ac280df"},"vehicle_type_id":"4","last_reported":1728990441,"current_range_meters":24400,"station_id":"ce4bhlh2rcd13ifvqgig","pricing_plan_id":"cebpf4jnsgd1na2vs0mg"},{"bike_id":"7e1661a9-04d5-4fd7-aa72-2044db1bd039","system_id":"levelo_inurba_marseille","lat":43.27497,"lon":5.42456,"is_reserved":false,"is_disabled":false,"rental_uris":{"android":"levelo://app?vid=7e1661a9-04d5-4fd7-aa72-2044db1bd039","ios":"levelo://app?vid=7e1661a9-04d5-4fd7-aa72-2044db1bd039"},"vehicle_type_id":"4","last_reported":1728990441,"current_range_meters":19600,"station_id":"ce4bhn92rcd13ifvqgrg","pricing_plan_id":"cebpf4jnsgd1na2vs0mg"},{"bike_id":"68feb18a-64ff-4a0e-ac27-8530ff76c845","system_id":"levelo_inurba_marseille","lat":43.28272,"lon":5.35079,"is_reserved":false,"is_disabled":false,"rental_uris":{"android":"levelo://app?vid=68feb18a-64ff-4a0e-ac27-8530ff76c845","ios":"levelo://app?vid=68feb18a-64ff-4a0e-ac27-8530ff76c845"},"vehicle_type_id":"4","last_reported":1728990441,"current_range_meters":13600,"station_id":"ce4bhbp2rcd13ifvqerg","pricing_plan_id":"cebpf4jnsgd1na2vs0mg"},{"bike_id":"2170cd0f-9f59-44ac-bac9-d7c5536a3ab3","system_id":"levelo_inurba_marseille","lat":43.31115,"lon":5.37772,"is_reserved":false,"is_disabled":false,"rental_uris":{"android":"levelo://app?vid=2170cd0f-9f59-44ac-bac9-d7c5536a3ab3","ios":"levelo://app?vid=2170cd0f-9f59-44ac-bac9-d7c5536a3ab3"},"vehicle_type_id":"4","last_reported":1728990441,"current_range_meters":28000,"station_id":"ce4bgt92rcd13ifvqcg0","pricing_plan_id":"cebpf4jnsgd1na2vs0mg"},{"bike_id":"270599d1-daf7-4469-bdc1-bd64a30d5cd0","system_id":"levelo_inurba_marseille","lat":43.28422,"lon":5.3499,"is_reserved":false,"is_disabled":false,"rental_uris":{"android":"levelo://app?vid=270599d1-daf7-4469-bdc1-bd64a30d5cd0","ios":"levelo://app?vid=270599d1-daf7-4469-bdc1-bd64a30d5cd0"},"vehicle_type_id":"4","last_reported":1728990441,"current_range_meters":36400,"station_id":"ce4bhbh2rcd13ifvqepg","pricing_plan_id":"cebpf4jnsgd1na2vs0mg"},{"bike_id":"0fc3bed2-0d6d-490d-9cbe-146bc9acd399","system_id":"levelo_inurba_marseille","lat":43.29193,"lon":5.35801,"is_reserved":false,"is_disabled":false,"rental_uris":{"android":"levelo://app?vid=0fc3bed2-0d6d-490d-9cbe-146bc9acd399","ios":"levelo://app?vid=0fc3bed2-0d6d-490d-9cbe-146bc9acd399"},"vehicle_type_id":"4","last_reported":1728990441,"current_range_meters":4800,"station_id":"ce4bhb12rcd13ifvqel0","pricing_plan_id":"cebpf4jnsgd1na2vs0mg"},{"bike_id":"a4728e0c-f1d6-4a9b-8e9c-2c06a0455b37","system_id":"levelo_inurba_marseille","lat":43.336,"lon":5.41032,"is_reserved":false,"is_disabled":false,"rental_uris":{"android":"levelo://app?vid=a4728e0c-f1d6-4a9b-8e9c-2c06a0455b37","ios":"levelo://app?vid=a4728e0c-f1d6-4a9b-8e9c-2c06a0455b37"},"vehicle_type_id":"4","last_reported":1728990441,"current_range_meters":29600,"station_id":"ce4bhqh2rcd13ifvqhmg","pricing_plan_id":"cebpf4jnsgd1na2vs0mg"},{"bike_id":"e043ac16-f754-4642-b077-d2e254dc22ac","system_id":"levelo_inurba_marseille","lat":43.30315,"lon":5.36896,"is_reserved":false,"is_disabled":false,"rental_uris":{"android":"levelo://app?vid=e043ac16-f754-4642-b077-d2e254dc22ac","ios":"levelo://app?vid=e043ac16-f754-4642-b077-d2e254dc22ac"},"vehicle_type_id":"4","last_reported":1728990441,"current_range_meters":37600,"station_id":"ce4bgqh2rcd13ifvqc5g","pricing_plan_id":"cebpf4jnsgd1na2vs0mg"},{"bike_id":"fc18448d-25be-44bf-9829-b9ab23d12464","system_id":"levelo_inurba_marseille","lat":43.24077,"lon":5.37754,"is_reserved":false,"is_disabled":false,"rental_uris":{"android":"levelo://app?vid=fc18448d-25be-44bf-9829-b9ab23d12464","ios":"levelo://app?vid=fc18448d-25be-44bf-9829-b9ab23d12464"},"vehicle_type_id":"4","last_reported":1728990441,"current_range_meters":7200,"station_id":"ce4bhnp2rcd13ifvqgvg","pricing_plan_id":"cebpf4jnsgd1na2vs0mg"},{"bike_id":"fc2eb84b-5dea-4ea3-baa9-9d47fde04de4","system_id":"levelo_inurba_marseille","lat":43.26213,"lon":5.3744,"is_reserved":false,"is_disabled":false,"rental_uris":{"android":"levelo://app?vid=fc2eb84b-5dea-4ea3-baa9-9d47fde04de4","ios":"levelo://app?vid=fc2eb84b-5dea-4ea3-baa9-9d47fde04de4"},"vehicle_type_id":"4","last_reported":1728990441,"current_range_meters":6400,"station_id":"ce4bhgp2rcd13ifvqfc0","pricing_plan_id":"cebpf4jnsgd1na2vs0mg"},{"bike_id":"2140b6a3-5118-4150-823e-9225aeb56201","system_id":"levelo_inurba_marseille","lat":43.23196,"lon":5.35546,"is_reserved":false,"is_disabled":false,"rental_uris":{"android":"levelo://app?vid=2140b6a3-5118-4150-823e-9225aeb56201","ios":"levelo://app?vid=2140b6a3-5118-4150-823e-9225aeb56201"},"vehicle_type_id":"4","last_reported":1728990441,"current_range_meters":8400,"station_id":"ce4bhu92rcd13ifvqi70","pricing_plan_id":"cebpf4jnsgd1na2vs0mg"},{"bike_id":"b251e36c-be91-4a12-b7ba-8787fd04b438","system_id":"levelo_inurba_marseille","lat":43.27055,"lon":5.40259,"is_reserved":false,"is_disabled":false,"rental_uris":{"android":"levelo://app?vid=b251e36c-be91-4a12-b7ba-8787fd04b438","ios":"levelo://app?vid=b251e36c-be91-4a12-b7ba-8787fd04b438"},"vehicle_type_id":"4","last_reported":1728990441,"current_range_meters":30800,"station_id":"ce4bhk92rcd13ifvqgc0","pricing_plan_id":"cebpf4jnsgd1na2vs0mg"},{"bike_id":"0d8bd227-6461-4af4-a8b3-bad4837d9899","system_id":"levelo_inurba_marseille","lat":43.30533,"lon":5.36556,"is_reserved":false,"is_disabled":false,"rental_uris":{"android":"levelo://app?vid=0d8bd227-6461-4af4-a8b3-bad4837d9899","ios":"levelo://app?vid=0d8bd227-6461-4af4-a8b3-bad4837d9899"},"vehicle_type_id":"4","last_reported":1728990441,"current_range_meters":6800,"station_id":"ce4bgs12rcd13ifvqcag","pricing_plan_id":"cebpf4jnsgd1na2vs0mg"},{"bike_id":"9a77466e-7138-4f6b-950d-2164d03a88d0","system_id":"levelo_inurba_marseille","lat":43.30239,"lon":5.39541,"is_reserved":false,"is_disabled":false,"rental_uris":{"android":"levelo://app?vid=9a77466e-7138-4f6b-950d-2164d03a88d0","ios":"levelo://app?vid=9a77466e-7138-4f6b-950d-2164d03a88d0"},"vehicle_type_id":"4","last_reported":1728990441,"current_range_meters":34000,"station_id":"ce4bh3h2rcd13ifvqdo0","pricing_plan_id":"cebpf4jnsgd1na2vs0mg"},{"bike_id":"b2b25b80-73ff-49fb-a8fd-43d50b207c14","system_id":"levelo_inurba_marseille","lat":43.29579,"lon":5.36744,"is_reserved":false,"is_disabled":false,"rental_uris":{"android":"levelo://app?vid=b2b25b80-73ff-49fb-a8fd-43d50b207c14","ios":"levelo://app?vid=b2b25b80-73ff-49fb-a8fd-43d50b207c14"},"vehicle_type_id":"4","last_reported":1728990441,"current_range_meters":28000,"station_id":"ce4bgph2rcd13ifvqc2g","pricing_plan_id":"cebpf4jnsgd1na2vs0mg"},{"bike_id":"3535e9f5-f9fb-49dd-9c21-f549edafad0d","system_id":"levelo_inurba_marseille","lat":43.2481,"lon":5.37459,"is_reserved":false,"is_disabled":false,"rental_uris":{"android":"levelo://app?vid=3535e9f5-f9fb-49dd-9c21-f549edafad0d","ios":"levelo://app?vid=3535e9f5-f9fb-49dd-9c21-f549edafad0d"},"vehicle_type_id":"4","last_reported":1728990441,"current_range_meters":12400,"station_id":"ce4bhgh2rcd13ifvqfb0","pricing_plan_id":"cebpf4jnsgd1na2vs0mg"},{"bike_id":"32f57965-98a3-4347-b445-344deea3b5b5","system_id":"levelo_inurba_marseille","lat":43.28274,"lon":5.350675,"is_reserved":false,"is_disabled":false,"rental_uris":{"android":"levelo://app?vid=32f57965-98a3-4347-b445-344deea3b5b5","ios":"levelo://app?vid=32f57965-98a3-4347-b445-344deea3b5b5"},"vehicle_type_id":"4","last_reported":1728990441,"current_range_meters":14800,"station_id":"ce4bhbp2rcd13ifvqerg","pricing_plan_id":"cebpf4jnsgd1na2vs0mg"},{"bike_id":"97d558dd-e0c5-4e59-9b13-b8d0c9843e06","system_id":"levelo_inurba_marseille","lat":43.27048,"lon":5.40262,"is_reserved":false,"is_disabled":false,"rental_uris":{"android":"levelo://app?vid=97d558dd-e0c5-4e59-9b13-b8d0c9843e06","ios":"levelo://app?vid=97d558dd-e0c5-4e59-9b13-b8d0c9843e06"},"vehicle_type_id":"4","last_reported":1728990441,"current_range_meters":16000,"station_id":"ce4bhk92rcd13ifvqgc0","pricing_plan_id":"cebpf4jnsgd1na2vs0mg"},{"bike_id":"82f04df2-a3d8-473d-a689-a69953c2b161","system_id":"levelo_inurba_marseille","lat":43.312167,"lon":5.368542,"is_reserved":false,"is_disabled":false,"rental_uris":{"android":"levelo://app?vid=82f04df2-a3d8-473d-a689-a69953c2b161","ios":"levelo://app?vid=82f04df2-a3d8-473d-a689-a69953c2b161"},"vehicle_type_id":"4","last_reported":1728990441,"current_range_meters":33600,"station_id":"ce4bgl92rcd13ifvqbq0","pricing_plan_id":"cebpf4jnsgd1na2vs0mg"},{"bike_id":"3cae6dbf-2f90-4eb1-a647-739d29c4291d","system_id":"levelo_inurba_marseille","lat":43.27048,"lon":5.40263,"is_reserved":false,"is_disabled":false,"rental_uris":{"android":"levelo://app?vid=3cae6dbf-2f90-4eb1-a647-739d29c4291d","ios":"levelo://app?vid=3cae6dbf-2f90-4eb1-a647-739d29c4291d"},"vehicle_type_id":"4","last_reported":1728990441,"current_range_meters":37600,"station_id":"ce4bhk92rcd13ifvqgc0","pricing_plan_id":"cebpf4jnsgd1na2vs0mg"},{"bike_id":"c41c4bd6-4e68-420e-b205-f8c962247a74","system_id":"levelo_inurba_marseille","lat":43.24387,"lon":5.37052,"is_reserved":false,"is_disabled":false,"rental_uris":{"android":"levelo://app?vid=c41c4bd6-4e68-420e-b205-f8c962247a74","ios":"levelo://app?vid=c41c4bd6-4e68-420e-b205-f8c962247a74"},"vehicle_type_id":"4","last_reported":1728990441,"current_range_meters":16000,"station_id":"ce4bhhh2rcd13ifvqfk0","pricing_plan_id":"cebpf4jnsgd1na2vs0mg"},{"bike_id":"e9d42937-a4b2-4a84-a233-384773796211","system_id":"levelo_inurba_marseille","lat":43.2593,"lon":5.40914,"is_reserved":false,"is_disabled":false,"rental_uris":{"android":"levelo://app?vid=e9d42937-a4b2-4a84-a233-384773796211","ios":"levelo://app?vid=e9d42937-a4b2-4a84-a233-384773796211"},"vehicle_type_id":"4","last_reported":1728990441,"current_range_meters":20400,"station_id":"ce4bhm92rcd13ifvqglg","pricing_plan_id":"cebpf4jnsgd1na2vs0mg"},{"bike_id":"47fba401-8923-4e44-a249-9013a4c9ac24","system_id":"levelo_inurba_marseille","lat":43.25503,"lon":5.37648,"is_reserved":false,"is_disabled":false,"rental_uris":{"android":"levelo://app?vid=47fba401-8923-4e44-a249-9013a4c9ac24","ios":"levelo://app?vid=47fba401-8923-4e44-a249-9013a4c9ac24"},"vehicle_type_id":"4","last_reported":1728990441,"current_range_meters":24400,"station_id":"ce4bhh12rcd13ifvqff0","pricing_plan_id":"cebpf4jnsgd1na2vs0mg"},{"bike_id":"80a88939-9e8f-4e1f-b831-2dc92e81149b","system_id":"levelo_inurba_marseille","lat":43.30142,"lon":5.38067,"is_reserved":false,"is_disabled":false,"rental_uris":{"android":"levelo://app?vid=80a88939-9e8f-4e1f-b831-2dc92e81149b","ios":"levelo://app?vid=80a88939-9e8f-4e1f-b831-2dc92e81149b"},"vehicle_type_id":"4","last_reported":1728990441,"current_range_meters":16400,"station_id":"ce4bgjp2rcd13ifvqbh0","pricing_plan_id":"cebpf4jnsgd1na2vs0mg"},{"bike_id":"76465980-7a9a-4872-9297-9b3aa19725f4","system_id":"levelo_inurba_marseille","lat":43.336,"lon":5.41034,"is_reserved":false,"is_disabled":false,"rental_uris":{"android":"levelo://app?vid=76465980-7a9a-4872-9297-9b3aa19725f4","ios":"levelo://app?vid=76465980-7a9a-4872-9297-9b3aa19725f4"},"vehicle_type_id":"4","last_reported":1728990441,"current_range_meters":6800,"station_id":"ce4bhqh2rcd13ifvqhmg","pricing_plan_id":"cebpf4jnsgd1na2vs0mg"},{"bike_id":"728973a7-fffc-4dcb-a566-e76afa5087d5","system_id":"levelo_inurba_marseille","lat":43.24385,"lon":5.37059,"is_reserved":false,"is_disabled":false,"rental_uris":{"android":"levelo://app?vid=728973a7-fffc-4dcb-a566-e76afa5087d5","ios":"levelo://app?vid=728973a7-fffc-4dcb-a566-e76afa5087d5"},"vehicle_type_id":"4","last_reported":1728990441,"current_range_meters":39200,"station_id":"ce4bhhh2rcd13ifvqfk0","pricing_plan_id":"cebpf4jnsgd1na2vs0mg"},{"bike_id":"e01e41b6-906b-4d38-bd47-8409331ef9cb","system_id":"levelo_inurba_marseille","lat":43.24167,"lon":5.363908,"is_reserved":false,"is_disabled":false,"rental_uris":{"android":"levelo://app?vid=e01e41b6-906b-4d38-bd47-8409331ef9cb","ios":"levelo://app?vid=e01e41b6-906b-4d38-bd47-8409331ef9cb"},"vehicle_type_id":"4","last_reported":1728990441,"current_range_meters":33200,"station_id":"cpo36qri1sfpv3e86is0","pricing_plan_id":"cebpf4jnsgd1na2vs0mg"},{"bike_id":"3091141f-0891-40ec-be4e-c950bf54ee29","system_id":"levelo_inurba_marseille","lat":43.266606,"lon":5.381686,"is_reserved":false,"is_disabled":false,"rental_uris":{"android":"levelo://app?vid=3091141f-0891-40ec-be4e-c950bf54ee29","ios":"levelo://app?vid=3091141f-0891-40ec-be4e-c950bf54ee29"},"vehicle_type_id":"4","last_reported":1728990441,"current_range_meters":36800,"station_id":"","pricing_plan_id":"cebpf4jnsgd1na2vs0mg"},{"bike_id":"4e49b3ba-7b50-4b5e-ab0f-de49337ae2d0","system_id":"levelo_inurba_marseille","lat":43.24073,"lon":5.37762,"is_reserved":false,"is_disabled":false,"rental_uris":{"android":"levelo://app?vid=4e49b3ba-7b50-4b5e-ab0f-de49337ae2d0","ios":"levelo://app?vid=4e49b3ba-7b50-4b5e-ab0f-de49337ae2d0"},"vehicle_type_id":"4","last_reported":1728990441,"current_range_meters":24400,"station_id":"ce4bhnp2rcd13ifvqgvg","pricing_plan_id":"cebpf4jnsgd1na2vs0mg"},{"bike_id":"89211ee2-076f-4df3-92bd-cd8885f2e76d","system_id":"levelo_inurba_marseille","lat":43.23194,"lon":5.35555,"is_reserved":false,"is_disabled":false,"rental_uris":{"android":"levelo://app?vid=89211ee2-076f-4df3-92bd-cd8885f2e76d","ios":"levelo://app?vid=89211ee2-076f-4df3-92bd-cd8885f2e76d"},"vehicle_type_id":"4","last_reported":1728990441,"current_range_meters":38800,"station_id":"ce4bhu92rcd13ifvqi70","pricing_plan_id":"cebpf4jnsgd1na2vs0mg"},{"bike_id":"108ab55c-fc18-4d62-9602-4246a00e9227","system_id":"levelo_inurba_marseille","lat":43.33728,"lon":5.39188,"is_reserved":false,"is_disabled":false,"rental_uris":{"android":"levelo://app?vid=108ab55c-fc18-4d62-9602-4246a00e9227","ios":"levelo://app?vid=108ab55c-fc18-4d62-9602-4246a00e9227"},"vehicle_type_id":"4","last_reported":1728990441,"current_range_meters":37600,"station_id":"ce4bhr92rcd13ifvqhsg","pricing_plan_id":"cebpf4jnsgd1na2vs0mg"},{"bike_id":"dd05567b-9801-4685-86a4-2132130f8705","system_id":"levelo_inurba_marseille","lat":43.26931,"lon":5.38917,"is_reserved":false,"is_disabled":false,"rental_uris":{"android":"levelo://app?vid=dd05567b-9801-4685-86a4-2132130f8705","ios":"levelo://app?vid=dd05567b-9801-4685-86a4-2132130f8705"},"vehicle_type_id":"4","last_reported":1728990441,"current_range_meters":15200,"station_id":"ce4bhhh2rcd13ifvqfl0","pricing_plan_id":"cebpf4jnsgd1na2vs0mg"},{"bike_id":"86c89b53-4dcf-4bae-8fa8-a09eb8fafad5","system_id":"levelo_inurba_marseille","lat":43.2967,"lon":5.37281,"is_reserved":false,"is_disabled":false,"rental_uris":{"android":"levelo://app?vid=86c89b53-4dcf-4bae-8fa8-a09eb8fafad5","ios":"levelo://app?vid=86c89b53-4dcf-4bae-8fa8-a09eb8fafad5"},"vehicle_type_id":"4","last_reported":1728990441,"current_range_meters":7200,"station_id":"ce4bgk12rcd13ifvqbj0","pricing_plan_id":"cebpf4jnsgd1na2vs0mg"},{"bike_id":"4a6e3261-cf00-4ffc-bb0f-d932baa5129d","system_id":"levelo_inurba_marseille","lat":43.29969,"lon":5.38494,"is_reserved":false,"is_disabled":false,"rental_uris":{"android":"levelo://app?vid=4a6e3261-cf00-4ffc-bb0f-d932baa5129d","ios":"levelo://app?vid=4a6e3261-cf00-4ffc-bb0f-d932baa5129d"},"vehicle_type_id":"4","last_reported":1728990441,"current_range_meters":6800,"station_id":"ce4bgj92rcd13ifvqbd0","pricing_plan_id":"cebpf4jnsgd1na2vs0mg"},{"bike_id":"90a4ac02-7285-437c-a7f1-39f93cfacb98","system_id":"levelo_inurba_marseille","lat":43.28424,"lon":5.34994,"is_reserved":false,"is_disabled":false,"rental_uris":{"android":"levelo://app?vid=90a4ac02-7285-437c-a7f1-39f93cfacb98","ios":"levelo://app?vid=90a4ac02-7285-437c-a7f1-39f93cfacb98"},"vehicle_type_id":"4","last_reported":1728990441,"current_range_meters":36000,"station_id":"ce4bhbh2rcd13ifvqepg","pricing_plan_id":"cebpf4jnsgd1na2vs0mg"},{"bike_id":"d0172c76-2cb1-45b6-8edc-16a37e4ed0f4","system_id":"levelo_inurba_marseille","lat":43.290778,"lon":5.371523,"is_reserved":false,"is_disabled":false,"rental_uris":{"android":"levelo://app?vid=d0172c76-2cb1-45b6-8edc-16a37e4ed0f4","ios":"levelo://app?vid=d0172c76-2cb1-45b6-8edc-16a37e4ed0f4"},"vehicle_type_id":"4","last_reported":1728990441,"current_range_meters":18800,"station_id":"ce4bh5p2rcd13ifvqe4g","pricing_plan_id":"cebpf4jnsgd1na2vs0mg"},{"bike_id":"6805e279-dd49-41bf-b594-46922953a007","system_id":"levelo_inurba_marseille","lat":43.28263,"lon":5.35077,"is_reserved":false,"is_disabled":false,"rental_uris":{"android":"levelo://app?vid=6805e279-dd49-41bf-b594-46922953a007","ios":"levelo://app?vid=6805e279-dd49-41bf-b594-46922953a007"},"vehicle_type_id":"4","last_reported":1728990441,"current_range_meters":18800,"station_id":"ce4bhbp2rcd13ifvqerg","pricing_plan_id":"cebpf4jnsgd1na2vs0mg"},{"bike_id":"8b35e8e1-6aec-4bc4-8536-8a14fe052e65","system_id":"levelo_inurba_marseille","lat":43.28437,"lon":5.3919,"is_reserved":false,"is_disabled":false,"rental_uris":{"android":"levelo://app?vid=8b35e8e1-6aec-4bc4-8536-8a14fe052e65","ios":"levelo://app?vid=8b35e8e1-6aec-4bc4-8536-8a14fe052e65"},"vehicle_type_id":"4","last_reported":1728990441,"current_range_meters":38800,"station_id":"ce4bhoh2rcd13ifvqh5g","pricing_plan_id":"cebpf4jnsgd1na2vs0mg"},{"bike_id":"c620684a-3a98-46a6-a3e2-625a11908b9f","system_id":"levelo_inurba_marseille","lat":43.27813,"lon":5.40706,"is_reserved":false,"is_disabled":false,"rental_uris":{"android":"levelo://app?vid=c620684a-3a98-46a6-a3e2-625a11908b9f","ios":"levelo://app?vid=c620684a-3a98-46a6-a3e2-625a11908b9f"},"vehicle_type_id":"4","last_reported":1728990441,"current_range_meters":11600,"station_id":"ce4bhnh2rcd13ifvqgtg","pricing_plan_id":"cebpf4jnsgd1na2vs0mg"},{"bike_id":"6291bba0-2275-48f9-985e-9763bf85404e","system_id":"levelo_inurba_marseille","lat":43.28364,"lon":5.38105,"is_reserved":false,"is_disabled":false,"rental_uris":{"android":"levelo://app?vid=6291bba0-2275-48f9-985e-9763bf85404e","ios":"levelo://app?vid=6291bba0-2275-48f9-985e-9763bf85404e"},"vehicle_type_id":"4","last_reported":1728990441,"current_range_meters":19600,"station_id":"ce4bh412rcd13ifvqdr0","pricing_plan_id":"cebpf4jnsgd1na2vs0mg"},{"bike_id":"9c4870ef-8189-49c9-8051-0aef7043e5cd","system_id":"levelo_inurba_marseille","lat":43.25938,"lon":5.40906,"is_reserved":false,"is_disabled":false,"rental_uris":{"android":"levelo://app?vid=9c4870ef-8189-49c9-8051-0aef7043e5cd","ios":"levelo://app?vid=9c4870ef-8189-49c9-8051-0aef7043e5cd"},"vehicle_type_id":"4","last_reported":1728990441,"current_range_meters":4400,"station_id":"ce4bhm92rcd13ifvqglg","pricing_plan_id":"cebpf4jnsgd1na2vs0mg"},{"bike_id":"9ed8810b-5cba-4de9-b1e4-0a09bcb33b3b","system_id":"levelo_inurba_marseille","lat":43.32532,"lon":5.41445,"is_reserved":false,"is_disabled":false,"rental_uris":{"android":"levelo://app?vid=9ed8810b-5cba-4de9-b1e4-0a09bcb33b3b","ios":"levelo://app?vid=9ed8810b-5cba-4de9-b1e4-0a09bcb33b3b"},"vehicle_type_id":"4","last_reported":1728990441,"current_range_meters":38800,"station_id":"ce4bhq12rcd13ifvqhhg","pricing_plan_id":"cebpf4jnsgd1na2vs0mg"},{"bike_id":"70fc60a6-b8a1-49de-8a6e-1b532dfb0edc","system_id":"levelo_inurba_marseille","lat":43.32488,"lon":5.36565,"is_reserved":false,"is_disabled":false,"rental_uris":{"android":"levelo://app?vid=70fc60a6-b8a1-49de-8a6e-1b532dfb0edc","ios":"levelo://app?vid=70fc60a6-b8a1-49de-8a6e-1b532dfb0edc"},"vehicle_type_id":"4","last_reported":1728990441,"current_range_meters":11600,"station_id":"ce4bhs12rcd13ifvqhvg","pricing_plan_id":"cebpf4jnsgd1na2vs0mg"},{"bike_id":"b6761712-cd33-437e-83c8-811ce3c1e59f","system_id":"levelo_inurba_marseille","lat":43.23962,"lon":5.36631,"is_reserved":false,"is_disabled":false,"rental_uris":{"android":"levelo://app?vid=b6761712-cd33-437e-83c8-811ce3c1e59f","ios":"levelo://app?vid=b6761712-cd33-437e-83c8-811ce3c1e59f"},"vehicle_type_id":"4","last_reported":1728990441,"current_range_meters":31200,"station_id":"ce4bhi12rcd13ifvqfp0","pricing_plan_id":"cebpf4jnsgd1na2vs0mg"},{"bike_id":"0bc1d0c4-66bd-4caf-a3fe-36ed49a79a0e","system_id":"levelo_inurba_marseille","lat":43.26195,"lon":5.3745,"is_reserved":false,"is_disabled":false,"rental_uris":{"android":"levelo://app?vid=0bc1d0c4-66bd-4caf-a3fe-36ed49a79a0e","ios":"levelo://app?vid=0bc1d0c4-66bd-4caf-a3fe-36ed49a79a0e"},"vehicle_type_id":"4","last_reported":1728990441,"current_range_meters":38800,"station_id":"ce4bhgp2rcd13ifvqfc0","pricing_plan_id":"cebpf4jnsgd1na2vs0mg"},{"bike_id":"ff96eee3-1ac8-4888-9ae7-e4b6cc8154af","system_id":"levelo_inurba_marseille","lat":43.33739,"lon":5.3746,"is_reserved":false,"is_disabled":false,"rental_uris":{"android":"levelo://app?vid=ff96eee3-1ac8-4888-9ae7-e4b6cc8154af","ios":"levelo://app?vid=ff96eee3-1ac8-4888-9ae7-e4b6cc8154af"},"vehicle_type_id":"4","last_reported":1728990441,"current_range_meters":34000,"station_id":"","pricing_plan_id":"cebpf4jnsgd1na2vs0mg"},{"bike_id":"342e1942-2d97-4b1e-a725-9986f3fd7423","system_id":"levelo_inurba_marseille","lat":43.31221,"lon":5.36866,"is_reserved":false,"is_disabled":false,"rental_uris":{"android":"levelo://app?vid=342e1942-2d97-4b1e-a725-9986f3fd7423","ios":"levelo://app?vid=342e1942-2d97-4b1e-a725-9986f3fd7423"},"vehicle_type_id":"4","last_reported":1728990441,"current_range_meters":30000,"station_id":"ce4bgl92rcd13ifvqbq0","pricing_plan_id":"cebpf4jnsgd1na2vs0mg"},{"bike_id":"ddd5af8a-0f19-49e8-b291-d1408413b89e","system_id":"levelo_inurba_marseille","lat":43.24179,"lon":5.39739,"is_reserved":false,"is_disabled":false,"rental_uris":{"android":"levelo://app?vid=ddd5af8a-0f19-49e8-b291-d1408413b89e","ios":"levelo://app?vid=ddd5af8a-0f19-49e8-b291-d1408413b89e"},"vehicle_type_id":"4","last_reported":1728990441,"current_range_meters":11200,"station_id":"ce4bhn12rcd13ifvqgpg","pricing_plan_id":"cebpf4jnsgd1na2vs0mg"},{"bike_id":"d0ca9da5-f74b-468b-9af6-6ce3f864b511","system_id":"levelo_inurba_marseille","lat":43.30599,"lon":5.37215,"is_reserved":false,"is_disabled":false,"rental_uris":{"android":"levelo://app?vid=d0ca9da5-f74b-468b-9af6-6ce3f864b511","ios":"levelo://app?vid=d0ca9da5-f74b-468b-9af6-6ce3f864b511"},"vehicle_type_id":"4","last_reported":1728990441,"current_range_meters":26000,"station_id":"ce4bgqh2rcd13ifvqc4g","pricing_plan_id":"cebpf4jnsgd1na2vs0mg"},{"bike_id":"6a67f872-f498-43d8-ad44-0ba73f03bb62","system_id":"levelo_inurba_marseille","lat":43.34146,"lon":5.40905,"is_reserved":false,"is_disabled":false,"rental_uris":{"android":"levelo://app?vid=6a67f872-f498-43d8-ad44-0ba73f03bb62","ios":"levelo://app?vid=6a67f872-f498-43d8-ad44-0ba73f03bb62"},"vehicle_type_id":"4","last_reported":1728990441,"current_range_meters":9600,"station_id":"ce4bhqh2rcd13ifvqhlg","pricing_plan_id":"cebpf4jnsgd1na2vs0mg"},{"bike_id":"20af76f0-89c6-4eaf-ae1e-4d5a1104c24a","system_id":"levelo_inurba_marseille","lat":43.26804,"lon":5.40264,"is_reserved":false,"is_disabled":false,"rental_uris":{"android":"levelo://app?vid=20af76f0-89c6-4eaf-ae1e-4d5a1104c24a","ios":"levelo://app?vid=20af76f0-89c6-4eaf-ae1e-4d5a1104c24a"},"vehicle_type_id":"4","last_reported":1728990441,"current_range_meters":38000,"station_id":"ce501612rcd8frsf0b60","pricing_plan_id":"cebpf4jnsgd1na2vs0mg"},{"bike_id":"e8e8118d-3d5e-42fd-9096-f73e58a1fa57","system_id":"levelo_inurba_marseille","lat":43.2984,"lon":5.36262,"is_reserved":false,"is_disabled":false,"rental_uris":{"android":"levelo://app?vid=e8e8118d-3d5e-42fd-9096-f73e58a1fa57","ios":"levelo://app?vid=e8e8118d-3d5e-42fd-9096-f73e58a1fa57"},"vehicle_type_id":"4","last_reported":1728990441,"current_range_meters":34000,"station_id":"ce4bgpp2rcd13ifvqc3g","pricing_plan_id":"cebpf4jnsgd1na2vs0mg"},{"bike_id":"2eef5bbc-7c47-4415-a185-f367b9917a11","system_id":"levelo_inurba_marseille","lat":43.27568,"lon":5.38417,"is_reserved":false,"is_disabled":false,"rental_uris":{"android":"levelo://app?vid=2eef5bbc-7c47-4415-a185-f367b9917a11","ios":"levelo://app?vid=2eef5bbc-7c47-4415-a185-f367b9917a11"},"vehicle_type_id":"4","last_reported":1728990441,"current_range_meters":32800,"station_id":"ce4bhh92rcd13ifvqfi0","pricing_plan_id":"cebpf4jnsgd1na2vs0mg"},{"bike_id":"08d5a34e-824e-4711-ac3c-589506dabd9d","system_id":"levelo_inurba_marseille","lat":43.308685,"lon":5.401173,"is_reserved":false,"is_disabled":false,"rental_uris":{"android":"levelo://app?vid=08d5a34e-824e-4711-ac3c-589506dabd9d","ios":"levelo://app?vid=08d5a34e-824e-4711-ac3c-589506dabd9d"},"vehicle_type_id":"4","last_reported":1728990441,"current_range_meters":28000,"station_id":"ce4bgvp2rcd13ifvqct0","pricing_plan_id":"cebpf4jnsgd1na2vs0mg"},{"bike_id":"d4e8dae1-48af-494d-931f-842209955577","system_id":"levelo_inurba_marseille","lat":43.29096,"lon":5.38136,"is_reserved":false,"is_disabled":false,"rental_uris":{"android":"levelo://app?vid=d4e8dae1-48af-494d-931f-842209955577","ios":"levelo://app?vid=d4e8dae1-48af-494d-931f-842209955577"},"vehicle_type_id":"4","last_reported":1728990441,"current_range_meters":4800,"station_id":"ce4bh512rcd13ifvqe2g","pricing_plan_id":"cebpf4jnsgd1na2vs0mg"},{"bike_id":"6ea1e508-b66d-4dca-8785-10b125b24918","system_id":"levelo_inurba_marseille","lat":43.31489,"lon":5.37304,"is_reserved":false,"is_disabled":false,"rental_uris":{"android":"levelo://app?vid=6ea1e508-b66d-4dca-8785-10b125b24918","ios":"levelo://app?vid=6ea1e508-b66d-4dca-8785-10b125b24918"},"vehicle_type_id":"4","last_reported":1728990441,"current_range_meters":20800,"station_id":"ce4bgt12rcd13ifvqcd0","pricing_plan_id":"cebpf4jnsgd1na2vs0mg"},{"bike_id":"292b9425-1372-40d4-bf0a-fe57aa779a41","system_id":"levelo_inurba_marseille","lat":43.23063,"lon":5.35495,"is_reserved":false,"is_disabled":false,"rental_uris":{"android":"levelo://app?vid=292b9425-1372-40d4-bf0a-fe57aa779a41","ios":"levelo://app?vid=292b9425-1372-40d4-bf0a-fe57aa779a41"},"vehicle_type_id":"4","last_reported":1728990441,"current_range_meters":34000,"station_id":"cpo3342slgdg3j2ifvpg","pricing_plan_id":"cebpf4jnsgd1na2vs0mg"},{"bike_id":"f1baba50-f384-4335-a052-af9eda4a52f0","system_id":"levelo_inurba_marseille","lat":43.24391,"lon":5.37053,"is_reserved":false,"is_disabled":false,"rental_uris":{"android":"levelo://app?vid=f1baba50-f384-4335-a052-af9eda4a52f0","ios":"levelo://app?vid=f1baba50-f384-4335-a052-af9eda4a52f0"},"vehicle_type_id":"4","last_reported":1728990441,"current_range_meters":39200,"station_id":"ce4bhhh2rcd13ifvqfk0","pricing_plan_id":"cebpf4jnsgd1na2vs0mg"},{"bike_id":"836f3c76-3a77-48f1-bde8-220184c205d1","system_id":"levelo_inurba_marseille","lat":43.30585,"lon":5.39355,"is_reserved":false,"is_disabled":false,"rental_uris":{"android":"levelo://app?vid=836f3c76-3a77-48f1-bde8-220184c205d1","ios":"levelo://app?vid=836f3c76-3a77-48f1-bde8-220184c205d1"},"vehicle_type_id":"4","last_reported":1728990441,"current_range_meters":38400,"station_id":"ce4bh0p2rcd13ifvqd80","pricing_plan_id":"cebpf4jnsgd1na2vs0mg"},{"bike_id":"88598f63-0871-4fe2-9dcf-a97c7fbe86b7","system_id":"levelo_inurba_marseille","lat":43.31227,"lon":5.36869,"is_reserved":false,"is_disabled":false,"rental_uris":{"android":"levelo://app?vid=88598f63-0871-4fe2-9dcf-a97c7fbe86b7","ios":"levelo://app?vid=88598f63-0871-4fe2-9dcf-a97c7fbe86b7"},"vehicle_type_id":"4","last_reported":1728990441,"current_range_meters":35600,"station_id":"ce4bgl92rcd13ifvqbq0","pricing_plan_id":"cebpf4jnsgd1na2vs0mg"},{"bike_id":"6c9a3f38-7b5d-4ca4-b009-76f838d3e8ab","system_id":"levelo_inurba_marseille","lat":43.28368,"lon":5.38097,"is_reserved":false,"is_disabled":false,"rental_uris":{"android":"levelo://app?vid=6c9a3f38-7b5d-4ca4-b009-76f838d3e8ab","ios":"levelo://app?vid=6c9a3f38-7b5d-4ca4-b009-76f838d3e8ab"},"vehicle_type_id":"4","last_reported":1728990441,"current_range_meters":8000,"station_id":"ce4bh412rcd13ifvqdr0","pricing_plan_id":"cebpf4jnsgd1na2vs0mg"},{"bike_id":"e1d315a9-818f-42ee-a1ff-f0147df88741","system_id":"levelo_inurba_marseille","lat":43.25931,"lon":5.40912,"is_reserved":false,"is_disabled":false,"rental_uris":{"android":"levelo://app?vid=e1d315a9-818f-42ee-a1ff-f0147df88741","ios":"levelo://app?vid=e1d315a9-818f-42ee-a1ff-f0147df88741"},"vehicle_type_id":"4","last_reported":1728990441,"current_range_meters":6400,"station_id":"ce4bhm92rcd13ifvqglg","pricing_plan_id":"cebpf4jnsgd1na2vs0mg"},{"bike_id":"7c0092ca-46bc-4ae5-9d66-bec37b8b017f","system_id":"levelo_inurba_marseille","lat":43.29049,"lon":5.35914,"is_reserved":false,"is_disabled":false,"rental_uris":{"android":"levelo://app?vid=7c0092ca-46bc-4ae5-9d66-bec37b8b017f","ios":"levelo://app?vid=7c0092ca-46bc-4ae5-9d66-bec37b8b017f"},"vehicle_type_id":"4","last_reported":1728990441,"current_range_meters":37600,"station_id":"ce4bha92rcd13ifvqeg0","pricing_plan_id":"cebpf4jnsgd1na2vs0mg"},{"bike_id":"d8597bf4-185f-46b0-9306-434905261110","system_id":"levelo_inurba_marseille","lat":43.28276,"lon":5.35076,"is_reserved":false,"is_disabled":false,"rental_uris":{"android":"levelo://app?vid=d8597bf4-185f-46b0-9306-434905261110","ios":"levelo://app?vid=d8597bf4-185f-46b0-9306-434905261110"},"vehicle_type_id":"4","last_reported":1728990441,"current_range_meters":39200,"station_id":"ce4bhbp2rcd13ifvqerg","pricing_plan_id":"cebpf4jnsgd1na2vs0mg"},{"bike_id":"f392c4e8-8c6f-4037-a813-d89fb5f9356b","system_id":"levelo_inurba_marseille","lat":43.286133,"lon":5.384856,"is_reserved":false,"is_disabled":false,"rental_uris":{"android":"levelo://app?vid=f392c4e8-8c6f-4037-a813-d89fb5f9356b","ios":"levelo://app?vid=f392c4e8-8c6f-4037-a813-d89fb5f9356b"},"vehicle_type_id":"4","last_reported":1728990441,"current_range_meters":6000,"station_id":"","pricing_plan_id":"cebpf4jnsgd1na2vs0mg"},{"bike_id":"38e8c1de-c0ca-4790-bba1-7aa6fb4b325a","system_id":"levelo_inurba_marseille","lat":43.337444,"lon":5.374475,"is_reserved":false,"is_disabled":false,"rental_uris":{"android":"levelo://app?vid=38e8c1de-c0ca-4790-bba1-7aa6fb4b325a","ios":"levelo://app?vid=38e8c1de-c0ca-4790-bba1-7aa6fb4b325a"},"vehicle_type_id":"4","last_reported":1728990441,"current_range_meters":26800,"station_id":"","pricing_plan_id":"cebpf4jnsgd1na2vs0mg"},{"bike_id":"9cd1e99e-2c98-48a1-ac8b-5e948f0b8848","system_id":"levelo_inurba_marseille","lat":43.31353,"lon":5.36709,"is_reserved":false,"is_disabled":false,"rental_uris":{"android":"levelo://app?vid=9cd1e99e-2c98-48a1-ac8b-5e948f0b8848","ios":"levelo://app?vid=9cd1e99e-2c98-48a1-ac8b-5e948f0b8848"},"vehicle_type_id":"4","last_reported":1728990441,"current_range_meters":12400,"station_id":"ce4bgr92rcd13ifvqc6g","pricing_plan_id":"cebpf4jnsgd1na2vs0mg"},{"bike_id":"e42a5c5b-19d2-48bc-8dfc-c8514ef28621","system_id":"levelo_inurba_marseille","lat":43.24169,"lon":5.36399,"is_reserved":false,"is_disabled":false,"rental_uris":{"android":"levelo://app?vid=e42a5c5b-19d2-48bc-8dfc-c8514ef28621","ios":"levelo://app?vid=e42a5c5b-19d2-48bc-8dfc-c8514ef28621"},"vehicle_type_id":"4","last_reported":1728990441,"current_range_meters":26000,"station_id":"cpo36qri1sfpv3e86is0","pricing_plan_id":"cebpf4jnsgd1na2vs0mg"},{"bike_id":"29ae45c1-626f-4e2b-92fa-69c89bb11e3d","system_id":"levelo_inurba_marseille","lat":43.2407,"lon":5.37764,"is_reserved":false,"is_disabled":false,"rental_uris":{"android":"levelo://app?vid=29ae45c1-626f-4e2b-92fa-69c89bb11e3d","ios":"levelo://app?vid=29ae45c1-626f-4e2b-92fa-69c89bb11e3d"},"vehicle_type_id":"4","last_reported":1728990441,"current_range_meters":27200,"station_id":"ce4bhnp2rcd13ifvqgvg","pricing_plan_id":"cebpf4jnsgd1na2vs0mg"},{"bike_id":"1989161d-8386-47b1-87a5-b86d93dc477e","system_id":"levelo_inurba_marseille","lat":43.25936,"lon":5.40915,"is_reserved":false,"is_disabled":false,"rental_uris":{"android":"levelo://app?vid=1989161d-8386-47b1-87a5-b86d93dc477e","ios":"levelo://app?vid=1989161d-8386-47b1-87a5-b86d93dc477e"},"vehicle_type_id":"4","last_reported":1728990441,"current_range_meters":33600,"station_id":"ce4bhm92rcd13ifvqglg","pricing_plan_id":"cebpf4jnsgd1na2vs0mg"},{"bike_id":"28697786-3247-42ee-b4b0-7baec5521e11","system_id":"levelo_inurba_marseille","lat":43.28356,"lon":5.38097,"is_reserved":false,"is_disabled":false,"rental_uris":{"android":"levelo://app?vid=28697786-3247-42ee-b4b0-7baec5521e11","ios":"levelo://app?vid=28697786-3247-42ee-b4b0-7baec5521e11"},"vehicle_type_id":"4","last_reported":1728990441,"current_range_meters":24800,"station_id":"ce4bh412rcd13ifvqdr0","pricing_plan_id":"cebpf4jnsgd1na2vs0mg"},{"bike_id":"3e70adaa-cf72-4736-9cca-b23aa081e307","system_id":"levelo_inurba_marseille","lat":43.32051,"lon":5.41571,"is_reserved":false,"is_disabled":false,"rental_uris":{"android":"levelo://app?vid=3e70adaa-cf72-4736-9cca-b23aa081e307","ios":"levelo://app?vid=3e70adaa-cf72-4736-9cca-b23aa081e307"},"vehicle_type_id":"4","last_reported":1728990441,"current_range_meters":38800,"station_id":"ce4bhq92rcd13ifvqhkg","pricing_plan_id":"cebpf4jnsgd1na2vs0mg"},{"bike_id":"e03c5569-d43c-4979-a39c-9553a4bb197b","system_id":"levelo_inurba_marseille","lat":43.26684,"lon":5.38267,"is_reserved":false,"is_disabled":false,"rental_uris":{"android":"levelo://app?vid=e03c5569-d43c-4979-a39c-9553a4bb197b","ios":"levelo://app?vid=e03c5569-d43c-4979-a39c-9553a4bb197b"},"vehicle_type_id":"4","last_reported":1728990441,"current_range_meters":38000,"station_id":"ce4bhg92rcd13ifvqf90","pricing_plan_id":"cebpf4jnsgd1na2vs0mg"},{"bike_id":"d06f24f3-1961-4c39-8b26-c72733863fe9","system_id":"levelo_inurba_marseille","lat":43.33781,"lon":5.37443,"is_reserved":false,"is_disabled":false,"rental_uris":{"android":"levelo://app?vid=d06f24f3-1961-4c39-8b26-c72733863fe9","ios":"levelo://app?vid=d06f24f3-1961-4c39-8b26-c72733863fe9"},"vehicle_type_id":"4","last_reported":1728990441,"current_range_meters":24800,"station_id":"","pricing_plan_id":"cebpf4jnsgd1na2vs0mg"},{"bike_id":"e9d4f6db-b5db-4424-8d15-3631ff5384d2","system_id":"levelo_inurba_marseille","lat":43.3059,"lon":5.39345,"is_reserved":false,"is_disabled":false,"rental_uris":{"android":"levelo://app?vid=e9d4f6db-b5db-4424-8d15-3631ff5384d2","ios":"levelo://app?vid=e9d4f6db-b5db-4424-8d15-3631ff5384d2"},"vehicle_type_id":"4","last_reported":1728990441,"current_range_meters":4000,"station_id":"ce4bh0p2rcd13ifvqd80","pricing_plan_id":"cebpf4jnsgd1na2vs0mg"},{"bike_id":"a7ce9ce1-7367-48ab-a192-ca36480fc2a1","system_id":"levelo_inurba_marseille","lat":43.29938,"lon":5.36538,"is_reserved":false,"is_disabled":false,"rental_uris":{"android":"levelo://app?vid=a7ce9ce1-7367-48ab-a192-ca36480fc2a1","ios":"levelo://app?vid=a7ce9ce1-7367-48ab-a192-ca36480fc2a1"},"vehicle_type_id":"4","last_reported":1728990441,"current_range_meters":25600,"station_id":"ce4bgm92rcd13ifvqbr0","pricing_plan_id":"cebpf4jnsgd1na2vs0mg"},{"bike_id":"960c75ea-29b9-4d7f-bb38-4a06d7125e37","system_id":"levelo_inurba_marseille","lat":43.337182,"lon":5.391758,"is_reserved":false,"is_disabled":false,"rental_uris":{"android":"levelo://app?vid=960c75ea-29b9-4d7f-bb38-4a06d7125e37","ios":"levelo://app?vid=960c75ea-29b9-4d7f-bb38-4a06d7125e37"},"vehicle_type_id":"4","last_reported":1728990441,"current_range_meters":18800,"station_id":"ce4bhr92rcd13ifvqhsg","pricing_plan_id":"cebpf4jnsgd1na2vs0mg"},{"bike_id":"e0238416-164a-4682-9e9e-af92274a953f","system_id":"levelo_inurba_marseille","lat":43.24257,"lon":5.3797,"is_reserved":false,"is_disabled":false,"rental_uris":{"android":"levelo://app?vid=e0238416-164a-4682-9e9e-af92274a953f","ios":"levelo://app?vid=e0238416-164a-4682-9e9e-af92274a953f"},"vehicle_type_id":"4","last_reported":1728990441,"current_range_meters":25200,"station_id":"","pricing_plan_id":"cebpf4jnsgd1na2vs0mg"},{"bike_id":"3523396f-6e3f-4c1f-abcb-f864c0b7e69b","system_id":"levelo_inurba_marseille","lat":43.29227,"lon":5.36071,"is_reserved":false,"is_disabled":false,"rental_uris":{"android":"levelo://app?vid=3523396f-6e3f-4c1f-abcb-f864c0b7e69b","ios":"levelo://app?vid=3523396f-6e3f-4c1f-abcb-f864c0b7e69b"},"vehicle_type_id":"4","last_reported":1728990441,"current_range_meters":31200,"station_id":"ce4bhbh2rcd13ifvqeqg","pricing_plan_id":"cebpf4jnsgd1na2vs0mg"},{"bike_id":"b3540a48-b930-4f1f-8764-644ac9839ef9","system_id":"levelo_inurba_marseille","lat":43.27618,"lon":5.36113,"is_reserved":false,"is_disabled":false,"rental_uris":{"android":"levelo://app?vid=b3540a48-b930-4f1f-8764-644ac9839ef9","ios":"levelo://app?vid=b3540a48-b930-4f1f-8764-644ac9839ef9"},"vehicle_type_id":"4","last_reported":1728990441,"current_range_meters":19200,"station_id":"ce4bgj92rcd13ifvqbe0","pricing_plan_id":"cebpf4jnsgd1na2vs0mg"},{"bike_id":"32df044e-0d1a-41c6-b542-cb3692f3bb1a","system_id":"levelo_inurba_marseille","lat":43.29532,"lon":5.38541,"is_reserved":false,"is_disabled":false,"rental_uris":{"android":"levelo://app?vid=32df044e-0d1a-41c6-b542-cb3692f3bb1a","ios":"levelo://app?vid=32df044e-0d1a-41c6-b542-cb3692f3bb1a"},"vehicle_type_id":"4","last_reported":1728990441,"current_range_meters":33200,"station_id":"ce4bgih2rcd13ifvqba0","pricing_plan_id":"cebpf4jnsgd1na2vs0mg"},{"bike_id":"d41309ab-1a1f-4395-acaa-455483c3f8e1","system_id":"levelo_inurba_marseille","lat":43.23195,"lon":5.3555,"is_reserved":false,"is_disabled":false,"rental_uris":{"android":"levelo://app?vid=d41309ab-1a1f-4395-acaa-455483c3f8e1","ios":"levelo://app?vid=d41309ab-1a1f-4395-acaa-455483c3f8e1"},"vehicle_type_id":"4","last_reported":1728990441,"current_range_meters":32800,"station_id":"ce4bhu92rcd13ifvqi70","pricing_plan_id":"cebpf4jnsgd1na2vs0mg"},{"bike_id":"5a98b0d1-f8d0-468b-86af-9ef8a9327350","system_id":"levelo_inurba_marseille","lat":43.29515,"lon":5.39036,"is_reserved":false,"is_disabled":false,"rental_uris":{"android":"levelo://app?vid=5a98b0d1-f8d0-468b-86af-9ef8a9327350","ios":"levelo://app?vid=5a98b0d1-f8d0-468b-86af-9ef8a9327350"},"vehicle_type_id":"4","last_reported":1728990441,"current_range_meters":39200,"station_id":"ce4bh3p2rcd13ifvqdp0","pricing_plan_id":"cebpf4jnsgd1na2vs0mg"},{"bike_id":"b200f9be-2cb8-4435-81cc-f94bec798084","system_id":"levelo_inurba_marseille","lat":43.2705,"lon":5.40272,"is_reserved":false,"is_disabled":false,"rental_uris":{"android":"levelo://app?vid=b200f9be-2cb8-4435-81cc-f94bec798084","ios":"levelo://app?vid=b200f9be-2cb8-4435-81cc-f94bec798084"},"vehicle_type_id":"4","last_reported":1728990441,"current_range_meters":8000,"station_id":"ce4bhk92rcd13ifvqgc0","pricing_plan_id":"cebpf4jnsgd1na2vs0mg"},{"bike_id":"31402485-8217-4962-a773-b24da4bf4e8f","system_id":"levelo_inurba_marseille","lat":43.24997,"lon":5.38928,"is_reserved":false,"is_disabled":false,"rental_uris":{"android":"levelo://app?vid=31402485-8217-4962-a773-b24da4bf4e8f","ios":"levelo://app?vid=31402485-8217-4962-a773-b24da4bf4e8f"},"vehicle_type_id":"4","last_reported":1728990441,"current_range_meters":8000,"station_id":"ce4bhgp2rcd13ifvqfd0","pricing_plan_id":"cebpf4jnsgd1na2vs0mg"},{"bike_id":"1236bbf7-ed03-4263-9ab4-884e4d68a5c4","system_id":"levelo_inurba_marseille","lat":43.32477,"lon":5.36564,"is_reserved":false,"is_disabled":false,"rental_uris":{"android":"levelo://app?vid=1236bbf7-ed03-4263-9ab4-884e4d68a5c4","ios":"levelo://app?vid=1236bbf7-ed03-4263-9ab4-884e4d68a5c4"},"vehicle_type_id":"4","last_reported":1728990441,"current_range_meters":38800,"station_id":"ce4bhs12rcd13ifvqhvg","pricing_plan_id":"cebpf4jnsgd1na2vs0mg"},{"bike_id":"00580030-e939-4f91-a036-9143e8555b37","system_id":"levelo_inurba_marseille","lat":43.27049,"lon":5.40256,"is_reserved":false,"is_disabled":false,"rental_uris":{"android":"levelo://app?vid=00580030-e939-4f91-a036-9143e8555b37","ios":"levelo://app?vid=00580030-e939-4f91-a036-9143e8555b37"},"vehicle_type_id":"4","last_reported":1728990441,"current_range_meters":24000,"station_id":"ce4bhk92rcd13ifvqgc0","pricing_plan_id":"cebpf4jnsgd1na2vs0mg"},{"bike_id":"b0a151ff-ff42-4272-8ee7-e1b1d67c7ee0","system_id":"levelo_inurba_marseille","lat":43.30458,"lon":5.37906,"is_reserved":false,"is_disabled":false,"rental_uris":{"android":"levelo://app?vid=b0a151ff-ff42-4272-8ee7-e1b1d67c7ee0","ios":"levelo://app?vid=b0a151ff-ff42-4272-8ee7-e1b1d67c7ee0"},"vehicle_type_id":"4","last_reported":1728990441,"current_range_meters":8000,"station_id":"ce4bgup2rcd13ifvqcn0","pricing_plan_id":"cebpf4jnsgd1na2vs0mg"},{"bike_id":"aa24e686-c4b3-4e16-bd17-034a8270bcf1","system_id":"levelo_inurba_marseille","lat":43.2984,"lon":5.36267,"is_reserved":false,"is_disabled":false,"rental_uris":{"android":"levelo://app?vid=aa24e686-c4b3-4e16-bd17-034a8270bcf1","ios":"levelo://app?vid=aa24e686-c4b3-4e16-bd17-034a8270bcf1"},"vehicle_type_id":"4","last_reported":1728990441,"current_range_meters":14800,"station_id":"ce4bgpp2rcd13ifvqc3g","pricing_plan_id":"cebpf4jnsgd1na2vs0mg"},{"bike_id":"42ddf1a3-c9fa-4405-9d7e-8b919329a107","system_id":"levelo_inurba_marseille","lat":43.30557,"lon":5.36536,"is_reserved":false,"is_disabled":false,"rental_uris":{"android":"levelo://app?vid=42ddf1a3-c9fa-4405-9d7e-8b919329a107","ios":"levelo://app?vid=42ddf1a3-c9fa-4405-9d7e-8b919329a107"},"vehicle_type_id":"4","last_reported":1728990441,"current_range_meters":39200,"station_id":"ce4bgs12rcd13ifvqcag","pricing_plan_id":"cebpf4jnsgd1na2vs0mg"},{"bike_id":"ab4a9414-0505-4327-888f-c58e8c5b956a","system_id":"levelo_inurba_marseille","lat":43.287,"lon":5.39989,"is_reserved":false,"is_disabled":false,"rental_uris":{"android":"levelo://app?vid=ab4a9414-0505-4327-888f-c58e8c5b956a","ios":"levelo://app?vid=ab4a9414-0505-4327-888f-c58e8c5b956a"},"vehicle_type_id":"4","last_reported":1728990441,"current_range_meters":24800,"station_id":"ce4bho92rcd13ifvqh3g","pricing_plan_id":"cebpf4jnsgd1na2vs0mg"},{"bike_id":"5ac4b365-d20a-45e0-acfe-e7e86ca60b8f","system_id":"levelo_inurba_marseille","lat":43.25932,"lon":5.40916,"is_reserved":false,"is_disabled":false,"rental_uris":{"android":"levelo://app?vid=5ac4b365-d20a-45e0-acfe-e7e86ca60b8f","ios":"levelo://app?vid=5ac4b365-d20a-45e0-acfe-e7e86ca60b8f"},"vehicle_type_id":"4","last_reported":1728990441,"current_range_meters":36400,"station_id":"ce4bhm92rcd13ifvqglg","pricing_plan_id":"cebpf4jnsgd1na2vs0mg"},{"bike_id":"b8a150cc-6842-4ed1-a6b2-264cbeb395b7","system_id":"levelo_inurba_marseille","lat":43.2512,"lon":5.40318,"is_reserved":false,"is_disabled":false,"rental_uris":{"android":"levelo://app?vid=b8a150cc-6842-4ed1-a6b2-264cbeb395b7","ios":"levelo://app?vid=b8a150cc-6842-4ed1-a6b2-264cbeb395b7"},"vehicle_type_id":"4","last_reported":1728990441,"current_range_meters":5600,"station_id":"ce4bhlh2rcd13ifvqgig","pricing_plan_id":"cebpf4jnsgd1na2vs0mg"},{"bike_id":"55b04924-fff7-415a-83dc-fbbdf9f52922","system_id":"levelo_inurba_marseille","lat":43.28934,"lon":5.3664,"is_reserved":false,"is_disabled":false,"rental_uris":{"android":"levelo://app?vid=55b04924-fff7-415a-83dc-fbbdf9f52922","ios":"levelo://app?vid=55b04924-fff7-415a-83dc-fbbdf9f52922"},"vehicle_type_id":"4","last_reported":1728990441,"current_range_meters":8400,"station_id":"ce4bhap2rcd13ifvqek0","pricing_plan_id":"cebpf4jnsgd1na2vs0mg"},{"bike_id":"1af2813b-98a0-4b62-aaf8-89652b30f639","system_id":"levelo_inurba_marseille","lat":43.22933,"lon":5.35381,"is_reserved":false,"is_disabled":false,"rental_uris":{"android":"levelo://app?vid=1af2813b-98a0-4b62-aaf8-89652b30f639","ios":"levelo://app?vid=1af2813b-98a0-4b62-aaf8-89652b30f639"},"vehicle_type_id":"4","last_reported":1728990441,"current_range_meters":30400,"station_id":"cpo3532slgdg3j2ikp40","pricing_plan_id":"cebpf4jnsgd1na2vs0mg"},{"bike_id":"e933622d-50e9-4399-b2c7-6b78123dd26c","system_id":"levelo_inurba_marseille","lat":43.25936,"lon":5.40895,"is_reserved":false,"is_disabled":false,"rental_uris":{"android":"levelo://app?vid=e933622d-50e9-4399-b2c7-6b78123dd26c","ios":"levelo://app?vid=e933622d-50e9-4399-b2c7-6b78123dd26c"},"vehicle_type_id":"4","last_reported":1728990441,"current_range_meters":4800,"station_id":"ce4bhm92rcd13ifvqglg","pricing_plan_id":"cebpf4jnsgd1na2vs0mg"},{"bike_id":"c518c0ad-ff11-4118-99a7-cda4d00057bb","system_id":"levelo_inurba_marseille","lat":43.292206,"lon":5.360288,"is_reserved":false,"is_disabled":false,"rental_uris":{"android":"levelo://app?vid=c518c0ad-ff11-4118-99a7-cda4d00057bb","ios":"levelo://app?vid=c518c0ad-ff11-4118-99a7-cda4d00057bb"},"vehicle_type_id":"4","last_reported":1728990441,"current_range_meters":27200,"station_id":"ce4bgs12rcd13ifvqcag","pricing_plan_id":"cebpf4jnsgd1na2vs0mg"},{"bike_id":"f93454e1-a669-4c63-a4ca-b572042c7971","system_id":"levelo_inurba_marseille","lat":43.23192,"lon":5.35558,"is_reserved":false,"is_disabled":false,"rental_uris":{"android":"levelo://app?vid=f93454e1-a669-4c63-a4ca-b572042c7971","ios":"levelo://app?vid=f93454e1-a669-4c63-a4ca-b572042c7971"},"vehicle_type_id":"4","last_reported":1728990441,"current_range_meters":26000,"station_id":"ce4bhu92rcd13ifvqi70","pricing_plan_id":"cebpf4jnsgd1na2vs0mg"},{"bike_id":"ab38c6ee-afe2-452b-b152-733408083f03","system_id":"levelo_inurba_marseille","lat":43.24074,"lon":5.37756,"is_reserved":false,"is_disabled":false,"rental_uris":{"android":"levelo://app?vid=ab38c6ee-afe2-452b-b152-733408083f03","ios":"levelo://app?vid=ab38c6ee-afe2-452b-b152-733408083f03"},"vehicle_type_id":"4","last_reported":1728990441,"current_range_meters":28800,"station_id":"ce4bhnp2rcd13ifvqgvg","pricing_plan_id":"cebpf4jnsgd1na2vs0mg"},{"bike_id":"fa7d7ce1-a6ee-4ffd-9015-5fae177f74cc","system_id":"levelo_inurba_marseille","lat":43.27494,"lon":5.4245,"is_reserved":false,"is_disabled":false,"rental_uris":{"android":"levelo://app?vid=fa7d7ce1-a6ee-4ffd-9015-5fae177f74cc","ios":"levelo://app?vid=fa7d7ce1-a6ee-4ffd-9015-5fae177f74cc"},"vehicle_type_id":"4","last_reported":1728990441,"current_range_meters":16800,"station_id":"ce4bhn92rcd13ifvqgrg","pricing_plan_id":"cebpf4jnsgd1na2vs0mg"},{"bike_id":"85aa7f25-b1e7-4166-b78b-22e2e9f02a9c","system_id":"levelo_inurba_marseille","lat":43.28436,"lon":5.39195,"is_reserved":false,"is_disabled":false,"rental_uris":{"android":"levelo://app?vid=85aa7f25-b1e7-4166-b78b-22e2e9f02a9c","ios":"levelo://app?vid=85aa7f25-b1e7-4166-b78b-22e2e9f02a9c"},"vehicle_type_id":"4","last_reported":1728990441,"current_range_meters":37600,"station_id":"ce4bhoh2rcd13ifvqh5g","pricing_plan_id":"cebpf4jnsgd1na2vs0mg"},{"bike_id":"47933c5b-6773-406f-9b56-0f225c80949d","system_id":"levelo_inurba_marseille","lat":43.28486,"lon":5.3855,"is_reserved":false,"is_disabled":false,"rental_uris":{"android":"levelo://app?vid=47933c5b-6773-406f-9b56-0f225c80949d","ios":"levelo://app?vid=47933c5b-6773-406f-9b56-0f225c80949d"},"vehicle_type_id":"4","last_reported":1728990441,"current_range_meters":36000,"station_id":"ce4bh8p2rcd13ifvqeb0","pricing_plan_id":"cebpf4jnsgd1na2vs0mg"},{"bike_id":"0a08a5bd-ca69-49a4-9ede-3c39e5bae17b","system_id":"levelo_inurba_marseille","lat":43.25084,"lon":5.39525,"is_reserved":false,"is_disabled":false,"rental_uris":{"android":"levelo://app?vid=0a08a5bd-ca69-49a4-9ede-3c39e5bae17b","ios":"levelo://app?vid=0a08a5bd-ca69-49a4-9ede-3c39e5bae17b"},"vehicle_type_id":"4","last_reported":1728990441,"current_range_meters":10000,"station_id":"ce4bhm12rcd13ifvqgkg","pricing_plan_id":"cebpf4jnsgd1na2vs0mg"},{"bike_id":"7dd2b796-93d4-4bc4-827d-a3b27d411656","system_id":"levelo_inurba_marseille","lat":43.231506,"lon":5.437169,"is_reserved":false,"is_disabled":false,"rental_uris":{"android":"levelo://app?vid=7dd2b796-93d4-4bc4-827d-a3b27d411656","ios":"levelo://app?vid=7dd2b796-93d4-4bc4-827d-a3b27d411656"},"vehicle_type_id":"4","last_reported":1728990441,"current_range_meters":24800,"station_id":"ce4bhmp2rcd13ifvqgog","pricing_plan_id":"cebpf4jnsgd1na2vs0mg"},{"bike_id":"6a344486-14e7-432e-98bf-b8beed8e06c6","system_id":"levelo_inurba_marseille","lat":43.32336,"lon":5.38328,"is_reserved":false,"is_disabled":false,"rental_uris":{"android":"levelo://app?vid=6a344486-14e7-432e-98bf-b8beed8e06c6","ios":"levelo://app?vid=6a344486-14e7-432e-98bf-b8beed8e06c6"},"vehicle_type_id":"4","last_reported":1728990441,"current_range_meters":30800,"station_id":"","pricing_plan_id":"cebpf4jnsgd1na2vs0mg"},{"bike_id":"1c29ea6a-d424-450d-9c36-6b427ab42330","system_id":"levelo_inurba_marseille","lat":43.3415,"lon":5.40907,"is_reserved":false,"is_disabled":false,"rental_uris":{"android":"levelo://app?vid=1c29ea6a-d424-450d-9c36-6b427ab42330","ios":"levelo://app?vid=1c29ea6a-d424-450d-9c36-6b427ab42330"},"vehicle_type_id":"4","last_reported":1728990441,"current_range_meters":39200,"station_id":"ce4bhqh2rcd13ifvqhlg","pricing_plan_id":"cebpf4jnsgd1na2vs0mg"},{"bike_id":"79ddf1f5-186b-4457-a77e-9d424f43d6e3","system_id":"levelo_inurba_marseille","lat":43.24075,"lon":5.3775,"is_reserved":false,"is_disabled":false,"rental_uris":{"android":"levelo://app?vid=79ddf1f5-186b-4457-a77e-9d424f43d6e3","ios":"levelo://app?vid=79ddf1f5-186b-4457-a77e-9d424f43d6e3"},"vehicle_type_id":"4","last_reported":1728990441,"current_range_meters":14800,"station_id":"ce4bhnp2rcd13ifvqgvg","pricing_plan_id":"cebpf4jnsgd1na2vs0mg"},{"bike_id":"21ce9b67-fbf1-4b19-a726-0795e5cf3979","system_id":"levelo_inurba_marseille","lat":43.25081,"lon":5.39516,"is_reserved":false,"is_disabled":false,"rental_uris":{"android":"levelo://app?vid=21ce9b67-fbf1-4b19-a726-0795e5cf3979","ios":"levelo://app?vid=21ce9b67-fbf1-4b19-a726-0795e5cf3979"},"vehicle_type_id":"4","last_reported":1728990441,"current_range_meters":37600,"station_id":"ce4bhm12rcd13ifvqgkg","pricing_plan_id":"cebpf4jnsgd1na2vs0mg"},{"bike_id":"e0c12c26-888e-4726-9d52-44f964f0bde2","system_id":"levelo_inurba_marseille","lat":43.33751,"lon":5.37444,"is_reserved":false,"is_disabled":false,"rental_uris":{"android":"levelo://app?vid=e0c12c26-888e-4726-9d52-44f964f0bde2","ios":"levelo://app?vid=e0c12c26-888e-4726-9d52-44f964f0bde2"},"vehicle_type_id":"4","last_reported":1728990441,"current_range_meters":36000,"station_id":"","pricing_plan_id":"cebpf4jnsgd1na2vs0mg"},{"bike_id":"e890e235-e2ff-4a16-a8bd-4258b9a5605c","system_id":"levelo_inurba_marseille","lat":43.282705,"lon":5.350665,"is_reserved":false,"is_disabled":false,"rental_uris":{"android":"levelo://app?vid=e890e235-e2ff-4a16-a8bd-4258b9a5605c","ios":"levelo://app?vid=e890e235-e2ff-4a16-a8bd-4258b9a5605c"},"vehicle_type_id":"4","last_reported":1728990441,"current_range_meters":27600,"station_id":"ce4bhbp2rcd13ifvqerg","pricing_plan_id":"cebpf4jnsgd1na2vs0mg"},{"bike_id":"11af4c56-3918-45fe-865d-9cf9acc3a4ad","system_id":"levelo_inurba_marseille","lat":43.29576,"lon":5.36741,"is_reserved":false,"is_disabled":false,"rental_uris":{"android":"levelo://app?vid=11af4c56-3918-45fe-865d-9cf9acc3a4ad","ios":"levelo://app?vid=11af4c56-3918-45fe-865d-9cf9acc3a4ad"},"vehicle_type_id":"4","last_reported":1728990441,"current_range_meters":20800,"station_id":"ce4bgph2rcd13ifvqc2g","pricing_plan_id":"cebpf4jnsgd1na2vs0mg"},{"bike_id":"754da881-cbc9-4b35-beb2-51d368048841","system_id":"levelo_inurba_marseille","lat":43.33722,"lon":5.37446,"is_reserved":false,"is_disabled":false,"rental_uris":{"android":"levelo://app?vid=754da881-cbc9-4b35-beb2-51d368048841","ios":"levelo://app?vid=754da881-cbc9-4b35-beb2-51d368048841"},"vehicle_type_id":"4","last_reported":1728990441,"current_range_meters":36400,"station_id":"","pricing_plan_id":"cebpf4jnsgd1na2vs0mg"},{"bike_id":"996aeef4-ef61-443c-9e98-4ef75b6646e3","system_id":"levelo_inurba_marseille","lat":43.30316,"lon":5.36889,"is_reserved":false,"is_disabled":false,"rental_uris":{"android":"levelo://app?vid=996aeef4-ef61-443c-9e98-4ef75b6646e3","ios":"levelo://app?vid=996aeef4-ef61-443c-9e98-4ef75b6646e3"},"vehicle_type_id":"4","last_reported":1728990441,"current_range_meters":38800,"station_id":"ce4bgqh2rcd13ifvqc5g","pricing_plan_id":"cebpf4jnsgd1na2vs0mg"},{"bike_id":"982702e0-e3ed-4c76-9014-7f4427361df7","system_id":"levelo_inurba_marseille","lat":43.25714,"lon":5.41112,"is_reserved":false,"is_disabled":false,"rental_uris":{"android":"levelo://app?vid=982702e0-e3ed-4c76-9014-7f4427361df7","ios":"levelo://app?vid=982702e0-e3ed-4c76-9014-7f4427361df7"},"vehicle_type_id":"4","last_reported":1728990441,"current_range_meters":16400,"station_id":"ce4bhkp2rcd13ifvqgd0","pricing_plan_id":"cebpf4jnsgd1na2vs0mg"},{"bike_id":"dde86e9c-08ab-447e-8977-98fcc15ceb96","system_id":"levelo_inurba_marseille","lat":43.24082,"lon":5.37754,"is_reserved":false,"is_disabled":false,"rental_uris":{"android":"levelo://app?vid=dde86e9c-08ab-447e-8977-98fcc15ceb96","ios":"levelo://app?vid=dde86e9c-08ab-447e-8977-98fcc15ceb96"},"vehicle_type_id":"4","last_reported":1728990441,"current_range_meters":12800,"station_id":"ce4bhnp2rcd13ifvqgvg","pricing_plan_id":"cebpf4jnsgd1na2vs0mg"},{"bike_id":"27d8c63a-2045-4f13-b0aa-82462cdb737f","system_id":"levelo_inurba_marseille","lat":43.25581,"lon":5.38234,"is_reserved":false,"is_disabled":false,"rental_uris":{"android":"levelo://app?vid=27d8c63a-2045-4f13-b0aa-82462cdb737f","ios":"levelo://app?vid=27d8c63a-2045-4f13-b0aa-82462cdb737f"},"vehicle_type_id":"4","last_reported":1728990441,"current_range_meters":26800,"station_id":"ce4bhih2rcd13ifvqfs0","pricing_plan_id":"cebpf4jnsgd1na2vs0mg"},{"bike_id":"65a459fd-c153-4b68-b7e1-b7785d389f88","system_id":"levelo_inurba_marseille","lat":43.322222,"lon":5.389448,"is_reserved":false,"is_disabled":false,"rental_uris":{"android":"levelo://app?vid=65a459fd-c153-4b68-b7e1-b7785d389f88","ios":"levelo://app?vid=65a459fd-c153-4b68-b7e1-b7785d389f88"},"vehicle_type_id":"4","last_reported":1728990441,"current_range_meters":33200,"station_id":"ce4bgk12rcd13ifvqbi0","pricing_plan_id":"cebpf4jnsgd1na2vs0mg"},{"bike_id":"025c7901-36d6-400e-8cd5-dc801340b22e","system_id":"levelo_inurba_marseille","lat":43.26944,"lon":5.40257,"is_reserved":false,"is_disabled":false,"rental_uris":{"android":"levelo://app?vid=025c7901-36d6-400e-8cd5-dc801340b22e","ios":"levelo://app?vid=025c7901-36d6-400e-8cd5-dc801340b22e"},"vehicle_type_id":"4","last_reported":1728990441,"current_range_meters":38800,"station_id":"cjm6bp8fraef2m0cb0m0","pricing_plan_id":"cebpf4jnsgd1na2vs0mg"},{"bike_id":"38354047-828e-4db6-bb59-da9b624f96d2","system_id":"levelo_inurba_marseille","lat":43.24382,"lon":5.37054,"is_reserved":false,"is_disabled":false,"rental_uris":{"android":"levelo://app?vid=38354047-828e-4db6-bb59-da9b624f96d2","ios":"levelo://app?vid=38354047-828e-4db6-bb59-da9b624f96d2"},"vehicle_type_id":"4","last_reported":1728990441,"current_range_meters":38400,"station_id":"ce4bhhh2rcd13ifvqfk0","pricing_plan_id":"cebpf4jnsgd1na2vs0mg"},{"bike_id":"1f94d8bf-40aa-4532-99fe-e6f2adfe1975","system_id":"levelo_inurba_marseille","lat":43.33021,"lon":5.39035,"is_reserved":false,"is_disabled":false,"rental_uris":{"android":"levelo://app?vid=1f94d8bf-40aa-4532-99fe-e6f2adfe1975","ios":"levelo://app?vid=1f94d8bf-40aa-4532-99fe-e6f2adfe1975"},"vehicle_type_id":"4","last_reported":1728990441,"current_range_meters":24800,"station_id":"ce4bhr92rcd13ifvqhrg","pricing_plan_id":"cebpf4jnsgd1na2vs0mg"},{"bike_id":"2e5ab647-2d66-4261-970f-5cc926d0837a","system_id":"levelo_inurba_marseille","lat":43.2509,"lon":5.39519,"is_reserved":false,"is_disabled":false,"rental_uris":{"android":"levelo://app?vid=2e5ab647-2d66-4261-970f-5cc926d0837a","ios":"levelo://app?vid=2e5ab647-2d66-4261-970f-5cc926d0837a"},"vehicle_type_id":"4","last_reported":1728990441,"current_range_meters":22800,"station_id":"ce4bhm12rcd13ifvqgkg","pricing_plan_id":"cebpf4jnsgd1na2vs0mg"},{"bike_id":"04670c40-40e8-4aae-b660-24b483e48ce5","system_id":"levelo_inurba_marseille","lat":43.3229,"lon":5.38267,"is_reserved":false,"is_disabled":false,"rental_uris":{"android":"levelo://app?vid=04670c40-40e8-4aae-b660-24b483e48ce5","ios":"levelo://app?vid=04670c40-40e8-4aae-b660-24b483e48ce5"},"vehicle_type_id":"4","last_reported":1728990441,"current_range_meters":6800,"station_id":"ce4bhr12rcd13ifvqhqg","pricing_plan_id":"cebpf4jnsgd1na2vs0mg"},{"bike_id":"19b6f97b-c9fe-42ef-a16a-375c7b09738b","system_id":"levelo_inurba_marseille","lat":43.292669,"lon":5.368395,"is_reserved":false,"is_disabled":false,"rental_uris":{"android":"levelo://app?vid=19b6f97b-c9fe-42ef-a16a-375c7b09738b","ios":"levelo://app?vid=19b6f97b-c9fe-42ef-a16a-375c7b09738b"},"vehicle_type_id":"4","last_reported":1728990441,"current_range_meters":38800,"station_id":"ce4bhbp2rcd13ifvqesg","pricing_plan_id":"cebpf4jnsgd1na2vs0mg"},{"bike_id":"d00945c9-4b1a-42e4-961f-6bc65f496869","system_id":"levelo_inurba_marseille","lat":43.27056,"lon":5.40248,"is_reserved":false,"is_disabled":false,"rental_uris":{"android":"levelo://app?vid=d00945c9-4b1a-42e4-961f-6bc65f496869","ios":"levelo://app?vid=d00945c9-4b1a-42e4-961f-6bc65f496869"},"vehicle_type_id":"4","last_reported":1728990441,"current_range_meters":18000,"station_id":"ce4bhk92rcd13ifvqgc0","pricing_plan_id":"cebpf4jnsgd1na2vs0mg"},{"bike_id":"35079bfa-9f11-43bd-97f8-36d54bf92833","system_id":"levelo_inurba_marseille","lat":43.33774,"lon":5.37455,"is_reserved":false,"is_disabled":false,"rental_uris":{"android":"levelo://app?vid=35079bfa-9f11-43bd-97f8-36d54bf92833","ios":"levelo://app?vid=35079bfa-9f11-43bd-97f8-36d54bf92833"},"vehicle_type_id":"4","last_reported":1728990441,"current_range_meters":37600,"station_id":"","pricing_plan_id":"cebpf4jnsgd1na2vs0mg"},{"bike_id":"4dcd46a5-a1e5-4786-ab64-40f5464225aa","system_id":"levelo_inurba_marseille","lat":43.246704,"lon":5.383931,"is_reserved":false,"is_disabled":false,"rental_uris":{"android":"levelo://app?vid=4dcd46a5-a1e5-4786-ab64-40f5464225aa","ios":"levelo://app?vid=4dcd46a5-a1e5-4786-ab64-40f5464225aa"},"vehicle_type_id":"4","last_reported":1728990441,"current_range_meters":33200,"station_id":"ce4bhlh2rcd13ifvqgig","pricing_plan_id":"cebpf4jnsgd1na2vs0mg"},{"bike_id":"f83487b8-cf5a-4d8b-a09a-2f8b8d0d5a46","system_id":"levelo_inurba_marseille","lat":43.337444,"lon":5.374475,"is_reserved":false,"is_disabled":false,"rental_uris":{"android":"levelo://app?vid=f83487b8-cf5a-4d8b-a09a-2f8b8d0d5a46","ios":"levelo://app?vid=f83487b8-cf5a-4d8b-a09a-2f8b8d0d5a46"},"vehicle_type_id":"4","last_reported":1728990441,"current_range_meters":33200,"station_id":"","pricing_plan_id":"cebpf4jnsgd1na2vs0mg"},{"bike_id":"3f1b5237-0a38-4593-b7c8-e45bed628bc0","system_id":"levelo_inurba_marseille","lat":43.304094,"lon":5.378742,"is_reserved":false,"is_disabled":false,"rental_uris":{"android":"levelo://app?vid=3f1b5237-0a38-4593-b7c8-e45bed628bc0","ios":"levelo://app?vid=3f1b5237-0a38-4593-b7c8-e45bed628bc0"},"vehicle_type_id":"4","last_reported":1728990441,"current_range_meters":6000,"station_id":"ce4bgup2rcd13ifvqcn0","pricing_plan_id":"cebpf4jnsgd1na2vs0mg"},{"bike_id":"099a56b3-1bf7-4a2f-8b11-80fdb92ce206","system_id":"levelo_inurba_marseille","lat":43.29309,"lon":5.37184,"is_reserved":false,"is_disabled":false,"rental_uris":{"android":"levelo://app?vid=099a56b3-1bf7-4a2f-8b11-80fdb92ce206","ios":"levelo://app?vid=099a56b3-1bf7-4a2f-8b11-80fdb92ce206"},"vehicle_type_id":"4","last_reported":1728990441,"current_range_meters":38800,"station_id":"ce4bgh92rcd13ifvqb40","pricing_plan_id":"cebpf4jnsgd1na2vs0mg"},{"bike_id":"f269126c-1b0b-4a1a-a1d6-f8c3716f5336","system_id":"levelo_inurba_marseille","lat":43.23197,"lon":5.35554,"is_reserved":false,"is_disabled":false,"rental_uris":{"android":"levelo://app?vid=f269126c-1b0b-4a1a-a1d6-f8c3716f5336","ios":"levelo://app?vid=f269126c-1b0b-4a1a-a1d6-f8c3716f5336"},"vehicle_type_id":"4","last_reported":1728990441,"current_range_meters":33600,"station_id":"ce4bhu92rcd13ifvqi70","pricing_plan_id":"cebpf4jnsgd1na2vs0mg"},{"bike_id":"8efa1eaa-9384-4e0d-9d1c-064cacd279cf","system_id":"levelo_inurba_marseille","lat":43.29187,"lon":5.35807,"is_reserved":false,"is_disabled":false,"rental_uris":{"android":"levelo://app?vid=8efa1eaa-9384-4e0d-9d1c-064cacd279cf","ios":"levelo://app?vid=8efa1eaa-9384-4e0d-9d1c-064cacd279cf"},"vehicle_type_id":"4","last_reported":1728990441,"current_range_meters":26800,"station_id":"ce4bhb12rcd13ifvqel0","pricing_plan_id":"cebpf4jnsgd1na2vs0mg"},{"bike_id":"5e0da2e3-7554-4184-b18d-07a10aa3f02e","system_id":"levelo_inurba_marseille","lat":43.29972,"lon":5.3717,"is_reserved":false,"is_disabled":false,"rental_uris":{"android":"levelo://app?vid=5e0da2e3-7554-4184-b18d-07a10aa3f02e","ios":"levelo://app?vid=5e0da2e3-7554-4184-b18d-07a10aa3f02e"},"vehicle_type_id":"4","last_reported":1728990441,"current_range_meters":38000,"station_id":"ce4bgr92rcd13ifvqc7g","pricing_plan_id":"cebpf4jnsgd1na2vs0mg"},{"bike_id":"fdb22c39-2f80-4083-9649-f962ce91ab14","system_id":"levelo_inurba_marseille","lat":43.3046,"lon":5.37911,"is_reserved":false,"is_disabled":false,"rental_uris":{"android":"levelo://app?vid=fdb22c39-2f80-4083-9649-f962ce91ab14","ios":"levelo://app?vid=fdb22c39-2f80-4083-9649-f962ce91ab14"},"vehicle_type_id":"4","last_reported":1728990441,"current_range_meters":24000,"station_id":"ce4bgup2rcd13ifvqcn0","pricing_plan_id":"cebpf4jnsgd1na2vs0mg"},{"bike_id":"a1f16248-f684-4944-a6ba-21a7760bf1a5","system_id":"levelo_inurba_marseille","lat":43.29195,"lon":5.35788,"is_reserved":false,"is_disabled":false,"rental_uris":{"android":"levelo://app?vid=a1f16248-f684-4944-a6ba-21a7760bf1a5","ios":"levelo://app?vid=a1f16248-f684-4944-a6ba-21a7760bf1a5"},"vehicle_type_id":"4","last_reported":1728990441,"current_range_meters":27600,"station_id":"ce4bhb12rcd13ifvqel0","pricing_plan_id":"cebpf4jnsgd1na2vs0mg"},{"bike_id":"d8a33c93-5890-4973-bad1-c7fd460b2312","system_id":"levelo_inurba_marseille","lat":43.29069,"lon":5.37173,"is_reserved":false,"is_disabled":false,"rental_uris":{"android":"levelo://app?vid=d8a33c93-5890-4973-bad1-c7fd460b2312","ios":"levelo://app?vid=d8a33c93-5890-4973-bad1-c7fd460b2312"},"vehicle_type_id":"4","last_reported":1728990441,"current_range_meters":13600,"station_id":"ce4bh5p2rcd13ifvqe4g","pricing_plan_id":"cebpf4jnsgd1na2vs0mg"},{"bike_id":"2714b3d6-51fc-4132-bf37-fe1c39eb9869","system_id":"levelo_inurba_marseille","lat":43.29842,"lon":5.36268,"is_reserved":false,"is_disabled":false,"rental_uris":{"android":"levelo://app?vid=2714b3d6-51fc-4132-bf37-fe1c39eb9869","ios":"levelo://app?vid=2714b3d6-51fc-4132-bf37-fe1c39eb9869"},"vehicle_type_id":"4","last_reported":1728990441,"current_range_meters":33200,"station_id":"ce4bgpp2rcd13ifvqc3g","pricing_plan_id":"cebpf4jnsgd1na2vs0mg"},{"bike_id":"1ee8fbc2-dafb-4683-b81a-c11b4f6b7269","system_id":"levelo_inurba_marseille","lat":43.29274,"lon":5.40114,"is_reserved":false,"is_disabled":false,"rental_uris":{"android":"levelo://app?vid=1ee8fbc2-dafb-4683-b81a-c11b4f6b7269","ios":"levelo://app?vid=1ee8fbc2-dafb-4683-b81a-c11b4f6b7269"},"vehicle_type_id":"4","last_reported":1728990441,"current_range_meters":16400,"station_id":"ce4bh312rcd13ifvqdk0","pricing_plan_id":"cebpf4jnsgd1na2vs0mg"},{"bike_id":"94d48054-be54-488d-a425-2deb433f452c","system_id":"levelo_inurba_marseille","lat":43.298066,"lon":5.364332,"is_reserved":false,"is_disabled":false,"rental_uris":{"android":"levelo://app?vid=94d48054-be54-488d-a425-2deb433f452c","ios":"levelo://app?vid=94d48054-be54-488d-a425-2deb433f452c"},"vehicle_type_id":"4","last_reported":1728990441,"current_range_meters":25200,"station_id":"ce4bgnh2rcd13ifvqc0g","pricing_plan_id":"cebpf4jnsgd1na2vs0mg"},{"bike_id":"0c6ed9db-cd93-4a0a-96e6-b82dfc4e88a6","system_id":"levelo_inurba_marseille","lat":43.28077,"lon":5.39658,"is_reserved":false,"is_disabled":false,"rental_uris":{"android":"levelo://app?vid=0c6ed9db-cd93-4a0a-96e6-b82dfc4e88a6","ios":"levelo://app?vid=0c6ed9db-cd93-4a0a-96e6-b82dfc4e88a6"},"vehicle_type_id":"4","last_reported":1728990441,"current_range_meters":38000,"station_id":"ce4bho12rcd13ifvqh2g","pricing_plan_id":"cebpf4jnsgd1na2vs0mg"},{"bike_id":"55eb567f-6a92-4749-876e-2d089672214b","system_id":"levelo_inurba_marseille","lat":43.26684,"lon":5.38277,"is_reserved":false,"is_disabled":false,"rental_uris":{"android":"levelo://app?vid=55eb567f-6a92-4749-876e-2d089672214b","ios":"levelo://app?vid=55eb567f-6a92-4749-876e-2d089672214b"},"vehicle_type_id":"4","last_reported":1728990441,"current_range_meters":37600,"station_id":"ce4bhg92rcd13ifvqf90","pricing_plan_id":"cebpf4jnsgd1na2vs0mg"},{"bike_id":"773a2138-853a-4482-9bcb-1ed5b264676d","system_id":"levelo_inurba_marseille","lat":43.25497,"lon":5.37648,"is_reserved":false,"is_disabled":false,"rental_uris":{"android":"levelo://app?vid=773a2138-853a-4482-9bcb-1ed5b264676d","ios":"levelo://app?vid=773a2138-853a-4482-9bcb-1ed5b264676d"},"vehicle_type_id":"4","last_reported":1728990441,"current_range_meters":13600,"station_id":"ce4bhh12rcd13ifvqff0","pricing_plan_id":"cebpf4jnsgd1na2vs0mg"},{"bike_id":"14ec08ed-3803-4409-89e3-ad9283233d7d","system_id":"levelo_inurba_marseille","lat":43.25725,"lon":5.41106,"is_reserved":false,"is_disabled":false,"rental_uris":{"android":"levelo://app?vid=14ec08ed-3803-4409-89e3-ad9283233d7d","ios":"levelo://app?vid=14ec08ed-3803-4409-89e3-ad9283233d7d"},"vehicle_type_id":"4","last_reported":1728990441,"current_range_meters":11200,"station_id":"ce4bhkp2rcd13ifvqgd0","pricing_plan_id":"cebpf4jnsgd1na2vs0mg"},{"bike_id":"26c6c286-2ca0-4ed1-ab00-b90612b70cc1","system_id":"levelo_inurba_marseille","lat":43.24658,"lon":5.38165,"is_reserved":false,"is_disabled":false,"rental_uris":{"android":"levelo://app?vid=26c6c286-2ca0-4ed1-ab00-b90612b70cc1","ios":"levelo://app?vid=26c6c286-2ca0-4ed1-ab00-b90612b70cc1"},"vehicle_type_id":"4","last_reported":1728990441,"current_range_meters":28000,"station_id":"ce4bhih2rcd13ifvqfr0","pricing_plan_id":"cebpf4jnsgd1na2vs0mg"},{"bike_id":"1ff5ac10-5421-4200-8566-2b1fe05d0bd7","system_id":"levelo_inurba_marseille","lat":43.27914,"lon":5.39586,"is_reserved":false,"is_disabled":false,"rental_uris":{"android":"levelo://app?vid=1ff5ac10-5421-4200-8566-2b1fe05d0bd7","ios":"levelo://app?vid=1ff5ac10-5421-4200-8566-2b1fe05d0bd7"},"vehicle_type_id":"4","last_reported":1728990441,"current_range_meters":8000,"station_id":"ce4bhf92rcd13ifvqf40","pricing_plan_id":"cebpf4jnsgd1na2vs0mg"},{"bike_id":"45861596-bef9-4b44-8861-1164dfcb8778","system_id":"levelo_inurba_marseille","lat":43.27807,"lon":5.40713,"is_reserved":false,"is_disabled":false,"rental_uris":{"android":"levelo://app?vid=45861596-bef9-4b44-8861-1164dfcb8778","ios":"levelo://app?vid=45861596-bef9-4b44-8861-1164dfcb8778"},"vehicle_type_id":"4","last_reported":1728990441,"current_range_meters":20400,"station_id":"ce4bhnh2rcd13ifvqgtg","pricing_plan_id":"cebpf4jnsgd1na2vs0mg"},