{"last_updated":1711980445,"ttl":30,"version":"2.2","data":{"bikes":[{"bike_id":"2efce654-b239-4ef3-af95-637409649ed0","system_id":"levelo_inurba_marseille","lat":43.313391,"lon":5.36706,"is_reserved":false,"is_disabled":false,"rental_uris":{"android":"levelo://app?vid=2efce654-b239-4ef3-af95-637409649ed0","ios":"levelo://app?vid=2efce654-b239-4ef3-af95-637409649ed0"},"vehicle_type_id":"4","last_reported":1711980445,"current_range_meters":31200,"station_id":"ce4bgr92rcd13ifvqc6g","pricing_plan_id":"cebpf4jnsgd1na2vs0mg"},{"bike_id":"b4032b84-be55-4143-94d2-f0ab3708336a","system_id":"levelo_inurba_marseille","lat":43.31341,"lon":5.367098,"is_reserved":false,"is_disabled":false,"rental_uris":{"android":"levelo://app?vid=b4032b84-be55-4143-94d2-f0ab3708336a","ios":"levelo://app?vid=b4032b84-be55-4143-94d2-f0ab3708336a"},"vehicle_type_id":"4","last_reported":1711980445,"current_range_meters":20400,"station_id":"ce4bgr92rcd13ifvqc6g","pricing_plan_id":"cebpf4jnsgd1na2vs0mg"},{"bike_id":"521ac311-ee98-4186-8d28-d060c5ffe646","system_id":"levelo_inurba_marseille","lat":43.31341,"lon":5.367098,"is_reserved":false,"is_disabled":false,"rental_uris":{"android":"levelo://app?vid=521ac311-ee98-4186-8d28-d060c5ffe646","ios":"levelo://app?vid=521ac311-ee98-4186-8d28-d060c5ffe646"},"vehicle_type_id":"4","last_reported":1711980445,"current_range_meters":18800,"station_id":"ce4bgr92rcd13ifvqc6g","pricing_plan_id":"cebpf4jnsgd1na2vs0mg"},{"bike_id":"ecb32b6a-d39c-49bb-aab8-1867c926a3e2","system_id":"levelo_inurba_marseille","lat":43.31341,"lon":5.367098,"is_reserved":false,"is_disabled":false,"rental_uris":{"android":"levelo://app?vid=ecb32b6a-d39c-49bb-aab8-1867c926a3e2","ios":"levelo://app?vid=ecb32b6a-d39c-49bb-aab8-1867c926a3e2"},"vehicle_type_id":"4","last_reported":1711980445,"current_range_meters":31600,"station_id":"ce4bgr92rcd13ifvqc6g","pricing_plan_id":"cebpf4jnsgd1na2vs0mg"},{"bike_id":"9647b857-c5cb-4e31-abee-152b0fadb761","system_id":"levelo_inurba_marseille","lat":43.31341,"lon":5.367098,"is_reserved":false,"is_disabled":false,"rental_uris":{"android":"levelo://app?vid=9647b857-c5cb-4e31-abee-152b0fadb761","ios":"levelo://app?vid=9647b857-c5cb-4e31-abee-152b0fadb761"},"vehicle_type_id":"4","last_reported":1711980445,"current_range_meters":26800,"station_id":"ce4bgr92rcd13ifvqc6g","pricing_plan_id":"cebpf4jnsgd1na2vs0mg"},{"bike_id":"e63ba5c1-5518-4285-a292-a723101af8bd","system_id":"levelo_inurba_marseille","lat":43.313391,"lon":5.36706,"is_reserved":false,"is_disabled":false,"rental_uris":{"android":"levelo://app?vid=e63ba5c1-5518-4285-a292-a723101af8bd","ios":"levelo://app?vid=e63ba5c1-5518-4285-a292-a723101af8bd"},"vehicle_type_id":"4","last_reported":1711980445,"current_range_meters":20800,"station_id":"ce4bgr92rcd13ifvqc6g","pricing_plan_id":"cebpf4jnsgd1na2vs0mg"},{"bike_id":"90fcb6c3-049c-4297-a839-605339c2e5eb","system_id":"levelo_inurba_marseille","lat":43.313391,"lon":5.36706,"is_reserved":false,"is_disabled":false,"rental_uris":{"android":"levelo://app?vid=90fcb6c3-049c-4297-a839-605339c2e5eb","ios":"levelo://app?vid=90fcb6c3-049c-4297-a839-605339c2e5eb"},"vehicle_type_id":"4","last_reported":1711980445,"current_range_meters":18400,"station_id":"ce4bgr92rcd13ifvqc6g","pricing_plan_id":"cebpf4jnsgd1na2vs0mg"},{"bike_id":"575057c4-d799-4674-adda-ba59c65b9e71","system_id":"levelo_inurba_marseille","lat":43.31341,"lon":5.367098,"is_reserved":false,"is_disabled":false,"rental_uris":{"android":"levelo://app?vid=575057c4-d799-4674-adda-ba59c65b9e71","ios":"levelo://app?vid=575057c4-d799-4674-adda-ba59c65b9e71"},"vehicle_type_id":"4","last_reported":1711980445,"current_range_meters":8800,"station_id":"ce4bgr92rcd13ifvqc6g","pricing_plan_id":"cebpf4jnsgd1na2vs0mg"},{"bike_id":"de839a4d-cacf-46ab-805e-6be34a129f6b","system_id":"levelo_inurba_marseille","lat":43.31341,"lon":5.367098,"is_reserved":false,"is_disabled":false,"rental_uris":{"android":"levelo://app?vid=de839a4d-cacf-46ab-805e-6be34a129f6b","ios":"levelo://app?vid=de839a4d-cacf-46ab-805e-6be34a129f6b"},"vehicle_type_id":"4","last_reported":1711980445,"current_range_meters":9200,"station_id":"ce4bgr92rcd13ifvqc6g","pricing_plan_id":"cebpf4jnsgd1na2vs0mg"},{"bike_id":"57c11d15-7d91-493d-9e73-fae14a6810ad","system_id":"levelo_inurba_marseille","lat":43.313613,"lon":5.36705,"is_reserved":false,"is_disabled":false,"rental_uris":{"android":"levelo://app?vid=57c11d15-7d91-493d-9e73-fae14a6810ad","ios":"levelo://app?vid=57c11d15-7d91-493d-9e73-fae14a6810ad"},"vehicle_type_id":"4","last_reported":1711980445,"current_range_meters":12400,"station_id":"ce4bgr92rcd13ifvqc6g","pricing_plan_id":"cebpf4jnsgd1na2vs0mg"},{"bike_id":"f02e74cf-4626-47d9-94e0-2f5c7d48a87b","system_id":"levelo_inurba_marseille","lat":43.31362,"lon":5.36694,"is_reserved":false,"is_disabled":false,"rental_uris":{"android":"levelo://app?vid=f02e74cf-4626-47d9-94e0-2f5c7d48a87b","ios":"levelo://app?vid=f02e74cf-4626-47d9-94e0-2f5c7d48a87b"},"vehicle_type_id":"4","last_reported":1711980445,"current_range_meters":11200,"station_id":"ce4bgr92rcd13ifvqc6g","pricing_plan_id":"cebpf4jnsgd1na2vs0mg"},{"bike_id":"68563d57-d78b-4bb4-b307-3f8fee0a0f39","system_id":"levelo_inurba_marseille","lat":43.312239,"lon":5.368562,"is_reserved":false,"is_disabled":false,"rental_uris":{"android":"levelo://app?vid=68563d57-d78b-4bb4-b307-3f8fee0a0f39","ios":"levelo://app?vid=68563d57-d78b-4bb4-b307-3f8fee0a0f39"},"vehicle_type_id":"4","last_reported":1711980445,"current_range_meters":12400,"station_id":"ce4bgl92rcd13ifvqbq0","pricing_plan_id":"cebpf4jnsgd1na2vs0mg"},{"bike_id":"0edeb47a-9964-4f4d-a3d0-90f59e20546d","system_id":"levelo_inurba_marseille","lat":43.312239,"lon":5.368562,"is_reserved":false,"is_disabled":false,"rental_uris":{"android":"levelo://app?vid=0edeb47a-9964-4f4d-a3d0-90f59e20546d","ios":"levelo://app?vid=0edeb47a-9964-4f4d-a3d0-90f59e20546d"},"vehicle_type_id":"4","last_reported":1711980445,"current_range_meters":24800,"station_id":"ce4bgl92rcd13ifvqbq0","pricing_plan_id":"cebpf4jnsgd1na2vs0mg"},{"bike_id":"8356cfc6-ea57-4748-b74f-b88671838e23","system_id":"levelo_inurba_marseille","lat":43.312239,"lon":5.368562,"is_reserved":false,"is_disabled":false,"rental_uris":{"android":"levelo://app?vid=8356cfc6-ea57-4748-b74f-b88671838e23","ios":"levelo://app?vid=8356cfc6-ea57-4748-b74f-b88671838e23"},"vehicle_type_id":"4","last_reported":1711980445,"current_range_meters":8800,"station_id":"ce4bgl92rcd13ifvqbq0","pricing_plan_id":"cebpf4jnsgd1na2vs0mg"},{"bike_id":"0aa7ac01-5628-4ebc-8f78-5683c7a0ffb9","system_id":"levelo_inurba_marseille","lat":43.30918,"lon":5.3685,"is_reserved":false,"is_disabled":false,"rental_uris":{"android":"levelo://app?vid=0aa7ac01-5628-4ebc-8f78-5683c7a0ffb9","ios":"levelo://app?vid=0aa7ac01-5628-4ebc-8f78-5683c7a0ffb9"},"vehicle_type_id":"4","last_reported":1711980445,"current_range_meters":9600,"station_id":"ce4bgn92rcd13ifvqbvg","pricing_plan_id":"cebpf4jnsgd1na2vs0mg"},{"bike_id":"412a765d-223f-4cc4-b066-54bf97e827fd","system_id":"levelo_inurba_marseille","lat":43.309076,"lon":5.368465,"is_reserved":false,"is_disabled":false,"rental_uris":{"android":"levelo://app?vid=412a765d-223f-4cc4-b066-54bf97e827fd","ios":"levelo://app?vid=412a765d-223f-4cc4-b066-54bf97e827fd"},"vehicle_type_id":"4","last_reported":1711980445,"current_range_meters":31600,"station_id":"ce4bgn92rcd13ifvqbvg","pricing_plan_id":"cebpf4jnsgd1na2vs0mg"},{"bike_id":"8d217d63-a7a8-4119-93db-e5a88f675335","system_id":"levelo_inurba_marseille","lat":43.309076,"lon":5.368465,"is_reserved":false,"is_disabled":false,"rental_uris":{"android":"levelo://app?vid=8d217d63-a7a8-4119-93db-e5a88f675335","ios":"levelo://app?vid=8d217d63-a7a8-4119-93db-e5a88f675335"},"vehicle_type_id":"4","last_reported":1711980445,"current_range_meters":8000,"station_id":"ce4bgn92rcd13ifvqbvg","pricing_plan_id":"cebpf4jnsgd1na2vs0mg"},{"bike_id":"0a3452cb-8ef4-4306-b697-fd73ff561e42","system_id":"levelo_inurba_marseille","lat":43.309076,"lon":5.368465,"is_reserved":false,"is_disabled":false,"rental_uris":{"android":"levelo://app?vid=0a3452cb-8ef4-4306-b697-fd73ff561e42","ios":"levelo://app?vid=0a3452cb-8ef4-4306-b697-fd73ff561e42"},"vehicle_type_id":"4","last_reported":1711980445,"current_range_meters":3200,"station_id":"ce4bgn92rcd13ifvqbvg","pricing_plan_id":"cebpf4jnsgd1na2vs0mg"},{"bike_id":"be23b56c-2b4f-4f6b-8338-bcba287cb581","system_id":"levelo_inurba_marseille","lat":43.309076,"lon":5.368465,"is_reserved":false,"is_disabled":false,"rental_uris":{"android":"levelo://app?vid=be23b56c-2b4f-4f6b-8338-bcba287cb581","ios":"levelo://app?vid=be23b56c-2b4f-4f6b-8338-bcba287cb581"},"vehicle_type_id":"4","last_reported":1711980445,"current_range_meters":11600,"station_id":"ce4bgn92rcd13ifvqbvg","pricing_plan_id":"cebpf4jnsgd1na2vs0mg"},{"bike_id":"89915c93-93e3-4088-8cb8-3d88d29c8ea5","system_id":"levelo_inurba_marseille","lat":43.309076,"lon":5.368465,"is_reserved":false,"is_disabled":false,"rental_uris":{"android":"levelo://app?vid=89915c93-93e3-4088-8cb8-3d88d29c8ea5","ios":"levelo://app?vid=89915c93-93e3-4088-8cb8-3d88d29c8ea5"},"vehicle_type_id":"4","last_reported":1711980445,"current_range_meters":14400,"station_id":"ce4bgn92rcd13ifvqbvg","pricing_plan_id":"cebpf4jnsgd1na2vs0mg"},{"bike_id":"c84fd59a-20d4-4850-823d-9d3fe5a83563","system_id":"levelo_inurba_marseille","lat":43.285856,"lon":5.350771,"is_reserved":false,"is_disabled":false,"rental_uris":{"android":"levelo://app?vid=c84fd59a-20d4-4850-823d-9d3fe5a83563","ios":"levelo://app?vid=c84fd59a-20d4-4850-823d-9d3fe5a83563"},"vehicle_type_id":"4","last_reported":1711980445,"current_range_meters":9200,"station_id":"ce4bhch2rcd13ifvqeug","pricing_plan_id":"cebpf4jnsgd1na2vs0mg"},{"bike_id":"4496e627-9652-4bee-a823-445ec6bd8a2a","system_id":"levelo_inurba_marseille","lat":43.30905,"lon":5.36848,"is_reserved":false,"is_disabled":false,"rental_uris":{"android":"levelo://app?vid=4496e627-9652-4bee-a823-445ec6bd8a2a","ios":"levelo://app?vid=4496e627-9652-4bee-a823-445ec6bd8a2a"},"vehicle_type_id":"4","last_reported":1711980445,"current_range_meters":22800,"station_id":"ce4bgn92rcd13ifvqbvg","pricing_plan_id":"cebpf4jnsgd1na2vs0mg"},{"bike_id":"6ad1436e-e9af-44b5-93e2-e850206c591a","system_id":"levelo_inurba_marseille","lat":43.309034,"lon":5.371783,"is_reserved":false,"is_disabled":false,"rental_uris":{"android":"levelo://app?vid=6ad1436e-e9af-44b5-93e2-e850206c591a","ios":"levelo://app?vid=6ad1436e-e9af-44b5-93e2-e850206c591a"},"vehicle_type_id":"4","last_reported":1711980445,"current_range_meters":23200,"station_id":"ce4bguh2rcd13ifvqckg","pricing_plan_id":"cebpf4jnsgd1na2vs0mg"},{"bike_id":"4cd50366-1c06-430a-8ba4-1ffcf3604d98","system_id":"levelo_inurba_marseille","lat":43.31427,"lon":5.37608,"is_reserved":false,"is_disabled":false,"rental_uris":{"android":"levelo://app?vid=4cd50366-1c06-430a-8ba4-1ffcf3604d98","ios":"levelo://app?vid=4cd50366-1c06-430a-8ba4-1ffcf3604d98"},"vehicle_type_id":"4","last_reported":1711980445,"current_range_meters":0,"station_id":"","pricing_plan_id":"cebpf4jnsgd1na2vs0mg"},{"bike_id":"3b201d52-1287-4655-879e-9b0c146df87a","system_id":"levelo_inurba_marseille","lat":43.305714,"lon":5.365633,"is_reserved":false,"is_disabled":false,"rental_uris":{"android":"levelo://app?vid=3b201d52-1287-4655-879e-9b0c146df87a","ios":"levelo://app?vid=3b201d52-1287-4655-879e-9b0c146df87a"},"vehicle_type_id":"4","last_reported":1711980445,"current_range_meters":8800,"station_id":"ce4bgs12rcd13ifvqcag","pricing_plan_id":"cebpf4jnsgd1na2vs0mg"},{"bike_id":"b121626c-10f5-4e56-a849-5986d08dac7a","system_id":"levelo_inurba_marseille","lat":43.305989,"lon":5.37225,"is_reserved":false,"is_disabled":false,"rental_uris":{"android":"levelo://app?vid=b121626c-10f5-4e56-a849-5986d08dac7a","ios":"levelo://app?vid=b121626c-10f5-4e56-a849-5986d08dac7a"},"vehicle_type_id":"4","last_reported":1711980445,"current_range_meters":18000,"station_id":"ce4bgqh2rcd13ifvqc4g","pricing_plan_id":"cebpf4jnsgd1na2vs0mg"},{"bike_id":"3df8a710-9c58-4120-ac03-608fc8907d96","system_id":"levelo_inurba_marseille","lat":43.305714,"lon":5.365633,"is_reserved":false,"is_disabled":false,"rental_uris":{"android":"levelo://app?vid=3df8a710-9c58-4120-ac03-608fc8907d96","ios":"levelo://app?vid=3df8a710-9c58-4120-ac03-608fc8907d96"},"vehicle_type_id":"4","last_reported":1711980445,"current_range_meters":20800,"station_id":"ce4bgs12rcd13ifvqcag","pricing_plan_id":"cebpf4jnsgd1na2vs0mg"},{"bike_id":"f0634801-bb75-49f3-9807-1c9c1f92a4a8","system_id":"levelo_inurba_marseille","lat":43.281044,"lon":5.378308,"is_reserved":false,"is_disabled":false,"rental_uris":{"android":"levelo://app?vid=f0634801-bb75-49f3-9807-1c9c1f92a4a8","ios":"levelo://app?vid=f0634801-bb75-49f3-9807-1c9c1f92a4a8"},"vehicle_type_id":"4","last_reported":1711980445,"current_range_meters":8400,"station_id":"ce4bha12rcd13ifvqee0","pricing_plan_id":"cebpf4jnsgd1na2vs0mg"},{"bike_id":"790112f6-6a21-4fa1-9155-1461543129f2","system_id":"levelo_inurba_marseille","lat":43.305368,"lon":5.367343,"is_reserved":false,"is_disabled":false,"rental_uris":{"android":"levelo://app?vid=790112f6-6a21-4fa1-9155-1461543129f2","ios":"levelo://app?vid=790112f6-6a21-4fa1-9155-1461543129f2"},"vehicle_type_id":"4","last_reported":1711980445,"current_range_meters":12400,"station_id":"ce4bgrp2rcd13ifvqc9g","pricing_plan_id":"cebpf4jnsgd1na2vs0mg"},{"bike_id":"f1327d87-2515-4926-b447-6c90e0a11e94","system_id":"levelo_inurba_marseille","lat":43.305714,"lon":5.365633,"is_reserved":false,"is_disabled":false,"rental_uris":{"android":"levelo://app?vid=f1327d87-2515-4926-b447-6c90e0a11e94","ios":"levelo://app?vid=f1327d87-2515-4926-b447-6c90e0a11e94"},"vehicle_type_id":"4","last_reported":1711980445,"current_range_meters":9600,"station_id":"ce4bgs12rcd13ifvqcag","pricing_plan_id":"cebpf4jnsgd1na2vs0mg"},{"bike_id":"3b22a426-e52b-4276-9fb6-6317363adb1e","system_id":"levelo_inurba_marseille","lat":43.305989,"lon":5.37225,"is_reserved":false,"is_disabled":false,"rental_uris":{"android":"levelo://app?vid=3b22a426-e52b-4276-9fb6-6317363adb1e","ios":"levelo://app?vid=3b22a426-e52b-4276-9fb6-6317363adb1e"},"vehicle_type_id":"4","last_reported":1711980445,"current_range_meters":11600,"station_id":"ce4bgqh2rcd13ifvqc4g","pricing_plan_id":"cebpf4jnsgd1na2vs0mg"},{"bike_id":"81985a9a-e187-4102-a5d2-1c9b580a80b1","system_id":"levelo_inurba_marseille","lat":43.305989,"lon":5.37225,"is_reserved":false,"is_disabled":false,"rental_uris":{"android":"levelo://app?vid=81985a9a-e187-4102-a5d2-1c9b580a80b1","ios":"levelo://app?vid=81985a9a-e187-4102-a5d2-1c9b580a80b1"},"vehicle_type_id":"4","last_reported":1711980445,"current_range_meters":3200,"station_id":"ce4bgqh2rcd13ifvqc4g","pricing_plan_id":"cebpf4jnsgd1na2vs0mg"},{"bike_id":"88584fdf-4b1b-4e64-be88-85d9dfe14a63","system_id":"levelo_inurba_marseille","lat":43.305989,"lon":5.37225,"is_reserved":false,"is_disabled":false,"rental_uris":{"android":"levelo://app?vid=88584fdf-4b1b-4e64-be88-85d9dfe14a63","ios":"levelo://app?vid=88584fdf-4b1b-4e64-be88-85d9dfe14a63"},"vehicle_type_id":"4","last_reported":1711980445,"current_range_meters":18000,"station_id":"ce4bgqh2rcd13ifvqc4g","pricing_plan_id":"cebpf4jnsgd1na2vs0mg"},{"bike_id":"d34bd312-e2bd-481a-b288-5a2840218c12","system_id":"levelo_inurba_marseille","lat":43.311131,"lon":5.377651,"is_reserved":false,"is_disabled":false,"rental_uris":{"android":"levelo://app?vid=d34bd312-e2bd-481a-b288-5a2840218c12","ios":"levelo://app?vid=d34bd312-e2bd-481a-b288-5a2840218c12"},"vehicle_type_id":"4","last_reported":1711980445,"current_range_meters":18800,"station_id":"ce4bgt92rcd13ifvqcg0","pricing_plan_id":"cebpf4jnsgd1na2vs0mg"},{"bike_id":"bbfed310-f5ca-41c8-bf3a-f83cd6959697","system_id":"levelo_inurba_marseille","lat":43.313254,"lon":5.37881,"is_reserved":false,"is_disabled":false,"rental_uris":{"android":"levelo://app?vid=bbfed310-f5ca-41c8-bf3a-f83cd6959697","ios":"levelo://app?vid=bbfed310-f5ca-41c8-bf3a-f83cd6959697"},"vehicle_type_id":"4","last_reported":1711980445,"current_range_meters":20400,"station_id":"","pricing_plan_id":"cebpf4jnsgd1na2vs0mg"},{"bike_id":"c2b56bb4-6ff7-4a77-a40e-e8522e7b5f23","system_id":"levelo_inurba_marseille","lat":43.317075,"lon":5.377367,"is_reserved":false,"is_disabled":false,"rental_uris":{"android":"levelo://app?vid=c2b56bb4-6ff7-4a77-a40e-e8522e7b5f23","ios":"levelo://app?vid=c2b56bb4-6ff7-4a77-a40e-e8522e7b5f23"},"vehicle_type_id":"4","last_reported":1711980445,"current_range_meters":28000,"station_id":"ce4bgth2rcd13ifvqch0","pricing_plan_id":"cebpf4jnsgd1na2vs0mg"},{"bike_id":"30763556-935c-4c2c-a795-ab566fb6ff1f","system_id":"levelo_inurba_marseille","lat":43.317075,"lon":5.377367,"is_reserved":false,"is_disabled":false,"rental_uris":{"android":"levelo://app?vid=30763556-935c-4c2c-a795-ab566fb6ff1f","ios":"levelo://app?vid=30763556-935c-4c2c-a795-ab566fb6ff1f"},"vehicle_type_id":"4","last_reported":1711980445,"current_range_meters":30800,"station_id":"ce4bgth2rcd13ifvqch0","pricing_plan_id":"cebpf4jnsgd1na2vs0mg"},{"bike_id":"2ef8d1c9-aaf4-4725-946a-373f143b92bc","system_id":"levelo_inurba_marseille","lat":43.317183,"lon":5.37742,"is_reserved":false,"is_disabled":false,"rental_uris":{"android":"levelo://app?vid=2ef8d1c9-aaf4-4725-946a-373f143b92bc","ios":"levelo://app?vid=2ef8d1c9-aaf4-4725-946a-373f143b92bc"},"vehicle_type_id":"4","last_reported":1711980445,"current_range_meters":30000,"station_id":"ce4bgth2rcd13ifvqch0","pricing_plan_id":"cebpf4jnsgd1na2vs0mg"},{"bike_id":"d6b563d2-9d65-4eb4-9575-a30e861bab98","system_id":"levelo_inurba_marseille","lat":43.317075,"lon":5.377367,"is_reserved":false,"is_disabled":false,"rental_uris":{"android":"levelo://app?vid=d6b563d2-9d65-4eb4-9575-a30e861bab98","ios":"levelo://app?vid=d6b563d2-9d65-4eb4-9575-a30e861bab98"},"vehicle_type_id":"4","last_reported":1711980445,"current_range_meters":31200,"station_id":"ce4bgth2rcd13ifvqch0","pricing_plan_id":"cebpf4jnsgd1na2vs0mg"},{"bike_id":"7aaa3701-c833-47d5-b2d5-29d13e5a2ae5","system_id":"levelo_inurba_marseille","lat":43.317075,"lon":5.377367,"is_reserved":false,"is_disabled":false,"rental_uris":{"android":"levelo://app?vid=7aaa3701-c833-47d5-b2d5-29d13e5a2ae5","ios":"levelo://app?vid=7aaa3701-c833-47d5-b2d5-29d13e5a2ae5"},"vehicle_type_id":"4","last_reported":1711980445,"current_range_meters":21600,"station_id":"ce4bgth2rcd13ifvqch0","pricing_plan_id":"cebpf4jnsgd1na2vs0mg"},{"bike_id":"df9c772a-c9af-4de1-bde4-0517d0c1436e","system_id":"levelo_inurba_marseille","lat":43.315289,"lon":5.380349,"is_reserved":false,"is_disabled":false,"rental_uris":{"android":"levelo://app?vid=df9c772a-c9af-4de1-bde4-0517d0c1436e","ios":"levelo://app?vid=df9c772a-c9af-4de1-bde4-0517d0c1436e"},"vehicle_type_id":"4","last_reported":1711980445,"current_range_meters":19600,"station_id":"ce4bhsp2rcd13ifvqi50","pricing_plan_id":"cebpf4jnsgd1na2vs0mg"},{"bike_id":"5d6d608b-c878-4635-9f74-9e6e91759515","system_id":"levelo_inurba_marseille","lat":43.315289,"lon":5.380349,"is_reserved":false,"is_disabled":false,"rental_uris":{"android":"levelo://app?vid=5d6d608b-c878-4635-9f74-9e6e91759515","ios":"levelo://app?vid=5d6d608b-c878-4635-9f74-9e6e91759515"},"vehicle_type_id":"4","last_reported":1711980445,"current_range_meters":14400,"station_id":"ce4bhsp2rcd13ifvqi50","pricing_plan_id":"cebpf4jnsgd1na2vs0mg"},{"bike_id":"1179b424-e642-4cc9-8eef-6573e93ba9dd","system_id":"levelo_inurba_marseille","lat":43.302957,"lon":5.372327,"is_reserved":false,"is_disabled":false,"rental_uris":{"android":"levelo://app?vid=1179b424-e642-4cc9-8eef-6573e93ba9dd","ios":"levelo://app?vid=1179b424-e642-4cc9-8eef-6573e93ba9dd"},"vehicle_type_id":"4","last_reported":1711980445,"current_range_meters":15200,"station_id":"","pricing_plan_id":"cebpf4jnsgd1na2vs0mg"},{"bike_id":"8fda4bca-fdcd-473f-9343-5485077b6038","system_id":"levelo_inurba_marseille","lat":43.304606,"lon":5.379026,"is_reserved":false,"is_disabled":false,"rental_uris":{"android":"levelo://app?vid=8fda4bca-fdcd-473f-9343-5485077b6038","ios":"levelo://app?vid=8fda4bca-fdcd-473f-9343-5485077b6038"},"vehicle_type_id":"4","last_reported":1711980445,"current_range_meters":17600,"station_id":"ce4bgup2rcd13ifvqcn0","pricing_plan_id":"cebpf4jnsgd1na2vs0mg"},{"bike_id":"ec2bddbf-0372-45cd-b073-8cb841dccd02","system_id":"levelo_inurba_marseille","lat":43.304716,"lon":5.378971,"is_reserved":false,"is_disabled":false,"rental_uris":{"android":"levelo://app?vid=ec2bddbf-0372-45cd-b073-8cb841dccd02","ios":"levelo://app?vid=ec2bddbf-0372-45cd-b073-8cb841dccd02"},"vehicle_type_id":"4","last_reported":1711980445,"current_range_meters":24800,"station_id":"ce4bgup2rcd13ifvqcn0","pricing_plan_id":"cebpf4jnsgd1na2vs0mg"},{"bike_id":"36e349f8-87fe-4c6b-8638-3202b382c865","system_id":"levelo_inurba_marseille","lat":43.304606,"lon":5.379026,"is_reserved":false,"is_disabled":false,"rental_uris":{"android":"levelo://app?vid=36e349f8-87fe-4c6b-8638-3202b382c865","ios":"levelo://app?vid=36e349f8-87fe-4c6b-8638-3202b382c865"},"vehicle_type_id":"4","last_reported":1711980445,"current_range_meters":21200,"station_id":"ce4bgup2rcd13ifvqcn0","pricing_plan_id":"cebpf4jnsgd1na2vs0mg"},{"bike_id":"31609dd6-dbcc-42cf-9207-2dc7b4eaf3f8","system_id":"levelo_inurba_marseille","lat":43.304606,"lon":5.379026,"is_reserved":false,"is_disabled":false,"rental_uris":{"android":"levelo://app?vid=31609dd6-dbcc-42cf-9207-2dc7b4eaf3f8","ios":"levelo://app?vid=31609dd6-dbcc-42cf-9207-2dc7b4eaf3f8"},"vehicle_type_id":"4","last_reported":1711980445,"current_range_meters":23200,"station_id":"ce4bgup2rcd13ifvqcn0","pricing_plan_id":"cebpf4jnsgd1na2vs0mg"},{"bike_id":"432d7c5a-9cc9-4be8-9ec0-1d26b51f9a2d","system_id":"levelo_inurba_marseille","lat":43.304606,"lon":5.379026,"is_reserved":false,"is_disabled":false,"rental_uris":{"android":"levelo://app?vid=432d7c5a-9cc9-4be8-9ec0-1d26b51f9a2d","ios":"levelo://app?vid=432d7c5a-9cc9-4be8-9ec0-1d26b51f9a2d"},"vehicle_type_id":"4","last_reported":1711980445,"current_range_meters":24000,"station_id":"ce4bgup2rcd13ifvqcn0","pricing_plan_id":"cebpf4jnsgd1na2vs0mg"},{"bike_id":"0b5e3243-391e-4f86-850f-68040aff5f83","system_id":"levelo_inurba_marseille","lat":43.304606,"lon":5.379026,"is_reserved":false,"is_disabled":false,"rental_uris":{"android":"levelo://app?vid=0b5e3243-391e-4f86-850f-68040aff5f83","ios":"levelo://app?vid=0b5e3243-391e-4f86-850f-68040aff5f83"},"vehicle_type_id":"4","last_reported":1711980445,"current_range_meters":24000,"station_id":"ce4bgup2rcd13ifvqcn0","pricing_plan_id":"cebpf4jnsgd1na2vs0mg"},{"bike_id":"7ca1e8c8-83c7-40d1-8da6-545465224306","system_id":"levelo_inurba_marseille","lat":43.304606,"lon":5.379026,"is_reserved":false,"is_disabled":false,"rental_uris":{"android":"levelo://app?vid=7ca1e8c8-83c7-40d1-8da6-545465224306","ios":"levelo://app?vid=7ca1e8c8-83c7-40d1-8da6-545465224306"},"vehicle_type_id":"4","last_reported":1711980445,"current_range_meters":3600,"station_id":"ce4bgup2rcd13ifvqcn0","pricing_plan_id":"cebpf4jnsgd1na2vs0mg"},{"bike_id":"298e73e1-915c-4c41-80d3-dcb3bff26b64","system_id":"levelo_inurba_marseille","lat":43.304606,"lon":5.379026,"is_reserved":false,"is_disabled":false,"rental_uris":{"android":"levelo://app?vid=298e73e1-915c-4c41-80d3-dcb3bff26b64","ios":"levelo://app?vid=298e73e1-915c-4c41-80d3-dcb3bff26b64"},"vehicle_type_id":"4","last_reported":1711980445,"current_range_meters":20000,"station_id":"ce4bgup2rcd13ifvqcn0","pricing_plan_id":"cebpf4jnsgd1na2vs0mg"},{"bike_id":"cdbf7076-7e1c-4277-9d57-17692054ed98","system_id":"levelo_inurba_marseille","lat":43.32481,"lon":5.36581,"is_reserved":false,"is_disabled":false,"rental_uris":{"android":"levelo://app?vid=cdbf7076-7e1c-4277-9d57-17692054ed98","ios":"levelo://app?vid=cdbf7076-7e1c-4277-9d57-17692054ed98"},"vehicle_type_id":"4","last_reported":1711980445,"current_range_meters":26800,"station_id":"ce4bhs12rcd13ifvqhvg","pricing_plan_id":"cebpf4jnsgd1na2vs0mg"},{"bike_id":"401bc7b5-9ce9-443b-a290-c2f943b6888e","system_id":"levelo_inurba_marseille","lat":43.324771,"lon":5.36557,"is_reserved":false,"is_disabled":false,"rental_uris":{"android":"levelo://app?vid=401bc7b5-9ce9-443b-a290-c2f943b6888e","ios":"levelo://app?vid=401bc7b5-9ce9-443b-a290-c2f943b6888e"},"vehicle_type_id":"4","last_reported":1711980445,"current_range_meters":25600,"station_id":"ce4bhs12rcd13ifvqhvg","pricing_plan_id":"cebpf4jnsgd1na2vs0mg"},{"bike_id":"b69eb4e9-6a06-4e49-9463-0467fee1bdb8","system_id":"levelo_inurba_marseille","lat":43.324771,"lon":5.36557,"is_reserved":false,"is_disabled":false,"rental_uris":{"android":"levelo://app?vid=b69eb4e9-6a06-4e49-9463-0467fee1bdb8","ios":"levelo://app?vid=b69eb4e9-6a06-4e49-9463-0467fee1bdb8"},"vehicle_type_id":"4","last_reported":1711980445,"current_range_meters":27600,"station_id":"ce4bhs12rcd13ifvqhvg","pricing_plan_id":"cebpf4jnsgd1na2vs0mg"},{"bike_id":"3e472908-6757-4de7-90c8-5ed5ab7c27e3","system_id":"levelo_inurba_marseille","lat":43.32484,"lon":5.36562,"is_reserved":false,"is_disabled":false,"rental_uris":{"android":"levelo://app?vid=3e472908-6757-4de7-90c8-5ed5ab7c27e3","ios":"levelo://app?vid=3e472908-6757-4de7-90c8-5ed5ab7c27e3"},"vehicle_type_id":"4","last_reported":1711980445,"current_range_meters":23200,"station_id":"ce4bhs12rcd13ifvqhvg","pricing_plan_id":"cebpf4jnsgd1na2vs0mg"},{"bike_id":"bebf9b22-c84c-4571-a014-1cca25e28554","system_id":"levelo_inurba_marseille","lat":43.324771,"lon":5.36557,"is_reserved":false,"is_disabled":false,"rental_uris":{"android":"levelo://app?vid=bebf9b22-c84c-4571-a014-1cca25e28554","ios":"levelo://app?vid=bebf9b22-c84c-4571-a014-1cca25e28554"},"vehicle_type_id":"4","last_reported":1711980445,"current_range_meters":26800,"station_id":"ce4bhs12rcd13ifvqhvg","pricing_plan_id":"cebpf4jnsgd1na2vs0mg"},{"bike_id":"ee90edf0-1805-45fb-98df-d22bd3a01aec","system_id":"levelo_inurba_marseille","lat":43.324771,"lon":5.36557,"is_reserved":false,"is_disabled":false,"rental_uris":{"android":"levelo://app?vid=ee90edf0-1805-45fb-98df-d22bd3a01aec","ios":"levelo://app?vid=ee90edf0-1805-45fb-98df-d22bd3a01aec"},"vehicle_type_id":"4","last_reported":1711980445,"current_range_meters":24400,"station_id":"ce4bhs12rcd13ifvqhvg","pricing_plan_id":"cebpf4jnsgd1na2vs0mg"},{"bike_id":"a47d18d1-58b8-4180-8a69-25f81aa5de1b","system_id":"levelo_inurba_marseille","lat":43.32486,"lon":5.36565,"is_reserved":false,"is_disabled":false,"rental_uris":{"android":"levelo://app?vid=a47d18d1-58b8-4180-8a69-25f81aa5de1b","ios":"levelo://app?vid=a47d18d1-58b8-4180-8a69-25f81aa5de1b"},"vehicle_type_id":"4","last_reported":1711980445,"current_range_meters":17200,"station_id":"ce4bhs12rcd13ifvqhvg","pricing_plan_id":"cebpf4jnsgd1na2vs0mg"},{"bike_id":"93b002c0-01eb-4a5e-838c-35d520bad3fc","system_id":"levelo_inurba_marseille","lat":43.324771,"lon":5.36557,"is_reserved":false,"is_disabled":false,"rental_uris":{"android":"levelo://app?vid=93b002c0-01eb-4a5e-838c-35d520bad3fc","ios":"levelo://app?vid=93b002c0-01eb-4a5e-838c-35d520bad3fc"},"vehicle_type_id":"4","last_reported":1711980445,"current_range_meters":20400,"station_id":"ce4bhs12rcd13ifvqhvg","pricing_plan_id":"cebpf4jnsgd1na2vs0mg"},{"bike_id":"3933c208-afb2-45ee-92a4-2a4fc6ee3abe","system_id":"levelo_inurba_marseille","lat":43.324771,"lon":5.36557,"is_reserved":false,"is_disabled":false,"rental_uris":{"android":"levelo://app?vid=3933c208-afb2-45ee-92a4-2a4fc6ee3abe","ios":"levelo://app?vid=3933c208-afb2-45ee-92a4-2a4fc6ee3abe"},"vehicle_type_id":"4","last_reported":1711980445,"current_range_meters":25600,"station_id":"ce4bhs12rcd13ifvqhvg","pricing_plan_id":"cebpf4jnsgd1na2vs0mg"},{"bike_id":"e9ed05f5-be52-4263-930f-30c22a466d11","system_id":"levelo_inurba_marseille","lat":43.324771,"lon":5.36557,"is_reserved":false,"is_disabled":false,"rental_uris":{"android":"levelo://app?vid=e9ed05f5-be52-4263-930f-30c22a466d11","ios":"levelo://app?vid=e9ed05f5-be52-4263-930f-30c22a466d11"},"vehicle_type_id":"4","last_reported":1711980445,"current_range_meters":25600,"station_id":"ce4bhs12rcd13ifvqhvg","pricing_plan_id":"cebpf4jnsgd1na2vs0mg"},{"bike_id":"c3bd56c1-e72a-442f-8628-8c0fca4e57d8","system_id":"levelo_inurba_marseille","lat":43.324771,"lon":5.36557,"is_reserved":false,"is_disabled":false,"rental_uris":{"android":"levelo://app?vid=c3bd56c1-e72a-442f-8628-8c0fca4e57d8","ios":"levelo://app?vid=c3bd56c1-e72a-442f-8628-8c0fca4e57d8"},"vehicle_type_id":"4","last_reported":1711980445,"current_range_meters":24800,"station_id":"ce4bhs12rcd13ifvqhvg","pricing_plan_id":"cebpf4jnsgd1na2vs0mg"},{"bike_id":"36d076e8-716e-4dd4-8337-0f923837a8a8","system_id":"levelo_inurba_marseille","lat":43.302784,"lon":5.377158,"is_reserved":false,"is_disabled":false,"rental_uris":{"android":"levelo://app?vid=36d076e8-716e-4dd4-8337-0f923837a8a8","ios":"levelo://app?vid=36d076e8-716e-4dd4-8337-0f923837a8a8"},"vehicle_type_id":"4","last_reported":1711980445,"current_range_meters":27600,"station_id":"ce4bguh2rcd13ifvqcj0","pricing_plan_id":"cebpf4jnsgd1na2vs0mg"},{"bike_id":"a35baa3b-cdb0-475c-8264-da8c2b3bee32","system_id":"levelo_inurba_marseille","lat":43.302784,"lon":5.377158,"is_reserved":false,"is_disabled":false,"rental_uris":{"android":"levelo://app?vid=a35baa3b-cdb0-475c-8264-da8c2b3bee32","ios":"levelo://app?vid=a35baa3b-cdb0-475c-8264-da8c2b3bee32"},"vehicle_type_id":"4","last_reported":1711980445,"current_range_meters":29200,"station_id":"ce4bguh2rcd13ifvqcj0","pricing_plan_id":"cebpf4jnsgd1na2vs0mg"},{"bike_id":"e88b08c3-3a39-4552-8917-4449bebfde4b","system_id":"levelo_inurba_marseille","lat":43.30282,"lon":5.37691,"is_reserved":false,"is_disabled":false,"rental_uris":{"android":"levelo://app?vid=e88b08c3-3a39-4552-8917-4449bebfde4b","ios":"levelo://app?vid=e88b08c3-3a39-4552-8917-4449bebfde4b"},"vehicle_type_id":"4","last_reported":1711980445,"current_range_meters":22800,"station_id":"ce4bguh2rcd13ifvqcj0","pricing_plan_id":"cebpf4jnsgd1na2vs0mg"},{"bike_id":"8112e0d9-4fe3-4b20-afd3-55361d8c0909","system_id":"levelo_inurba_marseille","lat":43.302008,"lon":5.394694,"is_reserved":false,"is_disabled":false,"rental_uris":{"android":"levelo://app?vid=8112e0d9-4fe3-4b20-afd3-55361d8c0909","ios":"levelo://app?vid=8112e0d9-4fe3-4b20-afd3-55361d8c0909"},"vehicle_type_id":"4","last_reported":1711980445,"current_range_meters":18000,"station_id":"ce4bh0p2rcd13ifvqd70","pricing_plan_id":"cebpf4jnsgd1na2vs0mg"},{"bike_id":"b85c000e-c694-43ae-99af-18fc72f9a4f0","system_id":"levelo_inurba_marseille","lat":43.302784,"lon":5.377158,"is_reserved":false,"is_disabled":false,"rental_uris":{"android":"levelo://app?vid=b85c000e-c694-43ae-99af-18fc72f9a4f0","ios":"levelo://app?vid=b85c000e-c694-43ae-99af-18fc72f9a4f0"},"vehicle_type_id":"4","last_reported":1711980445,"current_range_meters":24400,"station_id":"ce4bguh2rcd13ifvqcj0","pricing_plan_id":"cebpf4jnsgd1na2vs0mg"},{"bike_id":"2072533b-a6ff-4d0a-8354-c898ecb8e74c","system_id":"levelo_inurba_marseille","lat":43.302784,"lon":5.377158,"is_reserved":false,"is_disabled":false,"rental_uris":{"android":"levelo://app?vid=2072533b-a6ff-4d0a-8354-c898ecb8e74c","ios":"levelo://app?vid=2072533b-a6ff-4d0a-8354-c898ecb8e74c"},"vehicle_type_id":"4","last_reported":1711980445,"current_range_meters":23600,"station_id":"ce4bguh2rcd13ifvqcj0","pricing_plan_id":"cebpf4jnsgd1na2vs0mg"},{"bike_id":"64b9aed1-01c9-495a-a5aa-d5d74f3adea2","system_id":"levelo_inurba_marseille","lat":43.302784,"lon":5.377158,"is_reserved":false,"is_disabled":false,"rental_uris":{"android":"levelo://app?vid=64b9aed1-01c9-495a-a5aa-d5d74f3adea2","ios":"levelo://app?vid=64b9aed1-01c9-495a-a5aa-d5d74f3adea2"},"vehicle_type_id":"4","last_reported":1711980445,"current_range_meters":20800,"station_id":"ce4bguh2rcd13ifvqcj0","pricing_plan_id":"cebpf4jnsgd1na2vs0mg"},{"bike_id":"ca3b1487-df13-406c-aa15-b0aad3dfbe72","system_id":"levelo_inurba_marseille","lat":43.302784,"lon":5.377158,"is_reserved":false,"is_disabled":false,"rental_uris":{"android":"levelo://app?vid=ca3b1487-df13-406c-aa15-b0aad3dfbe72","ios":"levelo://app?vid=ca3b1487-df13-406c-aa15-b0aad3dfbe72"},"vehicle_type_id":"4","last_reported":1711980445,"current_range_meters":30800,"station_id":"ce4bguh2rcd13ifvqcj0","pricing_plan_id":"cebpf4jnsgd1na2vs0mg"},{"bike_id":"4e7ff49c-d7bc-46dc-991f-bca8d5441cdb","system_id":"levelo_inurba_marseille","lat":43.302784,"lon":5.377158,"is_reserved":false,"is_disabled":false,"rental_uris":{"android":"levelo://app?vid=4e7ff49c-d7bc-46dc-991f-bca8d5441cdb","ios":"levelo://app?vid=4e7ff49c-d7bc-46dc-991f-bca8d5441cdb"},"vehicle_type_id":"4","last_reported":1711980445,"current_range_meters":22000,"station_id":"ce4bguh2rcd13ifvqcj0","pricing_plan_id":"cebpf4jnsgd1na2vs0mg"},{"bike_id":"fe81f9e1-c877-4aa0-bdaa-98fdb70bcd98","system_id":"levelo_inurba_marseille","lat":43.302784,"lon":5.377158,"is_reserved":false,"is_disabled":false,"rental_uris":{"android":"levelo://app?vid=fe81f9e1-c877-4aa0-bdaa-98fdb70bcd98","ios":"levelo://app?vid=fe81f9e1-c877-4aa0-bdaa-98fdb70bcd98"},"vehicle_type_id":"4","last_reported":1711980445,"current_range_meters":24000,"station_id":"ce4bguh2rcd13ifvqcj0","pricing_plan_id":"cebpf4jnsgd1na2vs0mg"},{"bike_id":"5283cec1-7ee2-4e9c-a255-6d60311e6e04","system_id":"levelo_inurba_marseille","lat":43.302784,"lon":5.377158,"is_reserved":false,"is_disabled":false,"rental_uris":{"android":"levelo://app?vid=5283cec1-7ee2-4e9c-a255-6d60311e6e04","ios":"levelo://app?vid=5283cec1-7ee2-4e9c-a255-6d60311e6e04"},"vehicle_type_id":"4","last_reported":1711980445,"current_range_meters":23600,"station_id":"ce4bguh2rcd13ifvqcj0","pricing_plan_id":"cebpf4jnsgd1na2vs0mg"},{"bike_id":"6a175f4e-87e8-498a-8b4a-94501902a926","system_id":"levelo_inurba_marseille","lat":43.30143,"lon":5.37413,"is_reserved":false,"is_disabled":false,"rental_uris":{"android":"levelo://app?vid=6a175f4e-87e8-498a-8b4a-94501902a926","ios":"levelo://app?vid=6a175f4e-87e8-498a-8b4a-94501902a926"},"vehicle_type_id":"4","last_reported":1711980445,"current_range_meters":29200,"station_id":"ce4bgs92rcd13ifvqcc0","pricing_plan_id":"cebpf4jnsgd1na2vs0mg"},{"bike_id":"213d58d1-213d-4d8a-9250-3e720d9e61f3","system_id":"levelo_inurba_marseille","lat":43.302784,"lon":5.377158,"is_reserved":false,"is_disabled":false,"rental_uris":{"android":"levelo://app?vid=213d58d1-213d-4d8a-9250-3e720d9e61f3","ios":"levelo://app?vid=213d58d1-213d-4d8a-9250-3e720d9e61f3"},"vehicle_type_id":"4","last_reported":1711980445,"current_range_meters":27600,"station_id":"ce4bguh2rcd13ifvqcj0","pricing_plan_id":"cebpf4jnsgd1na2vs0mg"},{"bike_id":"74f07b1b-ea08-427f-a9a3-39f3b1837a49","system_id":"levelo_inurba_marseille","lat":43.315045,"lon":5.383925,"is_reserved":false,"is_disabled":false,"rental_uris":{"android":"levelo://app?vid=74f07b1b-ea08-427f-a9a3-39f3b1837a49","ios":"levelo://app?vid=74f07b1b-ea08-427f-a9a3-39f3b1837a49"},"vehicle_type_id":"4","last_reported":1711980445,"current_range_meters":24800,"station_id":"","pricing_plan_id":"cebpf4jnsgd1na2vs0mg"},{"bike_id":"47906416-3a3d-4d6e-b620-2af45065a840","system_id":"levelo_inurba_marseille","lat":43.319935,"lon":5.381699,"is_reserved":false,"is_disabled":false,"rental_uris":{"android":"levelo://app?vid=47906416-3a3d-4d6e-b620-2af45065a840","ios":"levelo://app?vid=47906416-3a3d-4d6e-b620-2af45065a840"},"vehicle_type_id":"4","last_reported":1711980445,"current_range_meters":2800,"station_id":"ce4bhr12rcd13ifvqhpg","pricing_plan_id":"cebpf4jnsgd1na2vs0mg"},{"bike_id":"86a2e2ed-ef3c-4a15-a784-914ef06db1a3","system_id":"levelo_inurba_marseille","lat":43.319935,"lon":5.381699,"is_reserved":false,"is_disabled":false,"rental_uris":{"android":"levelo://app?vid=86a2e2ed-ef3c-4a15-a784-914ef06db1a3","ios":"levelo://app?vid=86a2e2ed-ef3c-4a15-a784-914ef06db1a3"},"vehicle_type_id":"4","last_reported":1711980445,"current_range_meters":0,"station_id":"ce4bhr12rcd13ifvqhpg","pricing_plan_id":"cebpf4jnsgd1na2vs0mg"},{"bike_id":"66bdbd4f-dcbb-491c-80f5-779c31e138b1","system_id":"levelo_inurba_marseille","lat":43.319935,"lon":5.381699,"is_reserved":false,"is_disabled":false,"rental_uris":{"android":"levelo://app?vid=66bdbd4f-dcbb-491c-80f5-779c31e138b1","ios":"levelo://app?vid=66bdbd4f-dcbb-491c-80f5-779c31e138b1"},"vehicle_type_id":"4","last_reported":1711980445,"current_range_meters":14400,"station_id":"ce4bhr12rcd13ifvqhpg","pricing_plan_id":"cebpf4jnsgd1na2vs0mg"},{"bike_id":"83c4b162-ba2e-4672-900c-f6fb8cee32b5","system_id":"levelo_inurba_marseille","lat":43.31994,"lon":5.38145,"is_reserved":false,"is_disabled":false,"rental_uris":{"android":"levelo://app?vid=83c4b162-ba2e-4672-900c-f6fb8cee32b5","ios":"levelo://app?vid=83c4b162-ba2e-4672-900c-f6fb8cee32b5"},"vehicle_type_id":"4","last_reported":1711980445,"current_range_meters":18000,"station_id":"ce4bhr12rcd13ifvqhpg","pricing_plan_id":"cebpf4jnsgd1na2vs0mg"},{"bike_id":"d5e62f71-6706-4bc6-81b2-d3ea836ba196","system_id":"levelo_inurba_marseille","lat":43.319918,"lon":5.381502,"is_reserved":false,"is_disabled":false,"rental_uris":{"android":"levelo://app?vid=d5e62f71-6706-4bc6-81b2-d3ea836ba196","ios":"levelo://app?vid=d5e62f71-6706-4bc6-81b2-d3ea836ba196"},"vehicle_type_id":"4","last_reported":1711980445,"current_range_meters":17600,"station_id":"ce4bhr12rcd13ifvqhpg","pricing_plan_id":"cebpf4jnsgd1na2vs0mg"},{"bike_id":"05b089d9-059f-4f78-9b9e-fd54a5f970ee","system_id":"levelo_inurba_marseille","lat":43.319935,"lon":5.381699,"is_reserved":false,"is_disabled":false,"rental_uris":{"android":"levelo://app?vid=05b089d9-059f-4f78-9b9e-fd54a5f970ee","ios":"levelo://app?vid=05b089d9-059f-4f78-9b9e-fd54a5f970ee"},"vehicle_type_id":"4","last_reported":1711980445,"current_range_meters":10800,"station_id":"ce4bhr12rcd13ifvqhpg","pricing_plan_id":"cebpf4jnsgd1na2vs0mg"},{"bike_id":"21851ffe-3398-4005-8c1d-f724e77588d6","system_id":"levelo_inurba_marseille","lat":43.299222,"lon":5.365554,"is_reserved":false,"is_disabled":false,"rental_uris":{"android":"levelo://app?vid=21851ffe-3398-4005-8c1d-f724e77588d6","ios":"levelo://app?vid=21851ffe-3398-4005-8c1d-f724e77588d6"},"vehicle_type_id":"4","last_reported":1711980445,"current_range_meters":22000,"station_id":"ce4bgm92rcd13ifvqbr0","pricing_plan_id":"cebpf4jnsgd1na2vs0mg"},{"bike_id":"4a1bd48a-000f-419b-8616-ff0a8d02a0f2","system_id":"levelo_inurba_marseille","lat":43.29937,"lon":5.36707,"is_reserved":false,"is_disabled":false,"rental_uris":{"android":"levelo://app?vid=4a1bd48a-000f-419b-8616-ff0a8d02a0f2","ios":"levelo://app?vid=4a1bd48a-000f-419b-8616-ff0a8d02a0f2"},"vehicle_type_id":"4","last_reported":1711980445,"current_range_meters":0,"station_id":"","pricing_plan_id":"cebpf4jnsgd1na2vs0mg"},{"bike_id":"8c632d3a-0682-4286-8dd3-54c03e234874","system_id":"levelo_inurba_marseille","lat":43.299222,"lon":5.365554,"is_reserved":false,"is_disabled":false,"rental_uris":{"android":"levelo://app?vid=8c632d3a-0682-4286-8dd3-54c03e234874","ios":"levelo://app?vid=8c632d3a-0682-4286-8dd3-54c03e234874"},"vehicle_type_id":"4","last_reported":1711980445,"current_range_meters":22000,"station_id":"ce4bgm92rcd13ifvqbr0","pricing_plan_id":"cebpf4jnsgd1na2vs0mg"},{"bike_id":"0a65d216-e108-4799-9d0b-faea61fa201d","system_id":"levelo_inurba_marseille","lat":43.299222,"lon":5.365554,"is_reserved":false,"is_disabled":false,"rental_uris":{"android":"levelo://app?vid=0a65d216-e108-4799-9d0b-faea61fa201d","ios":"levelo://app?vid=0a65d216-e108-4799-9d0b-faea61fa201d"},"vehicle_type_id":"4","last_reported":1711980445,"current_range_meters":0,"station_id":"ce4bgm92rcd13ifvqbr0","pricing_plan_id":"cebpf4jnsgd1na2vs0mg"},{"bike_id":"cd04fbce-2969-4930-aa8b-58148c78fee5","system_id":"levelo_inurba_marseille","lat":43.299398,"lon":5.36516,"is_reserved":false,"is_disabled":false,"rental_uris":{"android":"levelo://app?vid=cd04fbce-2969-4930-aa8b-58148c78fee5","ios":"levelo://app?vid=cd04fbce-2969-4930-aa8b-58148c78fee5"},"vehicle_type_id":"4","last_reported":1711980445,"current_range_meters":8000,"station_id":"ce4bgm92rcd13ifvqbr0","pricing_plan_id":"cebpf4jnsgd1na2vs0mg"},{"bike_id":"e2f9ee15-c2f5-4b87-ab0b-0c7f3401aeed","system_id":"levelo_inurba_marseille","lat":43.299222,"lon":5.365554,"is_reserved":false,"is_disabled":false,"rental_uris":{"android":"levelo://app?vid=e2f9ee15-c2f5-4b87-ab0b-0c7f3401aeed","ios":"levelo://app?vid=e2f9ee15-c2f5-4b87-ab0b-0c7f3401aeed"},"vehicle_type_id":"4","last_reported":1711980445,"current_range_meters":20800,"station_id":"ce4bgm92rcd13ifvqbr0","pricing_plan_id":"cebpf4jnsgd1na2vs0mg"},{"bike_id":"4776a997-d53e-49c7-8e4f-38d1085481ae","system_id":"levelo_inurba_marseille","lat":43.299222,"lon":5.365554,"is_reserved":false,"is_disabled":false,"rental_uris":{"android":"levelo://app?vid=4776a997-d53e-49c7-8e4f-38d1085481ae","ios":"levelo://app?vid=4776a997-d53e-49c7-8e4f-38d1085481ae"},"vehicle_type_id":"4","last_reported":1711980445,"current_range_meters":30400,"station_id":"ce4bgm92rcd13ifvqbr0","pricing_plan_id":"cebpf4jnsgd1na2vs0mg"},{"bike_id":"06e8c71d-542e-4d6a-ad50-2097223a0130","system_id":"levelo_inurba_marseille","lat":43.299222,"lon":5.365554,"is_reserved":false,"is_disabled":false,"rental_uris":{"android":"levelo://app?vid=06e8c71d-542e-4d6a-ad50-2097223a0130","ios":"levelo://app?vid=06e8c71d-542e-4d6a-ad50-2097223a0130"},"vehicle_type_id":"4","last_reported":1711980445,"current_range_meters":25600,"station_id":"ce4bgm92rcd13ifvqbr0","pricing_plan_id":"cebpf4jnsgd1na2vs0mg"},{"bike_id":"5d6aaa14-a18b-4fcf-a3c5-88d54a8c71d6","system_id":"levelo_inurba_marseille","lat":43.299222,"lon":5.365554,"is_reserved":false,"is_disabled":false,"rental_uris":{"android":"levelo://app?vid=5d6aaa14-a18b-4fcf-a3c5-88d54a8c71d6","ios":"levelo://app?vid=5d6aaa14-a18b-4fcf-a3c5-88d54a8c71d6"},"vehicle_type_id":"4","last_reported":1711980445,"current_range_meters":16000,"station_id":"ce4bgm92rcd13ifvqbr0","pricing_plan_id":"cebpf4jnsgd1na2vs0mg"},{"bike_id":"6f59843b-05bd-4eb4-b626-97e2e43aec10","system_id":"levelo_inurba_marseille","lat":43.299222,"lon":5.365554,"is_reserved":false,"is_disabled":false,"rental_uris":{"android":"levelo://app?vid=6f59843b-05bd-4eb4-b626-97e2e43aec10","ios":"levelo://app?vid=6f59843b-05bd-4eb4-b626-97e2e43aec10"},"vehicle_type_id":"4","last_reported":1711980445,"current_range_meters":20800,"station_id":"ce4bgm92rcd13ifvqbr0","pricing_plan_id":"cebpf4jnsgd1na2vs0mg"},{"bike_id":"0937fdc7-21d4-43fe-9c4a-73e106ad26f3","system_id":"levelo_inurba_marseille","lat":43.299222,"lon":5.365554,"is_reserved":false,"is_disabled":false,"rental_uris":{"android":"levelo://app?vid=0937fdc7-21d4-43fe-9c4a-73e106ad26f3","ios":"levelo://app?vid=0937fdc7-21d4-43fe-9c4a-73e106ad26f3"},"vehicle_type_id":"4","last_reported":1711980445,"current_range_meters":25600,"station_id":"ce4bgm92rcd13ifvqbr0","pricing_plan_id":"cebpf4jnsgd1na2vs0mg"},{"bike_id":"7dc02cc4-6d62-49be-b77d-49e989667764","system_id":"levelo_inurba_marseille","lat":43.29977,"lon":5.37172,"is_reserved":false,"is_disabled":false,"rental_uris":{"android":"levelo://app?vid=7dc02cc4-6d62-49be-b77d-49e989667764","ios":"levelo://app?vid=7dc02cc4-6d62-49be-b77d-49e989667764"},"vehicle_type_id":"4","last_reported":1711980445,"current_range_meters":18800,"station_id":"","pricing_plan_id":"cebpf4jnsgd1na2vs0mg"},{"bike_id":"1b4b3e0e-31cc-476d-a071-c1181d121dc8","system_id":"levelo_inurba_marseille","lat":43.29935,"lon":5.36542,"is_reserved":false,"is_disabled":false,"rental_uris":{"android":"levelo://app?vid=1b4b3e0e-31cc-476d-a071-c1181d121dc8","ios":"levelo://app?vid=1b4b3e0e-31cc-476d-a071-c1181d121dc8"},"vehicle_type_id":"4","last_reported":1711980445,"current_range_meters":27200,"station_id":"ce4bgm92rcd13ifvqbr0","pricing_plan_id":"cebpf4jnsgd1na2vs0mg"},{"bike_id":"ed02224f-9da9-4a00-9e92-f0085f4949e2","system_id":"levelo_inurba_marseille","lat":43.299339,"lon":5.365341,"is_reserved":false,"is_disabled":false,"rental_uris":{"android":"levelo://app?vid=ed02224f-9da9-4a00-9e92-f0085f4949e2","ios":"levelo://app?vid=ed02224f-9da9-4a00-9e92-f0085f4949e2"},"vehicle_type_id":"4","last_reported":1711980445,"current_range_meters":31200,"station_id":"ce4bgm92rcd13ifvqbr0","pricing_plan_id":"cebpf4jnsgd1na2vs0mg"},{"bike_id":"fd267712-4924-4d91-a1b2-63c0dbfcda38","system_id":"levelo_inurba_marseille","lat":43.299313,"lon":5.365368,"is_reserved":false,"is_disabled":false,"rental_uris":{"android":"levelo://app?vid=fd267712-4924-4d91-a1b2-63c0dbfcda38","ios":"levelo://app?vid=fd267712-4924-4d91-a1b2-63c0dbfcda38"},"vehicle_type_id":"4","last_reported":1711980445,"current_range_meters":31200,"station_id":"ce4bgm92rcd13ifvqbr0","pricing_plan_id":"cebpf4jnsgd1na2vs0mg"},{"bike_id":"e89ad0d0-46d9-4e96-8f21-1d13905d1f32","system_id":"levelo_inurba_marseille","lat":43.30213,"lon":5.37996,"is_reserved":false,"is_disabled":false,"rental_uris":{"android":"levelo://app?vid=e89ad0d0-46d9-4e96-8f21-1d13905d1f32","ios":"levelo://app?vid=e89ad0d0-46d9-4e96-8f21-1d13905d1f32"},"vehicle_type_id":"4","last_reported":1711980445,"current_range_meters":14800,"station_id":"","pricing_plan_id":"cebpf4jnsgd1na2vs0mg"},{"bike_id":"2ee32a4a-9beb-4dc5-a503-1f1b7a77565c","system_id":"levelo_inurba_marseille","lat":43.305364,"lon":5.384119,"is_reserved":false,"is_disabled":false,"rental_uris":{"android":"levelo://app?vid=2ee32a4a-9beb-4dc5-a503-1f1b7a77565c","ios":"levelo://app?vid=2ee32a4a-9beb-4dc5-a503-1f1b7a77565c"},"vehicle_type_id":"4","last_reported":1711980445,"current_range_meters":7200,"station_id":"ce4bgg92rcd13ifvqb30","pricing_plan_id":"cebpf4jnsgd1na2vs0mg"},{"bike_id":"f31b9733-6823-420a-909f-5dd5139d3166","system_id":"levelo_inurba_marseille","lat":43.29857,"lon":5.36278,"is_reserved":false,"is_disabled":false,"rental_uris":{"android":"levelo://app?vid=f31b9733-6823-420a-909f-5dd5139d3166","ios":"levelo://app?vid=f31b9733-6823-420a-909f-5dd5139d3166"},"vehicle_type_id":"4","last_reported":1711980445,"current_range_meters":20000,"station_id":"ce4bgpp2rcd13ifvqc3g","pricing_plan_id":"cebpf4jnsgd1na2vs0mg"},{"bike_id":"6b43875e-41f3-48c7-be84-0b362e88416e","system_id":"levelo_inurba_marseille","lat":43.298433,"lon":5.362774,"is_reserved":false,"is_disabled":false,"rental_uris":{"android":"levelo://app?vid=6b43875e-41f3-48c7-be84-0b362e88416e","ios":"levelo://app?vid=6b43875e-41f3-48c7-be84-0b362e88416e"},"vehicle_type_id":"4","last_reported":1711980445,"current_range_meters":21600,"station_id":"ce4bgpp2rcd13ifvqc3g","pricing_plan_id":"cebpf4jnsgd1na2vs0mg"},{"bike_id":"f2753c83-8a2d-4379-8f0e-e120e38d0f49","system_id":"levelo_inurba_marseille","lat":43.2985,"lon":5.36284,"is_reserved":false,"is_disabled":false,"rental_uris":{"android":"levelo://app?vid=f2753c83-8a2d-4379-8f0e-e120e38d0f49","ios":"levelo://app?vid=f2753c83-8a2d-4379-8f0e-e120e38d0f49"},"vehicle_type_id":"4","last_reported":1711980445,"current_range_meters":18000,"station_id":"ce4bgpp2rcd13ifvqc3g","pricing_plan_id":"cebpf4jnsgd1na2vs0mg"},{"bike_id":"5b9e7cc8-19af-4dc4-8f87-c9c3b59496af","system_id":"levelo_inurba_marseille","lat":43.298433,"lon":5.362774,"is_reserved":false,"is_disabled":false,"rental_uris":{"android":"levelo://app?vid=5b9e7cc8-19af-4dc4-8f87-c9c3b59496af","ios":"levelo://app?vid=5b9e7cc8-19af-4dc4-8f87-c9c3b59496af"},"vehicle_type_id":"4","last_reported":1711980445,"current_range_meters":22000,"station_id":"ce4bgpp2rcd13ifvqc3g","pricing_plan_id":"cebpf4jnsgd1na2vs0mg"},{"bike_id":"427afb7d-7e35-4ed5-aa09-af0e93cc7a99","system_id":"levelo_inurba_marseille","lat":43.305364,"lon":5.384119,"is_reserved":false,"is_disabled":false,"rental_uris":{"android":"levelo://app?vid=427afb7d-7e35-4ed5-aa09-af0e93cc7a99","ios":"levelo://app?vid=427afb7d-7e35-4ed5-aa09-af0e93cc7a99"},"vehicle_type_id":"4","last_reported":1711980445,"current_range_meters":29200,"station_id":"ce4bgg92rcd13ifvqb30","pricing_plan_id":"cebpf4jnsgd1na2vs0mg"},{"bike_id":"c5110f6d-192d-4b8f-9443-63373095c8b9","system_id":"levelo_inurba_marseille","lat":43.29847,"lon":5.36269,"is_reserved":false,"is_disabled":false,"rental_uris":{"android":"levelo://app?vid=c5110f6d-192d-4b8f-9443-63373095c8b9","ios":"levelo://app?vid=c5110f6d-192d-4b8f-9443-63373095c8b9"},"vehicle_type_id":"4","last_reported":1711980445,"current_range_meters":10400,"station_id":"ce4bgpp2rcd13ifvqc3g","pricing_plan_id":"cebpf4jnsgd1na2vs0mg"},{"bike_id":"37188bde-6fb7-4bce-8450-3d856345ae3e","system_id":"levelo_inurba_marseille","lat":43.298433,"lon":5.362774,"is_reserved":false,"is_disabled":false,"rental_uris":{"android":"levelo://app?vid=37188bde-6fb7-4bce-8450-3d856345ae3e","ios":"levelo://app?vid=37188bde-6fb7-4bce-8450-3d856345ae3e"},"vehicle_type_id":"4","last_reported":1711980445,"current_range_meters":23600,"station_id":"ce4bgpp2rcd13ifvqc3g","pricing_plan_id":"cebpf4jnsgd1na2vs0mg"},{"bike_id":"f99b89c5-2e28-47fc-89f8-8276987ab44f","system_id":"levelo_inurba_marseille","lat":43.29843,"lon":5.36264,"is_reserved":false,"is_disabled":false,"rental_uris":{"android":"levelo://app?vid=f99b89c5-2e28-47fc-89f8-8276987ab44f","ios":"levelo://app?vid=f99b89c5-2e28-47fc-89f8-8276987ab44f"},"vehicle_type_id":"4","last_reported":1711980445,"current_range_meters":31200,"station_id":"ce4bgpp2rcd13ifvqc3g","pricing_plan_id":"cebpf4jnsgd1na2vs0mg"},{"bike_id":"1d6462d9-9134-4c86-b0cb-359bf474c33f","system_id":"levelo_inurba_marseille","lat":43.298433,"lon":5.362774,"is_reserved":false,"is_disabled":false,"rental_uris":{"android":"levelo://app?vid=1d6462d9-9134-4c86-b0cb-359bf474c33f","ios":"levelo://app?vid=1d6462d9-9134-4c86-b0cb-359bf474c33f"},"vehicle_type_id":"4","last_reported":1711980445,"current_range_meters":16800,"station_id":"ce4bgpp2rcd13ifvqc3g","pricing_plan_id":"cebpf4jnsgd1na2vs0mg"},{"bike_id":"efd71f00-4810-45dd-bd39-163b4842945c","system_id":"levelo_inurba_marseille","lat":43.299243,"lon":5.37481,"is_reserved":false,"is_disabled":false,"rental_uris":{"android":"levelo://app?vid=efd71f00-4810-45dd-bd39-163b4842945c","ios":"levelo://app?vid=efd71f00-4810-45dd-bd39-163b4842945c"},"vehicle_type_id":"4","last_reported":1711980445,"current_range_meters":0,"station_id":"ce4bgjh2rcd13ifvqbg0","pricing_plan_id":"cebpf4jnsgd1na2vs0mg"},{"bike_id":"135f7f16-2517-4380-bcf8-f29778b10fb2","system_id":"levelo_inurba_marseille","lat":43.322872,"lon":5.382756,"is_reserved":false,"is_disabled":false,"rental_uris":{"android":"levelo://app?vid=135f7f16-2517-4380-bcf8-f29778b10fb2","ios":"levelo://app?vid=135f7f16-2517-4380-bcf8-f29778b10fb2"},"vehicle_type_id":"4","last_reported":1711980445,"current_range_meters":31600,"station_id":"ce4bhr12rcd13ifvqhqg","pricing_plan_id":"cebpf4jnsgd1na2vs0mg"},{"bike_id":"f53fdd79-9293-409d-8cdc-a30301757225","system_id":"levelo_inurba_marseille","lat":43.322872,"lon":5.382756,"is_reserved":false,"is_disabled":false,"rental_uris":{"android":"levelo://app?vid=f53fdd79-9293-409d-8cdc-a30301757225","ios":"levelo://app?vid=f53fdd79-9293-409d-8cdc-a30301757225"},"vehicle_type_id":"4","last_reported":1711980445,"current_range_meters":30800,"station_id":"ce4bhr12rcd13ifvqhqg","pricing_plan_id":"cebpf4jnsgd1na2vs0mg"},{"bike_id":"c68f42d7-5ceb-4280-a4f1-873166ae8525","system_id":"levelo_inurba_marseille","lat":43.322872,"lon":5.382756,"is_reserved":false,"is_disabled":false,"rental_uris":{"android":"levelo://app?vid=c68f42d7-5ceb-4280-a4f1-873166ae8525","ios":"levelo://app?vid=c68f42d7-5ceb-4280-a4f1-873166ae8525"},"vehicle_type_id":"4","last_reported":1711980445,"current_range_meters":27200,"station_id":"ce4bhr12rcd13ifvqhqg","pricing_plan_id":"cebpf4jnsgd1na2vs0mg"},{"bike_id":"b554c75f-7c2f-473e-934d-75c22c27be51","system_id":"levelo_inurba_marseille","lat":43.322872,"lon":5.382756,"is_reserved":false,"is_disabled":false,"rental_uris":{"android":"levelo://app?vid=b554c75f-7c2f-473e-934d-75c22c27be51","ios":"levelo://app?vid=b554c75f-7c2f-473e-934d-75c22c27be51"},"vehicle_type_id":"4","last_reported":1711980445,"current_range_meters":16000,"station_id":"ce4bhr12rcd13ifvqhqg","pricing_plan_id":"cebpf4jnsgd1na2vs0mg"},{"bike_id":"46a9bc73-14bf-4bae-91d8-3b58688c11d7","system_id":"levelo_inurba_marseille","lat":43.322901,"lon":5.38265,"is_reserved":false,"is_disabled":false,"rental_uris":{"android":"levelo://app?vid=46a9bc73-14bf-4bae-91d8-3b58688c11d7","ios":"levelo://app?vid=46a9bc73-14bf-4bae-91d8-3b58688c11d7"},"vehicle_type_id":"4","last_reported":1711980445,"current_range_meters":2000,"station_id":"ce4bhr12rcd13ifvqhqg","pricing_plan_id":"cebpf4jnsgd1na2vs0mg"},{"bike_id":"98d95963-c08f-466d-98e0-8f8d61da974d","system_id":"levelo_inurba_marseille","lat":43.32292,"lon":5.38263,"is_reserved":false,"is_disabled":false,"rental_uris":{"android":"levelo://app?vid=98d95963-c08f-466d-98e0-8f8d61da974d","ios":"levelo://app?vid=98d95963-c08f-466d-98e0-8f8d61da974d"},"vehicle_type_id":"4","last_reported":1711980445,"current_range_meters":26000,"station_id":"ce4bhr12rcd13ifvqhqg","pricing_plan_id":"cebpf4jnsgd1na2vs0mg"},{"bike_id":"c2b6ec39-cf52-44eb-ae94-bbedc38fd17f","system_id":"levelo_inurba_marseille","lat":43.322872,"lon":5.382756,"is_reserved":false,"is_disabled":false,"rental_uris":{"android":"levelo://app?vid=c2b6ec39-cf52-44eb-ae94-bbedc38fd17f","ios":"levelo://app?vid=c2b6ec39-cf52-44eb-ae94-bbedc38fd17f"},"vehicle_type_id":"4","last_reported":1711980445,"current_range_meters":0,"station_id":"ce4bhr12rcd13ifvqhqg","pricing_plan_id":"cebpf4jnsgd1na2vs0mg"},{"bike_id":"c57e4eff-3408-4b5c-a41f-d125e19bb09b","system_id":"levelo_inurba_marseille","lat":43.3229,"lon":5.38266,"is_reserved":false,"is_disabled":false,"rental_uris":{"android":"levelo://app?vid=c57e4eff-3408-4b5c-a41f-d125e19bb09b","ios":"levelo://app?vid=c57e4eff-3408-4b5c-a41f-d125e19bb09b"},"vehicle_type_id":"4","last_reported":1711980445,"current_range_meters":7600,"station_id":"ce4bhr12rcd13ifvqhqg","pricing_plan_id":"cebpf4jnsgd1na2vs0mg"},{"bike_id":"daad3144-008d-4c70-83c5-cbb99de5cc8c","system_id":"levelo_inurba_marseille","lat":43.322872,"lon":5.382756,"is_reserved":false,"is_disabled":false,"rental_uris":{"android":"levelo://app?vid=daad3144-008d-4c70-83c5-cbb99de5cc8c","ios":"levelo://app?vid=daad3144-008d-4c70-83c5-cbb99de5cc8c"},"vehicle_type_id":"4","last_reported":1711980445,"current_range_meters":13600,"station_id":"ce4bhr12rcd13ifvqhqg","pricing_plan_id":"cebpf4jnsgd1na2vs0mg"},{"bike_id":"0be0d559-3c93-446b-962e-978017e572e9","system_id":"levelo_inurba_marseille","lat":43.322863,"lon":5.382743,"is_reserved":false,"is_disabled":false,"rental_uris":{"android":"levelo://app?vid=0be0d559-3c93-446b-962e-978017e572e9","ios":"levelo://app?vid=0be0d559-3c93-446b-962e-978017e572e9"},"vehicle_type_id":"4","last_reported":1711980445,"current_range_meters":15200,"station_id":"ce4bhr12rcd13ifvqhqg","pricing_plan_id":"cebpf4jnsgd1na2vs0mg"},{"bike_id":"74273bea-3575-4550-b555-5ff5cb6fb480","system_id":"levelo_inurba_marseille","lat":43.322872,"lon":5.382756,"is_reserved":false,"is_disabled":false,"rental_uris":{"android":"levelo://app?vid=74273bea-3575-4550-b555-5ff5cb6fb480","ios":"levelo://app?vid=74273bea-3575-4550-b555-5ff5cb6fb480"},"vehicle_type_id":"4","last_reported":1711980445,"current_range_meters":17200,"station_id":"ce4bhr12rcd13ifvqhqg","pricing_plan_id":"cebpf4jnsgd1na2vs0mg"},{"bike_id":"35195ee1-bb08-4c3b-997d-bf52f02f6b5a","system_id":"levelo_inurba_marseille","lat":43.322872,"lon":5.382756,"is_reserved":false,"is_disabled":false,"rental_uris":{"android":"levelo://app?vid=35195ee1-bb08-4c3b-997d-bf52f02f6b5a","ios":"levelo://app?vid=35195ee1-bb08-4c3b-997d-bf52f02f6b5a"},"vehicle_type_id":"4","last_reported":1711980445,"current_range_meters":3200,"station_id":"ce4bhr12rcd13ifvqhqg","pricing_plan_id":"cebpf4jnsgd1na2vs0mg"},{"bike_id":"e7bb4eba-90c9-4d46-8f88-c4063d2e98fb","system_id":"levelo_inurba_marseille","lat":43.322872,"lon":5.382756,"is_reserved":false,"is_disabled":false,"rental_uris":{"android":"levelo://app?vid=e7bb4eba-90c9-4d46-8f88-c4063d2e98fb","ios":"levelo://app?vid=e7bb4eba-90c9-4d46-8f88-c4063d2e98fb"},"vehicle_type_id":"4","last_reported":1711980445,"current_range_meters":16800,"station_id":"ce4bhr12rcd13ifvqhqg","pricing_plan_id":"cebpf4jnsgd1na2vs0mg"},{"bike_id":"10099c05-c94c-45d3-97e9-a6b3aab30da2","system_id":"levelo_inurba_marseille","lat":43.322872,"lon":5.382756,"is_reserved":false,"is_disabled":false,"rental_uris":{"android":"levelo://app?vid=10099c05-c94c-45d3-97e9-a6b3aab30da2","ios":"levelo://app?vid=10099c05-c94c-45d3-97e9-a6b3aab30da2"},"vehicle_type_id":"4","last_reported":1711980445,"current_range_meters":10400,"station_id":"ce4bhr12rcd13ifvqhqg","pricing_plan_id":"cebpf4jnsgd1na2vs0mg"},{"bike_id":"5ed1088d-e0ad-4614-a220-0449cb3d1e58","system_id":"levelo_inurba_marseille","lat":43.322872,"lon":5.382756,"is_reserved":false,"is_disabled":false,"rental_uris":{"android":"levelo://app?vid=5ed1088d-e0ad-4614-a220-0449cb3d1e58","ios":"levelo://app?vid=5ed1088d-e0ad-4614-a220-0449cb3d1e58"},"vehicle_type_id":"4","last_reported":1711980445,"current_range_meters":12000,"station_id":"ce4bhr12rcd13ifvqhqg","pricing_plan_id":"cebpf4jnsgd1na2vs0mg"},{"bike_id":"6db4ba56-cdbd-44f6-826d-1abf96302385","system_id":"levelo_inurba_marseille","lat":43.322872,"lon":5.382756,"is_reserved":false,"is_disabled":false,"rental_uris":{"android":"levelo://app?vid=6db4ba56-cdbd-44f6-826d-1abf96302385","ios":"levelo://app?vid=6db4ba56-cdbd-44f6-826d-1abf96302385"},"vehicle_type_id":"4","last_reported":1711980445,"current_range_meters":31600,"station_id":"ce4bhr12rcd13ifvqhqg","pricing_plan_id":"cebpf4jnsgd1na2vs0mg"},{"bike_id":"8ecca55b-c8a2-45f7-97c4-3a06042059b9","system_id":"levelo_inurba_marseille","lat":43.322872,"lon":5.382756,"is_reserved":false,"is_disabled":false,"rental_uris":{"android":"levelo://app?vid=8ecca55b-c8a2-45f7-97c4-3a06042059b9","ios":"levelo://app?vid=8ecca55b-c8a2-45f7-97c4-3a06042059b9"},"vehicle_type_id":"4","last_reported":1711980445,"current_range_meters":6000,"station_id":"ce4bhr12rcd13ifvqhqg","pricing_plan_id":"cebpf4jnsgd1na2vs0mg"},{"bike_id":"af91ee66-ebec-4e5f-b566-646a8b5863b7","system_id":"levelo_inurba_marseille","lat":43.322872,"lon":5.382756,"is_reserved":false,"is_disabled":false,"rental_uris":{"android":"levelo://app?vid=af91ee66-ebec-4e5f-b566-646a8b5863b7","ios":"levelo://app?vid=af91ee66-ebec-4e5f-b566-646a8b5863b7"},"vehicle_type_id":"4","last_reported":1711980445,"current_range_meters":13600,"station_id":"ce4bhr12rcd13ifvqhqg","pricing_plan_id":"cebpf4jnsgd1na2vs0mg"},{"bike_id":"dedc4631-51f8-4916-a749-c45ed77872be","system_id":"levelo_inurba_marseille","lat":43.322872,"lon":5.382756,"is_reserved":false,"is_disabled":false,"rental_uris":{"android":"levelo://app?vid=dedc4631-51f8-4916-a749-c45ed77872be","ios":"levelo://app?vid=dedc4631-51f8-4916-a749-c45ed77872be"},"vehicle_type_id":"4","last_reported":1711980445,"current_range_meters":17600,"station_id":"ce4bhr12rcd13ifvqhqg","pricing_plan_id":"cebpf4jnsgd1na2vs0mg"},{"bike_id":"c0ed0665-625c-4d6d-b345-13d489f8e3b9","system_id":"levelo_inurba_marseille","lat":43.297163,"lon":5.365866,"is_reserved":false,"is_disabled":false,"rental_uris":{"android":"levelo://app?vid=c0ed0665-625c-4d6d-b345-13d489f8e3b9","ios":"levelo://app?vid=c0ed0665-625c-4d6d-b345-13d489f8e3b9"},"vehicle_type_id":"4","last_reported":1711980445,"current_range_meters":12400,"station_id":"ce4bgn12rcd13ifvqbt0","pricing_plan_id":"cebpf4jnsgd1na2vs0mg"},{"bike_id":"74000708-39b0-42aa-b3ea-4b9274b2f21b","system_id":"levelo_inurba_marseille","lat":43.297163,"lon":5.365866,"is_reserved":false,"is_disabled":false,"rental_uris":{"android":"levelo://app?vid=74000708-39b0-42aa-b3ea-4b9274b2f21b","ios":"levelo://app?vid=74000708-39b0-42aa-b3ea-4b9274b2f21b"},"vehicle_type_id":"4","last_reported":1711980445,"current_range_meters":4000,"station_id":"ce4bgn12rcd13ifvqbt0","pricing_plan_id":"cebpf4jnsgd1na2vs0mg"},{"bike_id":"41f35f61-8829-4773-a557-b6060a83078e","system_id":"levelo_inurba_marseille","lat":43.297004,"lon":5.365996,"is_reserved":false,"is_disabled":false,"rental_uris":{"android":"levelo://app?vid=41f35f61-8829-4773-a557-b6060a83078e","ios":"levelo://app?vid=41f35f61-8829-4773-a557-b6060a83078e"},"vehicle_type_id":"4","last_reported":1711980445,"current_range_meters":5600,"station_id":"ce4bgn12rcd13ifvqbt0","pricing_plan_id":"cebpf4jnsgd1na2vs0mg"},{"bike_id":"22a04813-efa5-412b-b8c7-cd10e718dcd8","system_id":"levelo_inurba_marseille","lat":43.302915,"lon":5.38551,"is_reserved":false,"is_disabled":false,"rental_uris":{"android":"levelo://app?vid=22a04813-efa5-412b-b8c7-cd10e718dcd8","ios":"levelo://app?vid=22a04813-efa5-412b-b8c7-cd10e718dcd8"},"vehicle_type_id":"4","last_reported":1711980445,"current_range_meters":0,"station_id":"ce4bgg92rcd13ifvqb30","pricing_plan_id":"cebpf4jnsgd1na2vs0mg"},{"bike_id":"988e6fd6-7d4f-4872-9dc6-5b146913f95c","system_id":"levelo_inurba_marseille","lat":43.29573,"lon":5.367355,"is_reserved":false,"is_disabled":false,"rental_uris":{"android":"levelo://app?vid=988e6fd6-7d4f-4872-9dc6-5b146913f95c","ios":"levelo://app?vid=988e6fd6-7d4f-4872-9dc6-5b146913f95c"},"vehicle_type_id":"4","last_reported":1711980445,"current_range_meters":18000,"station_id":"ce4bgph2rcd13ifvqc2g","pricing_plan_id":"cebpf4jnsgd1na2vs0mg"},{"bike_id":"431c52ae-30f1-42f2-a1e1-3eaa53e70c6c","system_id":"levelo_inurba_marseille","lat":43.29581,"lon":5.36746,"is_reserved":false,"is_disabled":false,"rental_uris":{"android":"levelo://app?vid=431c52ae-30f1-42f2-a1e1-3eaa53e70c6c","ios":"levelo://app?vid=431c52ae-30f1-42f2-a1e1-3eaa53e70c6c"},"vehicle_type_id":"4","last_reported":1711980445,"current_range_meters":26800,"station_id":"","pricing_plan_id":"cebpf4jnsgd1na2vs0mg"},{"bike_id":"cd1a886d-6f09-4ba9-9af5-70614969dc3a","system_id":"levelo_inurba_marseille","lat":43.299028,"lon":5.381509,"is_reserved":false,"is_disabled":false,"rental_uris":{"android":"levelo://app?vid=cd1a886d-6f09-4ba9-9af5-70614969dc3a","ios":"levelo://app?vid=cd1a886d-6f09-4ba9-9af5-70614969dc3a"},"vehicle_type_id":"4","last_reported":1711980445,"current_range_meters":19200,"station_id":"ce4bgj12rcd13ifvqbc0","pricing_plan_id":"cebpf4jnsgd1na2vs0mg"},{"bike_id":"6acf766d-c798-4f69-b00e-3b2953fe0f3c","system_id":"levelo_inurba_marseille","lat":43.298037,"lon":5.381066,"is_reserved":false,"is_disabled":false,"rental_uris":{"android":"levelo://app?vid=6acf766d-c798-4f69-b00e-3b2953fe0f3c","ios":"levelo://app?vid=6acf766d-c798-4f69-b00e-3b2953fe0f3c"},"vehicle_type_id":"4","last_reported":1711980445,"current_range_meters":2800,"station_id":"ce4bgip2rcd13ifvqbb0","pricing_plan_id":"cebpf4jnsgd1na2vs0mg"},{"bike_id":"26008545-a570-434f-aded-89bbffcf8231","system_id":"levelo_inurba_marseille","lat":43.309589,"lon":5.390258,"is_reserved":false,"is_disabled":false,"rental_uris":{"android":"levelo://app?vid=26008545-a570-434f-aded-89bbffcf8231","ios":"levelo://app?vid=26008545-a570-434f-aded-89bbffcf8231"},"vehicle_type_id":"4","last_reported":1711980445,"current_range_meters":4800,"station_id":"ce4bgup2rcd13ifvqco0","pricing_plan_id":"cebpf4jnsgd1na2vs0mg"},{"bike_id":"1709c6df-1b58-480b-8f16-9a7cd3f5f4a4","system_id":"levelo_inurba_marseille","lat":43.309589,"lon":5.390258,"is_reserved":false,"is_disabled":false,"rental_uris":{"android":"levelo://app?vid=1709c6df-1b58-480b-8f16-9a7cd3f5f4a4","ios":"levelo://app?vid=1709c6df-1b58-480b-8f16-9a7cd3f5f4a4"},"vehicle_type_id":"4","last_reported":1711980445,"current_range_meters":0,"station_id":"ce4bgup2rcd13ifvqco0","pricing_plan_id":"cebpf4jnsgd1na2vs0mg"},{"bike_id":"e95c6183-d8a4-451b-ae93-295869e0a6fd","system_id":"levelo_inurba_marseille","lat":43.317557,"lon":5.390173,"is_reserved":false,"is_disabled":false,"rental_uris":{"android":"levelo://app?vid=e95c6183-d8a4-451b-ae93-295869e0a6fd","ios":"levelo://app?vid=e95c6183-d8a4-451b-ae93-295869e0a6fd"},"vehicle_type_id":"4","last_reported":1711980445,"current_range_meters":20400,"station_id":"ce4bhqp2rcd13ifvqhng","pricing_plan_id":"cebpf4jnsgd1na2vs0mg"},{"bike_id":"1ffa2238-eae5-4dee-8bd0-7cd0f4119ef1","system_id":"levelo_inurba_marseille","lat":43.296277,"lon":5.377108,"is_reserved":false,"is_disabled":false,"rental_uris":{"android":"levelo://app?vid=1ffa2238-eae5-4dee-8bd0-7cd0f4119ef1","ios":"levelo://app?vid=1ffa2238-eae5-4dee-8bd0-7cd0f4119ef1"},"vehicle_type_id":"4","last_reported":1711980445,"current_range_meters":0,"station_id":"ce4bgi92rcd13ifvqb90","pricing_plan_id":"cebpf4jnsgd1na2vs0mg"},{"bike_id":"3d143ec9-1514-414e-8e83-306e71fe8f5e","system_id":"levelo_inurba_marseille","lat":43.296171,"lon":5.377164,"is_reserved":false,"is_disabled":false,"rental_uris":{"android":"levelo://app?vid=3d143ec9-1514-414e-8e83-306e71fe8f5e","ios":"levelo://app?vid=3d143ec9-1514-414e-8e83-306e71fe8f5e"},"vehicle_type_id":"4","last_reported":1711980445,"current_range_meters":0,"station_id":"ce4bgi92rcd13ifvqb90","pricing_plan_id":"cebpf4jnsgd1na2vs0mg"},{"bike_id":"4d997f43-81c4-4d75-9035-d9b504e9af68","system_id":"levelo_inurba_marseille","lat":43.296263,"lon":5.377094,"is_reserved":false,"is_disabled":false,"rental_uris":{"android":"levelo://app?vid=4d997f43-81c4-4d75-9035-d9b504e9af68","ios":"levelo://app?vid=4d997f43-81c4-4d75-9035-d9b504e9af68"},"vehicle_type_id":"4","last_reported":1711980445,"current_range_meters":6400,"station_id":"ce4bgi92rcd13ifvqb90","pricing_plan_id":"cebpf4jnsgd1na2vs0mg"},{"bike_id":"aaba06d2-42ff-44cd-a86b-ea270b8cb40e","system_id":"levelo_inurba_marseille","lat":43.295279,"lon":5.375048,"is_reserved":false,"is_disabled":false,"rental_uris":{"android":"levelo://app?vid=aaba06d2-42ff-44cd-a86b-ea270b8cb40e","ios":"levelo://app?vid=aaba06d2-42ff-44cd-a86b-ea270b8cb40e"},"vehicle_type_id":"4","last_reported":1711980445,"current_range_meters":26000,"station_id":"ce4bgkp2rcd13ifvqbmg","pricing_plan_id":"cebpf4jnsgd1na2vs0mg"},{"bike_id":"0a2e3550-d194-4987-9204-7223d6ac6fe4","system_id":"levelo_inurba_marseille","lat":43.299707,"lon":5.384859,"is_reserved":false,"is_disabled":false,"rental_uris":{"android":"levelo://app?vid=0a2e3550-d194-4987-9204-7223d6ac6fe4","ios":"levelo://app?vid=0a2e3550-d194-4987-9204-7223d6ac6fe4"},"vehicle_type_id":"4","last_reported":1711980445,"current_range_meters":24800,"station_id":"ce4bgj92rcd13ifvqbd0","pricing_plan_id":"cebpf4jnsgd1na2vs0mg"},{"bike_id":"73325385-4bee-4413-a8d0-d0dcb504f160","system_id":"levelo_inurba_marseille","lat":43.295279,"lon":5.375048,"is_reserved":false,"is_disabled":false,"rental_uris":{"android":"levelo://app?vid=73325385-4bee-4413-a8d0-d0dcb504f160","ios":"levelo://app?vid=73325385-4bee-4413-a8d0-d0dcb504f160"},"vehicle_type_id":"4","last_reported":1711980445,"current_range_meters":3200,"station_id":"ce4bgkp2rcd13ifvqbmg","pricing_plan_id":"cebpf4jnsgd1na2vs0mg"},{"bike_id":"bedfbed2-23bf-4741-b682-9dc18f8032fb","system_id":"levelo_inurba_marseille","lat":43.309589,"lon":5.390258,"is_reserved":false,"is_disabled":false,"rental_uris":{"android":"levelo://app?vid=bedfbed2-23bf-4741-b682-9dc18f8032fb","ios":"levelo://app?vid=bedfbed2-23bf-4741-b682-9dc18f8032fb"},"vehicle_type_id":"4","last_reported":1711980445,"current_range_meters":12000,"station_id":"ce4bgup2rcd13ifvqco0","pricing_plan_id":"cebpf4jnsgd1na2vs0mg"},{"bike_id":"9e8e7e4a-8129-4769-a2a7-dc4814c20ad7","system_id":"levelo_inurba_marseille","lat":43.32363,"lon":5.38878,"is_reserved":false,"is_disabled":false,"rental_uris":{"android":"levelo://app?vid=9e8e7e4a-8129-4769-a2a7-dc4814c20ad7","ios":"levelo://app?vid=9e8e7e4a-8129-4769-a2a7-dc4814c20ad7"},"vehicle_type_id":"4","last_reported":1711980445,"current_range_meters":16000,"station_id":"ce4bhqp2rcd13ifvqhog","pricing_plan_id":"cebpf4jnsgd1na2vs0mg"},{"bike_id":"381cfc16-f19f-4fc8-8616-3865c4858cbf","system_id":"levelo_inurba_marseille","lat":43.32368,"lon":5.38874,"is_reserved":false,"is_disabled":false,"rental_uris":{"android":"levelo://app?vid=381cfc16-f19f-4fc8-8616-3865c4858cbf","ios":"levelo://app?vid=381cfc16-f19f-4fc8-8616-3865c4858cbf"},"vehicle_type_id":"4","last_reported":1711980445,"current_range_meters":14000,"station_id":"ce4bhqp2rcd13ifvqhog","pricing_plan_id":"cebpf4jnsgd1na2vs0mg"},{"bike_id":"afdf460e-00f7-480e-b3f7-bcca47219735","system_id":"levelo_inurba_marseille","lat":43.32361,"lon":5.38883,"is_reserved":false,"is_disabled":false,"rental_uris":{"android":"levelo://app?vid=afdf460e-00f7-480e-b3f7-bcca47219735","ios":"levelo://app?vid=afdf460e-00f7-480e-b3f7-bcca47219735"},"vehicle_type_id":"4","last_reported":1711980445,"current_range_meters":4800,"station_id":"ce4bhqp2rcd13ifvqhog","pricing_plan_id":"cebpf4jnsgd1na2vs0mg"},{"bike_id":"0f59f449-1e35-49d3-b940-a11d326ed611","system_id":"levelo_inurba_marseille","lat":43.32373,"lon":5.38877,"is_reserved":false,"is_disabled":false,"rental_uris":{"android":"levelo://app?vid=0f59f449-1e35-49d3-b940-a11d326ed611","ios":"levelo://app?vid=0f59f449-1e35-49d3-b940-a11d326ed611"},"vehicle_type_id":"4","last_reported":1711980445,"current_range_meters":6000,"station_id":"ce4bhqp2rcd13ifvqhog","pricing_plan_id":"cebpf4jnsgd1na2vs0mg"},{"bike_id":"a7139ce8-a352-4d57-8aac-2c55f8217d5f","system_id":"levelo_inurba_marseille","lat":43.32372,"lon":5.38881,"is_reserved":false,"is_disabled":false,"rental_uris":{"android":"levelo://app?vid=a7139ce8-a352-4d57-8aac-2c55f8217d5f","ios":"levelo://app?vid=a7139ce8-a352-4d57-8aac-2c55f8217d5f"},"vehicle_type_id":"4","last_reported":1711980445,"current_range_meters":0,"station_id":"ce4bhqp2rcd13ifvqhog","pricing_plan_id":"cebpf4jnsgd1na2vs0mg"},{"bike_id":"5abf0cc1-e33d-4b3b-858e-698431edae16","system_id":"levelo_inurba_marseille","lat":43.32369,"lon":5.38886,"is_reserved":false,"is_disabled":false,"rental_uris":{"android":"levelo://app?vid=5abf0cc1-e33d-4b3b-858e-698431edae16","ios":"levelo://app?vid=5abf0cc1-e33d-4b3b-858e-698431edae16"},"vehicle_type_id":"4","last_reported":1711980445,"current_range_meters":0,"station_id":"ce4bhqp2rcd13ifvqhog","pricing_plan_id":"cebpf4jnsgd1na2vs0mg"},{"bike_id":"41698518-0c3a-4096-b263-ec650c5ec4b0","system_id":"levelo_inurba_marseille","lat":43.32367,"lon":5.388836,"is_reserved":false,"is_disabled":false,"rental_uris":{"android":"levelo://app?vid=41698518-0c3a-4096-b263-ec650c5ec4b0","ios":"levelo://app?vid=41698518-0c3a-4096-b263-ec650c5ec4b0"},"vehicle_type_id":"4","last_reported":1711980445,"current_range_meters":14000,"station_id":"ce4bhqp2rcd13ifvqhog","pricing_plan_id":"cebpf4jnsgd1na2vs0mg"},{"bike_id":"0f48c6cd-e694-4d57-bbdb-e99a8d116c66","system_id":"levelo_inurba_marseille","lat":43.3237,"lon":5.38887,"is_reserved":false,"is_disabled":false,"rental_uris":{"android":"levelo://app?vid=0f48c6cd-e694-4d57-bbdb-e99a8d116c66","ios":"levelo://app?vid=0f48c6cd-e694-4d57-bbdb-e99a8d116c66"},"vehicle_type_id":"4","last_reported":1711980445,"current_range_meters":6400,"station_id":"ce4bhqp2rcd13ifvqhog","pricing_plan_id":"cebpf4jnsgd1na2vs0mg"},{"bike_id":"5f4c5f1b-f895-4fb2-b1bc-4704c9900c78","system_id":"levelo_inurba_marseille","lat":43.32371,"lon":5.38887,"is_reserved":false,"is_disabled":false,"rental_uris":{"android":"levelo://app?vid=5f4c5f1b-f895-4fb2-b1bc-4704c9900c78","ios":"levelo://app?vid=5f4c5f1b-f895-4fb2-b1bc-4704c9900c78"},"vehicle_type_id":"4","last_reported":1711980445,"current_range_meters":2000,"station_id":"ce4bhqp2rcd13ifvqhog","pricing_plan_id":"cebpf4jnsgd1na2vs0mg"},{"bike_id":"5df2aef7-7a9c-48dc-a1e6-3cf356fb8fa8","system_id":"levelo_inurba_marseille","lat":43.323636,"lon":5.388946,"is_reserved":false,"is_disabled":false,"rental_uris":{"android":"levelo://app?vid=5df2aef7-7a9c-48dc-a1e6-3cf356fb8fa8","ios":"levelo://app?vid=5df2aef7-7a9c-48dc-a1e6-3cf356fb8fa8"},"vehicle_type_id":"4","last_reported":1711980445,"current_range_meters":5600,"station_id":"ce4bhqp2rcd13ifvqhog","pricing_plan_id":"cebpf4jnsgd1na2vs0mg"},{"bike_id":"f7fdd7c5-0039-45e7-af77-2c691d8a6572","system_id":"levelo_inurba_marseille","lat":43.32381,"lon":5.38895,"is_reserved":false,"is_disabled":false,"rental_uris":{"android":"levelo://app?vid=f7fdd7c5-0039-45e7-af77-2c691d8a6572","ios":"levelo://app?vid=f7fdd7c5-0039-45e7-af77-2c691d8a6572"},"vehicle_type_id":"4","last_reported":1711980445,"current_range_meters":14800,"station_id":"ce4bhqp2rcd13ifvqhog","pricing_plan_id":"cebpf4jnsgd1na2vs0mg"},{"bike_id":"168572b9-f140-4a05-8a9b-863b655c21d6","system_id":"levelo_inurba_marseille","lat":43.293259,"lon":5.371586,"is_reserved":false,"is_disabled":false,"rental_uris":{"android":"levelo://app?vid=168572b9-f140-4a05-8a9b-863b655c21d6","ios":"levelo://app?vid=168572b9-f140-4a05-8a9b-863b655c21d6"},"vehicle_type_id":"4","last_reported":1711980445,"current_range_meters":8000,"station_id":"ce4bgh92rcd13ifvqb40","pricing_plan_id":"cebpf4jnsgd1na2vs0mg"},{"bike_id":"99288e22-4557-4e7f-a1b4-1612a70d2bcf","system_id":"levelo_inurba_marseille","lat":43.305994,"lon":5.393687,"is_reserved":false,"is_disabled":false,"rental_uris":{"android":"levelo://app?vid=99288e22-4557-4e7f-a1b4-1612a70d2bcf","ios":"levelo://app?vid=99288e22-4557-4e7f-a1b4-1612a70d2bcf"},"vehicle_type_id":"4","last_reported":1711980445,"current_range_meters":4800,"station_id":"ce4bh0p2rcd13ifvqd80","pricing_plan_id":"cebpf4jnsgd1na2vs0mg"},{"bike_id":"0679bb73-5633-4580-8296-e72e38c49d1b","system_id":"levelo_inurba_marseille","lat":43.30085,"lon":5.390856,"is_reserved":false,"is_disabled":false,"rental_uris":{"android":"levelo://app?vid=0679bb73-5633-4580-8296-e72e38c49d1b","ios":"levelo://app?vid=0679bb73-5633-4580-8296-e72e38c49d1b"},"vehicle_type_id":"4","last_reported":1711980445,"current_range_meters":13200,"station_id":"ce4bh192rcd13ifvqdb0","pricing_plan_id":"cebpf4jnsgd1na2vs0mg"},{"bike_id":"949169b0-fbbf-4591-a396-40bc363e2eba","system_id":"levelo_inurba_marseille","lat":43.298764,"lon":5.388973,"is_reserved":false,"is_disabled":false,"rental_uris":{"android":"levelo://app?vid=949169b0-fbbf-4591-a396-40bc363e2eba","ios":"levelo://app?vid=949169b0-fbbf-4591-a396-40bc363e2eba"},"vehicle_type_id":"4","last_reported":1711980445,"current_range_meters":0,"station_id":"ce4bh392rcd13ifvqdl0","pricing_plan_id":"cebpf4jnsgd1na2vs0mg"},{"bike_id":"1c73b968-f6f2-44f9-b9ab-45c5ea290010","system_id":"levelo_inurba_marseille","lat":43.298764,"lon":5.388973,"is_reserved":false,"is_disabled":false,"rental_uris":{"android":"levelo://app?vid=1c73b968-f6f2-44f9-b9ab-45c5ea290010","ios":"levelo://app?vid=1c73b968-f6f2-44f9-b9ab-45c5ea290010"},"vehicle_type_id":"4","last_reported":1711980445,"current_range_meters":6800,"station_id":"ce4bh392rcd13ifvqdl0","pricing_plan_id":"cebpf4jnsgd1na2vs0mg"},{"bike_id":"812a8c3b-db8c-4797-983c-e9b3ea2c072b","system_id":"levelo_inurba_marseille","lat":43.291671,"lon":5.371575,"is_reserved":false,"is_disabled":false,"rental_uris":{"android":"levelo://app?vid=812a8c3b-db8c-4797-983c-e9b3ea2c072b","ios":"levelo://app?vid=812a8c3b-db8c-4797-983c-e9b3ea2c072b"},"vehicle_type_id":"4","last_reported":1711980445,"current_range_meters":11600,"station_id":"ce4bha92rcd13ifvqeh0","pricing_plan_id":"cebpf4jnsgd1na2vs0mg"},{"bike_id":"89c58a3d-692f-48d0-bfe5-eea5f7ab6ed4","system_id":"levelo_inurba_marseille","lat":43.313571,"lon":5.384829,"is_reserved":false,"is_disabled":false,"rental_uris":{"android":"levelo://app?vid=89c58a3d-692f-48d0-bfe5-eea5f7ab6ed4","ios":"levelo://app?vid=89c58a3d-692f-48d0-bfe5-eea5f7ab6ed4"},"vehicle_type_id":"4","last_reported":1711980445,"current_range_meters":20800,"station_id":"ce4bgt92rcd13ifvqcf0","pricing_plan_id":"cebpf4jnsgd1na2vs0mg"},{"bike_id":"3cbdba4a-7307-4047-8c34-716a00604c6f","system_id":"levelo_inurba_marseille","lat":43.31326,"lon":5.39684,"is_reserved":false,"is_disabled":false,"rental_uris":{"android":"levelo://app?vid=3cbdba4a-7307-4047-8c34-716a00604c6f","ios":"levelo://app?vid=3cbdba4a-7307-4047-8c34-716a00604c6f"},"vehicle_type_id":"4","last_reported":1711980445,"current_range_meters":11200,"station_id":"ce4bgvp2rcd13ifvqcu0","pricing_plan_id":"cebpf4jnsgd1na2vs0mg"},{"bike_id":"c54f7fcd-c3de-4129-87a4-6b76192203b0","system_id":"levelo_inurba_marseille","lat":43.31331,"lon":5.39692,"is_reserved":false,"is_disabled":false,"rental_uris":{"android":"levelo://app?vid=c54f7fcd-c3de-4129-87a4-6b76192203b0","ios":"levelo://app?vid=c54f7fcd-c3de-4129-87a4-6b76192203b0"},"vehicle_type_id":"4","last_reported":1711980445,"current_range_meters":24800,"station_id":"ce4bgvp2rcd13ifvqcu0","pricing_plan_id":"cebpf4jnsgd1na2vs0mg"},{"bike_id":"b131dc10-d886-4cf7-924d-95787a759587","system_id":"levelo_inurba_marseille","lat":43.31335,"lon":5.39701,"is_reserved":false,"is_disabled":false,"rental_uris":{"android":"levelo://app?vid=b131dc10-d886-4cf7-924d-95787a759587","ios":"levelo://app?vid=b131dc10-d886-4cf7-924d-95787a759587"},"vehicle_type_id":"4","last_reported":1711980445,"current_range_meters":0,"station_id":"ce4bgvp2rcd13ifvqcu0","pricing_plan_id":"cebpf4jnsgd1na2vs0mg"},{"bike_id":"8ad9684a-1172-4da6-aac9-2ec563582b1d","system_id":"levelo_inurba_marseille","lat":43.309038,"lon":5.396546,"is_reserved":false,"is_disabled":false,"rental_uris":{"android":"levelo://app?vid=8ad9684a-1172-4da6-aac9-2ec563582b1d","ios":"levelo://app?vid=8ad9684a-1172-4da6-aac9-2ec563582b1d"},"vehicle_type_id":"4","last_reported":1711980445,"current_range_meters":11600,"station_id":"ce4bh012rcd13ifvqcv0","pricing_plan_id":"cebpf4jnsgd1na2vs0mg"},{"bike_id":"ec1104c1-3cf4-4279-a714-b28237a1aa9a","system_id":"levelo_inurba_marseille","lat":43.29529,"lon":5.385581,"is_reserved":false,"is_disabled":false,"rental_uris":{"android":"levelo://app?vid=ec1104c1-3cf4-4279-a714-b28237a1aa9a","ios":"levelo://app?vid=ec1104c1-3cf4-4279-a714-b28237a1aa9a"},"vehicle_type_id":"4","last_reported":1711980445,"current_range_meters":20000,"station_id":"ce4bgih2rcd13ifvqba0","pricing_plan_id":"cebpf4jnsgd1na2vs0mg"},{"bike_id":"b0ff1d25-7903-45ae-af3b-5fa6f2f2cfcf","system_id":"levelo_inurba_marseille","lat":43.29529,"lon":5.385581,"is_reserved":false,"is_disabled":false,"rental_uris":{"android":"levelo://app?vid=b0ff1d25-7903-45ae-af3b-5fa6f2f2cfcf","ios":"levelo://app?vid=b0ff1d25-7903-45ae-af3b-5fa6f2f2cfcf"},"vehicle_type_id":"4","last_reported":1711980445,"current_range_meters":5600,"station_id":"ce4bgih2rcd13ifvqba0","pricing_plan_id":"cebpf4jnsgd1na2vs0mg"},{"bike_id":"81edead8-f497-4dde-bbf0-12e66c359579","system_id":"levelo_inurba_marseille","lat":43.29529,"lon":5.385581,"is_reserved":false,"is_disabled":false,"rental_uris":{"android":"levelo://app?vid=81edead8-f497-4dde-bbf0-12e66c359579","ios":"levelo://app?vid=81edead8-f497-4dde-bbf0-12e66c359579"},"vehicle_type_id":"4","last_reported":1711980445,"current_range_meters":2000,"station_id":"ce4bgih2rcd13ifvqba0","pricing_plan_id":"cebpf4jnsgd1na2vs0mg"},{"bike_id":"553be6ba-c65d-4cef-80a9-9bd5e9dea82e","system_id":"levelo_inurba_marseille","lat":43.328077,"lon":5.388814,"is_reserved":false,"is_disabled":false,"rental_uris":{"android":"levelo://app?vid=553be6ba-c65d-4cef-80a9-9bd5e9dea82e","ios":"levelo://app?vid=553be6ba-c65d-4cef-80a9-9bd5e9dea82e"},"vehicle_type_id":"4","last_reported":1711980445,"current_range_meters":800,"station_id":"","pricing_plan_id":"cebpf4jnsgd1na2vs0mg"},{"bike_id":"c7e2e916-6480-440e-90d3-579a61bb96ff","system_id":"levelo_inurba_marseille","lat":43.290779,"lon":5.371482,"is_reserved":false,"is_disabled":false,"rental_uris":{"android":"levelo://app?vid=c7e2e916-6480-440e-90d3-579a61bb96ff","ios":"levelo://app?vid=c7e2e916-6480-440e-90d3-579a61bb96ff"},"vehicle_type_id":"4","last_reported":1711980445,"current_range_meters":0,"station_id":"ce4bh5p2rcd13ifvqe4g","pricing_plan_id":"cebpf4jnsgd1na2vs0mg"},{"bike_id":"8262995e-eab5-41d1-88c6-ee0191caa10f","system_id":"levelo_inurba_marseille","lat":43.304188,"lon":5.412904,"is_reserved":false,"is_disabled":false,"rental_uris":{"android":"levelo://app?vid=8262995e-eab5-41d1-88c6-ee0191caa10f","ios":"levelo://app?vid=8262995e-eab5-41d1-88c6-ee0191caa10f"},"vehicle_type_id":"4","last_reported":1711980445,"current_range_meters":8000,"station_id":"ce4bhop2rcd13ifvqh8g","pricing_plan_id":"cebpf4jnsgd1na2vs0mg"},{"bike_id":"d29562bd-d07b-4870-b760-40906514866f","system_id":"levelo_inurba_marseille","lat":43.295169,"lon":5.390426,"is_reserved":false,"is_disabled":false,"rental_uris":{"android":"levelo://app?vid=d29562bd-d07b-4870-b760-40906514866f","ios":"levelo://app?vid=d29562bd-d07b-4870-b760-40906514866f"},"vehicle_type_id":"4","last_reported":1711980445,"current_range_meters":1200,"station_id":"ce4bh3p2rcd13ifvqdp0","pricing_plan_id":"cebpf4jnsgd1na2vs0mg"},{"bike_id":"b8cd3261-4379-4075-bccb-27660e63bb3e","system_id":"levelo_inurba_marseille","lat":43.290631,"lon":5.359244,"is_reserved":false,"is_disabled":false,"rental_uris":{"android":"levelo://app?vid=b8cd3261-4379-4075-bccb-27660e63bb3e","ios":"levelo://app?vid=b8cd3261-4379-4075-bccb-27660e63bb3e"},"vehicle_type_id":"4","last_reported":1711980445,"current_range_meters":26400,"station_id":"ce4bha92rcd13ifvqeg0","pricing_plan_id":"cebpf4jnsgd1na2vs0mg"},{"bike_id":"a6a7d48c-4cea-4f00-bffe-a9dd3f5e7bab","system_id":"levelo_inurba_marseille","lat":43.294153,"lon":5.386305,"is_reserved":false,"is_disabled":false,"rental_uris":{"android":"levelo://app?vid=a6a7d48c-4cea-4f00-bffe-a9dd3f5e7bab","ios":"levelo://app?vid=a6a7d48c-4cea-4f00-bffe-a9dd3f5e7bab"},"vehicle_type_id":"4","last_reported":1711980445,"current_range_meters":0,"station_id":"ce4bh2h2rcd13ifvqdh0","pricing_plan_id":"cebpf4jnsgd1na2vs0mg"},{"bike_id":"9fc86371-852b-4a52-b952-b90eaee8546c","system_id":"levelo_inurba_marseille","lat":43.289184,"lon":5.366408,"is_reserved":false,"is_disabled":false,"rental_uris":{"android":"levelo://app?vid=9fc86371-852b-4a52-b952-b90eaee8546c","ios":"levelo://app?vid=9fc86371-852b-4a52-b952-b90eaee8546c"},"vehicle_type_id":"4","last_reported":1711980445,"current_range_meters":26400,"station_id":"ce4bhap2rcd13ifvqek0","pricing_plan_id":"cebpf4jnsgd1na2vs0mg"},{"bike_id":"708c5d33-5f20-4147-8916-bbcdbc641838","system_id":"levelo_inurba_marseille","lat":43.28939,"lon":5.3664,"is_reserved":false,"is_disabled":false,"rental_uris":{"android":"levelo://app?vid=708c5d33-5f20-4147-8916-bbcdbc641838","ios":"levelo://app?vid=708c5d33-5f20-4147-8916-bbcdbc641838"},"vehicle_type_id":"4","last_reported":1711980445,"current_range_meters":21600,"station_id":"ce4bhap2rcd13ifvqek0","pricing_plan_id":"cebpf4jnsgd1na2vs0mg"},{"bike_id":"7b6f642f-60ea-43a2-81ae-6b643d29a31d","system_id":"levelo_inurba_marseille","lat":43.292644,"lon":5.384257,"is_reserved":false,"is_disabled":false,"rental_uris":{"android":"levelo://app?vid=7b6f642f-60ea-43a2-81ae-6b643d29a31d","ios":"levelo://app?vid=7b6f642f-60ea-43a2-81ae-6b643d29a31d"},"vehicle_type_id":"4","last_reported":1711980445,"current_range_meters":0,"station_id":"ce4bh692rcd13ifvqea0","pricing_plan_id":"cebpf4jnsgd1na2vs0mg"},{"bike_id":"6450e13e-7e03-4ebd-83f0-e5d9d7147fd7","system_id":"levelo_inurba_marseille","lat":43.295713,"lon":5.399639,"is_reserved":false,"is_disabled":false,"rental_uris":{"android":"levelo://app?vid=6450e13e-7e03-4ebd-83f0-e5d9d7147fd7","ios":"levelo://app?vid=6450e13e-7e03-4ebd-83f0-e5d9d7147fd7"},"vehicle_type_id":"4","last_reported":1711980445,"current_range_meters":7600,"station_id":"ce4bh312rcd13ifvqdj0","pricing_plan_id":"cebpf4jnsgd1na2vs0mg"},{"bike_id":"dc52ce0f-1012-4fd1-9988-6605424054e6","system_id":"levelo_inurba_marseille","lat":43.2901,"lon":5.35622,"is_reserved":false,"is_disabled":false,"rental_uris":{"android":"levelo://app?vid=dc52ce0f-1012-4fd1-9988-6605424054e6","ios":"levelo://app?vid=dc52ce0f-1012-4fd1-9988-6605424054e6"},"vehicle_type_id":"4","last_reported":1711980445,"current_range_meters":0,"station_id":"ce4bhb92rcd13ifvqen0","pricing_plan_id":"cebpf4jnsgd1na2vs0mg"},{"bike_id":"a09ca30e-abeb-4222-9c14-d0d74f89a137","system_id":"levelo_inurba_marseille","lat":43.290104,"lon":5.356111,"is_reserved":false,"is_disabled":false,"rental_uris":{"android":"levelo://app?vid=a09ca30e-abeb-4222-9c14-d0d74f89a137","ios":"levelo://app?vid=a09ca30e-abeb-4222-9c14-d0d74f89a137"},"vehicle_type_id":"4","last_reported":1711980445,"current_range_meters":0,"station_id":"ce4bhb92rcd13ifvqen0","pricing_plan_id":"cebpf4jnsgd1na2vs0mg"},{"bike_id":"441927ce-9f0e-4a64-883b-f9b55591efe8","system_id":"levelo_inurba_marseille","lat":43.290104,"lon":5.356111,"is_reserved":false,"is_disabled":false,"rental_uris":{"android":"levelo://app?vid=441927ce-9f0e-4a64-883b-f9b55591efe8","ios":"levelo://app?vid=441927ce-9f0e-4a64-883b-f9b55591efe8"},"vehicle_type_id":"4","last_reported":1711980445,"current_range_meters":1600,"station_id":"ce4bhb92rcd13ifvqen0","pricing_plan_id":"cebpf4jnsgd1na2vs0mg"},{"bike_id":"58e236c1-f2d1-4931-b5fe-09f4a440472c","system_id":"levelo_inurba_marseille","lat":43.290104,"lon":5.356111,"is_reserved":false,"is_disabled":false,"rental_uris":{"android":"levelo://app?vid=58e236c1-f2d1-4931-b5fe-09f4a440472c","ios":"levelo://app?vid=58e236c1-f2d1-4931-b5fe-09f4a440472c"},"vehicle_type_id":"4","last_reported":1711980445,"current_range_meters":0,"station_id":"ce4bhb92rcd13ifvqen0","pricing_plan_id":"cebpf4jnsgd1na2vs0mg"},{"bike_id":"70b58a20-a496-496a-8b66-d20c5fef55f8","system_id":"levelo_inurba_marseille","lat":43.290104,"lon":5.356111,"is_reserved":false,"is_disabled":false,"rental_uris":{"android":"levelo://app?vid=70b58a20-a496-496a-8b66-d20c5fef55f8","ios":"levelo://app?vid=70b58a20-a496-496a-8b66-d20c5fef55f8"},"vehicle_type_id":"4","last_reported":1711980445,"current_range_meters":0,"station_id":"ce4bhb92rcd13ifvqen0","pricing_plan_id":"cebpf4jnsgd1na2vs0mg"},{"bike_id":"8c28a534-c3d4-4b43-8bf1-4a44f2bf8139","system_id":"levelo_inurba_marseille","lat":43.290995,"lon":5.381361,"is_reserved":false,"is_disabled":false,"rental_uris":{"android":"levelo://app?vid=8c28a534-c3d4-4b43-8bf1-4a44f2bf8139","ios":"levelo://app?vid=8c28a534-c3d4-4b43-8bf1-4a44f2bf8139"},"vehicle_type_id":"4","last_reported":1711980445,"current_range_meters":7200,"station_id":"ce4bh512rcd13ifvqe2g","pricing_plan_id":"cebpf4jnsgd1na2vs0mg"},{"bike_id":"ced75f6d-8d11-4e00-afa0-2f4e1bf5376f","system_id":"levelo_inurba_marseille","lat":43.290995,"lon":5.381361,"is_reserved":false,"is_disabled":false,"rental_uris":{"android":"levelo://app?vid=ced75f6d-8d11-4e00-afa0-2f4e1bf5376f","ios":"levelo://app?vid=ced75f6d-8d11-4e00-afa0-2f4e1bf5376f"},"vehicle_type_id":"4","last_reported":1711980445,"current_range_meters":6000,"station_id":"ce4bh512rcd13ifvqe2g","pricing_plan_id":"cebpf4jnsgd1na2vs0mg"},{"bike_id":"c133edfb-8112-4982-a844-2527518dde97","system_id":"levelo_inurba_marseille","lat":43.330442,"lon":5.389148,"is_reserved":false,"is_disabled":false,"rental_uris":{"android":"levelo://app?vid=c133edfb-8112-4982-a844-2527518dde97","ios":"levelo://app?vid=c133edfb-8112-4982-a844-2527518dde97"},"vehicle_type_id":"4","last_reported":1711980445,"current_range_meters":23200,"station_id":"ce4bhr92rcd13ifvqhrg","pricing_plan_id":"cebpf4jnsgd1na2vs0mg"},{"bike_id":"fcebac90-4e23-4550-80e1-86dd81a15111","system_id":"levelo_inurba_marseille","lat":43.3302,"lon":5.39045,"is_reserved":false,"is_disabled":false,"rental_uris":{"android":"levelo://app?vid=fcebac90-4e23-4550-80e1-86dd81a15111","ios":"levelo://app?vid=fcebac90-4e23-4550-80e1-86dd81a15111"},"vehicle_type_id":"4","last_reported":1711980445,"current_range_meters":14400,"station_id":"ce4bhr92rcd13ifvqhrg","pricing_plan_id":"cebpf4jnsgd1na2vs0mg"},{"bike_id":"bbbfa6a6-bbe3-43bb-9d82-55adff966f6e","system_id":"levelo_inurba_marseille","lat":43.330442,"lon":5.389148,"is_reserved":false,"is_disabled":false,"rental_uris":{"android":"levelo://app?vid=bbbfa6a6-bbe3-43bb-9d82-55adff966f6e","ios":"levelo://app?vid=bbbfa6a6-bbe3-43bb-9d82-55adff966f6e"},"vehicle_type_id":"4","last_reported":1711980445,"current_range_meters":20800,"station_id":"ce4bhr92rcd13ifvqhrg","pricing_plan_id":"cebpf4jnsgd1na2vs0mg"},{"bike_id":"666bb8e9-b32c-49d4-a3dc-34b0bbdbfab4","system_id":"levelo_inurba_marseille","lat":43.330442,"lon":5.389148,"is_reserved":false,"is_disabled":false,"rental_uris":{"android":"levelo://app?vid=666bb8e9-b32c-49d4-a3dc-34b0bbdbfab4","ios":"levelo://app?vid=666bb8e9-b32c-49d4-a3dc-34b0bbdbfab4"},"vehicle_type_id":"4","last_reported":1711980445,"current_range_meters":14800,"station_id":"ce4bhr92rcd13ifvqhrg","pricing_plan_id":"cebpf4jnsgd1na2vs0mg"},{"bike_id":"3dcc848c-72d2-4429-b5f6-d446938d04a2","system_id":"levelo_inurba_marseille","lat":43.33022,"lon":5.39048,"is_reserved":false,"is_disabled":false,"rental_uris":{"android":"levelo://app?vid=3dcc848c-72d2-4429-b5f6-d446938d04a2","ios":"levelo://app?vid=3dcc848c-72d2-4429-b5f6-d446938d04a2"},"vehicle_type_id":"4","last_reported":1711980445,"current_range_meters":25200,"station_id":"ce4bhr92rcd13ifvqhrg","pricing_plan_id":"cebpf4jnsgd1na2vs0mg"},{"bike_id":"9316270c-8e01-4b33-9f82-f2344278a607","system_id":"levelo_inurba_marseille","lat":43.3303,"lon":5.39048,"is_reserved":false,"is_disabled":false,"rental_uris":{"android":"levelo://app?vid=9316270c-8e01-4b33-9f82-f2344278a607","ios":"levelo://app?vid=9316270c-8e01-4b33-9f82-f2344278a607"},"vehicle_type_id":"4","last_reported":1711980445,"current_range_meters":7200,"station_id":"ce4bhr92rcd13ifvqhrg","pricing_plan_id":"cebpf4jnsgd1na2vs0mg"},{"bike_id":"fd280254-b0cb-4d77-998e-4a9303653be8","system_id":"levelo_inurba_marseille","lat":43.28856,"lon":5.358371,"is_reserved":false,"is_disabled":false,"rental_uris":{"android":"levelo://app?vid=fd280254-b0cb-4d77-998e-4a9303653be8","ios":"levelo://app?vid=fd280254-b0cb-4d77-998e-4a9303653be8"},"vehicle_type_id":"4","last_reported":1711980445,"current_range_meters":28000,"station_id":"ce4bhb12rcd13ifvqem0","pricing_plan_id":"cebpf4jnsgd1na2vs0mg"},{"bike_id":"d9fc07ed-cbae-4d63-bb75-c81f50f8fdb8","system_id":"levelo_inurba_marseille","lat":43.28856,"lon":5.3585,"is_reserved":false,"is_disabled":false,"rental_uris":{"android":"levelo://app?vid=d9fc07ed-cbae-4d63-bb75-c81f50f8fdb8","ios":"levelo://app?vid=d9fc07ed-cbae-4d63-bb75-c81f50f8fdb8"},"vehicle_type_id":"4","last_reported":1711980445,"current_range_meters":30000,"station_id":"ce4bhb12rcd13ifvqem0","pricing_plan_id":"cebpf4jnsgd1na2vs0mg"},{"bike_id":"5b66f043-b369-4382-adec-86a3e1317a27","system_id":"levelo_inurba_marseille","lat":43.28856,"lon":5.358371,"is_reserved":false,"is_disabled":false,"rental_uris":{"android":"levelo://app?vid=5b66f043-b369-4382-adec-86a3e1317a27","ios":"levelo://app?vid=5b66f043-b369-4382-adec-86a3e1317a27"},"vehicle_type_id":"4","last_reported":1711980445,"current_range_meters":14000,"station_id":"ce4bhb12rcd13ifvqem0","pricing_plan_id":"cebpf4jnsgd1na2vs0mg"},{"bike_id":"2ec5cc5c-382b-4a05-8914-221216c2d546","system_id":"levelo_inurba_marseille","lat":43.31246,"lon":5.401518,"is_reserved":false,"is_disabled":false,"rental_uris":{"android":"levelo://app?vid=2ec5cc5c-382b-4a05-8914-221216c2d546","ios":"levelo://app?vid=2ec5cc5c-382b-4a05-8914-221216c2d546"},"vehicle_type_id":"4","last_reported":1711980445,"current_range_meters":0,"station_id":"ce4bh092rcd13ifvqd30","pricing_plan_id":"cebpf4jnsgd1na2vs0mg"},{"bike_id":"a89fcb20-39c2-476a-b8ae-24995da7fb72","system_id":"levelo_inurba_marseille","lat":43.30935,"lon":5.40146,"is_reserved":false,"is_disabled":false,"rental_uris":{"android":"levelo://app?vid=a89fcb20-39c2-476a-b8ae-24995da7fb72","ios":"levelo://app?vid=a89fcb20-39c2-476a-b8ae-24995da7fb72"},"vehicle_type_id":"4","last_reported":1711980445,"current_range_meters":0,"station_id":"ce4bgvp2rcd13ifvqct0","pricing_plan_id":"cebpf4jnsgd1na2vs0mg"},{"bike_id":"289da303-3c96-4a6a-bee4-cd40fa60095b","system_id":"levelo_inurba_marseille","lat":43.33754,"lon":5.37467,"is_reserved":false,"is_disabled":false,"rental_uris":{"android":"levelo://app?vid=289da303-3c96-4a6a-bee4-cd40fa60095b","ios":"levelo://app?vid=289da303-3c96-4a6a-bee4-cd40fa60095b"},"vehicle_type_id":"4","last_reported":1711980445,"current_range_meters":24000,"station_id":"","pricing_plan_id":"cebpf4jnsgd1na2vs0mg"},{"bike_id":"b66cfa95-f3a6-4d16-8041-451e9ab68d13","system_id":"levelo_inurba_marseille","lat":43.309371,"lon":5.401449,"is_reserved":false,"is_disabled":false,"rental_uris":{"android":"levelo://app?vid=b66cfa95-f3a6-4d16-8041-451e9ab68d13","ios":"levelo://app?vid=b66cfa95-f3a6-4d16-8041-451e9ab68d13"},"vehicle_type_id":"4","last_reported":1711980445,"current_range_meters":16000,"station_id":"ce4bgvp2rcd13ifvqct0","pricing_plan_id":"cebpf4jnsgd1na2vs0mg"},{"bike_id":"42be1f9f-7675-4741-b3c4-321aedb8fe17","system_id":"levelo_inurba_marseille","lat":43.301117,"lon":5.398795,"is_reserved":false,"is_disabled":false,"rental_uris":{"android":"levelo://app?vid=42be1f9f-7675-4741-b3c4-321aedb8fe17","ios":"levelo://app?vid=42be1f9f-7675-4741-b3c4-321aedb8fe17"},"vehicle_type_id":"4","last_reported":1711980445,"current_range_meters":2800,"station_id":"ce4bh0h2rcd13ifvqd40","pricing_plan_id":"cebpf4jnsgd1na2vs0mg"},{"bike_id":"6e266e66-2ffe-4fc5-88cf-9cdc873ca815","system_id":"levelo_inurba_marseille","lat":43.28727,"lon":5.36078,"is_reserved":false,"is_disabled":false,"rental_uris":{"android":"levelo://app?vid=6e266e66-2ffe-4fc5-88cf-9cdc873ca815","ios":"levelo://app?vid=6e266e66-2ffe-4fc5-88cf-9cdc873ca815"},"vehicle_type_id":"4","last_reported":1711980445,"current_range_meters":26400,"station_id":"cki0cbj6b192h4jlfktg","pricing_plan_id":"cebpf4jnsgd1na2vs0mg"},{"bike_id":"bcbac06a-b365-45d1-bd80-b1a7952dca2d","system_id":"levelo_inurba_marseille","lat":43.28727,"lon":5.36078,"is_reserved":false,"is_disabled":false,"rental_uris":{"android":"levelo://app?vid=bcbac06a-b365-45d1-bd80-b1a7952dca2d","ios":"levelo://app?vid=bcbac06a-b365-45d1-bd80-b1a7952dca2d"},"vehicle_type_id":"4","last_reported":1711980445,"current_range_meters":12000,"station_id":"cki0cbj6b192h4jlfktg","pricing_plan_id":"cebpf4jnsgd1na2vs0mg"},{"bike_id":"2376266c-da9a-49db-9fad-a2c297180268","system_id":"levelo_inurba_marseille","lat":43.28727,"lon":5.36078,"is_reserved":false,"is_disabled":false,"rental_uris":{"android":"levelo://app?vid=2376266c-da9a-49db-9fad-a2c297180268","ios":"levelo://app?vid=2376266c-da9a-49db-9fad-a2c297180268"},"vehicle_type_id":"4","last_reported":1711980445,"current_range_meters":9600,"station_id":"cki0cbj6b192h4jlfktg","pricing_plan_id":"cebpf4jnsgd1na2vs0mg"},{"bike_id":"f16a94fd-78db-4179-9ee2-d26153b1a1cf","system_id":"levelo_inurba_marseille","lat":43.28727,"lon":5.36078,"is_reserved":false,"is_disabled":false,"rental_uris":{"android":"levelo://app?vid=f16a94fd-78db-4179-9ee2-d26153b1a1cf","ios":"levelo://app?vid=f16a94fd-78db-4179-9ee2-d26153b1a1cf"},"vehicle_type_id":"4","last_reported":1711980445,"current_range_meters":17200,"station_id":"cki0cbj6b192h4jlfktg","pricing_plan_id":"cebpf4jnsgd1na2vs0mg"},{"bike_id":"90c7a77a-2c17-4ca7-86af-ae4acb1533df","system_id":"levelo_inurba_marseille","lat":43.28727,"lon":5.36078,"is_reserved":false,"is_disabled":false,"rental_uris":{"android":"levelo://app?vid=90c7a77a-2c17-4ca7-86af-ae4acb1533df","ios":"levelo://app?vid=90c7a77a-2c17-4ca7-86af-ae4acb1533df"},"vehicle_type_id":"4","last_reported":1711980445,"current_range_meters":4800,"station_id":"cki0cbj6b192h4jlfktg","pricing_plan_id":"cebpf4jnsgd1na2vs0mg"},{"bike_id":"ae9b8b6b-7f29-4709-bd08-f888ab34f03c","system_id":"levelo_inurba_marseille","lat":43.28727,"lon":5.36078,"is_reserved":false,"is_disabled":false,"rental_uris":{"android":"levelo://app?vid=ae9b8b6b-7f29-4709-bd08-f888ab34f03c","ios":"levelo://app?vid=ae9b8b6b-7f29-4709-bd08-f888ab34f03c"},"vehicle_type_id":"4","last_reported":1711980445,"current_range_meters":18000,"station_id":"cki0cbj6b192h4jlfktg","pricing_plan_id":"cebpf4jnsgd1na2vs0mg"},{"bike_id":"5fd65110-ac98-4224-8b31-e680c74ffe88","system_id":"levelo_inurba_marseille","lat":43.28727,"lon":5.36078,"is_reserved":false,"is_disabled":false,"rental_uris":{"android":"levelo://app?vid=5fd65110-ac98-4224-8b31-e680c74ffe88","ios":"levelo://app?vid=5fd65110-ac98-4224-8b31-e680c74ffe88"},"vehicle_type_id":"4","last_reported":1711980445,"current_range_meters":8000,"station_id":"cki0cbj6b192h4jlfktg","pricing_plan_id":"cebpf4jnsgd1na2vs0mg"},{"bike_id":"55559372-057a-41dd-b998-17cf32216f1a","system_id":"levelo_inurba_marseille","lat":43.28727,"lon":5.36078,"is_reserved":false,"is_disabled":false,"rental_uris":{"android":"levelo://app?vid=55559372-057a-41dd-b998-17cf32216f1a","ios":"levelo://app?vid=55559372-057a-41dd-b998-17cf32216f1a"},"vehicle_type_id":"4","last_reported":1711980445,"current_range_meters":27200,"station_id":"cki0cbj6b192h4jlfktg","pricing_plan_id":"cebpf4jnsgd1na2vs0mg"},{"bike_id":"f292a4aa-2e3d-47d5-b1d4-2b2670bbb8d2","system_id":"levelo_inurba_marseille","lat":43.28727,"lon":5.36078,"is_reserved":false,"is_disabled":false,"rental_uris":{"android":"levelo://app?vid=f292a4aa-2e3d-47d5-b1d4-2b2670bbb8d2","ios":"levelo://app?vid=f292a4aa-2e3d-47d5-b1d4-2b2670bbb8d2"},"vehicle_type_id":"4","last_reported":1711980445,"current_range_meters":31200,"station_id":"cki0cbj6b192h4jlfktg","pricing_plan_id":"cebpf4jnsgd1na2vs0mg"},{"bike_id":"2e86b5f3-acd6-4d54-8202-c1c3bac4f48f","system_id":"levelo_inurba_marseille","lat":43.28727,"lon":5.36078,"is_reserved":false,"is_disabled":false,"rental_uris":{"android":"levelo://app?vid=2e86b5f3-acd6-4d54-8202-c1c3bac4f48f","ios":"levelo://app?vid=2e86b5f3-acd6-4d54-8202-c1c3bac4f48f"},"vehicle_type_id":"4","last_reported":1711980445,"current_range_meters":12800,"station_id":"cki0cbj6b192h4jlfktg","pricing_plan_id":"cebpf4jnsgd1na2vs0mg"},{"bike_id":"be8c4fca-9152-40f8-a796-e83324899f90","system_id":"levelo_inurba_marseille","lat":43.286593,"lon":5.363346,"is_reserved":false,"is_disabled":false,"rental_uris":{"android":"levelo://app?vid=be8c4fca-9152-40f8-a796-e83324899f90","ios":"levelo://app?vid=be8c4fca-9152-40f8-a796-e83324899f90"},"vehicle_type_id":"4","last_reported":1711980445,"current_range_meters":29200,"station_id":"ce4bhah2rcd13ifvqej0","pricing_plan_id":"cebpf4jnsgd1na2vs0mg"},{"bike_id":"9f07679e-112a-4cf9-8b57-12e4763180fb","system_id":"levelo_inurba_marseille","lat":43.295194,"lon":5.39397,"is_reserved":false,"is_disabled":false,"rental_uris":{"android":"levelo://app?vid=9f07679e-112a-4cf9-8b57-12e4763180fb","ios":"levelo://app?vid=9f07679e-112a-4cf9-8b57-12e4763180fb"},"vehicle_type_id":"4","last_reported":1711980445,"current_range_meters":1600,"station_id":"ce4bh292rcd13ifvqdf0","pricing_plan_id":"cebpf4jnsgd1na2vs0mg"},{"bike_id":"5ea29714-10dc-4d1f-935c-6a450edd0add","system_id":"levelo_inurba_marseille","lat":43.298681,"lon":5.397225,"is_reserved":false,"is_disabled":false,"rental_uris":{"android":"levelo://app?vid=5ea29714-10dc-4d1f-935c-6a450edd0add","ios":"levelo://app?vid=5ea29714-10dc-4d1f-935c-6a450edd0add"},"vehicle_type_id":"4","last_reported":1711980445,"current_range_meters":7600,"station_id":"ce4bh0h2rcd13ifvqd50","pricing_plan_id":"cebpf4jnsgd1na2vs0mg"},{"bike_id":"c3c64bd2-c7b1-4ee5-8b0c-6df69383fa45","system_id":"levelo_inurba_marseille","lat":43.302759,"lon":5.400793,"is_reserved":false,"is_disabled":false,"rental_uris":{"android":"levelo://app?vid=c3c64bd2-c7b1-4ee5-8b0c-6df69383fa45","ios":"levelo://app?vid=c3c64bd2-c7b1-4ee5-8b0c-6df69383fa45"},"vehicle_type_id":"4","last_reported":1711980445,"current_range_meters":20000,"station_id":"ce4bgvh2rcd13ifvqcs0","pricing_plan_id":"cebpf4jnsgd1na2vs0mg"},{"bike_id":"c93d38f1-7451-4336-b9ad-256a72e1e42e","system_id":"levelo_inurba_marseille","lat":43.290336,"lon":5.386425,"is_reserved":false,"is_disabled":false,"rental_uris":{"android":"levelo://app?vid=c93d38f1-7451-4336-b9ad-256a72e1e42e","ios":"levelo://app?vid=c93d38f1-7451-4336-b9ad-256a72e1e42e"},"vehicle_type_id":"4","last_reported":1711980445,"current_range_meters":0,"station_id":"ce4bh4p2rcd13ifvqe0g","pricing_plan_id":"cebpf4jnsgd1na2vs0mg"},{"bike_id":"41506569-7497-4b42-970d-bf12c31b2032","system_id":"levelo_inurba_marseille","lat":43.286039,"lon":5.370679,"is_reserved":false,"is_disabled":false,"rental_uris":{"android":"levelo://app?vid=41506569-7497-4b42-970d-bf12c31b2032","ios":"levelo://app?vid=41506569-7497-4b42-970d-bf12c31b2032"},"vehicle_type_id":"4","last_reported":1711980445,"current_range_meters":28800,"station_id":"ce4bht12rcd13ifvqi60","pricing_plan_id":"cebpf4jnsgd1na2vs0mg"},{"bike_id":"518d89cd-1e89-4fd3-a78f-12e4147eb21f","system_id":"levelo_inurba_marseille","lat":43.286139,"lon":5.370591,"is_reserved":false,"is_disabled":false,"rental_uris":{"android":"levelo://app?vid=518d89cd-1e89-4fd3-a78f-12e4147eb21f","ios":"levelo://app?vid=518d89cd-1e89-4fd3-a78f-12e4147eb21f"},