{"last_updated":1728140895,"ttl":60,"version":"2.2","data":{"bikes":[{"bike_id":"7b5918c9-286b-4a5d-8c11-f495ad5c7f7a","system_id":"levelo_inurba_marseille","lat":43.30796,"lon":5.43517,"is_reserved":false,"is_disabled":false,"rental_uris":{"android":"levelo://app?vid=7b5918c9-286b-4a5d-8c11-f495ad5c7f7a","ios":"levelo://app?vid=7b5918c9-286b-4a5d-8c11-f495ad5c7f7a"},"vehicle_type_id":"4","last_reported":1728140895,"current_range_meters":8000,"station_id":"ce4bhph2rcd13ifvqheg","pricing_plan_id":"cebpf4jnsgd1na2vs0mg"},{"bike_id":"3edccbad-c604-40df-acb2-6e9d91b67298","system_id":"levelo_inurba_marseille","lat":43.33744,"lon":5.37451,"is_reserved":false,"is_disabled":false,"rental_uris":{"android":"levelo://app?vid=3edccbad-c604-40df-acb2-6e9d91b67298","ios":"levelo://app?vid=3edccbad-c604-40df-acb2-6e9d91b67298"},"vehicle_type_id":"4","last_reported":1728140895,"current_range_meters":34000,"station_id":"","pricing_plan_id":"cebpf4jnsgd1na2vs0mg"},{"bike_id":"61de1765-6c4e-498b-ab39-fc3c7eca5023","system_id":"levelo_inurba_marseille","lat":43.2293,"lon":5.35376,"is_reserved":false,"is_disabled":false,"rental_uris":{"android":"levelo://app?vid=61de1765-6c4e-498b-ab39-fc3c7eca5023","ios":"levelo://app?vid=61de1765-6c4e-498b-ab39-fc3c7eca5023"},"vehicle_type_id":"4","last_reported":1728140895,"current_range_meters":8000,"station_id":"cpo3532slgdg3j2ikp40","pricing_plan_id":"cebpf4jnsgd1na2vs0mg"},{"bike_id":"469e4615-69fd-4f50-ab75-3a5649cbabf7","system_id":"levelo_inurba_marseille","lat":43.308,"lon":5.43524,"is_reserved":false,"is_disabled":false,"rental_uris":{"android":"levelo://app?vid=469e4615-69fd-4f50-ab75-3a5649cbabf7","ios":"levelo://app?vid=469e4615-69fd-4f50-ab75-3a5649cbabf7"},"vehicle_type_id":"4","last_reported":1728140895,"current_range_meters":11200,"station_id":"ce4bhph2rcd13ifvqheg","pricing_plan_id":"cebpf4jnsgd1na2vs0mg"},{"bike_id":"5366d65f-0a04-49f6-8847-fa23486253a0","system_id":"levelo_inurba_marseille","lat":43.29001,"lon":5.35617,"is_reserved":false,"is_disabled":false,"rental_uris":{"android":"levelo://app?vid=5366d65f-0a04-49f6-8847-fa23486253a0","ios":"levelo://app?vid=5366d65f-0a04-49f6-8847-fa23486253a0"},"vehicle_type_id":"4","last_reported":1728140895,"current_range_meters":30000,"station_id":"ce4bhb92rcd13ifvqen0","pricing_plan_id":"cebpf4jnsgd1na2vs0mg"},{"bike_id":"b5de047c-d30a-499f-a4d0-67f8b7c117df","system_id":"levelo_inurba_marseille","lat":43.28414,"lon":5.34979,"is_reserved":false,"is_disabled":false,"rental_uris":{"android":"levelo://app?vid=b5de047c-d30a-499f-a4d0-67f8b7c117df","ios":"levelo://app?vid=b5de047c-d30a-499f-a4d0-67f8b7c117df"},"vehicle_type_id":"4","last_reported":1728140895,"current_range_meters":25200,"station_id":"ce4bhbh2rcd13ifvqepg","pricing_plan_id":"cebpf4jnsgd1na2vs0mg"},{"bike_id":"e25027ff-329e-428f-ba4c-c56241f9e0a3","system_id":"levelo_inurba_marseille","lat":43.23058,"lon":5.35494,"is_reserved":false,"is_disabled":false,"rental_uris":{"android":"levelo://app?vid=e25027ff-329e-428f-ba4c-c56241f9e0a3","ios":"levelo://app?vid=e25027ff-329e-428f-ba4c-c56241f9e0a3"},"vehicle_type_id":"4","last_reported":1728140895,"current_range_meters":24000,"station_id":"cpo3342slgdg3j2ifvpg","pricing_plan_id":"cebpf4jnsgd1na2vs0mg"},{"bike_id":"fae8e470-0c76-4a8b-b68e-455e9661bc30","system_id":"levelo_inurba_marseille","lat":43.24073,"lon":5.37759,"is_reserved":false,"is_disabled":false,"rental_uris":{"android":"levelo://app?vid=fae8e470-0c76-4a8b-b68e-455e9661bc30","ios":"levelo://app?vid=fae8e470-0c76-4a8b-b68e-455e9661bc30"},"vehicle_type_id":"4","last_reported":1728140895,"current_range_meters":4400,"station_id":"ce4bhnp2rcd13ifvqgvg","pricing_plan_id":"cebpf4jnsgd1na2vs0mg"},{"bike_id":"75314826-67a2-4f5f-9966-6b526aafe185","system_id":"levelo_inurba_marseille","lat":43.25583,"lon":5.3823,"is_reserved":false,"is_disabled":false,"rental_uris":{"android":"levelo://app?vid=75314826-67a2-4f5f-9966-6b526aafe185","ios":"levelo://app?vid=75314826-67a2-4f5f-9966-6b526aafe185"},"vehicle_type_id":"4","last_reported":1728140895,"current_range_meters":8400,"station_id":"ce4bhih2rcd13ifvqfs0","pricing_plan_id":"cebpf4jnsgd1na2vs0mg"},{"bike_id":"405a6893-db67-4d68-bcfb-17739eb223b0","system_id":"levelo_inurba_marseille","lat":43.30938,"lon":5.40149,"is_reserved":false,"is_disabled":false,"rental_uris":{"android":"levelo://app?vid=405a6893-db67-4d68-bcfb-17739eb223b0","ios":"levelo://app?vid=405a6893-db67-4d68-bcfb-17739eb223b0"},"vehicle_type_id":"4","last_reported":1728140895,"current_range_meters":28000,"station_id":"ce4bgvp2rcd13ifvqct0","pricing_plan_id":"cebpf4jnsgd1na2vs0mg"},{"bike_id":"a2e652f1-4cc8-40c2-b173-c9a0cd0d117f","system_id":"levelo_inurba_marseille","lat":43.27376,"lon":5.36261,"is_reserved":false,"is_disabled":false,"rental_uris":{"android":"levelo://app?vid=a2e652f1-4cc8-40c2-b173-c9a0cd0d117f","ios":"levelo://app?vid=a2e652f1-4cc8-40c2-b173-c9a0cd0d117f"},"vehicle_type_id":"4","last_reported":1728140895,"current_range_meters":4800,"station_id":"ce4bhbh2rcd13ifvqeo0","pricing_plan_id":"cebpf4jnsgd1na2vs0mg"},{"bike_id":"37042c1b-99f0-4379-a7d0-0b6867cdb669","system_id":"levelo_inurba_marseille","lat":43.23176,"lon":5.3998,"is_reserved":false,"is_disabled":false,"rental_uris":{"android":"levelo://app?vid=37042c1b-99f0-4379-a7d0-0b6867cdb669","ios":"levelo://app?vid=37042c1b-99f0-4379-a7d0-0b6867cdb669"},"vehicle_type_id":"4","last_reported":1728140895,"current_range_meters":38800,"station_id":"ce4bhn12rcd13ifvqgqg","pricing_plan_id":"cebpf4jnsgd1na2vs0mg"},{"bike_id":"cd8efa60-20bb-4915-b299-6050f091013b","system_id":"levelo_inurba_marseille","lat":43.23057,"lon":5.35486,"is_reserved":false,"is_disabled":false,"rental_uris":{"android":"levelo://app?vid=cd8efa60-20bb-4915-b299-6050f091013b","ios":"levelo://app?vid=cd8efa60-20bb-4915-b299-6050f091013b"},"vehicle_type_id":"4","last_reported":1728140895,"current_range_meters":8400,"station_id":"cpo3342slgdg3j2ifvpg","pricing_plan_id":"cebpf4jnsgd1na2vs0mg"},{"bike_id":"da22bca6-1557-4ec6-934a-86df44eff47c","system_id":"levelo_inurba_marseille","lat":43.291075,"lon":5.392488,"is_reserved":false,"is_disabled":false,"rental_uris":{"android":"levelo://app?vid=da22bca6-1557-4ec6-934a-86df44eff47c","ios":"levelo://app?vid=da22bca6-1557-4ec6-934a-86df44eff47c"},"vehicle_type_id":"4","last_reported":1728140895,"current_range_meters":14000,"station_id":"ce4bh192rcd13ifvqdd0","pricing_plan_id":"cebpf4jnsgd1na2vs0mg"},{"bike_id":"f44ef408-f651-4fa4-aa7d-0d70f8af6a65","system_id":"levelo_inurba_marseille","lat":43.23196,"lon":5.35545,"is_reserved":false,"is_disabled":false,"rental_uris":{"android":"levelo://app?vid=f44ef408-f651-4fa4-aa7d-0d70f8af6a65","ios":"levelo://app?vid=f44ef408-f651-4fa4-aa7d-0d70f8af6a65"},"vehicle_type_id":"4","last_reported":1728140895,"current_range_meters":35200,"station_id":"ce4bhu92rcd13ifvqi70","pricing_plan_id":"cebpf4jnsgd1na2vs0mg"},{"bike_id":"e8d989e2-60a6-419b-9099-ea51e5f4dd56","system_id":"levelo_inurba_marseille","lat":43.25724,"lon":5.41114,"is_reserved":false,"is_disabled":false,"rental_uris":{"android":"levelo://app?vid=e8d989e2-60a6-419b-9099-ea51e5f4dd56","ios":"levelo://app?vid=e8d989e2-60a6-419b-9099-ea51e5f4dd56"},"vehicle_type_id":"4","last_reported":1728140895,"current_range_meters":14000,"station_id":"ce4bhkp2rcd13ifvqgd0","pricing_plan_id":"cebpf4jnsgd1na2vs0mg"},{"bike_id":"4920a91b-45c3-4cc6-8c11-e9c0ce20f787","system_id":"levelo_inurba_marseille","lat":43.22932,"lon":5.35377,"is_reserved":false,"is_disabled":false,"rental_uris":{"android":"levelo://app?vid=4920a91b-45c3-4cc6-8c11-e9c0ce20f787","ios":"levelo://app?vid=4920a91b-45c3-4cc6-8c11-e9c0ce20f787"},"vehicle_type_id":"4","last_reported":1728140895,"current_range_meters":27200,"station_id":"cpo3532slgdg3j2ikp40","pricing_plan_id":"cebpf4jnsgd1na2vs0mg"},{"bike_id":"787f9c0d-7a4c-4275-a270-ed5835137352","system_id":"levelo_inurba_marseille","lat":43.28976,"lon":5.3784,"is_reserved":false,"is_disabled":false,"rental_uris":{"android":"levelo://app?vid=787f9c0d-7a4c-4275-a270-ed5835137352","ios":"levelo://app?vid=787f9c0d-7a4c-4275-a270-ed5835137352"},"vehicle_type_id":"4","last_reported":1728140895,"current_range_meters":18000,"station_id":"ce4bh9p2rcd13ifvqed0","pricing_plan_id":"cebpf4jnsgd1na2vs0mg"},{"bike_id":"93c654a2-94c9-4514-863f-254898a7ddea","system_id":"levelo_inurba_marseille","lat":43.27367,"lon":5.36244,"is_reserved":false,"is_disabled":false,"rental_uris":{"android":"levelo://app?vid=93c654a2-94c9-4514-863f-254898a7ddea","ios":"levelo://app?vid=93c654a2-94c9-4514-863f-254898a7ddea"},"vehicle_type_id":"4","last_reported":1728140895,"current_range_meters":27600,"station_id":"ce4bhbh2rcd13ifvqeo0","pricing_plan_id":"cebpf4jnsgd1na2vs0mg"},{"bike_id":"03ebdfef-60b9-4383-b780-f6e10ef5dff9","system_id":"levelo_inurba_marseille","lat":43.33761,"lon":5.37456,"is_reserved":false,"is_disabled":false,"rental_uris":{"android":"levelo://app?vid=03ebdfef-60b9-4383-b780-f6e10ef5dff9","ios":"levelo://app?vid=03ebdfef-60b9-4383-b780-f6e10ef5dff9"},"vehicle_type_id":"4","last_reported":1728140895,"current_range_meters":32400,"station_id":"","pricing_plan_id":"cebpf4jnsgd1na2vs0mg"},{"bike_id":"630e39bc-0103-4f30-9d66-15ccfcf7e4e2","system_id":"levelo_inurba_marseille","lat":43.26939,"lon":5.40251,"is_reserved":false,"is_disabled":false,"rental_uris":{"android":"levelo://app?vid=630e39bc-0103-4f30-9d66-15ccfcf7e4e2","ios":"levelo://app?vid=630e39bc-0103-4f30-9d66-15ccfcf7e4e2"},"vehicle_type_id":"4","last_reported":1728140895,"current_range_meters":38800,"station_id":"cjm6bp8fraef2m0cb0m0","pricing_plan_id":"cebpf4jnsgd1na2vs0mg"},{"bike_id":"e6b2df58-b4a0-4aec-933d-a62e42f34d34","system_id":"levelo_inurba_marseille","lat":43.33712,"lon":5.39203,"is_reserved":false,"is_disabled":false,"rental_uris":{"android":"levelo://app?vid=e6b2df58-b4a0-4aec-933d-a62e42f34d34","ios":"levelo://app?vid=e6b2df58-b4a0-4aec-933d-a62e42f34d34"},"vehicle_type_id":"4","last_reported":1728140895,"current_range_meters":12400,"station_id":"ce4bhr92rcd13ifvqhsg","pricing_plan_id":"cebpf4jnsgd1na2vs0mg"},{"bike_id":"9bdfcddf-1fd9-4f35-bea0-76383e057359","system_id":"levelo_inurba_marseille","lat":43.25,"lon":5.38921,"is_reserved":false,"is_disabled":false,"rental_uris":{"android":"levelo://app?vid=9bdfcddf-1fd9-4f35-bea0-76383e057359","ios":"levelo://app?vid=9bdfcddf-1fd9-4f35-bea0-76383e057359"},"vehicle_type_id":"4","last_reported":1728140895,"current_range_meters":38000,"station_id":"ce4bhgp2rcd13ifvqfd0","pricing_plan_id":"cebpf4jnsgd1na2vs0mg"},{"bike_id":"d77938b7-ff1e-465c-a8b9-4b07085a5cc9","system_id":"levelo_inurba_marseille","lat":43.23062,"lon":5.35488,"is_reserved":false,"is_disabled":false,"rental_uris":{"android":"levelo://app?vid=d77938b7-ff1e-465c-a8b9-4b07085a5cc9","ios":"levelo://app?vid=d77938b7-ff1e-465c-a8b9-4b07085a5cc9"},"vehicle_type_id":"4","last_reported":1728140895,"current_range_meters":11200,"station_id":"cpo3342slgdg3j2ifvpg","pricing_plan_id":"cebpf4jnsgd1na2vs0mg"},{"bike_id":"852457a1-813f-46b8-bb13-232384e208e9","system_id":"levelo_inurba_marseille","lat":43.33764,"lon":5.3743,"is_reserved":false,"is_disabled":false,"rental_uris":{"android":"levelo://app?vid=852457a1-813f-46b8-bb13-232384e208e9","ios":"levelo://app?vid=852457a1-813f-46b8-bb13-232384e208e9"},"vehicle_type_id":"4","last_reported":1728140895,"current_range_meters":32800,"station_id":"","pricing_plan_id":"cebpf4jnsgd1na2vs0mg"},{"bike_id":"0d79ef91-e03a-4511-b960-a6f350f28d65","system_id":"levelo_inurba_marseille","lat":43.23071,"lon":5.3549,"is_reserved":false,"is_disabled":false,"rental_uris":{"android":"levelo://app?vid=0d79ef91-e03a-4511-b960-a6f350f28d65","ios":"levelo://app?vid=0d79ef91-e03a-4511-b960-a6f350f28d65"},"vehicle_type_id":"4","last_reported":1728140895,"current_range_meters":18000,"station_id":"cpo3342slgdg3j2ifvpg","pricing_plan_id":"cebpf4jnsgd1na2vs0mg"},{"bike_id":"e1729c06-d1d0-49d8-be14-4a2919fe4755","system_id":"levelo_inurba_marseille","lat":43.28421,"lon":5.34985,"is_reserved":false,"is_disabled":false,"rental_uris":{"android":"levelo://app?vid=e1729c06-d1d0-49d8-be14-4a2919fe4755","ios":"levelo://app?vid=e1729c06-d1d0-49d8-be14-4a2919fe4755"},"vehicle_type_id":"4","last_reported":1728140895,"current_range_meters":14400,"station_id":"ce4bhbh2rcd13ifvqepg","pricing_plan_id":"cebpf4jnsgd1na2vs0mg"},{"bike_id":"008a4f84-dd37-44b5-9dff-e970ebdeeb22","system_id":"levelo_inurba_marseille","lat":43.2738,"lon":5.36254,"is_reserved":false,"is_disabled":false,"rental_uris":{"android":"levelo://app?vid=008a4f84-dd37-44b5-9dff-e970ebdeeb22","ios":"levelo://app?vid=008a4f84-dd37-44b5-9dff-e970ebdeeb22"},"vehicle_type_id":"4","last_reported":1728140895,"current_range_meters":36800,"station_id":"ce4bhbh2rcd13ifvqeo0","pricing_plan_id":"cebpf4jnsgd1na2vs0mg"},{"bike_id":"54d09a39-e79d-434c-8a05-a8f2660c6a94","system_id":"levelo_inurba_marseille","lat":43.29896,"lon":5.43672,"is_reserved":false,"is_disabled":false,"rental_uris":{"android":"levelo://app?vid=54d09a39-e79d-434c-8a05-a8f2660c6a94","ios":"levelo://app?vid=54d09a39-e79d-434c-8a05-a8f2660c6a94"},"vehicle_type_id":"4","last_reported":1728140895,"current_range_meters":9600,"station_id":"ce4bhpp2rcd13ifvqhfg","pricing_plan_id":"cebpf4jnsgd1na2vs0mg"},{"bike_id":"8f652e76-7e16-4b13-bc0d-bbb497374f17","system_id":"levelo_inurba_marseille","lat":43.3043,"lon":5.39751,"is_reserved":false,"is_disabled":false,"rental_uris":{"android":"levelo://app?vid=8f652e76-7e16-4b13-bc0d-bbb497374f17","ios":"levelo://app?vid=8f652e76-7e16-4b13-bc0d-bbb497374f17"},"vehicle_type_id":"4","last_reported":1728140895,"current_range_meters":3200,"station_id":"ce4bh092rcd13ifvqd20","pricing_plan_id":"cebpf4jnsgd1na2vs0mg"},{"bike_id":"6548e544-7efd-4b96-8168-7c8eab7f53b9","system_id":"levelo_inurba_marseille","lat":43.32661,"lon":5.40986,"is_reserved":false,"is_disabled":false,"rental_uris":{"android":"levelo://app?vid=6548e544-7efd-4b96-8168-7c8eab7f53b9","ios":"levelo://app?vid=6548e544-7efd-4b96-8168-7c8eab7f53b9"},"vehicle_type_id":"4","last_reported":1728140895,"current_range_meters":36800,"station_id":"ce4bhpp2rcd13ifvqhgg","pricing_plan_id":"cebpf4jnsgd1na2vs0mg"},{"bike_id":"067ca4b5-76ca-4e25-9d7a-15c7e765ede8","system_id":"levelo_inurba_marseille","lat":43.24072,"lon":5.37763,"is_reserved":false,"is_disabled":false,"rental_uris":{"android":"levelo://app?vid=067ca4b5-76ca-4e25-9d7a-15c7e765ede8","ios":"levelo://app?vid=067ca4b5-76ca-4e25-9d7a-15c7e765ede8"},"vehicle_type_id":"4","last_reported":1728140895,"current_range_meters":8800,"station_id":"ce4bhnp2rcd13ifvqgvg","pricing_plan_id":"cebpf4jnsgd1na2vs0mg"},{"bike_id":"5d5a6513-1c73-4e32-9b67-1d9451a2d17a","system_id":"levelo_inurba_marseille","lat":43.23058,"lon":5.35497,"is_reserved":false,"is_disabled":false,"rental_uris":{"android":"levelo://app?vid=5d5a6513-1c73-4e32-9b67-1d9451a2d17a","ios":"levelo://app?vid=5d5a6513-1c73-4e32-9b67-1d9451a2d17a"},"vehicle_type_id":"4","last_reported":1728140895,"current_range_meters":21600,"station_id":"cpo3342slgdg3j2ifvpg","pricing_plan_id":"cebpf4jnsgd1na2vs0mg"},{"bike_id":"491813ec-5bcd-4eda-acb2-c01ccb4e9894","system_id":"levelo_inurba_marseille","lat":43.33769,"lon":5.37417,"is_reserved":false,"is_disabled":false,"rental_uris":{"android":"levelo://app?vid=491813ec-5bcd-4eda-acb2-c01ccb4e9894","ios":"levelo://app?vid=491813ec-5bcd-4eda-acb2-c01ccb4e9894"},"vehicle_type_id":"4","last_reported":1728140895,"current_range_meters":36000,"station_id":"","pricing_plan_id":"cebpf4jnsgd1na2vs0mg"},{"bike_id":"55d4cda0-dbc0-4c6e-9c73-196326286778","system_id":"levelo_inurba_marseille","lat":43.27372,"lon":5.36261,"is_reserved":false,"is_disabled":false,"rental_uris":{"android":"levelo://app?vid=55d4cda0-dbc0-4c6e-9c73-196326286778","ios":"levelo://app?vid=55d4cda0-dbc0-4c6e-9c73-196326286778"},"vehicle_type_id":"4","last_reported":1728140895,"current_range_meters":16000,"station_id":"ce4bhbh2rcd13ifvqeo0","pricing_plan_id":"cebpf4jnsgd1na2vs0mg"},{"bike_id":"baba7691-81ff-4c7d-90d9-c89eba9696cb","system_id":"levelo_inurba_marseille","lat":43.25929,"lon":5.40912,"is_reserved":false,"is_disabled":false,"rental_uris":{"android":"levelo://app?vid=baba7691-81ff-4c7d-90d9-c89eba9696cb","ios":"levelo://app?vid=baba7691-81ff-4c7d-90d9-c89eba9696cb"},"vehicle_type_id":"4","last_reported":1728140895,"current_range_meters":36400,"station_id":"ce4bhm92rcd13ifvqglg","pricing_plan_id":"cebpf4jnsgd1na2vs0mg"},{"bike_id":"003f79fe-6d41-46f1-841e-89c95bada677","system_id":"levelo_inurba_marseille","lat":43.22933,"lon":5.35373,"is_reserved":false,"is_disabled":false,"rental_uris":{"android":"levelo://app?vid=003f79fe-6d41-46f1-841e-89c95bada677","ios":"levelo://app?vid=003f79fe-6d41-46f1-841e-89c95bada677"},"vehicle_type_id":"4","last_reported":1728140895,"current_range_meters":27200,"station_id":"cpo3532slgdg3j2ikp40","pricing_plan_id":"cebpf4jnsgd1na2vs0mg"},{"bike_id":"03fbec81-2a94-48dd-a306-be269f429402","system_id":"levelo_inurba_marseille","lat":43.27369,"lon":5.36246,"is_reserved":false,"is_disabled":false,"rental_uris":{"android":"levelo://app?vid=03fbec81-2a94-48dd-a306-be269f429402","ios":"levelo://app?vid=03fbec81-2a94-48dd-a306-be269f429402"},"vehicle_type_id":"4","last_reported":1728140895,"current_range_meters":38800,"station_id":"ce4bhbh2rcd13ifvqeo0","pricing_plan_id":"cebpf4jnsgd1na2vs0mg"},{"bike_id":"b4e36b10-8834-4965-abb9-d9cb17f3610e","system_id":"levelo_inurba_marseille","lat":43.29929,"lon":5.36521,"is_reserved":false,"is_disabled":false,"rental_uris":{"android":"levelo://app?vid=b4e36b10-8834-4965-abb9-d9cb17f3610e","ios":"levelo://app?vid=b4e36b10-8834-4965-abb9-d9cb17f3610e"},"vehicle_type_id":"4","last_reported":1728140895,"current_range_meters":27600,"station_id":"ce4bgm92rcd13ifvqbr0","pricing_plan_id":"cebpf4jnsgd1na2vs0mg"},{"bike_id":"4af55307-045f-4c66-a045-a91d88bb4c16","system_id":"levelo_inurba_marseille","lat":43.33767,"lon":5.37433,"is_reserved":false,"is_disabled":false,"rental_uris":{"android":"levelo://app?vid=4af55307-045f-4c66-a045-a91d88bb4c16","ios":"levelo://app?vid=4af55307-045f-4c66-a045-a91d88bb4c16"},"vehicle_type_id":"4","last_reported":1728140895,"current_range_meters":36000,"station_id":"","pricing_plan_id":"cebpf4jnsgd1na2vs0mg"},{"bike_id":"73b1fe8e-a545-4eab-ad8f-73ea1620e0db","system_id":"levelo_inurba_marseille","lat":43.23148,"lon":5.43718,"is_reserved":false,"is_disabled":false,"rental_uris":{"android":"levelo://app?vid=73b1fe8e-a545-4eab-ad8f-73ea1620e0db","ios":"levelo://app?vid=73b1fe8e-a545-4eab-ad8f-73ea1620e0db"},"vehicle_type_id":"4","last_reported":1728140895,"current_range_meters":38800,"station_id":"ce4bhmp2rcd13ifvqgog","pricing_plan_id":"cebpf4jnsgd1na2vs0mg"},{"bike_id":"e756f7bf-048d-4602-8960-fecb6745cc19","system_id":"levelo_inurba_marseille","lat":43.27369,"lon":5.36254,"is_reserved":false,"is_disabled":false,"rental_uris":{"android":"levelo://app?vid=e756f7bf-048d-4602-8960-fecb6745cc19","ios":"levelo://app?vid=e756f7bf-048d-4602-8960-fecb6745cc19"},"vehicle_type_id":"4","last_reported":1728140895,"current_range_meters":25600,"station_id":"ce4bhbh2rcd13ifvqeo0","pricing_plan_id":"cebpf4jnsgd1na2vs0mg"},{"bike_id":"13a35d1a-1c21-4cdd-9282-17040c700716","system_id":"levelo_inurba_marseille","lat":43.32537,"lon":5.4143,"is_reserved":false,"is_disabled":false,"rental_uris":{"android":"levelo://app?vid=13a35d1a-1c21-4cdd-9282-17040c700716","ios":"levelo://app?vid=13a35d1a-1c21-4cdd-9282-17040c700716"},"vehicle_type_id":"4","last_reported":1728140895,"current_range_meters":38000,"station_id":"ce4bhq12rcd13ifvqhhg","pricing_plan_id":"cebpf4jnsgd1na2vs0mg"},{"bike_id":"0b4f8919-0176-4be0-823c-6c25f671d4aa","system_id":"levelo_inurba_marseille","lat":43.29024,"lon":5.38135,"is_reserved":false,"is_disabled":false,"rental_uris":{"android":"levelo://app?vid=0b4f8919-0176-4be0-823c-6c25f671d4aa","ios":"levelo://app?vid=0b4f8919-0176-4be0-823c-6c25f671d4aa"},"vehicle_type_id":"4","last_reported":1728140895,"current_range_meters":36800,"station_id":"ce4bh4p2rcd13ifvqe1g","pricing_plan_id":"cebpf4jnsgd1na2vs0mg"},{"bike_id":"696644f5-1423-4196-8c71-bccdf5f2a225","system_id":"levelo_inurba_marseille","lat":43.28414,"lon":5.34975,"is_reserved":false,"is_disabled":false,"rental_uris":{"android":"levelo://app?vid=696644f5-1423-4196-8c71-bccdf5f2a225","ios":"levelo://app?vid=696644f5-1423-4196-8c71-bccdf5f2a225"},"vehicle_type_id":"4","last_reported":1728140895,"current_range_meters":37600,"station_id":"ce4bhbh2rcd13ifvqepg","pricing_plan_id":"cebpf4jnsgd1na2vs0mg"},{"bike_id":"e1461c9d-01d4-423b-ad7d-8e072e6a4565","system_id":"levelo_inurba_marseille","lat":43.28034,"lon":5.36957,"is_reserved":false,"is_disabled":false,"rental_uris":{"android":"levelo://app?vid=e1461c9d-01d4-423b-ad7d-8e072e6a4565","ios":"levelo://app?vid=e1461c9d-01d4-423b-ad7d-8e072e6a4565"},"vehicle_type_id":"4","last_reported":1728140895,"current_range_meters":6800,"station_id":"ce4bha12rcd13ifvqef0","pricing_plan_id":"cebpf4jnsgd1na2vs0mg"},{"bike_id":"27a0a4cf-9218-4496-85d5-28153287c3d7","system_id":"levelo_inurba_marseille","lat":43.30346,"lon":5.41868,"is_reserved":false,"is_disabled":false,"rental_uris":{"android":"levelo://app?vid=27a0a4cf-9218-4496-85d5-28153287c3d7","ios":"levelo://app?vid=27a0a4cf-9218-4496-85d5-28153287c3d7"},"vehicle_type_id":"4","last_reported":1728140895,"current_range_meters":24000,"station_id":"ce4bhop2rcd13ifvqh7g","pricing_plan_id":"cebpf4jnsgd1na2vs0mg"},{"bike_id":"2f337cc6-9141-49b7-8d58-9e3bdedc3f11","system_id":"levelo_inurba_marseille","lat":43.23193,"lon":5.35556,"is_reserved":false,"is_disabled":false,"rental_uris":{"android":"levelo://app?vid=2f337cc6-9141-49b7-8d58-9e3bdedc3f11","ios":"levelo://app?vid=2f337cc6-9141-49b7-8d58-9e3bdedc3f11"},"vehicle_type_id":"4","last_reported":1728140895,"current_range_meters":20000,"station_id":"ce4bhu92rcd13ifvqi70","pricing_plan_id":"cebpf4jnsgd1na2vs0mg"},{"bike_id":"a7f5b52e-5c88-472d-b556-649e16ff9d33","system_id":"levelo_inurba_marseille","lat":43.28469,"lon":5.38425,"is_reserved":false,"is_disabled":false,"rental_uris":{"android":"levelo://app?vid=a7f5b52e-5c88-472d-b556-649e16ff9d33","ios":"levelo://app?vid=a7f5b52e-5c88-472d-b556-649e16ff9d33"},"vehicle_type_id":"4","last_reported":1728140895,"current_range_meters":24800,"station_id":"ce4bh512rcd13ifvqe3g","pricing_plan_id":"cebpf4jnsgd1na2vs0mg"},{"bike_id":"db981661-0e24-4757-bdf7-473bbc2a9be4","system_id":"levelo_inurba_marseille","lat":43.22931,"lon":5.35377,"is_reserved":false,"is_disabled":false,"rental_uris":{"android":"levelo://app?vid=db981661-0e24-4757-bdf7-473bbc2a9be4","ios":"levelo://app?vid=db981661-0e24-4757-bdf7-473bbc2a9be4"},"vehicle_type_id":"4","last_reported":1728140895,"current_range_meters":37600,"station_id":"cpo3532slgdg3j2ikp40","pricing_plan_id":"cebpf4jnsgd1na2vs0mg"},{"bike_id":"bcac455c-9902-48bf-b9b1-3c1b965f772f","system_id":"levelo_inurba_marseille","lat":43.28429,"lon":5.34987,"is_reserved":false,"is_disabled":false,"rental_uris":{"android":"levelo://app?vid=bcac455c-9902-48bf-b9b1-3c1b965f772f","ios":"levelo://app?vid=bcac455c-9902-48bf-b9b1-3c1b965f772f"},"vehicle_type_id":"4","last_reported":1728140895,"current_range_meters":28800,"station_id":"ce4bhbh2rcd13ifvqepg","pricing_plan_id":"cebpf4jnsgd1na2vs0mg"},{"bike_id":"6f18fb52-3e96-46d0-858b-aa1ab2f1ea93","system_id":"levelo_inurba_marseille","lat":43.28698,"lon":5.39996,"is_reserved":false,"is_disabled":false,"rental_uris":{"android":"levelo://app?vid=6f18fb52-3e96-46d0-858b-aa1ab2f1ea93","ios":"levelo://app?vid=6f18fb52-3e96-46d0-858b-aa1ab2f1ea93"},"vehicle_type_id":"4","last_reported":1728140895,"current_range_meters":25600,"station_id":"ce4bho92rcd13ifvqh3g","pricing_plan_id":"cebpf4jnsgd1na2vs0mg"},{"bike_id":"64f149e6-3602-405a-957d-d047547d5fbb","system_id":"levelo_inurba_marseille","lat":43.25106,"lon":5.40324,"is_reserved":false,"is_disabled":false,"rental_uris":{"android":"levelo://app?vid=64f149e6-3602-405a-957d-d047547d5fbb","ios":"levelo://app?vid=64f149e6-3602-405a-957d-d047547d5fbb"},"vehicle_type_id":"4","last_reported":1728140895,"current_range_meters":31200,"station_id":"ce4bhlh2rcd13ifvqgig","pricing_plan_id":"cebpf4jnsgd1na2vs0mg"},{"bike_id":"f6a6f506-b787-44af-8ac7-8babc8f39c75","system_id":"levelo_inurba_marseille","lat":43.30141,"lon":5.37417,"is_reserved":false,"is_disabled":false,"rental_uris":{"android":"levelo://app?vid=f6a6f506-b787-44af-8ac7-8babc8f39c75","ios":"levelo://app?vid=f6a6f506-b787-44af-8ac7-8babc8f39c75"},"vehicle_type_id":"4","last_reported":1728140895,"current_range_meters":38800,"station_id":"ce4bgs92rcd13ifvqcc0","pricing_plan_id":"cebpf4jnsgd1na2vs0mg"},{"bike_id":"46ecf724-3e60-4780-803b-a78c82d3ad61","system_id":"levelo_inurba_marseille","lat":43.26803,"lon":5.40266,"is_reserved":false,"is_disabled":false,"rental_uris":{"android":"levelo://app?vid=46ecf724-3e60-4780-803b-a78c82d3ad61","ios":"levelo://app?vid=46ecf724-3e60-4780-803b-a78c82d3ad61"},"vehicle_type_id":"4","last_reported":1728140895,"current_range_meters":26000,"station_id":"ce501612rcd8frsf0b60","pricing_plan_id":"cebpf4jnsgd1na2vs0mg"},{"bike_id":"52780f9c-f10b-4717-bb73-41c71a6c3300","system_id":"levelo_inurba_marseille","lat":43.262115,"lon":5.37448,"is_reserved":false,"is_disabled":false,"rental_uris":{"android":"levelo://app?vid=52780f9c-f10b-4717-bb73-41c71a6c3300","ios":"levelo://app?vid=52780f9c-f10b-4717-bb73-41c71a6c3300"},"vehicle_type_id":"4","last_reported":1728140895,"current_range_meters":10000,"station_id":"ce4bhgp2rcd13ifvqfc0","pricing_plan_id":"cebpf4jnsgd1na2vs0mg"},{"bike_id":"22d8b06c-5a9d-4711-87ab-870e9adc7a9b","system_id":"levelo_inurba_marseille","lat":43.28454,"lon":5.35888,"is_reserved":false,"is_disabled":false,"rental_uris":{"android":"levelo://app?vid=22d8b06c-5a9d-4711-87ab-870e9adc7a9b","ios":"levelo://app?vid=22d8b06c-5a9d-4711-87ab-870e9adc7a9b"},"vehicle_type_id":"4","last_reported":1728140895,"current_range_meters":36000,"station_id":"ce4bhah2rcd13ifvqei0","pricing_plan_id":"cebpf4jnsgd1na2vs0mg"},{"bike_id":"9248fc6b-ce47-46e3-ab72-f59c08864c25","system_id":"levelo_inurba_marseille","lat":43.28419,"lon":5.34979,"is_reserved":false,"is_disabled":false,"rental_uris":{"android":"levelo://app?vid=9248fc6b-ce47-46e3-ab72-f59c08864c25","ios":"levelo://app?vid=9248fc6b-ce47-46e3-ab72-f59c08864c25"},"vehicle_type_id":"4","last_reported":1728140895,"current_range_meters":17200,"station_id":"ce4bhbh2rcd13ifvqepg","pricing_plan_id":"cebpf4jnsgd1na2vs0mg"},{"bike_id":"79b9780c-0672-46ff-af34-19be6dec4043","system_id":"levelo_inurba_marseille","lat":43.3171,"lon":5.43707,"is_reserved":false,"is_disabled":false,"rental_uris":{"android":"levelo://app?vid=79b9780c-0672-46ff-af34-19be6dec4043","ios":"levelo://app?vid=79b9780c-0672-46ff-af34-19be6dec4043"},"vehicle_type_id":"4","last_reported":1728140895,"current_range_meters":24400,"station_id":"ce4bhp92rcd13ifvqhcg","pricing_plan_id":"cebpf4jnsgd1na2vs0mg"},{"bike_id":"62d84201-34e2-4a5b-8b14-28bf4676d834","system_id":"levelo_inurba_marseille","lat":43.28476,"lon":5.38563,"is_reserved":false,"is_disabled":false,"rental_uris":{"android":"levelo://app?vid=62d84201-34e2-4a5b-8b14-28bf4676d834","ios":"levelo://app?vid=62d84201-34e2-4a5b-8b14-28bf4676d834"},"vehicle_type_id":"4","last_reported":1728140895,"current_range_meters":18800,"station_id":"ce4bh8p2rcd13ifvqeb0","pricing_plan_id":"cebpf4jnsgd1na2vs0mg"},{"bike_id":"bebd253c-6c1a-4122-95d0-34bd05630847","system_id":"levelo_inurba_marseille","lat":43.25714,"lon":5.41107,"is_reserved":false,"is_disabled":false,"rental_uris":{"android":"levelo://app?vid=bebd253c-6c1a-4122-95d0-34bd05630847","ios":"levelo://app?vid=bebd253c-6c1a-4122-95d0-34bd05630847"},"vehicle_type_id":"4","last_reported":1728140895,"current_range_meters":3200,"station_id":"ce4bhkp2rcd13ifvqgd0","pricing_plan_id":"cebpf4jnsgd1na2vs0mg"},{"bike_id":"24e8665c-c387-4bce-a92a-51df3b36226c","system_id":"levelo_inurba_marseille","lat":43.23194,"lon":5.35545,"is_reserved":false,"is_disabled":false,"rental_uris":{"android":"levelo://app?vid=24e8665c-c387-4bce-a92a-51df3b36226c","ios":"levelo://app?vid=24e8665c-c387-4bce-a92a-51df3b36226c"},"vehicle_type_id":"4","last_reported":1728140895,"current_range_meters":8400,"station_id":"ce4bhu92rcd13ifvqi70","pricing_plan_id":"cebpf4jnsgd1na2vs0mg"},{"bike_id":"78f819b8-85ba-4563-a6ef-d45e6873584d","system_id":"levelo_inurba_marseille","lat":43.31086,"lon":5.4243,"is_reserved":false,"is_disabled":false,"rental_uris":{"android":"levelo://app?vid=78f819b8-85ba-4563-a6ef-d45e6873584d","ios":"levelo://app?vid=78f819b8-85ba-4563-a6ef-d45e6873584d"},"vehicle_type_id":"4","last_reported":1728140895,"current_range_meters":38800,"station_id":"ce4bhp92rcd13ifvqhag","pricing_plan_id":"cebpf4jnsgd1na2vs0mg"},{"bike_id":"782f9242-7d6e-4715-a3c0-38c78e55b8a4","system_id":"levelo_inurba_marseille","lat":43.27375,"lon":5.36257,"is_reserved":false,"is_disabled":false,"rental_uris":{"android":"levelo://app?vid=782f9242-7d6e-4715-a3c0-38c78e55b8a4","ios":"levelo://app?vid=782f9242-7d6e-4715-a3c0-38c78e55b8a4"},"vehicle_type_id":"4","last_reported":1728140895,"current_range_meters":19600,"station_id":"ce4bhbh2rcd13ifvqeo0","pricing_plan_id":"cebpf4jnsgd1na2vs0mg"},{"bike_id":"e8c88070-9db8-4481-937f-beccd38633be","system_id":"levelo_inurba_marseille","lat":43.28929,"lon":5.39636,"is_reserved":false,"is_disabled":false,"rental_uris":{"android":"levelo://app?vid=e8c88070-9db8-4481-937f-beccd38633be","ios":"levelo://app?vid=e8c88070-9db8-4481-937f-beccd38633be"},"vehicle_type_id":"4","last_reported":1728140895,"current_range_meters":31200,"station_id":"ce4bh3h2rcd13ifvqdn0","pricing_plan_id":"cebpf4jnsgd1na2vs0mg"},{"bike_id":"60cf0074-8bc8-49cb-b1f3-c28534ca0c18","system_id":"levelo_inurba_marseille","lat":43.27952,"lon":5.3994,"is_reserved":false,"is_disabled":false,"rental_uris":{"android":"levelo://app?vid=60cf0074-8bc8-49cb-b1f3-c28534ca0c18","ios":"levelo://app?vid=60cf0074-8bc8-49cb-b1f3-c28534ca0c18"},"vehicle_type_id":"4","last_reported":1728140895,"current_range_meters":14400,"station_id":"ce4bhh92rcd13ifvqfj0","pricing_plan_id":"cebpf4jnsgd1na2vs0mg"},{"bike_id":"2111ca8d-ebec-4a21-b355-4d513e6053a3","system_id":"levelo_inurba_marseille","lat":43.26806,"lon":5.40267,"is_reserved":false,"is_disabled":false,"rental_uris":{"android":"levelo://app?vid=2111ca8d-ebec-4a21-b355-4d513e6053a3","ios":"levelo://app?vid=2111ca8d-ebec-4a21-b355-4d513e6053a3"},"vehicle_type_id":"4","last_reported":1728140895,"current_range_meters":21600,"station_id":"ce501612rcd8frsf0b60","pricing_plan_id":"cebpf4jnsgd1na2vs0mg"},{"bike_id":"9cebfe8a-5ff4-4160-8bdb-4efe7a6ec1e4","system_id":"levelo_inurba_marseille","lat":43.29042,"lon":5.39969,"is_reserved":false,"is_disabled":false,"rental_uris":{"android":"levelo://app?vid=9cebfe8a-5ff4-4160-8bdb-4efe7a6ec1e4","ios":"levelo://app?vid=9cebfe8a-5ff4-4160-8bdb-4efe7a6ec1e4"},"vehicle_type_id":"4","last_reported":1728140895,"current_range_meters":8800,"station_id":"ce4bh392rcd13ifvqdm0","pricing_plan_id":"cebpf4jnsgd1na2vs0mg"},{"bike_id":"60e54bb1-4c4f-4c39-8bf5-9879d723fcc0","system_id":"levelo_inurba_marseille","lat":43.26493,"lon":5.39548,"is_reserved":false,"is_disabled":false,"rental_uris":{"android":"levelo://app?vid=60e54bb1-4c4f-4c39-8bf5-9879d723fcc0","ios":"levelo://app?vid=60e54bb1-4c4f-4c39-8bf5-9879d723fcc0"},"vehicle_type_id":"4","last_reported":1728140895,"current_range_meters":9600,"station_id":"ce4bhi12rcd13ifvqfq0","pricing_plan_id":"cebpf4jnsgd1na2vs0mg"},{"bike_id":"e04e5431-207d-4263-8b72-762e4c4878e5","system_id":"levelo_inurba_marseille","lat":43.23063,"lon":5.35497,"is_reserved":false,"is_disabled":false,"rental_uris":{"android":"levelo://app?vid=e04e5431-207d-4263-8b72-762e4c4878e5","ios":"levelo://app?vid=e04e5431-207d-4263-8b72-762e4c4878e5"},"vehicle_type_id":"4","last_reported":1728140895,"current_range_meters":15200,"station_id":"cpo3342slgdg3j2ifvpg","pricing_plan_id":"cebpf4jnsgd1na2vs0mg"},{"bike_id":"dec9909c-e0ce-4a43-a3ca-3ab7b3aadef2","system_id":"levelo_inurba_marseille","lat":43.29551,"lon":5.42278,"is_reserved":false,"is_disabled":false,"rental_uris":{"android":"levelo://app?vid=dec9909c-e0ce-4a43-a3ca-3ab7b3aadef2","ios":"levelo://app?vid=dec9909c-e0ce-4a43-a3ca-3ab7b3aadef2"},"vehicle_type_id":"4","last_reported":1728140895,"current_range_meters":3200,"station_id":"ce4bhph2rcd13ifvqhdg","pricing_plan_id":"cebpf4jnsgd1na2vs0mg"},{"bike_id":"57996993-214f-48d6-81d0-ae6ab033dde2","system_id":"levelo_inurba_marseille","lat":43.3014,"lon":5.37399,"is_reserved":false,"is_disabled":false,"rental_uris":{"android":"levelo://app?vid=57996993-214f-48d6-81d0-ae6ab033dde2","ios":"levelo://app?vid=57996993-214f-48d6-81d0-ae6ab033dde2"},"vehicle_type_id":"4","last_reported":1728140895,"current_range_meters":39200,"station_id":"ce4bgs92rcd13ifvqcc0","pricing_plan_id":"cebpf4jnsgd1na2vs0mg"},{"bike_id":"3047d807-05da-4b26-8147-d2d2846484f2","system_id":"levelo_inurba_marseille","lat":43.29876,"lon":5.38908,"is_reserved":false,"is_disabled":false,"rental_uris":{"android":"levelo://app?vid=3047d807-05da-4b26-8147-d2d2846484f2","ios":"levelo://app?vid=3047d807-05da-4b26-8147-d2d2846484f2"},"vehicle_type_id":"4","last_reported":1728140895,"current_range_meters":4400,"station_id":"ce4bh392rcd13ifvqdl0","pricing_plan_id":"cebpf4jnsgd1na2vs0mg"},{"bike_id":"deada6fb-1c8a-45e8-a44a-18c32ee62727","system_id":"levelo_inurba_marseille","lat":43.23177,"lon":5.39994,"is_reserved":false,"is_disabled":false,"rental_uris":{"android":"levelo://app?vid=deada6fb-1c8a-45e8-a44a-18c32ee62727","ios":"levelo://app?vid=deada6fb-1c8a-45e8-a44a-18c32ee62727"},"vehicle_type_id":"4","last_reported":1728140895,"current_range_meters":24400,"station_id":"ce4bhn12rcd13ifvqgqg","pricing_plan_id":"cebpf4jnsgd1na2vs0mg"},{"bike_id":"d0639ca6-5185-4368-a8c6-f303622fcdb7","system_id":"levelo_inurba_marseille","lat":43.31348,"lon":5.36713,"is_reserved":false,"is_disabled":false,"rental_uris":{"android":"levelo://app?vid=d0639ca6-5185-4368-a8c6-f303622fcdb7","ios":"levelo://app?vid=d0639ca6-5185-4368-a8c6-f303622fcdb7"},"vehicle_type_id":"4","last_reported":1728140895,"current_range_meters":3200,"station_id":"ce4bgr92rcd13ifvqc6g","pricing_plan_id":"cebpf4jnsgd1na2vs0mg"},{"bike_id":"1240ae32-669c-449f-b739-f07f54ee4e86","system_id":"levelo_inurba_marseille","lat":43.242092,"lon":5.377433,"is_reserved":false,"is_disabled":false,"rental_uris":{"android":"levelo://app?vid=1240ae32-669c-449f-b739-f07f54ee4e86","ios":"levelo://app?vid=1240ae32-669c-449f-b739-f07f54ee4e86"},"vehicle_type_id":"4","last_reported":1728140895,"current_range_meters":35600,"station_id":"ce4bhih2rcd13ifvqfr0","pricing_plan_id":"cebpf4jnsgd1na2vs0mg"},{"bike_id":"59207f80-49b5-42ac-bb06-77755ab51403","system_id":"levelo_inurba_marseille","lat":43.22931,"lon":5.35377,"is_reserved":false,"is_disabled":false,"rental_uris":{"android":"levelo://app?vid=59207f80-49b5-42ac-bb06-77755ab51403","ios":"levelo://app?vid=59207f80-49b5-42ac-bb06-77755ab51403"},"vehicle_type_id":"4","last_reported":1728140895,"current_range_meters":36800,"station_id":"cpo3532slgdg3j2ikp40","pricing_plan_id":"cebpf4jnsgd1na2vs0mg"},{"bike_id":"0cdc0b25-f51b-449e-9863-f2104e0866e8","system_id":"levelo_inurba_marseille","lat":43.23062,"lon":5.35492,"is_reserved":false,"is_disabled":false,"rental_uris":{"android":"levelo://app?vid=0cdc0b25-f51b-449e-9863-f2104e0866e8","ios":"levelo://app?vid=0cdc0b25-f51b-449e-9863-f2104e0866e8"},"vehicle_type_id":"4","last_reported":1728140895,"current_range_meters":16800,"station_id":"cpo3342slgdg3j2ifvpg","pricing_plan_id":"cebpf4jnsgd1na2vs0mg"},{"bike_id":"d79ddb44-6eab-41f3-92d9-d10b1bc69c12","system_id":"levelo_inurba_marseille","lat":43.28722,"lon":5.36089,"is_reserved":false,"is_disabled":false,"rental_uris":{"android":"levelo://app?vid=d79ddb44-6eab-41f3-92d9-d10b1bc69c12","ios":"levelo://app?vid=d79ddb44-6eab-41f3-92d9-d10b1bc69c12"},"vehicle_type_id":"4","last_reported":1728140895,"current_range_meters":8000,"station_id":"cki0cbj6b192h4jlfktg","pricing_plan_id":"cebpf4jnsgd1na2vs0mg"},{"bike_id":"0e872a46-5e59-440a-9f11-8c5be8e7fd3e","system_id":"levelo_inurba_marseille","lat":43.24546,"lon":5.39525,"is_reserved":false,"is_disabled":false,"rental_uris":{"android":"levelo://app?vid=0e872a46-5e59-440a-9f11-8c5be8e7fd3e","ios":"levelo://app?vid=0e872a46-5e59-440a-9f11-8c5be8e7fd3e"},"vehicle_type_id":"4","last_reported":1728140895,"current_range_meters":17200,"station_id":"ce4bhlp2rcd13ifvqgjg","pricing_plan_id":"cebpf4jnsgd1na2vs0mg"},{"bike_id":"0ca07fa3-152b-408f-a0c8-d8cb71c7ddae","system_id":"levelo_inurba_marseille","lat":43.289795,"lon":5.355666,"is_reserved":false,"is_disabled":false,"rental_uris":{"android":"levelo://app?vid=0ca07fa3-152b-408f-a0c8-d8cb71c7ddae","ios":"levelo://app?vid=0ca07fa3-152b-408f-a0c8-d8cb71c7ddae"},"vehicle_type_id":"4","last_reported":1728140895,"current_range_meters":35600,"station_id":"ce4bh0p2rcd13ifvqd80","pricing_plan_id":"cebpf4jnsgd1na2vs0mg"},{"bike_id":"02830116-04b1-41e8-b8ba-fb8a313d2785","system_id":"levelo_inurba_marseille","lat":43.25929,"lon":5.40908,"is_reserved":false,"is_disabled":false,"rental_uris":{"android":"levelo://app?vid=02830116-04b1-41e8-b8ba-fb8a313d2785","ios":"levelo://app?vid=02830116-04b1-41e8-b8ba-fb8a313d2785"},"vehicle_type_id":"4","last_reported":1728140895,"current_range_meters":30800,"station_id":"ce4bhm92rcd13ifvqglg","pricing_plan_id":"cebpf4jnsgd1na2vs0mg"},{"bike_id":"e290a5ed-3d3b-477a-9716-8e8bf4065ca6","system_id":"levelo_inurba_marseille","lat":43.248016,"lon":5.374614,"is_reserved":false,"is_disabled":false,"rental_uris":{"android":"levelo://app?vid=e290a5ed-3d3b-477a-9716-8e8bf4065ca6","ios":"levelo://app?vid=e290a5ed-3d3b-477a-9716-8e8bf4065ca6"},"vehicle_type_id":"4","last_reported":1728140895,"current_range_meters":35200,"station_id":"ce4bhgh2rcd13ifvqfb0","pricing_plan_id":"cebpf4jnsgd1na2vs0mg"},{"bike_id":"bb5f5452-4b9b-417d-b148-b396a874f3d9","system_id":"levelo_inurba_marseille","lat":43.33778,"lon":5.37424,"is_reserved":false,"is_disabled":false,"rental_uris":{"android":"levelo://app?vid=bb5f5452-4b9b-417d-b148-b396a874f3d9","ios":"levelo://app?vid=bb5f5452-4b9b-417d-b148-b396a874f3d9"},"vehicle_type_id":"4","last_reported":1728140895,"current_range_meters":30800,"station_id":"","pricing_plan_id":"cebpf4jnsgd1na2vs0mg"},{"bike_id":"339379d0-d999-480d-88aa-4d631ed48008","system_id":"levelo_inurba_marseille","lat":43.2319,"lon":5.35544,"is_reserved":false,"is_disabled":false,"rental_uris":{"android":"levelo://app?vid=339379d0-d999-480d-88aa-4d631ed48008","ios":"levelo://app?vid=339379d0-d999-480d-88aa-4d631ed48008"},"vehicle_type_id":"4","last_reported":1728140895,"current_range_meters":32800,"station_id":"ce4bhu92rcd13ifvqi70","pricing_plan_id":"cebpf4jnsgd1na2vs0mg"},{"bike_id":"d7a0298f-5c2b-438d-ab05-5d6a7ac83160","system_id":"levelo_inurba_marseille","lat":43.30801,"lon":5.43527,"is_reserved":false,"is_disabled":false,"rental_uris":{"android":"levelo://app?vid=d7a0298f-5c2b-438d-ab05-5d6a7ac83160","ios":"levelo://app?vid=d7a0298f-5c2b-438d-ab05-5d6a7ac83160"},"vehicle_type_id":"4","last_reported":1728140895,"current_range_meters":36400,"station_id":"ce4bhph2rcd13ifvqheg","pricing_plan_id":"cebpf4jnsgd1na2vs0mg"},{"bike_id":"128c5cd4-d36f-4284-9306-f8fd33ea2446","system_id":"levelo_inurba_marseille","lat":43.29217,"lon":5.36051,"is_reserved":false,"is_disabled":false,"rental_uris":{"android":"levelo://app?vid=128c5cd4-d36f-4284-9306-f8fd33ea2446","ios":"levelo://app?vid=128c5cd4-d36f-4284-9306-f8fd33ea2446"},"vehicle_type_id":"4","last_reported":1728140895,"current_range_meters":36800,"station_id":"ce4bhbh2rcd13ifvqeqg","pricing_plan_id":"cebpf4jnsgd1na2vs0mg"},{"bike_id":"0dfdee1a-abbf-48b1-af75-bcda2f7c65f0","system_id":"levelo_inurba_marseille","lat":43.295471,"lon":5.422918,"is_reserved":false,"is_disabled":false,"rental_uris":{"android":"levelo://app?vid=0dfdee1a-abbf-48b1-af75-bcda2f7c65f0","ios":"levelo://app?vid=0dfdee1a-abbf-48b1-af75-bcda2f7c65f0"},"vehicle_type_id":"4","last_reported":1728140895,"current_range_meters":8000,"station_id":"ce4bhph2rcd13ifvqhdg","pricing_plan_id":"cebpf4jnsgd1na2vs0mg"},{"bike_id":"c5ef5736-de51-430b-a509-1c227684eef4","system_id":"levelo_inurba_marseille","lat":43.26498,"lon":5.39536,"is_reserved":false,"is_disabled":false,"rental_uris":{"android":"levelo://app?vid=c5ef5736-de51-430b-a509-1c227684eef4","ios":"levelo://app?vid=c5ef5736-de51-430b-a509-1c227684eef4"},"vehicle_type_id":"4","last_reported":1728140895,"current_range_meters":8800,"station_id":"ce4bhi12rcd13ifvqfq0","pricing_plan_id":"cebpf4jnsgd1na2vs0mg"},{"bike_id":"23161133-0ca2-4607-b419-0327faa07514","system_id":"levelo_inurba_marseille","lat":43.265619,"lon":5.390079,"is_reserved":false,"is_disabled":false,"rental_uris":{"android":"levelo://app?vid=23161133-0ca2-4607-b419-0327faa07514","ios":"levelo://app?vid=23161133-0ca2-4607-b419-0327faa07514"},"vehicle_type_id":"4","last_reported":1728140895,"current_range_meters":16400,"station_id":"ce4bhe12rcd13ifvqf30","pricing_plan_id":"cebpf4jnsgd1na2vs0mg"},{"bike_id":"570fe29c-0b1c-4868-855b-06dea0136ad6","system_id":"levelo_inurba_marseille","lat":43.30087,"lon":5.39075,"is_reserved":false,"is_disabled":false,"rental_uris":{"android":"levelo://app?vid=570fe29c-0b1c-4868-855b-06dea0136ad6","ios":"levelo://app?vid=570fe29c-0b1c-4868-855b-06dea0136ad6"},"vehicle_type_id":"4","last_reported":1728140895,"current_range_meters":4800,"station_id":"ce4bh192rcd13ifvqdb0","pricing_plan_id":"cebpf4jnsgd1na2vs0mg"},{"bike_id":"87714f12-79c6-4c9e-b577-429d48dc38d8","system_id":"levelo_inurba_marseille","lat":43.258673,"lon":5.398944,"is_reserved":false,"is_disabled":false,"rental_uris":{"android":"levelo://app?vid=87714f12-79c6-4c9e-b577-429d48dc38d8","ios":"levelo://app?vid=87714f12-79c6-4c9e-b577-429d48dc38d8"},"vehicle_type_id":"4","last_reported":1728140895,"current_range_meters":38800,"station_id":"ce4bhl92rcd13ifvqghg","pricing_plan_id":"cebpf4jnsgd1na2vs0mg"},{"bike_id":"3c594ac3-1f93-4473-8ff1-02ccb24acb6e","system_id":"levelo_inurba_marseille","lat":43.28415,"lon":5.34989,"is_reserved":false,"is_disabled":false,"rental_uris":{"android":"levelo://app?vid=3c594ac3-1f93-4473-8ff1-02ccb24acb6e","ios":"levelo://app?vid=3c594ac3-1f93-4473-8ff1-02ccb24acb6e"},"vehicle_type_id":"4","last_reported":1728140895,"current_range_meters":18000,"station_id":"ce4bhbh2rcd13ifvqepg","pricing_plan_id":"cebpf4jnsgd1na2vs0mg"},{"bike_id":"a45c5852-f993-434b-9e0e-aaf2278af56a","system_id":"levelo_inurba_marseille","lat":43.23195,"lon":5.35552,"is_reserved":false,"is_disabled":false,"rental_uris":{"android":"levelo://app?vid=a45c5852-f993-434b-9e0e-aaf2278af56a","ios":"levelo://app?vid=a45c5852-f993-434b-9e0e-aaf2278af56a"},"vehicle_type_id":"4","last_reported":1728140895,"current_range_meters":7200,"station_id":"ce4bhu92rcd13ifvqi70","pricing_plan_id":"cebpf4jnsgd1na2vs0mg"},{"bike_id":"57d7b7bf-9a1e-4c35-8388-96cc980f8410","system_id":"levelo_inurba_marseille","lat":43.22932,"lon":5.35372,"is_reserved":false,"is_disabled":false,"rental_uris":{"android":"levelo://app?vid=57d7b7bf-9a1e-4c35-8388-96cc980f8410","ios":"levelo://app?vid=57d7b7bf-9a1e-4c35-8388-96cc980f8410"},"vehicle_type_id":"4","last_reported":1728140895,"current_range_meters":14000,"station_id":"cpo3532slgdg3j2ikp40","pricing_plan_id":"cebpf4jnsgd1na2vs0mg"},{"bike_id":"7f98902d-9b2d-4675-b7fd-559fa2e689ba","system_id":"levelo_inurba_marseille","lat":43.24173,"lon":5.36381,"is_reserved":false,"is_disabled":false,"rental_uris":{"android":"levelo://app?vid=7f98902d-9b2d-4675-b7fd-559fa2e689ba","ios":"levelo://app?vid=7f98902d-9b2d-4675-b7fd-559fa2e689ba"},"vehicle_type_id":"4","last_reported":1728140895,"current_range_meters":37600,"station_id":"cpo36qri1sfpv3e86is0","pricing_plan_id":"cebpf4jnsgd1na2vs0mg"},{"bike_id":"271a4c83-2b64-4bd1-bcd2-8baa07f4b55b","system_id":"levelo_inurba_marseille","lat":43.281281,"lon":5.385915,"is_reserved":false,"is_disabled":false,"rental_uris":{"android":"levelo://app?vid=271a4c83-2b64-4bd1-bcd2-8baa07f4b55b","ios":"levelo://app?vid=271a4c83-2b64-4bd1-bcd2-8baa07f4b55b"},"vehicle_type_id":"4","last_reported":1728140895,"current_range_meters":33600,"station_id":"ce4bhh12rcd13ifvqff0","pricing_plan_id":"cebpf4jnsgd1na2vs0mg"},{"bike_id":"d0267f80-e651-4fa4-b6c1-7673acbee960","system_id":"levelo_inurba_marseille","lat":43.28453,"lon":5.35895,"is_reserved":false,"is_disabled":false,"rental_uris":{"android":"levelo://app?vid=d0267f80-e651-4fa4-b6c1-7673acbee960","ios":"levelo://app?vid=d0267f80-e651-4fa4-b6c1-7673acbee960"},"vehicle_type_id":"4","last_reported":1728140895,"current_range_meters":7200,"station_id":"ce4bhah2rcd13ifvqei0","pricing_plan_id":"cebpf4jnsgd1na2vs0mg"},{"bike_id":"928880f0-bc65-4cc9-9f46-a1792cd0060c","system_id":"levelo_inurba_marseille","lat":43.23189,"lon":5.35558,"is_reserved":false,"is_disabled":false,"rental_uris":{"android":"levelo://app?vid=928880f0-bc65-4cc9-9f46-a1792cd0060c","ios":"levelo://app?vid=928880f0-bc65-4cc9-9f46-a1792cd0060c"},"vehicle_type_id":"4","last_reported":1728140895,"current_range_meters":20400,"station_id":"ce4bhu92rcd13ifvqi70","pricing_plan_id":"cebpf4jnsgd1na2vs0mg"},{"bike_id":"d25e1e54-5a4a-4edd-9fb7-a14ca4c40f80","system_id":"levelo_inurba_marseille","lat":43.22928,"lon":5.35374,"is_reserved":false,"is_disabled":false,"rental_uris":{"android":"levelo://app?vid=d25e1e54-5a4a-4edd-9fb7-a14ca4c40f80","ios":"levelo://app?vid=d25e1e54-5a4a-4edd-9fb7-a14ca4c40f80"},"vehicle_type_id":"4","last_reported":1728140895,"current_range_meters":27200,"station_id":"cpo3532slgdg3j2ikp40","pricing_plan_id":"cebpf4jnsgd1na2vs0mg"},{"bike_id":"d2b0596a-338c-475c-a27f-f53ce416452a","system_id":"levelo_inurba_marseille","lat":43.31066,"lon":5.40095,"is_reserved":false,"is_disabled":false,"rental_uris":{"android":"levelo://app?vid=d2b0596a-338c-475c-a27f-f53ce416452a","ios":"levelo://app?vid=d2b0596a-338c-475c-a27f-f53ce416452a"},"vehicle_type_id":"4","last_reported":1728140895,"current_range_meters":22400,"station_id":"","pricing_plan_id":"cebpf4jnsgd1na2vs0mg"},{"bike_id":"90e2e504-c450-4c38-b714-4638c010d9cb","system_id":"levelo_inurba_marseille","lat":43.23152,"lon":5.43694,"is_reserved":false,"is_disabled":false,"rental_uris":{"android":"levelo://app?vid=90e2e504-c450-4c38-b714-4638c010d9cb","ios":"levelo://app?vid=90e2e504-c450-4c38-b714-4638c010d9cb"},"vehicle_type_id":"4","last_reported":1728140895,"current_range_meters":35600,"station_id":"ce4bhmp2rcd13ifvqgog","pricing_plan_id":"cebpf4jnsgd1na2vs0mg"},{"bike_id":"3f3c44f3-0b8b-41b2-b44f-82fc53d2b064","system_id":"levelo_inurba_marseille","lat":43.32286,"lon":5.38264,"is_reserved":false,"is_disabled":false,"rental_uris":{"android":"levelo://app?vid=3f3c44f3-0b8b-41b2-b44f-82fc53d2b064","ios":"levelo://app?vid=3f3c44f3-0b8b-41b2-b44f-82fc53d2b064"},"vehicle_type_id":"4","last_reported":1728140895,"current_range_meters":39200,"station_id":"ce4bhr12rcd13ifvqhqg","pricing_plan_id":"cebpf4jnsgd1na2vs0mg"},{"bike_id":"32ceac28-dacd-4d4c-9c55-d75f7e6d1aa1","system_id":"levelo_inurba_marseille","lat":43.30798,"lon":5.43532,"is_reserved":false,"is_disabled":false,"rental_uris":{"android":"levelo://app?vid=32ceac28-dacd-4d4c-9c55-d75f7e6d1aa1","ios":"levelo://app?vid=32ceac28-dacd-4d4c-9c55-d75f7e6d1aa1"},"vehicle_type_id":"4","last_reported":1728140895,"current_range_meters":9200,"station_id":"ce4bhph2rcd13ifvqheg","pricing_plan_id":"cebpf4jnsgd1na2vs0mg"},{"bike_id":"ab818bb7-e39d-4902-8113-7452c7dbfb1a","system_id":"levelo_inurba_marseille","lat":43.23177,"lon":5.43678,"is_reserved":false,"is_disabled":false,"rental_uris":{"android":"levelo://app?vid=ab818bb7-e39d-4902-8113-7452c7dbfb1a","ios":"levelo://app?vid=ab818bb7-e39d-4902-8113-7452c7dbfb1a"},"vehicle_type_id":"4","last_reported":1728140895,"current_range_meters":20800,"station_id":"ce4bhmp2rcd13ifvqgog","pricing_plan_id":"cebpf4jnsgd1na2vs0mg"},{"bike_id":"a1896257-61e8-4c60-ac22-7260bfd2fd36","system_id":"levelo_inurba_marseille","lat":43.29524,"lon":5.38546,"is_reserved":false,"is_disabled":false,"rental_uris":{"android":"levelo://app?vid=a1896257-61e8-4c60-ac22-7260bfd2fd36","ios":"levelo://app?vid=a1896257-61e8-4c60-ac22-7260bfd2fd36"},"vehicle_type_id":"4","last_reported":1728140895,"current_range_meters":22000,"station_id":"ce4bgih2rcd13ifvqba0","pricing_plan_id":"cebpf4jnsgd1na2vs0mg"},{"bike_id":"d54b1158-ec6f-4dc3-a7e1-2d0b5958261d","system_id":"levelo_inurba_marseille","lat":43.2955,"lon":5.42283,"is_reserved":false,"is_disabled":false,"rental_uris":{"android":"levelo://app?vid=d54b1158-ec6f-4dc3-a7e1-2d0b5958261d","ios":"levelo://app?vid=d54b1158-ec6f-4dc3-a7e1-2d0b5958261d"},"vehicle_type_id":"4","last_reported":1728140895,"current_range_meters":38800,"station_id":"ce4bhph2rcd13ifvqhdg","pricing_plan_id":"cebpf4jnsgd1na2vs0mg"},{"bike_id":"3813c099-7014-4a2e-b064-ed14bf6f9b6c","system_id":"levelo_inurba_marseille","lat":43.29724,"lon":5.377,"is_reserved":false,"is_disabled":false,"rental_uris":{"android":"levelo://app?vid=3813c099-7014-4a2e-b064-ed14bf6f9b6c","ios":"levelo://app?vid=3813c099-7014-4a2e-b064-ed14bf6f9b6c"},"vehicle_type_id":"4","last_reported":1728140895,"current_range_meters":21600,"station_id":"ce4bgkh2rcd13ifvqbl0","pricing_plan_id":"cebpf4jnsgd1na2vs0mg"},{"bike_id":"dd6dec80-28ba-4486-bbaf-f03cc69f99fc","system_id":"levelo_inurba_marseille","lat":43.27374,"lon":5.36256,"is_reserved":false,"is_disabled":false,"rental_uris":{"android":"levelo://app?vid=dd6dec80-28ba-4486-bbaf-f03cc69f99fc","ios":"levelo://app?vid=dd6dec80-28ba-4486-bbaf-f03cc69f99fc"},"vehicle_type_id":"4","last_reported":1728140895,"current_range_meters":8400,"station_id":"ce4bhbh2rcd13ifvqeo0","pricing_plan_id":"cebpf4jnsgd1na2vs0mg"},{"bike_id":"6987c47d-0d33-45ce-b797-53975709d599","system_id":"levelo_inurba_marseille","lat":43.2905,"lon":5.37561,"is_reserved":false,"is_disabled":false,"rental_uris":{"android":"levelo://app?vid=6987c47d-0d33-45ce-b797-53975709d599","ios":"levelo://app?vid=6987c47d-0d33-45ce-b797-53975709d599"},"vehicle_type_id":"4","last_reported":1728140895,"current_range_meters":34000,"station_id":"ce4bh692rcd13ifvqe90","pricing_plan_id":"cebpf4jnsgd1na2vs0mg"},{"bike_id":"9c3ffd87-5c7b-42d5-a21a-6e34b318b60d","system_id":"levelo_inurba_marseille","lat":43.32291,"lon":5.38265,"is_reserved":false,"is_disabled":false,"rental_uris":{"android":"levelo://app?vid=9c3ffd87-5c7b-42d5-a21a-6e34b318b60d","ios":"levelo://app?vid=9c3ffd87-5c7b-42d5-a21a-6e34b318b60d"},"vehicle_type_id":"4","last_reported":1728140895,"current_range_meters":24000,"station_id":"ce4bhr12rcd13ifvqhqg","pricing_plan_id":"cebpf4jnsgd1na2vs0mg"},{"bike_id":"d9513a24-3235-43a7-b9a5-1c5cfe37603f","system_id":"levelo_inurba_marseille","lat":43.23052,"lon":5.35486,"is_reserved":false,"is_disabled":false,"rental_uris":{"android":"levelo://app?vid=d9513a24-3235-43a7-b9a5-1c5cfe37603f","ios":"levelo://app?vid=d9513a24-3235-43a7-b9a5-1c5cfe37603f"},"vehicle_type_id":"4","last_reported":1728140895,"current_range_meters":19200,"station_id":"cpo3342slgdg3j2ifvpg","pricing_plan_id":"cebpf4jnsgd1na2vs0mg"},{"bike_id":"80883cfe-f6ff-4203-89b1-e5cb91df708a","system_id":"levelo_inurba_marseille","lat":43.32047,"lon":5.41546,"is_reserved":false,"is_disabled":false,"rental_uris":{"android":"levelo://app?vid=80883cfe-f6ff-4203-89b1-e5cb91df708a","ios":"levelo://app?vid=80883cfe-f6ff-4203-89b1-e5cb91df708a"},"vehicle_type_id":"4","last_reported":1728140895,"current_range_meters":6400,"station_id":"ce4bhq92rcd13ifvqhkg","pricing_plan_id":"cebpf4jnsgd1na2vs0mg"},{"bike_id":"009d6d0e-c1a8-4ddc-b330-ebf04e9c45b9","system_id":"levelo_inurba_marseille","lat":43.299021,"lon":5.436771,"is_reserved":false,"is_disabled":false,"rental_uris":{"android":"levelo://app?vid=009d6d0e-c1a8-4ddc-b330-ebf04e9c45b9","ios":"levelo://app?vid=009d6d0e-c1a8-4ddc-b330-ebf04e9c45b9"},"vehicle_type_id":"4","last_reported":1728140895,"current_range_meters":20000,"station_id":"ce4bhpp2rcd13ifvqhfg","pricing_plan_id":"cebpf4jnsgd1na2vs0mg"},{"bike_id":"e7fac05a-4c4e-41ce-ab6d-317b7f2d7665","system_id":"levelo_inurba_marseille","lat":43.27377,"lon":5.36252,"is_reserved":false,"is_disabled":false,"rental_uris":{"android":"levelo://app?vid=e7fac05a-4c4e-41ce-ab6d-317b7f2d7665","ios":"levelo://app?vid=e7fac05a-4c4e-41ce-ab6d-317b7f2d7665"},"vehicle_type_id":"4","last_reported":1728140895,"current_range_meters":36800,"station_id":"ce4bhbh2rcd13ifvqeo0","pricing_plan_id":"cebpf4jnsgd1na2vs0mg"},{"bike_id":"e801b355-6ede-41f3-aa7c-a02edf287c12","system_id":"levelo_inurba_marseille","lat":43.23197,"lon":5.35546,"is_reserved":false,"is_disabled":false,"rental_uris":{"android":"levelo://app?vid=e801b355-6ede-41f3-aa7c-a02edf287c12","ios":"levelo://app?vid=e801b355-6ede-41f3-aa7c-a02edf287c12"},"vehicle_type_id":"4","last_reported":1728140895,"current_range_meters":17200,"station_id":"ce4bhu92rcd13ifvqi70","pricing_plan_id":"cebpf4jnsgd1na2vs0mg"},{"bike_id":"6a0dcba0-056e-43b2-bae1-bcfb03a64e1f","system_id":"levelo_inurba_marseille","lat":43.23191,"lon":5.3555,"is_reserved":false,"is_disabled":false,"rental_uris":{"android":"levelo://app?vid=6a0dcba0-056e-43b2-bae1-bcfb03a64e1f","ios":"levelo://app?vid=6a0dcba0-056e-43b2-bae1-bcfb03a64e1f"},"vehicle_type_id":"4","last_reported":1728140895,"current_range_meters":8800,"station_id":"ce4bhu92rcd13ifvqi70","pricing_plan_id":"cebpf4jnsgd1na2vs0mg"},{"bike_id":"4e0c83a2-b0c3-4894-8559-e509681998d3","system_id":"levelo_inurba_marseille","lat":43.3112,"lon":5.3833,"is_reserved":false,"is_disabled":false,"rental_uris":{"android":"levelo://app?vid=4e0c83a2-b0c3-4894-8559-e509681998d3","ios":"levelo://app?vid=4e0c83a2-b0c3-4894-8559-e509681998d3"},"vehicle_type_id":"4","last_reported":1728140895,"current_range_meters":16000,"station_id":"ce4bgv92rcd13ifvqcr0","pricing_plan_id":"cebpf4jnsgd1na2vs0mg"},{"bike_id":"3c797729-0364-42b3-8e58-4709c41c4a3c","system_id":"levelo_inurba_marseille","lat":43.30797,"lon":5.43522,"is_reserved":false,"is_disabled":false,"rental_uris":{"android":"levelo://app?vid=3c797729-0364-42b3-8e58-4709c41c4a3c","ios":"levelo://app?vid=3c797729-0364-42b3-8e58-4709c41c4a3c"},"vehicle_type_id":"4","last_reported":1728140895,"current_range_meters":24800,"station_id":"ce4bhph2rcd13ifvqheg","pricing_plan_id":"cebpf4jnsgd1na2vs0mg"},{"bike_id":"67674c98-3710-428e-a3e8-cdd3710acc1a","system_id":"levelo_inurba_marseille","lat":43.2293,"lon":5.35377,"is_reserved":false,"is_disabled":false,"rental_uris":{"android":"levelo://app?vid=67674c98-3710-428e-a3e8-cdd3710acc1a","ios":"levelo://app?vid=67674c98-3710-428e-a3e8-cdd3710acc1a"},"vehicle_type_id":"4","last_reported":1728140895,"current_range_meters":9200,"station_id":"cpo3532slgdg3j2ikp40","pricing_plan_id":"cebpf4jnsgd1na2vs0mg"},{"bike_id":"3b64c3b7-cfdb-41a7-b0be-5f6e1daf96e6","system_id":"levelo_inurba_marseille","lat":43.23188,"lon":5.35554,"is_reserved":false,"is_disabled":false,"rental_uris":{"android":"levelo://app?vid=3b64c3b7-cfdb-41a7-b0be-5f6e1daf96e6","ios":"levelo://app?vid=3b64c3b7-cfdb-41a7-b0be-5f6e1daf96e6"},"vehicle_type_id":"4","last_reported":1728140895,"current_range_meters":22400,"station_id":"ce4bhu92rcd13ifvqi70","pricing_plan_id":"cebpf4jnsgd1na2vs0mg"},{"bike_id":"5cb9c3d0-1f8c-467b-a2d2-63c11c50904c","system_id":"levelo_inurba_marseille","lat":43.28155,"lon":5.42637,"is_reserved":false,"is_disabled":false,"rental_uris":{"android":"levelo://app?vid=5cb9c3d0-1f8c-467b-a2d2-63c11c50904c","ios":"levelo://app?vid=5cb9c3d0-1f8c-467b-a2d2-63c11c50904c"},"vehicle_type_id":"4","last_reported":1728140895,"current_range_meters":6000,"station_id":"ce4bhnh2rcd13ifvqgug","pricing_plan_id":"cebpf4jnsgd1na2vs0mg"},{"bike_id":"3d72c258-bc4a-4844-b334-900f22273f09","system_id":"levelo_inurba_marseille","lat":43.24392,"lon":5.37061,"is_reserved":false,"is_disabled":false,"rental_uris":{"android":"levelo://app?vid=3d72c258-bc4a-4844-b334-900f22273f09","ios":"levelo://app?vid=3d72c258-bc4a-4844-b334-900f22273f09"},"vehicle_type_id":"4","last_reported":1728140895,"current_range_meters":36800,"station_id":"ce4bhhh2rcd13ifvqfk0","pricing_plan_id":"cebpf4jnsgd1na2vs0mg"},{"bike_id":"df9e92cf-cd3a-4a83-9edf-c954a56f28d1","system_id":"levelo_inurba_marseille","lat":43.29302,"lon":5.3746,"is_reserved":false,"is_disabled":false,"rental_uris":{"android":"levelo://app?vid=df9e92cf-cd3a-4a83-9edf-c954a56f28d1","ios":"levelo://app?vid=df9e92cf-cd3a-4a83-9edf-c954a56f28d1"},"vehicle_type_id":"4","last_reported":1728140895,"current_range_meters":38800,"station_id":"ce4bgi12rcd13ifvqb70","pricing_plan_id":"cebpf4jnsgd1na2vs0mg"},{"bike_id":"bdefae95-7cc5-4880-bfcb-b1af39586be0","system_id":"levelo_inurba_marseille","lat":43.32658,"lon":5.40983,"is_reserved":false,"is_disabled":false,"rental_uris":{"android":"levelo://app?vid=bdefae95-7cc5-4880-bfcb-b1af39586be0","ios":"levelo://app?vid=bdefae95-7cc5-4880-bfcb-b1af39586be0"},"vehicle_type_id":"4","last_reported":1728140895,"current_range_meters":38800,"station_id":"ce4bhpp2rcd13ifvqhgg","pricing_plan_id":"cebpf4jnsgd1na2vs0mg"},{"bike_id":"cf6e7575-69fe-41da-8916-745f8f355abb","system_id":"levelo_inurba_marseille","lat":43.24555,"lon":5.39524,"is_reserved":false,"is_disabled":false,"rental_uris":{"android":"levelo://app?vid=cf6e7575-69fe-41da-8916-745f8f355abb","ios":"levelo://app?vid=cf6e7575-69fe-41da-8916-745f8f355abb"},"vehicle_type_id":"4","last_reported":1728140895,"current_range_meters":38400,"station_id":"ce4bhlp2rcd13ifvqgjg","pricing_plan_id":"cebpf4jnsgd1na2vs0mg"},{"bike_id":"e03c9d0c-17ae-4003-b903-fd8aa9951041","system_id":"levelo_inurba_marseille","lat":43.33741,"lon":5.37445,"is_reserved":false,"is_disabled":false,"rental_uris":{"android":"levelo://app?vid=e03c9d0c-17ae-4003-b903-fd8aa9951041","ios":"levelo://app?vid=e03c9d0c-17ae-4003-b903-fd8aa9951041"},"vehicle_type_id":"4","last_reported":1728140895,"current_range_meters":38400,"station_id":"","pricing_plan_id":"cebpf4jnsgd1na2vs0mg"},{"bike_id":"c994bcf0-7d2b-4af3-93da-7d371e97f7eb","system_id":"levelo_inurba_marseille","lat":43.22928,"lon":5.35371,"is_reserved":false,"is_disabled":false,"rental_uris":{"android":"levelo://app?vid=c994bcf0-7d2b-4af3-93da-7d371e97f7eb","ios":"levelo://app?vid=c994bcf0-7d2b-4af3-93da-7d371e97f7eb"},"vehicle_type_id":"4","last_reported":1728140895,"current_range_meters":9200,"station_id":"cpo3532slgdg3j2ikp40","pricing_plan_id":"cebpf4jnsgd1na2vs0mg"},{"bike_id":"aa8c1e7e-9d10-425c-aeaf-ff46d1a0e236","system_id":"levelo_inurba_marseille","lat":43.28405,"lon":5.37507,"is_reserved":false,"is_disabled":false,"rental_uris":{"android":"levelo://app?vid=aa8c1e7e-9d10-425c-aeaf-ff46d1a0e236","ios":"levelo://app?vid=aa8c1e7e-9d10-425c-aeaf-ff46d1a0e236"},"vehicle_type_id":"4","last_reported":1728140895,"current_range_meters":24800,"station_id":"ce4bh412rcd13ifvqds0","pricing_plan_id":"cebpf4jnsgd1na2vs0mg"},{"bike_id":"aaac7e81-9613-477c-9dbe-60327f589f91","system_id":"levelo_inurba_marseille","lat":43.31713,"lon":5.43696,"is_reserved":false,"is_disabled":false,"rental_uris":{"android":"levelo://app?vid=aaac7e81-9613-477c-9dbe-60327f589f91","ios":"levelo://app?vid=aaac7e81-9613-477c-9dbe-60327f589f91"},"vehicle_type_id":"4","last_reported":1728140895,"current_range_meters":29600,"station_id":"ce4bhp92rcd13ifvqhcg","pricing_plan_id":"cebpf4jnsgd1na2vs0mg"},{"bike_id":"2f65af92-a0a7-40f8-b601-a1926760aa1b","system_id":"levelo_inurba_marseille","lat":43.24169,"lon":5.36383,"is_reserved":false,"is_disabled":false,"rental_uris":{"android":"levelo://app?vid=2f65af92-a0a7-40f8-b601-a1926760aa1b","ios":"levelo://app?vid=2f65af92-a0a7-40f8-b601-a1926760aa1b"},"vehicle_type_id":"4","last_reported":1728140895,"current_range_meters":20400,"station_id":"cpo36qri1sfpv3e86is0","pricing_plan_id":"cebpf4jnsgd1na2vs0mg"},{"bike_id":"22f3e562-524d-4355-8806-13e5eccf368f","system_id":"levelo_inurba_marseille","lat":43.23058,"lon":5.35489,"is_reserved":false,"is_disabled":false,"rental_uris":{"android":"levelo://app?vid=22f3e562-524d-4355-8806-13e5eccf368f","ios":"levelo://app?vid=22f3e562-524d-4355-8806-13e5eccf368f"},"vehicle_type_id":"4","last_reported":1728140895,"current_range_meters":28800,"station_id":"cpo3342slgdg3j2ifvpg","pricing_plan_id":"cebpf4jnsgd1na2vs0mg"},{"bike_id":"66fc4e44-2f16-4a75-b598-1ac641b33b57","system_id":"levelo_inurba_marseille","lat":43.27073,"lon":5.42287,"is_reserved":false,"is_disabled":false,"rental_uris":{"android":"levelo://app?vid=66fc4e44-2f16-4a75-b598-1ac641b33b57","ios":"levelo://app?vid=66fc4e44-2f16-4a75-b598-1ac641b33b57"},"vehicle_type_id":"4","last_reported":1728140895,"current_range_meters":8400,"station_id":"ce4bhk92rcd13ifvqgb0","pricing_plan_id":"cebpf4jnsgd1na2vs0mg"},{"bike_id":"b6a817d8-5787-46a3-898e-0b46c75fc481","system_id":"levelo_inurba_marseille","lat":43.32965,"lon":5.40344,"is_reserved":false,"is_disabled":false,"rental_uris":{"android":"levelo://app?vid=b6a817d8-5787-46a3-898e-0b46c75fc481","ios":"levelo://app?vid=b6a817d8-5787-46a3-898e-0b46c75fc481"},"vehicle_type_id":"4","last_reported":1728140895,"current_range_meters":6000,"station_id":"","pricing_plan_id":"cebpf4jnsgd1na2vs0mg"},{"bike_id":"524e4691-54b9-421d-808d-78c4d20f022f","system_id":"levelo_inurba_marseille","lat":43.23196,"lon":5.35552,"is_reserved":false,"is_disabled":false,"rental_uris":{"android":"levelo://app?vid=524e4691-54b9-421d-808d-78c4d20f022f","ios":"levelo://app?vid=524e4691-54b9-421d-808d-78c4d20f022f"},"vehicle_type_id":"4","last_reported":1728140895,"current_range_meters":32000,"station_id":"ce4bhu92rcd13ifvqi70","pricing_plan_id":"cebpf4jnsgd1na2vs0mg"},{"bike_id":"fcee5d9d-c512-4424-a5e2-0c0b879f5951","system_id":"levelo_inurba_marseille","lat":43.24174,"lon":5.364,"is_reserved":false,"is_disabled":false,"rental_uris":{"android":"levelo://app?vid=fcee5d9d-c512-4424-a5e2-0c0b879f5951","ios":"levelo://app?vid=fcee5d9d-c512-4424-a5e2-0c0b879f5951"},"vehicle_type_id":"4","last_reported":1728140895,"current_range_meters":12000,"station_id":"cpo36qri1sfpv3e86is0","pricing_plan_id":"cebpf4jnsgd1na2vs0mg"},{"bike_id":"6856d22e-440d-40d9-809f-3167dacdbdc3","system_id":"levelo_inurba_marseille","lat":43.337444,"lon":5.374475,"is_reserved":false,"is_disabled":false,"rental_uris":{"android":"levelo://app?vid=6856d22e-440d-40d9-809f-3167dacdbdc3","ios":"levelo://app?vid=6856d22e-440d-40d9-809f-3167dacdbdc3"},"vehicle_type_id":"4","last_reported":1728140895,"current_range_meters":18800,"station_id":"","pricing_plan_id":"cebpf4jnsgd1na2vs0mg"},{"bike_id":"a40bb3c8-e13d-40d0-acfc-49ff8d30ec4e","system_id":"levelo_inurba_marseille","lat":43.26566,"lon":5.39008,"is_reserved":false,"is_disabled":false,"rental_uris":{"android":"levelo://app?vid=a40bb3c8-e13d-40d0-acfc-49ff8d30ec4e","ios":"levelo://app?vid=a40bb3c8-e13d-40d0-acfc-49ff8d30ec4e"},"vehicle_type_id":"4","last_reported":1728140895,"current_range_meters":30800,"station_id":"ce4bhe12rcd13ifvqf30","pricing_plan_id":"cebpf4jnsgd1na2vs0mg"},{"bike_id":"ec028786-f7f2-4a23-91c8-5f80674b28f6","system_id":"levelo_inurba_marseille","lat":43.29704,"lon":5.36614,"is_reserved":false,"is_disabled":false,"rental_uris":{"android":"levelo://app?vid=ec028786-f7f2-4a23-91c8-5f80674b28f6","ios":"levelo://app?vid=ec028786-f7f2-4a23-91c8-5f80674b28f6"},"vehicle_type_id":"4","last_reported":1728140895,"current_range_meters":6000,"station_id":"ce4bgn12rcd13ifvqbt0","pricing_plan_id":"cebpf4jnsgd1na2vs0mg"},{"bike_id":"64bd957e-b978-44cb-a85c-928d627d24ec","system_id":"levelo_inurba_marseille","lat":43.35424,"lon":5.35869,"is_reserved":false,"is_disabled":false,"rental_uris":{"android":"levelo://app?vid=64bd957e-b978-44cb-a85c-928d627d24ec","ios":"levelo://app?vid=64bd957e-b978-44cb-a85c-928d627d24ec"},"vehicle_type_id":"4","last_reported":1728140895,"current_range_meters":7200,"station_id":"","pricing_plan_id":"cebpf4jnsgd1na2vs0mg"},{"bike_id":"64995d1a-0a95-43c1-8426-b3115325266b","system_id":"levelo_inurba_marseille","lat":43.27915,"lon":5.42301,"is_reserved":false,"is_disabled":false,"rental_uris":{"android":"levelo://app?vid=64995d1a-0a95-43c1-8426-b3115325266b","ios":"levelo://app?vid=64995d1a-0a95-43c1-8426-b3115325266b"},"vehicle_type_id":"4","last_reported":1728140895,"current_range_meters":16400,"station_id":"","pricing_plan_id":"cebpf4jnsgd1na2vs0mg"},{"bike_id":"19efa9c6-0eee-42bc-8288-1176feaeb485","system_id":"levelo_inurba_marseille","lat":43.2707,"lon":5.42286,"is_reserved":false,"is_disabled":false,"rental_uris":{"android":"levelo://app?vid=19efa9c6-0eee-42bc-8288-1176feaeb485","ios":"levelo://app?vid=19efa9c6-0eee-42bc-8288-1176feaeb485"},"vehicle_type_id":"4","last_reported":1728140895,"current_range_meters":22400,"station_id":"ce4bhk92rcd13ifvqgb0","pricing_plan_id":"cebpf4jnsgd1na2vs0mg"},{"bike_id":"f3564a94-4990-42e2-a0f5-829080a91016","system_id":"levelo_inurba_marseille","lat":43.32109,"lon":5.36762,"is_reserved":false,"is_disabled":false,"rental_uris":{"android":"levelo://app?vid=f3564a94-4990-42e2-a0f5-829080a91016","ios":"levelo://app?vid=f3564a94-4990-42e2-a0f5-829080a91016"},"vehicle_type_id":"4","last_reported":1728140895,"current_range_meters":25600,"station_id":"ce4bhrh2rcd13ifvqhug","pricing_plan_id":"cebpf4jnsgd1na2vs0mg"},{"bike_id":"f2b2e43c-e08f-4821-8fbf-8a978b59697f","system_id":"levelo_inurba_marseille","lat":43.28423,"lon":5.34989,"is_reserved":false,"is_disabled":false,"rental_uris":{"android":"levelo://app?vid=f2b2e43c-e08f-4821-8fbf-8a978b59697f","ios":"levelo://app?vid=f2b2e43c-e08f-4821-8fbf-8a978b59697f"},"vehicle_type_id":"4","last_reported":1728140895,"current_range_meters":30800,"station_id":"ce4bhbh2rcd13ifvqepg","pricing_plan_id":"cebpf4jnsgd1na2vs0mg"},{"bike_id":"f2ff4eff-ac8b-4949-beb6-11b6bc23ffc4","system_id":"levelo_inurba_marseille","lat":43.25104,"lon":5.40324,"is_reserved":false,"is_disabled":false,"rental_uris":{"android":"levelo://app?vid=f2ff4eff-ac8b-4949-beb6-11b6bc23ffc4","ios":"levelo://app?vid=f2ff4eff-ac8b-4949-beb6-11b6bc23ffc4"},"vehicle_type_id":"4","last_reported":1728140895,"current_range_meters":3200,"station_id":"ce4bhlh2rcd13ifvqgig","pricing_plan_id":"cebpf4jnsgd1na2vs0mg"},{"bike_id":"79d4ce44-dde0-4856-adfb-9d048612b764","system_id":"levelo_inurba_marseille","lat":43.337656,"lon":5.374332,"is_reserved":false,"is_disabled":false,"rental_uris":{"android":"levelo://app?vid=79d4ce44-dde0-4856-adfb-9d048612b764","ios":"levelo://app?vid=79d4ce44-dde0-4856-adfb-9d048612b764"},"vehicle_type_id":"4","last_reported":1728140895,"current_range_meters":38000,"station_id":"","pricing_plan_id":"cebpf4jnsgd1na2vs0mg"},{"bike_id":"6362dd7e-711b-4b82-af8e-291ea8f6ea1e","system_id":"levelo_inurba_marseille","lat":43.33772,"lon":5.37429,"is_reserved":false,"is_disabled":false,"rental_uris":{"android":"levelo://app?vid=6362dd7e-711b-4b82-af8e-291ea8f6ea1e","ios":"levelo://app?vid=6362dd7e-711b-4b82-af8e-291ea8f6ea1e"},"vehicle_type_id":"4","last_reported":1728140895,"current_range_meters":36400,"station_id":"","pricing_plan_id":"cebpf4jnsgd1na2vs0mg"},{"bike_id":"1972d4d6-14d2-425b-9dea-fca5a8a84911","system_id":"levelo_inurba_marseille","lat":43.28937,"lon":5.36645,"is_reserved":false,"is_disabled":false,"rental_uris":{"android":"levelo://app?vid=1972d4d6-14d2-425b-9dea-fca5a8a84911","ios":"levelo://app?vid=1972d4d6-14d2-425b-9dea-fca5a8a84911"},"vehicle_type_id":"4","last_reported":1728140895,"current_range_meters":8000,"station_id":"ce4bhap2rcd13ifvqek0","pricing_plan_id":"cebpf4jnsgd1na2vs0mg"},{"bike_id":"22184ed8-d8fc-4dca-b974-1fe10b24a5a2","system_id":"levelo_inurba_marseille","lat":43.28426,"lon":5.34989,"is_reserved":false,"is_disabled":false,"rental_uris":{"android":"levelo://app?vid=22184ed8-d8fc-4dca-b974-1fe10b24a5a2","ios":"levelo://app?vid=22184ed8-d8fc-4dca-b974-1fe10b24a5a2"},"vehicle_type_id":"4","last_reported":1728140895,"current_range_meters":32800,"station_id":"ce4bhbh2rcd13ifvqepg","pricing_plan_id":"cebpf4jnsgd1na2vs0mg"},{"bike_id":"20f92bfc-33ce-432f-91cf-33e093a85105","system_id":"levelo_inurba_marseille","lat":43.24069,"lon":5.37756,"is_reserved":false,"is_disabled":false,"rental_uris":{"android":"levelo://app?vid=20f92bfc-33ce-432f-91cf-33e093a85105","ios":"levelo://app?vid=20f92bfc-33ce-432f-91cf-33e093a85105"},"vehicle_type_id":"4","last_reported":1728140895,"current_range_meters":14800,"station_id":"ce4bhnp2rcd13ifvqgvg","pricing_plan_id":"cebpf4jnsgd1na2vs0mg"},{"bike_id":"5305316b-eb43-43cb-bedf-3a735be36892","system_id":"levelo_inurba_marseille","lat":43.31715,"lon":5.43706,"is_reserved":false,"is_disabled":false,"rental_uris":{"android":"levelo://app?vid=5305316b-eb43-43cb-bedf-3a735be36892","ios":"levelo://app?vid=5305316b-eb43-43cb-bedf-3a735be36892"},"vehicle_type_id":"4","last_reported":1728140895,"current_range_meters":37600,"station_id":"ce4bhp92rcd13ifvqhcg","pricing_plan_id":"cebpf4jnsgd1na2vs0mg"},{"bike_id":"191082f3-d6c6-4cdf-af68-76e707014d20","system_id":"levelo_inurba_marseille","lat":43.26804,"lon":5.40256,"is_reserved":false,"is_disabled":false,"rental_uris":{"android":"levelo://app?vid=191082f3-d6c6-4cdf-af68-76e707014d20","ios":"levelo://app?vid=191082f3-d6c6-4cdf-af68-76e707014d20"},"vehicle_type_id":"4","last_reported":1728140895,"current_range_meters":18000,"station_id":"ce501612rcd8frsf0b60","pricing_plan_id":"cebpf4jnsgd1na2vs0mg"},{"bike_id":"c4e3cfb6-43a7-40a1-8fc8-d96e5d94335c","system_id":"levelo_inurba_marseille","lat":43.23961,"lon":5.3664,"is_reserved":false,"is_disabled":false,"rental_uris":{"android":"levelo://app?vid=c4e3cfb6-43a7-40a1-8fc8-d96e5d94335c","ios":"levelo://app?vid=c4e3cfb6-43a7-40a1-8fc8-d96e5d94335c"},"vehicle_type_id":"4","last_reported":1728140895,"current_range_meters":19200,"station_id":"ce4bhi12rcd13ifvqfp0","pricing_plan_id":"cebpf4jnsgd1na2vs0mg"},{"bike_id":"40589bbd-7420-4274-9f3f-c73d42cd89eb","system_id":"levelo_inurba_marseille","lat":43.28613,"lon":5.37059,"is_reserved":false,"is_disabled":false,"rental_uris":{"android":"levelo://app?vid=40589bbd-7420-4274-9f3f-c73d42cd89eb","ios":"levelo://app?vid=40589bbd-7420-4274-9f3f-c73d42cd89eb"},"vehicle_type_id":"4","last_reported":1728140895,"current_range_meters":27600,"station_id":"ce4bht12rcd13ifvqi60","pricing_plan_id":"cebpf4jnsgd1na2vs0mg"},{"bike_id":"553d6fb3-f04b-4894-9ad5-ddf03e75a0fe","system_id":"levelo_inurba_marseille","lat":43.27918,"lon":5.39581,"is_reserved":false,"is_disabled":false,"rental_uris":{"android":"levelo://app?vid=553d6fb3-f04b-4894-9ad5-ddf03e75a0fe","ios":"levelo://app?vid=553d6fb3-f04b-4894-9ad5-ddf03e75a0fe"},"vehicle_type_id":"4","last_reported":1728140895,"current_range_meters":35600,"station_id":"ce4bhf92rcd13ifvqf40","pricing_plan_id":"cebpf4jnsgd1na2vs0mg"},{"bike_id":"fbad9cbf-d2d3-4efc-be58-b0a7f0e779c7","system_id":"levelo_inurba_marseille","lat":43.23189,"lon":5.35543,"is_reserved":false,"is_disabled":false,"rental_uris":{"android":"levelo://app?vid=fbad9cbf-d2d3-4efc-be58-b0a7f0e779c7","ios":"levelo://app?vid=fbad9cbf-d2d3-4efc-be58-b0a7f0e779c7"},"vehicle_type_id":"4","last_reported":1728140895,"current_range_meters":24000,"station_id":"ce4bhu92rcd13ifvqi70","pricing_plan_id":"cebpf4jnsgd1na2vs0mg"},{"bike_id":"4e3b543b-023b-48a9-8967-e90664db3bf4","system_id":"levelo_inurba_marseille","lat":43.32042,"lon":5.4156,"is_reserved":false,"is_disabled":false,"rental_uris":{"android":"levelo://app?vid=4e3b543b-023b-48a9-8967-e90664db3bf4","ios":"levelo://app?vid=4e3b543b-023b-48a9-8967-e90664db3bf4"},"vehicle_type_id":"4","last_reported":1728140895,"current_range_meters":28000,"station_id":"ce4bhq92rcd13ifvqhkg","pricing_plan_id":"cebpf4jnsgd1na2vs0mg"},{"bike_id":"b3e184d6-101c-4c8b-9aaf-11b9126556ed","system_id":"levelo_inurba_marseille","lat":43.26805,"lon":5.40269,"is_reserved":false,"is_disabled":false,"rental_uris":{"android":"levelo://app?vid=b3e184d6-101c-4c8b-9aaf-11b9126556ed","ios":"levelo://app?vid=b3e184d6-101c-4c8b-9aaf-11b9126556ed"},"vehicle_type_id":"4","last_reported":1728140895,"current_range_meters":21600,"station_id":"ce501612rcd8frsf0b60","pricing_plan_id":"cebpf4jnsgd1na2vs0mg"},{"bike_id":"f0b67e69-8f4b-4c63-be28-9e156e0a7181","system_id":"levelo_inurba_marseille","lat":43.32336,"lon":5.406299,"is_reserved":false,"is_disabled":false,"rental_uris":{"android":"levelo://app?vid=f0b67e69-8f4b-4c63-be28-9e156e0a7181","ios":"levelo://app?vid=f0b67e69-8f4b-4c63-be28-9e156e0a7181"},"vehicle_type_id":"4","last_reported":1728140895,"current_range_meters":32800,"station_id":"ce4bhq92rcd13ifvqhjg","pricing_plan_id":"cebpf4jnsgd1na2vs0mg"},{"bike_id":"9943b814-a76e-48f6-867a-1c491da59c87","system_id":"levelo_inurba_marseille","lat":43.27067,"lon":5.42272,"is_reserved":false,"is_disabled":false,"rental_uris":{"android":"levelo://app?vid=9943b814-a76e-48f6-867a-1c491da59c87","ios":"levelo://app?vid=9943b814-a76e-48f6-867a-1c491da59c87"},"vehicle_type_id":"4","last_reported":1728140895,"current_range_meters":22000,"station_id":"ce4bhk92rcd13ifvqgb0","pricing_plan_id":"cebpf4jnsgd1na2vs0mg"},{"bike_id":"1de29d82-25b6-4480-b470-2d907013de02","system_id":"levelo_inurba_marseille","lat":43.27912,"lon":5.39575,"is_reserved":false,"is_disabled":false,"rental_uris":{"android":"levelo://app?vid=1de29d82-25b6-4480-b470-2d907013de02","ios":"levelo://app?vid=1de29d82-25b6-4480-b470-2d907013de02"},"vehicle_type_id":"4","last_reported":1728140895,"current_range_meters":8400,"station_id":"ce4bhf92rcd13ifvqf40","pricing_plan_id":"cebpf4jnsgd1na2vs0mg"},{"bike_id":"6d7cff53-025a-40b8-8d31-a2db4183af1c","system_id":"levelo_inurba_marseille","lat":43.29282,"lon":5.40114,"is_reserved":false,"is_disabled":false,"rental_uris":{"android":"levelo://app?vid=6d7cff53-025a-40b8-8d31-a2db4183af1c","ios":"levelo://app?vid=6d7cff53-025a-40b8-8d31-a2db4183af1c"},"vehicle_type_id":"4","last_reported":1728140895,"current_range_meters":22800,"station_id":"ce4bh312rcd13ifvqdk0","pricing_plan_id":"cebpf4jnsgd1na2vs0mg"},{"bike_id":"10e2cad8-5b87-4361-a750-816e7c888c91","system_id":"levelo_inurba_marseille","lat":43.33763,"lon":5.37436,"is_reserved":false,"is_disabled":false,"rental_uris":{"android":"levelo://app?vid=10e2cad8-5b87-4361-a750-816e7c888c91","ios":"levelo://app?vid=10e2cad8-5b87-4361-a750-816e7c888c91"},"vehicle_type_id":"4","last_reported":1728140895,"current_range_meters":36000,"station_id":"","pricing_plan_id":"cebpf4jnsgd1na2vs0mg"},{"bike_id":"a513ccaa-0c27-439e-bc69-84cf7ff60039","system_id":"levelo_inurba_marseille","lat":43.337444,"lon":5.374475,"is_reserved":false,"is_disabled":false,"rental_uris":{"android":"levelo://app?vid=a513ccaa-0c27-439e-bc69-84cf7ff60039","ios":"levelo://app?vid=a513ccaa-0c27-439e-bc69-84cf7ff60039"},"vehicle_type_id":"4","last_reported":1728140895,"current_range_meters":33600,"station_id":"","pricing_plan_id":"cebpf4jnsgd1na2vs0mg"},{"bike_id":"c0ec253f-3ed7-47e6-8c6d-5d48feb11f70","system_id":"levelo_inurba_marseille","lat":43.26576,"lon":5.3901,"is_reserved":false,"is_disabled":false,"rental_uris":{"android":"levelo://app?vid=c0ec253f-3ed7-47e6-8c6d-5d48feb11f70","ios":"levelo://app?vid=c0ec253f-3ed7-47e6-8c6d-5d48feb11f70"},"vehicle_type_id":"4","last_reported":1728140895,"current_range_meters":24400,"station_id":"ce4bhe12rcd13ifvqf30","pricing_plan_id":"cebpf4jnsgd1na2vs0mg"},{"bike_id":"1a9fe545-c0ea-48a5-92b0-9f7f7d3cd847","system_id":"levelo_inurba_marseille","lat":43.28979,"lon":5.4006,"is_reserved":false,"is_disabled":false,"rental_uris":{"android":"levelo://app?vid=1a9fe545-c0ea-48a5-92b0-9f7f7d3cd847","ios":"levelo://app?vid=1a9fe545-c0ea-48a5-92b0-9f7f7d3cd847"},"vehicle_type_id":"4","last_reported":1728140895,"current_range_meters":8000,"station_id":"ce4bh392rcd13ifvqdm0","pricing_plan_id":"cebpf4jnsgd1na2vs0mg"},{"bike_id":"5c56a3bd-eee6-46f6-9565-18e2d60b4a2a","system_id":"levelo_inurba_marseille","lat":43.33761,"lon":5.3743,"is_reserved":false,"is_disabled":false,"rental_uris":{"android":"levelo://app?vid=5c56a3bd-eee6-46f6-9565-18e2d60b4a2a","ios":"levelo://app?vid=5c56a3bd-eee6-46f6-9565-18e2d60b4a2a"},"vehicle_type_id":"4","last_reported":1728140895,"current_range_meters":38800,"station_id":"","pricing_plan_id":"cebpf4jnsgd1na2vs0mg"},{"bike_id":"19bc4619-086d-41f0-b5eb-661e2b103e49","system_id":"levelo_inurba_marseille","lat":43.23062,"lon":5.35488,"is_reserved":false,"is_disabled":false,"rental_uris":{"android":"levelo://app?vid=19bc4619-086d-41f0-b5eb-661e2b103e49","ios":"levelo://app?vid=19bc4619-086d-41f0-b5eb-661e2b103e49"},"vehicle_type_id":"4","last_reported":1728140895,"current_range_meters":13600,"station_id":"cpo3342slgdg3j2ifvpg","pricing_plan_id":"cebpf4jnsgd1na2vs0mg"},{"bike_id":"e315600c-3ff8-4893-abe5-0c310d48465d","system_id":"levelo_inurba_marseille","lat":43.33777,"lon":5.37419,"is_reserved":false,"is_disabled":false,"rental_uris":{"android":"levelo://app?vid=e315600c-3ff8-4893-abe5-0c310d48465d","ios":"levelo://app?vid=e315600c-3ff8-4893-abe5-0c310d48465d"},"vehicle_type_id":"4","last_reported":1728140895,"current_range_meters":32800,"station_id":"","pricing_plan_id":"cebpf4jnsgd1na2vs0mg"},{"bike_id":"de9e8a56-b437-4f39-9190-656d9397c6df","system_id":"levelo_inurba_marseille","lat":43.24167,"lon":5.36396,"is_reserved":false,"is_disabled":false,"rental_uris":{"android":"levelo://app?vid=de9e8a56-b437-4f39-9190-656d9397c6df","ios":"levelo://app?vid=de9e8a56-b437-4f39-9190-656d9397c6df"},"vehicle_type_id":"4","last_reported":1728140895,"current_range_meters":32000,"station_id":"cpo36qri1sfpv3e86is0","pricing_plan_id":"cebpf4jnsgd1na2vs0mg"},{"bike_id":"2a99fcc1-0702-4af9-9e07-02646bfe03dd","system_id":"levelo_inurba_marseille","lat":43.296173,"lon":5.371527,"is_reserved":false,"is_disabled":false,"rental_uris":{"android":"levelo://app?vid=2a99fcc1-0702-4af9-9e07-02646bfe03dd","ios":"levelo://app?vid=2a99fcc1-0702-4af9-9e07-02646bfe03dd"},"vehicle_type_id":"4","last_reported":1728140895,"current_range_meters":2000,"station_id":"ce4bgnh2rcd13ifvqc0g","pricing_plan_id":"cebpf4jnsgd1na2vs0mg"},{"bike_id":"19d8a95b-ba9f-4074-9671-a31b17e172bc","system_id":"levelo_inurba_marseille","lat":43.28932,"lon":5.39628,"is_reserved":false,"is_disabled":false,"rental_uris":{"android":"levelo://app?vid=19d8a95b-ba9f-4074-9671-a31b17e172bc","ios":"levelo://app?vid=19d8a95b-ba9f-4074-9671-a31b17e172bc"},"vehicle_type_id":"4","last_reported":1728140895,"current_range_meters":15200,"station_id":"ce4bh3h2rcd13ifvqdn0","pricing_plan_id":"cebpf4jnsgd1na2vs0mg"},{"bike_id":"a7c8ec49-b5e5-4f16-b5c9-5d4ac123cfca","system_id":"levelo_inurba_marseille","lat":43.29529,"lon":5.38548,"is_reserved":false,"is_disabled":false,"rental_uris":{"android":"levelo://app?vid=a7c8ec49-b5e5-4f16-b5c9-5d4ac123cfca","ios":"levelo://app?vid=a7c8ec49-b5e5-4f16-b5c9-5d4ac123cfca"},"vehicle_type_id":"4","last_reported":1728140895,"current_range_meters":11600,"station_id":"ce4bgih2rcd13ifvqba0","pricing_plan_id":"cebpf4jnsgd1na2vs0mg"},{"bike_id":"1a17bec9-9e96-4207-a616-b43035f76997","system_id":"levelo_inurba_marseille","lat":43.22929,"lon":5.35372,"is_reserved":false,"is_disabled":false,"rental_uris":{"android":"levelo://app?vid=1a17bec9-9e96-4207-a616-b43035f76997","ios":"levelo://app?vid=1a17bec9-9e96-4207-a616-b43035f76997"},"vehicle_type_id":"4","last_reported":1728140895,"current_range_meters":35600,"station_id":"cpo3532slgdg3j2ikp40","pricing_plan_id":"cebpf4jnsgd1na2vs0mg"},{"bike_id":"20ee1f8e-76f2-4ecc-8be5-8c5eafdb6b18","system_id":"levelo_inurba_marseille","lat":43.25001,"lon":5.38933,"is_reserved":false,"is_disabled":false,"rental_uris":{"android":"levelo://app?vid=20ee1f8e-76f2-4ecc-8be5-8c5eafdb6b18","ios":"levelo://app?vid=20ee1f8e-76f2-4ecc-8be5-8c5eafdb6b18"},"vehicle_type_id":"4","last_reported":1728140895,"current_range_meters":14800,"station_id":"ce4bhgp2rcd13ifvqfd0","pricing_plan_id":"cebpf4jnsgd1na2vs0mg"},{"bike_id":"28acd15a-e0da-4d13-9503-a83c0dceceff","system_id":"levelo_inurba_marseille","lat":43.23154,"lon":5.437102,"is_reserved":false,"is_disabled":false,"rental_uris":{"android":"levelo://app?vid=28acd15a-e0da-4d13-9503-a83c0dceceff","ios":"levelo://app?vid=28acd15a-e0da-4d13-9503-a83c0dceceff"},"vehicle_type_id":"4","last_reported":1728140895,"current_range_meters":20000,"station_id":"ce4bhip2rcd13ifvqft0","pricing_plan_id":"cebpf4jnsgd1na2vs0mg"},{"bike_id":"c349020d-2226-471a-a631-57589fc639d6","system_id":"levelo_inurba_marseille","lat":43.28428,"lon":5.34984,"is_reserved":false,"is_disabled":false,"rental_uris":{"android":"levelo://app?vid=c349020d-2226-471a-a631-57589fc639d6","ios":"levelo://app?vid=c349020d-2226-471a-a631-57589fc639d6"},"vehicle_type_id":"4","last_reported":1728140895,"current_range_meters":7200,"station_id":"ce4bhbh2rcd13ifvqepg","pricing_plan_id":"cebpf4jnsgd1na2vs0mg"},{"bike_id":"ae8b92d9-6255-4ea9-acf9-9a080abd1c26","system_id":"levelo_inurba_marseille","lat":43.28423,"lon":5.34988,"is_reserved":false,"is_disabled":false,"rental_uris":{"android":"levelo://app?vid=ae8b92d9-6255-4ea9-acf9-9a080abd1c26","ios":"levelo://app?vid=ae8b92d9-6255-4ea9-acf9-9a080abd1c26"},"vehicle_type_id":"4","last_reported":1728140895,"current_range_meters":38800,"station_id":"ce4bhbh2rcd13ifvqepg","pricing_plan_id":"cebpf4jnsgd1na2vs0mg"},{"bike_id":"708bd73f-9b64-409e-8c88-5c7bcbe36898","system_id":"levelo_inurba_marseille","lat":43.302865,"lon":5.391424,"is_reserved":false,"is_disabled":false,"rental_uris":{"android":"levelo://app?vid=708bd73f-9b64-409e-8c88-5c7bcbe36898","ios":"levelo://app?vid=708bd73f-9b64-409e-8c88-5c7bcbe36898"},"vehicle_type_id":"4","last_reported":1728140895,"current_range_meters":14800,"station_id":"ce4bgkh2rcd13ifvqbk0","pricing_plan_id":"cebpf4jnsgd1na2vs0mg"},{"bike_id":"740aa9b1-bf7f-495f-b4b6-8c44676bc674","system_id":"levelo_inurba_marseille","lat":43.33752,"lon":5.37444,"is_reserved":false,"is_disabled":false,"rental_uris":{"android":"levelo://app?vid=740aa9b1-bf7f-495f-b4b6-8c44676bc674","ios":"levelo://app?vid=740aa9b1-bf7f-495f-b4b6-8c44676bc674"},"vehicle_type_id":"4","last_reported":1728140895,"current_range_meters":4000,"station_id":"","pricing_plan_id":"cebpf4jnsgd1na2vs0mg"},{"bike_id":"e46fbf5b-9d38-47cc-9b07-51871f5ded8e","system_id":"levelo_inurba_marseille","lat":43.24066,"lon":5.37765,"is_reserved":false,"is_disabled":false,"rental_uris":{"android":"levelo://app?vid=e46fbf5b-9d38-47cc-9b07-51871f5ded8e","ios":"levelo://app?vid=e46fbf5b-9d38-47cc-9b07-51871f5ded8e"},"vehicle_type_id":"4","last_reported":1728140895,"current_range_meters":20400,"station_id":"ce4bhnp2rcd13ifvqgvg","pricing_plan_id":"cebpf4jnsgd1na2vs0mg"},{"bike_id":"3ab6e0fb-7d6e-4016-893a-4358606047ab","system_id":"levelo_inurba_marseille","lat":43.22926,"lon":5.35375,"is_reserved":false,"is_disabled":false,"rental_uris":{"android":"levelo://app?vid=3ab6e0fb-7d6e-4016-893a-4358606047ab","ios":"levelo://app?vid=3ab6e0fb-7d6e-4016-893a-4358606047ab"},"vehicle_type_id":"4","last_reported":1728140895,"current_range_meters":22000,"station_id":"cpo3532slgdg3j2ikp40","pricing_plan_id":"cebpf4jnsgd1na2vs0mg"},{"bike_id":"77b9203a-0842-4b45-acd8-ada92dfc3441","system_id":"levelo_inurba_marseille","lat":43.29906,"lon":5.3817,"is_reserved":false,"is_disabled":false,"rental_uris":{"android":"levelo://app?vid=77b9203a-0842-4b45-acd8-ada92dfc3441","ios":"levelo://app?vid=77b9203a-0842-4b45-acd8-ada92dfc3441"},"vehicle_type_id":"4","last_reported":1728140895,"current_range_meters":11200,"station_id":"ce4bgj12rcd13ifvqbc0","pricing_plan_id":"cebpf4jnsgd1na2vs0mg"},{"bike_id":"8c61526c-2d67-4b1a-8f32-0018924d753f","system_id":"levelo_inurba_marseille","lat":43.337444,"lon":5.374475,"is_reserved":false,"is_disabled":false,"rental_uris":{"android":"levelo://app?vid=8c61526c-2d67-4b1a-8f32-0018924d753f","ios":"levelo://app?vid=8c61526c-2d67-4b1a-8f32-0018924d753f"},"vehicle_type_id":"4","last_reported":1728140895,"current_range_meters":34000,"station_id":"","pricing_plan_id":"cebpf4jnsgd1na2vs0mg"},{"bike_id":"6a3c4c3f-5f12-4ee7-8980-cd605fae1bc9","system_id":"levelo_inurba_marseille","lat":43.28431,"lon":5.38565,"is_reserved":false,"is_disabled":false,"rental_uris":{"android":"levelo://app?vid=6a3c4c3f-5f12-4ee7-8980-cd605fae1bc9","ios":"levelo://app?vid=6a3c4c3f-5f12-4ee7-8980-cd605fae1bc9"},"vehicle_type_id":"4","last_reported":1728140895,"current_range_meters":24400,"station_id":"","pricing_plan_id":"cebpf4jnsgd1na2vs0mg"},{"bike_id":"18dfd22a-cc3a-4457-a9a6-578473897fe6","system_id":"levelo_inurba_marseille","lat":43.2292,"lon":5.35372,"is_reserved":false,"is_disabled":false,"rental_uris":{"android":"levelo://app?vid=18dfd22a-cc3a-4457-a9a6-578473897fe6","ios":"levelo://app?vid=18dfd22a-cc3a-4457-a9a6-578473897fe6"},"vehicle_type_id":"4","last_reported":1728140895,"current_range_meters":17200,"station_id":"cpo3532slgdg3j2ikp40","pricing_plan_id":"cebpf4jnsgd1na2vs0mg"},{"bike_id":"f14a9d4e-5024-441f-8516-20716acd7523","system_id":"levelo_inurba_marseille","lat":43.31708,"lon":5.43695,"is_reserved":false,"is_disabled":false,"rental_uris":{"android":"levelo://app?vid=f14a9d4e-5024-441f-8516-20716acd7523","ios":"levelo://app?vid=f14a9d4e-5024-441f-8516-20716acd7523"},"vehicle_type_id":"4","last_reported":1728140895,"current_range_meters":23200,"station_id":"ce4bhp92rcd13ifvqhcg","pricing_plan_id":"cebpf4jnsgd1na2vs0mg"},{"bike_id":"327763ca-c5ab-458c-9fe6-b9eb2fcfde2c","system_id":"levelo_inurba_marseille","lat":43.28417,"lon":5.34975,"is_reserved":false,"is_disabled":false,"rental_uris":{"android":"levelo://app?vid=327763ca-c5ab-458c-9fe6-b9eb2fcfde2c","ios":"levelo://app?vid=327763ca-c5ab-458c-9fe6-b9eb2fcfde2c"},"vehicle_type_id":"4","last_reported":1728140895,"current_range_meters":9600,"station_id":"ce4bhbh2rcd13ifvqepg","pricing_plan_id":"cebpf4jnsgd1na2vs0mg"},{"bike_id":"573d91c1-ef35-4afc-85eb-6f0f47373b41","system_id":"levelo_inurba_marseille","lat":43.33708,"lon":5.40731,"is_reserved":false,"is_disabled":false,"rental_uris":{"android":"levelo://app?vid=573d91c1-ef35-4afc-85eb-6f0f47373b41","ios":"levelo://app?vid=573d91c1-ef35-4afc-85eb-6f0f47373b41"},"vehicle_type_id":"4","last_reported":1728140895,"current_range_meters":24000,"station_id":"ce4bgvp2rcd13ifvqct0","pricing_plan_id":"cebpf4jnsgd1na2vs0mg"},{"bike_id":"6b315d99-3ae8-4acd-8c24-9531c7a83eb8","system_id":"levelo_inurba_marseille","lat":43.23068,"lon":5.35491,"is_reserved":false,"is_disabled":false,"rental_uris":{"android":"levelo://app?vid=6b315d99-3ae8-4acd-8c24-9531c7a83eb8","ios":"levelo://app?vid=6b315d99-3ae8-4acd-8c24-9531c7a83eb8"},"vehicle_type_id":"4","last_reported":1728140895,"current_range_meters":12400,"station_id":"cpo3342slgdg3j2ifvpg","pricing_plan_id":"cebpf4jnsgd1na2vs0mg"},{"bike_id":"9eb53b89-7a05-44e2-923b-44f4ecd2f358","system_id":"levelo_inurba_marseille","lat":43.337444,"lon":5.374475,"is_reserved":false,"is_disabled":false,"rental_uris":{"android":"levelo://app?vid=9eb53b89-7a05-44e2-923b-44f4ecd2f358","ios":"levelo://app?vid=9eb53b89-7a05-44e2-923b-44f4ecd2f358"},"vehicle_type_id":"4","last_reported":1728140895,"current_range_meters":30400,"station_id":"","pricing_plan_id":"cebpf4jnsgd1na2vs0mg"},{"bike_id":"b71c78d8-6778-4443-86fe-33a108411990","system_id":"levelo_inurba_marseille","lat":43.23052,"lon":5.35497,"is_reserved":false,"is_disabled":false,"rental_uris":{"android":"levelo://app?vid=b71c78d8-6778-4443-86fe-33a108411990","ios":"levelo://app?vid=b71c78d8-6778-4443-86fe-33a108411990"},"vehicle_type_id":"4","last_reported":1728140895,"current_range_meters":24400,"station_id":"cpo3342slgdg3j2ifvpg","pricing_plan_id":"cebpf4jnsgd1na2vs0mg"},{"bike_id":"2eb1180c-3c37-45a8-8c05-d2fd624d984f","system_id":"levelo_inurba_marseille","lat":43.33769,"lon":5.37442,"is_reserved":false,"is_disabled":false,"rental_uris":{"android":"levelo://app?vid=2eb1180c-3c37-45a8-8c05-d2fd624d984f","ios":"levelo://app?vid=2eb1180c-3c37-45a8-8c05-d2fd624d984f"},"vehicle_type_id":"4","last_reported":1728140895,"current_range_meters":36000,"station_id":"","pricing_plan_id":"cebpf4jnsgd1na2vs0mg"},{"bike_id":"589443aa-2b04-4fda-b398-9d8a840e9b3a","system_id":"levelo_inurba_marseille","lat":43.29259,"lon":5.40915,"is_reserved":false,"is_disabled":false,"rental_uris":{"android":"levelo://app?vid=589443aa-2b04-4fda-b398-9d8a840e9b3a","ios":"levelo://app?vid=589443aa-2b04-4fda-b398-9d8a840e9b3a"},"vehicle_type_id":"4","last_reported":1728140895,"current_range_meters":38400,"station_id":"ce4bh192rcd13ifvqdc0","pricing_plan_id":"cebpf4jnsgd1na2vs0mg"},{"bike_id":"0764288d-7696-444e-b927-7204a6be4d9d","system_id":"levelo_inurba_marseille","lat":43.30184,"lon":5.3661,"is_reserved":false,"is_disabled":false,"rental_uris":{"android":"levelo://app?vid=0764288d-7696-444e-b927-7204a6be4d9d","ios":"levelo://app?vid=0764288d-7696-444e-b927-7204a6be4d9d"},"vehicle_type_id":"4","last_reported":1728140895,"current_range_meters":24400,"station_id":"ce4bgrh2rcd13ifvqc8g","pricing_plan_id":"cebpf4jnsgd1na2vs0mg"},{"bike_id":"4fc98ad7-f542-4284-96c8-58af31bbb6e0","system_id":"levelo_inurba_marseille","lat":43.23188,"lon":5.39981,"is_reserved":false,"is_disabled":false,"rental_uris":{"android":"levelo://app?vid=4fc98ad7-f542-4284-96c8-58af31bbb6e0","ios":"levelo://app?vid=4fc98ad7-f542-4284-96c8-58af31bbb6e0"},"vehicle_type_id":"4","last_reported":1728140895,"current_range_meters":34800,"station_id":"ce4bhn12rcd13ifvqgqg","pricing_plan_id":"cebpf4jnsgd1na2vs0mg"},{"bike_id":"bfea1c6e-a688-4874-9684-a44a5716aedc","system_id":"levelo_inurba_marseille","lat":43.289813,"lon":5.355616,"is_reserved":false,"is_disabled":false,"rental_uris":{"android":"levelo://app?vid=bfea1c6e-a688-4874-9684-a44a5716aedc","ios":"levelo://app?vid=bfea1c6e-a688-4874-9684-a44a5716aedc"},"vehicle_type_id":"4","last_reported":1728140895,"current_range_meters":18800,"station_id":"ce4bhb92rcd13ifvqen0","pricing_plan_id":"cebpf4jnsgd1na2vs0mg"},{"bike_id":"e6b1c08e-8354-433a-b4a7-036567da6f65","system_id":"levelo_inurba_marseille","lat":43.31712,"lon":5.43706,"is_reserved":false,"is_disabled":false,"rental_uris":{"android":"levelo://app?vid=e6b1c08e-8354-433a-b4a7-036567da6f65","ios":"levelo://app?vid=e6b1c08e-8354-433a-b4a7-036567da6f65"},"vehicle_type_id":"4","last_reported":1728140895,"current_range_meters":36800,"station_id":"ce4bhp92rcd13ifvqhcg","pricing_plan_id":"cebpf4jnsgd1na2vs0mg"},{"bike_id":"2d547c7d-8538-4aeb-8dbe-bc9144600c89","system_id":"levelo_inurba_marseille","lat":43.22924,"lon":5.3537,"is_reserved":false,"is_disabled":false,"rental_uris":{"android":"levelo://app?vid=2d547c7d-8538-4aeb-8dbe-bc9144600c89","ios":"levelo://app?vid=2d547c7d-8538-4aeb-8dbe-bc9144600c89"},"vehicle_type_id":"4","last_reported":1728140895,"current_range_meters":21600,"station_id":"cpo3532slgdg3j2ikp40","pricing_plan_id":"cebpf4jnsgd1na2vs0mg"},{"bike_id":"7059c146-5f57-4b45-b029-b9dcb339c659","system_id":"levelo_inurba_marseille","lat":43.28481,"lon":5.38424,"is_reserved":false,"is_disabled":false,"rental_uris":{"android":"levelo://app?vid=7059c146-5f57-4b45-b029-b9dcb339c659","ios":"levelo://app?vid=7059c146-5f57-4b45-b029-b9dcb339c659"},"vehicle_type_id":"4","last_reported":1728140895,"current_range_meters":5600,"station_id":"ce4bh512rcd13ifvqe3g","pricing_plan_id":"cebpf4jnsgd1na2vs0mg"},{"bike_id":"832e0eb9-a62c-4857-b540-844c8681317a","system_id":"levelo_inurba_marseille","lat":43.30801,"lon":5.38151,"is_reserved":false,"is_disabled":false,"rental_uris":{"android":"levelo://app?vid=832e0eb9-a62c-4857-b540-844c8681317a","ios":"levelo://app?vid=832e0eb9-a62c-4857-b540-844c8681317a"},"vehicle_type_id":"4","last_reported":1728140895,"current_range_meters":10800,"station_id":"ce4bgt12rcd13ifvqce0","pricing_plan_id":"cebpf4jnsgd1na2vs0mg"},{"bike_id":"2f46e033-90b6-4a28-99ad-19cbf2a88814","system_id":"levelo_inurba_marseille","lat":43.25088,"lon":5.39527,"is_reserved":false,"is_disabled":false,"rental_uris":{"android":"levelo://app?vid=2f46e033-90b6-4a28-99ad-19cbf2a88814","ios":"levelo://app?vid=2f46e033-90b6-4a28-99ad-19cbf2a88814"},"vehicle_type_id":"4","last_reported":1728140895,"current_range_meters":19200,"station_id":"ce4bhm12rcd13ifvqgkg","pricing_plan_id":"cebpf4jnsgd1na2vs0mg"},{"bike_id":"f6657e57-0e17-487f-b540-3b49ec927d8a","system_id":"levelo_inurba_marseille","lat":43.285706,"lon":5.395017,"is_reserved":false,"is_disabled":false,"rental_uris":{"android":"levelo://app?vid=f6657e57-0e17-487f-b540-3b49ec927d8a","ios":"levelo://app?vid=f6657e57-0e17-487f-b540-3b49ec927d8a"},"vehicle_type_id":"4","last_reported":1728140895,"current_range_meters":6800,"station_id":"ce4bh292rcd13ifvqdg0","pricing_plan_id":"cebpf4jnsgd1na2vs0mg"},{"bike_id":"ee091cee-516a-4254-9d85-9c853425c6b3","system_id":"levelo_inurba_marseille","lat":43.25107,"lon":5.40323,"is_reserved":false,"is_disabled":false,"rental_uris":{"android":"levelo://app?vid=ee091cee-516a-4254-9d85-9c853425c6b3","ios":"levelo://app?vid=ee091cee-516a-4254-9d85-9c853425c6b3"},"vehicle_type_id":"4","last_reported":1728140895,"current_range_meters":3200,"station_id":"ce4bhlh2rcd13ifvqgig","pricing_plan_id":"cebpf4jnsgd1na2vs0mg"},{"bike_id":"045ee71b-00d0-4a60-a8fe-285c2fd72dc9","system_id":"levelo_inurba_marseille","lat":43.30573,"lon":5.3655,"is_reserved":false,"is_disabled":false,"rental_uris":{"android":"levelo://app?vid=045ee71b-00d0-4a60-a8fe-285c2fd72dc9","ios":"levelo://app?vid=045ee71b-00d0-4a60-a8fe-285c2fd72dc9"},"vehicle_type_id":"4","last_reported":1728140895,"current_range_meters":11200,"station_id":"ce4bgs12rcd13ifvqcag","pricing_plan_id":"cebpf4jnsgd1na2vs0mg"},{"bike_id":"846984a2-b212-4bbb-a13a-656e47b7f4d4","system_id":"levelo_inurba_marseille","lat":43.29126,"lon":5.36058,"is_reserved":false,"is_disabled":false,"rental_uris":{"android":"levelo://app?vid=846984a2-b212-4bbb-a13a-656e47b7f4d4","ios":"levelo://app?vid=846984a2-b212-4bbb-a13a-656e47b7f4d4"},"vehicle_type_id":"4","last_reported":1728140895,"current_range_meters":16000,"station_id":"","pricing_plan_id":"cebpf4jnsgd1na2vs0mg"},{"bike_id":"37c0dcdc-6a01-4c69-aed4-def5a9207879","system_id":"levelo_inurba_marseille","lat":43.28719,"lon":5.36091,"is_reserved":false,"is_disabled":false,"rental_uris":{"android":"levelo://app?vid=37c0dcdc-6a01-4c69-aed4-def5a9207879","ios":"levelo://app?vid=37c0dcdc-6a01-4c69-aed4-def5a9207879"},"vehicle_type_id":"4","last_reported":1728140895,"current_range_meters":13600,"station_id":"cki0cbj6b192h4jlfktg","pricing_plan_id":"cebpf4jnsgd1na2vs0mg"},{"bike_id":"d23a4f03-6ec0-4ece-81ea-75a978d5b687","system_id":"levelo_inurba_marseille","lat":43.3376,"lon":5.37415,"is_reserved":false,"is_disabled":false,"rental_uris":{"android":"levelo://app?vid=d23a4f03-6ec0-4ece-81ea-75a978d5b687","ios":"levelo://app?vid=d23a4f03-6ec0-4ece-81ea-75a978d5b687"},"vehicle_type_id":"4","last_reported":1728140895,"current_range_meters":32800,"station_id":"","pricing_plan_id":"cebpf4jnsgd1na2vs0mg"},{"bike_id":"de126acc-09fc-4c0e-977a-1087e93f6bec","system_id":"levelo_inurba_marseille","lat":43.23197,"lon":5.35555,"is_reserved":false,"is_disabled":false,"rental_uris":{"android":"levelo://app?vid=de126acc-09fc-4c0e-977a-1087e93f6bec","ios":"levelo://app?vid=de126acc-09fc-4c0e-977a-1087e93f6bec"},"vehicle_type_id":"4","last_reported":1728140895,"current_range_meters":38800,"station_id":"ce4bhu92rcd13ifvqi70","pricing_plan_id":"cebpf4jnsgd1na2vs0mg"},{"bike_id":"f03e0185-59d1-4b4d-9ff7-77b4a110cef4","system_id":"levelo_inurba_marseille","lat":43.323699,"lon":5.38882,"is_reserved":false,"is_disabled":false,"rental_uris":{"android":"levelo://app?vid=f03e0185-59d1-4b4d-9ff7-77b4a110cef4","ios":"levelo://app?vid=f03e0185-59d1-4b4d-9ff7-77b4a110cef4"},"vehicle_type_id":"4","last_reported":1728140895,"current_range_meters":6800,"station_id":"ce4bhqp2rcd13ifvqhog","pricing_plan_id":"cebpf4jnsgd1na2vs0mg"},{"bike_id":"b1715461-dd3d-481a-8284-e9e3153feba3","system_id":"levelo_inurba_marseille","lat":43.24079,"lon":5.3775,"is_reserved":false,"is_disabled":false,"rental_uris":{"android":"levelo://app?vid=b1715461-dd3d-481a-8284-e9e3153feba3","ios":"levelo://app?vid=b1715461-dd3d-481a-8284-e9e3153feba3"},"vehicle_type_id":"4","last_reported":1728140895,"current_range_meters":16400,"station_id":"ce4bhnp2rcd13ifvqgvg","pricing_plan_id":"cebpf4jnsgd1na2vs0mg"},{"bike_id":"c58a1ea4-70f1-479f-a4a4-6d5b3cc9d306","system_id":"levelo_inurba_marseille","lat":43.283625,"lon":5.386446,"is_reserved":false,"is_disabled":false,"rental_uris":{"android":"levelo://app?vid=c58a1ea4-70f1-479f-a4a4-6d5b3cc9d306","ios":"levelo://app?vid=c58a1ea4-70f1-479f-a4a4-6d5b3cc9d306"},"vehicle_type_id":"4","last_reported":1728140895,"current_range_meters":8000,"station_id":"ce4bh492rcd13ifvqdvg","pricing_plan_id":"cebpf4jnsgd1na2vs0mg"},{"bike_id":"bbba2b96-5379-4204-960d-815d60a3786f","system_id":"levelo_inurba_marseille","lat":43.24167,"lon":5.36391,"is_reserved":false,"is_disabled":false,"rental_uris":{"android":"levelo://app?vid=bbba2b96-5379-4204-960d-815d60a3786f","ios":"levelo://app?vid=bbba2b96-5379-4204-960d-815d60a3786f"},"vehicle_type_id":"4","last_reported":1728140895,"current_range_meters":10000,"station_id":"cpo36qri1sfpv3e86is0","pricing_plan_id":"cebpf4jnsgd1na2vs0mg"},{"bike_id":"a7bfba2e-426c-46da-962a-b4de3ba47d26","system_id":"levelo_inurba_marseille","lat":43.26805,"lon":5.40268,"is_reserved":false,"is_disabled":false,"rental_uris":{"android":"levelo://app?vid=a7bfba2e-426c-46da-962a-b4de3ba47d26","ios":"levelo://app?vid=a7bfba2e-426c-46da-962a-b4de3ba47d26"},"vehicle_type_id":"4","last_reported":1728140895,"current_range_meters":20000,"station_id":"ce501612rcd8frsf0b60","pricing_plan_id":"cebpf4jnsgd1na2vs0mg"},{"bike_id":"dda1cacd-2b2e-4200-9a40-d8b843eed21e","system_id":"levelo_inurba_marseille","lat":43.3236,"lon":5.3889,"is_reserved":false,"is_disabled":false,"rental_uris":{"android":"levelo://app?vid=dda1cacd-2b2e-4200-9a40-d8b843eed21e","ios":"levelo://app?vid=dda1cacd-2b2e-4200-9a40-d8b843eed21e"},"vehicle_type_id":"4","last_reported":1728140895,"current_range_meters":8000,"station_id":"ce4bhqp2rcd13ifvqhog","pricing_plan_id":"cebpf4jnsgd1na2vs0mg"},{"bike_id":"09ec1a0b-9564-46b9-b904-affd1f070381","system_id":"levelo_inurba_marseille","lat":43.33753,"lon":5.39081,"is_reserved":false,"is_disabled":false,"rental_uris":{"android":"levelo://app?vid=09ec1a0b-9564-46b9-b904-affd1f070381","ios":"levelo://app?vid=09ec1a0b-9564-46b9-b904-affd1f070381"},"vehicle_type_id":"4","last_reported":1728140895,"current_range_meters":6400,"station_id":"ce4bhr92rcd13ifvqhsg","pricing_plan_id":"cebpf4jnsgd1na2vs0mg"},{"bike_id":"2fc5050f-b036-4255-a193-23eec2fec7cc","system_id":"levelo_inurba_marseille","lat":43.23061,"lon":5.35487,"is_reserved":false,"is_disabled":false,"rental_uris":{"android":"levelo://app?vid=2fc5050f-b036-4255-a193-23eec2fec7cc","ios":"levelo://app?vid=2fc5050f-b036-4255-a193-23eec2fec7cc"},"vehicle_type_id":"4","last_reported":1728140895,"current_range_meters":33600,"station_id":"cpo3342slgdg3j2ifvpg","pricing_plan_id":"cebpf4jnsgd1na2vs0mg"},{"bike_id":"3c834519-c222-4cef-9be1-7a99323f5731","system_id":"levelo_inurba_marseille","lat":43.29623,"lon":5.37729,"is_reserved":false,"is_disabled":false,"rental_uris":{"android":"levelo://app?vid=3c834519-c222-4cef-9be1-7a99323f5731","ios":"levelo://app?vid=3c834519-c222-4cef-9be1-7a99323f5731"},"vehicle_type_id":"4","last_reported":1728140895,"current_range_meters":3200,"station_id":"ce4bgi92rcd13ifvqb90","pricing_plan_id":"cebpf4jnsgd1na2vs0mg"},{"bike_id":"cac2d6af-9148-4823-8e17-17aaa474fac8","system_id":"levelo_inurba_marseille","lat":43.24173,"lon":5.36388,"is_reserved":false,"is_disabled":false,"rental_uris":{"android":"levelo://app?vid=cac2d6af-9148-4823-8e17-17aaa474fac8","ios":"levelo://app?vid=cac2d6af-9148-4823-8e17-17aaa474fac8"},"vehicle_type_id":"4","last_reported":1728140895,"current_range_meters":34000,"station_id":"cpo36qri1sfpv3e86is0","pricing_plan_id":"cebpf4jnsgd1na2vs0mg"},{"bike_id":"d5b6d6cc-ac54-495d-8b90-9c64ff925850","system_id":"levelo_inurba_marseille","lat":43.33719,"lon":5.39184,"is_reserved":false,"is_disabled":false,"rental_uris":{"android":"levelo://app?vid=d5b6d6cc-ac54-495d-8b90-9c64ff925850","ios":"levelo://app?vid=d5b6d6cc-ac54-495d-8b90-9c64ff925850"},