{"last_updated":1734714424,"ttl":60,"version":"2.2","data":{"bikes":[{"bike_id":"afaaeaea-141d-4097-8fd1-9a6b14182c82","system_id":"levelo_inurba_marseille","lat":43.30544,"lon":5.36535,"is_reserved":false,"is_disabled":false,"rental_uris":{"android":"levelo://app?vid=afaaeaea-141d-4097-8fd1-9a6b14182c82","ios":"levelo://app?vid=afaaeaea-141d-4097-8fd1-9a6b14182c82"},"vehicle_type_id":"4","last_reported":1734714424,"current_range_meters":8800,"station_id":"ce4bgs12rcd13ifvqcag","pricing_plan_id":"cebpf4jnsgd1na2vs0mg"},{"bike_id":"eaf9115d-e166-4d63-a2b6-294753257e94","system_id":"levelo_inurba_marseille","lat":43.31624,"lon":5.39396,"is_reserved":false,"is_disabled":false,"rental_uris":{"android":"levelo://app?vid=eaf9115d-e166-4d63-a2b6-294753257e94","ios":"levelo://app?vid=eaf9115d-e166-4d63-a2b6-294753257e94"},"vehicle_type_id":"4","last_reported":1734714424,"current_range_meters":19600,"station_id":"","pricing_plan_id":"cebpf4jnsgd1na2vs0mg"},{"bike_id":"eb156c91-5c91-4664-a66b-8fb17c1b7811","system_id":"levelo_inurba_marseille","lat":43.2844,"lon":5.39186,"is_reserved":false,"is_disabled":false,"rental_uris":{"android":"levelo://app?vid=eb156c91-5c91-4664-a66b-8fb17c1b7811","ios":"levelo://app?vid=eb156c91-5c91-4664-a66b-8fb17c1b7811"},"vehicle_type_id":"4","last_reported":1734714424,"current_range_meters":36800,"station_id":"ce4bhoh2rcd13ifvqh5g","pricing_plan_id":"cebpf4jnsgd1na2vs0mg"},{"bike_id":"c20c717d-c827-41e6-9454-3f93a777b421","system_id":"levelo_inurba_marseille","lat":43.27831,"lon":5.39195,"is_reserved":false,"is_disabled":true,"rental_uris":{"android":"levelo://app?vid=c20c717d-c827-41e6-9454-3f93a777b421","ios":"levelo://app?vid=c20c717d-c827-41e6-9454-3f93a777b421"},"vehicle_type_id":"4","last_reported":1734714424,"current_range_meters":800,"station_id":"ce4bhjp2rcd13ifvqga0","pricing_plan_id":"cebpf4jnsgd1na2vs0mg"},{"bike_id":"b8d0e431-551e-42b8-b8f0-e2dfb3ae76df","system_id":"levelo_inurba_marseille","lat":43.27426,"lon":5.39418,"is_reserved":false,"is_disabled":false,"rental_uris":{"android":"levelo://app?vid=b8d0e431-551e-42b8-b8f0-e2dfb3ae76df","ios":"levelo://app?vid=b8d0e431-551e-42b8-b8f0-e2dfb3ae76df"},"vehicle_type_id":"4","last_reported":1734714424,"current_range_meters":39200,"station_id":"ce4bhdp2rcd13ifvqf20","pricing_plan_id":"cebpf4jnsgd1na2vs0mg"},{"bike_id":"0b3c962c-40d1-4375-b60d-644d72aaacf1","system_id":"levelo_inurba_marseille","lat":43.280101,"lon":5.404028,"is_reserved":false,"is_disabled":true,"rental_uris":{"android":"levelo://app?vid=0b3c962c-40d1-4375-b60d-644d72aaacf1","ios":"levelo://app?vid=0b3c962c-40d1-4375-b60d-644d72aaacf1"},"vehicle_type_id":"4","last_reported":1734714424,"current_range_meters":0,"station_id":"","pricing_plan_id":"cebpf4jnsgd1na2vs0mg"},{"bike_id":"acd12fb8-e45a-4f38-ae84-8484dd05ce58","system_id":"levelo_inurba_marseille","lat":43.25109,"lon":5.40315,"is_reserved":false,"is_disabled":false,"rental_uris":{"android":"levelo://app?vid=acd12fb8-e45a-4f38-ae84-8484dd05ce58","ios":"levelo://app?vid=acd12fb8-e45a-4f38-ae84-8484dd05ce58"},"vehicle_type_id":"4","last_reported":1734714424,"current_range_meters":11600,"station_id":"ce4bhlh2rcd13ifvqgig","pricing_plan_id":"cebpf4jnsgd1na2vs0mg"},{"bike_id":"40446407-4dcc-43b0-aaaf-0927cd74918d","system_id":"levelo_inurba_marseille","lat":43.29836,"lon":5.36271,"is_reserved":false,"is_disabled":false,"rental_uris":{"android":"levelo://app?vid=40446407-4dcc-43b0-aaaf-0927cd74918d","ios":"levelo://app?vid=40446407-4dcc-43b0-aaaf-0927cd74918d"},"vehicle_type_id":"4","last_reported":1734714424,"current_range_meters":29600,"station_id":"ce4bgpp2rcd13ifvqc3g","pricing_plan_id":"cebpf4jnsgd1na2vs0mg"},{"bike_id":"698bc4bf-1a3e-42ae-bb8d-4c5b6872d9ef","system_id":"levelo_inurba_marseille","lat":43.29701,"lon":5.37686,"is_reserved":false,"is_disabled":false,"rental_uris":{"android":"levelo://app?vid=698bc4bf-1a3e-42ae-bb8d-4c5b6872d9ef","ios":"levelo://app?vid=698bc4bf-1a3e-42ae-bb8d-4c5b6872d9ef"},"vehicle_type_id":"4","last_reported":1734714424,"current_range_meters":14400,"station_id":"ce4bgkh2rcd13ifvqbl0","pricing_plan_id":"cebpf4jnsgd1na2vs0mg"},{"bike_id":"dabe25e8-c0c3-4436-897f-b5ddbccfe0ce","system_id":"levelo_inurba_marseille","lat":43.2396,"lon":5.36629,"is_reserved":false,"is_disabled":false,"rental_uris":{"android":"levelo://app?vid=dabe25e8-c0c3-4436-897f-b5ddbccfe0ce","ios":"levelo://app?vid=dabe25e8-c0c3-4436-897f-b5ddbccfe0ce"},"vehicle_type_id":"4","last_reported":1734714424,"current_range_meters":38800,"station_id":"ce4bhi12rcd13ifvqfp0","pricing_plan_id":"cebpf4jnsgd1na2vs0mg"},{"bike_id":"dae4111a-1c3d-45f4-8835-f110251605a8","system_id":"levelo_inurba_marseille","lat":43.292778,"lon":5.368395,"is_reserved":false,"is_disabled":false,"rental_uris":{"android":"levelo://app?vid=dae4111a-1c3d-45f4-8835-f110251605a8","ios":"levelo://app?vid=dae4111a-1c3d-45f4-8835-f110251605a8"},"vehicle_type_id":"4","last_reported":1734714424,"current_range_meters":34800,"station_id":"ce4bhbp2rcd13ifvqesg","pricing_plan_id":"cebpf4jnsgd1na2vs0mg"},{"bike_id":"1c7bee34-3735-4b6e-bce4-352db6125a44","system_id":"levelo_inurba_marseille","lat":43.29277,"lon":5.36831,"is_reserved":false,"is_disabled":false,"rental_uris":{"android":"levelo://app?vid=1c7bee34-3735-4b6e-bce4-352db6125a44","ios":"levelo://app?vid=1c7bee34-3735-4b6e-bce4-352db6125a44"},"vehicle_type_id":"4","last_reported":1734714424,"current_range_meters":27600,"station_id":"ce4bhbp2rcd13ifvqesg","pricing_plan_id":"cebpf4jnsgd1na2vs0mg"},{"bike_id":"1bafca56-09a0-4193-8bc0-66aae15a44d3","system_id":"levelo_inurba_marseille","lat":43.29979,"lon":5.37182,"is_reserved":false,"is_disabled":false,"rental_uris":{"android":"levelo://app?vid=1bafca56-09a0-4193-8bc0-66aae15a44d3","ios":"levelo://app?vid=1bafca56-09a0-4193-8bc0-66aae15a44d3"},"vehicle_type_id":"4","last_reported":1734714424,"current_range_meters":24800,"station_id":"ce4bgr92rcd13ifvqc7g","pricing_plan_id":"cebpf4jnsgd1na2vs0mg"},{"bike_id":"93cd12d2-ee52-454b-a1c6-a2a94b1185da","system_id":"levelo_inurba_marseille","lat":43.24809,"lon":5.37451,"is_reserved":false,"is_disabled":false,"rental_uris":{"android":"levelo://app?vid=93cd12d2-ee52-454b-a1c6-a2a94b1185da","ios":"levelo://app?vid=93cd12d2-ee52-454b-a1c6-a2a94b1185da"},"vehicle_type_id":"4","last_reported":1734714424,"current_range_meters":38800,"station_id":"ce4bhgh2rcd13ifvqfb0","pricing_plan_id":"cebpf4jnsgd1na2vs0mg"},{"bike_id":"27f79113-ab4d-417e-a83f-02360b2bb39e","system_id":"levelo_inurba_marseille","lat":43.298795,"lon":5.389062,"is_reserved":false,"is_disabled":false,"rental_uris":{"android":"levelo://app?vid=27f79113-ab4d-417e-a83f-02360b2bb39e","ios":"levelo://app?vid=27f79113-ab4d-417e-a83f-02360b2bb39e"},"vehicle_type_id":"4","last_reported":1734714424,"current_range_meters":32800,"station_id":"ce4bh392rcd13ifvqdl0","pricing_plan_id":"cebpf4jnsgd1na2vs0mg"},{"bike_id":"608374e1-f5ef-4e14-aac6-f3b4fbfd2453","system_id":"levelo_inurba_marseille","lat":43.25085,"lon":5.39515,"is_reserved":false,"is_disabled":false,"rental_uris":{"android":"levelo://app?vid=608374e1-f5ef-4e14-aac6-f3b4fbfd2453","ios":"levelo://app?vid=608374e1-f5ef-4e14-aac6-f3b4fbfd2453"},"vehicle_type_id":"4","last_reported":1734714424,"current_range_meters":35600,"station_id":"ce4bhm12rcd13ifvqgkg","pricing_plan_id":"cebpf4jnsgd1na2vs0mg"},{"bike_id":"a6b29f44-fdb7-43b4-aa0a-03a46febd127","system_id":"levelo_inurba_marseille","lat":43.308863,"lon":5.378124,"is_reserved":false,"is_disabled":true,"rental_uris":{"android":"levelo://app?vid=a6b29f44-fdb7-43b4-aa0a-03a46febd127","ios":"levelo://app?vid=a6b29f44-fdb7-43b4-aa0a-03a46febd127"},"vehicle_type_id":"4","last_reported":1734714424,"current_range_meters":17200,"station_id":"","pricing_plan_id":"cebpf4jnsgd1na2vs0mg"},{"bike_id":"644e3219-1450-4f2a-b186-c356cfe42ba2","system_id":"levelo_inurba_marseille","lat":43.28081,"lon":5.39657,"is_reserved":false,"is_disabled":false,"rental_uris":{"android":"levelo://app?vid=644e3219-1450-4f2a-b186-c356cfe42ba2","ios":"levelo://app?vid=644e3219-1450-4f2a-b186-c356cfe42ba2"},"vehicle_type_id":"4","last_reported":1734714424,"current_range_meters":13600,"station_id":"ce4bho12rcd13ifvqh2g","pricing_plan_id":"cebpf4jnsgd1na2vs0mg"},{"bike_id":"41ab98d5-6303-4cc7-9c07-e0df576703f4","system_id":"levelo_inurba_marseille","lat":43.28261,"lon":5.35073,"is_reserved":false,"is_disabled":false,"rental_uris":{"android":"levelo://app?vid=41ab98d5-6303-4cc7-9c07-e0df576703f4","ios":"levelo://app?vid=41ab98d5-6303-4cc7-9c07-e0df576703f4"},"vehicle_type_id":"4","last_reported":1734714424,"current_range_meters":37600,"station_id":"ce4bhbp2rcd13ifvqerg","pricing_plan_id":"cebpf4jnsgd1na2vs0mg"},{"bike_id":"6607a6aa-3ad9-484c-a9f8-1449ea2eefec","system_id":"levelo_inurba_marseille","lat":43.31689,"lon":5.40479,"is_reserved":false,"is_disabled":false,"rental_uris":{"android":"levelo://app?vid=6607a6aa-3ad9-484c-a9f8-1449ea2eefec","ios":"levelo://app?vid=6607a6aa-3ad9-484c-a9f8-1449ea2eefec"},"vehicle_type_id":"4","last_reported":1734714424,"current_range_meters":33600,"station_id":"ce4bh012rcd13ifvqd00","pricing_plan_id":"cebpf4jnsgd1na2vs0mg"},{"bike_id":"3091d709-3c11-43a1-a95d-31c0908ceed1","system_id":"levelo_inurba_marseille","lat":43.29269,"lon":5.36839,"is_reserved":false,"is_disabled":false,"rental_uris":{"android":"levelo://app?vid=3091d709-3c11-43a1-a95d-31c0908ceed1","ios":"levelo://app?vid=3091d709-3c11-43a1-a95d-31c0908ceed1"},"vehicle_type_id":"4","last_reported":1734714424,"current_range_meters":26800,"station_id":"ce4bhbp2rcd13ifvqesg","pricing_plan_id":"cebpf4jnsgd1na2vs0mg"},{"bike_id":"28d82292-98ba-4250-85c9-c5fea471f0be","system_id":"levelo_inurba_marseille","lat":43.29555,"lon":5.42284,"is_reserved":false,"is_disabled":false,"rental_uris":{"android":"levelo://app?vid=28d82292-98ba-4250-85c9-c5fea471f0be","ios":"levelo://app?vid=28d82292-98ba-4250-85c9-c5fea471f0be"},"vehicle_type_id":"4","last_reported":1734714424,"current_range_meters":18000,"station_id":"ce4bhph2rcd13ifvqhdg","pricing_plan_id":"cebpf4jnsgd1na2vs0mg"},{"bike_id":"5f25b3f0-3d9b-4c73-95e3-59b4f39b7708","system_id":"levelo_inurba_marseille","lat":43.30782,"lon":5.37639,"is_reserved":false,"is_disabled":false,"rental_uris":{"android":"levelo://app?vid=5f25b3f0-3d9b-4c73-95e3-59b4f39b7708","ios":"levelo://app?vid=5f25b3f0-3d9b-4c73-95e3-59b4f39b7708"},"vehicle_type_id":"4","last_reported":1734714424,"current_range_meters":39200,"station_id":"ce4bgv92rcd13ifvqcq0","pricing_plan_id":"cebpf4jnsgd1na2vs0mg"},{"bike_id":"e9d41d77-1ff8-4029-9ae8-d60e90c5bee6","system_id":"levelo_inurba_marseille","lat":43.295766,"lon":5.380745,"is_reserved":false,"is_disabled":false,"rental_uris":{"android":"levelo://app?vid=e9d41d77-1ff8-4029-9ae8-d60e90c5bee6","ios":"levelo://app?vid=e9d41d77-1ff8-4029-9ae8-d60e90c5bee6"},"vehicle_type_id":"4","last_reported":1734714424,"current_range_meters":39200,"station_id":"ce4bgl12rcd13ifvqbo0","pricing_plan_id":"cebpf4jnsgd1na2vs0mg"},{"bike_id":"85f27a5d-9af7-4b09-a20c-f802a8f11d6d","system_id":"levelo_inurba_marseille","lat":43.32668,"lon":5.40984,"is_reserved":false,"is_disabled":false,"rental_uris":{"android":"levelo://app?vid=85f27a5d-9af7-4b09-a20c-f802a8f11d6d","ios":"levelo://app?vid=85f27a5d-9af7-4b09-a20c-f802a8f11d6d"},"vehicle_type_id":"4","last_reported":1734714424,"current_range_meters":9200,"station_id":"ce4bhpp2rcd13ifvqhgg","pricing_plan_id":"cebpf4jnsgd1na2vs0mg"},{"bike_id":"a881e4d5-3f1a-4298-9868-a5ade0293a60","system_id":"levelo_inurba_marseille","lat":43.28461,"lon":5.35889,"is_reserved":false,"is_disabled":false,"rental_uris":{"android":"levelo://app?vid=a881e4d5-3f1a-4298-9868-a5ade0293a60","ios":"levelo://app?vid=a881e4d5-3f1a-4298-9868-a5ade0293a60"},"vehicle_type_id":"4","last_reported":1734714424,"current_range_meters":29600,"station_id":"ce4bhah2rcd13ifvqei0","pricing_plan_id":"cebpf4jnsgd1na2vs0mg"},{"bike_id":"a35f8c48-39c8-4881-8b78-7bb7bc7e2861","system_id":"levelo_inurba_marseille","lat":43.29258,"lon":5.40909,"is_reserved":false,"is_disabled":false,"rental_uris":{"android":"levelo://app?vid=a35f8c48-39c8-4881-8b78-7bb7bc7e2861","ios":"levelo://app?vid=a35f8c48-39c8-4881-8b78-7bb7bc7e2861"},"vehicle_type_id":"4","last_reported":1734714424,"current_range_meters":14000,"station_id":"ce4bh192rcd13ifvqdc0","pricing_plan_id":"cebpf4jnsgd1na2vs0mg"},{"bike_id":"78394a80-2e31-435d-8a44-d0a1ba04653b","system_id":"levelo_inurba_marseille","lat":43.2971,"lon":5.37704,"is_reserved":false,"is_disabled":false,"rental_uris":{"android":"levelo://app?vid=78394a80-2e31-435d-8a44-d0a1ba04653b","ios":"levelo://app?vid=78394a80-2e31-435d-8a44-d0a1ba04653b"},"vehicle_type_id":"4","last_reported":1734714424,"current_range_meters":6800,"station_id":"ce4bgkh2rcd13ifvqbl0","pricing_plan_id":"cebpf4jnsgd1na2vs0mg"},{"bike_id":"c7a472ed-6dc3-4cde-83b8-4deb8af0b49b","system_id":"levelo_inurba_marseille","lat":43.24399,"lon":5.37044,"is_reserved":false,"is_disabled":false,"rental_uris":{"android":"levelo://app?vid=c7a472ed-6dc3-4cde-83b8-4deb8af0b49b","ios":"levelo://app?vid=c7a472ed-6dc3-4cde-83b8-4deb8af0b49b"},"vehicle_type_id":"4","last_reported":1734714424,"current_range_meters":22000,"station_id":"ce4bhhh2rcd13ifvqfk0","pricing_plan_id":"cebpf4jnsgd1na2vs0mg"},{"bike_id":"3ffea8bf-3916-452a-8476-218764d3a98b","system_id":"levelo_inurba_marseille","lat":43.31754,"lon":5.39014,"is_reserved":false,"is_disabled":false,"rental_uris":{"android":"levelo://app?vid=3ffea8bf-3916-452a-8476-218764d3a98b","ios":"levelo://app?vid=3ffea8bf-3916-452a-8476-218764d3a98b"},"vehicle_type_id":"4","last_reported":1734714424,"current_range_meters":8800,"station_id":"ce4bhqp2rcd13ifvqhng","pricing_plan_id":"cebpf4jnsgd1na2vs0mg"},{"bike_id":"39195c49-41ec-464d-9073-c9155fd21575","system_id":"levelo_inurba_marseille","lat":43.31681,"lon":5.40472,"is_reserved":false,"is_disabled":false,"rental_uris":{"android":"levelo://app?vid=39195c49-41ec-464d-9073-c9155fd21575","ios":"levelo://app?vid=39195c49-41ec-464d-9073-c9155fd21575"},"vehicle_type_id":"4","last_reported":1734714424,"current_range_meters":19600,"station_id":"ce4bh012rcd13ifvqd00","pricing_plan_id":"cebpf4jnsgd1na2vs0mg"},{"bike_id":"1569b405-3527-4d3e-86e5-dce51adbfda2","system_id":"levelo_inurba_marseille","lat":43.2582,"lon":5.39435,"is_reserved":false,"is_disabled":false,"rental_uris":{"android":"levelo://app?vid=1569b405-3527-4d3e-86e5-dce51adbfda2","ios":"levelo://app?vid=1569b405-3527-4d3e-86e5-dce51adbfda2"},"vehicle_type_id":"4","last_reported":1734714424,"current_range_meters":30400,"station_id":"ce4bhip2rcd13ifvqft0","pricing_plan_id":"cebpf4jnsgd1na2vs0mg"},{"bike_id":"6c6defc4-b864-4e68-bff1-70663a287e3f","system_id":"levelo_inurba_marseille","lat":43.2693,"lon":5.38909,"is_reserved":false,"is_disabled":false,"rental_uris":{"android":"levelo://app?vid=6c6defc4-b864-4e68-bff1-70663a287e3f","ios":"levelo://app?vid=6c6defc4-b864-4e68-bff1-70663a287e3f"},"vehicle_type_id":"4","last_reported":1734714424,"current_range_meters":39200,"station_id":"ce4bhhh2rcd13ifvqfl0","pricing_plan_id":"cebpf4jnsgd1na2vs0mg"},{"bike_id":"dd52cea9-6fe3-460c-a4fc-255f18d6f38c","system_id":"levelo_inurba_marseille","lat":43.25002,"lon":5.38933,"is_reserved":false,"is_disabled":false,"rental_uris":{"android":"levelo://app?vid=dd52cea9-6fe3-460c-a4fc-255f18d6f38c","ios":"levelo://app?vid=dd52cea9-6fe3-460c-a4fc-255f18d6f38c"},"vehicle_type_id":"4","last_reported":1734714424,"current_range_meters":28800,"station_id":"ce4bhgp2rcd13ifvqfd0","pricing_plan_id":"cebpf4jnsgd1na2vs0mg"},{"bike_id":"714703e4-4373-45a0-8859-0524fe8e8d54","system_id":"levelo_inurba_marseille","lat":43.30151,"lon":5.37426,"is_reserved":false,"is_disabled":false,"rental_uris":{"android":"levelo://app?vid=714703e4-4373-45a0-8859-0524fe8e8d54","ios":"levelo://app?vid=714703e4-4373-45a0-8859-0524fe8e8d54"},"vehicle_type_id":"4","last_reported":1734714424,"current_range_meters":36800,"station_id":"ce4bgs92rcd13ifvqcc0","pricing_plan_id":"cebpf4jnsgd1na2vs0mg"},{"bike_id":"dbfa572c-48d2-40b7-9e4a-c067a654725a","system_id":"levelo_inurba_marseille","lat":43.29713,"lon":5.36612,"is_reserved":false,"is_disabled":false,"rental_uris":{"android":"levelo://app?vid=dbfa572c-48d2-40b7-9e4a-c067a654725a","ios":"levelo://app?vid=dbfa572c-48d2-40b7-9e4a-c067a654725a"},"vehicle_type_id":"4","last_reported":1734714424,"current_range_meters":38800,"station_id":"ce4bgn12rcd13ifvqbt0","pricing_plan_id":"cebpf4jnsgd1na2vs0mg"},{"bike_id":"c1c1f643-8ca6-4907-87fc-f3b280fa0c6c","system_id":"levelo_inurba_marseille","lat":43.28997,"lon":5.35617,"is_reserved":false,"is_disabled":false,"rental_uris":{"android":"levelo://app?vid=c1c1f643-8ca6-4907-87fc-f3b280fa0c6c","ios":"levelo://app?vid=c1c1f643-8ca6-4907-87fc-f3b280fa0c6c"},"vehicle_type_id":"4","last_reported":1734714424,"current_range_meters":12800,"station_id":"ce4bhb92rcd13ifvqen0","pricing_plan_id":"cebpf4jnsgd1na2vs0mg"},{"bike_id":"a3490aca-cd3e-423c-b291-413d54e7a9b6","system_id":"levelo_inurba_marseille","lat":43.29739,"lon":5.377,"is_reserved":false,"is_disabled":false,"rental_uris":{"android":"levelo://app?vid=a3490aca-cd3e-423c-b291-413d54e7a9b6","ios":"levelo://app?vid=a3490aca-cd3e-423c-b291-413d54e7a9b6"},"vehicle_type_id":"4","last_reported":1734714424,"current_range_meters":36400,"station_id":"ce4bgkh2rcd13ifvqbl0","pricing_plan_id":"cebpf4jnsgd1na2vs0mg"},{"bike_id":"897e83d4-47e9-4759-95cb-be7dcc401779","system_id":"levelo_inurba_marseille","lat":43.286695,"lon":5.363487,"is_reserved":false,"is_disabled":false,"rental_uris":{"android":"levelo://app?vid=897e83d4-47e9-4759-95cb-be7dcc401779","ios":"levelo://app?vid=897e83d4-47e9-4759-95cb-be7dcc401779"},"vehicle_type_id":"4","last_reported":1734714424,"current_range_meters":39200,"station_id":"ce4bhah2rcd13ifvqej0","pricing_plan_id":"cebpf4jnsgd1na2vs0mg"},{"bike_id":"0d19ea23-c5b1-4de2-a9b3-59704aac99ea","system_id":"levelo_inurba_marseille","lat":43.23956,"lon":5.36642,"is_reserved":false,"is_disabled":false,"rental_uris":{"android":"levelo://app?vid=0d19ea23-c5b1-4de2-a9b3-59704aac99ea","ios":"levelo://app?vid=0d19ea23-c5b1-4de2-a9b3-59704aac99ea"},"vehicle_type_id":"4","last_reported":1734714424,"current_range_meters":30000,"station_id":"ce4bhi12rcd13ifvqfp0","pricing_plan_id":"cebpf4jnsgd1na2vs0mg"},{"bike_id":"9ae03718-4820-4789-a6ef-94ba3f9d34ae","system_id":"levelo_inurba_marseille","lat":43.30325,"lon":5.40439,"is_reserved":false,"is_disabled":false,"rental_uris":{"android":"levelo://app?vid=9ae03718-4820-4789-a6ef-94ba3f9d34ae","ios":"levelo://app?vid=9ae03718-4820-4789-a6ef-94ba3f9d34ae"},"vehicle_type_id":"4","last_reported":1734714424,"current_range_meters":16800,"station_id":"ce4bh012rcd13ifvqd10","pricing_plan_id":"cebpf4jnsgd1na2vs0mg"},{"bike_id":"be86c96b-fb94-4eb1-abd6-eaf43a735168","system_id":"levelo_inurba_marseille","lat":43.30895,"lon":5.39631,"is_reserved":false,"is_disabled":false,"rental_uris":{"android":"levelo://app?vid=be86c96b-fb94-4eb1-abd6-eaf43a735168","ios":"levelo://app?vid=be86c96b-fb94-4eb1-abd6-eaf43a735168"},"vehicle_type_id":"4","last_reported":1734714424,"current_range_meters":39200,"station_id":"ce4bh012rcd13ifvqcv0","pricing_plan_id":"cebpf4jnsgd1na2vs0mg"},{"bike_id":"6840d155-4ad1-41f0-8aba-5b39be5e42db","system_id":"levelo_inurba_marseille","lat":43.34147,"lon":5.40905,"is_reserved":false,"is_disabled":true,"rental_uris":{"android":"levelo://app?vid=6840d155-4ad1-41f0-8aba-5b39be5e42db","ios":"levelo://app?vid=6840d155-4ad1-41f0-8aba-5b39be5e42db"},"vehicle_type_id":"4","last_reported":1734714424,"current_range_meters":30000,"station_id":"ce4bhqh2rcd13ifvqhlg","pricing_plan_id":"cebpf4jnsgd1na2vs0mg"},{"bike_id":"49afe83b-abb5-4be5-a10f-e37f6b41e94f","system_id":"levelo_inurba_marseille","lat":43.29899,"lon":5.43661,"is_reserved":false,"is_disabled":false,"rental_uris":{"android":"levelo://app?vid=49afe83b-abb5-4be5-a10f-e37f6b41e94f","ios":"levelo://app?vid=49afe83b-abb5-4be5-a10f-e37f6b41e94f"},"vehicle_type_id":"4","last_reported":1734714424,"current_range_meters":32000,"station_id":"ce4bhpp2rcd13ifvqhfg","pricing_plan_id":"cebpf4jnsgd1na2vs0mg"},{"bike_id":"45bf07f8-9c21-4901-8608-fe03e5e167f1","system_id":"levelo_inurba_marseille","lat":43.30897,"lon":5.39654,"is_reserved":false,"is_disabled":false,"rental_uris":{"android":"levelo://app?vid=45bf07f8-9c21-4901-8608-fe03e5e167f1","ios":"levelo://app?vid=45bf07f8-9c21-4901-8608-fe03e5e167f1"},"vehicle_type_id":"4","last_reported":1734714424,"current_range_meters":37600,"station_id":"ce4bh012rcd13ifvqcv0","pricing_plan_id":"cebpf4jnsgd1na2vs0mg"},{"bike_id":"fe187b0f-abff-4fa7-8a20-0462e6c79208","system_id":"levelo_inurba_marseille","lat":43.24394,"lon":5.37056,"is_reserved":false,"is_disabled":false,"rental_uris":{"android":"levelo://app?vid=fe187b0f-abff-4fa7-8a20-0462e6c79208","ios":"levelo://app?vid=fe187b0f-abff-4fa7-8a20-0462e6c79208"},"vehicle_type_id":"4","last_reported":1734714424,"current_range_meters":22400,"station_id":"ce4bhhh2rcd13ifvqfk0","pricing_plan_id":"cebpf4jnsgd1na2vs0mg"},{"bike_id":"151f4207-3975-4b66-9edf-8603359e304a","system_id":"levelo_inurba_marseille","lat":43.29532,"lon":5.38537,"is_reserved":false,"is_disabled":false,"rental_uris":{"android":"levelo://app?vid=151f4207-3975-4b66-9edf-8603359e304a","ios":"levelo://app?vid=151f4207-3975-4b66-9edf-8603359e304a"},"vehicle_type_id":"4","last_reported":1734714424,"current_range_meters":28400,"station_id":"ce4bgih2rcd13ifvqba0","pricing_plan_id":"cebpf4jnsgd1na2vs0mg"},{"bike_id":"d98f0b8a-1ef4-43b4-85a1-12b00b5f4de1","system_id":"levelo_inurba_marseille","lat":43.28409,"lon":5.35018,"is_reserved":false,"is_disabled":false,"rental_uris":{"android":"levelo://app?vid=d98f0b8a-1ef4-43b4-85a1-12b00b5f4de1","ios":"levelo://app?vid=d98f0b8a-1ef4-43b4-85a1-12b00b5f4de1"},"vehicle_type_id":"4","last_reported":1734714424,"current_range_meters":12400,"station_id":"ce4bhbh2rcd13ifvqepg","pricing_plan_id":"cebpf4jnsgd1na2vs0mg"},{"bike_id":"f9e0b14b-57a1-411b-b186-29ed0107c612","system_id":"levelo_inurba_marseille","lat":43.29362,"lon":5.37857,"is_reserved":false,"is_disabled":false,"rental_uris":{"android":"levelo://app?vid=f9e0b14b-57a1-411b-b186-29ed0107c612","ios":"levelo://app?vid=f9e0b14b-57a1-411b-b186-29ed0107c612"},"vehicle_type_id":"4","last_reported":1734714424,"current_range_meters":25600,"station_id":"ce4bgjh2rcd13ifvqbf0","pricing_plan_id":"cebpf4jnsgd1na2vs0mg"},{"bike_id":"0e2bb598-cdc5-410c-840d-9a9428cfc3b4","system_id":"levelo_inurba_marseille","lat":43.28617,"lon":5.35105,"is_reserved":false,"is_disabled":false,"rental_uris":{"android":"levelo://app?vid=0e2bb598-cdc5-410c-840d-9a9428cfc3b4","ios":"levelo://app?vid=0e2bb598-cdc5-410c-840d-9a9428cfc3b4"},"vehicle_type_id":"4","last_reported":1734714424,"current_range_meters":28000,"station_id":"ce4bhch2rcd13ifvqeug","pricing_plan_id":"cebpf4jnsgd1na2vs0mg"},{"bike_id":"bd9c17d1-4dd9-4aac-b622-00ec7525bec9","system_id":"levelo_inurba_marseille","lat":43.28942,"lon":5.36404,"is_reserved":false,"is_disabled":false,"rental_uris":{"android":"levelo://app?vid=bd9c17d1-4dd9-4aac-b622-00ec7525bec9","ios":"levelo://app?vid=bd9c17d1-4dd9-4aac-b622-00ec7525bec9"},"vehicle_type_id":"4","last_reported":1734714424,"current_range_meters":21600,"station_id":"ce4bhc92rcd13ifvqetg","pricing_plan_id":"cebpf4jnsgd1na2vs0mg"},{"bike_id":"59ca2ebc-7c6f-439a-a11b-02933f88209e","system_id":"levelo_inurba_marseille","lat":43.27066,"lon":5.42288,"is_reserved":false,"is_disabled":false,"rental_uris":{"android":"levelo://app?vid=59ca2ebc-7c6f-439a-a11b-02933f88209e","ios":"levelo://app?vid=59ca2ebc-7c6f-439a-a11b-02933f88209e"},"vehicle_type_id":"4","last_reported":1734714424,"current_range_meters":6400,"station_id":"ce4bhk92rcd13ifvqgb0","pricing_plan_id":"cebpf4jnsgd1na2vs0mg"},{"bike_id":"c36f9794-db64-4a07-823f-b590f113a19f","system_id":"levelo_inurba_marseille","lat":43.27946,"lon":5.41045,"is_reserved":false,"is_disabled":false,"rental_uris":{"android":"levelo://app?vid=c36f9794-db64-4a07-823f-b590f113a19f","ios":"levelo://app?vid=c36f9794-db64-4a07-823f-b590f113a19f"},"vehicle_type_id":"4","last_reported":1734714424,"current_range_meters":9600,"station_id":"ce4bhnp2rcd13ifvqh0g","pricing_plan_id":"cebpf4jnsgd1na2vs0mg"},{"bike_id":"a05e82d5-edf0-4bab-8347-bee3a08758db","system_id":"levelo_inurba_marseille","lat":43.30327,"lon":5.40414,"is_reserved":false,"is_disabled":false,"rental_uris":{"android":"levelo://app?vid=a05e82d5-edf0-4bab-8347-bee3a08758db","ios":"levelo://app?vid=a05e82d5-edf0-4bab-8347-bee3a08758db"},"vehicle_type_id":"4","last_reported":1734714424,"current_range_meters":38800,"station_id":"ce4bh012rcd13ifvqd10","pricing_plan_id":"cebpf4jnsgd1na2vs0mg"},{"bike_id":"da19ecc3-329b-465b-a5be-26e696627a45","system_id":"levelo_inurba_marseille","lat":43.2784,"lon":5.39211,"is_reserved":false,"is_disabled":false,"rental_uris":{"android":"levelo://app?vid=da19ecc3-329b-465b-a5be-26e696627a45","ios":"levelo://app?vid=da19ecc3-329b-465b-a5be-26e696627a45"},"vehicle_type_id":"4","last_reported":1734714424,"current_range_meters":30800,"station_id":"ce4bhjp2rcd13ifvqga0","pricing_plan_id":"cebpf4jnsgd1na2vs0mg"},{"bike_id":"75bcc3b1-3091-4198-922a-90b0ea0094c0","system_id":"levelo_inurba_marseille","lat":43.25581,"lon":5.38235,"is_reserved":false,"is_disabled":false,"rental_uris":{"android":"levelo://app?vid=75bcc3b1-3091-4198-922a-90b0ea0094c0","ios":"levelo://app?vid=75bcc3b1-3091-4198-922a-90b0ea0094c0"},"vehicle_type_id":"4","last_reported":1734714424,"current_range_meters":39200,"station_id":"ce4bhih2rcd13ifvqfs0","pricing_plan_id":"cebpf4jnsgd1na2vs0mg"},{"bike_id":"f111cf8c-c88f-4078-b751-43b0b653fb0e","system_id":"levelo_inurba_marseille","lat":43.28714,"lon":5.39987,"is_reserved":false,"is_disabled":false,"rental_uris":{"android":"levelo://app?vid=f111cf8c-c88f-4078-b751-43b0b653fb0e","ios":"levelo://app?vid=f111cf8c-c88f-4078-b751-43b0b653fb0e"},"vehicle_type_id":"4","last_reported":1734714424,"current_range_meters":28400,"station_id":"ce4bho92rcd13ifvqh3g","pricing_plan_id":"cebpf4jnsgd1na2vs0mg"},{"bike_id":"b5436064-4838-4a21-99fb-87553b534de1","system_id":"levelo_inurba_marseille","lat":43.29283,"lon":5.36852,"is_reserved":false,"is_disabled":false,"rental_uris":{"android":"levelo://app?vid=b5436064-4838-4a21-99fb-87553b534de1","ios":"levelo://app?vid=b5436064-4838-4a21-99fb-87553b534de1"},"vehicle_type_id":"4","last_reported":1734714424,"current_range_meters":32800,"station_id":"ce4bhbp2rcd13ifvqesg","pricing_plan_id":"cebpf4jnsgd1na2vs0mg"},{"bike_id":"050c3878-40f7-4736-b04e-eb1dd4174ffa","system_id":"levelo_inurba_marseille","lat":43.23188,"lon":5.39978,"is_reserved":false,"is_disabled":false,"rental_uris":{"android":"levelo://app?vid=050c3878-40f7-4736-b04e-eb1dd4174ffa","ios":"levelo://app?vid=050c3878-40f7-4736-b04e-eb1dd4174ffa"},"vehicle_type_id":"4","last_reported":1734714424,"current_range_meters":39200,"station_id":"ce4bhn12rcd13ifvqgqg","pricing_plan_id":"cebpf4jnsgd1na2vs0mg"},{"bike_id":"ceca975b-b342-4918-8353-e4cd51aebfcc","system_id":"levelo_inurba_marseille","lat":43.28621,"lon":5.35113,"is_reserved":false,"is_disabled":false,"rental_uris":{"android":"levelo://app?vid=ceca975b-b342-4918-8353-e4cd51aebfcc","ios":"levelo://app?vid=ceca975b-b342-4918-8353-e4cd51aebfcc"},"vehicle_type_id":"4","last_reported":1734714424,"current_range_meters":9200,"station_id":"ce4bhch2rcd13ifvqeug","pricing_plan_id":"cebpf4jnsgd1na2vs0mg"},{"bike_id":"1f84512c-4bd7-4e9a-8ae9-c58538d6e275","system_id":"levelo_inurba_marseille","lat":43.28669,"lon":5.36346,"is_reserved":false,"is_disabled":false,"rental_uris":{"android":"levelo://app?vid=1f84512c-4bd7-4e9a-8ae9-c58538d6e275","ios":"levelo://app?vid=1f84512c-4bd7-4e9a-8ae9-c58538d6e275"},"vehicle_type_id":"4","last_reported":1734714424,"current_range_meters":38800,"station_id":"ce4bhah2rcd13ifvqej0","pricing_plan_id":"cebpf4jnsgd1na2vs0mg"},{"bike_id":"72492ff3-d3e5-4b81-822b-1d3357339451","system_id":"levelo_inurba_marseille","lat":43.29303,"lon":5.40004,"is_reserved":false,"is_disabled":true,"rental_uris":{"android":"levelo://app?vid=72492ff3-d3e5-4b81-822b-1d3357339451","ios":"levelo://app?vid=72492ff3-d3e5-4b81-822b-1d3357339451"},"vehicle_type_id":"4","last_reported":1734714424,"current_range_meters":30400,"station_id":"","pricing_plan_id":"cebpf4jnsgd1na2vs0mg"},{"bike_id":"68cc3280-8c90-422e-b1e6-051d15979724","system_id":"levelo_inurba_marseille","lat":43.23219,"lon":5.39982,"is_reserved":false,"is_disabled":false,"rental_uris":{"android":"levelo://app?vid=68cc3280-8c90-422e-b1e6-051d15979724","ios":"levelo://app?vid=68cc3280-8c90-422e-b1e6-051d15979724"},"vehicle_type_id":"4","last_reported":1734714424,"current_range_meters":20400,"station_id":"ce4bhn12rcd13ifvqgqg","pricing_plan_id":"cebpf4jnsgd1na2vs0mg"},{"bike_id":"a2da045e-d70f-47e1-86cb-7c260b658fcb","system_id":"levelo_inurba_marseille","lat":43.30932,"lon":5.40146,"is_reserved":false,"is_disabled":false,"rental_uris":{"android":"levelo://app?vid=a2da045e-d70f-47e1-86cb-7c260b658fcb","ios":"levelo://app?vid=a2da045e-d70f-47e1-86cb-7c260b658fcb"},"vehicle_type_id":"4","last_reported":1734714424,"current_range_meters":5600,"station_id":"ce4bgvp2rcd13ifvqct0","pricing_plan_id":"cebpf4jnsgd1na2vs0mg"},{"bike_id":"90cd4a4f-7672-4c14-9470-5730c36fee65","system_id":"levelo_inurba_marseille","lat":43.29359,"lon":5.37831,"is_reserved":false,"is_disabled":false,"rental_uris":{"android":"levelo://app?vid=90cd4a4f-7672-4c14-9470-5730c36fee65","ios":"levelo://app?vid=90cd4a4f-7672-4c14-9470-5730c36fee65"},"vehicle_type_id":"4","last_reported":1734714424,"current_range_meters":8800,"station_id":"ce4bgjh2rcd13ifvqbf0","pricing_plan_id":"cebpf4jnsgd1na2vs0mg"},{"bike_id":"c6d5c8ba-70f5-4074-8c4b-3cb1c3c5b7aa","system_id":"levelo_inurba_marseille","lat":43.30175,"lon":5.38085,"is_reserved":false,"is_disabled":false,"rental_uris":{"android":"levelo://app?vid=c6d5c8ba-70f5-4074-8c4b-3cb1c3c5b7aa","ios":"levelo://app?vid=c6d5c8ba-70f5-4074-8c4b-3cb1c3c5b7aa"},"vehicle_type_id":"4","last_reported":1734714424,"current_range_meters":36800,"station_id":"ce4bgjp2rcd13ifvqbh0","pricing_plan_id":"cebpf4jnsgd1na2vs0mg"},{"bike_id":"1a342775-2bd5-4159-a6c7-d6a91f4a347b","system_id":"levelo_inurba_marseille","lat":43.29725,"lon":5.37702,"is_reserved":false,"is_disabled":false,"rental_uris":{"android":"levelo://app?vid=1a342775-2bd5-4159-a6c7-d6a91f4a347b","ios":"levelo://app?vid=1a342775-2bd5-4159-a6c7-d6a91f4a347b"},"vehicle_type_id":"4","last_reported":1734714424,"current_range_meters":32800,"station_id":"ce4bgkh2rcd13ifvqbl0","pricing_plan_id":"cebpf4jnsgd1na2vs0mg"},{"bike_id":"b3c94148-282c-49ef-bed3-a778d2e917e9","system_id":"levelo_inurba_marseille","lat":43.30155,"lon":5.38089,"is_reserved":false,"is_disabled":false,"rental_uris":{"android":"levelo://app?vid=b3c94148-282c-49ef-bed3-a778d2e917e9","ios":"levelo://app?vid=b3c94148-282c-49ef-bed3-a778d2e917e9"},"vehicle_type_id":"4","last_reported":1734714424,"current_range_meters":33600,"station_id":"ce4bgjp2rcd13ifvqbh0","pricing_plan_id":"cebpf4jnsgd1na2vs0mg"},{"bike_id":"38c70ce1-4c66-4d3e-be01-20b6e3dd77e8","system_id":"levelo_inurba_marseille","lat":43.29225,"lon":5.36078,"is_reserved":false,"is_disabled":false,"rental_uris":{"android":"levelo://app?vid=38c70ce1-4c66-4d3e-be01-20b6e3dd77e8","ios":"levelo://app?vid=38c70ce1-4c66-4d3e-be01-20b6e3dd77e8"},"vehicle_type_id":"4","last_reported":1734714424,"current_range_meters":19600,"station_id":"ce4bhbh2rcd13ifvqeqg","pricing_plan_id":"cebpf4jnsgd1na2vs0mg"},{"bike_id":"f2155042-275c-47e0-8cae-fe4b77efcb7a","system_id":"levelo_inurba_marseille","lat":43.26933,"lon":5.40252,"is_reserved":false,"is_disabled":false,"rental_uris":{"android":"levelo://app?vid=f2155042-275c-47e0-8cae-fe4b77efcb7a","ios":"levelo://app?vid=f2155042-275c-47e0-8cae-fe4b77efcb7a"},"vehicle_type_id":"4","last_reported":1734714424,"current_range_meters":30800,"station_id":"cjm6bp8fraef2m0cb0m0","pricing_plan_id":"cebpf4jnsgd1na2vs0mg"},{"bike_id":"474c384d-183f-4785-89a5-fa9fc87a01e5","system_id":"levelo_inurba_marseille","lat":43.27905,"lon":5.38024,"is_reserved":false,"is_disabled":false,"rental_uris":{"android":"levelo://app?vid=474c384d-183f-4785-89a5-fa9fc87a01e5","ios":"levelo://app?vid=474c384d-183f-4785-89a5-fa9fc87a01e5"},"vehicle_type_id":"4","last_reported":1734714424,"current_range_meters":27200,"station_id":"ce4bhf92rcd13ifvqf50","pricing_plan_id":"cebpf4jnsgd1na2vs0mg"},{"bike_id":"54d44a46-a2d6-4450-922f-4ed5f2190865","system_id":"levelo_inurba_marseille","lat":43.31324,"lon":5.397,"is_reserved":false,"is_disabled":false,"rental_uris":{"android":"levelo://app?vid=54d44a46-a2d6-4450-922f-4ed5f2190865","ios":"levelo://app?vid=54d44a46-a2d6-4450-922f-4ed5f2190865"},"vehicle_type_id":"4","last_reported":1734714424,"current_range_meters":32000,"station_id":"ce4bgvp2rcd13ifvqcu0","pricing_plan_id":"cebpf4jnsgd1na2vs0mg"},{"bike_id":"782bcbf2-b7de-4b04-bebc-aaa0329dd90c","system_id":"levelo_inurba_marseille","lat":43.23194,"lon":5.35552,"is_reserved":false,"is_disabled":false,"rental_uris":{"android":"levelo://app?vid=782bcbf2-b7de-4b04-bebc-aaa0329dd90c","ios":"levelo://app?vid=782bcbf2-b7de-4b04-bebc-aaa0329dd90c"},"vehicle_type_id":"4","last_reported":1734714424,"current_range_meters":36000,"station_id":"ce4bhu92rcd13ifvqi70","pricing_plan_id":"cebpf4jnsgd1na2vs0mg"},{"bike_id":"675a624e-8114-4f81-a4e0-6c54fe5ca997","system_id":"levelo_inurba_marseille","lat":43.29709,"lon":5.37706,"is_reserved":false,"is_disabled":false,"rental_uris":{"android":"levelo://app?vid=675a624e-8114-4f81-a4e0-6c54fe5ca997","ios":"levelo://app?vid=675a624e-8114-4f81-a4e0-6c54fe5ca997"},"vehicle_type_id":"4","last_reported":1734714424,"current_range_meters":28000,"station_id":"ce4bgkh2rcd13ifvqbl0","pricing_plan_id":"cebpf4jnsgd1na2vs0mg"},{"bike_id":"b25c41fe-b8aa-49cb-a3a5-72db0c9511e9","system_id":"levelo_inurba_marseille","lat":43.29552,"lon":5.42294,"is_reserved":false,"is_disabled":false,"rental_uris":{"android":"levelo://app?vid=b25c41fe-b8aa-49cb-a3a5-72db0c9511e9","ios":"levelo://app?vid=b25c41fe-b8aa-49cb-a3a5-72db0c9511e9"},"vehicle_type_id":"4","last_reported":1734714424,"current_range_meters":24400,"station_id":"ce4bhph2rcd13ifvqhdg","pricing_plan_id":"cebpf4jnsgd1na2vs0mg"},{"bike_id":"3bc3f774-8045-4b13-a54f-3a826c864f17","system_id":"levelo_inurba_marseille","lat":43.2799,"lon":5.41667,"is_reserved":false,"is_disabled":true,"rental_uris":{"android":"levelo://app?vid=3bc3f774-8045-4b13-a54f-3a826c864f17","ios":"levelo://app?vid=3bc3f774-8045-4b13-a54f-3a826c864f17"},"vehicle_type_id":"4","last_reported":1734714424,"current_range_meters":0,"station_id":"ce4bho12rcd13ifvqh1g","pricing_plan_id":"cebpf4jnsgd1na2vs0mg"},{"bike_id":"d80909b9-d4d5-43a3-ad28-9cd88751c412","system_id":"levelo_inurba_marseille","lat":43.2953,"lon":5.3855,"is_reserved":false,"is_disabled":false,"rental_uris":{"android":"levelo://app?vid=d80909b9-d4d5-43a3-ad28-9cd88751c412","ios":"levelo://app?vid=d80909b9-d4d5-43a3-ad28-9cd88751c412"},"vehicle_type_id":"4","last_reported":1734714424,"current_range_meters":22800,"station_id":"ce4bgih2rcd13ifvqba0","pricing_plan_id":"cebpf4jnsgd1na2vs0mg"},{"bike_id":"1bcc0f46-5e30-45d6-85c2-91a67a98fb1d","system_id":"levelo_inurba_marseille","lat":43.29126,"lon":5.38274,"is_reserved":false,"is_disabled":false,"rental_uris":{"android":"levelo://app?vid=1bcc0f46-5e30-45d6-85c2-91a67a98fb1d","ios":"levelo://app?vid=1bcc0f46-5e30-45d6-85c2-91a67a98fb1d"},"vehicle_type_id":"4","last_reported":1734714424,"current_range_meters":32000,"station_id":"ce4bh2h2rcd13ifvqdh0","pricing_plan_id":"cebpf4jnsgd1na2vs0mg"},{"bike_id":"1897ad2d-5c02-4d9f-ba4c-937899dfbdc3","system_id":"levelo_inurba_marseille","lat":43.24393,"lon":5.37034,"is_reserved":false,"is_disabled":false,"rental_uris":{"android":"levelo://app?vid=1897ad2d-5c02-4d9f-ba4c-937899dfbdc3","ios":"levelo://app?vid=1897ad2d-5c02-4d9f-ba4c-937899dfbdc3"},"vehicle_type_id":"4","last_reported":1734714424,"current_range_meters":38800,"station_id":"ce4bhhh2rcd13ifvqfk0","pricing_plan_id":"cebpf4jnsgd1na2vs0mg"},{"bike_id":"e9e5d726-62e1-4b6b-a23c-0a4951c24076","system_id":"levelo_inurba_marseille","lat":43.24088,"lon":5.39703,"is_reserved":false,"is_disabled":true,"rental_uris":{"android":"levelo://app?vid=e9e5d726-62e1-4b6b-a23c-0a4951c24076","ios":"levelo://app?vid=e9e5d726-62e1-4b6b-a23c-0a4951c24076"},"vehicle_type_id":"4","last_reported":1734714424,"current_range_meters":0,"station_id":"","pricing_plan_id":"cebpf4jnsgd1na2vs0mg"},{"bike_id":"d532bafb-9e8b-4cf7-90e8-b135eb98500d","system_id":"levelo_inurba_marseille","lat":43.30558,"lon":5.36704,"is_reserved":false,"is_disabled":false,"rental_uris":{"android":"levelo://app?vid=d532bafb-9e8b-4cf7-90e8-b135eb98500d","ios":"levelo://app?vid=d532bafb-9e8b-4cf7-90e8-b135eb98500d"},"vehicle_type_id":"4","last_reported":1734714424,"current_range_meters":37600,"station_id":"ce4bgrp2rcd13ifvqc9g","pricing_plan_id":"cebpf4jnsgd1na2vs0mg"},{"bike_id":"08f2b63e-6af9-4ff4-b28a-98a0d13ebfd6","system_id":"levelo_inurba_marseille","lat":43.29311,"lon":5.3717,"is_reserved":false,"is_disabled":false,"rental_uris":{"android":"levelo://app?vid=08f2b63e-6af9-4ff4-b28a-98a0d13ebfd6","ios":"levelo://app?vid=08f2b63e-6af9-4ff4-b28a-98a0d13ebfd6"},"vehicle_type_id":"4","last_reported":1734714424,"current_range_meters":38800,"station_id":"ce4bgh92rcd13ifvqb40","pricing_plan_id":"cebpf4jnsgd1na2vs0mg"},{"bike_id":"9a7e7c8c-858b-4073-9c89-9be089422302","system_id":"levelo_inurba_marseille","lat":43.31164,"lon":5.38732,"is_reserved":false,"is_disabled":false,"rental_uris":{"android":"levelo://app?vid=9a7e7c8c-858b-4073-9c89-9be089422302","ios":"levelo://app?vid=9a7e7c8c-858b-4073-9c89-9be089422302"},"vehicle_type_id":"4","last_reported":1734714424,"current_range_meters":27600,"station_id":"ce4bgv12rcd13ifvqcp0","pricing_plan_id":"cebpf4jnsgd1na2vs0mg"},{"bike_id":"36e1421a-526a-45b4-9352-d10c15fd9574","system_id":"levelo_inurba_marseille","lat":43.30797,"lon":5.43519,"is_reserved":false,"is_disabled":false,"rental_uris":{"android":"levelo://app?vid=36e1421a-526a-45b4-9352-d10c15fd9574","ios":"levelo://app?vid=36e1421a-526a-45b4-9352-d10c15fd9574"},"vehicle_type_id":"4","last_reported":1734714424,"current_range_meters":24800,"station_id":"ce4bhph2rcd13ifvqheg","pricing_plan_id":"cebpf4jnsgd1na2vs0mg"},{"bike_id":"da47edb6-6b7d-48ce-8360-5fd99f41974c","system_id":"levelo_inurba_marseille","lat":43.23187,"lon":5.39993,"is_reserved":false,"is_disabled":false,"rental_uris":{"android":"levelo://app?vid=da47edb6-6b7d-48ce-8360-5fd99f41974c","ios":"levelo://app?vid=da47edb6-6b7d-48ce-8360-5fd99f41974c"},"vehicle_type_id":"4","last_reported":1734714424,"current_range_meters":29600,"station_id":"ce4bhn12rcd13ifvqgqg","pricing_plan_id":"cebpf4jnsgd1na2vs0mg"},{"bike_id":"04d37c8a-6ebd-40c4-a0e4-cd9a3949c8a3","system_id":"levelo_inurba_marseille","lat":43.31711,"lon":5.3775,"is_reserved":false,"is_disabled":false,"rental_uris":{"android":"levelo://app?vid=04d37c8a-6ebd-40c4-a0e4-cd9a3949c8a3","ios":"levelo://app?vid=04d37c8a-6ebd-40c4-a0e4-cd9a3949c8a3"},"vehicle_type_id":"4","last_reported":1734714424,"current_range_meters":34000,"station_id":"ce4bgth2rcd13ifvqch0","pricing_plan_id":"cebpf4jnsgd1na2vs0mg"},{"bike_id":"8d5cd704-3ae3-4b46-9311-ff35a83d3c93","system_id":"levelo_inurba_marseille","lat":43.26816,"lon":5.39433,"is_reserved":false,"is_disabled":false,"rental_uris":{"android":"levelo://app?vid=8d5cd704-3ae3-4b46-9311-ff35a83d3c93","ios":"levelo://app?vid=8d5cd704-3ae3-4b46-9311-ff35a83d3c93"},"vehicle_type_id":"4","last_reported":1734714424,"current_range_meters":32000,"station_id":"ce4bhh12rcd13ifvqfg0","pricing_plan_id":"cebpf4jnsgd1na2vs0mg"},{"bike_id":"0e7ace62-43ff-4b65-b292-1bdd6f5e20e7","system_id":"levelo_inurba_marseille","lat":43.31699,"lon":5.37752,"is_reserved":false,"is_disabled":false,"rental_uris":{"android":"levelo://app?vid=0e7ace62-43ff-4b65-b292-1bdd6f5e20e7","ios":"levelo://app?vid=0e7ace62-43ff-4b65-b292-1bdd6f5e20e7"},"vehicle_type_id":"4","last_reported":1734714424,"current_range_meters":18000,"station_id":"ce4bgth2rcd13ifvqch0","pricing_plan_id":"cebpf4jnsgd1na2vs0mg"},{"bike_id":"44127e4e-8e84-4a38-89f7-8f4efb63f7a5","system_id":"levelo_inurba_marseille","lat":43.31202,"lon":5.36753,"is_reserved":false,"is_disabled":true,"rental_uris":{"android":"levelo://app?vid=44127e4e-8e84-4a38-89f7-8f4efb63f7a5","ios":"levelo://app?vid=44127e4e-8e84-4a38-89f7-8f4efb63f7a5"},"vehicle_type_id":"4","last_reported":1734714424,"current_range_meters":0,"station_id":"","pricing_plan_id":"cebpf4jnsgd1na2vs0mg"},{"bike_id":"bde35b0c-c13f-4d11-b10e-b6895da44170","system_id":"levelo_inurba_marseille","lat":43.28157,"lon":5.42643,"is_reserved":false,"is_disabled":false,"rental_uris":{"android":"levelo://app?vid=bde35b0c-c13f-4d11-b10e-b6895da44170","ios":"levelo://app?vid=bde35b0c-c13f-4d11-b10e-b6895da44170"},"vehicle_type_id":"4","last_reported":1734714424,"current_range_meters":26000,"station_id":"ce4bhnh2rcd13ifvqgug","pricing_plan_id":"cebpf4jnsgd1na2vs0mg"},{"bike_id":"14a3341d-76a5-4f85-81ea-b7803f59e410","system_id":"levelo_inurba_marseille","lat":43.32304,"lon":5.38387,"is_reserved":false,"is_disabled":false,"rental_uris":{"android":"levelo://app?vid=14a3341d-76a5-4f85-81ea-b7803f59e410","ios":"levelo://app?vid=14a3341d-76a5-4f85-81ea-b7803f59e410"},"vehicle_type_id":"4","last_reported":1734714424,"current_range_meters":35200,"station_id":"","pricing_plan_id":"cebpf4jnsgd1na2vs0mg"},{"bike_id":"ad0d9634-91c1-4e40-9c9b-65e7fe20ac12","system_id":"levelo_inurba_marseille","lat":43.27996,"lon":5.40024,"is_reserved":false,"is_disabled":false,"rental_uris":{"android":"levelo://app?vid=ad0d9634-91c1-4e40-9c9b-65e7fe20ac12","ios":"levelo://app?vid=ad0d9634-91c1-4e40-9c9b-65e7fe20ac12"},"vehicle_type_id":"4","last_reported":1734714424,"current_range_meters":8800,"station_id":"ce4bho92rcd13ifvqh4g","pricing_plan_id":"cebpf4jnsgd1na2vs0mg"},{"bike_id":"e1441bd3-5e6b-4b6b-833f-857935be8d1e","system_id":"levelo_inurba_marseille","lat":43.31114,"lon":5.37775,"is_reserved":false,"is_disabled":false,"rental_uris":{"android":"levelo://app?vid=e1441bd3-5e6b-4b6b-833f-857935be8d1e","ios":"levelo://app?vid=e1441bd3-5e6b-4b6b-833f-857935be8d1e"},"vehicle_type_id":"4","last_reported":1734714424,"current_range_meters":28800,"station_id":"ce4bgt92rcd13ifvqcg0","pricing_plan_id":"cebpf4jnsgd1na2vs0mg"},{"bike_id":"16aed697-4c3c-4b8d-becb-29bd4ba293bc","system_id":"levelo_inurba_marseille","lat":43.29614,"lon":5.37153,"is_reserved":false,"is_disabled":false,"rental_uris":{"android":"levelo://app?vid=16aed697-4c3c-4b8d-becb-29bd4ba293bc","ios":"levelo://app?vid=16aed697-4c3c-4b8d-becb-29bd4ba293bc"},"vehicle_type_id":"4","last_reported":1734714424,"current_range_meters":36800,"station_id":"ce4bgnh2rcd13ifvqc0g","pricing_plan_id":"cebpf4jnsgd1na2vs0mg"},{"bike_id":"4c1fd80c-e9fb-42bb-9ee8-77cae5913cbe","system_id":"levelo_inurba_marseille","lat":43.28617,"lon":5.37058,"is_reserved":false,"is_disabled":false,"rental_uris":{"android":"levelo://app?vid=4c1fd80c-e9fb-42bb-9ee8-77cae5913cbe","ios":"levelo://app?vid=4c1fd80c-e9fb-42bb-9ee8-77cae5913cbe"},"vehicle_type_id":"4","last_reported":1734714424,"current_range_meters":36800,"station_id":"ce4bht12rcd13ifvqi60","pricing_plan_id":"cebpf4jnsgd1na2vs0mg"},{"bike_id":"a198e248-41c4-4a27-af7b-34f7a7595000","system_id":"levelo_inurba_marseille","lat":43.29917,"lon":5.37473,"is_reserved":false,"is_disabled":false,"rental_uris":{"android":"levelo://app?vid=a198e248-41c4-4a27-af7b-34f7a7595000","ios":"levelo://app?vid=a198e248-41c4-4a27-af7b-34f7a7595000"},"vehicle_type_id":"4","last_reported":1734714424,"current_range_meters":38800,"station_id":"ce4bgjh2rcd13ifvqbg0","pricing_plan_id":"cebpf4jnsgd1na2vs0mg"},{"bike_id":"363ab611-41e9-4e23-999c-0021be0a5ae9","system_id":"levelo_inurba_marseille","lat":43.28153,"lon":5.42648,"is_reserved":false,"is_disabled":true,"rental_uris":{"android":"levelo://app?vid=363ab611-41e9-4e23-999c-0021be0a5ae9","ios":"levelo://app?vid=363ab611-41e9-4e23-999c-0021be0a5ae9"},"vehicle_type_id":"4","last_reported":1734714424,"current_range_meters":1200,"station_id":"ce4bhnh2rcd13ifvqgug","pricing_plan_id":"cebpf4jnsgd1na2vs0mg"},{"bike_id":"e6f23545-a22b-4008-b0f0-8d4a46849ef4","system_id":"levelo_inurba_marseille","lat":43.28573,"lon":5.39497,"is_reserved":false,"is_disabled":false,"rental_uris":{"android":"levelo://app?vid=e6f23545-a22b-4008-b0f0-8d4a46849ef4","ios":"levelo://app?vid=e6f23545-a22b-4008-b0f0-8d4a46849ef4"},"vehicle_type_id":"4","last_reported":1734714424,"current_range_meters":30000,"station_id":"ce4bh292rcd13ifvqdg0","pricing_plan_id":"cebpf4jnsgd1na2vs0mg"},{"bike_id":"6d3e152a-52b7-4e48-8ce9-495072b8eb15","system_id":"levelo_inurba_marseille","lat":43.33019,"lon":5.39044,"is_reserved":false,"is_disabled":false,"rental_uris":{"android":"levelo://app?vid=6d3e152a-52b7-4e48-8ce9-495072b8eb15","ios":"levelo://app?vid=6d3e152a-52b7-4e48-8ce9-495072b8eb15"},"vehicle_type_id":"4","last_reported":1734714424,"current_range_meters":39200,"station_id":"ce4bhr92rcd13ifvqhrg","pricing_plan_id":"cebpf4jnsgd1na2vs0mg"},{"bike_id":"f4106c4e-f598-41ff-9f05-337b3040db0e","system_id":"levelo_inurba_marseille","lat":43.33019,"lon":5.39047,"is_reserved":false,"is_disabled":false,"rental_uris":{"android":"levelo://app?vid=f4106c4e-f598-41ff-9f05-337b3040db0e","ios":"levelo://app?vid=f4106c4e-f598-41ff-9f05-337b3040db0e"},"vehicle_type_id":"4","last_reported":1734714424,"current_range_meters":14000,"station_id":"ce4bhr92rcd13ifvqhrg","pricing_plan_id":"cebpf4jnsgd1na2vs0mg"},{"bike_id":"2cefe0c6-3249-4724-b23a-ee516f5043df","system_id":"levelo_inurba_marseille","lat":43.30433,"lon":5.38896,"is_reserved":false,"is_disabled":false,"rental_uris":{"android":"levelo://app?vid=2cefe0c6-3249-4724-b23a-ee516f5043df","ios":"levelo://app?vid=2cefe0c6-3249-4724-b23a-ee516f5043df"},"vehicle_type_id":"4","last_reported":1734714424,"current_range_meters":32400,"station_id":"ce4bgk12rcd13ifvqbi0","pricing_plan_id":"cebpf4jnsgd1na2vs0mg"},{"bike_id":"88d0fca1-50cd-440e-a583-785fe0c07914","system_id":"levelo_inurba_marseille","lat":43.330184,"lon":5.390411,"is_reserved":false,"is_disabled":false,"rental_uris":{"android":"levelo://app?vid=88d0fca1-50cd-440e-a583-785fe0c07914","ios":"levelo://app?vid=88d0fca1-50cd-440e-a583-785fe0c07914"},"vehicle_type_id":"4","last_reported":1734714424,"current_range_meters":3600,"station_id":"ce4bhr92rcd13ifvqhrg","pricing_plan_id":"cebpf4jnsgd1na2vs0mg"},{"bike_id":"584b817f-1a7d-4e53-8e6b-a260280bc97e","system_id":"levelo_inurba_marseille","lat":43.27811,"lon":5.40701,"is_reserved":false,"is_disabled":false,"rental_uris":{"android":"levelo://app?vid=584b817f-1a7d-4e53-8e6b-a260280bc97e","ios":"levelo://app?vid=584b817f-1a7d-4e53-8e6b-a260280bc97e"},"vehicle_type_id":"4","last_reported":1734714424,"current_range_meters":20800,"station_id":"ce4bhnh2rcd13ifvqgtg","pricing_plan_id":"cebpf4jnsgd1na2vs0mg"},{"bike_id":"47999179-0530-4062-bf2c-6049c149c154","system_id":"levelo_inurba_marseille","lat":43.30841,"lon":5.39647,"is_reserved":false,"is_disabled":false,"rental_uris":{"android":"levelo://app?vid=47999179-0530-4062-bf2c-6049c149c154","ios":"levelo://app?vid=47999179-0530-4062-bf2c-6049c149c154"},"vehicle_type_id":"4","last_reported":1734714424,"current_range_meters":38400,"station_id":"","pricing_plan_id":"cebpf4jnsgd1na2vs0mg"},{"bike_id":"e21b3740-0042-462a-b7db-bf50c59c5c46","system_id":"levelo_inurba_marseille","lat":43.23188,"lon":5.3998,"is_reserved":false,"is_disabled":false,"rental_uris":{"android":"levelo://app?vid=e21b3740-0042-462a-b7db-bf50c59c5c46","ios":"levelo://app?vid=e21b3740-0042-462a-b7db-bf50c59c5c46"},"vehicle_type_id":"4","last_reported":1734714424,"current_range_meters":39200,"station_id":"ce4bhn12rcd13ifvqgqg","pricing_plan_id":"cebpf4jnsgd1na2vs0mg"},{"bike_id":"4ce5df16-d3d9-4bcd-bd7b-5456cdfb6471","system_id":"levelo_inurba_marseille","lat":43.29624,"lon":5.37173,"is_reserved":false,"is_disabled":false,"rental_uris":{"android":"levelo://app?vid=4ce5df16-d3d9-4bcd-bd7b-5456cdfb6471","ios":"levelo://app?vid=4ce5df16-d3d9-4bcd-bd7b-5456cdfb6471"},"vehicle_type_id":"4","last_reported":1734714424,"current_range_meters":37600,"station_id":"ce4bgnh2rcd13ifvqc0g","pricing_plan_id":"cebpf4jnsgd1na2vs0mg"},{"bike_id":"0c3f74c9-7fe6-4a32-a121-9ffc2bb55675","system_id":"levelo_inurba_marseille","lat":43.24653,"lon":5.38895,"is_reserved":false,"is_disabled":false,"rental_uris":{"android":"levelo://app?vid=0c3f74c9-7fe6-4a32-a121-9ffc2bb55675","ios":"levelo://app?vid=0c3f74c9-7fe6-4a32-a121-9ffc2bb55675"},"vehicle_type_id":"4","last_reported":1734714424,"current_range_meters":22400,"station_id":"ce4bhg12rcd13ifvqf60","pricing_plan_id":"cebpf4jnsgd1na2vs0mg"},{"bike_id":"0c9a1202-8e72-4c9a-bd45-c006f8854121","system_id":"levelo_inurba_marseille","lat":43.30143,"lon":5.38078,"is_reserved":false,"is_disabled":false,"rental_uris":{"android":"levelo://app?vid=0c9a1202-8e72-4c9a-bd45-c006f8854121","ios":"levelo://app?vid=0c9a1202-8e72-4c9a-bd45-c006f8854121"},"vehicle_type_id":"4","last_reported":1734714424,"current_range_meters":19200,"station_id":"ce4bgjp2rcd13ifvqbh0","pricing_plan_id":"cebpf4jnsgd1na2vs0mg"},{"bike_id":"9f94c5b1-3e9e-4e29-8795-16921aa608a2","system_id":"levelo_inurba_marseille","lat":43.26782,"lon":5.39418,"is_reserved":false,"is_disabled":false,"rental_uris":{"android":"levelo://app?vid=9f94c5b1-3e9e-4e29-8795-16921aa608a2","ios":"levelo://app?vid=9f94c5b1-3e9e-4e29-8795-16921aa608a2"},"vehicle_type_id":"4","last_reported":1734714424,"current_range_meters":30000,"station_id":"ce4bhh12rcd13ifvqfg0","pricing_plan_id":"cebpf4jnsgd1na2vs0mg"},{"bike_id":"eeb165cd-0850-4135-b307-a7a2de607d7b","system_id":"levelo_inurba_marseille","lat":43.2862,"lon":5.37067,"is_reserved":false,"is_disabled":false,"rental_uris":{"android":"levelo://app?vid=eeb165cd-0850-4135-b307-a7a2de607d7b","ios":"levelo://app?vid=eeb165cd-0850-4135-b307-a7a2de607d7b"},"vehicle_type_id":"4","last_reported":1734714424,"current_range_meters":38800,"station_id":"ce4bht12rcd13ifvqi60","pricing_plan_id":"cebpf4jnsgd1na2vs0mg"},{"bike_id":"d15b9e1c-c1ed-413d-8ee1-a35fe12ec13c","system_id":"levelo_inurba_marseille","lat":43.30885,"lon":5.39629,"is_reserved":false,"is_disabled":false,"rental_uris":{"android":"levelo://app?vid=d15b9e1c-c1ed-413d-8ee1-a35fe12ec13c","ios":"levelo://app?vid=d15b9e1c-c1ed-413d-8ee1-a35fe12ec13c"},"vehicle_type_id":"4","last_reported":1734714424,"current_range_meters":38400,"station_id":"ce4bh012rcd13ifvqcv0","pricing_plan_id":"cebpf4jnsgd1na2vs0mg"},{"bike_id":"0b9f727d-92d2-402e-ac25-0e1d9792d334","system_id":"levelo_inurba_marseille","lat":43.24995,"lon":5.38937,"is_reserved":false,"is_disabled":false,"rental_uris":{"android":"levelo://app?vid=0b9f727d-92d2-402e-ac25-0e1d9792d334","ios":"levelo://app?vid=0b9f727d-92d2-402e-ac25-0e1d9792d334"},"vehicle_type_id":"4","last_reported":1734714424,"current_range_meters":0,"station_id":"ce4bhgp2rcd13ifvqfd0","pricing_plan_id":"cebpf4jnsgd1na2vs0mg"},{"bike_id":"bde16004-2a0c-4fc8-acdd-f812d033bf70","system_id":"levelo_inurba_marseille","lat":43.26065,"lon":5.39388,"is_reserved":false,"is_disabled":false,"rental_uris":{"android":"levelo://app?vid=bde16004-2a0c-4fc8-acdd-f812d033bf70","ios":"levelo://app?vid=bde16004-2a0c-4fc8-acdd-f812d033bf70"},"vehicle_type_id":"4","last_reported":1734714424,"current_range_meters":7200,"station_id":"ce4bhh92rcd13ifvqfj0","pricing_plan_id":"cebpf4jnsgd1na2vs0mg"},{"bike_id":"c6c8b182-0397-4cc8-ad31-743b7c56031b","system_id":"levelo_inurba_marseille","lat":43.27207,"lon":5.39189,"is_reserved":false,"is_disabled":true,"rental_uris":{"android":"levelo://app?vid=c6c8b182-0397-4cc8-ad31-743b7c56031b","ios":"levelo://app?vid=c6c8b182-0397-4cc8-ad31-743b7c56031b"},"vehicle_type_id":"4","last_reported":1734714424,"current_range_meters":36400,"station_id":"ce4bhhp2rcd13ifvqfm0","pricing_plan_id":"cebpf4jnsgd1na2vs0mg"},{"bike_id":"269a5c1d-dd1c-4e0c-a02f-f7dd3e557142","system_id":"levelo_inurba_marseille","lat":43.28274,"lon":5.35071,"is_reserved":false,"is_disabled":false,"rental_uris":{"android":"levelo://app?vid=269a5c1d-dd1c-4e0c-a02f-f7dd3e557142","ios":"levelo://app?vid=269a5c1d-dd1c-4e0c-a02f-f7dd3e557142"},"vehicle_type_id":"4","last_reported":1734714424,"current_range_meters":38400,"station_id":"ce4bhbp2rcd13ifvqerg","pricing_plan_id":"cebpf4jnsgd1na2vs0mg"},{"bike_id":"62b69370-4c85-4db5-b9ed-4f71c9312d9d","system_id":"levelo_inurba_marseille","lat":43.29976,"lon":5.38504,"is_reserved":false,"is_disabled":false,"rental_uris":{"android":"levelo://app?vid=62b69370-4c85-4db5-b9ed-4f71c9312d9d","ios":"levelo://app?vid=62b69370-4c85-4db5-b9ed-4f71c9312d9d"},"vehicle_type_id":"4","last_reported":1734714424,"current_range_meters":35200,"station_id":"ce4bgj92rcd13ifvqbd0","pricing_plan_id":"cebpf4jnsgd1na2vs0mg"},{"bike_id":"b97de283-c1e2-4a6a-a5f9-a7d1e36ef5dd","system_id":"levelo_inurba_marseille","lat":43.2962,"lon":5.37144,"is_reserved":false,"is_disabled":false,"rental_uris":{"android":"levelo://app?vid=b97de283-c1e2-4a6a-a5f9-a7d1e36ef5dd","ios":"levelo://app?vid=b97de283-c1e2-4a6a-a5f9-a7d1e36ef5dd"},"vehicle_type_id":"4","last_reported":1734714424,"current_range_meters":39200,"station_id":"ce4bgnh2rcd13ifvqc0g","pricing_plan_id":"cebpf4jnsgd1na2vs0mg"},{"bike_id":"9f50244a-d38a-491a-9f70-c23a46404b46","system_id":"levelo_inurba_marseille","lat":43.28603,"lon":5.3707,"is_reserved":false,"is_disabled":false,"rental_uris":{"android":"levelo://app?vid=9f50244a-d38a-491a-9f70-c23a46404b46","ios":"levelo://app?vid=9f50244a-d38a-491a-9f70-c23a46404b46"},"vehicle_type_id":"4","last_reported":1734714424,"current_range_meters":38800,"station_id":"ce4bht12rcd13ifvqi60","pricing_plan_id":"cebpf4jnsgd1na2vs0mg"},{"bike_id":"d49e9901-0be3-493d-8b2e-09dfce392707","system_id":"levelo_inurba_marseille","lat":43.27375,"lon":5.36266,"is_reserved":false,"is_disabled":false,"rental_uris":{"android":"levelo://app?vid=d49e9901-0be3-493d-8b2e-09dfce392707","ios":"levelo://app?vid=d49e9901-0be3-493d-8b2e-09dfce392707"},"vehicle_type_id":"4","last_reported":1734714424,"current_range_meters":38800,"station_id":"ce4bhbh2rcd13ifvqeo0","pricing_plan_id":"cebpf4jnsgd1na2vs0mg"},{"bike_id":"14ea9127-b96f-4810-917d-c001c3ab434c","system_id":"levelo_inurba_marseille","lat":43.26781,"lon":5.3942,"is_reserved":false,"is_disabled":false,"rental_uris":{"android":"levelo://app?vid=14ea9127-b96f-4810-917d-c001c3ab434c","ios":"levelo://app?vid=14ea9127-b96f-4810-917d-c001c3ab434c"},"vehicle_type_id":"4","last_reported":1734714424,"current_range_meters":21600,"station_id":"ce4bhh12rcd13ifvqfg0","pricing_plan_id":"cebpf4jnsgd1na2vs0mg"},{"bike_id":"2d8348c6-f536-4709-9955-5d94d8e38e89","system_id":"levelo_inurba_marseille","lat":43.27972,"lon":5.38748,"is_reserved":false,"is_disabled":false,"rental_uris":{"android":"levelo://app?vid=2d8348c6-f536-4709-9955-5d94d8e38e89","ios":"levelo://app?vid=2d8348c6-f536-4709-9955-5d94d8e38e89"},"vehicle_type_id":"4","last_reported":1734714424,"current_range_meters":38800,"station_id":"ce4bhg12rcd13ifvqf80","pricing_plan_id":"cebpf4jnsgd1na2vs0mg"},{"bike_id":"fb98f284-a2d9-4f3c-9562-39d6195392d4","system_id":"levelo_inurba_marseille","lat":43.26781,"lon":5.394185,"is_reserved":false,"is_disabled":false,"rental_uris":{"android":"levelo://app?vid=fb98f284-a2d9-4f3c-9562-39d6195392d4","ios":"levelo://app?vid=fb98f284-a2d9-4f3c-9562-39d6195392d4"},"vehicle_type_id":"4","last_reported":1734714424,"current_range_meters":28000,"station_id":"ce4bhh12rcd13ifvqfg0","pricing_plan_id":"cebpf4jnsgd1na2vs0mg"},{"bike_id":"ba613d9a-c172-4f64-b690-2b58c17adbf8","system_id":"levelo_inurba_marseille","lat":43.30537,"lon":5.36527,"is_reserved":false,"is_disabled":false,"rental_uris":{"android":"levelo://app?vid=ba613d9a-c172-4f64-b690-2b58c17adbf8","ios":"levelo://app?vid=ba613d9a-c172-4f64-b690-2b58c17adbf8"},"vehicle_type_id":"4","last_reported":1734714424,"current_range_meters":36400,"station_id":"ce4bgs12rcd13ifvqcag","pricing_plan_id":"cebpf4jnsgd1na2vs0mg"},{"bike_id":"7e85af87-de67-44d3-a7a1-797878cd961f","system_id":"levelo_inurba_marseille","lat":43.31068,"lon":5.3835,"is_reserved":false,"is_disabled":false,"rental_uris":{"android":"levelo://app?vid=7e85af87-de67-44d3-a7a1-797878cd961f","ios":"levelo://app?vid=7e85af87-de67-44d3-a7a1-797878cd961f"},"vehicle_type_id":"4","last_reported":1734714424,"current_range_meters":32400,"station_id":"ce4bgv92rcd13ifvqcr0","pricing_plan_id":"cebpf4jnsgd1na2vs0mg"},{"bike_id":"a778632e-b371-4e72-8853-c6878f32b072","system_id":"levelo_inurba_marseille","lat":43.29058,"lon":5.35931,"is_reserved":false,"is_disabled":false,"rental_uris":{"android":"levelo://app?vid=a778632e-b371-4e72-8853-c6878f32b072","ios":"levelo://app?vid=a778632e-b371-4e72-8853-c6878f32b072"},"vehicle_type_id":"4","last_reported":1734714424,"current_range_meters":33600,"station_id":"ce4bha92rcd13ifvqeg0","pricing_plan_id":"cebpf4jnsgd1na2vs0mg"},{"bike_id":"636fd7aa-b6da-43bb-be67-9454109ea4c8","system_id":"levelo_inurba_marseille","lat":43.30799,"lon":5.38159,"is_reserved":false,"is_disabled":false,"rental_uris":{"android":"levelo://app?vid=636fd7aa-b6da-43bb-be67-9454109ea4c8","ios":"levelo://app?vid=636fd7aa-b6da-43bb-be67-9454109ea4c8"},"vehicle_type_id":"4","last_reported":1734714424,"current_range_meters":37600,"station_id":"ce4bgt12rcd13ifvqce0","pricing_plan_id":"cebpf4jnsgd1na2vs0mg"},{"bike_id":"b6faa182-8f4d-405b-8533-e6a99bee3985","system_id":"levelo_inurba_marseille","lat":43.30903,"lon":5.37187,"is_reserved":false,"is_disabled":false,"rental_uris":{"android":"levelo://app?vid=b6faa182-8f4d-405b-8533-e6a99bee3985","ios":"levelo://app?vid=b6faa182-8f4d-405b-8533-e6a99bee3985"},"vehicle_type_id":"4","last_reported":1734714424,"current_range_meters":14400,"station_id":"ce4bguh2rcd13ifvqckg","pricing_plan_id":"cebpf4jnsgd1na2vs0mg"},{"bike_id":"91c0a3cc-7761-421e-bbf1-51ce4f2cbfda","system_id":"levelo_inurba_marseille","lat":43.26779,"lon":5.39417,"is_reserved":false,"is_disabled":false,"rental_uris":{"android":"levelo://app?vid=91c0a3cc-7761-421e-bbf1-51ce4f2cbfda","ios":"levelo://app?vid=91c0a3cc-7761-421e-bbf1-51ce4f2cbfda"},"vehicle_type_id":"4","last_reported":1734714424,"current_range_meters":23200,"station_id":"ce4bhh12rcd13ifvqfg0","pricing_plan_id":"cebpf4jnsgd1na2vs0mg"},{"bike_id":"8fb1bad3-a121-4eb1-a55f-687f99cf68d1","system_id":"levelo_inurba_marseille","lat":43.25516,"lon":5.37665,"is_reserved":false,"is_disabled":false,"rental_uris":{"android":"levelo://app?vid=8fb1bad3-a121-4eb1-a55f-687f99cf68d1","ios":"levelo://app?vid=8fb1bad3-a121-4eb1-a55f-687f99cf68d1"},"vehicle_type_id":"4","last_reported":1734714424,"current_range_meters":38800,"station_id":"ce4bhh12rcd13ifvqff0","pricing_plan_id":"cebpf4jnsgd1na2vs0mg"},{"bike_id":"09bec947-4c4d-46e1-81b7-d95e087b0d9f","system_id":"levelo_inurba_marseille","lat":43.25499,"lon":5.37644,"is_reserved":false,"is_disabled":false,"rental_uris":{"android":"levelo://app?vid=09bec947-4c4d-46e1-81b7-d95e087b0d9f","ios":"levelo://app?vid=09bec947-4c4d-46e1-81b7-d95e087b0d9f"},"vehicle_type_id":"4","last_reported":1734714424,"current_range_meters":38800,"station_id":"ce4bhh12rcd13ifvqff0","pricing_plan_id":"cebpf4jnsgd1na2vs0mg"},{"bike_id":"4d6c1b18-9fc4-4bac-b543-25095a86cbe6","system_id":"levelo_inurba_marseille","lat":43.275743,"lon":5.384261,"is_reserved":false,"is_disabled":false,"rental_uris":{"android":"levelo://app?vid=4d6c1b18-9fc4-4bac-b543-25095a86cbe6","ios":"levelo://app?vid=4d6c1b18-9fc4-4bac-b543-25095a86cbe6"},"vehicle_type_id":"4","last_reported":1734714424,"current_range_meters":12800,"station_id":"ce4bhh92rcd13ifvqfi0","pricing_plan_id":"cebpf4jnsgd1na2vs0mg"},{"bike_id":"d774063a-8d0e-493e-a1d0-cf5935db0089","system_id":"levelo_inurba_marseille","lat":43.26938,"lon":5.40245,"is_reserved":false,"is_disabled":false,"rental_uris":{"android":"levelo://app?vid=d774063a-8d0e-493e-a1d0-cf5935db0089","ios":"levelo://app?vid=d774063a-8d0e-493e-a1d0-cf5935db0089"},"vehicle_type_id":"4","last_reported":1734714424,"current_range_meters":39200,"station_id":"cjm6bp8fraef2m0cb0m0","pricing_plan_id":"cebpf4jnsgd1na2vs0mg"},{"bike_id":"fc4ff347-ef4d-4a4d-ae09-babf618fedb6","system_id":"levelo_inurba_marseille","lat":43.24169,"lon":5.36403,"is_reserved":false,"is_disabled":false,"rental_uris":{"android":"levelo://app?vid=fc4ff347-ef4d-4a4d-ae09-babf618fedb6","ios":"levelo://app?vid=fc4ff347-ef4d-4a4d-ae09-babf618fedb6"},"vehicle_type_id":"4","last_reported":1734714424,"current_range_meters":38000,"station_id":"cpo36qri1sfpv3e86is0","pricing_plan_id":"cebpf4jnsgd1na2vs0mg"},{"bike_id":"4e1c702f-4fec-4a09-a45d-af1848f5ba3b","system_id":"levelo_inurba_marseille","lat":43.25587,"lon":5.3824,"is_reserved":false,"is_disabled":false,"rental_uris":{"android":"levelo://app?vid=4e1c702f-4fec-4a09-a45d-af1848f5ba3b","ios":"levelo://app?vid=4e1c702f-4fec-4a09-a45d-af1848f5ba3b"},"vehicle_type_id":"4","last_reported":1734714424,"current_range_meters":38800,"station_id":"ce4bhih2rcd13ifvqfs0","pricing_plan_id":"cebpf4jnsgd1na2vs0mg"},{"bike_id":"92ef1c83-c9a3-4676-ad64-662c02748f79","system_id":"levelo_inurba_marseille","lat":43.28925,"lon":5.38401,"is_reserved":false,"is_disabled":false,"rental_uris":{"android":"levelo://app?vid=92ef1c83-c9a3-4676-ad64-662c02748f79","ios":"levelo://app?vid=92ef1c83-c9a3-4676-ad64-662c02748f79"},"vehicle_type_id":"4","last_reported":1734714424,"current_range_meters":39200,"station_id":"ce4bh612rcd13ifvqe6g","pricing_plan_id":"cebpf4jnsgd1na2vs0mg"},{"bike_id":"a2ea933a-60bd-4f1e-b3a4-92299134a850","system_id":"levelo_inurba_marseille","lat":43.29517,"lon":5.39409,"is_reserved":false,"is_disabled":false,"rental_uris":{"android":"levelo://app?vid=a2ea933a-60bd-4f1e-b3a4-92299134a850","ios":"levelo://app?vid=a2ea933a-60bd-4f1e-b3a4-92299134a850"},"vehicle_type_id":"4","last_reported":1734714424,"current_range_meters":36400,"station_id":"ce4bh292rcd13ifvqdf0","pricing_plan_id":"cebpf4jnsgd1na2vs0mg"},{"bike_id":"10cebee1-8e53-4504-8dc6-92f59059f295","system_id":"levelo_inurba_marseille","lat":43.27808,"lon":5.40702,"is_reserved":false,"is_disabled":false,"rental_uris":{"android":"levelo://app?vid=10cebee1-8e53-4504-8dc6-92f59059f295","ios":"levelo://app?vid=10cebee1-8e53-4504-8dc6-92f59059f295"},"vehicle_type_id":"4","last_reported":1734714424,"current_range_meters":38800,"station_id":"ce4bhnh2rcd13ifvqgtg","pricing_plan_id":"cebpf4jnsgd1na2vs0mg"},{"bike_id":"d6ec98e9-3ab3-41b1-9d6a-d3a51023b473","system_id":"levelo_inurba_marseille","lat":43.290217,"lon":5.35663,"is_reserved":false,"is_disabled":false,"rental_uris":{"android":"levelo://app?vid=d6ec98e9-3ab3-41b1-9d6a-d3a51023b473","ios":"levelo://app?vid=d6ec98e9-3ab3-41b1-9d6a-d3a51023b473"},"vehicle_type_id":"4","last_reported":1734714424,"current_range_meters":32400,"station_id":"ce4bhb92rcd13ifvqen0","pricing_plan_id":"cebpf4jnsgd1na2vs0mg"},{"bike_id":"c8d2fd91-0c14-4645-89cc-3e9c94401d3e","system_id":"levelo_inurba_marseille","lat":43.25822,"lon":5.39428,"is_reserved":false,"is_disabled":false,"rental_uris":{"android":"levelo://app?vid=c8d2fd91-0c14-4645-89cc-3e9c94401d3e","ios":"levelo://app?vid=c8d2fd91-0c14-4645-89cc-3e9c94401d3e"},"vehicle_type_id":"4","last_reported":1734714424,"current_range_meters":14400,"station_id":"ce4bhip2rcd13ifvqft0","pricing_plan_id":"cebpf4jnsgd1na2vs0mg"},{"bike_id":"4695cff2-e8a9-4cfc-a059-a1678fa39cf5","system_id":"levelo_inurba_marseille","lat":43.27815,"lon":5.40714,"is_reserved":false,"is_disabled":false,"rental_uris":{"android":"levelo://app?vid=4695cff2-e8a9-4cfc-a059-a1678fa39cf5","ios":"levelo://app?vid=4695cff2-e8a9-4cfc-a059-a1678fa39cf5"},"vehicle_type_id":"4","last_reported":1734714424,"current_range_meters":30800,"station_id":"ce4bhnh2rcd13ifvqgtg","pricing_plan_id":"cebpf4jnsgd1na2vs0mg"},{"bike_id":"d6a452c8-af1b-47ee-932f-c4d68aa8538e","system_id":"levelo_inurba_marseille","lat":43.31106,"lon":5.37757,"is_reserved":false,"is_disabled":false,"rental_uris":{"android":"levelo://app?vid=d6a452c8-af1b-47ee-932f-c4d68aa8538e","ios":"levelo://app?vid=d6a452c8-af1b-47ee-932f-c4d68aa8538e"},"vehicle_type_id":"4","last_reported":1734714424,"current_range_meters":38800,"station_id":"ce4bgt92rcd13ifvqcg0","pricing_plan_id":"cebpf4jnsgd1na2vs0mg"},{"bike_id":"3d6ccb02-c928-4eda-90ab-608df5082f9c","system_id":"levelo_inurba_marseille","lat":43.29867,"lon":5.397355,"is_reserved":false,"is_disabled":false,"rental_uris":{"android":"levelo://app?vid=3d6ccb02-c928-4eda-90ab-608df5082f9c","ios":"levelo://app?vid=3d6ccb02-c928-4eda-90ab-608df5082f9c"},"vehicle_type_id":"4","last_reported":1734714424,"current_range_meters":30400,"station_id":"ce4bh0h2rcd13ifvqd50","pricing_plan_id":"cebpf4jnsgd1na2vs0mg"},{"bike_id":"06e248df-04c6-4d69-b0eb-69cbb1fe0400","system_id":"levelo_inurba_marseille","lat":43.27371,"lon":5.36253,"is_reserved":false,"is_disabled":false,"rental_uris":{"android":"levelo://app?vid=06e248df-04c6-4d69-b0eb-69cbb1fe0400","ios":"levelo://app?vid=06e248df-04c6-4d69-b0eb-69cbb1fe0400"},"vehicle_type_id":"4","last_reported":1734714424,"current_range_meters":34800,"station_id":"ce4bhbh2rcd13ifvqeo0","pricing_plan_id":"cebpf4jnsgd1na2vs0mg"},{"bike_id":"014f65b2-e389-4dc9-bdbc-de77644f1fd3","system_id":"levelo_inurba_marseille","lat":43.248,"lon":5.37455,"is_reserved":false,"is_disabled":false,"rental_uris":{"android":"levelo://app?vid=014f65b2-e389-4dc9-bdbc-de77644f1fd3","ios":"levelo://app?vid=014f65b2-e389-4dc9-bdbc-de77644f1fd3"},"vehicle_type_id":"4","last_reported":1734714424,"current_range_meters":12000,"station_id":"ce4bhgh2rcd13ifvqfb0","pricing_plan_id":"cebpf4jnsgd1na2vs0mg"},{"bike_id":"6d9ca468-2848-426c-b1a2-70eb451dfd81","system_id":"levelo_inurba_marseille","lat":43.27831,"lon":5.39195,"is_reserved":false,"is_disabled":false,"rental_uris":{"android":"levelo://app?vid=6d9ca468-2848-426c-b1a2-70eb451dfd81","ios":"levelo://app?vid=6d9ca468-2848-426c-b1a2-70eb451dfd81"},"vehicle_type_id":"4","last_reported":1734714424,"current_range_meters":38800,"station_id":"ce4bhjp2rcd13ifvqga0","pricing_plan_id":"cebpf4jnsgd1na2vs0mg"},{"bike_id":"98fc733f-5d91-435e-ad0c-b71f46f528b9","system_id":"levelo_inurba_marseille","lat":43.29623,"lon":5.377,"is_reserved":false,"is_disabled":false,"rental_uris":{"android":"levelo://app?vid=98fc733f-5d91-435e-ad0c-b71f46f528b9","ios":"levelo://app?vid=98fc733f-5d91-435e-ad0c-b71f46f528b9"},"vehicle_type_id":"4","last_reported":1734714424,"current_range_meters":38800,"station_id":"ce4bgi92rcd13ifvqb90","pricing_plan_id":"cebpf4jnsgd1na2vs0mg"},{"bike_id":"f972efa0-2eda-45ac-9464-8153b81fb9aa","system_id":"levelo_inurba_marseille","lat":43.28656,"lon":5.36371,"is_reserved":false,"is_disabled":false,"rental_uris":{"android":"levelo://app?vid=f972efa0-2eda-45ac-9464-8153b81fb9aa","ios":"levelo://app?vid=f972efa0-2eda-45ac-9464-8153b81fb9aa"},"vehicle_type_id":"4","last_reported":1734714424,"current_range_meters":38800,"station_id":"ce4bhah2rcd13ifvqej0","pricing_plan_id":"cebpf4jnsgd1na2vs0mg"},{"bike_id":"e520e4aa-b056-4fb2-843f-202fb2c51e10","system_id":"levelo_inurba_marseille","lat":43.28714,"lon":5.36085,"is_reserved":false,"is_disabled":false,"rental_uris":{"android":"levelo://app?vid=e520e4aa-b056-4fb2-843f-202fb2c51e10","ios":"levelo://app?vid=e520e4aa-b056-4fb2-843f-202fb2c51e10"},"vehicle_type_id":"4","last_reported":1734714424,"current_range_meters":8400,"station_id":"cki0cbj6b192h4jlfktg","pricing_plan_id":"cebpf4jnsgd1na2vs0mg"},{"bike_id":"3b3a9f95-b6f9-4abb-b98c-297b41f30393","system_id":"levelo_inurba_marseille","lat":43.28852,"lon":5.35852,"is_reserved":false,"is_disabled":false,"rental_uris":{"android":"levelo://app?vid=3b3a9f95-b6f9-4abb-b98c-297b41f30393","ios":"levelo://app?vid=3b3a9f95-b6f9-4abb-b98c-297b41f30393"},"vehicle_type_id":"4","last_reported":1734714424,"current_range_meters":36400,"station_id":"ce4bhb12rcd13ifvqem0","pricing_plan_id":"cebpf4jnsgd1na2vs0mg"},{"bike_id":"bf1b8baa-ea39-4542-9d79-18e23a29399b","system_id":"levelo_inurba_marseille","lat":43.29061,"lon":5.37155,"is_reserved":false,"is_disabled":false,"rental_uris":{"android":"levelo://app?vid=bf1b8baa-ea39-4542-9d79-18e23a29399b","ios":"levelo://app?vid=bf1b8baa-ea39-4542-9d79-18e23a29399b"},"vehicle_type_id":"4","last_reported":1734714424,"current_range_meters":38400,"station_id":"ce4bh5p2rcd13ifvqe4g","pricing_plan_id":"cebpf4jnsgd1na2vs0mg"},{"bike_id":"2a12bde8-ca1e-4ca8-8cbb-8dbf9a638106","system_id":"levelo_inurba_marseille","lat":43.23203,"lon":5.35546,"is_reserved":false,"is_disabled":false,"rental_uris":{"android":"levelo://app?vid=2a12bde8-ca1e-4ca8-8cbb-8dbf9a638106","ios":"levelo://app?vid=2a12bde8-ca1e-4ca8-8cbb-8dbf9a638106"},"vehicle_type_id":"4","last_reported":1734714424,"current_range_meters":24800,"station_id":"ce4bhu92rcd13ifvqi70","pricing_plan_id":"cebpf4jnsgd1na2vs0mg"},{"bike_id":"82b98b08-cf84-40f3-a0a4-1136038c5b5f","system_id":"levelo_inurba_marseille","lat":43.28842,"lon":5.35864,"is_reserved":false,"is_disabled":false,"rental_uris":{"android":"levelo://app?vid=82b98b08-cf84-40f3-a0a4-1136038c5b5f","ios":"levelo://app?vid=82b98b08-cf84-40f3-a0a4-1136038c5b5f"},"vehicle_type_id":"4","last_reported":1734714424,"current_range_meters":34800,"station_id":"ce4bhb12rcd13ifvqem0","pricing_plan_id":"cebpf4jnsgd1na2vs0mg"},{"bike_id":"c4f01ca7-28f1-454d-ba01-b7f6f6e2db1f","system_id":"levelo_inurba_marseille","lat":43.24806,"lon":5.37457,"is_reserved":false,"is_disabled":false,"rental_uris":{"android":"levelo://app?vid=c4f01ca7-28f1-454d-ba01-b7f6f6e2db1f","ios":"levelo://app?vid=c4f01ca7-28f1-454d-ba01-b7f6f6e2db1f"},"vehicle_type_id":"4","last_reported":1734714424,"current_range_meters":15200,"station_id":"ce4bhgh2rcd13ifvqfb0","pricing_plan_id":"cebpf4jnsgd1na2vs0mg"},{"bike_id":"82abaae9-3692-47f6-9496-45f8991794ae","system_id":"levelo_inurba_marseille","lat":43.27978,"lon":5.38736,"is_reserved":false,"is_disabled":false,"rental_uris":{"android":"levelo://app?vid=82abaae9-3692-47f6-9496-45f8991794ae","ios":"levelo://app?vid=82abaae9-3692-47f6-9496-45f8991794ae"},"vehicle_type_id":"4","last_reported":1734714424,"current_range_meters":38800,"station_id":"ce4bhg12rcd13ifvqf80","pricing_plan_id":"cebpf4jnsgd1na2vs0mg"},{"bike_id":"d9e31e13-d2b9-4926-bcde-e349aeb42a53","system_id":"levelo_inurba_marseille","lat":43.26213,"lon":5.37935,"is_reserved":false,"is_disabled":false,"rental_uris":{"android":"levelo://app?vid=d9e31e13-d2b9-4926-bcde-e349aeb42a53","ios":"levelo://app?vid=d9e31e13-d2b9-4926-bcde-e349aeb42a53"},"vehicle_type_id":"4","last_reported":1734714424,"current_range_meters":9600,"station_id":"ce4bhjp2rcd13ifvqg90","pricing_plan_id":"cebpf4jnsgd1na2vs0mg"},{"bike_id":"f0bcbb45-555d-4c5b-8534-084b0fafc4e9","system_id":"levelo_inurba_marseille","lat":43.29175,"lon":5.37147,"is_reserved":false,"is_disabled":true,"rental_uris":{"android":"levelo://app?vid=f0bcbb45-555d-4c5b-8534-084b0fafc4e9","ios":"levelo://app?vid=f0bcbb45-555d-4c5b-8534-084b0fafc4e9"},"vehicle_type_id":"4","last_reported":1734714424,"current_range_meters":10800,"station_id":"ce4bha92rcd13ifvqeh0","pricing_plan_id":"cebpf4jnsgd1na2vs0mg"},{"bike_id":"b002d028-e42c-46e2-93ce-a18a7a90546e","system_id":"levelo_inurba_marseille","lat":43.3229,"lon":5.38293,"is_reserved":false,"is_disabled":false,"rental_uris":{"android":"levelo://app?vid=b002d028-e42c-46e2-93ce-a18a7a90546e","ios":"levelo://app?vid=b002d028-e42c-46e2-93ce-a18a7a90546e"},"vehicle_type_id":"4","last_reported":1734714424,"current_range_meters":16800,"station_id":"ce4bhr12rcd13ifvqhqg","pricing_plan_id":"cebpf4jnsgd1na2vs0mg"},{"bike_id":"6ddead71-4302-4eb5-b277-f6d2acacef55","system_id":"levelo_inurba_marseille","lat":43.3013,"lon":5.39887,"is_reserved":false,"is_disabled":true,"rental_uris":{"android":"levelo://app?vid=6ddead71-4302-4eb5-b277-f6d2acacef55","ios":"levelo://app?vid=6ddead71-4302-4eb5-b277-f6d2acacef55"},"vehicle_type_id":"4","last_reported":1734714424,"current_range_meters":16400,"station_id":"ce4bh0h2rcd13ifvqd40","pricing_plan_id":"cebpf4jnsgd1na2vs0mg"},{"bike_id":"cd7c4e5f-dac7-4b20-b813-d214c9037ac4","system_id":"levelo_inurba_marseille","lat":43.258612,"lon":5.399108,"is_reserved":false,"is_disabled":false,"rental_uris":{"android":"levelo://app?vid=cd7c4e5f-dac7-4b20-b813-d214c9037ac4","ios":"levelo://app?vid=cd7c4e5f-dac7-4b20-b813-d214c9037ac4"},"vehicle_type_id":"4","last_reported":1734714424,"current_range_meters":36400,"station_id":"ce4bhl92rcd13ifvqghg","pricing_plan_id":"cebpf4jnsgd1na2vs0mg"},{"bike_id":"90cd96ba-9b17-4956-9009-4e98e2df9184","system_id":"levelo_inurba_marseille","lat":43.29569,"lon":5.39971,"is_reserved":false,"is_disabled":false,"rental_uris":{"android":"levelo://app?vid=90cd96ba-9b17-4956-9009-4e98e2df9184","ios":"levelo://app?vid=90cd96ba-9b17-4956-9009-4e98e2df9184"},"vehicle_type_id":"4","last_reported":1734714424,"current_range_meters":38800,"station_id":"ce4bh312rcd13ifvqdj0","pricing_plan_id":"cebpf4jnsgd1na2vs0mg"},{"bike_id":"61857915-6f5e-4f5a-aaf9-89cb1d4ce8a1","system_id":"levelo_inurba_marseille","lat":43.29523,"lon":5.3905,"is_reserved":false,"is_disabled":false,"rental_uris":{"android":"levelo://app?vid=61857915-6f5e-4f5a-aaf9-89cb1d4ce8a1","ios":"levelo://app?vid=61857915-6f5e-4f5a-aaf9-89cb1d4ce8a1"},"vehicle_type_id":"4","last_reported":1734714424,"current_range_meters":25200,"station_id":"ce4bh3p2rcd13ifvqdp0","pricing_plan_id":"cebpf4jnsgd1na2vs0mg"},{"bike_id":"5a20cf04-64ca-4a34-a816-cc4b694d02b3","system_id":"levelo_inurba_marseille","lat":43.29186,"lon":5.35798,"is_reserved":false,"is_disabled":false,"rental_uris":{"android":"levelo://app?vid=5a20cf04-64ca-4a34-a816-cc4b694d02b3","ios":"levelo://app?vid=5a20cf04-64ca-4a34-a816-cc4b694d02b3"},"vehicle_type_id":"4","last_reported":1734714424,"current_range_meters":38800,"station_id":"ce4bhb12rcd13ifvqel0","pricing_plan_id":"cebpf4jnsgd1na2vs0mg"},{"bike_id":"4094ac40-fe97-4483-91f4-bc4b6a97b4f3","system_id":"levelo_inurba_marseille","lat":43.25825,"lon":5.3943,"is_reserved":false,"is_disabled":false,"rental_uris":{"android":"levelo://app?vid=4094ac40-fe97-4483-91f4-bc4b6a97b4f3","ios":"levelo://app?vid=4094ac40-fe97-4483-91f4-bc4b6a97b4f3"},"vehicle_type_id":"4","last_reported":1734714424,"current_range_meters":9200,"station_id":"ce4bhip2rcd13ifvqft0","pricing_plan_id":"cebpf4jnsgd1na2vs0mg"},{"bike_id":"b44f9236-c33f-43b3-ab7e-0f32e9951c9e","system_id":"levelo_inurba_marseille","lat":43.23194,"lon":5.35556,"is_reserved":false,"is_disabled":false,"rental_uris":{"android":"levelo://app?vid=b44f9236-c33f-43b3-ab7e-0f32e9951c9e","ios":"levelo://app?vid=b44f9236-c33f-43b3-ab7e-0f32e9951c9e"},"vehicle_type_id":"4","last_reported":1734714424,"current_range_meters":38800,"station_id":"ce4bhu92rcd13ifvqi70","pricing_plan_id":"cebpf4jnsgd1na2vs0mg"},{"bike_id":"46849b4e-7716-4306-ba5c-4823624051f6","system_id":"levelo_inurba_marseille","lat":43.25882,"lon":5.39908,"is_reserved":false,"is_disabled":false,"rental_uris":{"android":"levelo://app?vid=46849b4e-7716-4306-ba5c-4823624051f6","ios":"levelo://app?vid=46849b4e-7716-4306-ba5c-4823624051f6"},"vehicle_type_id":"4","last_reported":1734714424,"current_range_meters":8800,"station_id":"ce4bhl92rcd13ifvqghg","pricing_plan_id":"cebpf4jnsgd1na2vs0mg"},{"bike_id":"7cdaab41-d6a9-411c-91af-08e1cd111a45","system_id":"levelo_inurba_marseille","lat":43.30768,"lon":5.40256,"is_reserved":false,"is_disabled":false,"rental_uris":{"android":"levelo://app?vid=7cdaab41-d6a9-411c-91af-08e1cd111a45","ios":"levelo://app?vid=7cdaab41-d6a9-411c-91af-08e1cd111a45"},"vehicle_type_id":"4","last_reported":1734714424,"current_range_meters":10800,"station_id":"","pricing_plan_id":"cebpf4jnsgd1na2vs0mg"},{"bike_id":"942eb065-d854-4b14-b4f9-0fb14b6b7717","system_id":"levelo_inurba_marseille","lat":43.29273,"lon":5.36853,"is_reserved":false,"is_disabled":false,"rental_uris":{"android":"levelo://app?vid=942eb065-d854-4b14-b4f9-0fb14b6b7717","ios":"levelo://app?vid=942eb065-d854-4b14-b4f9-0fb14b6b7717"},"vehicle_type_id":"4","last_reported":1734714424,"current_range_meters":27600,"station_id":"ce4bhbp2rcd13ifvqesg","pricing_plan_id":"cebpf4jnsgd1na2vs0mg"},{"bike_id":"542f7052-f494-4adc-9fd3-22a6898827ac","system_id":"levelo_inurba_marseille","lat":43.29422,"lon":5.38628,"is_reserved":false,"is_disabled":false,"rental_uris":{"android":"levelo://app?vid=542f7052-f494-4adc-9fd3-22a6898827ac","ios":"levelo://app?vid=542f7052-f494-4adc-9fd3-22a6898827ac"},"vehicle_type_id":"4","last_reported":1734714424,"current_range_meters":36800,"station_id":"ce4bh2h2rcd13ifvqdh0","pricing_plan_id":"cebpf4jnsgd1na2vs0mg"},{"bike_id":"eee3ab3f-1f34-4288-8c7e-f51394f74087","system_id":"levelo_inurba_marseille","lat":43.24656,"lon":5.38148,"is_reserved":false,"is_disabled":false,"rental_uris":{"android":"levelo://app?vid=eee3ab3f-1f34-4288-8c7e-f51394f74087","ios":"levelo://app?vid=eee3ab3f-1f34-4288-8c7e-f51394f74087"},"vehicle_type_id":"4","last_reported":1734714424,"current_range_meters":38800,"station_id":"ce4bhih2rcd13ifvqfr0","pricing_plan_id":"cebpf4jnsgd1na2vs0mg"},{"bike_id":"a75b08f1-37cc-41c5-95db-2b9ed81dc942","system_id":"levelo_inurba_marseille","lat":43.297251,"lon":5.376945,"is_reserved":false,"is_disabled":false,"rental_uris":{"android":"levelo://app?vid=a75b08f1-37cc-41c5-95db-2b9ed81dc942","ios":"levelo://app?vid=a75b08f1-37cc-41c5-95db-2b9ed81dc942"},"vehicle_type_id":"4","last_reported":1734714424,"current_range_meters":23200,"station_id":"ce4bgkh2rcd13ifvqbl0","pricing_plan_id":"cebpf4jnsgd1na2vs0mg"},{"bike_id":"e34624c3-83a8-4b8a-9ece-2d58dd2e4885","system_id":"levelo_inurba_marseille","lat":43.30607,"lon":5.37226,"is_reserved":false,"is_disabled":false,"rental_uris":{"android":"levelo://app?vid=e34624c3-83a8-4b8a-9ece-2d58dd2e4885","ios":"levelo://app?vid=e34624c3-83a8-4b8a-9ece-2d58dd2e4885"},"vehicle_type_id":"4","last_reported":1734714424,"current_range_meters":30800,"station_id":"ce4bgqh2rcd13ifvqc4g","pricing_plan_id":"cebpf4jnsgd1na2vs0mg"},{"bike_id":"6b2d33d2-c480-4eff-a39c-ef0138c5be04","system_id":"levelo_inurba_marseille","lat":43.29724,"lon":5.36606,"is_reserved":false,"is_disabled":false,"rental_uris":{"android":"levelo://app?vid=6b2d33d2-c480-4eff-a39c-ef0138c5be04","ios":"levelo://app?vid=6b2d33d2-c480-4eff-a39c-ef0138c5be04"},"vehicle_type_id":"4","last_reported":1734714424,"current_range_meters":39200,"station_id":"ce4bgn12rcd13ifvqbt0","pricing_plan_id":"cebpf4jnsgd1na2vs0mg"},{"bike_id":"17b601cd-a936-4f03-83ec-79f3f5082e84","system_id":"levelo_inurba_marseille","lat":43.33023,"lon":5.39039,"is_reserved":false,"is_disabled":false,"rental_uris":{"android":"levelo://app?vid=17b601cd-a936-4f03-83ec-79f3f5082e84","ios":"levelo://app?vid=17b601cd-a936-4f03-83ec-79f3f5082e84"},"vehicle_type_id":"4","last_reported":1734714424,"current_range_meters":25200,"station_id":"ce4bhr92rcd13ifvqhrg","pricing_plan_id":"cebpf4jnsgd1na2vs0mg"},{"bike_id":"59edd089-7379-4180-ab91-a07c47a59c06","system_id":"levelo_inurba_marseille","lat":43.31084,"lon":5.42432,"is_reserved":false,"is_disabled":false,"rental_uris":{"android":"levelo://app?vid=59edd089-7379-4180-ab91-a07c47a59c06","ios":"levelo://app?vid=59edd089-7379-4180-ab91-a07c47a59c06"},"vehicle_type_id":"4","last_reported":1734714424,"current_range_meters":25200,"station_id":"ce4bhp92rcd13ifvqhag","pricing_plan_id":"cebpf4jnsgd1na2vs0mg"},{"bike_id":"61d6996d-3290-4ff0-9ef3-387b57fcacbb","system_id":"levelo_inurba_marseille","lat":43.30148,"lon":5.37384,"is_reserved":false,"is_disabled":false,"rental_uris":{"android":"levelo://app?vid=61d6996d-3290-4ff0-9ef3-387b57fcacbb","ios":"levelo://app?vid=61d6996d-3290-4ff0-9ef3-387b57fcacbb"},"vehicle_type_id":"4","last_reported":1734714424,"current_range_meters":32800,"station_id":"ce4bgs92rcd13ifvqcc0","pricing_plan_id":"cebpf4jnsgd1na2vs0mg"},{"bike_id":"cf7ee5da-8f20-4e0c-9be2-887033ef8c21","system_id":"levelo_inurba_marseille","lat":43.29939,"lon":5.36542,"is_reserved":false,"is_disabled":false,"rental_uris":{"android":"levelo://app?vid=cf7ee5da-8f20-4e0c-9be2-887033ef8c21","ios":"levelo://app?vid=cf7ee5da-8f20-4e0c-9be2-887033ef8c21"},"vehicle_type_id":"4","last_reported":1734714424,"current_range_meters":28400,"station_id":"ce4bgm92rcd13ifvqbr0","pricing_plan_id":"cebpf4jnsgd1na2vs0mg"},{"bike_id":"ff2c6e08-65dd-4d02-a5dc-248b32d35d34","system_id":"levelo_inurba_marseille","lat":43.26206,"lon":5.3745,"is_reserved":false,"is_disabled":false,"rental_uris":{"android":"levelo://app?vid=ff2c6e08-65dd-4d02-a5dc-248b32d35d34","ios":"levelo://app?vid=ff2c6e08-65dd-4d02-a5dc-248b32d35d34"},"vehicle_type_id":"4","last_reported":1734714424,"current_range_meters":38000,"station_id":"ce4bhgp2rcd13ifvqfc0","pricing_plan_id":"cebpf4jnsgd1na2vs0mg"},{"bike_id":"3a7fb7e8-fd43-4423-9c2d-517ee8f8b446","system_id":"levelo_inurba_marseille","lat":43.27179,"lon":5.40995,"is_reserved":false,"is_disabled":false,"rental_uris":{"android":"levelo://app?vid=3a7fb7e8-fd43-4423-9c2d-517ee8f8b446","ios":"levelo://app?vid=3a7fb7e8-fd43-4423-9c2d-517ee8f8b446"},"vehicle_type_id":"4","last_reported":1734714424,"current_range_meters":38800,"station_id":"ce4bhl12rcd13ifvqgf0","pricing_plan_id":"cebpf4jnsgd1na2vs0mg"},{"bike_id":"145b4131-68e1-411d-ba4a-4016be63f7bf","system_id":"levelo_inurba_marseille","lat":43.26572,"lon":5.373,"is_reserved":false,"is_disabled":false,"rental_uris":{"android":"levelo://app?vid=145b4131-68e1-411d-ba4a-4016be63f7bf","ios":"levelo://app?vid=145b4131-68e1-411d-ba4a-4016be63f7bf"},"vehicle_type_id":"4","last_reported":1734714424,"current_range_meters":35200,"station_id":"ce4bhg12rcd13ifvqf70","pricing_plan_id":"cebpf4jnsgd1na2vs0mg"},{"bike_id":"5a9e1f8f-4a37-48c8-bff5-f7b67145cfce","system_id":"levelo_inurba_marseille","lat":43.30294,"lon":5.37702,"is_reserved":false,"is_disabled":false,"rental_uris":{"android":"levelo://app?vid=5a9e1f8f-4a37-48c8-bff5-f7b67145cfce","ios":"levelo://app?vid=5a9e1f8f-4a37-48c8-bff5-f7b67145cfce"},"vehicle_type_id":"4","last_reported":1734714424,"current_range_meters":34800,"station_id":"ce4bguh2rcd13ifvqcj0","pricing_plan_id":"cebpf4jnsgd1na2vs0mg"},{"bike_id":"522ebddf-020e-4164-a0fa-4e6f6d68e6b9","system_id":"levelo_inurba_marseille","lat":43.27814,"lon":5.40722,"is_reserved":false,"is_disabled":false,"rental_uris":{"android":"levelo://app?vid=522ebddf-020e-4164-a0fa-4e6f6d68e6b9","ios":"levelo://app?vid=522ebddf-020e-4164-a0fa-4e6f6d68e6b9"},"vehicle_type_id":"4","last_reported":1734714424,"current_range_meters":22000,"station_id":"ce4bhnh2rcd13ifvqgtg","pricing_plan_id":"cebpf4jnsgd1na2vs0mg"},{"bike_id":"d7a9a039-2919-4498-94bc-85df69bbf9b4","system_id":"levelo_inurba_marseille","lat":43.25091,"lon":5.39513,"is_reserved":false,"is_disabled":true,"rental_uris":{"android":"levelo://app?vid=d7a9a039-2919-4498-94bc-85df69bbf9b4","ios":"levelo://app?vid=d7a9a039-2919-4498-94bc-85df69bbf9b4"},"vehicle_type_id":"4","last_reported":1734714424,"current_range_meters":5600,"station_id":"ce4bhm12rcd13ifvqgkg","pricing_plan_id":"cebpf4jnsgd1na2vs0mg"},{"bike_id":"38c9b720-3e4a-4d65-9622-884b92ffe417","system_id":"levelo_inurba_marseille","lat":43.31757,"lon":5.39013,"is_reserved":false,"is_disabled":false,"rental_uris":{"android":"levelo://app?vid=38c9b720-3e4a-4d65-9622-884b92ffe417","ios":"levelo://app?vid=38c9b720-3e4a-4d65-9622-884b92ffe417"},"vehicle_type_id":"4","last_reported":1734714424,"current_range_meters":22800,"station_id":"ce4bhqp2rcd13ifvqhng","pricing_plan_id":"cebpf4jnsgd1na2vs0mg"},{"bike_id":"f6e00a83-cc1f-4aaf-83bb-77e9d3b9e809","system_id":"levelo_inurba_marseille","lat":43.337444,"lon":5.374475,"is_reserved":false,"is_disabled":false,"rental_uris":{"android":"levelo://app?vid=f6e00a83-cc1f-4aaf-83bb-77e9d3b9e809","ios":"levelo://app?vid=f6e00a83-cc1f-4aaf-83bb-77e9d3b9e809"},"vehicle_type_id":"4","last_reported":1734714424,"current_range_meters":28000,"station_id":"","pricing_plan_id":"cebpf4jnsgd1na2vs0mg"},{"bike_id":"2e0a4273-9b64-4eb1-8d1b-b8e55991eb0a","system_id":"levelo_inurba_marseille","lat":43.27275,"lon":5.40089,"is_reserved":false,"is_disabled":true,"rental_uris":{"android":"levelo://app?vid=2e0a4273-9b64-4eb1-8d1b-b8e55991eb0a","ios":"levelo://app?vid=2e0a4273-9b64-4eb1-8d1b-b8e55991eb0a"},"vehicle_type_id":"4","last_reported":1734714424,"current_range_meters":0,"station_id":"","pricing_plan_id":"cebpf4jnsgd1na2vs0mg"},{"bike_id":"08678457-b2ae-4e17-878c-b423670d0798","system_id":"levelo_inurba_marseille","lat":43.29613,"lon":5.37729,"is_reserved":false,"is_disabled":false,"rental_uris":{"android":"levelo://app?vid=08678457-b2ae-4e17-878c-b423670d0798","ios":"levelo://app?vid=08678457-b2ae-4e17-878c-b423670d0798"},"vehicle_type_id":"4","last_reported":1734714424,"current_range_meters":12000,"station_id":"ce4bgi92rcd13ifvqb90","pricing_plan_id":"cebpf4jnsgd1na2vs0mg"},{"bike_id":"4a7581e9-1274-44c9-8583-c30775a4c782","system_id":"levelo_inurba_marseille","lat":43.29803,"lon":5.38092,"is_reserved":false,"is_disabled":false,"rental_uris":{"android":"levelo://app?vid=4a7581e9-1274-44c9-8583-c30775a4c782","ios":"levelo://app?vid=4a7581e9-1274-44c9-8583-c30775a4c782"},"vehicle_type_id":"4","last_reported":1734714424,"current_range_meters":38800,"station_id":"ce4bgip2rcd13ifvqbb0","pricing_plan_id":"cebpf4jnsgd1na2vs0mg"},{"bike_id":"f957ffa3-7b76-4b18-bb62-81627d313cf8","system_id":"levelo_inurba_marseille","lat":43.231909,"lon":5.355515,"is_reserved":false,"is_disabled":false,"rental_uris":{"android":"levelo://app?vid=f957ffa3-7b76-4b18-bb62-81627d313cf8","ios":"levelo://app?vid=f957ffa3-7b76-4b18-bb62-81627d313cf8"},"vehicle_type_id":"4","last_reported":1734714424,"current_range_meters":28800,"station_id":"ce4bhu92rcd13ifvqi70","pricing_plan_id":"cebpf4jnsgd1na2vs0mg"},{"bike_id":"c5388ea8-c241-4407-8d42-7347d565f380","system_id":"levelo_inurba_marseille","lat":43.26945,"lon":5.40245,"is_reserved":false,"is_disabled":false,"rental_uris":{"android":"levelo://app?vid=c5388ea8-c241-4407-8d42-7347d565f380","ios":"levelo://app?vid=c5388ea8-c241-4407-8d42-7347d565f380"},"vehicle_type_id":"4","last_reported":1734714424,"current_range_meters":10800,"station_id":"cjm6bp8fraef2m0cb0m0","pricing_plan_id":"cebpf4jnsgd1na2vs0mg"},{"bike_id":"5dd95ec7-a282-40a6-a0fe-4e2e61de4064","system_id":"levelo_inurba_marseille","lat":43.26339,"lon":5.40135,"is_reserved":false,"is_disabled":true,"rental_uris":{"android":"levelo://app?vid=5dd95ec7-a282-40a6-a0fe-4e2e61de4064","ios":"levelo://app?vid=5dd95ec7-a282-40a6-a0fe-4e2e61de4064"},"vehicle_type_id":"4","last_reported":1734714424,"current_range_meters":7200,"station_id":"","pricing_plan_id":"cebpf4jnsgd1na2vs0mg"},{"bike_id":"a86ec51d-9767-48f5-9411-073a7de5a6cb","system_id":"levelo_inurba_marseille","lat":43.29842,"lon":5.36275,"is_reserved":false,"is_disabled":false,"rental_uris":{"android":"levelo://app?vid=a86ec51d-9767-48f5-9411-073a7de5a6cb","ios":"levelo://app?vid=a86ec51d-9767-48f5-9411-073a7de5a6cb"},"vehicle_type_id":"4","last_reported":1734714424,"current_range_meters":38400,"station_id":"ce4bgpp2rcd13ifvqc3g","pricing_plan_id":"cebpf4jnsgd1na2vs0mg"},{"bike_id":"592ba624-2978-4215-b0ef-91fbf4cfa41f","system_id":"levelo_inurba_marseille","lat":43.32366,"lon":5.38881,"is_reserved":false,"is_disabled":false,"rental_uris":{"android":"levelo://app?vid=592ba624-2978-4215-b0ef-91fbf4cfa41f","ios":"levelo://app?vid=592ba624-2978-4215-b0ef-91fbf4cfa41f"},"vehicle_type_id":"4","last_reported":1734714424,"current_range_meters":6000,"station_id":"ce4bhqp2rcd13ifvqhog","pricing_plan_id":"cebpf4jnsgd1na2vs0mg"},{"bike_id":"5b057003-add0-45b7-a0ec-84de320d325c","system_id":"levelo_inurba_marseille","lat":43.2415,"lon":5.3974,"is_reserved":false,"is_disabled":false,"rental_uris":{"android":"levelo://app?vid=5b057003-add0-45b7-a0ec-84de320d325c","ios":"levelo://app?vid=5b057003-add0-45b7-a0ec-84de320d325c"},"vehicle_type_id":"4","last_reported":1734714424,"current_range_meters":13600,"station_id":"ce4bhn12rcd13ifvqgpg","pricing_plan_id":"cebpf4jnsgd1na2vs0mg"},{"bike_id":"2256e953-e04c-4a1a-96b7-b03d74e4d2b6","system_id":"levelo_inurba_marseille","lat":43.24805,"lon":5.37454,"is_reserved":false,"is_disabled":false,"rental_uris":{"android":"levelo://app?vid=2256e953-e04c-4a1a-96b7-b03d74e4d2b6","ios":"levelo://app?vid=2256e953-e04c-4a1a-96b7-b03d74e4d2b6"},"vehicle_type_id":"4","last_reported":1734714424,"current_range_meters":38800,"station_id":"ce4bhgh2rcd13ifvqfb0","pricing_plan_id":"cebpf4jnsgd1na2vs0mg"},{"bike_id":"260171d1-5388-4de2-8f1f-acb7e571567f","system_id":"levelo_inurba_marseille","lat":43.29721,"lon":5.3768,"is_reserved":false,"is_disabled":false,"rental_uris":{"android":"levelo://app?vid=260171d1-5388-4de2-8f1f-acb7e571567f","ios":"levelo://app?vid=260171d1-5388-4de2-8f1f-acb7e571567f"},"vehicle_type_id":"4","last_reported":1734714424,"current_range_meters":16400,"station_id":"ce4bgkh2rcd13ifvqbl0","pricing_plan_id":"cebpf4jnsgd1na2vs0mg"},{"bike_id":"d60d8232-4a96-492d-9348-9c3d8bdfda03","system_id":"levelo_inurba_marseille","lat":43.29832,"lon":5.3628,"is_reserved":false,"is_disabled":false,"rental_uris":{"android":"levelo://app?vid=d60d8232-4a96-492d-9348-9c3d8bdfda03","ios":"levelo://app?vid=d60d8232-4a96-492d-9348-9c3d8bdfda03"},"vehicle_type_id":"4","last_reported":1734714424,"current_range_meters":39200,"station_id":"ce4bgpp2rcd13ifvqc3g","pricing_plan_id":"cebpf4jnsgd1na2vs0mg"},{"bike_id":"0365d627-bfc5-459b-8305-c5938b939cbe","system_id":"levelo_inurba_marseille","lat":43.26936,"lon":5.38929,"is_reserved":false,"is_disabled":false,"rental_uris":{"android":"levelo://app?vid=0365d627-bfc5-459b-8305-c5938b939cbe","ios":"levelo://app?vid=0365d627-bfc5-459b-8305-c5938b939cbe"},"vehicle_type_id":"4","last_reported":1734714424,"current_range_meters":30800,"station_id":"ce4bhhh2rcd13ifvqfl0","pricing_plan_id":"cebpf4jnsgd1na2vs0mg"},{"bike_id":"2fdc3292-7478-4713-ad1d-204237e84084","system_id":"levelo_inurba_marseille","lat":43.31368,"lon":5.38363,"is_reserved":false,"is_disabled":false,"rental_uris":{"android":"levelo://app?vid=2fdc3292-7478-4713-ad1d-204237e84084","ios":"levelo://app?vid=2fdc3292-7478-4713-ad1d-204237e84084"},"vehicle_type_id":"4","last_reported":1734714424,"current_range_meters":36800,"station_id":"","pricing_plan_id":"cebpf4jnsgd1na2vs0mg"},{"bike_id":"19f34006-1dba-4c03-b59a-0511830589aa","system_id":"levelo_inurba_marseille","lat":43.24812,"lon":5.37467,"is_reserved":false,"is_disabled":false,"rental_uris":{"android":"levelo://app?vid=19f34006-1dba-4c03-b59a-0511830589aa","ios":"levelo://app?vid=19f34006-1dba-4c03-b59a-0511830589aa"},"vehicle_type_id":"4","last_reported":1734714424,"current_range_meters":25200,"station_id":"ce4bhgh2rcd13ifvqfb0","pricing_plan_id":"cebpf4jnsgd1na2vs0mg"},{"bike_id":"420e50bc-a0ce-4397-b1c6-a56298406987","system_id":"levelo_inurba_marseille","lat":43.29172,"lon":5.37152,"is_reserved":false,"is_disabled":false,"rental_uris":{"android":"levelo://app?vid=420e50bc-a0ce-4397-b1c6-a56298406987","ios":"levelo://app?vid=420e50bc-a0ce-4397-b1c6-a56298406987"},"vehicle_type_id":"4","last_reported":1734714424,"current_range_meters":19200,"station_id":"ce4bha92rcd13ifvqeh0","pricing_plan_id":"cebpf4jnsgd1na2vs0mg"},{"bike_id":"ead8074c-6851-4aaf-99cd-f0b20bbfc11b","system_id":"levelo_inurba_marseille","lat":43.29566,"lon":5.375063,"is_reserved":false,"is_disabled":false,"rental_uris":{"android":"levelo://app?vid=ead8074c-6851-4aaf-99cd-f0b20bbfc11b","ios":"levelo://app?vid=ead8074c-6851-4aaf-99cd-f0b20bbfc11b"},"vehicle_type_id":"4","last_reported":1734714424,"current_range_meters":38800,"station_id":"ce4bgh92rcd13ifvqb50","pricing_plan_id":"cebpf4jnsgd1na2vs0mg"},{"bike_id":"08053a78-7a46-47a7-a278-80aceea2e329","system_id":"levelo_inurba_marseille","lat":43.30551,"lon":5.3653,"is_reserved":false,"is_disabled":false,"rental_uris":{"android":"levelo://app?vid=08053a78-7a46-47a7-a278-80aceea2e329","ios":"levelo://app?vid=08053a78-7a46-47a7-a278-80aceea2e329"},"vehicle_type_id":"4","last_reported":1734714424,"current_range_meters":33200,"station_id":"ce4bgs12rcd13ifvqcag","pricing_plan_id":"cebpf4jnsgd1na2vs0mg"},{"bike_id":"dac6f34b-ac7a-42d9-8f8e-094fe790b4e7","system_id":"levelo_inurba_marseille","lat":43.25872,"lon":5.399,"is_reserved":false,"is_disabled":false,"rental_uris":{"android":"levelo://app?vid=dac6f34b-ac7a-42d9-8f8e-094fe790b4e7","ios":"levelo://app?vid=dac6f34b-ac7a-42d9-8f8e-094fe790b4e7"},"vehicle_type_id":"4","last_reported":1734714424,"current_range_meters":33200,"station_id":"ce4bhl92rcd13ifvqghg","pricing_plan_id":"cebpf4jnsgd1na2vs0mg"},{"bike_id":"e228fe14-5ae4-410d-aea8-2f773c9b98d9","system_id":"levelo_inurba_marseille","lat":43.30891,"lon":5.39648,"is_reserved":false,"is_disabled":false,"rental_uris":{"android":"levelo://app?vid=e228fe14-5ae4-410d-aea8-2f773c9b98d9","ios":"levelo://app?vid=e228fe14-5ae4-410d-aea8-2f773c9b98d9"},"vehicle_type_id":"4","last_reported":1734714424,"current_range_meters":6800,"station_id":"ce4bh012rcd13ifvqcv0","pricing_plan_id":"cebpf4jnsgd1na2vs0mg"},{"bike_id":"c3caa083-e6d5-4676-b095-7ca89af3869d","system_id":"levelo_inurba_marseille","lat":43.29714,"lon":5.37706,"is_reserved":false,"is_disabled":false,"rental_uris":{"android":"levelo://app?vid=c3caa083-e6d5-4676-b095-7ca89af3869d","ios":"levelo://app?vid=c3caa083-e6d5-4676-b095-7ca89af3869d"},"vehicle_type_id":"4","last_reported":1734714424,"current_range_meters":35600,"station_id":"ce4bgkh2rcd13ifvqbl0","pricing_plan_id":"cebpf4jnsgd1na2vs0mg"},{"bike_id":"862e9d5d-853f-4296-8ab6-b0f08b13b9bd","system_id":"levelo_inurba_marseille","lat":43.31232,"lon":5.36878,"is_reserved":false,"is_disabled":false,"rental_uris":{"android":"levelo://app?vid=862e9d5d-853f-4296-8ab6-b0f08b13b9bd","ios":"levelo://app?vid=862e9d5d-853f-4296-8ab6-b0f08b13b9bd"},"vehicle_type_id":"4","last_reported":1734714424,"current_range_meters":28400,"station_id":"ce4bgl92rcd13ifvqbq0","pricing_plan_id":"cebpf4jnsgd1na2vs0mg"},{"bike_id":"1aadd558-0b86-416e-9446-a11827cd0091","system_id":"levelo_inurba_marseille","lat":43.30798,"lon":5.38165,"is_reserved":false,"is_disabled":false,"rental_uris":{"android":"levelo://app?vid=1aadd558-0b86-416e-9446-a11827cd0091","ios":"levelo://app?vid=1aadd558-0b86-416e-9446-a11827cd0091"},"vehicle_type_id":"4","last_reported":1734714424,"current_range_meters":30400,"station_id":"ce4bgt12rcd13ifvqce0","pricing_plan_id":"cebpf4jnsgd1na2vs0mg"},{"bike_id":"4b829f16-d323-466b-a057-6f41aa65ef26","system_id":"levelo_inurba_marseille","lat":43.27374,"lon":5.36249,"is_reserved":false,"is_disabled":false,"rental_uris":{"android":"levelo://app?vid=4b829f16-d323-466b-a057-6f41aa65ef26","ios":"levelo://app?vid=4b829f16-d323-466b-a057-6f41aa65ef26"},"vehicle_type_id":"4","last_reported":1734714424,"current_range_meters":28000,"station_id":"ce4bhbh2rcd13ifvqeo0","pricing_plan_id":"cebpf4jnsgd1na2vs0mg"},{"bike_id":"995e49be-00f0-4521-ae78-ebb1876da282","system_id":"levelo_inurba_marseille","lat":43.26917,"lon":5.38929,"is_reserved":false,"is_disabled":false,"rental_uris":{"android":"levelo://app?vid=995e49be-00f0-4521-ae78-ebb1876da282","ios":"levelo://app?vid=995e49be-00f0-4521-ae78-ebb1876da282"},"vehicle_type_id":"4","last_reported":1734714424,"current_range_meters":38000,"station_id":"ce4bhhh2rcd13ifvqfl0","pricing_plan_id":"cebpf4jnsgd1na2vs0mg"},{"bike_id":"8894a3fb-c1ee-4d6b-ab4d-e0711a18b724","system_id":"levelo_inurba_marseille","lat":43.29166,"lon":5.37167,"is_reserved":false,"is_disabled":false,"rental_uris":{"android":"levelo://app?vid=8894a3fb-c1ee-4d6b-ab4d-e0711a18b724","ios":"levelo://app?vid=8894a3fb-c1ee-4d6b-ab4d-e0711a18b724"},"vehicle_type_id":"4","last_reported":1734714424,"current_range_meters":29600,"station_id":"ce4bha92rcd13ifvqeh0","pricing_plan_id":"cebpf4jnsgd1na2vs0mg"},{"bike_id":"494c8398-822e-42ee-a7f1-dfd664d1fba7","system_id":"levelo_inurba_marseille","lat":43.23202,"lon":5.35548,"is_reserved":false,"is_disabled":false,"rental_uris":{"android":"levelo://app?vid=494c8398-822e-42ee-a7f1-dfd664d1fba7","ios":"levelo://app?vid=494c8398-822e-42ee-a7f1-dfd664d1fba7"},"vehicle_type_id":"4","last_reported":1734714424,"current_range_meters":34800,"station_id":"ce4bhu92rcd13ifvqi70","pricing_plan_id":"cebpf4jnsgd1na2vs0mg"},{"bike_id":"724b6d1d-1b77-4a84-b175-490e1e136446","system_id":"levelo_inurba_marseille","lat":43.29524,"lon":5.39037,"is_reserved":false,"is_disabled":true,"rental_uris":{"android":"levelo://app?vid=724b6d1d-1b77-4a84-b175-490e1e136446","ios":"levelo://app?vid=724b6d1d-1b77-4a84-b175-490e1e136446"},"vehicle_type_id":"4","last_reported":1734714424,"current_range_meters":36000,"station_id":"ce4bh3p2rcd13ifvqdp0","pricing_plan_id":"cebpf4jnsgd1na2vs0mg"},{"bike_id":"fbdf6156-8014-4f46-9b80-f7f54ff1d0c7","system_id":"levelo_inurba_marseille","lat":43.29004,"lon":5.35592,"is_reserved":false,"is_disabled":false,"rental_uris":{"android":"levelo://app?vid=fbdf6156-8014-4f46-9b80-f7f54ff1d0c7","ios":"levelo://app?vid=fbdf6156-8014-4f46-9b80-f7f54ff1d0c7"},"vehicle_type_id":"4","last_reported":1734714424,"current_range_meters":38800,"station_id":"ce4bhb92rcd13ifvqen0","pricing_plan_id":"cebpf4jnsgd1na2vs0mg"},{"bike_id":"c782be4b-818b-4cb4-830c-89e6e8de2966","system_id":"levelo_inurba_marseille","lat":43.27816,"lon":5.40703,"is_reserved":false,"is_disabled":false,"rental_uris":{"android":"levelo://app?vid=c782be4b-818b-4cb4-830c-89e6e8de2966","ios":"levelo://app?vid=c782be4b-818b-4cb4-830c-89e6e8de2966"},"vehicle_type_id":"4","last_reported":1734714424,"current_range_meters":32400,"station_id":"ce4bhnh2rcd13ifvqgtg","pricing_plan_id":"cebpf4jnsgd1na2vs0mg"},{"bike_id":"714aa917-666e-44ad-87e7-7e5422dc5135","system_id":"levelo_inurba_marseille","lat":43.28635,"lon":5.35113,"is_reserved":false,"is_disabled":false,"rental_uris":{"android":"levelo://app?vid=714aa917-666e-44ad-87e7-7e5422dc5135","ios":"levelo://app?vid=714aa917-666e-44ad-87e7-7e5422dc5135"},"vehicle_type_id":"4","last_reported":1734714424,"current_range_meters":28800,"station_id":"ce4bhch2rcd13ifvqeug","pricing_plan_id":"cebpf4jnsgd1na2vs0mg"},{"bike_id":"19e417df-82d2-48ec-8ba1-d90396957c67","system_id":"levelo_inurba_marseille","lat":43.29614,"lon":5.37719,"is_reserved":false,"is_disabled":false,"rental_uris":{"android":"levelo://app?vid=19e417df-82d2-48ec-8ba1-d90396957c67","ios":"levelo://app?vid=19e417df-82d2-48ec-8ba1-d90396957c67"},"vehicle_type_id":"4","last_reported":1734714424,"current_range_meters":26000,"station_id":"ce4bgi92rcd13ifvqb90","pricing_plan_id":"cebpf4jnsgd1na2vs0mg"},{"bike_id":"55fa967f-e3e3-42c4-9dd1-2bcbb5fc2d4d","system_id":"levelo_inurba_marseille","lat":43.27205,"lon":5.39075,"is_reserved":false,"is_disabled":false,"rental_uris":{"android":"levelo://app?vid=55fa967f-e3e3-42c4-9dd1-2bcbb5fc2d4d","ios":"levelo://app?vid=55fa967f-e3e3-42c4-9dd1-2bcbb5fc2d4d"},"vehicle_type_id":"4","last_reported":1734714424,"current_range_meters":22800,"station_id":"","pricing_plan_id":"cebpf4jnsgd1na2vs0mg"},{"bike_id":"47cc93a7-70b5-45bf-991b-f441a77935aa","system_id":"levelo_inurba_marseille","lat":43.2732,"lon":5.39089,"is_reserved":false,"is_disabled":true,"rental_uris":{"android":"levelo://app?vid=47cc93a7-70b5-45bf-991b-f441a77935aa","ios":"levelo://app?vid=47cc93a7-70b5-45bf-991b-f441a77935aa"},"vehicle_type_id":"4","last_reported":1734714424,"current_range_meters":38800,"station_id":"ce4bhgp2rcd13ifvqfe0","pricing_plan_id":"cebpf4jnsgd1na2vs0mg"},{"bike_id":"39cb86bd-d333-444c-a321-d07277f74a29","system_id":"levelo_inurba_marseille","lat":43.26554,"lon":5.37299,"is_reserved":false,"is_disabled":false,"rental_uris":{"android":"levelo://app?vid=39cb86bd-d333-444c-a321-d07277f74a29","ios":"levelo://app?vid=39cb86bd-d333-444c-a321-d07277f74a29"},"vehicle_type_id":"4","last_reported":1734714424,"current_range_meters":36400,"station_id":"ce4bhg12rcd13ifvqf70","pricing_plan_id":"cebpf4jnsgd1na2vs0mg"},