{"last_updated":1744906373,"ttl":60,"version":"2.2","data":{"bikes":[{"bike_id":"aa7d9836-f7ef-4505-81a2-ef029a1b4e00","system_id":"levelo_inurba_marseille","lat":43.29968,"lon":5.385,"is_reserved":false,"is_disabled":false,"rental_uris":{"android":"levelo://app?vid=aa7d9836-f7ef-4505-81a2-ef029a1b4e00","ios":"levelo://app?vid=aa7d9836-f7ef-4505-81a2-ef029a1b4e00"},"vehicle_type_id":"4","last_reported":1744906373,"current_range_meters":2000,"station_id":"ce4bgj92rcd13ifvqbd0","pricing_plan_id":"cebpf4jnsgd1na2vs0mg"},{"bike_id":"36b8546f-ac02-4a8c-9896-ddc6b0048ca8","system_id":"levelo_inurba_marseille","lat":43.2937,"lon":5.37851,"is_reserved":false,"is_disabled":false,"rental_uris":{"android":"levelo://app?vid=36b8546f-ac02-4a8c-9896-ddc6b0048ca8","ios":"levelo://app?vid=36b8546f-ac02-4a8c-9896-ddc6b0048ca8"},"vehicle_type_id":"4","last_reported":1744906373,"current_range_meters":2800,"station_id":"ce4bgjh2rcd13ifvqbf0","pricing_plan_id":"cebpf4jnsgd1na2vs0mg"},{"bike_id":"f7c27922-6b89-47b5-8c41-fac0424fa314","system_id":"levelo_inurba_marseille","lat":43.26942,"lon":5.40265,"is_reserved":false,"is_disabled":false,"rental_uris":{"android":"levelo://app?vid=f7c27922-6b89-47b5-8c41-fac0424fa314","ios":"levelo://app?vid=f7c27922-6b89-47b5-8c41-fac0424fa314"},"vehicle_type_id":"4","last_reported":1744906373,"current_range_meters":3200,"station_id":"cjm6bp8fraef2m0cb0m0","pricing_plan_id":"cebpf4jnsgd1na2vs0mg"},{"bike_id":"cddeca36-ad71-4235-bb1c-2a5180b9b070","system_id":"levelo_inurba_marseille","lat":43.23186,"lon":5.39993,"is_reserved":false,"is_disabled":false,"rental_uris":{"android":"levelo://app?vid=cddeca36-ad71-4235-bb1c-2a5180b9b070","ios":"levelo://app?vid=cddeca36-ad71-4235-bb1c-2a5180b9b070"},"vehicle_type_id":"4","last_reported":1744906373,"current_range_meters":3200,"station_id":"ce4bhn12rcd13ifvqgqg","pricing_plan_id":"cebpf4jnsgd1na2vs0mg"},{"bike_id":"aa16d544-f9ef-4241-af20-18b01869a593","system_id":"levelo_inurba_marseille","lat":43.23196,"lon":5.35564,"is_reserved":false,"is_disabled":false,"rental_uris":{"android":"levelo://app?vid=aa16d544-f9ef-4241-af20-18b01869a593","ios":"levelo://app?vid=aa16d544-f9ef-4241-af20-18b01869a593"},"vehicle_type_id":"4","last_reported":1744906373,"current_range_meters":3600,"station_id":"ce4bhu92rcd13ifvqi70","pricing_plan_id":"cebpf4jnsgd1na2vs0mg"},{"bike_id":"22b5c7bc-ce8d-4d90-98c3-c14f22d5e193","system_id":"levelo_inurba_marseille","lat":43.28104,"lon":5.37851,"is_reserved":false,"is_disabled":false,"rental_uris":{"android":"levelo://app?vid=22b5c7bc-ce8d-4d90-98c3-c14f22d5e193","ios":"levelo://app?vid=22b5c7bc-ce8d-4d90-98c3-c14f22d5e193"},"vehicle_type_id":"4","last_reported":1744906373,"current_range_meters":4000,"station_id":"ce4bha12rcd13ifvqee0","pricing_plan_id":"cebpf4jnsgd1na2vs0mg"},{"bike_id":"5efb2955-63b0-438f-9173-bede5b1810d8","system_id":"levelo_inurba_marseille","lat":43.29306,"lon":5.37496,"is_reserved":false,"is_disabled":false,"rental_uris":{"android":"levelo://app?vid=5efb2955-63b0-438f-9173-bede5b1810d8","ios":"levelo://app?vid=5efb2955-63b0-438f-9173-bede5b1810d8"},"vehicle_type_id":"4","last_reported":1744906373,"current_range_meters":4400,"station_id":"ce4bgi12rcd13ifvqb70","pricing_plan_id":"cebpf4jnsgd1na2vs0mg"},{"bike_id":"4fc42efa-dbbe-4cda-ac2c-74e7a4182398","system_id":"levelo_inurba_marseille","lat":43.31687,"lon":5.40475,"is_reserved":false,"is_disabled":false,"rental_uris":{"android":"levelo://app?vid=4fc42efa-dbbe-4cda-ac2c-74e7a4182398","ios":"levelo://app?vid=4fc42efa-dbbe-4cda-ac2c-74e7a4182398"},"vehicle_type_id":"4","last_reported":1744906373,"current_range_meters":5600,"station_id":"ce4bh012rcd13ifvqd00","pricing_plan_id":"cebpf4jnsgd1na2vs0mg"},{"bike_id":"5c37c543-52ea-4ca0-b815-01718a2d50c7","system_id":"levelo_inurba_marseille","lat":43.27921,"lon":5.39587,"is_reserved":false,"is_disabled":true,"rental_uris":{"android":"levelo://app?vid=5c37c543-52ea-4ca0-b815-01718a2d50c7","ios":"levelo://app?vid=5c37c543-52ea-4ca0-b815-01718a2d50c7"},"vehicle_type_id":"4","last_reported":1744906373,"current_range_meters":6400,"station_id":"ce4bhf92rcd13ifvqf40","pricing_plan_id":"cebpf4jnsgd1na2vs0mg"},{"bike_id":"b0dbd109-dd07-40d7-86e1-bf3b86717302","system_id":"levelo_inurba_marseille","lat":43.27987,"lon":5.40053,"is_reserved":false,"is_disabled":false,"rental_uris":{"android":"levelo://app?vid=b0dbd109-dd07-40d7-86e1-bf3b86717302","ios":"levelo://app?vid=b0dbd109-dd07-40d7-86e1-bf3b86717302"},"vehicle_type_id":"4","last_reported":1744906373,"current_range_meters":6400,"station_id":"ce4bho92rcd13ifvqh4g","pricing_plan_id":"cebpf4jnsgd1na2vs0mg"},{"bike_id":"048f8c34-c758-47f1-8148-d46b8f77f501","system_id":"levelo_inurba_marseille","lat":43.24578,"lon":5.37488,"is_reserved":false,"is_disabled":false,"rental_uris":{"android":"levelo://app?vid=048f8c34-c758-47f1-8148-d46b8f77f501","ios":"levelo://app?vid=048f8c34-c758-47f1-8148-d46b8f77f501"},"vehicle_type_id":"4","last_reported":1744906373,"current_range_meters":6800,"station_id":"","pricing_plan_id":"cebpf4jnsgd1na2vs0mg"},{"bike_id":"b77b53aa-d73c-46e7-ab6f-7e3e42c72a8c","system_id":"levelo_inurba_marseille","lat":43.31342,"lon":5.39669,"is_reserved":false,"is_disabled":false,"rental_uris":{"android":"levelo://app?vid=b77b53aa-d73c-46e7-ab6f-7e3e42c72a8c","ios":"levelo://app?vid=b77b53aa-d73c-46e7-ab6f-7e3e42c72a8c"},"vehicle_type_id":"4","last_reported":1744906373,"current_range_meters":7200,"station_id":"ce4bgvp2rcd13ifvqcu0","pricing_plan_id":"cebpf4jnsgd1na2vs0mg"},{"bike_id":"409a79ab-dcd7-4c74-9be6-a03c63711a18","system_id":"levelo_inurba_marseille","lat":43.28151,"lon":5.42639,"is_reserved":false,"is_disabled":false,"rental_uris":{"android":"levelo://app?vid=409a79ab-dcd7-4c74-9be6-a03c63711a18","ios":"levelo://app?vid=409a79ab-dcd7-4c74-9be6-a03c63711a18"},"vehicle_type_id":"4","last_reported":1744906373,"current_range_meters":7200,"station_id":"ce4bhnh2rcd13ifvqgug","pricing_plan_id":"cebpf4jnsgd1na2vs0mg"},{"bike_id":"0f09b02c-47f8-4aac-9d02-aed7df84fe59","system_id":"levelo_inurba_marseille","lat":43.24385,"lon":5.37064,"is_reserved":false,"is_disabled":false,"rental_uris":{"android":"levelo://app?vid=0f09b02c-47f8-4aac-9d02-aed7df84fe59","ios":"levelo://app?vid=0f09b02c-47f8-4aac-9d02-aed7df84fe59"},"vehicle_type_id":"4","last_reported":1744906373,"current_range_meters":8000,"station_id":"ce4bhhh2rcd13ifvqfk0","pricing_plan_id":"cebpf4jnsgd1na2vs0mg"},{"bike_id":"5c91bdc1-5810-4254-b07d-8e78fa6c770d","system_id":"levelo_inurba_marseille","lat":43.28469,"lon":5.38425,"is_reserved":false,"is_disabled":false,"rental_uris":{"android":"levelo://app?vid=5c91bdc1-5810-4254-b07d-8e78fa6c770d","ios":"levelo://app?vid=5c91bdc1-5810-4254-b07d-8e78fa6c770d"},"vehicle_type_id":"4","last_reported":1744906373,"current_range_meters":8000,"station_id":"ce4bh512rcd13ifvqe3g","pricing_plan_id":"cebpf4jnsgd1na2vs0mg"},{"bike_id":"e8157487-0905-4619-8b81-c09b4f7f5c81","system_id":"levelo_inurba_marseille","lat":43.2511,"lon":5.40351,"is_reserved":false,"is_disabled":false,"rental_uris":{"android":"levelo://app?vid=e8157487-0905-4619-8b81-c09b4f7f5c81","ios":"levelo://app?vid=e8157487-0905-4619-8b81-c09b4f7f5c81"},"vehicle_type_id":"4","last_reported":1744906373,"current_range_meters":8000,"station_id":"ce4bhlh2rcd13ifvqgig","pricing_plan_id":"cebpf4jnsgd1na2vs0mg"},{"bike_id":"994695a9-98fd-4da6-9191-c96330e6cffb","system_id":"levelo_inurba_marseille","lat":43.21766,"lon":5.3465,"is_reserved":false,"is_disabled":false,"rental_uris":{"android":"levelo://app?vid=994695a9-98fd-4da6-9191-c96330e6cffb","ios":"levelo://app?vid=994695a9-98fd-4da6-9191-c96330e6cffb"},"vehicle_type_id":"4","last_reported":1744906373,"current_range_meters":8000,"station_id":"st_cvj6r9ubvosntc0bgbag","pricing_plan_id":"cebpf4jnsgd1na2vs0mg"},{"bike_id":"2c85d733-8bec-4ab8-b842-10773d937359","system_id":"levelo_inurba_marseille","lat":43.27994,"lon":5.41674,"is_reserved":false,"is_disabled":false,"rental_uris":{"android":"levelo://app?vid=2c85d733-8bec-4ab8-b842-10773d937359","ios":"levelo://app?vid=2c85d733-8bec-4ab8-b842-10773d937359"},"vehicle_type_id":"4","last_reported":1744906373,"current_range_meters":8400,"station_id":"ce4bho12rcd13ifvqh1g","pricing_plan_id":"cebpf4jnsgd1na2vs0mg"},{"bike_id":"ce90eeb4-f81d-4b80-9b35-94fd4698915f","system_id":"levelo_inurba_marseille","lat":43.28421,"lon":5.34992,"is_reserved":false,"is_disabled":false,"rental_uris":{"android":"levelo://app?vid=ce90eeb4-f81d-4b80-9b35-94fd4698915f","ios":"levelo://app?vid=ce90eeb4-f81d-4b80-9b35-94fd4698915f"},"vehicle_type_id":"4","last_reported":1744906373,"current_range_meters":8400,"station_id":"ce4bhbh2rcd13ifvqepg","pricing_plan_id":"cebpf4jnsgd1na2vs0mg"},{"bike_id":"b0f0e4d0-4359-4995-ae70-87cdd73a8d7c","system_id":"levelo_inurba_marseille","lat":43.2511,"lon":5.40323,"is_reserved":false,"is_disabled":false,"rental_uris":{"android":"levelo://app?vid=b0f0e4d0-4359-4995-ae70-87cdd73a8d7c","ios":"levelo://app?vid=b0f0e4d0-4359-4995-ae70-87cdd73a8d7c"},"vehicle_type_id":"4","last_reported":1744906373,"current_range_meters":8400,"station_id":"ce4bhlh2rcd13ifvqgig","pricing_plan_id":"cebpf4jnsgd1na2vs0mg"},{"bike_id":"1bdba7a7-a82e-4252-906c-80db6beb180e","system_id":"levelo_inurba_marseille","lat":43.33774,"lon":5.37473,"is_reserved":false,"is_disabled":false,"rental_uris":{"android":"levelo://app?vid=1bdba7a7-a82e-4252-906c-80db6beb180e","ios":"levelo://app?vid=1bdba7a7-a82e-4252-906c-80db6beb180e"},"vehicle_type_id":"4","last_reported":1744906373,"current_range_meters":8800,"station_id":"","pricing_plan_id":"cebpf4jnsgd1na2vs0mg"},{"bike_id":"57602819-6ee6-450f-bee9-e1e441243eb9","system_id":"levelo_inurba_marseille","lat":43.28345,"lon":5.381,"is_reserved":false,"is_disabled":false,"rental_uris":{"android":"levelo://app?vid=57602819-6ee6-450f-bee9-e1e441243eb9","ios":"levelo://app?vid=57602819-6ee6-450f-bee9-e1e441243eb9"},"vehicle_type_id":"4","last_reported":1744906373,"current_range_meters":8800,"station_id":"ce4bh412rcd13ifvqdr0","pricing_plan_id":"cebpf4jnsgd1na2vs0mg"},{"bike_id":"602a9d27-b964-4b5d-b7a8-a69ff6ade498","system_id":"levelo_inurba_marseille","lat":43.30297,"lon":5.39219,"is_reserved":false,"is_disabled":false,"rental_uris":{"android":"levelo://app?vid=602a9d27-b964-4b5d-b7a8-a69ff6ade498","ios":"levelo://app?vid=602a9d27-b964-4b5d-b7a8-a69ff6ade498"},"vehicle_type_id":"4","last_reported":1744906373,"current_range_meters":8800,"station_id":"ce4bgkh2rcd13ifvqbk0","pricing_plan_id":"cebpf4jnsgd1na2vs0mg"},{"bike_id":"d787af79-7773-44bc-a0d2-6f45c262b36b","system_id":"levelo_inurba_marseille","lat":43.30886,"lon":5.3719,"is_reserved":false,"is_disabled":false,"rental_uris":{"android":"levelo://app?vid=d787af79-7773-44bc-a0d2-6f45c262b36b","ios":"levelo://app?vid=d787af79-7773-44bc-a0d2-6f45c262b36b"},"vehicle_type_id":"4","last_reported":1744906373,"current_range_meters":8800,"station_id":"ce4bguh2rcd13ifvqckg","pricing_plan_id":"cebpf4jnsgd1na2vs0mg"},{"bike_id":"6a52c25e-e42a-4237-a980-f6f82f2e061e","system_id":"levelo_inurba_marseille","lat":43.212,"lon":5.3507,"is_reserved":false,"is_disabled":false,"rental_uris":{"android":"levelo://app?vid=6a52c25e-e42a-4237-a980-f6f82f2e061e","ios":"levelo://app?vid=6a52c25e-e42a-4237-a980-f6f82f2e061e"},"vehicle_type_id":"4","last_reported":1744906373,"current_range_meters":9200,"station_id":"st_cvj6sg6p6f1abm77japg","pricing_plan_id":"cebpf4jnsgd1na2vs0mg"},{"bike_id":"c4577e20-ee8e-40cc-9402-3c0064ec33a7","system_id":"levelo_inurba_marseille","lat":43.26936,"lon":5.40257,"is_reserved":false,"is_disabled":false,"rental_uris":{"android":"levelo://app?vid=c4577e20-ee8e-40cc-9402-3c0064ec33a7","ios":"levelo://app?vid=c4577e20-ee8e-40cc-9402-3c0064ec33a7"},"vehicle_type_id":"4","last_reported":1744906373,"current_range_meters":9200,"station_id":"cjm6bp8fraef2m0cb0m0","pricing_plan_id":"cebpf4jnsgd1na2vs0mg"},{"bike_id":"2df22311-bac1-4b8f-abff-11893969de63","system_id":"levelo_inurba_marseille","lat":43.31091,"lon":5.37813,"is_reserved":false,"is_disabled":false,"rental_uris":{"android":"levelo://app?vid=2df22311-bac1-4b8f-abff-11893969de63","ios":"levelo://app?vid=2df22311-bac1-4b8f-abff-11893969de63"},"vehicle_type_id":"4","last_reported":1744906373,"current_range_meters":9600,"station_id":"ce4bgt92rcd13ifvqcg0","pricing_plan_id":"cebpf4jnsgd1na2vs0mg"},{"bike_id":"9bfff237-5d64-4405-a32c-c93b07dcd7f9","system_id":"levelo_inurba_marseille","lat":43.29194,"lon":5.3581,"is_reserved":false,"is_disabled":false,"rental_uris":{"android":"levelo://app?vid=9bfff237-5d64-4405-a32c-c93b07dcd7f9","ios":"levelo://app?vid=9bfff237-5d64-4405-a32c-c93b07dcd7f9"},"vehicle_type_id":"4","last_reported":1744906373,"current_range_meters":9600,"station_id":"ce4bhb12rcd13ifvqel0","pricing_plan_id":"cebpf4jnsgd1na2vs0mg"},{"bike_id":"8ee49884-4076-402b-bdc6-b1b75f8b478d","system_id":"levelo_inurba_marseille","lat":43.27891,"lon":5.39588,"is_reserved":false,"is_disabled":false,"rental_uris":{"android":"levelo://app?vid=8ee49884-4076-402b-bdc6-b1b75f8b478d","ios":"levelo://app?vid=8ee49884-4076-402b-bdc6-b1b75f8b478d"},"vehicle_type_id":"4","last_reported":1744906373,"current_range_meters":9600,"station_id":"ce4bhf92rcd13ifvqf40","pricing_plan_id":"cebpf4jnsgd1na2vs0mg"},{"bike_id":"f690738c-7184-40d0-8e24-653d6c176a31","system_id":"levelo_inurba_marseille","lat":43.29556,"lon":5.42295,"is_reserved":false,"is_disabled":false,"rental_uris":{"android":"levelo://app?vid=f690738c-7184-40d0-8e24-653d6c176a31","ios":"levelo://app?vid=f690738c-7184-40d0-8e24-653d6c176a31"},"vehicle_type_id":"4","last_reported":1744906373,"current_range_meters":9600,"station_id":"ce4bhph2rcd13ifvqhdg","pricing_plan_id":"cebpf4jnsgd1na2vs0mg"},{"bike_id":"0a0b0a73-2b27-49fb-801a-3111dcebfbac","system_id":"levelo_inurba_marseille","lat":43.27495,"lon":5.42461,"is_reserved":false,"is_disabled":false,"rental_uris":{"android":"levelo://app?vid=0a0b0a73-2b27-49fb-801a-3111dcebfbac","ios":"levelo://app?vid=0a0b0a73-2b27-49fb-801a-3111dcebfbac"},"vehicle_type_id":"4","last_reported":1744906373,"current_range_meters":9600,"station_id":"ce4bhn92rcd13ifvqgrg","pricing_plan_id":"cebpf4jnsgd1na2vs0mg"},{"bike_id":"8ee7ae49-7b6d-4b48-9fb1-547fbea007bb","system_id":"levelo_inurba_marseille","lat":43.2792,"lon":5.39588,"is_reserved":false,"is_disabled":false,"rental_uris":{"android":"levelo://app?vid=8ee7ae49-7b6d-4b48-9fb1-547fbea007bb","ios":"levelo://app?vid=8ee7ae49-7b6d-4b48-9fb1-547fbea007bb"},"vehicle_type_id":"4","last_reported":1744906373,"current_range_meters":9600,"station_id":"ce4bhf92rcd13ifvqf40","pricing_plan_id":"cebpf4jnsgd1na2vs0mg"},{"bike_id":"6a42fdd6-075d-4748-811a-29f5845c8920","system_id":"levelo_inurba_marseille","lat":43.2174,"lon":5.34612,"is_reserved":false,"is_disabled":false,"rental_uris":{"android":"levelo://app?vid=6a42fdd6-075d-4748-811a-29f5845c8920","ios":"levelo://app?vid=6a42fdd6-075d-4748-811a-29f5845c8920"},"vehicle_type_id":"4","last_reported":1744906373,"current_range_meters":10000,"station_id":"st_cvj6r9ubvosntc0bgbag","pricing_plan_id":"cebpf4jnsgd1na2vs0mg"},{"bike_id":"348f1b93-9ab5-414a-a36b-4dc51eb1a25f","system_id":"levelo_inurba_marseille","lat":43.27998,"lon":5.41668,"is_reserved":false,"is_disabled":false,"rental_uris":{"android":"levelo://app?vid=348f1b93-9ab5-414a-a36b-4dc51eb1a25f","ios":"levelo://app?vid=348f1b93-9ab5-414a-a36b-4dc51eb1a25f"},"vehicle_type_id":"4","last_reported":1744906373,"current_range_meters":10000,"station_id":"ce4bho12rcd13ifvqh1g","pricing_plan_id":"cebpf4jnsgd1na2vs0mg"},{"bike_id":"09ba5940-b4ce-4789-9e06-7d4b879c4e07","system_id":"levelo_inurba_marseille","lat":43.25582,"lon":5.38241,"is_reserved":false,"is_disabled":false,"rental_uris":{"android":"levelo://app?vid=09ba5940-b4ce-4789-9e06-7d4b879c4e07","ios":"levelo://app?vid=09ba5940-b4ce-4789-9e06-7d4b879c4e07"},"vehicle_type_id":"4","last_reported":1744906373,"current_range_meters":10800,"station_id":"ce4bhih2rcd13ifvqfs0","pricing_plan_id":"cebpf4jnsgd1na2vs0mg"},{"bike_id":"cbf29fce-b821-4cbd-8ecd-022dab6930e8","system_id":"levelo_inurba_marseille","lat":43.28397,"lon":5.37527,"is_reserved":false,"is_disabled":false,"rental_uris":{"android":"levelo://app?vid=cbf29fce-b821-4cbd-8ecd-022dab6930e8","ios":"levelo://app?vid=cbf29fce-b821-4cbd-8ecd-022dab6930e8"},"vehicle_type_id":"4","last_reported":1744906373,"current_range_meters":10800,"station_id":"ce4bh412rcd13ifvqds0","pricing_plan_id":"cebpf4jnsgd1na2vs0mg"},{"bike_id":"ef5a0c57-4f14-460f-996a-0021c00a3dd3","system_id":"levelo_inurba_marseille","lat":43.31122,"lon":5.37767,"is_reserved":false,"is_disabled":false,"rental_uris":{"android":"levelo://app?vid=ef5a0c57-4f14-460f-996a-0021c00a3dd3","ios":"levelo://app?vid=ef5a0c57-4f14-460f-996a-0021c00a3dd3"},"vehicle_type_id":"4","last_reported":1744906373,"current_range_meters":11200,"station_id":"ce4bgt92rcd13ifvqcg0","pricing_plan_id":"cebpf4jnsgd1na2vs0mg"},{"bike_id":"6182d45b-191a-4249-88bd-5fad61239bca","system_id":"levelo_inurba_marseille","lat":43.21734,"lon":5.34647,"is_reserved":false,"is_disabled":false,"rental_uris":{"android":"levelo://app?vid=6182d45b-191a-4249-88bd-5fad61239bca","ios":"levelo://app?vid=6182d45b-191a-4249-88bd-5fad61239bca"},"vehicle_type_id":"4","last_reported":1744906373,"current_range_meters":11200,"station_id":"st_cvj6r9ubvosntc0bgbag","pricing_plan_id":"cebpf4jnsgd1na2vs0mg"},{"bike_id":"cfb70db2-aa12-42b1-bd68-c7c61981a3f8","system_id":"levelo_inurba_marseille","lat":43.27952,"lon":5.41049,"is_reserved":false,"is_disabled":false,"rental_uris":{"android":"levelo://app?vid=cfb70db2-aa12-42b1-bd68-c7c61981a3f8","ios":"levelo://app?vid=cfb70db2-aa12-42b1-bd68-c7c61981a3f8"},"vehicle_type_id":"4","last_reported":1744906373,"current_range_meters":11200,"station_id":"ce4bhnp2rcd13ifvqh0g","pricing_plan_id":"cebpf4jnsgd1na2vs0mg"},{"bike_id":"7c67b9cd-54d7-43a4-95fb-c0c285ea79f2","system_id":"levelo_inurba_marseille","lat":43.29928,"lon":5.38165,"is_reserved":false,"is_disabled":false,"rental_uris":{"android":"levelo://app?vid=7c67b9cd-54d7-43a4-95fb-c0c285ea79f2","ios":"levelo://app?vid=7c67b9cd-54d7-43a4-95fb-c0c285ea79f2"},"vehicle_type_id":"4","last_reported":1744906373,"current_range_meters":11200,"station_id":"ce4bgj12rcd13ifvqbc0","pricing_plan_id":"cebpf4jnsgd1na2vs0mg"},{"bike_id":"ff935f1c-246d-4e07-a399-40ad7e059de5","system_id":"levelo_inurba_marseille","lat":43.25511,"lon":5.37647,"is_reserved":false,"is_disabled":true,"rental_uris":{"android":"levelo://app?vid=ff935f1c-246d-4e07-a399-40ad7e059de5","ios":"levelo://app?vid=ff935f1c-246d-4e07-a399-40ad7e059de5"},"vehicle_type_id":"4","last_reported":1744906373,"current_range_meters":11600,"station_id":"ce4bhh12rcd13ifvqff0","pricing_plan_id":"cebpf4jnsgd1na2vs0mg"},{"bike_id":"6d35d01d-810a-4622-bfc9-3f009308ad54","system_id":"levelo_inurba_marseille","lat":43.29572,"lon":5.37496,"is_reserved":false,"is_disabled":false,"rental_uris":{"android":"levelo://app?vid=6d35d01d-810a-4622-bfc9-3f009308ad54","ios":"levelo://app?vid=6d35d01d-810a-4622-bfc9-3f009308ad54"},"vehicle_type_id":"4","last_reported":1744906373,"current_range_meters":11600,"station_id":"ce4bgh92rcd13ifvqb50","pricing_plan_id":"cebpf4jnsgd1na2vs0mg"},{"bike_id":"9ad0e96d-9a60-4643-85c3-7b2d4c479c37","system_id":"levelo_inurba_marseille","lat":43.26205,"lon":5.37933,"is_reserved":false,"is_disabled":false,"rental_uris":{"android":"levelo://app?vid=9ad0e96d-9a60-4643-85c3-7b2d4c479c37","ios":"levelo://app?vid=9ad0e96d-9a60-4643-85c3-7b2d4c479c37"},"vehicle_type_id":"4","last_reported":1744906373,"current_range_meters":11600,"station_id":"ce4bhjp2rcd13ifvqg90","pricing_plan_id":"cebpf4jnsgd1na2vs0mg"},{"bike_id":"ce2b387d-1e0b-4987-8320-12b94bb0828d","system_id":"levelo_inurba_marseille","lat":43.27092,"lon":5.400141,"is_reserved":false,"is_disabled":false,"rental_uris":{"android":"levelo://app?vid=ce2b387d-1e0b-4987-8320-12b94bb0828d","ios":"levelo://app?vid=ce2b387d-1e0b-4987-8320-12b94bb0828d"},"vehicle_type_id":"4","last_reported":1744906373,"current_range_meters":12000,"station_id":"ce4bhnp2rcd13ifvqh0g","pricing_plan_id":"cebpf4jnsgd1na2vs0mg"},{"bike_id":"13fcfb4c-7dbd-450b-9f3a-e1fc1d3da376","system_id":"levelo_inurba_marseille","lat":43.29604,"lon":5.38105,"is_reserved":false,"is_disabled":false,"rental_uris":{"android":"levelo://app?vid=13fcfb4c-7dbd-450b-9f3a-e1fc1d3da376","ios":"levelo://app?vid=13fcfb4c-7dbd-450b-9f3a-e1fc1d3da376"},"vehicle_type_id":"4","last_reported":1744906373,"current_range_meters":12000,"station_id":"ce4bgl12rcd13ifvqbo0","pricing_plan_id":"cebpf4jnsgd1na2vs0mg"},{"bike_id":"9ae4de2b-65d6-4c8d-9fd9-eb2927f36e22","system_id":"levelo_inurba_marseille","lat":43.23343,"lon":5.36465,"is_reserved":false,"is_disabled":false,"rental_uris":{"android":"levelo://app?vid=9ae4de2b-65d6-4c8d-9fd9-eb2927f36e22","ios":"levelo://app?vid=9ae4de2b-65d6-4c8d-9fd9-eb2927f36e22"},"vehicle_type_id":"4","last_reported":1744906373,"current_range_meters":12000,"station_id":"","pricing_plan_id":"cebpf4jnsgd1na2vs0mg"},{"bike_id":"da0699e6-fffb-42fd-bda2-fa249cfedfd8","system_id":"levelo_inurba_marseille","lat":43.31488,"lon":5.37306,"is_reserved":false,"is_disabled":false,"rental_uris":{"android":"levelo://app?vid=da0699e6-fffb-42fd-bda2-fa249cfedfd8","ios":"levelo://app?vid=da0699e6-fffb-42fd-bda2-fa249cfedfd8"},"vehicle_type_id":"4","last_reported":1744906373,"current_range_meters":12400,"station_id":"ce4bgt12rcd13ifvqcd0","pricing_plan_id":"cebpf4jnsgd1na2vs0mg"},{"bike_id":"2e3d1586-39b9-4f2e-a808-4f2fbc6116b5","system_id":"levelo_inurba_marseille","lat":43.28413,"lon":5.37529,"is_reserved":false,"is_disabled":false,"rental_uris":{"android":"levelo://app?vid=2e3d1586-39b9-4f2e-a808-4f2fbc6116b5","ios":"levelo://app?vid=2e3d1586-39b9-4f2e-a808-4f2fbc6116b5"},"vehicle_type_id":"4","last_reported":1744906373,"current_range_meters":12400,"station_id":"ce4bh412rcd13ifvqds0","pricing_plan_id":"cebpf4jnsgd1na2vs0mg"},{"bike_id":"9ae654f4-3aa3-47d1-bf64-8e3aba30103c","system_id":"levelo_inurba_marseille","lat":43.27374,"lon":5.36265,"is_reserved":false,"is_disabled":false,"rental_uris":{"android":"levelo://app?vid=9ae654f4-3aa3-47d1-bf64-8e3aba30103c","ios":"levelo://app?vid=9ae654f4-3aa3-47d1-bf64-8e3aba30103c"},"vehicle_type_id":"4","last_reported":1744906373,"current_range_meters":12400,"station_id":"ce4bhbh2rcd13ifvqeo0","pricing_plan_id":"cebpf4jnsgd1na2vs0mg"},{"bike_id":"04657881-18eb-45ab-8fbd-9926a7c863cf","system_id":"levelo_inurba_marseille","lat":43.28618,"lon":5.35113,"is_reserved":false,"is_disabled":false,"rental_uris":{"android":"levelo://app?vid=04657881-18eb-45ab-8fbd-9926a7c863cf","ios":"levelo://app?vid=04657881-18eb-45ab-8fbd-9926a7c863cf"},"vehicle_type_id":"4","last_reported":1744906373,"current_range_meters":12400,"station_id":"ce4bhch2rcd13ifvqeug","pricing_plan_id":"cebpf4jnsgd1na2vs0mg"},{"bike_id":"0fe1f157-0456-4f26-98ab-611fbb65f21e","system_id":"levelo_inurba_marseille","lat":43.23966,"lon":5.36634,"is_reserved":false,"is_disabled":false,"rental_uris":{"android":"levelo://app?vid=0fe1f157-0456-4f26-98ab-611fbb65f21e","ios":"levelo://app?vid=0fe1f157-0456-4f26-98ab-611fbb65f21e"},"vehicle_type_id":"4","last_reported":1744906373,"current_range_meters":12800,"station_id":"ce4bhi12rcd13ifvqfp0","pricing_plan_id":"cebpf4jnsgd1na2vs0mg"},{"bike_id":"ec8c9ac7-1e95-4171-97f3-226ce1e3c951","system_id":"levelo_inurba_marseille","lat":43.32107,"lon":5.36815,"is_reserved":false,"is_disabled":false,"rental_uris":{"android":"levelo://app?vid=ec8c9ac7-1e95-4171-97f3-226ce1e3c951","ios":"levelo://app?vid=ec8c9ac7-1e95-4171-97f3-226ce1e3c951"},"vehicle_type_id":"4","last_reported":1744906373,"current_range_meters":12800,"station_id":"ce4bhrh2rcd13ifvqhug","pricing_plan_id":"cebpf4jnsgd1na2vs0mg"},{"bike_id":"15377006-3615-4dbe-a453-226e5c1fd0bb","system_id":"levelo_inurba_marseille","lat":43.299641,"lon":5.384926,"is_reserved":false,"is_disabled":true,"rental_uris":{"android":"levelo://app?vid=15377006-3615-4dbe-a453-226e5c1fd0bb","ios":"levelo://app?vid=15377006-3615-4dbe-a453-226e5c1fd0bb"},"vehicle_type_id":"4","last_reported":1744906373,"current_range_meters":12800,"station_id":"ce4bgj92rcd13ifvqbd0","pricing_plan_id":"cebpf4jnsgd1na2vs0mg"},{"bike_id":"4e51d548-80b5-405c-b097-e276464331ae","system_id":"levelo_inurba_marseille","lat":43.295288,"lon":5.385616,"is_reserved":false,"is_disabled":false,"rental_uris":{"android":"levelo://app?vid=4e51d548-80b5-405c-b097-e276464331ae","ios":"levelo://app?vid=4e51d548-80b5-405c-b097-e276464331ae"},"vehicle_type_id":"4","last_reported":1744906373,"current_range_meters":15200,"station_id":"ce4bgih2rcd13ifvqba0","pricing_plan_id":"cebpf4jnsgd1na2vs0mg"},{"bike_id":"492b78bd-fbaf-40d5-870e-8ed63646dfd1","system_id":"levelo_inurba_marseille","lat":43.28416,"lon":5.37507,"is_reserved":false,"is_disabled":false,"rental_uris":{"android":"levelo://app?vid=492b78bd-fbaf-40d5-870e-8ed63646dfd1","ios":"levelo://app?vid=492b78bd-fbaf-40d5-870e-8ed63646dfd1"},"vehicle_type_id":"4","last_reported":1744906373,"current_range_meters":13600,"station_id":"ce4bh412rcd13ifvqds0","pricing_plan_id":"cebpf4jnsgd1na2vs0mg"},{"bike_id":"2072bd86-c9ba-49fa-be67-b512050fb3b1","system_id":"levelo_inurba_marseille","lat":43.28036,"lon":5.36956,"is_reserved":false,"is_disabled":false,"rental_uris":{"android":"levelo://app?vid=2072bd86-c9ba-49fa-be67-b512050fb3b1","ios":"levelo://app?vid=2072bd86-c9ba-49fa-be67-b512050fb3b1"},"vehicle_type_id":"4","last_reported":1744906373,"current_range_meters":13600,"station_id":"ce4bha92rcd13ifvqeh0","pricing_plan_id":"cebpf4jnsgd1na2vs0mg"},{"bike_id":"64a47f4a-f4e2-4e1b-949e-3e6cf7bc5e72","system_id":"levelo_inurba_marseille","lat":43.27178,"lon":5.41005,"is_reserved":false,"is_disabled":true,"rental_uris":{"android":"levelo://app?vid=64a47f4a-f4e2-4e1b-949e-3e6cf7bc5e72","ios":"levelo://app?vid=64a47f4a-f4e2-4e1b-949e-3e6cf7bc5e72"},"vehicle_type_id":"4","last_reported":1744906373,"current_range_meters":13600,"station_id":"ce4bhl12rcd13ifvqgf0","pricing_plan_id":"cebpf4jnsgd1na2vs0mg"},{"bike_id":"4a17a27b-4979-4133-9ae1-996785f8fee4","system_id":"levelo_inurba_marseille","lat":43.23071,"lon":5.35493,"is_reserved":false,"is_disabled":false,"rental_uris":{"android":"levelo://app?vid=4a17a27b-4979-4133-9ae1-996785f8fee4","ios":"levelo://app?vid=4a17a27b-4979-4133-9ae1-996785f8fee4"},"vehicle_type_id":"4","last_reported":1744906373,"current_range_meters":13600,"station_id":"cpo3342slgdg3j2ifvpg","pricing_plan_id":"cebpf4jnsgd1na2vs0mg"},{"bike_id":"e250f0c0-a944-485c-8589-61eb3ebf5517","system_id":"levelo_inurba_marseille","lat":43.291878,"lon":5.358187,"is_reserved":false,"is_disabled":false,"rental_uris":{"android":"levelo://app?vid=e250f0c0-a944-485c-8589-61eb3ebf5517","ios":"levelo://app?vid=e250f0c0-a944-485c-8589-61eb3ebf5517"},"vehicle_type_id":"4","last_reported":1744906373,"current_range_meters":13600,"station_id":"ce4bhb12rcd13ifvqel0","pricing_plan_id":"cebpf4jnsgd1na2vs0mg"},{"bike_id":"173d39b4-7a97-4693-9385-db8bda0fe199","system_id":"levelo_inurba_marseille","lat":43.2175,"lon":5.3462,"is_reserved":false,"is_disabled":false,"rental_uris":{"android":"levelo://app?vid=173d39b4-7a97-4693-9385-db8bda0fe199","ios":"levelo://app?vid=173d39b4-7a97-4693-9385-db8bda0fe199"},"vehicle_type_id":"4","last_reported":1744906373,"current_range_meters":14000,"station_id":"st_cvj6r9ubvosntc0bgbag","pricing_plan_id":"cebpf4jnsgd1na2vs0mg"},{"bike_id":"96cb510b-a4bf-439c-9caf-890e86660e28","system_id":"levelo_inurba_marseille","lat":43.31528,"lon":5.38044,"is_reserved":false,"is_disabled":false,"rental_uris":{"android":"levelo://app?vid=96cb510b-a4bf-439c-9caf-890e86660e28","ios":"levelo://app?vid=96cb510b-a4bf-439c-9caf-890e86660e28"},"vehicle_type_id":"4","last_reported":1744906373,"current_range_meters":14000,"station_id":"ce4bhsp2rcd13ifvqi50","pricing_plan_id":"cebpf4jnsgd1na2vs0mg"},{"bike_id":"00d515f0-6b4d-4a71-b503-379c9b788634","system_id":"levelo_inurba_marseille","lat":43.28277,"lon":5.3509,"is_reserved":false,"is_disabled":false,"rental_uris":{"android":"levelo://app?vid=00d515f0-6b4d-4a71-b503-379c9b788634","ios":"levelo://app?vid=00d515f0-6b4d-4a71-b503-379c9b788634"},"vehicle_type_id":"4","last_reported":1744906373,"current_range_meters":14000,"station_id":"ce4bhbp2rcd13ifvqerg","pricing_plan_id":"cebpf4jnsgd1na2vs0mg"},{"bike_id":"ae0e1566-e631-4bc5-9aed-0ebca70f0554","system_id":"levelo_inurba_marseille","lat":43.28637,"lon":5.35091,"is_reserved":false,"is_disabled":false,"rental_uris":{"android":"levelo://app?vid=ae0e1566-e631-4bc5-9aed-0ebca70f0554","ios":"levelo://app?vid=ae0e1566-e631-4bc5-9aed-0ebca70f0554"},"vehicle_type_id":"4","last_reported":1744906373,"current_range_meters":14000,"station_id":"ce4bhch2rcd13ifvqeug","pricing_plan_id":"cebpf4jnsgd1na2vs0mg"},{"bike_id":"68695d63-26df-44b5-bae2-6f5ab433ee94","system_id":"levelo_inurba_marseille","lat":43.28856,"lon":5.35848,"is_reserved":false,"is_disabled":false,"rental_uris":{"android":"levelo://app?vid=68695d63-26df-44b5-bae2-6f5ab433ee94","ios":"levelo://app?vid=68695d63-26df-44b5-bae2-6f5ab433ee94"},"vehicle_type_id":"4","last_reported":1744906373,"current_range_meters":14000,"station_id":"ce4bhb12rcd13ifvqem0","pricing_plan_id":"cebpf4jnsgd1na2vs0mg"},{"bike_id":"f3542a2f-2263-432e-8ed3-a2f8b7b76384","system_id":"levelo_inurba_marseille","lat":43.24806,"lon":5.37455,"is_reserved":false,"is_disabled":false,"rental_uris":{"android":"levelo://app?vid=f3542a2f-2263-432e-8ed3-a2f8b7b76384","ios":"levelo://app?vid=f3542a2f-2263-432e-8ed3-a2f8b7b76384"},"vehicle_type_id":"4","last_reported":1744906373,"current_range_meters":14400,"station_id":"ce4bhgh2rcd13ifvqfb0","pricing_plan_id":"cebpf4jnsgd1na2vs0mg"},{"bike_id":"4f5949cd-aa32-4e2a-8f94-d009bdd8c8cd","system_id":"levelo_inurba_marseille","lat":43.30401,"lon":5.42473,"is_reserved":false,"is_disabled":false,"rental_uris":{"android":"levelo://app?vid=4f5949cd-aa32-4e2a-8f94-d009bdd8c8cd","ios":"levelo://app?vid=4f5949cd-aa32-4e2a-8f94-d009bdd8c8cd"},"vehicle_type_id":"4","last_reported":1744906373,"current_range_meters":14400,"station_id":"ce4bghh2rcd13ifvqb60","pricing_plan_id":"cebpf4jnsgd1na2vs0mg"},{"bike_id":"41fb0398-f2fe-4abb-ae37-a38f47615ea9","system_id":"levelo_inurba_marseille","lat":43.323579,"lon":5.367604,"is_reserved":false,"is_disabled":false,"rental_uris":{"android":"levelo://app?vid=41fb0398-f2fe-4abb-ae37-a38f47615ea9","ios":"levelo://app?vid=41fb0398-f2fe-4abb-ae37-a38f47615ea9"},"vehicle_type_id":"4","last_reported":1744906373,"current_range_meters":14800,"station_id":"ce4bhsh2rcd13ifvqi2g","pricing_plan_id":"cebpf4jnsgd1na2vs0mg"},{"bike_id":"2da19230-f53a-427c-9cf4-a00e50b76f57","system_id":"levelo_inurba_marseille","lat":43.24078,"lon":5.37756,"is_reserved":false,"is_disabled":false,"rental_uris":{"android":"levelo://app?vid=2da19230-f53a-427c-9cf4-a00e50b76f57","ios":"levelo://app?vid=2da19230-f53a-427c-9cf4-a00e50b76f57"},"vehicle_type_id":"4","last_reported":1744906373,"current_range_meters":14800,"station_id":"ce4bhnp2rcd13ifvqgvg","pricing_plan_id":"cebpf4jnsgd1na2vs0mg"},{"bike_id":"6b6a52bd-6eb4-4c56-aa83-6e419adb434e","system_id":"levelo_inurba_marseille","lat":43.28616,"lon":5.351,"is_reserved":false,"is_disabled":false,"rental_uris":{"android":"levelo://app?vid=6b6a52bd-6eb4-4c56-aa83-6e419adb434e","ios":"levelo://app?vid=6b6a52bd-6eb4-4c56-aa83-6e419adb434e"},"vehicle_type_id":"4","last_reported":1744906373,"current_range_meters":15200,"station_id":"ce4bhch2rcd13ifvqeug","pricing_plan_id":"cebpf4jnsgd1na2vs0mg"},{"bike_id":"559306d4-8b23-4192-b8d5-28a38ab3887f","system_id":"levelo_inurba_marseille","lat":43.29931,"lon":5.36526,"is_reserved":false,"is_disabled":false,"rental_uris":{"android":"levelo://app?vid=559306d4-8b23-4192-b8d5-28a38ab3887f","ios":"levelo://app?vid=559306d4-8b23-4192-b8d5-28a38ab3887f"},"vehicle_type_id":"4","last_reported":1744906373,"current_range_meters":15200,"station_id":"ce4bgm92rcd13ifvqbr0","pricing_plan_id":"cebpf4jnsgd1na2vs0mg"},{"bike_id":"aa06f9c1-d2d9-43fb-945b-f4177778e2fe","system_id":"levelo_inurba_marseille","lat":43.31077,"lon":5.38366,"is_reserved":false,"is_disabled":false,"rental_uris":{"android":"levelo://app?vid=aa06f9c1-d2d9-43fb-945b-f4177778e2fe","ios":"levelo://app?vid=aa06f9c1-d2d9-43fb-945b-f4177778e2fe"},"vehicle_type_id":"4","last_reported":1744906373,"current_range_meters":15200,"station_id":"ce4bgv92rcd13ifvqcr0","pricing_plan_id":"cebpf4jnsgd1na2vs0mg"},{"bike_id":"e14c265e-eca3-4791-a3e7-f534121ae166","system_id":"levelo_inurba_marseille","lat":43.229325,"lon":5.353858,"is_reserved":false,"is_disabled":false,"rental_uris":{"android":"levelo://app?vid=e14c265e-eca3-4791-a3e7-f534121ae166","ios":"levelo://app?vid=e14c265e-eca3-4791-a3e7-f534121ae166"},"vehicle_type_id":"4","last_reported":1744906373,"current_range_meters":15200,"station_id":"cpo3532slgdg3j2ikp40","pricing_plan_id":"cebpf4jnsgd1na2vs0mg"},{"bike_id":"88a589cb-7e6a-4c2c-aba2-f8667b2c7927","system_id":"levelo_inurba_marseille","lat":43.29893,"lon":5.39745,"is_reserved":false,"is_disabled":false,"rental_uris":{"android":"levelo://app?vid=88a589cb-7e6a-4c2c-aba2-f8667b2c7927","ios":"levelo://app?vid=88a589cb-7e6a-4c2c-aba2-f8667b2c7927"},"vehicle_type_id":"4","last_reported":1744906373,"current_range_meters":15200,"station_id":"ce4bh0h2rcd13ifvqd50","pricing_plan_id":"cebpf4jnsgd1na2vs0mg"},{"bike_id":"386b66dd-54dd-4f23-9399-5feab1b083fa","system_id":"levelo_inurba_marseille","lat":43.29731,"lon":5.37867,"is_reserved":false,"is_disabled":false,"rental_uris":{"android":"levelo://app?vid=386b66dd-54dd-4f23-9399-5feab1b083fa","ios":"levelo://app?vid=386b66dd-54dd-4f23-9399-5feab1b083fa"},"vehicle_type_id":"4","last_reported":1744906373,"current_range_meters":15200,"station_id":"","pricing_plan_id":"cebpf4jnsgd1na2vs0mg"},{"bike_id":"de07f061-fea0-412d-8750-24f4054e4094","system_id":"levelo_inurba_marseille","lat":43.291711,"lon":5.371606,"is_reserved":false,"is_disabled":false,"rental_uris":{"android":"levelo://app?vid=de07f061-fea0-412d-8750-24f4054e4094","ios":"levelo://app?vid=de07f061-fea0-412d-8750-24f4054e4094"},"vehicle_type_id":"4","last_reported":1744906373,"current_range_meters":15200,"station_id":"ce4bha92rcd13ifvqeh0","pricing_plan_id":"cebpf4jnsgd1na2vs0mg"},{"bike_id":"efb84f9c-3aa1-43e2-97ac-cb40e0853479","system_id":"levelo_inurba_marseille","lat":43.25126,"lon":5.40385,"is_reserved":false,"is_disabled":false,"rental_uris":{"android":"levelo://app?vid=efb84f9c-3aa1-43e2-97ac-cb40e0853479","ios":"levelo://app?vid=efb84f9c-3aa1-43e2-97ac-cb40e0853479"},"vehicle_type_id":"4","last_reported":1744906373,"current_range_meters":16000,"station_id":"","pricing_plan_id":"cebpf4jnsgd1na2vs0mg"},{"bike_id":"8cd3bae1-72ff-4057-8587-a3750bf44a66","system_id":"levelo_inurba_marseille","lat":43.27915,"lon":5.38743,"is_reserved":false,"is_disabled":false,"rental_uris":{"android":"levelo://app?vid=8cd3bae1-72ff-4057-8587-a3750bf44a66","ios":"levelo://app?vid=8cd3bae1-72ff-4057-8587-a3750bf44a66"},"vehicle_type_id":"4","last_reported":1744906373,"current_range_meters":16400,"station_id":"ce4bh512rcd13ifvqe3g","pricing_plan_id":"cebpf4jnsgd1na2vs0mg"},{"bike_id":"1ce2e4b6-92ac-4019-987f-f7e2d80b4e6b","system_id":"levelo_inurba_marseille","lat":43.27521,"lon":5.4247,"is_reserved":false,"is_disabled":false,"rental_uris":{"android":"levelo://app?vid=1ce2e4b6-92ac-4019-987f-f7e2d80b4e6b","ios":"levelo://app?vid=1ce2e4b6-92ac-4019-987f-f7e2d80b4e6b"},"vehicle_type_id":"4","last_reported":1744906373,"current_range_meters":16800,"station_id":"ce4bhn92rcd13ifvqgrg","pricing_plan_id":"cebpf4jnsgd1na2vs0mg"},{"bike_id":"a0ddb0a5-f7f0-4281-aa27-9e82747cc573","system_id":"levelo_inurba_marseille","lat":43.33754,"lon":5.37491,"is_reserved":false,"is_disabled":false,"rental_uris":{"android":"levelo://app?vid=a0ddb0a5-f7f0-4281-aa27-9e82747cc573","ios":"levelo://app?vid=a0ddb0a5-f7f0-4281-aa27-9e82747cc573"},"vehicle_type_id":"4","last_reported":1744906373,"current_range_meters":16800,"station_id":"","pricing_plan_id":"cebpf4jnsgd1na2vs0mg"},{"bike_id":"bbb1c662-cc65-4c72-8489-de78d2f0f12f","system_id":"levelo_inurba_marseille","lat":43.23049,"lon":5.35554,"is_reserved":false,"is_disabled":false,"rental_uris":{"android":"levelo://app?vid=bbb1c662-cc65-4c72-8489-de78d2f0f12f","ios":"levelo://app?vid=bbb1c662-cc65-4c72-8489-de78d2f0f12f"},"vehicle_type_id":"4","last_reported":1744906373,"current_range_meters":17200,"station_id":"","pricing_plan_id":"cebpf4jnsgd1na2vs0mg"},{"bike_id":"2e12347d-b274-4908-938c-e3b3e96c41e7","system_id":"levelo_inurba_marseille","lat":43.25115,"lon":5.40362,"is_reserved":false,"is_disabled":false,"rental_uris":{"android":"levelo://app?vid=2e12347d-b274-4908-938c-e3b3e96c41e7","ios":"levelo://app?vid=2e12347d-b274-4908-938c-e3b3e96c41e7"},"vehicle_type_id":"4","last_reported":1744906373,"current_range_meters":17200,"station_id":"ce4bhlh2rcd13ifvqgig","pricing_plan_id":"cebpf4jnsgd1na2vs0mg"},{"bike_id":"8975bed3-07ee-4ffa-a760-fc7e03824da0","system_id":"levelo_inurba_marseille","lat":43.29174,"lon":5.37154,"is_reserved":false,"is_disabled":false,"rental_uris":{"android":"levelo://app?vid=8975bed3-07ee-4ffa-a760-fc7e03824da0","ios":"levelo://app?vid=8975bed3-07ee-4ffa-a760-fc7e03824da0"},"vehicle_type_id":"4","last_reported":1744906373,"current_range_meters":17200,"station_id":"ce4bha92rcd13ifvqeh0","pricing_plan_id":"cebpf4jnsgd1na2vs0mg"},{"bike_id":"7ed91d22-3d5b-4254-83bf-64eb2a7d5481","system_id":"levelo_inurba_marseille","lat":43.22512,"lon":5.34785,"is_reserved":false,"is_disabled":false,"rental_uris":{"android":"levelo://app?vid=7ed91d22-3d5b-4254-83bf-64eb2a7d5481","ios":"levelo://app?vid=7ed91d22-3d5b-4254-83bf-64eb2a7d5481"},"vehicle_type_id":"4","last_reported":1744906373,"current_range_meters":17200,"station_id":"","pricing_plan_id":"cebpf4jnsgd1na2vs0mg"},{"bike_id":"269e2942-f604-4dae-9a4f-3ab10d27824c","system_id":"levelo_inurba_marseille","lat":43.29066,"lon":5.37158,"is_reserved":false,"is_disabled":false,"rental_uris":{"android":"levelo://app?vid=269e2942-f604-4dae-9a4f-3ab10d27824c","ios":"levelo://app?vid=269e2942-f604-4dae-9a4f-3ab10d27824c"},"vehicle_type_id":"4","last_reported":1744906373,"current_range_meters":17200,"station_id":"ce4bh5p2rcd13ifvqe4g","pricing_plan_id":"cebpf4jnsgd1na2vs0mg"},{"bike_id":"007ee9c7-c769-4de9-a218-517ff098b9cd","system_id":"levelo_inurba_marseille","lat":43.314505,"lon":5.373787,"is_reserved":false,"is_disabled":false,"rental_uris":{"android":"levelo://app?vid=007ee9c7-c769-4de9-a218-517ff098b9cd","ios":"levelo://app?vid=007ee9c7-c769-4de9-a218-517ff098b9cd"},"vehicle_type_id":"4","last_reported":1744906373,"current_range_meters":17200,"station_id":"","pricing_plan_id":"cebpf4jnsgd1na2vs0mg"},{"bike_id":"46d463ec-16ed-48ba-9b0a-e653086024f0","system_id":"levelo_inurba_marseille","lat":43.29284,"lon":5.4012,"is_reserved":false,"is_disabled":false,"rental_uris":{"android":"levelo://app?vid=46d463ec-16ed-48ba-9b0a-e653086024f0","ios":"levelo://app?vid=46d463ec-16ed-48ba-9b0a-e653086024f0"},"vehicle_type_id":"4","last_reported":1744906373,"current_range_meters":16800,"station_id":"ce4bh312rcd13ifvqdk0","pricing_plan_id":"cebpf4jnsgd1na2vs0mg"},{"bike_id":"f3020afc-5f8f-44d5-87ec-7757e77e0d7c","system_id":"levelo_inurba_marseille","lat":43.29263,"lon":5.38443,"is_reserved":false,"is_disabled":false,"rental_uris":{"android":"levelo://app?vid=f3020afc-5f8f-44d5-87ec-7757e77e0d7c","ios":"levelo://app?vid=f3020afc-5f8f-44d5-87ec-7757e77e0d7c"},"vehicle_type_id":"4","last_reported":1744906373,"current_range_meters":16800,"station_id":"ce4bh692rcd13ifvqea0","pricing_plan_id":"cebpf4jnsgd1na2vs0mg"},{"bike_id":"0ced172e-d267-48f8-823b-595463e3fa07","system_id":"levelo_inurba_marseille","lat":43.29428,"lon":5.386227,"is_reserved":false,"is_disabled":false,"rental_uris":{"android":"levelo://app?vid=0ced172e-d267-48f8-823b-595463e3fa07","ios":"levelo://app?vid=0ced172e-d267-48f8-823b-595463e3fa07"},"vehicle_type_id":"4","last_reported":1744906373,"current_range_meters":17200,"station_id":"ce4bh2h2rcd13ifvqdh0","pricing_plan_id":"cebpf4jnsgd1na2vs0mg"},{"bike_id":"5a98983d-4d8f-4114-8ab9-06226f281f3b","system_id":"levelo_inurba_marseille","lat":43.27071,"lon":5.42282,"is_reserved":false,"is_disabled":false,"rental_uris":{"android":"levelo://app?vid=5a98983d-4d8f-4114-8ab9-06226f281f3b","ios":"levelo://app?vid=5a98983d-4d8f-4114-8ab9-06226f281f3b"},"vehicle_type_id":"4","last_reported":1744906373,"current_range_meters":17200,"station_id":"ce4bhk92rcd13ifvqgb0","pricing_plan_id":"cebpf4jnsgd1na2vs0mg"},{"bike_id":"135f0758-d03d-42f1-a2d6-49e93dc7a634","system_id":"levelo_inurba_marseille","lat":43.29846,"lon":5.3629,"is_reserved":false,"is_disabled":false,"rental_uris":{"android":"levelo://app?vid=135f0758-d03d-42f1-a2d6-49e93dc7a634","ios":"levelo://app?vid=135f0758-d03d-42f1-a2d6-49e93dc7a634"},"vehicle_type_id":"4","last_reported":1744906373,"current_range_meters":17200,"station_id":"ce4bgpp2rcd13ifvqc3g","pricing_plan_id":"cebpf4jnsgd1na2vs0mg"},{"bike_id":"818145d8-6d5a-4f2a-a524-7c978f8d4760","system_id":"levelo_inurba_marseille","lat":43.29894,"lon":5.39749,"is_reserved":false,"is_disabled":false,"rental_uris":{"android":"levelo://app?vid=818145d8-6d5a-4f2a-a524-7c978f8d4760","ios":"levelo://app?vid=818145d8-6d5a-4f2a-a524-7c978f8d4760"},"vehicle_type_id":"4","last_reported":1744906373,"current_range_meters":17600,"station_id":"ce4bh0h2rcd13ifvqd50","pricing_plan_id":"cebpf4jnsgd1na2vs0mg"},{"bike_id":"bd492354-2d79-4427-82ee-84e4a12dea30","system_id":"levelo_inurba_marseille","lat":43.21193,"lon":5.35075,"is_reserved":false,"is_disabled":false,"rental_uris":{"android":"levelo://app?vid=bd492354-2d79-4427-82ee-84e4a12dea30","ios":"levelo://app?vid=bd492354-2d79-4427-82ee-84e4a12dea30"},"vehicle_type_id":"4","last_reported":1744906373,"current_range_meters":17600,"station_id":"st_cvj6sg6p6f1abm77japg","pricing_plan_id":"cebpf4jnsgd1na2vs0mg"},{"bike_id":"ab38869e-2e2f-4d3e-8845-1afd43bbf313","system_id":"levelo_inurba_marseille","lat":43.29381,"lon":5.37848,"is_reserved":false,"is_disabled":false,"rental_uris":{"android":"levelo://app?vid=ab38869e-2e2f-4d3e-8845-1afd43bbf313","ios":"levelo://app?vid=ab38869e-2e2f-4d3e-8845-1afd43bbf313"},"vehicle_type_id":"4","last_reported":1744906373,"current_range_meters":17600,"station_id":"ce4bgjh2rcd13ifvqbf0","pricing_plan_id":"cebpf4jnsgd1na2vs0mg"},{"bike_id":"4cdeb94d-6b8c-4d5b-a59f-49def5ff14db","system_id":"levelo_inurba_marseille","lat":43.2749,"lon":5.42478,"is_reserved":false,"is_disabled":false,"rental_uris":{"android":"levelo://app?vid=4cdeb94d-6b8c-4d5b-a59f-49def5ff14db","ios":"levelo://app?vid=4cdeb94d-6b8c-4d5b-a59f-49def5ff14db"},"vehicle_type_id":"4","last_reported":1744906373,"current_range_meters":17600,"station_id":"ce4bhn92rcd13ifvqgrg","pricing_plan_id":"cebpf4jnsgd1na2vs0mg"},{"bike_id":"3bc36086-1c08-44b5-82e2-993c4a7fabae","system_id":"levelo_inurba_marseille","lat":43.29897,"lon":5.39745,"is_reserved":false,"is_disabled":false,"rental_uris":{"android":"levelo://app?vid=3bc36086-1c08-44b5-82e2-993c4a7fabae","ios":"levelo://app?vid=3bc36086-1c08-44b5-82e2-993c4a7fabae"},"vehicle_type_id":"4","last_reported":1744906373,"current_range_meters":17600,"station_id":"ce4bh0h2rcd13ifvqd50","pricing_plan_id":"cebpf4jnsgd1na2vs0mg"},{"bike_id":"566bd714-3608-4373-8f38-fccb28c27f59","system_id":"levelo_inurba_marseille","lat":43.29413,"lon":5.38626,"is_reserved":false,"is_disabled":false,"rental_uris":{"android":"levelo://app?vid=566bd714-3608-4373-8f38-fccb28c27f59","ios":"levelo://app?vid=566bd714-3608-4373-8f38-fccb28c27f59"},"vehicle_type_id":"4","last_reported":1744906373,"current_range_meters":18000,"station_id":"ce4bh2h2rcd13ifvqdh0","pricing_plan_id":"cebpf4jnsgd1na2vs0mg"},{"bike_id":"89971aac-b324-4a2b-9771-8f8d212b40f1","system_id":"levelo_inurba_marseille","lat":43.296326,"lon":5.377822,"is_reserved":false,"is_disabled":false,"rental_uris":{"android":"levelo://app?vid=89971aac-b324-4a2b-9771-8f8d212b40f1","ios":"levelo://app?vid=89971aac-b324-4a2b-9771-8f8d212b40f1"},"vehicle_type_id":"4","last_reported":1744906373,"current_range_meters":18000,"station_id":"ce4bgi92rcd13ifvqb90","pricing_plan_id":"cebpf4jnsgd1na2vs0mg"},{"bike_id":"d541e9f8-60a6-4c9e-8875-97fc0dac1874","system_id":"levelo_inurba_marseille","lat":43.29705,"lon":5.365953,"is_reserved":false,"is_disabled":false,"rental_uris":{"android":"levelo://app?vid=d541e9f8-60a6-4c9e-8875-97fc0dac1874","ios":"levelo://app?vid=d541e9f8-60a6-4c9e-8875-97fc0dac1874"},"vehicle_type_id":"4","last_reported":1744906373,"current_range_meters":18000,"station_id":"ce4bgn12rcd13ifvqbt0","pricing_plan_id":"cebpf4jnsgd1na2vs0mg"},{"bike_id":"6b74b2aa-fdfb-4003-89e1-09aa4c90dc25","system_id":"levelo_inurba_marseille","lat":43.29196,"lon":5.35805,"is_reserved":false,"is_disabled":false,"rental_uris":{"android":"levelo://app?vid=6b74b2aa-fdfb-4003-89e1-09aa4c90dc25","ios":"levelo://app?vid=6b74b2aa-fdfb-4003-89e1-09aa4c90dc25"},"vehicle_type_id":"4","last_reported":1744906373,"current_range_meters":18000,"station_id":"ce4bhb12rcd13ifvqel0","pricing_plan_id":"cebpf4jnsgd1na2vs0mg"},{"bike_id":"51f32d2c-1879-464c-acba-93c57bc66ab6","system_id":"levelo_inurba_marseille","lat":43.29045,"lon":5.35944,"is_reserved":false,"is_disabled":true,"rental_uris":{"android":"levelo://app?vid=51f32d2c-1879-464c-acba-93c57bc66ab6","ios":"levelo://app?vid=51f32d2c-1879-464c-acba-93c57bc66ab6"},"vehicle_type_id":"4","last_reported":1744906373,"current_range_meters":18000,"station_id":"ce4bha92rcd13ifvqeg0","pricing_plan_id":"cebpf4jnsgd1na2vs0mg"},{"bike_id":"ef6e9c6f-8f69-4fcf-9727-b556a001e5bc","system_id":"levelo_inurba_marseille","lat":43.29567,"lon":5.42293,"is_reserved":false,"is_disabled":false,"rental_uris":{"android":"levelo://app?vid=ef6e9c6f-8f69-4fcf-9727-b556a001e5bc","ios":"levelo://app?vid=ef6e9c6f-8f69-4fcf-9727-b556a001e5bc"},"vehicle_type_id":"4","last_reported":1744906373,"current_range_meters":18000,"station_id":"ce4bhph2rcd13ifvqhdg","pricing_plan_id":"cebpf4jnsgd1na2vs0mg"},{"bike_id":"7eb8853e-3665-40f5-8308-1299f0674652","system_id":"levelo_inurba_marseille","lat":43.30399,"lon":5.4252,"is_reserved":false,"is_disabled":false,"rental_uris":{"android":"levelo://app?vid=7eb8853e-3665-40f5-8308-1299f0674652","ios":"levelo://app?vid=7eb8853e-3665-40f5-8308-1299f0674652"},"vehicle_type_id":"4","last_reported":1744906373,"current_range_meters":18000,"station_id":"ce4bhoh2rcd13ifvqh6g","pricing_plan_id":"cebpf4jnsgd1na2vs0mg"},{"bike_id":"a8ce2ccd-9d1f-44fc-943d-08ca556f7413","system_id":"levelo_inurba_marseille","lat":43.27831,"lon":5.3921,"is_reserved":false,"is_disabled":false,"rental_uris":{"android":"levelo://app?vid=a8ce2ccd-9d1f-44fc-943d-08ca556f7413","ios":"levelo://app?vid=a8ce2ccd-9d1f-44fc-943d-08ca556f7413"},"vehicle_type_id":"4","last_reported":1744906373,"current_range_meters":17600,"station_id":"ce4bhjp2rcd13ifvqga0","pricing_plan_id":"cebpf4jnsgd1na2vs0mg"},{"bike_id":"934a8fc0-98f8-4aaf-a145-d485dee937c7","system_id":"levelo_inurba_marseille","lat":43.3237,"lon":5.36747,"is_reserved":false,"is_disabled":false,"rental_uris":{"android":"levelo://app?vid=934a8fc0-98f8-4aaf-a145-d485dee937c7","ios":"levelo://app?vid=934a8fc0-98f8-4aaf-a145-d485dee937c7"},"vehicle_type_id":"4","last_reported":1744906373,"current_range_meters":18000,"station_id":"ce4bhsh2rcd13ifvqi2g","pricing_plan_id":"cebpf4jnsgd1na2vs0mg"},{"bike_id":"a77bdd15-388e-4dfa-ae84-9a1f1930181f","system_id":"levelo_inurba_marseille","lat":43.29253,"lon":5.37615,"is_reserved":false,"is_disabled":false,"rental_uris":{"android":"levelo://app?vid=a77bdd15-388e-4dfa-ae84-9a1f1930181f","ios":"levelo://app?vid=a77bdd15-388e-4dfa-ae84-9a1f1930181f"},"vehicle_type_id":"4","last_reported":1744906373,"current_range_meters":18000,"station_id":"ce4bgi12rcd13ifvqb80","pricing_plan_id":"cebpf4jnsgd1na2vs0mg"},{"bike_id":"4d6c5836-0d36-4804-aa26-c9765886862d","system_id":"levelo_inurba_marseille","lat":43.29415,"lon":5.38621,"is_reserved":false,"is_disabled":false,"rental_uris":{"android":"levelo://app?vid=4d6c5836-0d36-4804-aa26-c9765886862d","ios":"levelo://app?vid=4d6c5836-0d36-4804-aa26-c9765886862d"},"vehicle_type_id":"4","last_reported":1744906373,"current_range_meters":18800,"station_id":"ce4bh2h2rcd13ifvqdh0","pricing_plan_id":"cebpf4jnsgd1na2vs0mg"},{"bike_id":"68342d9f-f0b6-47e7-b690-b27078e67a77","system_id":"levelo_inurba_marseille","lat":43.24164,"lon":5.36413,"is_reserved":false,"is_disabled":false,"rental_uris":{"android":"levelo://app?vid=68342d9f-f0b6-47e7-b690-b27078e67a77","ios":"levelo://app?vid=68342d9f-f0b6-47e7-b690-b27078e67a77"},"vehicle_type_id":"4","last_reported":1744906373,"current_range_meters":18800,"station_id":"cpo36qri1sfpv3e86is0","pricing_plan_id":"cebpf4jnsgd1na2vs0mg"},{"bike_id":"c09a24c1-5fd3-4256-b130-f49af091d178","system_id":"levelo_inurba_marseille","lat":43.29788,"lon":5.38106,"is_reserved":false,"is_disabled":false,"rental_uris":{"android":"levelo://app?vid=c09a24c1-5fd3-4256-b130-f49af091d178","ios":"levelo://app?vid=c09a24c1-5fd3-4256-b130-f49af091d178"},"vehicle_type_id":"4","last_reported":1744906373,"current_range_meters":18800,"station_id":"ce4bgip2rcd13ifvqbb0","pricing_plan_id":"cebpf4jnsgd1na2vs0mg"},{"bike_id":"77fb0292-6d4c-495a-a968-7b7d83455c1e","system_id":"levelo_inurba_marseille","lat":43.29782,"lon":5.38125,"is_reserved":false,"is_disabled":false,"rental_uris":{"android":"levelo://app?vid=77fb0292-6d4c-495a-a968-7b7d83455c1e","ios":"levelo://app?vid=77fb0292-6d4c-495a-a968-7b7d83455c1e"},"vehicle_type_id":"4","last_reported":1744906373,"current_range_meters":18800,"station_id":"ce4bgip2rcd13ifvqbb0","pricing_plan_id":"cebpf4jnsgd1na2vs0mg"},{"bike_id":"410c6971-e2f6-4d1f-b398-21649c79dcf9","system_id":"levelo_inurba_marseille","lat":43.29527,"lon":5.38549,"is_reserved":false,"is_disabled":false,"rental_uris":{"android":"levelo://app?vid=410c6971-e2f6-4d1f-b398-21649c79dcf9","ios":"levelo://app?vid=410c6971-e2f6-4d1f-b398-21649c79dcf9"},"vehicle_type_id":"4","last_reported":1744906373,"current_range_meters":18800,"station_id":"ce4bgih2rcd13ifvqba0","pricing_plan_id":"cebpf4jnsgd1na2vs0mg"},{"bike_id":"9b7b94d2-3dfe-462a-9f64-94d676253462","system_id":"levelo_inurba_marseille","lat":43.28361,"lon":5.38635,"is_reserved":false,"is_disabled":false,"rental_uris":{"android":"levelo://app?vid=9b7b94d2-3dfe-462a-9f64-94d676253462","ios":"levelo://app?vid=9b7b94d2-3dfe-462a-9f64-94d676253462"},"vehicle_type_id":"4","last_reported":1744906373,"current_range_meters":18800,"station_id":"ce4bh492rcd13ifvqdvg","pricing_plan_id":"cebpf4jnsgd1na2vs0mg"},{"bike_id":"bf9c1b5a-e9f5-4a54-ba5b-282549dd2e14","system_id":"levelo_inurba_marseille","lat":43.29795,"lon":5.38103,"is_reserved":false,"is_disabled":false,"rental_uris":{"android":"levelo://app?vid=bf9c1b5a-e9f5-4a54-ba5b-282549dd2e14","ios":"levelo://app?vid=bf9c1b5a-e9f5-4a54-ba5b-282549dd2e14"},"vehicle_type_id":"4","last_reported":1744906373,"current_range_meters":18800,"station_id":"ce4bgip2rcd13ifvqbb0","pricing_plan_id":"cebpf4jnsgd1na2vs0mg"},{"bike_id":"33efbe4e-e642-4271-be29-4926b421ca5b","system_id":"levelo_inurba_marseille","lat":43.2416,"lon":5.36417,"is_reserved":false,"is_disabled":false,"rental_uris":{"android":"levelo://app?vid=33efbe4e-e642-4271-be29-4926b421ca5b","ios":"levelo://app?vid=33efbe4e-e642-4271-be29-4926b421ca5b"},"vehicle_type_id":"4","last_reported":1744906373,"current_range_meters":18800,"station_id":"cpo36qri1sfpv3e86is0","pricing_plan_id":"cebpf4jnsgd1na2vs0mg"},{"bike_id":"f332932e-b174-483a-8274-751626cfe4bb","system_id":"levelo_inurba_marseille","lat":43.27991,"lon":5.40045,"is_reserved":false,"is_disabled":false,"rental_uris":{"android":"levelo://app?vid=f332932e-b174-483a-8274-751626cfe4bb","ios":"levelo://app?vid=f332932e-b174-483a-8274-751626cfe4bb"},"vehicle_type_id":"4","last_reported":1744906373,"current_range_meters":19200,"station_id":"ce4bho92rcd13ifvqh4g","pricing_plan_id":"cebpf4jnsgd1na2vs0mg"},{"bike_id":"789c3822-56ca-4769-bcd4-8845bdea2fda","system_id":"levelo_inurba_marseille","lat":43.24161,"lon":5.36421,"is_reserved":false,"is_disabled":false,"rental_uris":{"android":"levelo://app?vid=789c3822-56ca-4769-bcd4-8845bdea2fda","ios":"levelo://app?vid=789c3822-56ca-4769-bcd4-8845bdea2fda"},"vehicle_type_id":"4","last_reported":1744906373,"current_range_meters":19200,"station_id":"cpo36qri1sfpv3e86is0","pricing_plan_id":"cebpf4jnsgd1na2vs0mg"},{"bike_id":"baecf04b-7089-4e93-9766-36898fc68960","system_id":"levelo_inurba_marseille","lat":43.2992,"lon":5.36288,"is_reserved":false,"is_disabled":false,"rental_uris":{"android":"levelo://app?vid=baecf04b-7089-4e93-9766-36898fc68960","ios":"levelo://app?vid=baecf04b-7089-4e93-9766-36898fc68960"},"vehicle_type_id":"4","last_reported":1744906373,"current_range_meters":19200,"station_id":"","pricing_plan_id":"cebpf4jnsgd1na2vs0mg"},{"bike_id":"bf1cd324-09ed-48a6-89b7-027344ff5d25","system_id":"levelo_inurba_marseille","lat":43.27832,"lon":5.39207,"is_reserved":false,"is_disabled":false,"rental_uris":{"android":"levelo://app?vid=bf1cd324-09ed-48a6-89b7-027344ff5d25","ios":"levelo://app?vid=bf1cd324-09ed-48a6-89b7-027344ff5d25"},"vehicle_type_id":"4","last_reported":1744906373,"current_range_meters":19200,"station_id":"ce4bhjp2rcd13ifvqga0","pricing_plan_id":"cebpf4jnsgd1na2vs0mg"},{"bike_id":"a9adddc8-4ba3-4e7f-8c76-898dad356da4","system_id":"levelo_inurba_marseille","lat":43.30216,"lon":5.39478,"is_reserved":false,"is_disabled":false,"rental_uris":{"android":"levelo://app?vid=a9adddc8-4ba3-4e7f-8c76-898dad356da4","ios":"levelo://app?vid=a9adddc8-4ba3-4e7f-8c76-898dad356da4"},"vehicle_type_id":"4","last_reported":1744906373,"current_range_meters":19200,"station_id":"ce4bh0p2rcd13ifvqd70","pricing_plan_id":"cebpf4jnsgd1na2vs0mg"},{"bike_id":"f9d3fbe6-73e5-424e-af02-f446d5b07152","system_id":"levelo_inurba_marseille","lat":43.21751,"lon":5.3461,"is_reserved":false,"is_disabled":false,"rental_uris":{"android":"levelo://app?vid=f9d3fbe6-73e5-424e-af02-f446d5b07152","ios":"levelo://app?vid=f9d3fbe6-73e5-424e-af02-f446d5b07152"},"vehicle_type_id":"4","last_reported":1744906373,"current_range_meters":19200,"station_id":"st_cvj6r9ubvosntc0bgbag","pricing_plan_id":"cebpf4jnsgd1na2vs0mg"},{"bike_id":"b16f7c03-e7b6-4497-a1b8-ef4587ba755c","system_id":"levelo_inurba_marseille","lat":43.29604,"lon":5.38112,"is_reserved":false,"is_disabled":false,"rental_uris":{"android":"levelo://app?vid=b16f7c03-e7b6-4497-a1b8-ef4587ba755c","ios":"levelo://app?vid=b16f7c03-e7b6-4497-a1b8-ef4587ba755c"},"vehicle_type_id":"4","last_reported":1744906373,"current_range_meters":19200,"station_id":"ce4bgl12rcd13ifvqbo0","pricing_plan_id":"cebpf4jnsgd1na2vs0mg"},{"bike_id":"4ca37c75-00ca-4b16-b492-f7ec2e5e3a5f","system_id":"levelo_inurba_marseille","lat":43.30646,"lon":5.40077,"is_reserved":false,"is_disabled":false,"rental_uris":{"android":"levelo://app?vid=4ca37c75-00ca-4b16-b492-f7ec2e5e3a5f","ios":"levelo://app?vid=4ca37c75-00ca-4b16-b492-f7ec2e5e3a5f"},"vehicle_type_id":"4","last_reported":1744906373,"current_range_meters":19200,"station_id":"ce4bh112rcd13ifvqda0","pricing_plan_id":"cebpf4jnsgd1na2vs0mg"},{"bike_id":"b368ada7-565b-402c-80d2-242335d13a81","system_id":"levelo_inurba_marseille","lat":43.279123,"lon":5.380243,"is_reserved":false,"is_disabled":true,"rental_uris":{"android":"levelo://app?vid=b368ada7-565b-402c-80d2-242335d13a81","ios":"levelo://app?vid=b368ada7-565b-402c-80d2-242335d13a81"},"vehicle_type_id":"4","last_reported":1744906373,"current_range_meters":19200,"station_id":"ce4bhf92rcd13ifvqf50","pricing_plan_id":"cebpf4jnsgd1na2vs0mg"},{"bike_id":"5602e25b-b6d1-4029-9b61-4770f34bc1ea","system_id":"levelo_inurba_marseille","lat":43.24093,"lon":5.37775,"is_reserved":false,"is_disabled":false,"rental_uris":{"android":"levelo://app?vid=5602e25b-b6d1-4029-9b61-4770f34bc1ea","ios":"levelo://app?vid=5602e25b-b6d1-4029-9b61-4770f34bc1ea"},"vehicle_type_id":"4","last_reported":1744906373,"current_range_meters":19600,"station_id":"ce4bhnp2rcd13ifvqgvg","pricing_plan_id":"cebpf4jnsgd1na2vs0mg"},{"bike_id":"d711ca94-c410-4b4d-9e11-85013c330a86","system_id":"levelo_inurba_marseille","lat":43.27836,"lon":5.39212,"is_reserved":false,"is_disabled":false,"rental_uris":{"android":"levelo://app?vid=d711ca94-c410-4b4d-9e11-85013c330a86","ios":"levelo://app?vid=d711ca94-c410-4b4d-9e11-85013c330a86"},"vehicle_type_id":"4","last_reported":1744906373,"current_range_meters":19600,"station_id":"ce4bhjp2rcd13ifvqga0","pricing_plan_id":"cebpf4jnsgd1na2vs0mg"},{"bike_id":"60e0af8c-3a17-45e8-9328-942e84dae81f","system_id":"levelo_inurba_marseille","lat":43.311676,"lon":5.387285,"is_reserved":false,"is_disabled":false,"rental_uris":{"android":"levelo://app?vid=60e0af8c-3a17-45e8-9328-942e84dae81f","ios":"levelo://app?vid=60e0af8c-3a17-45e8-9328-942e84dae81f"},"vehicle_type_id":"4","last_reported":1744906373,"current_range_meters":19600,"station_id":"ce4bgv12rcd13ifvqcp0","pricing_plan_id":"cebpf4jnsgd1na2vs0mg"},{"bike_id":"ecd9b5fe-4b17-4d30-a270-9ff21e0a9ad2","system_id":"levelo_inurba_marseille","lat":43.24173,"lon":5.36413,"is_reserved":false,"is_disabled":false,"rental_uris":{"android":"levelo://app?vid=ecd9b5fe-4b17-4d30-a270-9ff21e0a9ad2","ios":"levelo://app?vid=ecd9b5fe-4b17-4d30-a270-9ff21e0a9ad2"},"vehicle_type_id":"4","last_reported":1744906373,"current_range_meters":19600,"station_id":"cpo36qri1sfpv3e86is0","pricing_plan_id":"cebpf4jnsgd1na2vs0mg"},{"bike_id":"b9b555b2-69b3-4000-9c9b-26ef9c57d596","system_id":"levelo_inurba_marseille","lat":43.28664,"lon":5.36345,"is_reserved":false,"is_disabled":false,"rental_uris":{"android":"levelo://app?vid=b9b555b2-69b3-4000-9c9b-26ef9c57d596","ios":"levelo://app?vid=b9b555b2-69b3-4000-9c9b-26ef9c57d596"},"vehicle_type_id":"4","last_reported":1744906373,"current_range_meters":20000,"station_id":"ce4bhah2rcd13ifvqej0","pricing_plan_id":"cebpf4jnsgd1na2vs0mg"},{"bike_id":"cc937bc8-27c1-44e9-a469-8b24e9cfd941","system_id":"levelo_inurba_marseille","lat":43.29854,"lon":5.36288,"is_reserved":false,"is_disabled":false,"rental_uris":{"android":"levelo://app?vid=cc937bc8-27c1-44e9-a469-8b24e9cfd941","ios":"levelo://app?vid=cc937bc8-27c1-44e9-a469-8b24e9cfd941"},"vehicle_type_id":"4","last_reported":1744906373,"current_range_meters":20000,"station_id":"ce4bgpp2rcd13ifvqc3g","pricing_plan_id":"cebpf4jnsgd1na2vs0mg"},{"bike_id":"8ecf4e01-d2fb-40fe-8ca8-cc87934d5b6e","system_id":"levelo_inurba_marseille","lat":43.25004,"lon":5.38927,"is_reserved":false,"is_disabled":false,"rental_uris":{"android":"levelo://app?vid=8ecf4e01-d2fb-40fe-8ca8-cc87934d5b6e","ios":"levelo://app?vid=8ecf4e01-d2fb-40fe-8ca8-cc87934d5b6e"},"vehicle_type_id":"4","last_reported":1744906373,"current_range_meters":20000,"station_id":"ce4bhgp2rcd13ifvqfd0","pricing_plan_id":"cebpf4jnsgd1na2vs0mg"},{"bike_id":"88b3cf14-275a-401d-b436-2b2dfd74dfde","system_id":"levelo_inurba_marseille","lat":43.28349,"lon":5.38112,"is_reserved":false,"is_disabled":false,"rental_uris":{"android":"levelo://app?vid=88b3cf14-275a-401d-b436-2b2dfd74dfde","ios":"levelo://app?vid=88b3cf14-275a-401d-b436-2b2dfd74dfde"},"vehicle_type_id":"4","last_reported":1744906373,"current_range_meters":20000,"station_id":"ce4bh412rcd13ifvqdr0","pricing_plan_id":"cebpf4jnsgd1na2vs0mg"},{"bike_id":"855a1ef4-8b4a-474b-b30b-32fc781f2034","system_id":"levelo_inurba_marseille","lat":43.25178,"lon":5.40375,"is_reserved":false,"is_disabled":false,"rental_uris":{"android":"levelo://app?vid=855a1ef4-8b4a-474b-b30b-32fc781f2034","ios":"levelo://app?vid=855a1ef4-8b4a-474b-b30b-32fc781f2034"},"vehicle_type_id":"4","last_reported":1744906373,"current_range_meters":20000,"station_id":"ce4bhlh2rcd13ifvqgig","pricing_plan_id":"cebpf4jnsgd1na2vs0mg"},{"bike_id":"a98846e9-8bfc-47f7-8530-12eb548f5820","system_id":"levelo_inurba_marseille","lat":43.28983,"lon":5.37876,"is_reserved":false,"is_disabled":false,"rental_uris":{"android":"levelo://app?vid=a98846e9-8bfc-47f7-8530-12eb548f5820","ios":"levelo://app?vid=a98846e9-8bfc-47f7-8530-12eb548f5820"},"vehicle_type_id":"4","last_reported":1744906373,"current_range_meters":20400,"station_id":"ce4bh9p2rcd13ifvqed0","pricing_plan_id":"cebpf4jnsgd1na2vs0mg"},{"bike_id":"ca2e1c0e-b4f2-46ea-9bc6-4832bf223e90","system_id":"levelo_inurba_marseille","lat":43.25819,"lon":5.3943,"is_reserved":false,"is_disabled":false,"rental_uris":{"android":"levelo://app?vid=ca2e1c0e-b4f2-46ea-9bc6-4832bf223e90","ios":"levelo://app?vid=ca2e1c0e-b4f2-46ea-9bc6-4832bf223e90"},"vehicle_type_id":"4","last_reported":1744906373,"current_range_meters":20400,"station_id":"ce4bhip2rcd13ifvqft0","pricing_plan_id":"cebpf4jnsgd1na2vs0mg"},{"bike_id":"354a7346-a86d-4048-bdda-35abf99a6364","system_id":"levelo_inurba_marseille","lat":43.29442,"lon":5.39764,"is_reserved":false,"is_disabled":false,"rental_uris":{"android":"levelo://app?vid=354a7346-a86d-4048-bdda-35abf99a6364","ios":"levelo://app?vid=354a7346-a86d-4048-bdda-35abf99a6364"},"vehicle_type_id":"4","last_reported":1744906373,"current_range_meters":20400,"station_id":"ce4bh3h2rcd13ifvqdo0","pricing_plan_id":"cebpf4jnsgd1na2vs0mg"},{"bike_id":"65534bdd-a097-4cdf-a3ed-2c66ffa4d7c1","system_id":"levelo_inurba_marseille","lat":43.28441,"lon":5.39217,"is_reserved":false,"is_disabled":false,"rental_uris":{"android":"levelo://app?vid=65534bdd-a097-4cdf-a3ed-2c66ffa4d7c1","ios":"levelo://app?vid=65534bdd-a097-4cdf-a3ed-2c66ffa4d7c1"},"vehicle_type_id":"4","last_reported":1744906373,"current_range_meters":20000,"station_id":"ce4bhoh2rcd13ifvqh5g","pricing_plan_id":"cebpf4jnsgd1na2vs0mg"},{"bike_id":"ee9e0d57-c5b9-44c9-97bc-8f8b4941318d","system_id":"levelo_inurba_marseille","lat":43.27172,"lon":5.41002,"is_reserved":false,"is_disabled":false,"rental_uris":{"android":"levelo://app?vid=ee9e0d57-c5b9-44c9-97bc-8f8b4941318d","ios":"levelo://app?vid=ee9e0d57-c5b9-44c9-97bc-8f8b4941318d"},"vehicle_type_id":"4","last_reported":1744906373,"current_range_meters":20400,"station_id":"ce4bhl12rcd13ifvqgf0","pricing_plan_id":"cebpf4jnsgd1na2vs0mg"},{"bike_id":"cf120db2-c4a3-41cb-9769-2d942b9ef24f","system_id":"levelo_inurba_marseille","lat":43.29809,"lon":5.38101,"is_reserved":false,"is_disabled":false,"rental_uris":{"android":"levelo://app?vid=cf120db2-c4a3-41cb-9769-2d942b9ef24f","ios":"levelo://app?vid=cf120db2-c4a3-41cb-9769-2d942b9ef24f"},"vehicle_type_id":"4","last_reported":1744906373,"current_range_meters":20800,"station_id":"ce4bgip2rcd13ifvqbb0","pricing_plan_id":"cebpf4jnsgd1na2vs0mg"},{"bike_id":"e8c8c5fb-984f-430e-b7a4-314c5a105a8d","system_id":"levelo_inurba_marseille","lat":43.27374,"lon":5.408373,"is_reserved":false,"is_disabled":false,"rental_uris":{"android":"levelo://app?vid=e8c8c5fb-984f-430e-b7a4-314c5a105a8d","ios":"levelo://app?vid=e8c8c5fb-984f-430e-b7a4-314c5a105a8d"},"vehicle_type_id":"4","last_reported":1744906373,"current_range_meters":20800,"station_id":"ce4bhnp2rcd13ifvqh0g","pricing_plan_id":"cebpf4jnsgd1na2vs0mg"},{"bike_id":"761fcdea-ab14-4485-92a7-6159fef8dc5a","system_id":"levelo_inurba_marseille","lat":43.33109,"lon":5.38241,"is_reserved":false,"is_disabled":false,"rental_uris":{"android":"levelo://app?vid=761fcdea-ab14-4485-92a7-6159fef8dc5a","ios":"levelo://app?vid=761fcdea-ab14-4485-92a7-6159fef8dc5a"},"vehicle_type_id":"4","last_reported":1744906373,"current_range_meters":20800,"station_id":"","pricing_plan_id":"cebpf4jnsgd1na2vs0mg"},{"bike_id":"f1d513e7-93f2-472b-b840-4c42490aad95","system_id":"levelo_inurba_marseille","lat":43.2416,"lon":5.36416,"is_reserved":false,"is_disabled":false,"rental_uris":{"android":"levelo://app?vid=f1d513e7-93f2-472b-b840-4c42490aad95","ios":"levelo://app?vid=f1d513e7-93f2-472b-b840-4c42490aad95"},"vehicle_type_id":"4","last_reported":1744906373,"current_range_meters":20800,"station_id":"cpo36qri1sfpv3e86is0","pricing_plan_id":"cebpf4jnsgd1na2vs0mg"},{"bike_id":"aaf05b40-a6e6-4e3e-bf64-00defa06efb0","system_id":"levelo_inurba_marseille","lat":43.28476,"lon":5.38446,"is_reserved":false,"is_disabled":false,"rental_uris":{"android":"levelo://app?vid=aaf05b40-a6e6-4e3e-bf64-00defa06efb0","ios":"levelo://app?vid=aaf05b40-a6e6-4e3e-bf64-00defa06efb0"},"vehicle_type_id":"4","last_reported":1744906373,"current_range_meters":20800,"station_id":"ce4bh512rcd13ifvqe3g","pricing_plan_id":"cebpf4jnsgd1na2vs0mg"},{"bike_id":"80bac1fe-218c-4068-937c-4aa733df023f","system_id":"levelo_inurba_marseille","lat":43.28692,"lon":5.37106,"is_reserved":false,"is_disabled":false,"rental_uris":{"android":"levelo://app?vid=80bac1fe-218c-4068-937c-4aa733df023f","ios":"levelo://app?vid=80bac1fe-218c-4068-937c-4aa733df023f"},"vehicle_type_id":"4","last_reported":1744906373,"current_range_meters":20800,"station_id":"","pricing_plan_id":"cebpf4jnsgd1na2vs0mg"},{"bike_id":"961876eb-55f2-41a1-a0ed-7fa4bc5f6eb2","system_id":"levelo_inurba_marseille","lat":43.2707,"lon":5.42279,"is_reserved":false,"is_disabled":false,"rental_uris":{"android":"levelo://app?vid=961876eb-55f2-41a1-a0ed-7fa4bc5f6eb2","ios":"levelo://app?vid=961876eb-55f2-41a1-a0ed-7fa4bc5f6eb2"},"vehicle_type_id":"4","last_reported":1744906373,"current_range_meters":20800,"station_id":"ce4bhk92rcd13ifvqgb0","pricing_plan_id":"cebpf4jnsgd1na2vs0mg"},{"bike_id":"9f9be47f-f2f6-4003-9bbb-b7667c073558","system_id":"levelo_inurba_marseille","lat":43.24071,"lon":5.37777,"is_reserved":false,"is_disabled":false,"rental_uris":{"android":"levelo://app?vid=9f9be47f-f2f6-4003-9bbb-b7667c073558","ios":"levelo://app?vid=9f9be47f-f2f6-4003-9bbb-b7667c073558"},"vehicle_type_id":"4","last_reported":1744906373,"current_range_meters":21600,"station_id":"ce4bhnp2rcd13ifvqgvg","pricing_plan_id":"cebpf4jnsgd1na2vs0mg"},{"bike_id":"ee0e8484-dd1e-41f1-88e7-ca3d4298fe59","system_id":"levelo_inurba_marseille","lat":43.2958,"lon":5.36736,"is_reserved":false,"is_disabled":false,"rental_uris":{"android":"levelo://app?vid=ee0e8484-dd1e-41f1-88e7-ca3d4298fe59","ios":"levelo://app?vid=ee0e8484-dd1e-41f1-88e7-ca3d4298fe59"},"vehicle_type_id":"4","last_reported":1744906373,"current_range_meters":21600,"station_id":"ce4bgph2rcd13ifvqc2g","pricing_plan_id":"cebpf4jnsgd1na2vs0mg"},{"bike_id":"989bde3f-f9ea-4df2-96b8-a1be3ff23ed9","system_id":"levelo_inurba_marseille","lat":43.28939,"lon":5.36643,"is_reserved":false,"is_disabled":false,"rental_uris":{"android":"levelo://app?vid=989bde3f-f9ea-4df2-96b8-a1be3ff23ed9","ios":"levelo://app?vid=989bde3f-f9ea-4df2-96b8-a1be3ff23ed9"},"vehicle_type_id":"4","last_reported":1744906373,"current_range_meters":21600,"station_id":"ce4bhap2rcd13ifvqek0","pricing_plan_id":"cebpf4jnsgd1na2vs0mg"},{"bike_id":"9eb6738d-486c-4d0a-88f4-70b8d81983d1","system_id":"levelo_inurba_marseille","lat":43.21748,"lon":5.34599,"is_reserved":false,"is_disabled":false,"rental_uris":{"android":"levelo://app?vid=9eb6738d-486c-4d0a-88f4-70b8d81983d1","ios":"levelo://app?vid=9eb6738d-486c-4d0a-88f4-70b8d81983d1"},"vehicle_type_id":"4","last_reported":1744906373,"current_range_meters":21600,"station_id":"st_cvj6r9ubvosntc0bgbag","pricing_plan_id":"cebpf4jnsgd1na2vs0mg"},{"bike_id":"5e6be620-a3d0-49c3-9ff0-b85332cde817","system_id":"levelo_inurba_marseille","lat":43.23196,"lon":5.35576,"is_reserved":false,"is_disabled":false,"rental_uris":{"android":"levelo://app?vid=5e6be620-a3d0-49c3-9ff0-b85332cde817","ios":"levelo://app?vid=5e6be620-a3d0-49c3-9ff0-b85332cde817"},"vehicle_type_id":"4","last_reported":1744906373,"current_range_meters":21600,"station_id":"ce4bhu92rcd13ifvqi70","pricing_plan_id":"cebpf4jnsgd1na2vs0mg"},{"bike_id":"f6d62cfb-ba51-4bd0-8aca-83f32fca96b3","system_id":"levelo_inurba_marseille","lat":43.3372,"lon":5.39189,"is_reserved":false,"is_disabled":false,"rental_uris":{"android":"levelo://app?vid=f6d62cfb-ba51-4bd0-8aca-83f32fca96b3","ios":"levelo://app?vid=f6d62cfb-ba51-4bd0-8aca-83f32fca96b3"},"vehicle_type_id":"4","last_reported":1744906373,"current_range_meters":22000,"station_id":"ce4bhr92rcd13ifvqhsg","pricing_plan_id":"cebpf4jnsgd1na2vs0mg"},{"bike_id":"91aa591a-3e56-4092-a295-ecb6aebe69eb","system_id":"levelo_inurba_marseille","lat":43.22507,"lon":5.34801,"is_reserved":false,"is_disabled":false,"rental_uris":{"android":"levelo://app?vid=91aa591a-3e56-4092-a295-ecb6aebe69eb","ios":"levelo://app?vid=91aa591a-3e56-4092-a295-ecb6aebe69eb"},"vehicle_type_id":"4","last_reported":1744906373,"current_range_meters":22000,"station_id":"st_cvj5dfep6f1abm77gieg","pricing_plan_id":"cebpf4jnsgd1na2vs0mg"},{"bike_id":"aea2afb6-112e-4c3a-968a-5eb5aa77e9be","system_id":"levelo_inurba_marseille","lat":43.21196,"lon":5.35088,"is_reserved":false,"is_disabled":false,"rental_uris":{"android":"levelo://app?vid=aea2afb6-112e-4c3a-968a-5eb5aa77e9be","ios":"levelo://app?vid=aea2afb6-112e-4c3a-968a-5eb5aa77e9be"},"vehicle_type_id":"4","last_reported":1744906373,"current_range_meters":22000,"station_id":"st_cvj6sg6p6f1abm77japg","pricing_plan_id":"cebpf4jnsgd1na2vs0mg"},{"bike_id":"59c197ba-9b4b-41f6-a691-7fac25c58215","system_id":"levelo_inurba_marseille","lat":43.29028,"lon":5.38646,"is_reserved":false,"is_disabled":false,"rental_uris":{"android":"levelo://app?vid=59c197ba-9b4b-41f6-a691-7fac25c58215","ios":"levelo://app?vid=59c197ba-9b4b-41f6-a691-7fac25c58215"},"vehicle_type_id":"4","last_reported":1744906373,"current_range_meters":22000,"station_id":"ce4bh4p2rcd13ifvqe0g","pricing_plan_id":"cebpf4jnsgd1na2vs0mg"},{"bike_id":"7d61685e-6150-40cc-9fee-865aea60477b","system_id":"levelo_inurba_marseille","lat":43.291,"lon":5.38158,"is_reserved":false,"is_disabled":true,"rental_uris":{"android":"levelo://app?vid=7d61685e-6150-40cc-9fee-865aea60477b","ios":"levelo://app?vid=7d61685e-6150-40cc-9fee-865aea60477b"},"vehicle_type_id":"4","last_reported":1744906373,"current_range_meters":22000,"station_id":"ce4bh512rcd13ifvqe2g","pricing_plan_id":"cebpf4jnsgd1na2vs0mg"},{"bike_id":"b5c8481c-6c06-4a3e-b5b1-8e8db2aaf41e","system_id":"levelo_inurba_marseille","lat":43.29272,"lon":5.38439,"is_reserved":false,"is_disabled":false,"rental_uris":{"android":"levelo://app?vid=b5c8481c-6c06-4a3e-b5b1-8e8db2aaf41e","ios":"levelo://app?vid=b5c8481c-6c06-4a3e-b5b1-8e8db2aaf41e"},"vehicle_type_id":"4","last_reported":1744906373,"current_range_meters":22000,"station_id":"ce4bh692rcd13ifvqea0","pricing_plan_id":"cebpf4jnsgd1na2vs0mg"},{"bike_id":"25a028f1-8db8-42fc-89af-1202e91bc737","system_id":"levelo_inurba_marseille","lat":43.2794,"lon":5.41047,"is_reserved":false,"is_disabled":false,"rental_uris":{"android":"levelo://app?vid=25a028f1-8db8-42fc-89af-1202e91bc737","ios":"levelo://app?vid=25a028f1-8db8-42fc-89af-1202e91bc737"},"vehicle_type_id":"4","last_reported":1744906373,"current_range_meters":22000,"station_id":"ce4bhnp2rcd13ifvqh0g","pricing_plan_id":"cebpf4jnsgd1na2vs0mg"},{"bike_id":"6e162dd9-68d1-48fb-a639-fbdad05e34f5","system_id":"levelo_inurba_marseille","lat":43.29612,"lon":5.37754,"is_reserved":false,"is_disabled":false,"rental_uris":{"android":"levelo://app?vid=6e162dd9-68d1-48fb-a639-fbdad05e34f5","ios":"levelo://app?vid=6e162dd9-68d1-48fb-a639-fbdad05e34f5"},"vehicle_type_id":"4","last_reported":1744906373,"current_range_meters":22400,"station_id":"ce4bgi92rcd13ifvqb90","pricing_plan_id":"cebpf4jnsgd1na2vs0mg"},{"bike_id":"cf29647c-88fd-4c36-bec5-759bf31e4ffc","system_id":"levelo_inurba_marseille","lat":43.29532,"lon":5.38551,"is_reserved":false,"is_disabled":false,"rental_uris":{"android":"levelo://app?vid=cf29647c-88fd-4c36-bec5-759bf31e4ffc","ios":"levelo://app?vid=cf29647c-88fd-4c36-bec5-759bf31e4ffc"},"vehicle_type_id":"4","last_reported":1744906373,"current_range_meters":22400,"station_id":"ce4bgih2rcd13ifvqba0","pricing_plan_id":"cebpf4jnsgd1na2vs0mg"},{"bike_id":"c23b8914-a0ce-4163-9ebe-f78210fcb438","system_id":"levelo_inurba_marseille","lat":43.24183,"lon":5.39725,"is_reserved":false,"is_disabled":false,"rental_uris":{"android":"levelo://app?vid=c23b8914-a0ce-4163-9ebe-f78210fcb438","ios":"levelo://app?vid=c23b8914-a0ce-4163-9ebe-f78210fcb438"},"vehicle_type_id":"4","last_reported":1744906373,"current_range_meters":22400,"station_id":"ce4bhn12rcd13ifvqgpg","pricing_plan_id":"cebpf4jnsgd1na2vs0mg"},{"bike_id":"f7b839f8-bc55-40aa-94ca-1eee27f1b592","system_id":"levelo_inurba_marseille","lat":43.28615,"lon":5.351,"is_reserved":false,"is_disabled":false,"rental_uris":{"android":"levelo://app?vid=f7b839f8-bc55-40aa-94ca-1eee27f1b592","ios":"levelo://app?vid=f7b839f8-bc55-40aa-94ca-1eee27f1b592"},"vehicle_type_id":"4","last_reported":1744906373,"current_range_meters":22400,"station_id":"ce4bhch2rcd13ifvqeug","pricing_plan_id":"cebpf4jnsgd1na2vs0mg"},{"bike_id":"7abfae94-692e-4269-abe4-47214938a1fb","system_id":"levelo_inurba_marseille","lat":43.29266,"lon":5.3844,"is_reserved":false,"is_disabled":false,"rental_uris":{"android":"levelo://app?vid=7abfae94-692e-4269-abe4-47214938a1fb","ios":"levelo://app?vid=7abfae94-692e-4269-abe4-47214938a1fb"},"vehicle_type_id":"4","last_reported":1744906373,"current_range_meters":22400,"station_id":"ce4bh692rcd13ifvqea0","pricing_plan_id":"cebpf4jnsgd1na2vs0mg"},{"bike_id":"7b7a5c9a-8afb-43b9-a23b-9022d1ec146a","system_id":"levelo_inurba_marseille","lat":43.29265,"lon":5.40914,"is_reserved":false,"is_disabled":false,"rental_uris":{"android":"levelo://app?vid=7b7a5c9a-8afb-43b9-a23b-9022d1ec146a","ios":"levelo://app?vid=7b7a5c9a-8afb-43b9-a23b-9022d1ec146a"},"vehicle_type_id":"4","last_reported":1744906373,"current_range_meters":22400,"station_id":"ce4bh192rcd13ifvqdc0","pricing_plan_id":"cebpf4jnsgd1na2vs0mg"},{"bike_id":"b05fb070-2128-4fdb-83d4-a5b100988911","system_id":"levelo_inurba_marseille","lat":43.308022,"lon":5.381462,"is_reserved":false,"is_disabled":false,"rental_uris":{"android":"levelo://app?vid=b05fb070-2128-4fdb-83d4-a5b100988911","ios":"levelo://app?vid=b05fb070-2128-4fdb-83d4-a5b100988911"},"vehicle_type_id":"4","last_reported":1744906373,"current_range_meters":22400,"station_id":"ce4bgth2rcd13ifvqch0","pricing_plan_id":"cebpf4jnsgd1na2vs0mg"},{"bike_id":"67814e22-50bc-4005-aced-e2a25cf1ac3c","system_id":"levelo_inurba_marseille","lat":43.27494,"lon":5.42451,"is_reserved":false,"is_disabled":false,"rental_uris":{"android":"levelo://app?vid=67814e22-50bc-4005-aced-e2a25cf1ac3c","ios":"levelo://app?vid=67814e22-50bc-4005-aced-e2a25cf1ac3c"},"vehicle_type_id":"4","last_reported":1744906373,"current_range_meters":22400,"station_id":"ce4bhn92rcd13ifvqgrg","pricing_plan_id":"cebpf4jnsgd1na2vs0mg"},{"bike_id":"b9249d7a-6f4f-4d76-a768-e4e60116cfed","system_id":"levelo_inurba_marseille","lat":43.29194,"lon":5.39332,"is_reserved":false,"is_disabled":false,"rental_uris":{"android":"levelo://app?vid=b9249d7a-6f4f-4d76-a768-e4e60116cfed","ios":"levelo://app?vid=b9249d7a-6f4f-4d76-a768-e4e60116cfed"},"vehicle_type_id":"4","last_reported":1744906373,"current_range_meters":22400,"station_id":"ce4bh192rcd13ifvqdd0","pricing_plan_id":"cebpf4jnsgd1na2vs0mg"},{"bike_id":"8dbee5f0-ac29-4ec5-8708-d10c35f097cb","system_id":"levelo_inurba_marseille","lat":43.29041,"lon":5.37569,"is_reserved":false,"is_disabled":false,"rental_uris":{"android":"levelo://app?vid=8dbee5f0-ac29-4ec5-8708-d10c35f097cb","ios":"levelo://app?vid=8dbee5f0-ac29-4ec5-8708-d10c35f097cb"},"vehicle_type_id":"4","last_reported":1744906373,"current_range_meters":22400,"station_id":"ce4bh692rcd13ifvqe90","pricing_plan_id":"cebpf4jnsgd1na2vs0mg"},{"bike_id":"52bd5955-e9ce-4500-9ae7-6b5cba3e90fe","system_id":"levelo_inurba_marseille","lat":43.299261,"lon":5.365472,"is_reserved":false,"is_disabled":false,"rental_uris":{"android":"levelo://app?vid=52bd5955-e9ce-4500-9ae7-6b5cba3e90fe","ios":"levelo://app?vid=52bd5955-e9ce-4500-9ae7-6b5cba3e90fe"},"vehicle_type_id":"4","last_reported":1744906373,"current_range_meters":22400,"station_id":"ce4bhs12rcd13ifvqhvg","pricing_plan_id":"cebpf4jnsgd1na2vs0mg"},{"bike_id":"75e7925c-ce2e-45e5-836b-b814ccad1f8e","system_id":"levelo_inurba_marseille","lat":43.28619,"lon":5.35106,"is_reserved":false,"is_disabled":false,"rental_uris":{"android":"levelo://app?vid=75e7925c-ce2e-45e5-836b-b814ccad1f8e","ios":"levelo://app?vid=75e7925c-ce2e-45e5-836b-b814ccad1f8e"},"vehicle_type_id":"4","last_reported":1744906373,"current_range_meters":22400,"station_id":"ce4bhch2rcd13ifvqeug","pricing_plan_id":"cebpf4jnsgd1na2vs0mg"},{"bike_id":"35e3afb2-10b3-4a5b-938e-23fc983a11b3","system_id":"levelo_inurba_marseille","lat":43.30207,"lon":5.39468,"is_reserved":false,"is_disabled":false,"rental_uris":{"android":"levelo://app?vid=35e3afb2-10b3-4a5b-938e-23fc983a11b3","ios":"levelo://app?vid=35e3afb2-10b3-4a5b-938e-23fc983a11b3"},"vehicle_type_id":"4","last_reported":1744906373,"current_range_meters":22800,"station_id":"ce4bh0p2rcd13ifvqd70","pricing_plan_id":"cebpf4jnsgd1na2vs0mg"},{"bike_id":"d05b7cc4-f88b-4d02-ae6c-c344f22c0e5c","system_id":"levelo_inurba_marseille","lat":43.29772,"lon":5.36525,"is_reserved":false,"is_disabled":false,"rental_uris":{"android":"levelo://app?vid=d05b7cc4-f88b-4d02-ae6c-c344f22c0e5c","ios":"levelo://app?vid=d05b7cc4-f88b-4d02-ae6c-c344f22c0e5c"},"vehicle_type_id":"4","last_reported":1744906373,"current_range_meters":22800,"station_id":"","pricing_plan_id":"cebpf4jnsgd1na2vs0mg"},{"bike_id":"f459bb5b-6354-4355-a19c-ab31a584cb5a","system_id":"levelo_inurba_marseille","lat":43.31082,"lon":5.3835,"is_reserved":false,"is_disabled":false,"rental_uris":{"android":"levelo://app?vid=f459bb5b-6354-4355-a19c-ab31a584cb5a","ios":"levelo://app?vid=f459bb5b-6354-4355-a19c-ab31a584cb5a"},"vehicle_type_id":"4","last_reported":1744906373,"current_range_meters":22800,"station_id":"ce4bgv92rcd13ifvqcr0","pricing_plan_id":"cebpf4jnsgd1na2vs0mg"},{"bike_id":"85f706d2-1012-4f4d-982d-97e40498ab3b","system_id":"levelo_inurba_marseille","lat":43.28685,"lon":5.36337,"is_reserved":false,"is_disabled":false,"rental_uris":{"android":"levelo://app?vid=85f706d2-1012-4f4d-982d-97e40498ab3b","ios":"levelo://app?vid=85f706d2-1012-4f4d-982d-97e40498ab3b"},"vehicle_type_id":"4","last_reported":1744906373,"current_range_meters":22800,"station_id":"ce4bhah2rcd13ifvqej0","pricing_plan_id":"cebpf4jnsgd1na2vs0mg"},{"bike_id":"bf8126a7-dadd-44bb-86f9-e2172d6ff710","system_id":"levelo_inurba_marseille","lat":43.27833,"lon":5.39211,"is_reserved":false,"is_disabled":false,"rental_uris":{"android":"levelo://app?vid=bf8126a7-dadd-44bb-86f9-e2172d6ff710","ios":"levelo://app?vid=bf8126a7-dadd-44bb-86f9-e2172d6ff710"},"vehicle_type_id":"4","last_reported":1744906373,"current_range_meters":22800,"station_id":"ce4bhjp2rcd13ifvqga0","pricing_plan_id":"cebpf4jnsgd1na2vs0mg"},{"bike_id":"2c57cf30-9b5a-4f21-86f5-1044625f5793","system_id":"levelo_inurba_marseille","lat":43.29532,"lon":5.38548,"is_reserved":false,"is_disabled":false,"rental_uris":{"android":"levelo://app?vid=2c57cf30-9b5a-4f21-86f5-1044625f5793","ios":"levelo://app?vid=2c57cf30-9b5a-4f21-86f5-1044625f5793"},"vehicle_type_id":"4","last_reported":1744906373,"current_range_meters":22800,"station_id":"ce4bgih2rcd13ifvqba0","pricing_plan_id":"cebpf4jnsgd1na2vs0mg"},{"bike_id":"4c55e5ea-4500-4fa7-b83b-1c16219d1a02","system_id":"levelo_inurba_marseille","lat":43.25709,"lon":5.411115,"is_reserved":false,"is_disabled":false,"rental_uris":{"android":"levelo://app?vid=4c55e5ea-4500-4fa7-b83b-1c16219d1a02","ios":"levelo://app?vid=4c55e5ea-4500-4fa7-b83b-1c16219d1a02"},"vehicle_type_id":"4","last_reported":1744906373,"current_range_meters":22400,"station_id":"ce4bhkp2rcd13ifvqgd0","pricing_plan_id":"cebpf4jnsgd1na2vs0mg"},{"bike_id":"7a7253a2-6d4a-4ed0-8a81-25fa21defb7c","system_id":"levelo_inurba_marseille","lat":43.24387,"lon":5.37064,"is_reserved":false,"is_disabled":false,"rental_uris":{"android":"levelo://app?vid=7a7253a2-6d4a-4ed0-8a81-25fa21defb7c","ios":"levelo://app?vid=7a7253a2-6d4a-4ed0-8a81-25fa21defb7c"},"vehicle_type_id":"4","last_reported":1744906373,"current_range_meters":22800,"station_id":"ce4bhhh2rcd13ifvqfk0","pricing_plan_id":"cebpf4jnsgd1na2vs0mg"},{"bike_id":"2372b117-29d8-4fca-8504-394dc7a69cc3","system_id":"levelo_inurba_marseille","lat":43.29606,"lon":5.38109,"is_reserved":false,"is_disabled":false,"rental_uris":{"android":"levelo://app?vid=2372b117-29d8-4fca-8504-394dc7a69cc3","ios":"levelo://app?vid=2372b117-29d8-4fca-8504-394dc7a69cc3"},"vehicle_type_id":"4","last_reported":1744906373,"current_range_meters":22800,"station_id":"ce4bgl12rcd13ifvqbo0","pricing_plan_id":"cebpf4jnsgd1na2vs0mg"},{"bike_id":"32e4552a-f42f-4e62-b7a8-0d73c754f37a","system_id":"levelo_inurba_marseille","lat":43.29544,"lon":5.38534,"is_reserved":false,"is_disabled":false,"rental_uris":{"android":"levelo://app?vid=32e4552a-f42f-4e62-b7a8-0d73c754f37a","ios":"levelo://app?vid=32e4552a-f42f-4e62-b7a8-0d73c754f37a"},"vehicle_type_id":"4","last_reported":1744906373,"current_range_meters":22800,"station_id":"ce4bgih2rcd13ifvqba0","pricing_plan_id":"cebpf4jnsgd1na2vs0mg"},{"bike_id":"eb0220de-5641-4549-8ce6-f907772fde4d","system_id":"levelo_inurba_marseille","lat":43.26556,"lon":5.37286,"is_reserved":false,"is_disabled":true,"rental_uris":{"android":"levelo://app?vid=eb0220de-5641-4549-8ce6-f907772fde4d","ios":"levelo://app?vid=eb0220de-5641-4549-8ce6-f907772fde4d"},"vehicle_type_id":"4","last_reported":1744906373,"current_range_meters":23200,"station_id":"ce4bhg12rcd13ifvqf70","pricing_plan_id":"cebpf4jnsgd1na2vs0mg"},{"bike_id":"f1f30861-2e48-4970-9f7d-33998edd71f6","system_id":"levelo_inurba_marseille","lat":43.29589,"lon":5.36765,"is_reserved":false,"is_disabled":false,"rental_uris":{"android":"levelo://app?vid=f1f30861-2e48-4970-9f7d-33998edd71f6","ios":"levelo://app?vid=f1f30861-2e48-4970-9f7d-33998edd71f6"},"vehicle_type_id":"4","last_reported":1744906373,"current_range_meters":23200,"station_id":"ce4bgph2rcd13ifvqc2g","pricing_plan_id":"cebpf4jnsgd1na2vs0mg"},{"bike_id":"8c2dc52a-c1f8-49af-b156-7ca9345a9a27","system_id":"levelo_inurba_marseille","lat":43.2792,"lon":5.39582,"is_reserved":false,"is_disabled":false,"rental_uris":{"android":"levelo://app?vid=8c2dc52a-c1f8-49af-b156-7ca9345a9a27","ios":"levelo://app?vid=8c2dc52a-c1f8-49af-b156-7ca9345a9a27"},"vehicle_type_id":"4","last_reported":1744906373,"current_range_meters":23200,"station_id":"ce4bhf92rcd13ifvqf40","pricing_plan_id":"cebpf4jnsgd1na2vs0mg"},{"bike_id":"d221c3a7-1691-4e2f-8b2d-ec8a6c7b3a1d","system_id":"levelo_inurba_marseille","lat":43.29973,"lon":5.38516,"is_reserved":false,"is_disabled":false,"rental_uris":{"android":"levelo://app?vid=d221c3a7-1691-4e2f-8b2d-ec8a6c7b3a1d","ios":"levelo://app?vid=d221c3a7-1691-4e2f-8b2d-ec8a6c7b3a1d"},"vehicle_type_id":"4","last_reported":1744906373,"current_range_meters":23200,"station_id":"ce4bhnh2rcd13ifvqgug","pricing_plan_id":"cebpf4jnsgd1na2vs0mg"},{"bike_id":"379dee3f-34cd-468c-aca0-cf546e557097","system_id":"levelo_inurba_marseille","lat":43.26556,"lon":5.39021,"is_reserved":false,"is_disabled":false,"rental_uris":{"android":"levelo://app?vid=379dee3f-34cd-468c-aca0-cf546e557097","ios":"levelo://app?vid=379dee3f-34cd-468c-aca0-cf546e557097"},"vehicle_type_id":"4","last_reported":1744906373,"current_range_meters":23200,"station_id":"ce4bhe12rcd13ifvqf30","pricing_plan_id":"cebpf4jnsgd1na2vs0mg"},{"bike_id":"24213b37-b766-4d9c-a174-f6bf34920497","system_id":"levelo_inurba_marseille","lat":43.28469,"lon":5.384178,"is_reserved":false,"is_disabled":false,"rental_uris":{"android":"levelo://app?vid=24213b37-b766-4d9c-a174-f6bf34920497","ios":"levelo://app?vid=24213b37-b766-4d9c-a174-f6bf34920497"},"vehicle_type_id":"4","last_reported":1744906373,"current_range_meters":23200,"station_id":"ce4bh512rcd13ifvqe3g","pricing_plan_id":"cebpf4jnsgd1na2vs0mg"},{"bike_id":"906c7830-ac9d-4cbc-b928-566ea2d61af2","system_id":"levelo_inurba_marseille","lat":43.293472,"lon":5.385822,"is_reserved":false,"is_disabled":false,"rental_uris":{"android":"levelo://app?vid=906c7830-ac9d-4cbc-b928-566ea2d61af2","ios":"levelo://app?vid=906c7830-ac9d-4cbc-b928-566ea2d61af2"},"vehicle_type_id":"4","last_reported":1744906373,"current_range_meters":23200,"station_id":"ce4bh2h2rcd13ifvqdh0","pricing_plan_id":"cebpf4jnsgd1na2vs0mg"},{"bike_id":"17de6571-3c1c-4621-995b-d445cb9c6f14","system_id":"levelo_inurba_marseille","lat":43.2119,"lon":5.35081,"is_reserved":false,"is_disabled":false,"rental_uris":{"android":"levelo://app?vid=17de6571-3c1c-4621-995b-d445cb9c6f14","ios":"levelo://app?vid=17de6571-3c1c-4621-995b-d445cb9c6f14"},"vehicle_type_id":"4","last_reported":1744906373,"current_range_meters":23200,"station_id":"st_cvj6sg6p6f1abm77japg","pricing_plan_id":"cebpf4jnsgd1na2vs0mg"},{"bike_id":"b1f6dcbf-757c-471a-8344-28435060d371","system_id":"levelo_inurba_marseille","lat":43.25832,"lon":5.3943,"is_reserved":false,"is_disabled":false,"rental_uris":{"android":"levelo://app?vid=b1f6dcbf-757c-471a-8344-28435060d371","ios":"levelo://app?vid=b1f6dcbf-757c-471a-8344-28435060d371"},"vehicle_type_id":"4","last_reported":1744906373,"current_range_meters":23200,"station_id":"ce4bhip2rcd13ifvqft0","pricing_plan_id":"cebpf4jnsgd1na2vs0mg"},{"bike_id":"c8cdb7d8-21ee-48d9-894e-dd56eaeb4a9b","system_id":"levelo_inurba_marseille","lat":43.29966,"lon":5.38507,"is_reserved":false,"is_disabled":false,"rental_uris":{"android":"levelo://app?vid=c8cdb7d8-21ee-48d9-894e-dd56eaeb4a9b","ios":"levelo://app?vid=c8cdb7d8-21ee-48d9-894e-dd56eaeb4a9b"},"vehicle_type_id":"4","last_reported":1744906373,"current_range_meters":23200,"station_id":"ce4bgj92rcd13ifvqbd0","pricing_plan_id":"cebpf4jnsgd1na2vs0mg"},{"bike_id":"5a343d49-3587-484a-9029-491cd4ae21d5","system_id":"levelo_inurba_marseille","lat":43.25579,"lon":5.38235,"is_reserved":false,"is_disabled":false,"rental_uris":{"android":"levelo://app?vid=5a343d49-3587-484a-9029-491cd4ae21d5","ios":"levelo://app?vid=5a343d49-3587-484a-9029-491cd4ae21d5"},"vehicle_type_id":"4","last_reported":1744906373,"current_range_meters":24000,"station_id":"ce4bhih2rcd13ifvqfs0","pricing_plan_id":"cebpf4jnsgd1na2vs0mg"},{"bike_id":"8a733f44-48e5-4212-b46d-eb3064e4bc7d","system_id":"levelo_inurba_marseille","lat":43.27375,"lon":5.36261,"is_reserved":false,"is_disabled":false,"rental_uris":{"android":"levelo://app?vid=8a733f44-48e5-4212-b46d-eb3064e4bc7d","ios":"levelo://app?vid=8a733f44-48e5-4212-b46d-eb3064e4bc7d"},"vehicle_type_id":"4","last_reported":1744906373,"current_range_meters":24000,"station_id":"ce4bhbh2rcd13ifvqeo0","pricing_plan_id":"cebpf4jnsgd1na2vs0mg"},{"bike_id":"99f6d5cf-2ce3-4c26-b874-a8b9ef502265","system_id":"levelo_inurba_marseille","lat":43.288551,"lon":5.39313,"is_reserved":false,"is_disabled":false,"rental_uris":{"android":"levelo://app?vid=99f6d5cf-2ce3-4c26-b874-a8b9ef502265","ios":"levelo://app?vid=99f6d5cf-2ce3-4c26-b874-a8b9ef502265"},"vehicle_type_id":"4","last_reported":1744906373,"current_range_meters":24000,"station_id":"ce4bh2p2rcd13ifvqdi0","pricing_plan_id":"cebpf4jnsgd1na2vs0mg"},{"bike_id":"d292768d-60bf-49b6-be3f-c193a9f1b728","system_id":"levelo_inurba_marseille","lat":43.31319,"lon":5.39731,"is_reserved":false,"is_disabled":false,"rental_uris":{"android":"levelo://app?vid=d292768d-60bf-49b6-be3f-c193a9f1b728","ios":"levelo://app?vid=d292768d-60bf-49b6-be3f-c193a9f1b728"},"vehicle_type_id":"4","last_reported":1744906373,"current_range_meters":24000,"station_id":"ce4bgvp2rcd13ifvqcu0","pricing_plan_id":"cebpf4jnsgd1na2vs0mg"},{"bike_id":"9d4cd307-2417-4e8f-8c78-970cb3b00bc1","system_id":"levelo_inurba_marseille","lat":43.29003,"lon":5.35626,"is_reserved":false,"is_disabled":false,"rental_uris":{"android":"levelo://app?vid=9d4cd307-2417-4e8f-8c78-970cb3b00bc1","ios":"levelo://app?vid=9d4cd307-2417-4e8f-8c78-970cb3b00bc1"},"vehicle_type_id":"4","last_reported":1744906373,"current_range_meters":24000,"station_id":"ce4bhb92rcd13ifvqen0","pricing_plan_id":"cebpf4jnsgd1na2vs0mg"},{"bike_id":"3c37d3ec-c1f3-47c3-9356-b25b0d14152b","system_id":"levelo_inurba_marseille","lat":43.28588,"lon":5.37114,"is_reserved":false,"is_disabled":false,"rental_uris":{"android":"levelo://app?vid=3c37d3ec-c1f3-47c3-9356-b25b0d14152b","ios":"levelo://app?vid=3c37d3ec-c1f3-47c3-9356-b25b0d14152b"},"vehicle_type_id":"4","last_reported":1744906373,"current_range_meters":24000,"station_id":"ce4bht12rcd13ifvqi60","pricing_plan_id":"cebpf4jnsgd1na2vs0mg"},{"bike_id":"b7a56382-f574-4fc2-9fd6-74c5ff98489c","system_id":"levelo_inurba_marseille","lat":43.283775,"lon":5.423856,"is_reserved":false,"is_disabled":false,"rental_uris":{"android":"levelo://app?vid=b7a56382-f574-4fc2-9fd6-74c5ff98489c","ios":"levelo://app?vid=b7a56382-f574-4fc2-9fd6-74c5ff98489c"},"vehicle_type_id":"4","last_reported":1744906373,"current_range_meters":24000,"station_id":"ce4bhnh2rcd13ifvqgug","pricing_plan_id":"cebpf4jnsgd1na2vs0mg"},{"bike_id":"1ae44176-d357-4839-8782-1b79aa7dfe4f","system_id":"levelo_inurba_marseille","lat":43.29908,"lon":5.38187,"is_reserved":false,"is_disabled":false,"rental_uris":{"android":"levelo://app?vid=1ae44176-d357-4839-8782-1b79aa7dfe4f","ios":"levelo://app?vid=1ae44176-d357-4839-8782-1b79aa7dfe4f"},"vehicle_type_id":"4","last_reported":1744906373,"current_range_meters":24000,"station_id":"ce4bgj12rcd13ifvqbc0","pricing_plan_id":"cebpf4jnsgd1na2vs0mg"},{"bike_id":"7a597853-937c-4204-b8b9-87d3c6b4e8ef","system_id":"levelo_inurba_marseille","lat":43.24167,"lon":5.36413,"is_reserved":false,"is_disabled":false,"rental_uris":{"android":"levelo://app?vid=7a597853-937c-4204-b8b9-87d3c6b4e8ef","ios":"levelo://app?vid=7a597853-937c-4204-b8b9-87d3c6b4e8ef"},"vehicle_type_id":"4","last_reported":1744906373,"current_range_meters":24000,"station_id":"cpo36qri1sfpv3e86is0","pricing_plan_id":"cebpf4jnsgd1na2vs0mg"},{"bike_id":"ade8e97e-6561-4920-aa59-6a902dbc50ed","system_id":"levelo_inurba_marseille","lat":43.28855,"lon":5.35857,"is_reserved":false,"is_disabled":false,"rental_uris":{"android":"levelo://app?vid=ade8e97e-6561-4920-aa59-6a902dbc50ed","ios":"levelo://app?vid=ade8e97e-6561-4920-aa59-6a902dbc50ed"},"vehicle_type_id":"4","last_reported":1744906373,"current_range_meters":24000,"station_id":"ce4bhb12rcd13ifvqem0","pricing_plan_id":"cebpf4jnsgd1na2vs0mg"},{"bike_id":"931cb7d5-50e8-493d-b9e3-e76f77fe3fd7","system_id":"levelo_inurba_marseille","lat":43.27619,"lon":5.36117,"is_reserved":false,"is_disabled":false,"rental_uris":{"android":"levelo://app?vid=931cb7d5-50e8-493d-b9e3-e76f77fe3fd7","ios":"levelo://app?vid=931cb7d5-50e8-493d-b9e3-e76f77fe3fd7"},"vehicle_type_id":"4","last_reported":1744906373,"current_range_meters":24400,"station_id":"ce4bgj92rcd13ifvqbe0","pricing_plan_id":"cebpf4jnsgd1na2vs0mg"},{"bike_id":"532d2c7f-011b-4305-a2ae-dd36799ee68e","system_id":"levelo_inurba_marseille","lat":43.31327,"lon":5.39697,"is_reserved":false,"is_disabled":false,"rental_uris":{"android":"levelo://app?vid=532d2c7f-011b-4305-a2ae-dd36799ee68e","ios":"levelo://app?vid=532d2c7f-011b-4305-a2ae-dd36799ee68e"},"vehicle_type_id":"4","last_reported":1744906373,"current_range_meters":24400,"station_id":"ce4bgvp2rcd13ifvqcu0","pricing_plan_id":"cebpf4jnsgd1na2vs0mg"},{"bike_id":"3ceccef4-d2c6-43f1-867c-b5a561814a73","system_id":"levelo_inurba_marseille","lat":43.29935,"lon":5.40523,"is_reserved":false,"is_disabled":false,"rental_uris":{"android":"levelo://app?vid=3ceccef4-d2c6-43f1-867c-b5a561814a73","ios":"levelo://app?vid=3ceccef4-d2c6-43f1-867c-b5a561814a73"},"vehicle_type_id":"4","last_reported":1744906373,"current_range_meters":24400,"station_id":"","pricing_plan_id":"cebpf4jnsgd1na2vs0mg"},{"bike_id":"c6fb9373-5304-4dd9-a75e-0fabf78e8006","system_id":"levelo_inurba_marseille","lat":43.29281,"lon":5.40114,"is_reserved":false,"is_disabled":false,"rental_uris":{"android":"levelo://app?vid=c6fb9373-5304-4dd9-a75e-0fabf78e8006","ios":"levelo://app?vid=c6fb9373-5304-4dd9-a75e-0fabf78e8006"},"vehicle_type_id":"4","last_reported":1744906373,"current_range_meters":24400,"station_id":"ce4bh312rcd13ifvqdk0","pricing_plan_id":"cebpf4jnsgd1na2vs0mg"},{"bike_id":"a4cee0be-4abd-41b9-962b-b3750b997d65","system_id":"levelo_inurba_marseille","lat":43.290157,"lon":5.381312,"is_reserved":false,"is_disabled":false,"rental_uris":{"android":"levelo://app?vid=a4cee0be-4abd-41b9-962b-b3750b997d65","ios":"levelo://app?vid=a4cee0be-4abd-41b9-962b-b3750b997d65"},"vehicle_type_id":"4","last_reported":1744906373,"current_range_meters":24400,"station_id":"ce4bh512rcd13ifvqe3g","pricing_plan_id":"cebpf4jnsgd1na2vs0mg"},{"bike_id":"cb1aa72d-d1c2-45df-8a5f-4a7ed3407c83","system_id":"levelo_inurba_marseille","lat":43.28848,"lon":5.39306,"is_reserved":false,"is_disabled":false,"rental_uris":{"android":"levelo://app?vid=cb1aa72d-d1c2-45df-8a5f-4a7ed3407c83","ios":"levelo://app?vid=cb1aa72d-d1c2-45df-8a5f-4a7ed3407c83"},"vehicle_type_id":"4","last_reported":1744906373,"current_range_meters":24400,"station_id":"ce4bh2p2rcd13ifvqdi0","pricing_plan_id":"cebpf4jnsgd1na2vs0mg"},{"bike_id":"8fb0a4a8-2d7c-4ff4-88be-bf2174ddcff1","system_id":"levelo_inurba_marseille","lat":43.26062,"lon":5.39396,"is_reserved":false,"is_disabled":false,"rental_uris":{"android":"levelo://app?vid=8fb0a4a8-2d7c-4ff4-88be-bf2174ddcff1","ios":"levelo://app?vid=8fb0a4a8-2d7c-4ff4-88be-bf2174ddcff1"},"vehicle_type_id":"4","last_reported":1744906373,"current_range_meters":24400,"station_id":"ce4bhh92rcd13ifvqfj0","pricing_plan_id":"cebpf4jnsgd1na2vs0mg"},{"bike_id":"735318b0-b44d-478f-9ffe-1a4ee26723f1","system_id":"levelo_inurba_marseille","lat":43.2942,"lon":5.38624,"is_reserved":false,"is_disabled":false,"rental_uris":{"android":"levelo://app?vid=735318b0-b44d-478f-9ffe-1a4ee26723f1","ios":"levelo://app?vid=735318b0-b44d-478f-9ffe-1a4ee26723f1"},"vehicle_type_id":"4","last_reported":1744906373,"current_range_meters":24400,"station_id":"ce4bh2h2rcd13ifvqdh0","pricing_plan_id":"cebpf4jnsgd1na2vs0mg"},{"bike_id":"9196f27d-7f38-4561-8472-cb21349a5e31","system_id":"levelo_inurba_marseille","lat":43.281603,"lon":5.42646,"is_reserved":false,"is_disabled":false,"rental_uris":{"android":"levelo://app?vid=9196f27d-7f38-4561-8472-cb21349a5e31","ios":"levelo://app?vid=9196f27d-7f38-4561-8472-cb21349a5e31"},"vehicle_type_id":"4","last_reported":1744906373,"current_range_meters":24400,"station_id":"ce4bhnh2rcd13ifvqgug","pricing_plan_id":"cebpf4jnsgd1na2vs0mg"},{"bike_id":"dd98f6e4-626f-4712-86ab-cbda4699522f","system_id":"levelo_inurba_marseille","lat":43.29864,"lon":5.36287,"is_reserved":false,"is_disabled":false,"rental_uris":{"android":"levelo://app?vid=dd98f6e4-626f-4712-86ab-cbda4699522f","ios":"levelo://app?vid=dd98f6e4-626f-4712-86ab-cbda4699522f"},"vehicle_type_id":"4","last_reported":1744906373,"current_range_meters":24400,"station_id":"ce4bgpp2rcd13ifvqc3g","pricing_plan_id":"cebpf4jnsgd1na2vs0mg"},{"bike_id":"ffeb74a5-7a78-43a1-952a-284da5a3176a","system_id":"levelo_inurba_marseille","lat":43.25122,"lon":5.40315,"is_reserved":false,"is_disabled":false,"rental_uris":{"android":"levelo://app?vid=ffeb74a5-7a78-43a1-952a-284da5a3176a","ios":"levelo://app?vid=ffeb74a5-7a78-43a1-952a-284da5a3176a"},"vehicle_type_id":"4","last_reported":1744906373,"current_range_meters":24800,"station_id":"ce4bhlh2rcd13ifvqgig","pricing_plan_id":"cebpf4jnsgd1na2vs0mg"},{"bike_id":"a001321d-6dbe-4bbe-b7e6-6e7543a4d10f","system_id":"levelo_inurba_marseille","lat":43.29855,"lon":5.36289,"is_reserved":false,"is_disabled":false,"rental_uris":{"android":"levelo://app?vid=a001321d-6dbe-4bbe-b7e6-6e7543a4d10f","ios":"levelo://app?vid=a001321d-6dbe-4bbe-b7e6-6e7543a4d10f"},"vehicle_type_id":"4","last_reported":1744906373,"current_range_meters":24800,"station_id":"ce4bgpp2rcd13ifvqc3g","pricing_plan_id":"cebpf4jnsgd1na2vs0mg"},{"bike_id":"5b8e9682-4125-4921-a4e2-05bc9e19651d","system_id":"levelo_inurba_marseille","lat":43.29166,"lon":5.37163,"is_reserved":false,"is_disabled":false,"rental_uris":{"android":"levelo://app?vid=5b8e9682-4125-4921-a4e2-05bc9e19651d","ios":"levelo://app?vid=5b8e9682-4125-4921-a4e2-05bc9e19651d"},"vehicle_type_id":"4","last_reported":1744906373,"current_range_meters":24800,"station_id":"ce4bha92rcd13ifvqeh0","pricing_plan_id":"cebpf4jnsgd1na2vs0mg"},{"bike_id":"6b263e6b-aafb-45b2-8f6c-e9526fac004d","system_id":"levelo_inurba_marseille","lat":43.25828,"lon":5.39442,"is_reserved":false,"is_disabled":false,"rental_uris":{"android":"levelo://app?vid=6b263e6b-aafb-45b2-8f6c-e9526fac004d","ios":"levelo://app?vid=6b263e6b-aafb-45b2-8f6c-e9526fac004d"},"vehicle_type_id":"4","last_reported":1744906373,"current_range_meters":24800,"station_id":"ce4bhip2rcd13ifvqft0","pricing_plan_id":"cebpf4jnsgd1na2vs0mg"},{"bike_id":"2b3f7f2d-2512-4262-8849-3266bda8bcab","system_id":"levelo_inurba_marseille","lat":43.31077,"lon":5.38354,"is_reserved":false,"is_disabled":false,"rental_uris":{"android":"levelo://app?vid=2b3f7f2d-2512-4262-8849-3266bda8bcab","ios":"levelo://app?vid=2b3f7f2d-2512-4262-8849-3266bda8bcab"},"vehicle_type_id":"4","last_reported":1744906373,"current_range_meters":24800,"station_id":"ce4bgv92rcd13ifvqcr0","pricing_plan_id":"cebpf4jnsgd1na2vs0mg"},{"bike_id":"13f7606b-c42e-455c-abb3-af0306a9a122","system_id":"levelo_inurba_marseille","lat":43.28941,"lon":5.36641,"is_reserved":false,"is_disabled":false,"rental_uris":{"android":"levelo://app?vid=13f7606b-c42e-455c-abb3-af0306a9a122","ios":"levelo://app?vid=13f7606b-c42e-455c-abb3-af0306a9a122"},"vehicle_type_id":"4","last_reported":1744906373,"current_range_meters":24800,"station_id":"ce4bhap2rcd13ifvqek0","pricing_plan_id":"cebpf4jnsgd1na2vs0mg"},{"bike_id":"5db7c5ab-73d5-47e4-9713-3ef31de4325c","system_id":"levelo_inurba_marseille","lat":43.30759,"lon":5.37428,"is_reserved":false,"is_disabled":false,"rental_uris":{"android":"levelo://app?vid=5db7c5ab-73d5-47e4-9713-3ef31de4325c","ios":"levelo://app?vid=5db7c5ab-73d5-47e4-9713-3ef31de4325c"},"vehicle_type_id":"4","last_reported":1744906373,"current_range_meters":24800,"station_id":"","pricing_plan_id":"cebpf4jnsgd1na2vs0mg"},{"bike_id":"8586d6bb-85bb-491d-9e22-600640f394dc","system_id":"levelo_inurba_marseille","lat":43.31337,"lon":5.36726,"is_reserved":false,"is_disabled":false,"rental_uris":{"android":"levelo://app?vid=8586d6bb-85bb-491d-9e22-600640f394dc","ios":"levelo://app?vid=8586d6bb-85bb-491d-9e22-600640f394dc"},"vehicle_type_id":"4","last_reported":1744906373,"current_range_meters":24800,"station_id":"ce4bgr92rcd13ifvqc6g","pricing_plan_id":"cebpf4jnsgd1na2vs0mg"},{"bike_id":"c07bd745-f79a-42e4-966e-f25add6c6956","system_id":"levelo_inurba_marseille","lat":43.298737,"lon":5.389124,"is_reserved":false,"is_disabled":false,"rental_uris":{"android":"levelo://app?vid=c07bd745-f79a-42e4-966e-f25add6c6956","ios":"levelo://app?vid=c07bd745-f79a-42e4-966e-f25add6c6956"},"vehicle_type_id":"4","last_reported":1744906373,"current_range_meters":24800,"station_id":"ce4bh392rcd13ifvqdl0","pricing_plan_id":"cebpf4jnsgd1na2vs0mg"},{"bike_id":"500cd486-aaa1-4a7c-86ca-17d785b5fa8d","system_id":"levelo_inurba_marseille","lat":43.27666,"lon":5.38906,"is_reserved":false,"is_disabled":false,"rental_uris":{"android":"levelo://app?vid=500cd486-aaa1-4a7c-86ca-17d785b5fa8d","ios":"levelo://app?vid=500cd486-aaa1-4a7c-86ca-17d785b5fa8d"},"vehicle_type_id":"4","last_reported":1744906373,"current_range_meters":24400,"station_id":"ce4bhi12rcd13ifvqfo0","pricing_plan_id":"cebpf4jnsgd1na2vs0mg"},{"bike_id":"935377c0-a8c8-47e7-8726-21d70a212587","system_id":"levelo_inurba_marseille","lat":43.31041,"lon":5.39495,"is_reserved":false,"is_disabled":false,"rental_uris":{"android":"levelo://app?vid=935377c0-a8c8-47e7-8726-21d70a212587","ios":"levelo://app?vid=935377c0-a8c8-47e7-8726-21d70a212587"},"vehicle_type_id":"4","last_reported":1744906373,"current_range_meters":24800,"station_id":"ce4bh2h2rcd13ifvqdh0","pricing_plan_id":"cebpf4jnsgd1na2vs0mg"},{"bike_id":"3d9801c1-1a88-417a-aeae-e7a0d8cb1662","system_id":"levelo_inurba_marseille","lat":43.27618,"lon":5.36105,"is_reserved":false,"is_disabled":false,"rental_uris":{"android":"levelo://app?vid=3d9801c1-1a88-417a-aeae-e7a0d8cb1662","ios":"levelo://app?vid=3d9801c1-1a88-417a-aeae-e7a0d8cb1662"},"vehicle_type_id":"4","last_reported":1744906373,"current_range_meters":24800,"station_id":"ce4bgj92rcd13ifvqbe0","pricing_plan_id":"cebpf4jnsgd1na2vs0mg"},