{"last_updated":1710367585,"ttl":30,"version":"2.2","data":{"bikes":[{"bike_id":"fd9e0dca-8a8a-4e5c-ad92-142489efccf5","system_id":"levelo_inurba_marseille","lat":43.312239,"lon":5.368562,"is_reserved":false,"is_disabled":false,"rental_uris":{"android":"levelo://app?vid=fd9e0dca-8a8a-4e5c-ad92-142489efccf5","ios":"levelo://app?vid=fd9e0dca-8a8a-4e5c-ad92-142489efccf5"},"vehicle_type_id":"4","last_reported":1710367585,"current_range_meters":7200,"station_id":"ce4bgl92rcd13ifvqbq0","pricing_plan_id":"cebpf4jnsgd1na2vs0mg"},{"bike_id":"5a829d4e-9840-4016-8752-27f2236d28c3","system_id":"levelo_inurba_marseille","lat":43.309076,"lon":5.368465,"is_reserved":false,"is_disabled":false,"rental_uris":{"android":"levelo://app?vid=5a829d4e-9840-4016-8752-27f2236d28c3","ios":"levelo://app?vid=5a829d4e-9840-4016-8752-27f2236d28c3"},"vehicle_type_id":"4","last_reported":1710367585,"current_range_meters":6400,"station_id":"ce4bgn92rcd13ifvqbvg","pricing_plan_id":"cebpf4jnsgd1na2vs0mg"},{"bike_id":"0400d753-08e1-4c97-b8cb-25e9e635de0b","system_id":"levelo_inurba_marseille","lat":43.309039,"lon":5.371797,"is_reserved":false,"is_disabled":false,"rental_uris":{"android":"levelo://app?vid=0400d753-08e1-4c97-b8cb-25e9e635de0b","ios":"levelo://app?vid=0400d753-08e1-4c97-b8cb-25e9e635de0b"},"vehicle_type_id":"4","last_reported":1710367585,"current_range_meters":6000,"station_id":"ce4bguh2rcd13ifvqckg","pricing_plan_id":"cebpf4jnsgd1na2vs0mg"},{"bike_id":"4bbc9d35-b656-4228-a35f-66385bab8fc9","system_id":"levelo_inurba_marseille","lat":43.305706,"lon":5.365654,"is_reserved":false,"is_disabled":false,"rental_uris":{"android":"levelo://app?vid=4bbc9d35-b656-4228-a35f-66385bab8fc9","ios":"levelo://app?vid=4bbc9d35-b656-4228-a35f-66385bab8fc9"},"vehicle_type_id":"4","last_reported":1710367585,"current_range_meters":22800,"station_id":"ce4bgs12rcd13ifvqcag","pricing_plan_id":"cebpf4jnsgd1na2vs0mg"},{"bike_id":"1943fa1d-b29d-45b6-9242-37e2c1d520fe","system_id":"levelo_inurba_marseille","lat":43.30595,"lon":5.37216,"is_reserved":false,"is_disabled":false,"rental_uris":{"android":"levelo://app?vid=1943fa1d-b29d-45b6-9242-37e2c1d520fe","ios":"levelo://app?vid=1943fa1d-b29d-45b6-9242-37e2c1d520fe"},"vehicle_type_id":"4","last_reported":1710367585,"current_range_meters":0,"station_id":"ce4bgqh2rcd13ifvqc4g","pricing_plan_id":"cebpf4jnsgd1na2vs0mg"},{"bike_id":"b02eee50-0718-4905-8597-6cf4ea999ef2","system_id":"levelo_inurba_marseille","lat":43.30598,"lon":5.37227,"is_reserved":false,"is_disabled":false,"rental_uris":{"android":"levelo://app?vid=b02eee50-0718-4905-8597-6cf4ea999ef2","ios":"levelo://app?vid=b02eee50-0718-4905-8597-6cf4ea999ef2"},"vehicle_type_id":"4","last_reported":1710367585,"current_range_meters":0,"station_id":"ce4bgqh2rcd13ifvqc4g","pricing_plan_id":"cebpf4jnsgd1na2vs0mg"},{"bike_id":"1af007d2-432d-435e-a2e7-8574e79f4186","system_id":"levelo_inurba_marseille","lat":43.305989,"lon":5.37225,"is_reserved":false,"is_disabled":false,"rental_uris":{"android":"levelo://app?vid=1af007d2-432d-435e-a2e7-8574e79f4186","ios":"levelo://app?vid=1af007d2-432d-435e-a2e7-8574e79f4186"},"vehicle_type_id":"4","last_reported":1710367585,"current_range_meters":10000,"station_id":"ce4bgqh2rcd13ifvqc4g","pricing_plan_id":"cebpf4jnsgd1na2vs0mg"},{"bike_id":"35c6234c-4b0f-41ce-a4e0-5c562a3acff6","system_id":"levelo_inurba_marseille","lat":43.307945,"lon":5.376487,"is_reserved":false,"is_disabled":false,"rental_uris":{"android":"levelo://app?vid=35c6234c-4b0f-41ce-a4e0-5c562a3acff6","ios":"levelo://app?vid=35c6234c-4b0f-41ce-a4e0-5c562a3acff6"},"vehicle_type_id":"4","last_reported":1710367585,"current_range_meters":24800,"station_id":"ce4bgv92rcd13ifvqcq0","pricing_plan_id":"cebpf4jnsgd1na2vs0mg"},{"bike_id":"605a3762-d69d-451f-bcf9-ca0ef318901d","system_id":"levelo_inurba_marseille","lat":43.307945,"lon":5.376487,"is_reserved":false,"is_disabled":false,"rental_uris":{"android":"levelo://app?vid=605a3762-d69d-451f-bcf9-ca0ef318901d","ios":"levelo://app?vid=605a3762-d69d-451f-bcf9-ca0ef318901d"},"vehicle_type_id":"4","last_reported":1710367585,"current_range_meters":16400,"station_id":"ce4bgv92rcd13ifvqcq0","pricing_plan_id":"cebpf4jnsgd1na2vs0mg"},{"bike_id":"d99a4aaf-b3b3-4333-a1dd-35df13a773e0","system_id":"levelo_inurba_marseille","lat":43.307945,"lon":5.376487,"is_reserved":false,"is_disabled":false,"rental_uris":{"android":"levelo://app?vid=d99a4aaf-b3b3-4333-a1dd-35df13a773e0","ios":"levelo://app?vid=d99a4aaf-b3b3-4333-a1dd-35df13a773e0"},"vehicle_type_id":"4","last_reported":1710367585,"current_range_meters":21600,"station_id":"ce4bgv92rcd13ifvqcq0","pricing_plan_id":"cebpf4jnsgd1na2vs0mg"},{"bike_id":"e4ae9448-174b-4a2f-92f3-210ffcb2ae7f","system_id":"levelo_inurba_marseille","lat":43.307945,"lon":5.376487,"is_reserved":false,"is_disabled":false,"rental_uris":{"android":"levelo://app?vid=e4ae9448-174b-4a2f-92f3-210ffcb2ae7f","ios":"levelo://app?vid=e4ae9448-174b-4a2f-92f3-210ffcb2ae7f"},"vehicle_type_id":"4","last_reported":1710367585,"current_range_meters":26800,"station_id":"ce4bgv92rcd13ifvqcq0","pricing_plan_id":"cebpf4jnsgd1na2vs0mg"},{"bike_id":"d982e3dd-f38b-43ff-b8b4-fff4750cacf9","system_id":"levelo_inurba_marseille","lat":43.307945,"lon":5.376487,"is_reserved":false,"is_disabled":false,"rental_uris":{"android":"levelo://app?vid=d982e3dd-f38b-43ff-b8b4-fff4750cacf9","ios":"levelo://app?vid=d982e3dd-f38b-43ff-b8b4-fff4750cacf9"},"vehicle_type_id":"4","last_reported":1710367585,"current_range_meters":30000,"station_id":"ce4bgv92rcd13ifvqcq0","pricing_plan_id":"cebpf4jnsgd1na2vs0mg"},{"bike_id":"97d24dc9-210d-42c3-94de-ccd014f6fe06","system_id":"levelo_inurba_marseille","lat":43.317075,"lon":5.377367,"is_reserved":false,"is_disabled":false,"rental_uris":{"android":"levelo://app?vid=97d24dc9-210d-42c3-94de-ccd014f6fe06","ios":"levelo://app?vid=97d24dc9-210d-42c3-94de-ccd014f6fe06"},"vehicle_type_id":"4","last_reported":1710367585,"current_range_meters":22800,"station_id":"ce4bgth2rcd13ifvqch0","pricing_plan_id":"cebpf4jnsgd1na2vs0mg"},{"bike_id":"6df8a519-a704-46e9-b3eb-42b1fb917e85","system_id":"levelo_inurba_marseille","lat":43.31741,"lon":5.37761,"is_reserved":false,"is_disabled":false,"rental_uris":{"android":"levelo://app?vid=6df8a519-a704-46e9-b3eb-42b1fb917e85","ios":"levelo://app?vid=6df8a519-a704-46e9-b3eb-42b1fb917e85"},"vehicle_type_id":"4","last_reported":1710367585,"current_range_meters":22400,"station_id":"ce4bgth2rcd13ifvqch0","pricing_plan_id":"cebpf4jnsgd1na2vs0mg"},{"bike_id":"f190833a-7fa9-4e73-b37f-c93ca50738fb","system_id":"levelo_inurba_marseille","lat":43.30312,"lon":5.36905,"is_reserved":false,"is_disabled":false,"rental_uris":{"android":"levelo://app?vid=f190833a-7fa9-4e73-b37f-c93ca50738fb","ios":"levelo://app?vid=f190833a-7fa9-4e73-b37f-c93ca50738fb"},"vehicle_type_id":"4","last_reported":1710367585,"current_range_meters":30000,"station_id":"ce4bgqh2rcd13ifvqc5g","pricing_plan_id":"cebpf4jnsgd1na2vs0mg"},{"bike_id":"f1a1af6d-62ba-49c7-9eb8-24cb0b0fdac9","system_id":"levelo_inurba_marseille","lat":43.315289,"lon":5.380349,"is_reserved":false,"is_disabled":false,"rental_uris":{"android":"levelo://app?vid=f1a1af6d-62ba-49c7-9eb8-24cb0b0fdac9","ios":"levelo://app?vid=f1a1af6d-62ba-49c7-9eb8-24cb0b0fdac9"},"vehicle_type_id":"4","last_reported":1710367585,"current_range_meters":22000,"station_id":"ce4bhsp2rcd13ifvqi50","pricing_plan_id":"cebpf4jnsgd1na2vs0mg"},{"bike_id":"83763b65-d746-44cc-8a87-ecb7117a1772","system_id":"levelo_inurba_marseille","lat":43.315293,"lon":5.380349,"is_reserved":false,"is_disabled":false,"rental_uris":{"android":"levelo://app?vid=83763b65-d746-44cc-8a87-ecb7117a1772","ios":"levelo://app?vid=83763b65-d746-44cc-8a87-ecb7117a1772"},"vehicle_type_id":"4","last_reported":1710367585,"current_range_meters":23200,"station_id":"ce4bhsp2rcd13ifvqi50","pricing_plan_id":"cebpf4jnsgd1na2vs0mg"},{"bike_id":"875cbb6f-8f3c-4acf-b66d-3b7db708d18d","system_id":"levelo_inurba_marseille","lat":43.315293,"lon":5.380349,"is_reserved":false,"is_disabled":false,"rental_uris":{"android":"levelo://app?vid=875cbb6f-8f3c-4acf-b66d-3b7db708d18d","ios":"levelo://app?vid=875cbb6f-8f3c-4acf-b66d-3b7db708d18d"},"vehicle_type_id":"4","last_reported":1710367585,"current_range_meters":29600,"station_id":"ce4bhsp2rcd13ifvqi50","pricing_plan_id":"cebpf4jnsgd1na2vs0mg"},{"bike_id":"24d3ac07-9664-4fdf-afe5-1b55398e162e","system_id":"levelo_inurba_marseille","lat":43.301939,"lon":5.366286,"is_reserved":false,"is_disabled":false,"rental_uris":{"android":"levelo://app?vid=24d3ac07-9664-4fdf-afe5-1b55398e162e","ios":"levelo://app?vid=24d3ac07-9664-4fdf-afe5-1b55398e162e"},"vehicle_type_id":"4","last_reported":1710367585,"current_range_meters":1200,"station_id":"ce4bgrh2rcd13ifvqc8g","pricing_plan_id":"cebpf4jnsgd1na2vs0mg"},{"bike_id":"67c36d26-0794-4f28-880e-232dda581719","system_id":"levelo_inurba_marseille","lat":43.301939,"lon":5.366286,"is_reserved":false,"is_disabled":false,"rental_uris":{"android":"levelo://app?vid=67c36d26-0794-4f28-880e-232dda581719","ios":"levelo://app?vid=67c36d26-0794-4f28-880e-232dda581719"},"vehicle_type_id":"4","last_reported":1710367585,"current_range_meters":20000,"station_id":"ce4bgrh2rcd13ifvqc8g","pricing_plan_id":"cebpf4jnsgd1na2vs0mg"},{"bike_id":"33e7c9cc-a5c2-4a10-b1ae-4f667fd12704","system_id":"levelo_inurba_marseille","lat":43.301939,"lon":5.366286,"is_reserved":false,"is_disabled":false,"rental_uris":{"android":"levelo://app?vid=33e7c9cc-a5c2-4a10-b1ae-4f667fd12704","ios":"levelo://app?vid=33e7c9cc-a5c2-4a10-b1ae-4f667fd12704"},"vehicle_type_id":"4","last_reported":1710367585,"current_range_meters":0,"station_id":"ce4bgrh2rcd13ifvqc8g","pricing_plan_id":"cebpf4jnsgd1na2vs0mg"},{"bike_id":"211267b1-9371-4ab8-b99d-bd234a17ceb5","system_id":"levelo_inurba_marseille","lat":43.301939,"lon":5.366286,"is_reserved":false,"is_disabled":false,"rental_uris":{"android":"levelo://app?vid=211267b1-9371-4ab8-b99d-bd234a17ceb5","ios":"levelo://app?vid=211267b1-9371-4ab8-b99d-bd234a17ceb5"},"vehicle_type_id":"4","last_reported":1710367585,"current_range_meters":14000,"station_id":"ce4bgrh2rcd13ifvqc8g","pricing_plan_id":"cebpf4jnsgd1na2vs0mg"},{"bike_id":"85f0d066-41ec-45db-a43e-e0a80f7f8a4d","system_id":"levelo_inurba_marseille","lat":43.308012,"lon":5.381511,"is_reserved":false,"is_disabled":false,"rental_uris":{"android":"levelo://app?vid=85f0d066-41ec-45db-a43e-e0a80f7f8a4d","ios":"levelo://app?vid=85f0d066-41ec-45db-a43e-e0a80f7f8a4d"},"vehicle_type_id":"4","last_reported":1710367585,"current_range_meters":3200,"station_id":"ce4bgt12rcd13ifvqce0","pricing_plan_id":"cebpf4jnsgd1na2vs0mg"},{"bike_id":"49b5af7b-ecd4-4e6e-916b-76ae41f1b727","system_id":"levelo_inurba_marseille","lat":43.308012,"lon":5.381511,"is_reserved":false,"is_disabled":false,"rental_uris":{"android":"levelo://app?vid=49b5af7b-ecd4-4e6e-916b-76ae41f1b727","ios":"levelo://app?vid=49b5af7b-ecd4-4e6e-916b-76ae41f1b727"},"vehicle_type_id":"4","last_reported":1710367585,"current_range_meters":20400,"station_id":"ce4bgt12rcd13ifvqce0","pricing_plan_id":"cebpf4jnsgd1na2vs0mg"},{"bike_id":"9d4b9fa8-4c28-4062-bef4-ef4484a4a110","system_id":"levelo_inurba_marseille","lat":43.308012,"lon":5.381511,"is_reserved":false,"is_disabled":false,"rental_uris":{"android":"levelo://app?vid=9d4b9fa8-4c28-4062-bef4-ef4484a4a110","ios":"levelo://app?vid=9d4b9fa8-4c28-4062-bef4-ef4484a4a110"},"vehicle_type_id":"4","last_reported":1710367585,"current_range_meters":7200,"station_id":"ce4bgt12rcd13ifvqce0","pricing_plan_id":"cebpf4jnsgd1na2vs0mg"},{"bike_id":"78f6d903-aea7-4b6a-94f5-a22bb9a41014","system_id":"levelo_inurba_marseille","lat":43.308012,"lon":5.381511,"is_reserved":false,"is_disabled":false,"rental_uris":{"android":"levelo://app?vid=78f6d903-aea7-4b6a-94f5-a22bb9a41014","ios":"levelo://app?vid=78f6d903-aea7-4b6a-94f5-a22bb9a41014"},"vehicle_type_id":"4","last_reported":1710367585,"current_range_meters":7200,"station_id":"ce4bgt12rcd13ifvqce0","pricing_plan_id":"cebpf4jnsgd1na2vs0mg"},{"bike_id":"95c096ab-0884-4ef4-934e-4f625f027d85","system_id":"levelo_inurba_marseille","lat":43.308012,"lon":5.381511,"is_reserved":false,"is_disabled":false,"rental_uris":{"android":"levelo://app?vid=95c096ab-0884-4ef4-934e-4f625f027d85","ios":"levelo://app?vid=95c096ab-0884-4ef4-934e-4f625f027d85"},"vehicle_type_id":"4","last_reported":1710367585,"current_range_meters":15600,"station_id":"ce4bgt12rcd13ifvqce0","pricing_plan_id":"cebpf4jnsgd1na2vs0mg"},{"bike_id":"29251068-2e3e-45a9-9495-e63efb8fadb9","system_id":"levelo_inurba_marseille","lat":43.308012,"lon":5.381511,"is_reserved":false,"is_disabled":false,"rental_uris":{"android":"levelo://app?vid=29251068-2e3e-45a9-9495-e63efb8fadb9","ios":"levelo://app?vid=29251068-2e3e-45a9-9495-e63efb8fadb9"},"vehicle_type_id":"4","last_reported":1710367585,"current_range_meters":12000,"station_id":"ce4bgt12rcd13ifvqce0","pricing_plan_id":"cebpf4jnsgd1na2vs0mg"},{"bike_id":"c301b286-397d-49a7-a3b5-3b3678d4f321","system_id":"levelo_inurba_marseille","lat":43.308012,"lon":5.381511,"is_reserved":false,"is_disabled":false,"rental_uris":{"android":"levelo://app?vid=c301b286-397d-49a7-a3b5-3b3678d4f321","ios":"levelo://app?vid=c301b286-397d-49a7-a3b5-3b3678d4f321"},"vehicle_type_id":"4","last_reported":1710367585,"current_range_meters":4000,"station_id":"ce4bgt12rcd13ifvqce0","pricing_plan_id":"cebpf4jnsgd1na2vs0mg"},{"bike_id":"f2192a20-9ce4-41c3-a8df-b831380965ee","system_id":"levelo_inurba_marseille","lat":43.30467,"lon":5.37901,"is_reserved":false,"is_disabled":false,"rental_uris":{"android":"levelo://app?vid=f2192a20-9ce4-41c3-a8df-b831380965ee","ios":"levelo://app?vid=f2192a20-9ce4-41c3-a8df-b831380965ee"},"vehicle_type_id":"4","last_reported":1710367585,"current_range_meters":0,"station_id":"ce4bgup2rcd13ifvqcn0","pricing_plan_id":"cebpf4jnsgd1na2vs0mg"},{"bike_id":"b68836fe-fe53-4dd1-8534-fa6347efddf9","system_id":"levelo_inurba_marseille","lat":43.304606,"lon":5.379026,"is_reserved":false,"is_disabled":false,"rental_uris":{"android":"levelo://app?vid=b68836fe-fe53-4dd1-8534-fa6347efddf9","ios":"levelo://app?vid=b68836fe-fe53-4dd1-8534-fa6347efddf9"},"vehicle_type_id":"4","last_reported":1710367585,"current_range_meters":20800,"station_id":"ce4bgup2rcd13ifvqcn0","pricing_plan_id":"cebpf4jnsgd1na2vs0mg"},{"bike_id":"69f16bc0-91b1-4cad-91b5-51ae8c8ba203","system_id":"levelo_inurba_marseille","lat":43.324735,"lon":5.365538,"is_reserved":false,"is_disabled":false,"rental_uris":{"android":"levelo://app?vid=69f16bc0-91b1-4cad-91b5-51ae8c8ba203","ios":"levelo://app?vid=69f16bc0-91b1-4cad-91b5-51ae8c8ba203"},"vehicle_type_id":"4","last_reported":1710367585,"current_range_meters":4000,"station_id":"ce4bhs12rcd13ifvqhvg","pricing_plan_id":"cebpf4jnsgd1na2vs0mg"},{"bike_id":"49f2117d-bbb1-42e5-80a2-7a881aecf261","system_id":"levelo_inurba_marseille","lat":43.324771,"lon":5.36557,"is_reserved":false,"is_disabled":false,"rental_uris":{"android":"levelo://app?vid=49f2117d-bbb1-42e5-80a2-7a881aecf261","ios":"levelo://app?vid=49f2117d-bbb1-42e5-80a2-7a881aecf261"},"vehicle_type_id":"4","last_reported":1710367585,"current_range_meters":10000,"station_id":"ce4bhs12rcd13ifvqhvg","pricing_plan_id":"cebpf4jnsgd1na2vs0mg"},{"bike_id":"6068d22f-e2ba-4474-ba2e-a9d2f6b84487","system_id":"levelo_inurba_marseille","lat":43.324771,"lon":5.36557,"is_reserved":false,"is_disabled":false,"rental_uris":{"android":"levelo://app?vid=6068d22f-e2ba-4474-ba2e-a9d2f6b84487","ios":"levelo://app?vid=6068d22f-e2ba-4474-ba2e-a9d2f6b84487"},"vehicle_type_id":"4","last_reported":1710367585,"current_range_meters":0,"station_id":"ce4bhs12rcd13ifvqhvg","pricing_plan_id":"cebpf4jnsgd1na2vs0mg"},{"bike_id":"36b9805d-1b04-4ec6-8f80-ae352e34369c","system_id":"levelo_inurba_marseille","lat":43.324771,"lon":5.36557,"is_reserved":false,"is_disabled":false,"rental_uris":{"android":"levelo://app?vid=36b9805d-1b04-4ec6-8f80-ae352e34369c","ios":"levelo://app?vid=36b9805d-1b04-4ec6-8f80-ae352e34369c"},"vehicle_type_id":"4","last_reported":1710367585,"current_range_meters":1200,"station_id":"ce4bhs12rcd13ifvqhvg","pricing_plan_id":"cebpf4jnsgd1na2vs0mg"},{"bike_id":"ed2f200f-86c1-4eb8-ad3b-d4ae2c5298fd","system_id":"levelo_inurba_marseille","lat":43.324771,"lon":5.36557,"is_reserved":false,"is_disabled":false,"rental_uris":{"android":"levelo://app?vid=ed2f200f-86c1-4eb8-ad3b-d4ae2c5298fd","ios":"levelo://app?vid=ed2f200f-86c1-4eb8-ad3b-d4ae2c5298fd"},"vehicle_type_id":"4","last_reported":1710367585,"current_range_meters":23200,"station_id":"ce4bhs12rcd13ifvqhvg","pricing_plan_id":"cebpf4jnsgd1na2vs0mg"},{"bike_id":"c32bc9da-52df-4976-903b-35762cc8b277","system_id":"levelo_inurba_marseille","lat":43.324771,"lon":5.36557,"is_reserved":false,"is_disabled":false,"rental_uris":{"android":"levelo://app?vid=c32bc9da-52df-4976-903b-35762cc8b277","ios":"levelo://app?vid=c32bc9da-52df-4976-903b-35762cc8b277"},"vehicle_type_id":"4","last_reported":1710367585,"current_range_meters":1200,"station_id":"ce4bhs12rcd13ifvqhvg","pricing_plan_id":"cebpf4jnsgd1na2vs0mg"},{"bike_id":"75737f94-0aac-466c-878e-f5152ecd0234","system_id":"levelo_inurba_marseille","lat":43.324771,"lon":5.36557,"is_reserved":false,"is_disabled":false,"rental_uris":{"android":"levelo://app?vid=75737f94-0aac-466c-878e-f5152ecd0234","ios":"levelo://app?vid=75737f94-0aac-466c-878e-f5152ecd0234"},"vehicle_type_id":"4","last_reported":1710367585,"current_range_meters":1200,"station_id":"ce4bhs12rcd13ifvqhvg","pricing_plan_id":"cebpf4jnsgd1na2vs0mg"},{"bike_id":"b735f631-99f5-4034-8269-a86a4a969537","system_id":"levelo_inurba_marseille","lat":43.324771,"lon":5.36557,"is_reserved":false,"is_disabled":false,"rental_uris":{"android":"levelo://app?vid=b735f631-99f5-4034-8269-a86a4a969537","ios":"levelo://app?vid=b735f631-99f5-4034-8269-a86a4a969537"},"vehicle_type_id":"4","last_reported":1710367585,"current_range_meters":3600,"station_id":"ce4bhs12rcd13ifvqhvg","pricing_plan_id":"cebpf4jnsgd1na2vs0mg"},{"bike_id":"64568b75-f031-43c1-b864-d2ad6638bde4","system_id":"levelo_inurba_marseille","lat":43.324771,"lon":5.36557,"is_reserved":false,"is_disabled":false,"rental_uris":{"android":"levelo://app?vid=64568b75-f031-43c1-b864-d2ad6638bde4","ios":"levelo://app?vid=64568b75-f031-43c1-b864-d2ad6638bde4"},"vehicle_type_id":"4","last_reported":1710367585,"current_range_meters":4000,"station_id":"ce4bhs12rcd13ifvqhvg","pricing_plan_id":"cebpf4jnsgd1na2vs0mg"},{"bike_id":"12c419ff-5d5f-445b-9471-a4225b24c594","system_id":"levelo_inurba_marseille","lat":43.324771,"lon":5.36557,"is_reserved":false,"is_disabled":false,"rental_uris":{"android":"levelo://app?vid=12c419ff-5d5f-445b-9471-a4225b24c594","ios":"levelo://app?vid=12c419ff-5d5f-445b-9471-a4225b24c594"},"vehicle_type_id":"4","last_reported":1710367585,"current_range_meters":15600,"station_id":"ce4bhs12rcd13ifvqhvg","pricing_plan_id":"cebpf4jnsgd1na2vs0mg"},{"bike_id":"2cbe4754-8bed-4fb8-ac7d-a2dfa79db6a5","system_id":"levelo_inurba_marseille","lat":43.32483,"lon":5.36571,"is_reserved":false,"is_disabled":false,"rental_uris":{"android":"levelo://app?vid=2cbe4754-8bed-4fb8-ac7d-a2dfa79db6a5","ios":"levelo://app?vid=2cbe4754-8bed-4fb8-ac7d-a2dfa79db6a5"},"vehicle_type_id":"4","last_reported":1710367585,"current_range_meters":6000,"station_id":"ce4bhs12rcd13ifvqhvg","pricing_plan_id":"cebpf4jnsgd1na2vs0mg"},{"bike_id":"cfdb109c-b591-4f11-863b-b5c16f3933fe","system_id":"levelo_inurba_marseille","lat":43.324771,"lon":5.36557,"is_reserved":false,"is_disabled":false,"rental_uris":{"android":"levelo://app?vid=cfdb109c-b591-4f11-863b-b5c16f3933fe","ios":"levelo://app?vid=cfdb109c-b591-4f11-863b-b5c16f3933fe"},"vehicle_type_id":"4","last_reported":1710367585,"current_range_meters":20000,"station_id":"ce4bhs12rcd13ifvqhvg","pricing_plan_id":"cebpf4jnsgd1na2vs0mg"},{"bike_id":"71f4eaaf-8954-44e2-93bc-76b7e657b03b","system_id":"levelo_inurba_marseille","lat":43.324771,"lon":5.36557,"is_reserved":false,"is_disabled":false,"rental_uris":{"android":"levelo://app?vid=71f4eaaf-8954-44e2-93bc-76b7e657b03b","ios":"levelo://app?vid=71f4eaaf-8954-44e2-93bc-76b7e657b03b"},"vehicle_type_id":"4","last_reported":1710367585,"current_range_meters":12400,"station_id":"ce4bhs12rcd13ifvqhvg","pricing_plan_id":"cebpf4jnsgd1na2vs0mg"},{"bike_id":"2e3cabf9-3880-4d07-ae3b-af234e57884b","system_id":"levelo_inurba_marseille","lat":43.324771,"lon":5.36557,"is_reserved":false,"is_disabled":false,"rental_uris":{"android":"levelo://app?vid=2e3cabf9-3880-4d07-ae3b-af234e57884b","ios":"levelo://app?vid=2e3cabf9-3880-4d07-ae3b-af234e57884b"},"vehicle_type_id":"4","last_reported":1710367585,"current_range_meters":4000,"station_id":"ce4bhs12rcd13ifvqhvg","pricing_plan_id":"cebpf4jnsgd1na2vs0mg"},{"bike_id":"3e493ae2-c51c-41da-a0b8-fbd174ae9e18","system_id":"levelo_inurba_marseille","lat":43.324852,"lon":5.365729,"is_reserved":false,"is_disabled":false,"rental_uris":{"android":"levelo://app?vid=3e493ae2-c51c-41da-a0b8-fbd174ae9e18","ios":"levelo://app?vid=3e493ae2-c51c-41da-a0b8-fbd174ae9e18"},"vehicle_type_id":"4","last_reported":1710367585,"current_range_meters":4800,"station_id":"ce4bhs12rcd13ifvqhvg","pricing_plan_id":"cebpf4jnsgd1na2vs0mg"},{"bike_id":"2f177a10-dff1-4a4e-be87-c3cc9e449d3e","system_id":"levelo_inurba_marseille","lat":43.324771,"lon":5.36557,"is_reserved":false,"is_disabled":false,"rental_uris":{"android":"levelo://app?vid=2f177a10-dff1-4a4e-be87-c3cc9e449d3e","ios":"levelo://app?vid=2f177a10-dff1-4a4e-be87-c3cc9e449d3e"},"vehicle_type_id":"4","last_reported":1710367585,"current_range_meters":3200,"station_id":"ce4bhs12rcd13ifvqhvg","pricing_plan_id":"cebpf4jnsgd1na2vs0mg"},{"bike_id":"80108450-f296-43cc-9cd9-cd48e84285b1","system_id":"levelo_inurba_marseille","lat":43.310804,"lon":5.38359,"is_reserved":false,"is_disabled":false,"rental_uris":{"android":"levelo://app?vid=80108450-f296-43cc-9cd9-cd48e84285b1","ios":"levelo://app?vid=80108450-f296-43cc-9cd9-cd48e84285b1"},"vehicle_type_id":"4","last_reported":1710367585,"current_range_meters":0,"station_id":"ce4bgv92rcd13ifvqcr0","pricing_plan_id":"cebpf4jnsgd1na2vs0mg"},{"bike_id":"3825d362-8130-4466-a717-c5f7341c6511","system_id":"levelo_inurba_marseille","lat":43.31071,"lon":5.38357,"is_reserved":false,"is_disabled":false,"rental_uris":{"android":"levelo://app?vid=3825d362-8130-4466-a717-c5f7341c6511","ios":"levelo://app?vid=3825d362-8130-4466-a717-c5f7341c6511"},"vehicle_type_id":"4","last_reported":1710367585,"current_range_meters":6400,"station_id":"ce4bgv92rcd13ifvqcr0","pricing_plan_id":"cebpf4jnsgd1na2vs0mg"},{"bike_id":"9541ffe8-b8d9-48a2-aab0-324a5580c0b6","system_id":"levelo_inurba_marseille","lat":43.310804,"lon":5.38359,"is_reserved":false,"is_disabled":false,"rental_uris":{"android":"levelo://app?vid=9541ffe8-b8d9-48a2-aab0-324a5580c0b6","ios":"levelo://app?vid=9541ffe8-b8d9-48a2-aab0-324a5580c0b6"},"vehicle_type_id":"4","last_reported":1710367585,"current_range_meters":0,"station_id":"ce4bgv92rcd13ifvqcr0","pricing_plan_id":"cebpf4jnsgd1na2vs0mg"},{"bike_id":"aa5d5082-5e76-4d1e-a796-e5c2da515394","system_id":"levelo_inurba_marseille","lat":43.31077,"lon":5.38361,"is_reserved":false,"is_disabled":false,"rental_uris":{"android":"levelo://app?vid=aa5d5082-5e76-4d1e-a796-e5c2da515394","ios":"levelo://app?vid=aa5d5082-5e76-4d1e-a796-e5c2da515394"},"vehicle_type_id":"4","last_reported":1710367585,"current_range_meters":0,"station_id":"ce4bgv92rcd13ifvqcr0","pricing_plan_id":"cebpf4jnsgd1na2vs0mg"},{"bike_id":"7fc755de-a946-48b2-8613-f75e52757226","system_id":"levelo_inurba_marseille","lat":43.30143,"lon":5.37413,"is_reserved":false,"is_disabled":false,"rental_uris":{"android":"levelo://app?vid=7fc755de-a946-48b2-8613-f75e52757226","ios":"levelo://app?vid=7fc755de-a946-48b2-8613-f75e52757226"},"vehicle_type_id":"4","last_reported":1710367585,"current_range_meters":0,"station_id":"ce4bgs92rcd13ifvqcc0","pricing_plan_id":"cebpf4jnsgd1na2vs0mg"},{"bike_id":"63e5dcb6-5f63-42db-b2df-bb756ab75e96","system_id":"levelo_inurba_marseille","lat":43.319935,"lon":5.381699,"is_reserved":false,"is_disabled":false,"rental_uris":{"android":"levelo://app?vid=63e5dcb6-5f63-42db-b2df-bb756ab75e96","ios":"levelo://app?vid=63e5dcb6-5f63-42db-b2df-bb756ab75e96"},"vehicle_type_id":"4","last_reported":1710367585,"current_range_meters":1200,"station_id":"ce4bhr12rcd13ifvqhpg","pricing_plan_id":"cebpf4jnsgd1na2vs0mg"},{"bike_id":"3251774e-c0fe-4644-8732-ff8e5aa7e275","system_id":"levelo_inurba_marseille","lat":43.31995,"lon":5.38147,"is_reserved":false,"is_disabled":false,"rental_uris":{"android":"levelo://app?vid=3251774e-c0fe-4644-8732-ff8e5aa7e275","ios":"levelo://app?vid=3251774e-c0fe-4644-8732-ff8e5aa7e275"},"vehicle_type_id":"4","last_reported":1710367585,"current_range_meters":0,"station_id":"ce4bhr12rcd13ifvqhpg","pricing_plan_id":"cebpf4jnsgd1na2vs0mg"},{"bike_id":"5eccbc20-4375-49ed-95a3-4081125eed18","system_id":"levelo_inurba_marseille","lat":43.319935,"lon":5.381699,"is_reserved":false,"is_disabled":false,"rental_uris":{"android":"levelo://app?vid=5eccbc20-4375-49ed-95a3-4081125eed18","ios":"levelo://app?vid=5eccbc20-4375-49ed-95a3-4081125eed18"},"vehicle_type_id":"4","last_reported":1710367585,"current_range_meters":10000,"station_id":"ce4bhr12rcd13ifvqhpg","pricing_plan_id":"cebpf4jnsgd1na2vs0mg"},{"bike_id":"35063592-e345-428b-9315-f128cf9d0c79","system_id":"levelo_inurba_marseille","lat":43.313571,"lon":5.384829,"is_reserved":false,"is_disabled":false,"rental_uris":{"android":"levelo://app?vid=35063592-e345-428b-9315-f128cf9d0c79","ios":"levelo://app?vid=35063592-e345-428b-9315-f128cf9d0c79"},"vehicle_type_id":"4","last_reported":1710367585,"current_range_meters":17600,"station_id":"ce4bgt92rcd13ifvqcf0","pricing_plan_id":"cebpf4jnsgd1na2vs0mg"},{"bike_id":"e386b3d9-7fa4-472e-b002-72b85c92c409","system_id":"levelo_inurba_marseille","lat":43.313571,"lon":5.384829,"is_reserved":false,"is_disabled":false,"rental_uris":{"android":"levelo://app?vid=e386b3d9-7fa4-472e-b002-72b85c92c409","ios":"levelo://app?vid=e386b3d9-7fa4-472e-b002-72b85c92c409"},"vehicle_type_id":"4","last_reported":1710367585,"current_range_meters":18000,"station_id":"ce4bgt92rcd13ifvqcf0","pricing_plan_id":"cebpf4jnsgd1na2vs0mg"},{"bike_id":"c2ab800b-d9b4-47a3-a3a8-977b1899813d","system_id":"levelo_inurba_marseille","lat":43.313571,"lon":5.384829,"is_reserved":false,"is_disabled":false,"rental_uris":{"android":"levelo://app?vid=c2ab800b-d9b4-47a3-a3a8-977b1899813d","ios":"levelo://app?vid=c2ab800b-d9b4-47a3-a3a8-977b1899813d"},"vehicle_type_id":"4","last_reported":1710367585,"current_range_meters":2400,"station_id":"ce4bgt92rcd13ifvqcf0","pricing_plan_id":"cebpf4jnsgd1na2vs0mg"},{"bike_id":"d599bc67-653d-493a-863d-16905d6a4351","system_id":"levelo_inurba_marseille","lat":43.313571,"lon":5.384829,"is_reserved":false,"is_disabled":false,"rental_uris":{"android":"levelo://app?vid=d599bc67-653d-493a-863d-16905d6a4351","ios":"levelo://app?vid=d599bc67-653d-493a-863d-16905d6a4351"},"vehicle_type_id":"4","last_reported":1710367585,"current_range_meters":16800,"station_id":"ce4bgt92rcd13ifvqcf0","pricing_plan_id":"cebpf4jnsgd1na2vs0mg"},{"bike_id":"f13569ab-ed18-4b09-887c-f9ccd120fb0d","system_id":"levelo_inurba_marseille","lat":43.313571,"lon":5.384829,"is_reserved":false,"is_disabled":false,"rental_uris":{"android":"levelo://app?vid=f13569ab-ed18-4b09-887c-f9ccd120fb0d","ios":"levelo://app?vid=f13569ab-ed18-4b09-887c-f9ccd120fb0d"},"vehicle_type_id":"4","last_reported":1710367585,"current_range_meters":0,"station_id":"ce4bgt92rcd13ifvqcf0","pricing_plan_id":"cebpf4jnsgd1na2vs0mg"},{"bike_id":"b50c7b62-ccb7-48df-bed6-4ffb3427e215","system_id":"levelo_inurba_marseille","lat":43.299724,"lon":5.371829,"is_reserved":false,"is_disabled":false,"rental_uris":{"android":"levelo://app?vid=b50c7b62-ccb7-48df-bed6-4ffb3427e215","ios":"levelo://app?vid=b50c7b62-ccb7-48df-bed6-4ffb3427e215"},"vehicle_type_id":"4","last_reported":1710367585,"current_range_meters":5200,"station_id":"ce4bgr92rcd13ifvqc7g","pricing_plan_id":"cebpf4jnsgd1na2vs0mg"},{"bike_id":"5c4bc5b4-8844-4872-bbb0-5c83778205f3","system_id":"levelo_inurba_marseille","lat":43.299724,"lon":5.371829,"is_reserved":false,"is_disabled":false,"rental_uris":{"android":"levelo://app?vid=5c4bc5b4-8844-4872-bbb0-5c83778205f3","ios":"levelo://app?vid=5c4bc5b4-8844-4872-bbb0-5c83778205f3"},"vehicle_type_id":"4","last_reported":1710367585,"current_range_meters":11200,"station_id":"ce4bgr92rcd13ifvqc7g","pricing_plan_id":"cebpf4jnsgd1na2vs0mg"},{"bike_id":"a40ae8de-7fa2-4031-8726-0264cc1cb3d5","system_id":"levelo_inurba_marseille","lat":43.29933,"lon":5.36536,"is_reserved":false,"is_disabled":false,"rental_uris":{"android":"levelo://app?vid=a40ae8de-7fa2-4031-8726-0264cc1cb3d5","ios":"levelo://app?vid=a40ae8de-7fa2-4031-8726-0264cc1cb3d5"},"vehicle_type_id":"4","last_reported":1710367585,"current_range_meters":0,"station_id":"ce4bgm92rcd13ifvqbr0","pricing_plan_id":"cebpf4jnsgd1na2vs0mg"},{"bike_id":"a7731c66-e0f6-419a-9c9d-dde2f80877e6","system_id":"levelo_inurba_marseille","lat":43.299724,"lon":5.371829,"is_reserved":false,"is_disabled":false,"rental_uris":{"android":"levelo://app?vid=a7731c66-e0f6-419a-9c9d-dde2f80877e6","ios":"levelo://app?vid=a7731c66-e0f6-419a-9c9d-dde2f80877e6"},"vehicle_type_id":"4","last_reported":1710367585,"current_range_meters":4800,"station_id":"ce4bgr92rcd13ifvqc7g","pricing_plan_id":"cebpf4jnsgd1na2vs0mg"},{"bike_id":"727266ee-550f-403a-a82e-5f3a8cc9ef94","system_id":"levelo_inurba_marseille","lat":43.309369,"lon":5.385131,"is_reserved":false,"is_disabled":false,"rental_uris":{"android":"levelo://app?vid=727266ee-550f-403a-a82e-5f3a8cc9ef94","ios":"levelo://app?vid=727266ee-550f-403a-a82e-5f3a8cc9ef94"},"vehicle_type_id":"4","last_reported":1710367585,"current_range_meters":5200,"station_id":"","pricing_plan_id":"cebpf4jnsgd1na2vs0mg"},{"bike_id":"02e36adc-264a-44cf-b731-c3f62c2d7a92","system_id":"levelo_inurba_marseille","lat":43.311589,"lon":5.38684,"is_reserved":false,"is_disabled":false,"rental_uris":{"android":"levelo://app?vid=02e36adc-264a-44cf-b731-c3f62c2d7a92","ios":"levelo://app?vid=02e36adc-264a-44cf-b731-c3f62c2d7a92"},"vehicle_type_id":"4","last_reported":1710367585,"current_range_meters":10400,"station_id":"ce4bgv12rcd13ifvqcp0","pricing_plan_id":"cebpf4jnsgd1na2vs0mg"},{"bike_id":"13abf640-4639-4c6c-8619-3ce31e8cc231","system_id":"levelo_inurba_marseille","lat":43.305364,"lon":5.384119,"is_reserved":false,"is_disabled":false,"rental_uris":{"android":"levelo://app?vid=13abf640-4639-4c6c-8619-3ce31e8cc231","ios":"levelo://app?vid=13abf640-4639-4c6c-8619-3ce31e8cc231"},"vehicle_type_id":"4","last_reported":1710367585,"current_range_meters":19600,"station_id":"ce4bgg92rcd13ifvqb30","pricing_plan_id":"cebpf4jnsgd1na2vs0mg"},{"bike_id":"810223b9-984a-463a-941c-c14fafd80d80","system_id":"levelo_inurba_marseille","lat":43.305525,"lon":5.384325,"is_reserved":false,"is_disabled":false,"rental_uris":{"android":"levelo://app?vid=810223b9-984a-463a-941c-c14fafd80d80","ios":"levelo://app?vid=810223b9-984a-463a-941c-c14fafd80d80"},"vehicle_type_id":"4","last_reported":1710367585,"current_range_meters":21200,"station_id":"ce4bgg92rcd13ifvqb30","pricing_plan_id":"cebpf4jnsgd1na2vs0mg"},{"bike_id":"8a83da41-3cfd-4396-bf0d-a4a217cf5d98","system_id":"levelo_inurba_marseille","lat":43.326257,"lon":5.374739,"is_reserved":false,"is_disabled":false,"rental_uris":{"android":"levelo://app?vid=8a83da41-3cfd-4396-bf0d-a4a217cf5d98","ios":"levelo://app?vid=8a83da41-3cfd-4396-bf0d-a4a217cf5d98"},"vehicle_type_id":"4","last_reported":1710367585,"current_range_meters":22800,"station_id":"","pricing_plan_id":"cebpf4jnsgd1na2vs0mg"},{"bike_id":"67ae9644-45bb-41df-9867-bb7b9c7f01a4","system_id":"levelo_inurba_marseille","lat":43.311722,"lon":5.387247,"is_reserved":false,"is_disabled":false,"rental_uris":{"android":"levelo://app?vid=67ae9644-45bb-41df-9867-bb7b9c7f01a4","ios":"levelo://app?vid=67ae9644-45bb-41df-9867-bb7b9c7f01a4"},"vehicle_type_id":"4","last_reported":1710367585,"current_range_meters":14800,"station_id":"ce4bgv12rcd13ifvqcp0","pricing_plan_id":"cebpf4jnsgd1na2vs0mg"},{"bike_id":"ca91ba93-0697-4bec-900b-babe6bb61c15","system_id":"levelo_inurba_marseille","lat":43.311722,"lon":5.387247,"is_reserved":false,"is_disabled":false,"rental_uris":{"android":"levelo://app?vid=ca91ba93-0697-4bec-900b-babe6bb61c15","ios":"levelo://app?vid=ca91ba93-0697-4bec-900b-babe6bb61c15"},"vehicle_type_id":"4","last_reported":1710367585,"current_range_meters":12800,"station_id":"ce4bgv12rcd13ifvqcp0","pricing_plan_id":"cebpf4jnsgd1na2vs0mg"},{"bike_id":"43ba5436-8671-468a-910e-7dd4a2b0e88d","system_id":"levelo_inurba_marseille","lat":43.311722,"lon":5.387247,"is_reserved":false,"is_disabled":false,"rental_uris":{"android":"levelo://app?vid=43ba5436-8671-468a-910e-7dd4a2b0e88d","ios":"levelo://app?vid=43ba5436-8671-468a-910e-7dd4a2b0e88d"},"vehicle_type_id":"4","last_reported":1710367585,"current_range_meters":13200,"station_id":"ce4bgv12rcd13ifvqcp0","pricing_plan_id":"cebpf4jnsgd1na2vs0mg"},{"bike_id":"d8127f7a-6adb-4684-8536-1a57e9aa8d71","system_id":"levelo_inurba_marseille","lat":43.299243,"lon":5.37481,"is_reserved":false,"is_disabled":false,"rental_uris":{"android":"levelo://app?vid=d8127f7a-6adb-4684-8536-1a57e9aa8d71","ios":"levelo://app?vid=d8127f7a-6adb-4684-8536-1a57e9aa8d71"},"vehicle_type_id":"4","last_reported":1710367585,"current_range_meters":0,"station_id":"ce4bgjh2rcd13ifvqbg0","pricing_plan_id":"cebpf4jnsgd1na2vs0mg"},{"bike_id":"7984413c-9d15-4d8d-9de4-8223a4e024a1","system_id":"levelo_inurba_marseille","lat":43.299243,"lon":5.37481,"is_reserved":false,"is_disabled":false,"rental_uris":{"android":"levelo://app?vid=7984413c-9d15-4d8d-9de4-8223a4e024a1","ios":"levelo://app?vid=7984413c-9d15-4d8d-9de4-8223a4e024a1"},"vehicle_type_id":"4","last_reported":1710367585,"current_range_meters":9600,"station_id":"ce4bgjh2rcd13ifvqbg0","pricing_plan_id":"cebpf4jnsgd1na2vs0mg"},{"bike_id":"e17f286e-276a-477a-ad66-3e999f055e4c","system_id":"levelo_inurba_marseille","lat":43.32285,"lon":5.38262,"is_reserved":false,"is_disabled":false,"rental_uris":{"android":"levelo://app?vid=e17f286e-276a-477a-ad66-3e999f055e4c","ios":"levelo://app?vid=e17f286e-276a-477a-ad66-3e999f055e4c"},"vehicle_type_id":"4","last_reported":1710367585,"current_range_meters":26400,"station_id":"ce4bhr12rcd13ifvqhqg","pricing_plan_id":"cebpf4jnsgd1na2vs0mg"},{"bike_id":"f2491452-d17d-4fd1-b87c-31e465894cd3","system_id":"levelo_inurba_marseille","lat":43.32288,"lon":5.38263,"is_reserved":false,"is_disabled":false,"rental_uris":{"android":"levelo://app?vid=f2491452-d17d-4fd1-b87c-31e465894cd3","ios":"levelo://app?vid=f2491452-d17d-4fd1-b87c-31e465894cd3"},"vehicle_type_id":"4","last_reported":1710367585,"current_range_meters":10400,"station_id":"ce4bhr12rcd13ifvqhqg","pricing_plan_id":"cebpf4jnsgd1na2vs0mg"},{"bike_id":"a1ea46c0-4921-4767-a801-a177044432f3","system_id":"levelo_inurba_marseille","lat":43.322872,"lon":5.382756,"is_reserved":false,"is_disabled":false,"rental_uris":{"android":"levelo://app?vid=a1ea46c0-4921-4767-a801-a177044432f3","ios":"levelo://app?vid=a1ea46c0-4921-4767-a801-a177044432f3"},"vehicle_type_id":"4","last_reported":1710367585,"current_range_meters":31200,"station_id":"ce4bhr12rcd13ifvqhqg","pricing_plan_id":"cebpf4jnsgd1na2vs0mg"},{"bike_id":"a35ba342-3af1-4fdc-93df-2881068849a9","system_id":"levelo_inurba_marseille","lat":43.32289,"lon":5.38263,"is_reserved":false,"is_disabled":false,"rental_uris":{"android":"levelo://app?vid=a35ba342-3af1-4fdc-93df-2881068849a9","ios":"levelo://app?vid=a35ba342-3af1-4fdc-93df-2881068849a9"},"vehicle_type_id":"4","last_reported":1710367585,"current_range_meters":12400,"station_id":"ce4bhr12rcd13ifvqhqg","pricing_plan_id":"cebpf4jnsgd1na2vs0mg"},{"bike_id":"3ff125a5-dff1-4591-b6cc-449dc2424878","system_id":"levelo_inurba_marseille","lat":43.322872,"lon":5.382756,"is_reserved":false,"is_disabled":false,"rental_uris":{"android":"levelo://app?vid=3ff125a5-dff1-4591-b6cc-449dc2424878","ios":"levelo://app?vid=3ff125a5-dff1-4591-b6cc-449dc2424878"},"vehicle_type_id":"4","last_reported":1710367585,"current_range_meters":22400,"station_id":"ce4bhr12rcd13ifvqhqg","pricing_plan_id":"cebpf4jnsgd1na2vs0mg"},{"bike_id":"eaf5350b-08e3-4231-8a58-3cf3fba26ee0","system_id":"levelo_inurba_marseille","lat":43.32288,"lon":5.38268,"is_reserved":false,"is_disabled":false,"rental_uris":{"android":"levelo://app?vid=eaf5350b-08e3-4231-8a58-3cf3fba26ee0","ios":"levelo://app?vid=eaf5350b-08e3-4231-8a58-3cf3fba26ee0"},"vehicle_type_id":"4","last_reported":1710367585,"current_range_meters":28000,"station_id":"ce4bhr12rcd13ifvqhqg","pricing_plan_id":"cebpf4jnsgd1na2vs0mg"},{"bike_id":"36727d06-0af4-4c64-88de-4193d3d2494b","system_id":"levelo_inurba_marseille","lat":43.322872,"lon":5.382756,"is_reserved":false,"is_disabled":false,"rental_uris":{"android":"levelo://app?vid=36727d06-0af4-4c64-88de-4193d3d2494b","ios":"levelo://app?vid=36727d06-0af4-4c64-88de-4193d3d2494b"},"vehicle_type_id":"4","last_reported":1710367585,"current_range_meters":20400,"station_id":"ce4bhr12rcd13ifvqhqg","pricing_plan_id":"cebpf4jnsgd1na2vs0mg"},{"bike_id":"e2f24066-a9da-4ac3-9953-f3c0e9a735d9","system_id":"levelo_inurba_marseille","lat":43.32292,"lon":5.38265,"is_reserved":false,"is_disabled":false,"rental_uris":{"android":"levelo://app?vid=e2f24066-a9da-4ac3-9953-f3c0e9a735d9","ios":"levelo://app?vid=e2f24066-a9da-4ac3-9953-f3c0e9a735d9"},"vehicle_type_id":"4","last_reported":1710367585,"current_range_meters":9200,"station_id":"ce4bhr12rcd13ifvqhqg","pricing_plan_id":"cebpf4jnsgd1na2vs0mg"},{"bike_id":"f39275f7-9222-4b62-9352-e6cd6637031a","system_id":"levelo_inurba_marseille","lat":43.322872,"lon":5.382756,"is_reserved":false,"is_disabled":false,"rental_uris":{"android":"levelo://app?vid=f39275f7-9222-4b62-9352-e6cd6637031a","ios":"levelo://app?vid=f39275f7-9222-4b62-9352-e6cd6637031a"},"vehicle_type_id":"4","last_reported":1710367585,"current_range_meters":11600,"station_id":"ce4bhr12rcd13ifvqhqg","pricing_plan_id":"cebpf4jnsgd1na2vs0mg"},{"bike_id":"7d711117-8f24-4ca5-af35-2d207110a750","system_id":"levelo_inurba_marseille","lat":43.322872,"lon":5.382756,"is_reserved":false,"is_disabled":false,"rental_uris":{"android":"levelo://app?vid=7d711117-8f24-4ca5-af35-2d207110a750","ios":"levelo://app?vid=7d711117-8f24-4ca5-af35-2d207110a750"},"vehicle_type_id":"4","last_reported":1710367585,"current_range_meters":31200,"station_id":"ce4bhr12rcd13ifvqhqg","pricing_plan_id":"cebpf4jnsgd1na2vs0mg"},{"bike_id":"026c7ff0-2158-432c-a208-7b1b8a8d6e19","system_id":"levelo_inurba_marseille","lat":43.322872,"lon":5.382756,"is_reserved":false,"is_disabled":false,"rental_uris":{"android":"levelo://app?vid=026c7ff0-2158-432c-a208-7b1b8a8d6e19","ios":"levelo://app?vid=026c7ff0-2158-432c-a208-7b1b8a8d6e19"},"vehicle_type_id":"4","last_reported":1710367585,"current_range_meters":19200,"station_id":"ce4bhr12rcd13ifvqhqg","pricing_plan_id":"cebpf4jnsgd1na2vs0mg"},{"bike_id":"3abca3f8-73a4-4a83-9f7a-e9df11291bf3","system_id":"levelo_inurba_marseille","lat":43.322872,"lon":5.382756,"is_reserved":false,"is_disabled":false,"rental_uris":{"android":"levelo://app?vid=3abca3f8-73a4-4a83-9f7a-e9df11291bf3","ios":"levelo://app?vid=3abca3f8-73a4-4a83-9f7a-e9df11291bf3"},"vehicle_type_id":"4","last_reported":1710367585,"current_range_meters":30400,"station_id":"ce4bhr12rcd13ifvqhqg","pricing_plan_id":"cebpf4jnsgd1na2vs0mg"},{"bike_id":"8b2106ec-4a39-40e1-bd23-15e50aa9c048","system_id":"levelo_inurba_marseille","lat":43.297774,"lon":5.370875,"is_reserved":false,"is_disabled":false,"rental_uris":{"android":"levelo://app?vid=8b2106ec-4a39-40e1-bd23-15e50aa9c048","ios":"levelo://app?vid=8b2106ec-4a39-40e1-bd23-15e50aa9c048"},"vehicle_type_id":"4","last_reported":1710367585,"current_range_meters":0,"station_id":"ce4bgop2rcd13ifvqc1g","pricing_plan_id":"cebpf4jnsgd1na2vs0mg"},{"bike_id":"9d0d2793-67b4-4e0d-9337-f818dc6311ea","system_id":"levelo_inurba_marseille","lat":43.322872,"lon":5.382756,"is_reserved":false,"is_disabled":false,"rental_uris":{"android":"levelo://app?vid=9d0d2793-67b4-4e0d-9337-f818dc6311ea","ios":"levelo://app?vid=9d0d2793-67b4-4e0d-9337-f818dc6311ea"},"vehicle_type_id":"4","last_reported":1710367585,"current_range_meters":18000,"station_id":"ce4bhr12rcd13ifvqhqg","pricing_plan_id":"cebpf4jnsgd1na2vs0mg"},{"bike_id":"f548446b-7df9-499c-a458-49720886bca1","system_id":"levelo_inurba_marseille","lat":43.322872,"lon":5.382756,"is_reserved":false,"is_disabled":false,"rental_uris":{"android":"levelo://app?vid=f548446b-7df9-499c-a458-49720886bca1","ios":"levelo://app?vid=f548446b-7df9-499c-a458-49720886bca1"},"vehicle_type_id":"4","last_reported":1710367585,"current_range_meters":0,"station_id":"ce4bhr12rcd13ifvqhqg","pricing_plan_id":"cebpf4jnsgd1na2vs0mg"},{"bike_id":"0c37f396-eced-4814-ac35-183332b90b1a","system_id":"levelo_inurba_marseille","lat":43.297163,"lon":5.365866,"is_reserved":false,"is_disabled":false,"rental_uris":{"android":"levelo://app?vid=0c37f396-eced-4814-ac35-183332b90b1a","ios":"levelo://app?vid=0c37f396-eced-4814-ac35-183332b90b1a"},"vehicle_type_id":"4","last_reported":1710367585,"current_range_meters":0,"station_id":"ce4bgn12rcd13ifvqbt0","pricing_plan_id":"cebpf4jnsgd1na2vs0mg"},{"bike_id":"118afa9f-7f73-417a-8201-d7b53eb7763e","system_id":"levelo_inurba_marseille","lat":43.297163,"lon":5.365866,"is_reserved":false,"is_disabled":false,"rental_uris":{"android":"levelo://app?vid=118afa9f-7f73-417a-8201-d7b53eb7763e","ios":"levelo://app?vid=118afa9f-7f73-417a-8201-d7b53eb7763e"},"vehicle_type_id":"4","last_reported":1710367585,"current_range_meters":27600,"station_id":"ce4bgn12rcd13ifvqbt0","pricing_plan_id":"cebpf4jnsgd1na2vs0mg"},{"bike_id":"759e9f9e-bc66-4572-a997-24f4c2d0cffd","system_id":"levelo_inurba_marseille","lat":43.2968,"lon":5.37291,"is_reserved":false,"is_disabled":false,"rental_uris":{"android":"levelo://app?vid=759e9f9e-bc66-4572-a997-24f4c2d0cffd","ios":"levelo://app?vid=759e9f9e-bc66-4572-a997-24f4c2d0cffd"},"vehicle_type_id":"4","last_reported":1710367585,"current_range_meters":23600,"station_id":"ce4bgk12rcd13ifvqbj0","pricing_plan_id":"cebpf4jnsgd1na2vs0mg"},{"bike_id":"7410243c-5f02-4202-98d8-ba31e519eec6","system_id":"levelo_inurba_marseille","lat":43.29573,"lon":5.367355,"is_reserved":false,"is_disabled":false,"rental_uris":{"android":"levelo://app?vid=7410243c-5f02-4202-98d8-ba31e519eec6","ios":"levelo://app?vid=7410243c-5f02-4202-98d8-ba31e519eec6"},"vehicle_type_id":"4","last_reported":1710367585,"current_range_meters":0,"station_id":"ce4bgph2rcd13ifvqc2g","pricing_plan_id":"cebpf4jnsgd1na2vs0mg"},{"bike_id":"11250817-4adb-4363-82f0-1da4d6a4af85","system_id":"levelo_inurba_marseille","lat":43.309589,"lon":5.390258,"is_reserved":false,"is_disabled":false,"rental_uris":{"android":"levelo://app?vid=11250817-4adb-4363-82f0-1da4d6a4af85","ios":"levelo://app?vid=11250817-4adb-4363-82f0-1da4d6a4af85"},"vehicle_type_id":"4","last_reported":1710367585,"current_range_meters":0,"station_id":"ce4bgup2rcd13ifvqco0","pricing_plan_id":"cebpf4jnsgd1na2vs0mg"},{"bike_id":"c853386d-332a-44e1-b8f3-c868b7c4a285","system_id":"levelo_inurba_marseille","lat":43.317539,"lon":5.390028,"is_reserved":false,"is_disabled":false,"rental_uris":{"android":"levelo://app?vid=c853386d-332a-44e1-b8f3-c868b7c4a285","ios":"levelo://app?vid=c853386d-332a-44e1-b8f3-c868b7c4a285"},"vehicle_type_id":"4","last_reported":1710367585,"current_range_meters":11200,"station_id":"ce4bhqp2rcd13ifvqhng","pricing_plan_id":"cebpf4jnsgd1na2vs0mg"},{"bike_id":"eaa04335-ce5f-4e82-9d4b-09e2bf70fc9e","system_id":"levelo_inurba_marseille","lat":43.31757,"lon":5.3901,"is_reserved":false,"is_disabled":false,"rental_uris":{"android":"levelo://app?vid=eaa04335-ce5f-4e82-9d4b-09e2bf70fc9e","ios":"levelo://app?vid=eaa04335-ce5f-4e82-9d4b-09e2bf70fc9e"},"vehicle_type_id":"4","last_reported":1710367585,"current_range_meters":5600,"station_id":"ce4bhqp2rcd13ifvqhng","pricing_plan_id":"cebpf4jnsgd1na2vs0mg"},{"bike_id":"400fc285-08c8-4b6b-a2e6-e4633d9bd4b4","system_id":"levelo_inurba_marseille","lat":43.31761,"lon":5.39011,"is_reserved":false,"is_disabled":false,"rental_uris":{"android":"levelo://app?vid=400fc285-08c8-4b6b-a2e6-e4633d9bd4b4","ios":"levelo://app?vid=400fc285-08c8-4b6b-a2e6-e4633d9bd4b4"},"vehicle_type_id":"4","last_reported":1710367585,"current_range_meters":2000,"station_id":"ce4bhqp2rcd13ifvqhng","pricing_plan_id":"cebpf4jnsgd1na2vs0mg"},{"bike_id":"77143e07-9a56-4df7-8659-5c80a8c15c48","system_id":"levelo_inurba_marseille","lat":43.31754,"lon":5.39015,"is_reserved":false,"is_disabled":false,"rental_uris":{"android":"levelo://app?vid=77143e07-9a56-4df7-8659-5c80a8c15c48","ios":"levelo://app?vid=77143e07-9a56-4df7-8659-5c80a8c15c48"},"vehicle_type_id":"4","last_reported":1710367585,"current_range_meters":3200,"station_id":"ce4bhqp2rcd13ifvqhng","pricing_plan_id":"cebpf4jnsgd1na2vs0mg"},{"bike_id":"593c98a4-480b-419b-ae38-a13bb27cf2af","system_id":"levelo_inurba_marseille","lat":43.31763,"lon":5.39013,"is_reserved":false,"is_disabled":false,"rental_uris":{"android":"levelo://app?vid=593c98a4-480b-419b-ae38-a13bb27cf2af","ios":"levelo://app?vid=593c98a4-480b-419b-ae38-a13bb27cf2af"},"vehicle_type_id":"4","last_reported":1710367585,"current_range_meters":1200,"station_id":"ce4bhqp2rcd13ifvqhng","pricing_plan_id":"cebpf4jnsgd1na2vs0mg"},{"bike_id":"1088c83b-edd1-487f-ba9c-9b4dd7f4efbe","system_id":"levelo_inurba_marseille","lat":43.31762,"lon":5.39014,"is_reserved":false,"is_disabled":false,"rental_uris":{"android":"levelo://app?vid=1088c83b-edd1-487f-ba9c-9b4dd7f4efbe","ios":"levelo://app?vid=1088c83b-edd1-487f-ba9c-9b4dd7f4efbe"},"vehicle_type_id":"4","last_reported":1710367585,"current_range_meters":31200,"station_id":"ce4bhqp2rcd13ifvqhng","pricing_plan_id":"cebpf4jnsgd1na2vs0mg"},{"bike_id":"e7635339-4a3c-42a4-a346-f89d0509c084","system_id":"levelo_inurba_marseille","lat":43.317557,"lon":5.390173,"is_reserved":false,"is_disabled":false,"rental_uris":{"android":"levelo://app?vid=e7635339-4a3c-42a4-a346-f89d0509c084","ios":"levelo://app?vid=e7635339-4a3c-42a4-a346-f89d0509c084"},"vehicle_type_id":"4","last_reported":1710367585,"current_range_meters":27200,"station_id":"ce4bhqp2rcd13ifvqhng","pricing_plan_id":"cebpf4jnsgd1na2vs0mg"},{"bike_id":"cd364902-762b-4c3e-844f-575971d38c11","system_id":"levelo_inurba_marseille","lat":43.317634,"lon":5.390144,"is_reserved":false,"is_disabled":false,"rental_uris":{"android":"levelo://app?vid=cd364902-762b-4c3e-844f-575971d38c11","ios":"levelo://app?vid=cd364902-762b-4c3e-844f-575971d38c11"},"vehicle_type_id":"4","last_reported":1710367585,"current_range_meters":14800,"station_id":"ce4bhqp2rcd13ifvqhng","pricing_plan_id":"cebpf4jnsgd1na2vs0mg"},{"bike_id":"a7e9409e-d196-40a9-8913-2226e2a94e30","system_id":"levelo_inurba_marseille","lat":43.3176,"lon":5.39016,"is_reserved":false,"is_disabled":false,"rental_uris":{"android":"levelo://app?vid=a7e9409e-d196-40a9-8913-2226e2a94e30","ios":"levelo://app?vid=a7e9409e-d196-40a9-8913-2226e2a94e30"},"vehicle_type_id":"4","last_reported":1710367585,"current_range_meters":30400,"station_id":"ce4bhqp2rcd13ifvqhng","pricing_plan_id":"cebpf4jnsgd1na2vs0mg"},{"bike_id":"ba3a545d-9fec-4e88-b08a-c63ce08c8c4a","system_id":"levelo_inurba_marseille","lat":43.317557,"lon":5.390173,"is_reserved":false,"is_disabled":false,"rental_uris":{"android":"levelo://app?vid=ba3a545d-9fec-4e88-b08a-c63ce08c8c4a","ios":"levelo://app?vid=ba3a545d-9fec-4e88-b08a-c63ce08c8c4a"},"vehicle_type_id":"4","last_reported":1710367585,"current_range_meters":24400,"station_id":"ce4bhqp2rcd13ifvqhng","pricing_plan_id":"cebpf4jnsgd1na2vs0mg"},{"bike_id":"f63c0e12-1219-43b7-8ae3-7050aa802158","system_id":"levelo_inurba_marseille","lat":43.317612,"lon":5.390187,"is_reserved":false,"is_disabled":false,"rental_uris":{"android":"levelo://app?vid=f63c0e12-1219-43b7-8ae3-7050aa802158","ios":"levelo://app?vid=f63c0e12-1219-43b7-8ae3-7050aa802158"},"vehicle_type_id":"4","last_reported":1710367585,"current_range_meters":21200,"station_id":"ce4bhqp2rcd13ifvqhng","pricing_plan_id":"cebpf4jnsgd1na2vs0mg"},{"bike_id":"ce5155a1-f569-4097-982c-1231a70fa71c","system_id":"levelo_inurba_marseille","lat":43.317561,"lon":5.39021,"is_reserved":false,"is_disabled":false,"rental_uris":{"android":"levelo://app?vid=ce5155a1-f569-4097-982c-1231a70fa71c","ios":"levelo://app?vid=ce5155a1-f569-4097-982c-1231a70fa71c"},"vehicle_type_id":"4","last_reported":1710367585,"current_range_meters":10400,"station_id":"ce4bhqp2rcd13ifvqhng","pricing_plan_id":"cebpf4jnsgd1na2vs0mg"},{"bike_id":"15e2991d-aea9-4dea-887a-fc4583d6a5ca","system_id":"levelo_inurba_marseille","lat":43.317557,"lon":5.390173,"is_reserved":false,"is_disabled":false,"rental_uris":{"android":"levelo://app?vid=15e2991d-aea9-4dea-887a-fc4583d6a5ca","ios":"levelo://app?vid=15e2991d-aea9-4dea-887a-fc4583d6a5ca"},"vehicle_type_id":"4","last_reported":1710367585,"current_range_meters":31600,"station_id":"ce4bhqp2rcd13ifvqhng","pricing_plan_id":"cebpf4jnsgd1na2vs0mg"},{"bike_id":"d69f4584-9a59-4f57-a39e-725afcd227ff","system_id":"levelo_inurba_marseille","lat":43.295748,"lon":5.37522,"is_reserved":false,"is_disabled":false,"rental_uris":{"android":"levelo://app?vid=d69f4584-9a59-4f57-a39e-725afcd227ff","ios":"levelo://app?vid=d69f4584-9a59-4f57-a39e-725afcd227ff"},"vehicle_type_id":"4","last_reported":1710367585,"current_range_meters":2800,"station_id":"ce4bgh92rcd13ifvqb50","pricing_plan_id":"cebpf4jnsgd1na2vs0mg"},{"bike_id":"c1cd3c4b-26fa-453f-9554-101da3acfc5d","system_id":"levelo_inurba_marseille","lat":43.298006,"lon":5.380924,"is_reserved":false,"is_disabled":false,"rental_uris":{"android":"levelo://app?vid=c1cd3c4b-26fa-453f-9554-101da3acfc5d","ios":"levelo://app?vid=c1cd3c4b-26fa-453f-9554-101da3acfc5d"},"vehicle_type_id":"4","last_reported":1710367585,"current_range_meters":0,"station_id":"ce4bgip2rcd13ifvqbb0","pricing_plan_id":"cebpf4jnsgd1na2vs0mg"},{"bike_id":"5999a9be-c856-4112-8dc9-7a728ec846ba","system_id":"levelo_inurba_marseille","lat":43.29794,"lon":5.38098,"is_reserved":false,"is_disabled":false,"rental_uris":{"android":"levelo://app?vid=5999a9be-c856-4112-8dc9-7a728ec846ba","ios":"levelo://app?vid=5999a9be-c856-4112-8dc9-7a728ec846ba"},"vehicle_type_id":"4","last_reported":1710367585,"current_range_meters":0,"station_id":"ce4bgip2rcd13ifvqbb0","pricing_plan_id":"cebpf4jnsgd1na2vs0mg"},{"bike_id":"b9d36ca4-dede-476c-8a29-fa5341ade855","system_id":"levelo_inurba_marseille","lat":43.304274,"lon":5.388873,"is_reserved":false,"is_disabled":false,"rental_uris":{"android":"levelo://app?vid=b9d36ca4-dede-476c-8a29-fa5341ade855","ios":"levelo://app?vid=b9d36ca4-dede-476c-8a29-fa5341ade855"},"vehicle_type_id":"4","last_reported":1710367585,"current_range_meters":23200,"station_id":"ce4bgk12rcd13ifvqbi0","pricing_plan_id":"cebpf4jnsgd1na2vs0mg"},{"bike_id":"caeb4c93-c7c9-4045-b722-289d58e53251","system_id":"levelo_inurba_marseille","lat":43.304403,"lon":5.388893,"is_reserved":false,"is_disabled":false,"rental_uris":{"android":"levelo://app?vid=caeb4c93-c7c9-4045-b722-289d58e53251","ios":"levelo://app?vid=caeb4c93-c7c9-4045-b722-289d58e53251"},"vehicle_type_id":"4","last_reported":1710367585,"current_range_meters":800,"station_id":"ce4bgk12rcd13ifvqbi0","pricing_plan_id":"cebpf4jnsgd1na2vs0mg"},{"bike_id":"621b5b81-8443-4363-b142-d5038dd6c10a","system_id":"levelo_inurba_marseille","lat":43.30442,"lon":5.38892,"is_reserved":false,"is_disabled":false,"rental_uris":{"android":"levelo://app?vid=621b5b81-8443-4363-b142-d5038dd6c10a","ios":"levelo://app?vid=621b5b81-8443-4363-b142-d5038dd6c10a"},"vehicle_type_id":"4","last_reported":1710367585,"current_range_meters":0,"station_id":"ce4bgk12rcd13ifvqbi0","pricing_plan_id":"cebpf4jnsgd1na2vs0mg"},{"bike_id":"fede9919-0872-4ad0-8e0c-0044f11af976","system_id":"levelo_inurba_marseille","lat":43.30445,"lon":5.38895,"is_reserved":false,"is_disabled":false,"rental_uris":{"android":"levelo://app?vid=fede9919-0872-4ad0-8e0c-0044f11af976","ios":"levelo://app?vid=fede9919-0872-4ad0-8e0c-0044f11af976"},"vehicle_type_id":"4","last_reported":1710367585,"current_range_meters":0,"station_id":"ce4bgk12rcd13ifvqbi0","pricing_plan_id":"cebpf4jnsgd1na2vs0mg"},{"bike_id":"d268ef86-6247-4466-ac1b-d62848a69a80","system_id":"levelo_inurba_marseille","lat":43.30441,"lon":5.38894,"is_reserved":false,"is_disabled":false,"rental_uris":{"android":"levelo://app?vid=d268ef86-6247-4466-ac1b-d62848a69a80","ios":"levelo://app?vid=d268ef86-6247-4466-ac1b-d62848a69a80"},"vehicle_type_id":"4","last_reported":1710367585,"current_range_meters":14800,"station_id":"ce4bgk12rcd13ifvqbi0","pricing_plan_id":"cebpf4jnsgd1na2vs0mg"},{"bike_id":"f97bab1b-cce0-438d-b9f0-28e84efc067e","system_id":"levelo_inurba_marseille","lat":43.304425,"lon":5.388952,"is_reserved":false,"is_disabled":false,"rental_uris":{"android":"levelo://app?vid=f97bab1b-cce0-438d-b9f0-28e84efc067e","ios":"levelo://app?vid=f97bab1b-cce0-438d-b9f0-28e84efc067e"},"vehicle_type_id":"4","last_reported":1710367585,"current_range_meters":22000,"station_id":"ce4bgk12rcd13ifvqbi0","pricing_plan_id":"cebpf4jnsgd1na2vs0mg"},{"bike_id":"463d945f-a3ec-44db-8937-bb18505999da","system_id":"levelo_inurba_marseille","lat":43.304274,"lon":5.388873,"is_reserved":false,"is_disabled":false,"rental_uris":{"android":"levelo://app?vid=463d945f-a3ec-44db-8937-bb18505999da","ios":"levelo://app?vid=463d945f-a3ec-44db-8937-bb18505999da"},"vehicle_type_id":"4","last_reported":1710367585,"current_range_meters":26000,"station_id":"ce4bgk12rcd13ifvqbi0","pricing_plan_id":"cebpf4jnsgd1na2vs0mg"},{"bike_id":"63c90c21-bf13-48a8-9395-dbcc35a40020","system_id":"levelo_inurba_marseille","lat":43.30436,"lon":5.38895,"is_reserved":false,"is_disabled":false,"rental_uris":{"android":"levelo://app?vid=63c90c21-bf13-48a8-9395-dbcc35a40020","ios":"levelo://app?vid=63c90c21-bf13-48a8-9395-dbcc35a40020"},"vehicle_type_id":"4","last_reported":1710367585,"current_range_meters":20400,"station_id":"ce4bgk12rcd13ifvqbi0","pricing_plan_id":"cebpf4jnsgd1na2vs0mg"},{"bike_id":"53fb2f2a-d593-42a1-821e-4f5667869593","system_id":"levelo_inurba_marseille","lat":43.296173,"lon":5.377193,"is_reserved":false,"is_disabled":false,"rental_uris":{"android":"levelo://app?vid=53fb2f2a-d593-42a1-821e-4f5667869593","ios":"levelo://app?vid=53fb2f2a-d593-42a1-821e-4f5667869593"},"vehicle_type_id":"4","last_reported":1710367585,"current_range_meters":0,"station_id":"ce4bgi92rcd13ifvqb90","pricing_plan_id":"cebpf4jnsgd1na2vs0mg"},{"bike_id":"7b5b742f-1235-47f2-8b41-ba3f2f247ea9","system_id":"levelo_inurba_marseille","lat":43.299717,"lon":5.384845,"is_reserved":false,"is_disabled":false,"rental_uris":{"android":"levelo://app?vid=7b5b742f-1235-47f2-8b41-ba3f2f247ea9","ios":"levelo://app?vid=7b5b742f-1235-47f2-8b41-ba3f2f247ea9"},"vehicle_type_id":"4","last_reported":1710367585,"current_range_meters":18800,"station_id":"ce4bgj92rcd13ifvqbd0","pricing_plan_id":"cebpf4jnsgd1na2vs0mg"},{"bike_id":"cefa1225-e566-4dfe-8951-6bba308cb658","system_id":"levelo_inurba_marseille","lat":43.299717,"lon":5.384845,"is_reserved":false,"is_disabled":false,"rental_uris":{"android":"levelo://app?vid=cefa1225-e566-4dfe-8951-6bba308cb658","ios":"levelo://app?vid=cefa1225-e566-4dfe-8951-6bba308cb658"},"vehicle_type_id":"4","last_reported":1710367585,"current_range_meters":23600,"station_id":"ce4bgj92rcd13ifvqbd0","pricing_plan_id":"cebpf4jnsgd1na2vs0mg"},{"bike_id":"3b046cc1-1097-499f-8edd-d92e97dd8a0a","system_id":"levelo_inurba_marseille","lat":43.299717,"lon":5.384845,"is_reserved":false,"is_disabled":false,"rental_uris":{"android":"levelo://app?vid=3b046cc1-1097-499f-8edd-d92e97dd8a0a","ios":"levelo://app?vid=3b046cc1-1097-499f-8edd-d92e97dd8a0a"},"vehicle_type_id":"4","last_reported":1710367585,"current_range_meters":3200,"station_id":"ce4bgj92rcd13ifvqbd0","pricing_plan_id":"cebpf4jnsgd1na2vs0mg"},{"bike_id":"880f95b2-d82b-4788-b42f-db14a08ddde1","system_id":"levelo_inurba_marseille","lat":43.299717,"lon":5.384845,"is_reserved":false,"is_disabled":false,"rental_uris":{"android":"levelo://app?vid=880f95b2-d82b-4788-b42f-db14a08ddde1","ios":"levelo://app?vid=880f95b2-d82b-4788-b42f-db14a08ddde1"},"vehicle_type_id":"4","last_reported":1710367585,"current_range_meters":11200,"station_id":"ce4bgj92rcd13ifvqbd0","pricing_plan_id":"cebpf4jnsgd1na2vs0mg"},{"bike_id":"c623da6a-a969-46b8-9bcb-c5ff99456ce6","system_id":"levelo_inurba_marseille","lat":43.32364,"lon":5.38842,"is_reserved":false,"is_disabled":false,"rental_uris":{"android":"levelo://app?vid=c623da6a-a969-46b8-9bcb-c5ff99456ce6","ios":"levelo://app?vid=c623da6a-a969-46b8-9bcb-c5ff99456ce6"},"vehicle_type_id":"4","last_reported":1710367585,"current_range_meters":17200,"station_id":"ce4bhqp2rcd13ifvqhog","pricing_plan_id":"cebpf4jnsgd1na2vs0mg"},{"bike_id":"88ba044c-644f-4dcf-a18d-2897cb72afb7","system_id":"levelo_inurba_marseille","lat":43.32368,"lon":5.38879,"is_reserved":false,"is_disabled":false,"rental_uris":{"android":"levelo://app?vid=88ba044c-644f-4dcf-a18d-2897cb72afb7","ios":"levelo://app?vid=88ba044c-644f-4dcf-a18d-2897cb72afb7"},"vehicle_type_id":"4","last_reported":1710367585,"current_range_meters":6400,"station_id":"ce4bhqp2rcd13ifvqhog","pricing_plan_id":"cebpf4jnsgd1na2vs0mg"},{"bike_id":"cc81d865-bd9e-47ea-9dba-ee06420c17c4","system_id":"levelo_inurba_marseille","lat":43.32359,"lon":5.38888,"is_reserved":false,"is_disabled":false,"rental_uris":{"android":"levelo://app?vid=cc81d865-bd9e-47ea-9dba-ee06420c17c4","ios":"levelo://app?vid=cc81d865-bd9e-47ea-9dba-ee06420c17c4"},"vehicle_type_id":"4","last_reported":1710367585,"current_range_meters":8400,"station_id":"ce4bhqp2rcd13ifvqhog","pricing_plan_id":"cebpf4jnsgd1na2vs0mg"},{"bike_id":"a2dba51a-b2d7-4c36-b5ce-152632c4dfd5","system_id":"levelo_inurba_marseille","lat":43.32367,"lon":5.388836,"is_reserved":false,"is_disabled":false,"rental_uris":{"android":"levelo://app?vid=a2dba51a-b2d7-4c36-b5ce-152632c4dfd5","ios":"levelo://app?vid=a2dba51a-b2d7-4c36-b5ce-152632c4dfd5"},"vehicle_type_id":"4","last_reported":1710367585,"current_range_meters":18000,"station_id":"ce4bhqp2rcd13ifvqhog","pricing_plan_id":"cebpf4jnsgd1na2vs0mg"},{"bike_id":"e6422fac-7806-4084-96f0-22e2e4a9f3dc","system_id":"levelo_inurba_marseille","lat":43.32365,"lon":5.38883,"is_reserved":false,"is_disabled":false,"rental_uris":{"android":"levelo://app?vid=e6422fac-7806-4084-96f0-22e2e4a9f3dc","ios":"levelo://app?vid=e6422fac-7806-4084-96f0-22e2e4a9f3dc"},"vehicle_type_id":"4","last_reported":1710367585,"current_range_meters":0,"station_id":"ce4bhqp2rcd13ifvqhog","pricing_plan_id":"cebpf4jnsgd1na2vs0mg"},{"bike_id":"991d7feb-dcd7-453d-a499-fd702ced26e1","system_id":"levelo_inurba_marseille","lat":43.32361,"lon":5.38887,"is_reserved":false,"is_disabled":false,"rental_uris":{"android":"levelo://app?vid=991d7feb-dcd7-453d-a499-fd702ced26e1","ios":"levelo://app?vid=991d7feb-dcd7-453d-a499-fd702ced26e1"},"vehicle_type_id":"4","last_reported":1710367585,"current_range_meters":3200,"station_id":"ce4bhqp2rcd13ifvqhog","pricing_plan_id":"cebpf4jnsgd1na2vs0mg"},{"bike_id":"a463f268-1ddc-41f8-8bd7-08961230cebe","system_id":"levelo_inurba_marseille","lat":43.32359,"lon":5.38889,"is_reserved":false,"is_disabled":false,"rental_uris":{"android":"levelo://app?vid=a463f268-1ddc-41f8-8bd7-08961230cebe","ios":"levelo://app?vid=a463f268-1ddc-41f8-8bd7-08961230cebe"},"vehicle_type_id":"4","last_reported":1710367585,"current_range_meters":16000,"station_id":"ce4bhqp2rcd13ifvqhog","pricing_plan_id":"cebpf4jnsgd1na2vs0mg"},{"bike_id":"db0fda7d-b7c0-4ea7-9291-736653401b08","system_id":"levelo_inurba_marseille","lat":43.32366,"lon":5.38883,"is_reserved":false,"is_disabled":false,"rental_uris":{"android":"levelo://app?vid=db0fda7d-b7c0-4ea7-9291-736653401b08","ios":"levelo://app?vid=db0fda7d-b7c0-4ea7-9291-736653401b08"},"vehicle_type_id":"4","last_reported":1710367585,"current_range_meters":0,"station_id":"ce4bhqp2rcd13ifvqhog","pricing_plan_id":"cebpf4jnsgd1na2vs0mg"},{"bike_id":"e6a60513-e8b7-483d-a0ac-59c1b33b431c","system_id":"levelo_inurba_marseille","lat":43.32365,"lon":5.38884,"is_reserved":false,"is_disabled":false,"rental_uris":{"android":"levelo://app?vid=e6a60513-e8b7-483d-a0ac-59c1b33b431c","ios":"levelo://app?vid=e6a60513-e8b7-483d-a0ac-59c1b33b431c"},"vehicle_type_id":"4","last_reported":1710367585,"current_range_meters":15200,"station_id":"ce4bhqp2rcd13ifvqhog","pricing_plan_id":"cebpf4jnsgd1na2vs0mg"},{"bike_id":"85208358-1d9c-42e8-98c3-73b8b13c7ee8","system_id":"levelo_inurba_marseille","lat":43.32367,"lon":5.38883,"is_reserved":false,"is_disabled":false,"rental_uris":{"android":"levelo://app?vid=85208358-1d9c-42e8-98c3-73b8b13c7ee8","ios":"levelo://app?vid=85208358-1d9c-42e8-98c3-73b8b13c7ee8"},"vehicle_type_id":"4","last_reported":1710367585,"current_range_meters":0,"station_id":"ce4bhqp2rcd13ifvqhog","pricing_plan_id":"cebpf4jnsgd1na2vs0mg"},{"bike_id":"e51693d7-1dd2-401e-9b75-f4e8a3f19ebd","system_id":"levelo_inurba_marseille","lat":43.32367,"lon":5.388836,"is_reserved":false,"is_disabled":false,"rental_uris":{"android":"levelo://app?vid=e51693d7-1dd2-401e-9b75-f4e8a3f19ebd","ios":"levelo://app?vid=e51693d7-1dd2-401e-9b75-f4e8a3f19ebd"},"vehicle_type_id":"4","last_reported":1710367585,"current_range_meters":20000,"station_id":"ce4bhqp2rcd13ifvqhog","pricing_plan_id":"cebpf4jnsgd1na2vs0mg"},{"bike_id":"049264a0-55e2-4f55-8e43-ef8b86006ff0","system_id":"levelo_inurba_marseille","lat":43.32366,"lon":5.38886,"is_reserved":false,"is_disabled":false,"rental_uris":{"android":"levelo://app?vid=049264a0-55e2-4f55-8e43-ef8b86006ff0","ios":"levelo://app?vid=049264a0-55e2-4f55-8e43-ef8b86006ff0"},"vehicle_type_id":"4","last_reported":1710367585,"current_range_meters":24400,"station_id":"ce4bhqp2rcd13ifvqhog","pricing_plan_id":"cebpf4jnsgd1na2vs0mg"},{"bike_id":"848f7d5b-25ae-4442-913e-34dbed8c4426","system_id":"levelo_inurba_marseille","lat":43.32365,"lon":5.38887,"is_reserved":false,"is_disabled":false,"rental_uris":{"android":"levelo://app?vid=848f7d5b-25ae-4442-913e-34dbed8c4426","ios":"levelo://app?vid=848f7d5b-25ae-4442-913e-34dbed8c4426"},"vehicle_type_id":"4","last_reported":1710367585,"current_range_meters":24400,"station_id":"ce4bhqp2rcd13ifvqhog","pricing_plan_id":"cebpf4jnsgd1na2vs0mg"},{"bike_id":"814e9b11-b6da-4c41-a98f-46d81e6f367e","system_id":"levelo_inurba_marseille","lat":43.32367,"lon":5.388836,"is_reserved":false,"is_disabled":false,"rental_uris":{"android":"levelo://app?vid=814e9b11-b6da-4c41-a98f-46d81e6f367e","ios":"levelo://app?vid=814e9b11-b6da-4c41-a98f-46d81e6f367e"},"vehicle_type_id":"4","last_reported":1710367585,"current_range_meters":15600,"station_id":"ce4bhqp2rcd13ifvqhog","pricing_plan_id":"cebpf4jnsgd1na2vs0mg"},{"bike_id":"f14c9a56-6115-4cb7-8920-5b14ab230a3d","system_id":"levelo_inurba_marseille","lat":43.32371,"lon":5.38888,"is_reserved":false,"is_disabled":false,"rental_uris":{"android":"levelo://app?vid=f14c9a56-6115-4cb7-8920-5b14ab230a3d","ios":"levelo://app?vid=f14c9a56-6115-4cb7-8920-5b14ab230a3d"},"vehicle_type_id":"4","last_reported":1710367585,"current_range_meters":7600,"station_id":"ce4bhqp2rcd13ifvqhog","pricing_plan_id":"cebpf4jnsgd1na2vs0mg"},{"bike_id":"0baecd5e-0049-4b19-8872-834ba1edcdb4","system_id":"levelo_inurba_marseille","lat":43.32367,"lon":5.388836,"is_reserved":false,"is_disabled":false,"rental_uris":{"android":"levelo://app?vid=0baecd5e-0049-4b19-8872-834ba1edcdb4","ios":"levelo://app?vid=0baecd5e-0049-4b19-8872-834ba1edcdb4"},"vehicle_type_id":"4","last_reported":1710367585,"current_range_meters":14400,"station_id":"ce4bhqp2rcd13ifvqhog","pricing_plan_id":"cebpf4jnsgd1na2vs0mg"},{"bike_id":"8edd368f-e3a8-4647-b10a-a5dc1b1c8707","system_id":"levelo_inurba_marseille","lat":43.29601,"lon":5.381084,"is_reserved":false,"is_disabled":false,"rental_uris":{"android":"levelo://app?vid=8edd368f-e3a8-4647-b10a-a5dc1b1c8707","ios":"levelo://app?vid=8edd368f-e3a8-4647-b10a-a5dc1b1c8707"},"vehicle_type_id":"4","last_reported":1710367585,"current_range_meters":0,"station_id":"ce4bgl12rcd13ifvqbo0","pricing_plan_id":"cebpf4jnsgd1na2vs0mg"},{"bike_id":"2d23ae95-017f-418a-a8cf-5c33c147424b","system_id":"levelo_inurba_marseille","lat":43.29602,"lon":5.381084,"is_reserved":false,"is_disabled":false,"rental_uris":{"android":"levelo://app?vid=2d23ae95-017f-418a-a8cf-5c33c147424b","ios":"levelo://app?vid=2d23ae95-017f-418a-a8cf-5c33c147424b"},"vehicle_type_id":"4","last_reported":1710367585,"current_range_meters":0,"station_id":"ce4bgl12rcd13ifvqbo0","pricing_plan_id":"cebpf4jnsgd1na2vs0mg"},{"bike_id":"70e20882-3aa9-4208-954d-b7cc032416ee","system_id":"levelo_inurba_marseille","lat":43.29259,"lon":5.36684,"is_reserved":false,"is_disabled":false,"rental_uris":{"android":"levelo://app?vid=70e20882-3aa9-4208-954d-b7cc032416ee","ios":"levelo://app?vid=70e20882-3aa9-4208-954d-b7cc032416ee"},"vehicle_type_id":"4","last_reported":1710367585,"current_range_meters":21600,"station_id":"","pricing_plan_id":"cebpf4jnsgd1na2vs0mg"},{"bike_id":"6e5a449e-c65a-442d-9a65-0aaa7fb5b866","system_id":"levelo_inurba_marseille","lat":43.293009,"lon":5.374584,"is_reserved":false,"is_disabled":false,"rental_uris":{"android":"levelo://app?vid=6e5a449e-c65a-442d-9a65-0aaa7fb5b866","ios":"levelo://app?vid=6e5a449e-c65a-442d-9a65-0aaa7fb5b866"},"vehicle_type_id":"4","last_reported":1710367585,"current_range_meters":0,"station_id":"ce4bgi12rcd13ifvqb70","pricing_plan_id":"cebpf4jnsgd1na2vs0mg"},{"bike_id":"4cf9f0f8-9f58-4df6-a519-c424d8d57864","system_id":"levelo_inurba_marseille","lat":43.303002,"lon":5.392142,"is_reserved":false,"is_disabled":false,"rental_uris":{"android":"levelo://app?vid=4cf9f0f8-9f58-4df6-a519-c424d8d57864","ios":"levelo://app?vid=4cf9f0f8-9f58-4df6-a519-c424d8d57864"},"vehicle_type_id":"4","last_reported":1710367585,"current_range_meters":4400,"station_id":"ce4bgkh2rcd13ifvqbk0","pricing_plan_id":"cebpf4jnsgd1na2vs0mg"},{"bike_id":"ccc64e66-6252-41be-8cbd-0ecfafa4a8ce","system_id":"levelo_inurba_marseille","lat":43.303002,"lon":5.392142,"is_reserved":false,"is_disabled":false,"rental_uris":{"android":"levelo://app?vid=ccc64e66-6252-41be-8cbd-0ecfafa4a8ce","ios":"levelo://app?vid=ccc64e66-6252-41be-8cbd-0ecfafa4a8ce"},"vehicle_type_id":"4","last_reported":1710367585,"current_range_meters":16000,"station_id":"ce4bgkh2rcd13ifvqbk0","pricing_plan_id":"cebpf4jnsgd1na2vs0mg"},{"bike_id":"cc3fe6c9-9bde-4389-b89c-641b01fe9f5b","system_id":"levelo_inurba_marseille","lat":43.30312,"lon":5.39205,"is_reserved":false,"is_disabled":false,"rental_uris":{"android":"levelo://app?vid=cc3fe6c9-9bde-4389-b89c-641b01fe9f5b","ios":"levelo://app?vid=cc3fe6c9-9bde-4389-b89c-641b01fe9f5b"},"vehicle_type_id":"4","last_reported":1710367585,"current_range_meters":11600,"station_id":"ce4bgkh2rcd13ifvqbk0","pricing_plan_id":"cebpf4jnsgd1na2vs0mg"},{"bike_id":"271fdb94-77e2-40d5-be28-05b25a261a3d","system_id":"levelo_inurba_marseille","lat":43.303002,"lon":5.392142,"is_reserved":false,"is_disabled":false,"rental_uris":{"android":"levelo://app?vid=271fdb94-77e2-40d5-be28-05b25a261a3d","ios":"levelo://app?vid=271fdb94-77e2-40d5-be28-05b25a261a3d"},"vehicle_type_id":"4","last_reported":1710367585,"current_range_meters":25600,"station_id":"ce4bgkh2rcd13ifvqbk0","pricing_plan_id":"cebpf4jnsgd1na2vs0mg"},{"bike_id":"79fa5685-03e4-49dc-bdb1-80757307e184","system_id":"levelo_inurba_marseille","lat":43.302992,"lon":5.392136,"is_reserved":false,"is_disabled":false,"rental_uris":{"android":"levelo://app?vid=79fa5685-03e4-49dc-bdb1-80757307e184","ios":"levelo://app?vid=79fa5685-03e4-49dc-bdb1-80757307e184"},"vehicle_type_id":"4","last_reported":1710367585,"current_range_meters":15200,"station_id":"ce4bgkh2rcd13ifvqbk0","pricing_plan_id":"cebpf4jnsgd1na2vs0mg"},{"bike_id":"2e5e5e8e-0e2e-46d6-9361-5ce05072f224","system_id":"levelo_inurba_marseille","lat":43.30301,"lon":5.39207,"is_reserved":false,"is_disabled":false,"rental_uris":{"android":"levelo://app?vid=2e5e5e8e-0e2e-46d6-9361-5ce05072f224","ios":"levelo://app?vid=2e5e5e8e-0e2e-46d6-9361-5ce05072f224"},"vehicle_type_id":"4","last_reported":1710367585,"current_range_meters":0,"station_id":"ce4bgkh2rcd13ifvqbk0","pricing_plan_id":"cebpf4jnsgd1na2vs0mg"},{"bike_id":"15e6d2e5-fb89-4ea0-b9bf-df1ea8096fdb","system_id":"levelo_inurba_marseille","lat":43.305994,"lon":5.393687,"is_reserved":false,"is_disabled":false,"rental_uris":{"android":"levelo://app?vid=15e6d2e5-fb89-4ea0-b9bf-df1ea8096fdb","ios":"levelo://app?vid=15e6d2e5-fb89-4ea0-b9bf-df1ea8096fdb"},"vehicle_type_id":"4","last_reported":1710367585,"current_range_meters":20400,"station_id":"ce4bh0p2rcd13ifvqd80","pricing_plan_id":"cebpf4jnsgd1na2vs0mg"},{"bike_id":"1ba92933-d07a-4c9f-b337-f969a32c03a5","system_id":"levelo_inurba_marseille","lat":43.302992,"lon":5.392136,"is_reserved":false,"is_disabled":false,"rental_uris":{"android":"levelo://app?vid=1ba92933-d07a-4c9f-b337-f969a32c03a5","ios":"levelo://app?vid=1ba92933-d07a-4c9f-b337-f969a32c03a5"},"vehicle_type_id":"4","last_reported":1710367585,"current_range_meters":8800,"station_id":"ce4bgkh2rcd13ifvqbk0","pricing_plan_id":"cebpf4jnsgd1na2vs0mg"},{"bike_id":"cb61f44d-0f89-4133-bdbe-01ab4a6757cc","system_id":"levelo_inurba_marseille","lat":43.293753,"lon":5.378628,"is_reserved":false,"is_disabled":false,"rental_uris":{"android":"levelo://app?vid=cb61f44d-0f89-4133-bdbe-01ab4a6757cc","ios":"levelo://app?vid=cb61f44d-0f89-4133-bdbe-01ab4a6757cc"},"vehicle_type_id":"4","last_reported":1710367585,"current_range_meters":0,"station_id":"ce4bgjh2rcd13ifvqbf0","pricing_plan_id":"cebpf4jnsgd1na2vs0mg"},{"bike_id":"d4edade4-8f68-4ab5-9ca3-20809b7ab95e","system_id":"levelo_inurba_marseille","lat":43.302992,"lon":5.392136,"is_reserved":false,"is_disabled":false,"rental_uris":{"android":"levelo://app?vid=d4edade4-8f68-4ab5-9ca3-20809b7ab95e","ios":"levelo://app?vid=d4edade4-8f68-4ab5-9ca3-20809b7ab95e"},"vehicle_type_id":"4","last_reported":1710367585,"current_range_meters":22400,"station_id":"ce4bgkh2rcd13ifvqbk0","pricing_plan_id":"cebpf4jnsgd1na2vs0mg"},{"bike_id":"1c41eec8-c06f-4665-8a23-1dae6758fc8c","system_id":"levelo_inurba_marseille","lat":43.302992,"lon":5.392136,"is_reserved":false,"is_disabled":false,"rental_uris":{"android":"levelo://app?vid=1c41eec8-c06f-4665-8a23-1dae6758fc8c","ios":"levelo://app?vid=1c41eec8-c06f-4665-8a23-1dae6758fc8c"},"vehicle_type_id":"4","last_reported":1710367585,"current_range_meters":0,"station_id":"ce4bgkh2rcd13ifvqbk0","pricing_plan_id":"cebpf4jnsgd1na2vs0mg"},{"bike_id":"d4d16081-84a2-4473-a1b3-e1bdb3774d95","system_id":"levelo_inurba_marseille","lat":43.2936,"lon":5.37835,"is_reserved":false,"is_disabled":false,"rental_uris":{"android":"levelo://app?vid=d4d16081-84a2-4473-a1b3-e1bdb3774d95","ios":"levelo://app?vid=d4d16081-84a2-4473-a1b3-e1bdb3774d95"},"vehicle_type_id":"4","last_reported":1710367585,"current_range_meters":4800,"station_id":"ce4bgjh2rcd13ifvqbf0","pricing_plan_id":"cebpf4jnsgd1na2vs0mg"},{"bike_id":"26304616-23df-45cd-9f97-194b15d312ef","system_id":"levelo_inurba_marseille","lat":43.292311,"lon":5.360731,"is_reserved":false,"is_disabled":false,"rental_uris":{"android":"levelo://app?vid=26304616-23df-45cd-9f97-194b15d312ef","ios":"levelo://app?vid=26304616-23df-45cd-9f97-194b15d312ef"},"vehicle_type_id":"4","last_reported":1710367585,"current_range_meters":26800,"station_id":"ce4bhbh2rcd13ifvqeqg","pricing_plan_id":"cebpf4jnsgd1na2vs0mg"},{"bike_id":"52836d3f-3970-48be-bdb3-273d0ea3a39a","system_id":"levelo_inurba_marseille","lat":43.300934,"lon":5.390696,"is_reserved":false,"is_disabled":false,"rental_uris":{"android":"levelo://app?vid=52836d3f-3970-48be-bdb3-273d0ea3a39a","ios":"levelo://app?vid=52836d3f-3970-48be-bdb3-273d0ea3a39a"},"vehicle_type_id":"4","last_reported":1710367585,"current_range_meters":0,"station_id":"ce4bh192rcd13ifvqdb0","pricing_plan_id":"cebpf4jnsgd1na2vs0mg"},{"bike_id":"cc258792-6ec6-49d8-b2f8-78b6c4339585","system_id":"levelo_inurba_marseille","lat":43.2936,"lon":5.37835,"is_reserved":false,"is_disabled":false,"rental_uris":{"android":"levelo://app?vid=cc258792-6ec6-49d8-b2f8-78b6c4339585","ios":"levelo://app?vid=cc258792-6ec6-49d8-b2f8-78b6c4339585"},"vehicle_type_id":"4","last_reported":1710367585,"current_range_meters":30400,"station_id":"ce4bgjh2rcd13ifvqbf0","pricing_plan_id":"cebpf4jnsgd1na2vs0mg"},{"bike_id":"d8d5b78d-7600-479e-87ff-d14452cd4c37","system_id":"levelo_inurba_marseille","lat":43.300852,"lon":5.390859,"is_reserved":false,"is_disabled":false,"rental_uris":{"android":"levelo://app?vid=d8d5b78d-7600-479e-87ff-d14452cd4c37","ios":"levelo://app?vid=d8d5b78d-7600-479e-87ff-d14452cd4c37"},"vehicle_type_id":"4","last_reported":1710367585,"current_range_meters":4000,"station_id":"ce4bh192rcd13ifvqdb0","pricing_plan_id":"cebpf4jnsgd1na2vs0mg"},{"bike_id":"4bdb42c5-ecbc-485f-a14d-a108c2ced0f1","system_id":"levelo_inurba_marseille","lat":43.30101,"lon":5.39079,"is_reserved":false,"is_disabled":false,"rental_uris":{"android":"levelo://app?vid=4bdb42c5-ecbc-485f-a14d-a108c2ced0f1","ios":"levelo://app?vid=4bdb42c5-ecbc-485f-a14d-a108c2ced0f1"},"vehicle_type_id":"4","last_reported":1710367585,"current_range_meters":0,"station_id":"ce4bh192rcd13ifvqdb0","pricing_plan_id":"cebpf4jnsgd1na2vs0mg"},{"bike_id":"a05607dc-247d-4cf7-95f8-8a42b2bac18b","system_id":"levelo_inurba_marseille","lat":43.300852,"lon":5.390859,"is_reserved":false,"is_disabled":false,"rental_uris":{"android":"levelo://app?vid=a05607dc-247d-4cf7-95f8-8a42b2bac18b","ios":"levelo://app?vid=a05607dc-247d-4cf7-95f8-8a42b2bac18b"},"vehicle_type_id":"4","last_reported":1710367585,"current_range_meters":12000,"station_id":"ce4bh192rcd13ifvqdb0","pricing_plan_id":"cebpf4jnsgd1na2vs0mg"},{"bike_id":"b9ec24e4-af8e-4702-9c41-c918c65f86d5","system_id":"levelo_inurba_marseille","lat":43.292311,"lon":5.360731,"is_reserved":false,"is_disabled":false,"rental_uris":{"android":"levelo://app?vid=b9ec24e4-af8e-4702-9c41-c918c65f86d5","ios":"levelo://app?vid=b9ec24e4-af8e-4702-9c41-c918c65f86d5"},"vehicle_type_id":"4","last_reported":1710367585,"current_range_meters":20400,"station_id":"ce4bhbh2rcd13ifvqeqg","pricing_plan_id":"cebpf4jnsgd1na2vs0mg"},{"bike_id":"6dd57200-4359-4ec5-980b-a08b80aa66a5","system_id":"levelo_inurba_marseille","lat":43.30085,"lon":5.390856,"is_reserved":false,"is_disabled":false,"rental_uris":{"android":"levelo://app?vid=6dd57200-4359-4ec5-980b-a08b80aa66a5","ios":"levelo://app?vid=6dd57200-4359-4ec5-980b-a08b80aa66a5"},"vehicle_type_id":"4","last_reported":1710367585,"current_range_meters":19600,"station_id":"ce4bh192rcd13ifvqdb0","pricing_plan_id":"cebpf4jnsgd1na2vs0mg"},{"bike_id":"4f8b7c03-c09d-4c2b-8575-f707061e7c3b","system_id":"levelo_inurba_marseille","lat":43.300866,"lon":5.390831,"is_reserved":false,"is_disabled":false,"rental_uris":{"android":"levelo://app?vid=4f8b7c03-c09d-4c2b-8575-f707061e7c3b","ios":"levelo://app?vid=4f8b7c03-c09d-4c2b-8575-f707061e7c3b"},"vehicle_type_id":"4","last_reported":1710367585,"current_range_meters":0,"station_id":"","pricing_plan_id":"cebpf4jnsgd1na2vs0mg"},{"bike_id":"1b132897-84e5-4eeb-a7aa-2980d0e9b3de","system_id":"levelo_inurba_marseille","lat":43.30092,"lon":5.39093,"is_reserved":false,"is_disabled":false,"rental_uris":{"android":"levelo://app?vid=1b132897-84e5-4eeb-a7aa-2980d0e9b3de","ios":"levelo://app?vid=1b132897-84e5-4eeb-a7aa-2980d0e9b3de"},"vehicle_type_id":"4","last_reported":1710367585,"current_range_meters":2000,"station_id":"ce4bh192rcd13ifvqdb0","pricing_plan_id":"cebpf4jnsgd1na2vs0mg"},{"bike_id":"64a82bbd-fed2-492b-8c57-afad9be16d06","system_id":"levelo_inurba_marseille","lat":43.300852,"lon":5.390859,"is_reserved":false,"is_disabled":false,"rental_uris":{"android":"levelo://app?vid=64a82bbd-fed2-492b-8c57-afad9be16d06","ios":"levelo://app?vid=64a82bbd-fed2-492b-8c57-afad9be16d06"},"vehicle_type_id":"4","last_reported":1710367585,"current_range_meters":29200,"station_id":"ce4bh192rcd13ifvqdb0","pricing_plan_id":"cebpf4jnsgd1na2vs0mg"},{"bike_id":"9a76df40-5a2f-42bc-9271-2cf77c838da0","system_id":"levelo_inurba_marseille","lat":43.291708,"lon":5.371447,"is_reserved":false,"is_disabled":false,"rental_uris":{"android":"levelo://app?vid=9a76df40-5a2f-42bc-9271-2cf77c838da0","ios":"levelo://app?vid=9a76df40-5a2f-42bc-9271-2cf77c838da0"},"vehicle_type_id":"4","last_reported":1710367585,"current_range_meters":0,"station_id":"ce4bha92rcd13ifvqeh0","pricing_plan_id":"cebpf4jnsgd1na2vs0mg"},{"bike_id":"bdf80a15-6546-4dd6-af4b-b5b8d0460fb2","system_id":"levelo_inurba_marseille","lat":43.29172,"lon":5.37155,"is_reserved":false,"is_disabled":false,"rental_uris":{"android":"levelo://app?vid=bdf80a15-6546-4dd6-af4b-b5b8d0460fb2","ios":"levelo://app?vid=bdf80a15-6546-4dd6-af4b-b5b8d0460fb2"},"vehicle_type_id":"4","last_reported":1710367585,"current_range_meters":0,"station_id":"ce4bha92rcd13ifvqeh0","pricing_plan_id":"cebpf4jnsgd1na2vs0mg"},{"bike_id":"6d415451-6178-4712-8dc9-7685b602ab55","system_id":"levelo_inurba_marseille","lat":43.298764,"lon":5.388973,"is_reserved":false,"is_disabled":false,"rental_uris":{"android":"levelo://app?vid=6d415451-6178-4712-8dc9-7685b602ab55","ios":"levelo://app?vid=6d415451-6178-4712-8dc9-7685b602ab55"},"vehicle_type_id":"4","last_reported":1710367585,"current_range_meters":0,"station_id":"ce4bh392rcd13ifvqdl0","pricing_plan_id":"cebpf4jnsgd1na2vs0mg"},{"bike_id":"34433c93-787f-4306-9da8-502893c7eae2","system_id":"levelo_inurba_marseille","lat":43.29881,"lon":5.38914,"is_reserved":false,"is_disabled":false,"rental_uris":{"android":"levelo://app?vid=34433c93-787f-4306-9da8-502893c7eae2","ios":"levelo://app?vid=34433c93-787f-4306-9da8-502893c7eae2"},"vehicle_type_id":"4","last_reported":1710367585,"current_range_meters":18400,"station_id":"ce4bh392rcd13ifvqdl0","pricing_plan_id":"cebpf4jnsgd1na2vs0mg"},{"bike_id":"06070d6b-0dbd-424a-b2f1-dc2c51cdb434","system_id":"levelo_inurba_marseille","lat":43.291688,"lon":5.371734,"is_reserved":false,"is_disabled":false,"rental_uris":{"android":"levelo://app?vid=06070d6b-0dbd-424a-b2f1-dc2c51cdb434","ios":"levelo://app?vid=06070d6b-0dbd-424a-b2f1-dc2c51cdb434"},"vehicle_type_id":"4","last_reported":1710367585,"current_range_meters":0,"station_id":"ce4bha92rcd13ifvqeh0","pricing_plan_id":"cebpf4jnsgd1na2vs0mg"},{"bike_id":"7727e2ec-3cdd-49af-9094-43864130feed","system_id":"levelo_inurba_marseille","lat":43.29871,"lon":5.38914,"is_reserved":false,"is_disabled":false,"rental_uris":{"android":"levelo://app?vid=7727e2ec-3cdd-49af-9094-43864130feed","ios":"levelo://app?vid=7727e2ec-3cdd-49af-9094-43864130feed"},"vehicle_type_id":"4","last_reported":1710367585,"current_range_meters":16000,"station_id":"ce4bh392rcd13ifvqdl0","pricing_plan_id":"cebpf4jnsgd1na2vs0mg"},{"bike_id":"7047288c-5cea-4dd8-8b7e-7e3808344ed3","system_id":"levelo_inurba_marseille","lat":43.298654,"lon":5.389082,"is_reserved":false,"is_disabled":false,"rental_uris":{"android":"levelo://app?vid=7047288c-5cea-4dd8-8b7e-7e3808344ed3","ios":"levelo://app?vid=7047288c-5cea-4dd8-8b7e-7e3808344ed3"},"vehicle_type_id":"4","last_reported":1710367585,"current_range_meters":0,"station_id":"ce4bh392rcd13ifvqdl0","pricing_plan_id":"cebpf4jnsgd1na2vs0mg"},{"bike_id":"ac5098e4-f972-4791-a91e-d5f35878532b","system_id":"levelo_inurba_marseille","lat":43.29868,"lon":5.38914,"is_reserved":false,"is_disabled":false,"rental_uris":{"android":"levelo://app?vid=ac5098e4-f972-4791-a91e-d5f35878532b","ios":"levelo://app?vid=ac5098e4-f972-4791-a91e-d5f35878532b"},"vehicle_type_id":"4","last_reported":1710367585,"current_range_meters":11200,"station_id":"ce4bh392rcd13ifvqdl0","pricing_plan_id":"cebpf4jnsgd1na2vs0mg"},{"bike_id":"b255a1cf-2194-4f5f-9b9e-8f8fae9f054c","system_id":"levelo_inurba_marseille","lat":43.29443,"lon":5.38292,"is_reserved":false,"is_disabled":false,"rental_uris":{"android":"levelo://app?vid=b255a1cf-2194-4f5f-9b9e-8f8fae9f054c","ios":"levelo://app?vid=b255a1cf-2194-4f5f-9b9e-8f8fae9f054c"},"vehicle_type_id":"4","last_reported":1710367585,"current_range_meters":3200,"station_id":"","pricing_plan_id":"cebpf4jnsgd1na2vs0mg"},{"bike_id":"73960a28-59ba-49c9-91d5-69ed04f83384","system_id":"levelo_inurba_marseille","lat":43.309047,"lon":5.396551,"is_reserved":false,"is_disabled":false,"rental_uris":{"android":"levelo://app?vid=73960a28-59ba-49c9-91d5-69ed04f83384","ios":"levelo://app?vid=73960a28-59ba-49c9-91d5-69ed04f83384"},"vehicle_type_id":"4","last_reported":1710367585,"current_range_meters":28000,"station_id":"ce4bh012rcd13ifvqcv0","pricing_plan_id":"cebpf4jnsgd1na2vs0mg"},{"bike_id":"a2e38577-bbf4-4bee-83bc-3f2b569375f7","system_id":"levelo_inurba_marseille","lat":43.309038,"lon":5.396546,"is_reserved":false,"is_disabled":false,"rental_uris":{"android":"levelo://app?vid=a2e38577-bbf4-4bee-83bc-3f2b569375f7","ios":"levelo://app?vid=a2e38577-bbf4-4bee-83bc-3f2b569375f7"},"vehicle_type_id":"4","last_reported":1710367585,"current_range_meters":19200,"station_id":"ce4bh012rcd13ifvqcv0","pricing_plan_id":"cebpf4jnsgd1na2vs0mg"},{"bike_id":"f30e2c95-03b8-4378-adbc-3f69ee0f341e","system_id":"levelo_inurba_marseille","lat":43.291994,"lon":5.357886,"is_reserved":false,"is_disabled":false,"rental_uris":{"android":"levelo://app?vid=f30e2c95-03b8-4378-adbc-3f69ee0f341e","ios":"levelo://app?vid=f30e2c95-03b8-4378-adbc-3f69ee0f341e"},"vehicle_type_id":"4","last_reported":1710367585,"current_range_meters":5200,"station_id":"ce4bhb12rcd13ifvqel0","pricing_plan_id":"cebpf4jnsgd1na2vs0mg"},{"bike_id":"57159437-2105-4af5-9649-b49659bd5024","system_id":"levelo_inurba_marseille","lat":43.291957,"lon":5.357917,"is_reserved":false,"is_disabled":false,"rental_uris":{"android":"levelo://app?vid=57159437-2105-4af5-9649-b49659bd5024","ios":"levelo://app?vid=57159437-2105-4af5-9649-b49659bd5024"},"vehicle_type_id":"4","last_reported":1710367585,"current_range_meters":29600,"station_id":"ce4bhb12rcd13ifvqel0","pricing_plan_id":"cebpf4jnsgd1na2vs0mg"},{"bike_id":"6466c061-daf0-4011-a038-3ab4988a4158","system_id":"levelo_inurba_marseille","lat":43.309038,"lon":5.396546,"is_reserved":false,"is_disabled":false,"rental_uris":{"android":"levelo://app?vid=6466c061-daf0-4011-a038-3ab4988a4158","ios":"levelo://app?vid=6466c061-daf0-4011-a038-3ab4988a4158"},"vehicle_type_id":"4","last_reported":1710367585,"current_range_meters":28800,"station_id":"ce4bh012rcd13ifvqcv0","pricing_plan_id":"cebpf4jnsgd1na2vs0mg"},{"bike_id":"e1299490-cbd8-4dd3-9c53-d338cfaed0f1","system_id":"levelo_inurba_marseille","lat":43.29195,"lon":5.35786,"is_reserved":false,"is_disabled":false,"rental_uris":{"android":"levelo://app?vid=e1299490-cbd8-4dd3-9c53-d338cfaed0f1","ios":"levelo://app?vid=e1299490-cbd8-4dd3-9c53-d338cfaed0f1"},"vehicle_type_id":"4","last_reported":1710367585,"current_range_meters":19200,"station_id":"ce4bhb12rcd13ifvqel0","pricing_plan_id":"cebpf4jnsgd1na2vs0mg"},{"bike_id":"798fdac6-50a9-4398-b0f8-3dea6cccfd8c","system_id":"levelo_inurba_marseille","lat":43.313291,"lon":5.396838,"is_reserved":false,"is_disabled":false,"rental_uris":{"android":"levelo://app?vid=798fdac6-50a9-4398-b0f8-3dea6cccfd8c","ios":"levelo://app?vid=798fdac6-50a9-4398-b0f8-3dea6cccfd8c"},"vehicle_type_id":"4","last_reported":1710367585,"current_range_meters":8800,"station_id":"ce4bgvp2rcd13ifvqcu0","pricing_plan_id":"cebpf4jnsgd1na2vs0mg"},{"bike_id":"5eda10d7-d18c-4635-8754-6f2c958fe567","system_id":"levelo_inurba_marseille","lat":43.313291,"lon":5.396838,"is_reserved":false,"is_disabled":false,"rental_uris":{"android":"levelo://app?vid=5eda10d7-d18c-4635-8754-6f2c958fe567","ios":"levelo://app?vid=5eda10d7-d18c-4635-8754-6f2c958fe567"},"vehicle_type_id":"4","last_reported":1710367585,"current_range_meters":31200,"station_id":"ce4bgvp2rcd13ifvqcu0","pricing_plan_id":"cebpf4jnsgd1na2vs0mg"},{"bike_id":"3199e820-be26-4bfa-b0b9-3fcfca76759c","system_id":"levelo_inurba_marseille","lat":43.309047,"lon":5.396551,"is_reserved":false,"is_disabled":false,"rental_uris":{"android":"levelo://app?vid=3199e820-be26-4bfa-b0b9-3fcfca76759c","ios":"levelo://app?vid=3199e820-be26-4bfa-b0b9-3fcfca76759c"},"vehicle_type_id":"4","last_reported":1710367585,"current_range_meters":4800,"station_id":"ce4bh012rcd13ifvqcv0","pricing_plan_id":"cebpf4jnsgd1na2vs0mg"},{"bike_id":"a1499186-1fee-4200-bb8a-3a11d73de30a","system_id":"levelo_inurba_marseille","lat":43.313291,"lon":5.396838,"is_reserved":false,"is_disabled":false,"rental_uris":{"android":"levelo://app?vid=a1499186-1fee-4200-bb8a-3a11d73de30a","ios":"levelo://app?vid=a1499186-1fee-4200-bb8a-3a11d73de30a"},"vehicle_type_id":"4","last_reported":1710367585,"current_range_meters":10400,"station_id":"ce4bgvp2rcd13ifvqcu0","pricing_plan_id":"cebpf4jnsgd1na2vs0mg"},{"bike_id":"da3c1d32-73b8-43bf-86c0-78227698ee9c","system_id":"levelo_inurba_marseille","lat":43.313291,"lon":5.396838,"is_reserved":false,"is_disabled":false,"rental_uris":{"android":"levelo://app?vid=da3c1d32-73b8-43bf-86c0-78227698ee9c","ios":"levelo://app?vid=da3c1d32-73b8-43bf-86c0-78227698ee9c"},"vehicle_type_id":"4","last_reported":1710367585,"current_range_meters":16800,"station_id":"ce4bgvp2rcd13ifvqcu0","pricing_plan_id":"cebpf4jnsgd1na2vs0mg"},{"bike_id":"e15da1fa-2ae9-4a2a-a945-cf0cc0e2fa87","system_id":"levelo_inurba_marseille","lat":43.313291,"lon":5.396838,"is_reserved":false,"is_disabled":false,"rental_uris":{"android":"levelo://app?vid=e15da1fa-2ae9-4a2a-a945-cf0cc0e2fa87","ios":"levelo://app?vid=e15da1fa-2ae9-4a2a-a945-cf0cc0e2fa87"},"vehicle_type_id":"4","last_reported":1710367585,"current_range_meters":2400,"station_id":"ce4bgvp2rcd13ifvqcu0","pricing_plan_id":"cebpf4jnsgd1na2vs0mg"},{"bike_id":"38730035-d98e-45d3-929a-2395cd2a004e","system_id":"levelo_inurba_marseille","lat":43.309038,"lon":5.396546,"is_reserved":false,"is_disabled":false,"rental_uris":{"android":"levelo://app?vid=38730035-d98e-45d3-929a-2395cd2a004e","ios":"levelo://app?vid=38730035-d98e-45d3-929a-2395cd2a004e"},"vehicle_type_id":"4","last_reported":1710367585,"current_range_meters":11200,"station_id":"ce4bh012rcd13ifvqcv0","pricing_plan_id":"cebpf4jnsgd1na2vs0mg"},{"bike_id":"383e13ff-4d9e-4300-b85d-02713f989ede","system_id":"levelo_inurba_marseille","lat":43.309038,"lon":5.396546,"is_reserved":false,"is_disabled":false,"rental_uris":{"android":"levelo://app?vid=383e13ff-4d9e-4300-b85d-02713f989ede","ios":"levelo://app?vid=383e13ff-4d9e-4300-b85d-02713f989ede"},"vehicle_type_id":"4","last_reported":1710367585,"current_range_meters":20800,"station_id":"ce4bh012rcd13ifvqcv0","pricing_plan_id":"cebpf4jnsgd1na2vs0mg"},{"bike_id":"dbaec713-6c5a-4b2d-859c-57e81b198185","system_id":"levelo_inurba_marseille","lat":43.30882,"lon":5.3965,"is_reserved":false,"is_disabled":false,"rental_uris":{"android":"levelo://app?vid=dbaec713-6c5a-4b2d-859c-57e81b198185","ios":"levelo://app?vid=dbaec713-6c5a-4b2d-859c-57e81b198185"},"vehicle_type_id":"4","last_reported":1710367585,"current_range_meters":0,"station_id":"ce4bh012rcd13ifvqcv0","pricing_plan_id":"cebpf4jnsgd1na2vs0mg"},{"bike_id":"ff66d567-844c-450b-8438-ec067cbc66b4","system_id":"levelo_inurba_marseille","lat":43.309047,"lon":5.396551,"is_reserved":false,"is_disabled":false,"rental_uris":{"android":"levelo://app?vid=ff66d567-844c-450b-8438-ec067cbc66b4","ios":"levelo://app?vid=ff66d567-844c-450b-8438-ec067cbc66b4"},"vehicle_type_id":"4","last_reported":1710367585,"current_range_meters":8000,"station_id":"ce4bh012rcd13ifvqcv0","pricing_plan_id":"cebpf4jnsgd1na2vs0mg"},{"bike_id":"c6144752-6857-403e-b5ac-35596800ba9b","system_id":"levelo_inurba_marseille","lat":43.309038,"lon":5.396546,"is_reserved":false,"is_disabled":false,"rental_uris":{"android":"levelo://app?vid=c6144752-6857-403e-b5ac-35596800ba9b","ios":"levelo://app?vid=c6144752-6857-403e-b5ac-35596800ba9b"},"vehicle_type_id":"4","last_reported":1710367585,"current_range_meters":25600,"station_id":"ce4bh012rcd13ifvqcv0","pricing_plan_id":"cebpf4jnsgd1na2vs0mg"},{"bike_id":"13694558-4658-441b-b69b-0ea65164c78e","system_id":"levelo_inurba_marseille","lat":43.309047,"lon":5.396551,"is_reserved":false,"is_disabled":false,"rental_uris":{"android":"levelo://app?vid=13694558-4658-441b-b69b-0ea65164c78e","ios":"levelo://app?vid=13694558-4658-441b-b69b-0ea65164c78e"},"vehicle_type_id":"4","last_reported":1710367585,"current_range_meters":10800,"station_id":"ce4bh012rcd13ifvqcv0","pricing_plan_id":"cebpf4jnsgd1na2vs0mg"},{"bike_id":"5d0802cf-9073-46b9-84de-f04ccbf1c750","system_id":"levelo_inurba_marseille","lat":43.309047,"lon":5.396551,"is_reserved":false,"is_disabled":false,"rental_uris":{"android":"levelo://app?vid=5d0802cf-9073-46b9-84de-f04ccbf1c750","ios":"levelo://app?vid=5d0802cf-9073-46b9-84de-f04ccbf1c750"},"vehicle_type_id":"4","last_reported":1710367585,"current_range_meters":4000,"station_id":"ce4bh012rcd13ifvqcv0","pricing_plan_id":"cebpf4jnsgd1na2vs0mg"},{"bike_id":"eba905df-c8f6-424c-a084-c260351db0de","system_id":"levelo_inurba_marseille","lat":43.309047,"lon":5.396551,"is_reserved":false,"is_disabled":false,"rental_uris":{"android":"levelo://app?vid=eba905df-c8f6-424c-a084-c260351db0de","ios":"levelo://app?vid=eba905df-c8f6-424c-a084-c260351db0de"},"vehicle_type_id":"4","last_reported":1710367585,"current_range_meters":12000,"station_id":"ce4bh012rcd13ifvqcv0","pricing_plan_id":"cebpf4jnsgd1na2vs0mg"},{"bike_id":"eb54f43e-eeba-4b5b-a894-515e732c8e09","system_id":"levelo_inurba_marseille","lat":43.29529,"lon":5.385581,"is_reserved":false,"is_disabled":false,"rental_uris":{"android":"levelo://app?vid=eb54f43e-eeba-4b5b-a894-515e732c8e09","ios":"levelo://app?vid=eb54f43e-eeba-4b5b-a894-515e732c8e09"},"vehicle_type_id":"4","last_reported":1710367585,"current_range_meters":28000,"station_id":"ce4bgih2rcd13ifvqba0","pricing_plan_id":"cebpf4jnsgd1na2vs0mg"},{"bike_id":"b35f7506-c3a4-4545-b3e0-bc4dea0489fc","system_id":"levelo_inurba_marseille","lat":43.309047,"lon":5.396551,"is_reserved":false,"is_disabled":false,"rental_uris":{"android":"levelo://app?vid=b35f7506-c3a4-4545-b3e0-bc4dea0489fc","ios":"levelo://app?vid=b35f7506-c3a4-4545-b3e0-bc4dea0489fc"},"vehicle_type_id":"4","last_reported":1710367585,"current_range_meters":15600,"station_id":"ce4bh012rcd13ifvqcv0","pricing_plan_id":"cebpf4jnsgd1na2vs0mg"},{"bike_id":"9e0f41d8-d52b-47f9-812f-6e8aa8f833a6","system_id":"levelo_inurba_marseille","lat":43.29529,"lon":5.385581,"is_reserved":false,"is_disabled":false,"rental_uris":{"android":"levelo://app?vid=9e0f41d8-d52b-47f9-812f-6e8aa8f833a6","ios":"levelo://app?vid=9e0f41d8-d52b-47f9-812f-6e8aa8f833a6"},"vehicle_type_id":"4","last_reported":1710367585,"current_range_meters":28400,"station_id":"ce4bgih2rcd13ifvqba0","pricing_plan_id":"cebpf4jnsgd1na2vs0mg"},{"bike_id":"76eee499-6652-4c5e-a9d9-295a59f0f053","system_id":"levelo_inurba_marseille","lat":43.292869,"lon":5.379815,"is_reserved":false,"is_disabled":false,"rental_uris":{"android":"levelo://app?vid=76eee499-6652-4c5e-a9d9-295a59f0f053","ios":"levelo://app?vid=76eee499-6652-4c5e-a9d9-295a59f0f053"},"vehicle_type_id":"4","last_reported":1710367585,"current_range_meters":18000,"station_id":"","pricing_plan_id":"cebpf4jnsgd1na2vs0mg"},{"bike_id":"cf6a31cc-fd9a-426e-8e02-cd4f6737c338","system_id":"levelo_inurba_marseille","lat":43.29529,"lon":5.385581,"is_reserved":false,"is_disabled":false,"rental_uris":{"android":"levelo://app?vid=cf6a31cc-fd9a-426e-8e02-cd4f6737c338","ios":"levelo://app?vid=cf6a31cc-fd9a-426e-8e02-cd4f6737c338"},"vehicle_type_id":"4","last_reported":1710367585,"current_range_meters":28000,"station_id":"ce4bgih2rcd13ifvqba0","pricing_plan_id":"cebpf4jnsgd1na2vs0mg"},{"bike_id":"765b1346-e382-4a96-b04e-9ad55deeb209","system_id":"levelo_inurba_marseille","lat":43.29529,"lon":5.385581,"is_reserved":false,"is_disabled":false,"rental_uris":{"android":"levelo://app?vid=765b1346-e382-4a96-b04e-9ad55deeb209","ios":"levelo://app?vid=765b1346-e382-4a96-b04e-9ad55deeb209"},"vehicle_type_id":"4","last_reported":1710367585,"current_range_meters":25600,"station_id":"ce4bgih2rcd13ifvqba0","pricing_plan_id":"cebpf4jnsgd1na2vs0mg"},{"bike_id":"f3cbb09e-450c-442e-8a52-4a17c982d225","system_id":"levelo_inurba_marseille","lat":43.29529,"lon":5.385581,"is_reserved":false,"is_disabled":false,"rental_uris":{"android":"levelo://app?vid=f3cbb09e-450c-442e-8a52-4a17c982d225","ios":"levelo://app?vid=f3cbb09e-450c-442e-8a52-4a17c982d225"},"vehicle_type_id":"4","last_reported":1710367585,"current_range_meters":28400,"station_id":"ce4bgih2rcd13ifvqba0","pricing_plan_id":"cebpf4jnsgd1na2vs0mg"},{"bike_id":"799bd1a3-c4aa-46dd-9bc9-819167dff962","system_id":"levelo_inurba_marseille","lat":43.29529,"lon":5.385581,"is_reserved":false,"is_disabled":false,"rental_uris":{"android":"levelo://app?vid=799bd1a3-c4aa-46dd-9bc9-819167dff962","ios":"levelo://app?vid=799bd1a3-c4aa-46dd-9bc9-819167dff962"},"vehicle_type_id":"4","last_reported":1710367585,"current_range_meters":11600,"station_id":"ce4bgih2rcd13ifvqba0","pricing_plan_id":"cebpf4jnsgd1na2vs0mg"},{"bike_id":"6b0b6f75-686c-4dc7-bd8a-1d6e22c49cc7","system_id":"levelo_inurba_marseille","lat":43.29529,"lon":5.385581,"is_reserved":false,"is_disabled":false,"rental_uris":{"android":"levelo://app?vid=6b0b6f75-686c-4dc7-bd8a-1d6e22c49cc7","ios":"levelo://app?vid=6b0b6f75-686c-4dc7-bd8a-1d6e22c49cc7"},"vehicle_type_id":"4","last_reported":1710367585,"current_range_meters":15600,"station_id":"ce4bgih2rcd13ifvqba0","pricing_plan_id":"cebpf4jnsgd1na2vs0mg"},{"bike_id":"6649d5da-bf3e-4ef1-9d6d-cfb1105dc98b","system_id":"levelo_inurba_marseille","lat":43.29529,"lon":5.385581,"is_reserved":false,"is_disabled":false,"rental_uris":{"android":"levelo://app?vid=6649d5da-bf3e-4ef1-9d6d-cfb1105dc98b","ios":"levelo://app?vid=6649d5da-bf3e-4ef1-9d6d-cfb1105dc98b"},"vehicle_type_id":"4","last_reported":1710367585,"current_range_meters":22800,"station_id":"ce4bgih2rcd13ifvqba0","pricing_plan_id":"cebpf4jnsgd1na2vs0mg"},{"bike_id":"277df598-5d08-4f52-9295-2bbac047a220","system_id":"levelo_inurba_marseille","lat":43.29529,"lon":5.385581,"is_reserved":false,"is_disabled":false,"rental_uris":{"android":"levelo://app?vid=277df598-5d08-4f52-9295-2bbac047a220","ios":"levelo://app?vid=277df598-5d08-4f52-9295-2bbac047a220"},"vehicle_type_id":"4","last_reported":1710367585,"current_range_meters":12800,"station_id":"ce4bgih2rcd13ifvqba0","pricing_plan_id":"cebpf4jnsgd1na2vs0mg"},{"bike_id":"194629d8-9c67-45fb-8a69-4918fe30f6dc","system_id":"levelo_inurba_marseille","lat":43.29529,"lon":5.385581,"is_reserved":false,"is_disabled":false,"rental_uris":{"android":"levelo://app?vid=194629d8-9c67-45fb-8a69-4918fe30f6dc","ios":"levelo://app?vid=194629d8-9c67-45fb-8a69-4918fe30f6dc"},"vehicle_type_id":"4","last_reported":1710367585,"current_range_meters":22800,"station_id":"ce4bgih2rcd13ifvqba0","pricing_plan_id":"cebpf4jnsgd1na2vs0mg"},{"bike_id":"62332cc6-5cd6-42eb-a6ec-394939ac0c02","system_id":"levelo_inurba_marseille","lat":43.29529,"lon":5.385581,"is_reserved":false,"is_disabled":false,"rental_uris":{"android":"levelo://app?vid=62332cc6-5cd6-42eb-a6ec-394939ac0c02","ios":"levelo://app?vid=62332cc6-5cd6-42eb-a6ec-394939ac0c02"},"vehicle_type_id":"4","last_reported":1710367585,"current_range_meters":2800,"station_id":"ce4bgih2rcd13ifvqba0","pricing_plan_id":"cebpf4jnsgd1na2vs0mg"},{"bike_id":"4ae2f4da-fcf4-42d4-995c-4aa8c454f052","system_id":"levelo_inurba_marseille","lat":43.29529,"lon":5.385581,"is_reserved":false,"is_disabled":false,"rental_uris":{"android":"levelo://app?vid=4ae2f4da-fcf4-42d4-995c-4aa8c454f052","ios":"levelo://app?vid=4ae2f4da-fcf4-42d4-995c-4aa8c454f052"},"vehicle_type_id":"4","last_reported":1710367585,"current_range_meters":9200,"station_id":"ce4bgih2rcd13ifvqba0","pricing_plan_id":"cebpf4jnsgd1na2vs0mg"},{"bike_id":"e5156867-16ed-4830-a411-720899805f04","system_id":"levelo_inurba_marseille","lat":43.290779,"lon":5.371482,"is_reserved":false,"is_disabled":false,"rental_uris":{"android":"levelo://app?vid=e5156867-16ed-4830-a411-720899805f04","ios":"levelo://app?vid=e5156867-16ed-4830-a411-720899805f04"},"vehicle_type_id":"4","last_reported":1710367585,"current_range_meters":21200,"station_id":"ce4bh5p2rcd13ifvqe4g","pricing_plan_id":"cebpf4jnsgd1na2vs0mg"},{"bike_id":"dd7b9cd8-8a1b-470c-afd3-4b08103327c2","system_id":"levelo_inurba_marseille","lat":43.290779,"lon":5.371482,"is_reserved":false,"is_disabled":false,"rental_uris":{"android":"levelo://app?vid=dd7b9cd8-8a1b-470c-afd3-4b08103327c2","ios":"levelo://app?vid=dd7b9cd8-8a1b-470c-afd3-4b08103327c2"},"vehicle_type_id":"4","last_reported":1710367585,"current_range_meters":22000,"station_id":"ce4bh5p2rcd13ifvqe4g","pricing_plan_id":"cebpf4jnsgd1na2vs0mg"},{"bike_id":"fc39e219-f0f5-438a-ac55-a10c5971e6c1","system_id":"levelo_inurba_marseille","lat":43.290779,"lon":5.371482,"is_reserved":false,"is_disabled":false,"rental_uris":{"android":"levelo://app?vid=fc39e219-f0f5-438a-ac55-a10c5971e6c1","ios":"levelo://app?vid=fc39e219-f0f5-438a-ac55-a10c5971e6c1"},"vehicle_type_id":"4","last_reported":1710367585,"current_range_meters":24400,"station_id":"ce4bh5p2rcd13ifvqe4g","pricing_plan_id":"cebpf4jnsgd1na2vs0mg"},{"bike_id":"62778cbf-7b6c-4590-8606-9e104730bfaf","system_id":"levelo_inurba_marseille","lat":43.290624,"lon":5.359245,"is_reserved":false,"is_disabled":false,"rental_uris":{"android":"levelo://app?vid=62778cbf-7b6c-4590-8606-9e104730bfaf","ios":"levelo://app?vid=62778cbf-7b6c-4590-8606-9e104730bfaf"},"vehicle_type_id":"4","last_reported":1710367585,"current_range_meters":12800,"station_id":"ce4bha92rcd13ifvqeg0","pricing_plan_id":"cebpf4jnsgd1na2vs0mg"},{"bike_id":"c1674734-4717-43d7-87e9-33c8589467f8","system_id":"levelo_inurba_marseille","lat":43.290631,"lon":5.359244,"is_reserved":false,"is_disabled":false,"rental_uris":{"android":"levelo://app?vid=c1674734-4717-43d7-87e9-33c8589467f8","ios":"levelo://app?vid=c1674734-4717-43d7-87e9-33c8589467f8"},"vehicle_type_id":"4","last_reported":1710367585,"current_range_meters":26000,"station_id":"ce4bha92rcd13ifvqeg0","pricing_plan_id":"cebpf4jnsgd1na2vs0mg"},{"bike_id":"02b38b22-4cfd-4a35-bde4-09aff873f470","system_id":"levelo_inurba_marseille","lat":43.290624,"lon":5.359245,"is_reserved":false,"is_disabled":false,"rental_uris":{"android":"levelo://app?vid=02b38b22-4cfd-4a35-bde4-09aff873f470","ios":"levelo://app?vid=02b38b22-4cfd-4a35-bde4-09aff873f470"},"vehicle_type_id":"4","last_reported":1710367585,"current_range_meters":23600,"station_id":"ce4bha92rcd13ifvqeg0","pricing_plan_id":"cebpf4jnsgd1na2vs0mg"},{"bike_id":"414ad2e9-3dc1-4656-9ef2-f27b88ddc9c0","system_id":"levelo_inurba_marseille","lat":43.290631,"lon":5.359244,"is_reserved":false,"is_disabled":false,"rental_uris":{"android":"levelo://app?vid=414ad2e9-3dc1-4656-9ef2-f27b88ddc9c0","ios":"levelo://app?vid=414ad2e9-3dc1-4656-9ef2-f27b88ddc9c0"},"vehicle_type_id":"4","last_reported":1710367585,"current_range_meters":16000,"station_id":"ce4bha92rcd13ifvqeg0","pricing_plan_id":"cebpf4jnsgd1na2vs0mg"},{"bike_id":"a7767ad0-e1b3-4864-b9e0-9f9f212fe4e8","system_id":"levelo_inurba_marseille","lat":43.29425,"lon":5.38625,"is_reserved":false,"is_disabled":false,"rental_uris":{"android":"levelo://app?vid=a7767ad0-e1b3-4864-b9e0-9f9f212fe4e8","ios":"levelo://app?vid=a7767ad0-e1b3-4864-b9e0-9f9f212fe4e8"},"vehicle_type_id":"4","last_reported":1710367585,"current_range_meters":0,"station_id":"ce4bh2h2rcd13ifvqdh0","pricing_plan_id":"cebpf4jnsgd1na2vs0mg"},{"bike_id":"dc347466-7ba5-4279-999e-56821425356e","system_id":"levelo_inurba_marseille","lat":43.29424,"lon":5.38627,"is_reserved":false,"is_disabled":false,"rental_uris":{"android":"levelo://app?vid=dc347466-7ba5-4279-999e-56821425356e","ios":"levelo://app?vid=dc347466-7ba5-4279-999e-56821425356e"},"vehicle_type_id":"4","last_reported":1710367585,"current_range_meters":0,"station_id":"ce4bh2h2rcd13ifvqdh0","pricing_plan_id":"cebpf4jnsgd1na2vs0mg"},{"bike_id":"8d4ddaa5-920b-4162-afc9-fbef5f20c872","system_id":"levelo_inurba_marseille","lat":43.29424,"lon":5.38629,"is_reserved":false,"is_disabled":false,"rental_uris":{"android":"levelo://app?vid=8d4ddaa5-920b-4162-afc9-fbef5f20c872","ios":"levelo://app?vid=8d4ddaa5-920b-4162-afc9-fbef5f20c872"},