{"last_updated":1756210945,"ttl":60,"version":"2.2","data":{"bikes":[{"bike_id":"206b1978-afb1-437f-9c77-94b187669057","system_id":"levelo_inurba_marseille","lat":43.30289,"lon":5.39218,"is_reserved":false,"is_disabled":false,"rental_uris":{"android":"levelo://app?vid=206b1978-afb1-437f-9c77-94b187669057","ios":"levelo://app?vid=206b1978-afb1-437f-9c77-94b187669057"},"vehicle_type_id":"4","last_reported":1756210945,"current_range_meters":2800,"station_id":"ce4bgkh2rcd13ifvqbk0","pricing_plan_id":"cebpf4jnsgd1na2vs0mg"},{"bike_id":"d9a89b89-d452-409d-8395-028578daa6ec","system_id":"levelo_inurba_marseille","lat":43.30263,"lon":5.40073,"is_reserved":false,"is_disabled":false,"rental_uris":{"android":"levelo://app?vid=d9a89b89-d452-409d-8395-028578daa6ec","ios":"levelo://app?vid=d9a89b89-d452-409d-8395-028578daa6ec"},"vehicle_type_id":"4","last_reported":1756210945,"current_range_meters":2000,"station_id":"ce4bgvh2rcd13ifvqcs0","pricing_plan_id":"cebpf4jnsgd1na2vs0mg"},{"bike_id":"5a94cd1f-5ae1-47d0-a15d-d5554856827f","system_id":"levelo_inurba_marseille","lat":43.3058,"lon":5.37524,"is_reserved":false,"is_disabled":false,"rental_uris":{"android":"levelo://app?vid=5a94cd1f-5ae1-47d0-a15d-d5554856827f","ios":"levelo://app?vid=5a94cd1f-5ae1-47d0-a15d-d5554856827f"},"vehicle_type_id":"4","last_reported":1756210945,"current_range_meters":3200,"station_id":"","pricing_plan_id":"cebpf4jnsgd1na2vs0mg"},{"bike_id":"0490c530-845d-44f9-bf75-09a8b4d2b9b9","system_id":"levelo_inurba_marseille","lat":43.297498,"lon":5.380849,"is_reserved":false,"is_disabled":false,"rental_uris":{"android":"levelo://app?vid=0490c530-845d-44f9-bf75-09a8b4d2b9b9","ios":"levelo://app?vid=0490c530-845d-44f9-bf75-09a8b4d2b9b9"},"vehicle_type_id":"4","last_reported":1756210945,"current_range_meters":3200,"station_id":"ce4bgip2rcd13ifvqbb0","pricing_plan_id":"cebpf4jnsgd1na2vs0mg"},{"bike_id":"e7dab58f-c69f-4c88-a629-e8909078ae96","system_id":"levelo_inurba_marseille","lat":43.291891,"lon":5.358065,"is_reserved":false,"is_disabled":false,"rental_uris":{"android":"levelo://app?vid=e7dab58f-c69f-4c88-a629-e8909078ae96","ios":"levelo://app?vid=e7dab58f-c69f-4c88-a629-e8909078ae96"},"vehicle_type_id":"4","last_reported":1756210945,"current_range_meters":3200,"station_id":"ce4bh8p2rcd13ifvqeb0","pricing_plan_id":"cebpf4jnsgd1na2vs0mg"},{"bike_id":"158fe4a9-48cc-491f-95fd-2aa73bd55cc0","system_id":"levelo_inurba_marseille","lat":43.30512,"lon":5.36883,"is_reserved":false,"is_disabled":false,"rental_uris":{"android":"levelo://app?vid=158fe4a9-48cc-491f-95fd-2aa73bd55cc0","ios":"levelo://app?vid=158fe4a9-48cc-491f-95fd-2aa73bd55cc0"},"vehicle_type_id":"4","last_reported":1756210945,"current_range_meters":3200,"station_id":"","pricing_plan_id":"cebpf4jnsgd1na2vs0mg"},{"bike_id":"7af55303-5a72-493f-a5da-272d64d724af","system_id":"levelo_inurba_marseille","lat":43.24391,"lon":5.37059,"is_reserved":false,"is_disabled":false,"rental_uris":{"android":"levelo://app?vid=7af55303-5a72-493f-a5da-272d64d724af","ios":"levelo://app?vid=7af55303-5a72-493f-a5da-272d64d724af"},"vehicle_type_id":"4","last_reported":1756210945,"current_range_meters":3600,"station_id":"ce4bhhh2rcd13ifvqfk0","pricing_plan_id":"cebpf4jnsgd1na2vs0mg"},{"bike_id":"bf3bcfd9-6f1d-4506-a1c7-481f6045ebcc","system_id":"levelo_inurba_marseille","lat":43.298767,"lon":5.397061,"is_reserved":false,"is_disabled":false,"rental_uris":{"android":"levelo://app?vid=bf3bcfd9-6f1d-4506-a1c7-481f6045ebcc","ios":"levelo://app?vid=bf3bcfd9-6f1d-4506-a1c7-481f6045ebcc"},"vehicle_type_id":"4","last_reported":1756210945,"current_range_meters":3600,"station_id":"ce4bh0h2rcd13ifvqd50","pricing_plan_id":"cebpf4jnsgd1na2vs0mg"},{"bike_id":"8278d03d-5584-48a8-a86a-7847a162c713","system_id":"levelo_inurba_marseille","lat":43.30927,"lon":5.38167,"is_reserved":false,"is_disabled":false,"rental_uris":{"android":"levelo://app?vid=8278d03d-5584-48a8-a86a-7847a162c713","ios":"levelo://app?vid=8278d03d-5584-48a8-a86a-7847a162c713"},"vehicle_type_id":"4","last_reported":1756210945,"current_range_meters":3600,"station_id":"","pricing_plan_id":"cebpf4jnsgd1na2vs0mg"},{"bike_id":"10240fbf-de2b-449c-9439-a7414aacdd93","system_id":"levelo_inurba_marseille","lat":43.29192,"lon":5.39302,"is_reserved":false,"is_disabled":false,"rental_uris":{"android":"levelo://app?vid=10240fbf-de2b-449c-9439-a7414aacdd93","ios":"levelo://app?vid=10240fbf-de2b-449c-9439-a7414aacdd93"},"vehicle_type_id":"4","last_reported":1756210945,"current_range_meters":4000,"station_id":"ce4bh192rcd13ifvqdd0","pricing_plan_id":"cebpf4jnsgd1na2vs0mg"},{"bike_id":"67eaa652-e0e9-4527-96a7-279f7a8f8a03","system_id":"levelo_inurba_marseille","lat":43.29261,"lon":5.40907,"is_reserved":false,"is_disabled":false,"rental_uris":{"android":"levelo://app?vid=67eaa652-e0e9-4527-96a7-279f7a8f8a03","ios":"levelo://app?vid=67eaa652-e0e9-4527-96a7-279f7a8f8a03"},"vehicle_type_id":"4","last_reported":1756210945,"current_range_meters":4000,"station_id":"ce4bh192rcd13ifvqdc0","pricing_plan_id":"cebpf4jnsgd1na2vs0mg"},{"bike_id":"711c393c-5ff5-42aa-a52d-5f8d06a96201","system_id":"levelo_inurba_marseille","lat":43.27973,"lon":5.38743,"is_reserved":false,"is_disabled":false,"rental_uris":{"android":"levelo://app?vid=711c393c-5ff5-42aa-a52d-5f8d06a96201","ios":"levelo://app?vid=711c393c-5ff5-42aa-a52d-5f8d06a96201"},"vehicle_type_id":"4","last_reported":1756210945,"current_range_meters":4400,"station_id":"ce4bhg12rcd13ifvqf80","pricing_plan_id":"cebpf4jnsgd1na2vs0mg"},{"bike_id":"c9e021c4-de4c-487c-9dd6-3cd9dd16eb66","system_id":"levelo_inurba_marseille","lat":43.30912,"lon":5.36839,"is_reserved":false,"is_disabled":false,"rental_uris":{"android":"levelo://app?vid=c9e021c4-de4c-487c-9dd6-3cd9dd16eb66","ios":"levelo://app?vid=c9e021c4-de4c-487c-9dd6-3cd9dd16eb66"},"vehicle_type_id":"4","last_reported":1756210945,"current_range_meters":4400,"station_id":"ce4bgn92rcd13ifvqbvg","pricing_plan_id":"cebpf4jnsgd1na2vs0mg"},{"bike_id":"1458a041-9d9d-4475-914e-dc407a7a6ce5","system_id":"levelo_inurba_marseille","lat":43.24388,"lon":5.37064,"is_reserved":false,"is_disabled":false,"rental_uris":{"android":"levelo://app?vid=1458a041-9d9d-4475-914e-dc407a7a6ce5","ios":"levelo://app?vid=1458a041-9d9d-4475-914e-dc407a7a6ce5"},"vehicle_type_id":"4","last_reported":1756210945,"current_range_meters":4800,"station_id":"ce4bhhh2rcd13ifvqfk0","pricing_plan_id":"cebpf4jnsgd1na2vs0mg"},{"bike_id":"70da21d6-59bc-4110-9660-375f7695dd04","system_id":"levelo_inurba_marseille","lat":43.23961,"lon":5.36626,"is_reserved":false,"is_disabled":false,"rental_uris":{"android":"levelo://app?vid=70da21d6-59bc-4110-9660-375f7695dd04","ios":"levelo://app?vid=70da21d6-59bc-4110-9660-375f7695dd04"},"vehicle_type_id":"4","last_reported":1756210945,"current_range_meters":4400,"station_id":"ce4bhi12rcd13ifvqfp0","pricing_plan_id":"cebpf4jnsgd1na2vs0mg"},{"bike_id":"a16a3d98-0bb5-41b5-9c33-39e8a59e7977","system_id":"levelo_inurba_marseille","lat":43.23128,"lon":5.43712,"is_reserved":false,"is_disabled":false,"rental_uris":{"android":"levelo://app?vid=a16a3d98-0bb5-41b5-9c33-39e8a59e7977","ios":"levelo://app?vid=a16a3d98-0bb5-41b5-9c33-39e8a59e7977"},"vehicle_type_id":"4","last_reported":1756210945,"current_range_meters":4800,"station_id":"ce4bhmp2rcd13ifvqgog","pricing_plan_id":"cebpf4jnsgd1na2vs0mg"},{"bike_id":"0da9affa-1b39-403f-a4e4-d63338e40100","system_id":"levelo_inurba_marseille","lat":43.32,"lon":5.38159,"is_reserved":false,"is_disabled":false,"rental_uris":{"android":"levelo://app?vid=0da9affa-1b39-403f-a4e4-d63338e40100","ios":"levelo://app?vid=0da9affa-1b39-403f-a4e4-d63338e40100"},"vehicle_type_id":"4","last_reported":1756210945,"current_range_meters":5600,"station_id":"ce4bhr12rcd13ifvqhpg","pricing_plan_id":"cebpf4jnsgd1na2vs0mg"},{"bike_id":"c5fee376-639a-444f-a94c-7203a485c76c","system_id":"levelo_inurba_marseille","lat":43.28914,"lon":5.38398,"is_reserved":false,"is_disabled":false,"rental_uris":{"android":"levelo://app?vid=c5fee376-639a-444f-a94c-7203a485c76c","ios":"levelo://app?vid=c5fee376-639a-444f-a94c-7203a485c76c"},"vehicle_type_id":"4","last_reported":1756210945,"current_range_meters":6000,"station_id":"","pricing_plan_id":"cebpf4jnsgd1na2vs0mg"},{"bike_id":"ae6e7466-f79a-43dd-ba01-51043638613b","system_id":"levelo_inurba_marseille","lat":43.22816,"lon":5.34966,"is_reserved":false,"is_disabled":false,"rental_uris":{"android":"levelo://app?vid=ae6e7466-f79a-43dd-ba01-51043638613b","ios":"levelo://app?vid=ae6e7466-f79a-43dd-ba01-51043638613b"},"vehicle_type_id":"4","last_reported":1756210945,"current_range_meters":5600,"station_id":"","pricing_plan_id":"cebpf4jnsgd1na2vs0mg"},{"bike_id":"5460667f-33c3-4e8d-8ece-a4e491713ed9","system_id":"levelo_inurba_marseille","lat":43.29591,"lon":5.40385,"is_reserved":false,"is_disabled":false,"rental_uris":{"android":"levelo://app?vid=5460667f-33c3-4e8d-8ece-a4e491713ed9","ios":"levelo://app?vid=5460667f-33c3-4e8d-8ece-a4e491713ed9"},"vehicle_type_id":"4","last_reported":1756210945,"current_range_meters":6000,"station_id":"","pricing_plan_id":"cebpf4jnsgd1na2vs0mg"},{"bike_id":"18cadd98-ca5b-4518-98d8-bbb26e647823","system_id":"levelo_inurba_marseille","lat":43.2119,"lon":5.35073,"is_reserved":false,"is_disabled":false,"rental_uris":{"android":"levelo://app?vid=18cadd98-ca5b-4518-98d8-bbb26e647823","ios":"levelo://app?vid=18cadd98-ca5b-4518-98d8-bbb26e647823"},"vehicle_type_id":"4","last_reported":1756210945,"current_range_meters":6000,"station_id":"st_cvj6sg6p6f1abm77japg","pricing_plan_id":"cebpf4jnsgd1na2vs0mg"},{"bike_id":"fb0ecd7c-2c0f-42f1-9e73-9448c9893367","system_id":"levelo_inurba_marseille","lat":43.26475,"lon":5.37029,"is_reserved":false,"is_disabled":false,"rental_uris":{"android":"levelo://app?vid=fb0ecd7c-2c0f-42f1-9e73-9448c9893367","ios":"levelo://app?vid=fb0ecd7c-2c0f-42f1-9e73-9448c9893367"},"vehicle_type_id":"4","last_reported":1756210945,"current_range_meters":6000,"station_id":"","pricing_plan_id":"cebpf4jnsgd1na2vs0mg"},{"bike_id":"40b4685b-a583-46cc-8dd1-240fb09254e7","system_id":"levelo_inurba_marseille","lat":43.28689,"lon":5.37392,"is_reserved":false,"is_disabled":false,"rental_uris":{"android":"levelo://app?vid=40b4685b-a583-46cc-8dd1-240fb09254e7","ios":"levelo://app?vid=40b4685b-a583-46cc-8dd1-240fb09254e7"},"vehicle_type_id":"4","last_reported":1756210945,"current_range_meters":6400,"station_id":"ce4bh3p2rcd13ifvqdq0","pricing_plan_id":"cebpf4jnsgd1na2vs0mg"},{"bike_id":"c4ccc10f-8ccd-44be-a00a-f6ebdc6ec159","system_id":"levelo_inurba_marseille","lat":43.30407,"lon":5.43448,"is_reserved":false,"is_disabled":false,"rental_uris":{"android":"levelo://app?vid=c4ccc10f-8ccd-44be-a00a-f6ebdc6ec159","ios":"levelo://app?vid=c4ccc10f-8ccd-44be-a00a-f6ebdc6ec159"},"vehicle_type_id":"4","last_reported":1756210945,"current_range_meters":6400,"station_id":"","pricing_plan_id":"cebpf4jnsgd1na2vs0mg"},{"bike_id":"46c28713-bb2b-45d5-98fc-8d5e885d13cf","system_id":"levelo_inurba_marseille","lat":43.21189,"lon":5.35068,"is_reserved":false,"is_disabled":false,"rental_uris":{"android":"levelo://app?vid=46c28713-bb2b-45d5-98fc-8d5e885d13cf","ios":"levelo://app?vid=46c28713-bb2b-45d5-98fc-8d5e885d13cf"},"vehicle_type_id":"4","last_reported":1756210945,"current_range_meters":6400,"station_id":"st_cvj6sg6p6f1abm77japg","pricing_plan_id":"cebpf4jnsgd1na2vs0mg"},{"bike_id":"a68499c1-dce3-47f6-9b01-1a4d3d1a269b","system_id":"levelo_inurba_marseille","lat":43.24181,"lon":5.39737,"is_reserved":false,"is_disabled":false,"rental_uris":{"android":"levelo://app?vid=a68499c1-dce3-47f6-9b01-1a4d3d1a269b","ios":"levelo://app?vid=a68499c1-dce3-47f6-9b01-1a4d3d1a269b"},"vehicle_type_id":"4","last_reported":1756210945,"current_range_meters":6400,"station_id":"ce4bhn12rcd13ifvqgpg","pricing_plan_id":"cebpf4jnsgd1na2vs0mg"},{"bike_id":"e2a6f0eb-3b4d-487b-a905-9baf5348ff72","system_id":"levelo_inurba_marseille","lat":43.28598,"lon":5.350987,"is_reserved":false,"is_disabled":false,"rental_uris":{"android":"levelo://app?vid=e2a6f0eb-3b4d-487b-a905-9baf5348ff72","ios":"levelo://app?vid=e2a6f0eb-3b4d-487b-a905-9baf5348ff72"},"vehicle_type_id":"4","last_reported":1756210945,"current_range_meters":6400,"station_id":"ce4bhb92rcd13ifvqen0","pricing_plan_id":"cebpf4jnsgd1na2vs0mg"},{"bike_id":"8d72b5bb-09f8-401a-9d20-10357adbb9d0","system_id":"levelo_inurba_marseille","lat":43.29304,"lon":5.37455,"is_reserved":false,"is_disabled":false,"rental_uris":{"android":"levelo://app?vid=8d72b5bb-09f8-401a-9d20-10357adbb9d0","ios":"levelo://app?vid=8d72b5bb-09f8-401a-9d20-10357adbb9d0"},"vehicle_type_id":"4","last_reported":1756210945,"current_range_meters":6400,"station_id":"ce4bgi12rcd13ifvqb70","pricing_plan_id":"cebpf4jnsgd1na2vs0mg"},{"bike_id":"9a5a0e66-7a4a-406f-b56c-36cc3342ec4c","system_id":"levelo_inurba_marseille","lat":43.30435,"lon":5.39741,"is_reserved":false,"is_disabled":false,"rental_uris":{"android":"levelo://app?vid=9a5a0e66-7a4a-406f-b56c-36cc3342ec4c","ios":"levelo://app?vid=9a5a0e66-7a4a-406f-b56c-36cc3342ec4c"},"vehicle_type_id":"4","last_reported":1756210945,"current_range_meters":6400,"station_id":"ce4bh092rcd13ifvqd20","pricing_plan_id":"cebpf4jnsgd1na2vs0mg"},{"bike_id":"b4fee1a3-d3e7-44d4-8b87-1fee11ec31ad","system_id":"levelo_inurba_marseille","lat":43.3012,"lon":5.39856,"is_reserved":false,"is_disabled":false,"rental_uris":{"android":"levelo://app?vid=b4fee1a3-d3e7-44d4-8b87-1fee11ec31ad","ios":"levelo://app?vid=b4fee1a3-d3e7-44d4-8b87-1fee11ec31ad"},"vehicle_type_id":"4","last_reported":1756210945,"current_range_meters":6800,"station_id":"ce4bh0h2rcd13ifvqd40","pricing_plan_id":"cebpf4jnsgd1na2vs0mg"},{"bike_id":"1ce4951f-00c0-46d7-89fb-456c1a3add44","system_id":"levelo_inurba_marseille","lat":43.30531,"lon":5.36708,"is_reserved":false,"is_disabled":false,"rental_uris":{"android":"levelo://app?vid=1ce4951f-00c0-46d7-89fb-456c1a3add44","ios":"levelo://app?vid=1ce4951f-00c0-46d7-89fb-456c1a3add44"},"vehicle_type_id":"4","last_reported":1756210945,"current_range_meters":6800,"station_id":"ce4bgrp2rcd13ifvqc9g","pricing_plan_id":"cebpf4jnsgd1na2vs0mg"},{"bike_id":"761e2286-9e05-43a5-a48d-2b1181602eab","system_id":"levelo_inurba_marseille","lat":43.21191,"lon":5.35062,"is_reserved":false,"is_disabled":false,"rental_uris":{"android":"levelo://app?vid=761e2286-9e05-43a5-a48d-2b1181602eab","ios":"levelo://app?vid=761e2286-9e05-43a5-a48d-2b1181602eab"},"vehicle_type_id":"4","last_reported":1756210945,"current_range_meters":6800,"station_id":"st_cvj6sg6p6f1abm77japg","pricing_plan_id":"cebpf4jnsgd1na2vs0mg"},{"bike_id":"519cc3fc-c394-409e-86d5-0492198f9319","system_id":"levelo_inurba_marseille","lat":43.23162,"lon":5.43721,"is_reserved":false,"is_disabled":false,"rental_uris":{"android":"levelo://app?vid=519cc3fc-c394-409e-86d5-0492198f9319","ios":"levelo://app?vid=519cc3fc-c394-409e-86d5-0492198f9319"},"vehicle_type_id":"4","last_reported":1756210945,"current_range_meters":6400,"station_id":"ce4bhmp2rcd13ifvqgog","pricing_plan_id":"cebpf4jnsgd1na2vs0mg"},{"bike_id":"824cd227-e1fd-4e05-b87e-05768514bec2","system_id":"levelo_inurba_marseille","lat":43.2119,"lon":5.35069,"is_reserved":false,"is_disabled":false,"rental_uris":{"android":"levelo://app?vid=824cd227-e1fd-4e05-b87e-05768514bec2","ios":"levelo://app?vid=824cd227-e1fd-4e05-b87e-05768514bec2"},"vehicle_type_id":"4","last_reported":1756210945,"current_range_meters":6800,"station_id":"st_cvj6sg6p6f1abm77japg","pricing_plan_id":"cebpf4jnsgd1na2vs0mg"},{"bike_id":"bed0e405-2123-4897-ab2c-21ca6a2707ff","system_id":"levelo_inurba_marseille","lat":43.30929,"lon":5.4014,"is_reserved":false,"is_disabled":false,"rental_uris":{"android":"levelo://app?vid=bed0e405-2123-4897-ab2c-21ca6a2707ff","ios":"levelo://app?vid=bed0e405-2123-4897-ab2c-21ca6a2707ff"},"vehicle_type_id":"4","last_reported":1756210945,"current_range_meters":7200,"station_id":"ce4bgvp2rcd13ifvqct0","pricing_plan_id":"cebpf4jnsgd1na2vs0mg"},{"bike_id":"4914b99b-bbad-44c9-8c7f-2b8a4a7b66e2","system_id":"levelo_inurba_marseille","lat":43.31225,"lon":5.36872,"is_reserved":false,"is_disabled":false,"rental_uris":{"android":"levelo://app?vid=4914b99b-bbad-44c9-8c7f-2b8a4a7b66e2","ios":"levelo://app?vid=4914b99b-bbad-44c9-8c7f-2b8a4a7b66e2"},"vehicle_type_id":"4","last_reported":1756210945,"current_range_meters":7200,"station_id":"ce4bgl92rcd13ifvqbq0","pricing_plan_id":"cebpf4jnsgd1na2vs0mg"},{"bike_id":"b2ef36d0-b194-4bbb-b36e-f342c717f029","system_id":"levelo_inurba_marseille","lat":43.2987,"lon":5.36258,"is_reserved":false,"is_disabled":false,"rental_uris":{"android":"levelo://app?vid=b2ef36d0-b194-4bbb-b36e-f342c717f029","ios":"levelo://app?vid=b2ef36d0-b194-4bbb-b36e-f342c717f029"},"vehicle_type_id":"4","last_reported":1756210945,"current_range_meters":7200,"station_id":"ce4bgpp2rcd13ifvqc3g","pricing_plan_id":"cebpf4jnsgd1na2vs0mg"},{"bike_id":"5155fc2c-4085-4c58-98ce-64e61322fb35","system_id":"levelo_inurba_marseille","lat":43.293,"lon":5.37458,"is_reserved":false,"is_disabled":false,"rental_uris":{"android":"levelo://app?vid=5155fc2c-4085-4c58-98ce-64e61322fb35","ios":"levelo://app?vid=5155fc2c-4085-4c58-98ce-64e61322fb35"},"vehicle_type_id":"4","last_reported":1756210945,"current_range_meters":7200,"station_id":"ce4bgi12rcd13ifvqb70","pricing_plan_id":"cebpf4jnsgd1na2vs0mg"},{"bike_id":"e9394074-896a-4f73-a276-5c6582d4957c","system_id":"levelo_inurba_marseille","lat":43.2501,"lon":5.38946,"is_reserved":false,"is_disabled":false,"rental_uris":{"android":"levelo://app?vid=e9394074-896a-4f73-a276-5c6582d4957c","ios":"levelo://app?vid=e9394074-896a-4f73-a276-5c6582d4957c"},"vehicle_type_id":"4","last_reported":1756210945,"current_range_meters":8000,"station_id":"ce4bhgp2rcd13ifvqfd0","pricing_plan_id":"cebpf4jnsgd1na2vs0mg"},{"bike_id":"f1fe5379-1bdf-4970-ae21-6bf7f8fac95a","system_id":"levelo_inurba_marseille","lat":43.29525,"lon":5.375655,"is_reserved":false,"is_disabled":false,"rental_uris":{"android":"levelo://app?vid=f1fe5379-1bdf-4970-ae21-6bf7f8fac95a","ios":"levelo://app?vid=f1fe5379-1bdf-4970-ae21-6bf7f8fac95a"},"vehicle_type_id":"4","last_reported":1756210945,"current_range_meters":8000,"station_id":"ce4bgkp2rcd13ifvqbmg","pricing_plan_id":"cebpf4jnsgd1na2vs0mg"},{"bike_id":"cbb5c190-2ba3-485b-9720-fac4e6b4811e","system_id":"levelo_inurba_marseille","lat":43.21759,"lon":5.34591,"is_reserved":false,"is_disabled":false,"rental_uris":{"android":"levelo://app?vid=cbb5c190-2ba3-485b-9720-fac4e6b4811e","ios":"levelo://app?vid=cbb5c190-2ba3-485b-9720-fac4e6b4811e"},"vehicle_type_id":"4","last_reported":1756210945,"current_range_meters":8000,"station_id":"st_cvj6r9ubvosntc0bgbag","pricing_plan_id":"cebpf4jnsgd1na2vs0mg"},{"bike_id":"c4a162e9-d435-443e-ab63-08a4b1e18395","system_id":"levelo_inurba_marseille","lat":43.31714,"lon":5.3774,"is_reserved":false,"is_disabled":false,"rental_uris":{"android":"levelo://app?vid=c4a162e9-d435-443e-ab63-08a4b1e18395","ios":"levelo://app?vid=c4a162e9-d435-443e-ab63-08a4b1e18395"},"vehicle_type_id":"4","last_reported":1756210945,"current_range_meters":8000,"station_id":"ce4bgth2rcd13ifvqch0","pricing_plan_id":"cebpf4jnsgd1na2vs0mg"},{"bike_id":"07b1d00f-4906-4a57-bdd4-8662352b2364","system_id":"levelo_inurba_marseille","lat":43.30128,"lon":5.39848,"is_reserved":false,"is_disabled":false,"rental_uris":{"android":"levelo://app?vid=07b1d00f-4906-4a57-bdd4-8662352b2364","ios":"levelo://app?vid=07b1d00f-4906-4a57-bdd4-8662352b2364"},"vehicle_type_id":"4","last_reported":1756210945,"current_range_meters":8400,"station_id":"ce4bh0h2rcd13ifvqd40","pricing_plan_id":"cebpf4jnsgd1na2vs0mg"},{"bike_id":"ea0489a1-031a-49db-9ae6-27ec4920f2dc","system_id":"levelo_inurba_marseille","lat":43.23177,"lon":5.39988,"is_reserved":false,"is_disabled":false,"rental_uris":{"android":"levelo://app?vid=ea0489a1-031a-49db-9ae6-27ec4920f2dc","ios":"levelo://app?vid=ea0489a1-031a-49db-9ae6-27ec4920f2dc"},"vehicle_type_id":"4","last_reported":1756210945,"current_range_meters":8400,"station_id":"ce4bhn12rcd13ifvqgqg","pricing_plan_id":"cebpf4jnsgd1na2vs0mg"},{"bike_id":"b72ddfe3-c483-48b6-a880-a138054f95e8","system_id":"levelo_inurba_marseille","lat":43.21197,"lon":5.35076,"is_reserved":false,"is_disabled":false,"rental_uris":{"android":"levelo://app?vid=b72ddfe3-c483-48b6-a880-a138054f95e8","ios":"levelo://app?vid=b72ddfe3-c483-48b6-a880-a138054f95e8"},"vehicle_type_id":"4","last_reported":1756210945,"current_range_meters":8400,"station_id":"st_cvj6sg6p6f1abm77japg","pricing_plan_id":"cebpf4jnsgd1na2vs0mg"},{"bike_id":"74e77536-be95-4eb9-8775-f31364b02151","system_id":"levelo_inurba_marseille","lat":43.23149,"lon":5.43721,"is_reserved":false,"is_disabled":false,"rental_uris":{"android":"levelo://app?vid=74e77536-be95-4eb9-8775-f31364b02151","ios":"levelo://app?vid=74e77536-be95-4eb9-8775-f31364b02151"},"vehicle_type_id":"4","last_reported":1756210945,"current_range_meters":8400,"station_id":"ce4bhmp2rcd13ifvqgog","pricing_plan_id":"cebpf4jnsgd1na2vs0mg"},{"bike_id":"baf1e75f-6603-4be6-a673-efe7efcdac10","system_id":"levelo_inurba_marseille","lat":43.21749,"lon":5.34602,"is_reserved":false,"is_disabled":false,"rental_uris":{"android":"levelo://app?vid=baf1e75f-6603-4be6-a673-efe7efcdac10","ios":"levelo://app?vid=baf1e75f-6603-4be6-a673-efe7efcdac10"},"vehicle_type_id":"4","last_reported":1756210945,"current_range_meters":8400,"station_id":"st_cvj6r9ubvosntc0bgbag","pricing_plan_id":"cebpf4jnsgd1na2vs0mg"},{"bike_id":"122a747f-dae2-41e0-8a2f-f621b3f5e145","system_id":"levelo_inurba_marseille","lat":43.28953,"lon":5.39633,"is_reserved":false,"is_disabled":false,"rental_uris":{"android":"levelo://app?vid=122a747f-dae2-41e0-8a2f-f621b3f5e145","ios":"levelo://app?vid=122a747f-dae2-41e0-8a2f-f621b3f5e145"},"vehicle_type_id":"4","last_reported":1756210945,"current_range_meters":8400,"station_id":"","pricing_plan_id":"cebpf4jnsgd1na2vs0mg"},{"bike_id":"236f1a17-bd84-4b8e-977f-7df7d8cf402c","system_id":"levelo_inurba_marseille","lat":43.308122,"lon":5.435259,"is_reserved":false,"is_disabled":true,"rental_uris":{"android":"levelo://app?vid=236f1a17-bd84-4b8e-977f-7df7d8cf402c","ios":"levelo://app?vid=236f1a17-bd84-4b8e-977f-7df7d8cf402c"},"vehicle_type_id":"4","last_reported":1756210945,"current_range_meters":8400,"station_id":"ce4bhph2rcd13ifvqheg","pricing_plan_id":"cebpf4jnsgd1na2vs0mg"},{"bike_id":"0d944743-e134-48e5-94b4-4ee23c5bf363","system_id":"levelo_inurba_marseille","lat":43.2316,"lon":5.43723,"is_reserved":false,"is_disabled":false,"rental_uris":{"android":"levelo://app?vid=0d944743-e134-48e5-94b4-4ee23c5bf363","ios":"levelo://app?vid=0d944743-e134-48e5-94b4-4ee23c5bf363"},"vehicle_type_id":"4","last_reported":1756210945,"current_range_meters":8400,"station_id":"ce4bhmp2rcd13ifvqgog","pricing_plan_id":"cebpf4jnsgd1na2vs0mg"},{"bike_id":"54a50261-e125-4a5a-8d3e-5946d9e31532","system_id":"levelo_inurba_marseille","lat":43.21195,"lon":5.35072,"is_reserved":false,"is_disabled":false,"rental_uris":{"android":"levelo://app?vid=54a50261-e125-4a5a-8d3e-5946d9e31532","ios":"levelo://app?vid=54a50261-e125-4a5a-8d3e-5946d9e31532"},"vehicle_type_id":"4","last_reported":1756210945,"current_range_meters":8400,"station_id":"st_cvj6sg6p6f1abm77japg","pricing_plan_id":"cebpf4jnsgd1na2vs0mg"},{"bike_id":"f5b9bdf3-e981-4ec9-b3c8-e8477d05dbe8","system_id":"levelo_inurba_marseille","lat":43.32536,"lon":5.41453,"is_reserved":false,"is_disabled":false,"rental_uris":{"android":"levelo://app?vid=f5b9bdf3-e981-4ec9-b3c8-e8477d05dbe8","ios":"levelo://app?vid=f5b9bdf3-e981-4ec9-b3c8-e8477d05dbe8"},"vehicle_type_id":"4","last_reported":1756210945,"current_range_meters":8400,"station_id":"ce4bhq12rcd13ifvqhhg","pricing_plan_id":"cebpf4jnsgd1na2vs0mg"},{"bike_id":"fcdfb1d4-2f58-4004-b07f-bc087fd0169f","system_id":"levelo_inurba_marseille","lat":43.303887,"lon":5.373754,"is_reserved":false,"is_disabled":false,"rental_uris":{"android":"levelo://app?vid=fcdfb1d4-2f58-4004-b07f-bc087fd0169f","ios":"levelo://app?vid=fcdfb1d4-2f58-4004-b07f-bc087fd0169f"},"vehicle_type_id":"4","last_reported":1756210945,"current_range_meters":8800,"station_id":"","pricing_plan_id":"cebpf4jnsgd1na2vs0mg"},{"bike_id":"0394a526-4bd8-4efa-bec2-3e8db1fa215c","system_id":"levelo_inurba_marseille","lat":43.305391,"lon":5.365354,"is_reserved":false,"is_disabled":false,"rental_uris":{"android":"levelo://app?vid=0394a526-4bd8-4efa-bec2-3e8db1fa215c","ios":"levelo://app?vid=0394a526-4bd8-4efa-bec2-3e8db1fa215c"},"vehicle_type_id":"4","last_reported":1756210945,"current_range_meters":8800,"station_id":"ce4bgs12rcd13ifvqcag","pricing_plan_id":"cebpf4jnsgd1na2vs0mg"},{"bike_id":"c2643afa-9ce8-4937-a33a-c8a4bea91e8c","system_id":"levelo_inurba_marseille","lat":43.3047,"lon":5.37901,"is_reserved":false,"is_disabled":false,"rental_uris":{"android":"levelo://app?vid=c2643afa-9ce8-4937-a33a-c8a4bea91e8c","ios":"levelo://app?vid=c2643afa-9ce8-4937-a33a-c8a4bea91e8c"},"vehicle_type_id":"4","last_reported":1756210945,"current_range_meters":8800,"station_id":"ce4bgup2rcd13ifvqcn0","pricing_plan_id":"cebpf4jnsgd1na2vs0mg"},{"bike_id":"2212480b-bee6-4788-b430-60f8d621ca9e","system_id":"levelo_inurba_marseille","lat":43.30529,"lon":5.36553,"is_reserved":false,"is_disabled":false,"rental_uris":{"android":"levelo://app?vid=2212480b-bee6-4788-b430-60f8d621ca9e","ios":"levelo://app?vid=2212480b-bee6-4788-b430-60f8d621ca9e"},"vehicle_type_id":"4","last_reported":1756210945,"current_range_meters":8800,"station_id":"ce4bgs12rcd13ifvqcag","pricing_plan_id":"cebpf4jnsgd1na2vs0mg"},{"bike_id":"e972d201-a975-4231-84ff-878874a7b862","system_id":"levelo_inurba_marseille","lat":43.23181,"lon":5.39986,"is_reserved":false,"is_disabled":false,"rental_uris":{"android":"levelo://app?vid=e972d201-a975-4231-84ff-878874a7b862","ios":"levelo://app?vid=e972d201-a975-4231-84ff-878874a7b862"},"vehicle_type_id":"4","last_reported":1756210945,"current_range_meters":9200,"station_id":"ce4bhn12rcd13ifvqgqg","pricing_plan_id":"cebpf4jnsgd1na2vs0mg"},{"bike_id":"e6c90b04-fbb6-41a2-a95e-e2143b2a634a","system_id":"levelo_inurba_marseille","lat":43.24172,"lon":5.36398,"is_reserved":false,"is_disabled":false,"rental_uris":{"android":"levelo://app?vid=e6c90b04-fbb6-41a2-a95e-e2143b2a634a","ios":"levelo://app?vid=e6c90b04-fbb6-41a2-a95e-e2143b2a634a"},"vehicle_type_id":"4","last_reported":1756210945,"current_range_meters":9200,"station_id":"cpo36qri1sfpv3e86is0","pricing_plan_id":"cebpf4jnsgd1na2vs0mg"},{"bike_id":"df75f1fa-75ae-4074-a5b6-5911a8c1b6a8","system_id":"levelo_inurba_marseille","lat":43.30761,"lon":5.3721,"is_reserved":false,"is_disabled":false,"rental_uris":{"android":"levelo://app?vid=df75f1fa-75ae-4074-a5b6-5911a8c1b6a8","ios":"levelo://app?vid=df75f1fa-75ae-4074-a5b6-5911a8c1b6a8"},"vehicle_type_id":"4","last_reported":1756210945,"current_range_meters":9200,"station_id":"","pricing_plan_id":"cebpf4jnsgd1na2vs0mg"},{"bike_id":"96290dcb-5422-4c66-b871-eb048cbeec71","system_id":"levelo_inurba_marseille","lat":43.2121,"lon":5.35076,"is_reserved":false,"is_disabled":false,"rental_uris":{"android":"levelo://app?vid=96290dcb-5422-4c66-b871-eb048cbeec71","ios":"levelo://app?vid=96290dcb-5422-4c66-b871-eb048cbeec71"},"vehicle_type_id":"4","last_reported":1756210945,"current_range_meters":9600,"station_id":"st_cvj6sg6p6f1abm77japg","pricing_plan_id":"cebpf4jnsgd1na2vs0mg"},{"bike_id":"a7617eaa-1f94-4263-82ae-df4c6a62a5c5","system_id":"levelo_inurba_marseille","lat":43.21754,"lon":5.34602,"is_reserved":false,"is_disabled":false,"rental_uris":{"android":"levelo://app?vid=a7617eaa-1f94-4263-82ae-df4c6a62a5c5","ios":"levelo://app?vid=a7617eaa-1f94-4263-82ae-df4c6a62a5c5"},"vehicle_type_id":"4","last_reported":1756210945,"current_range_meters":9600,"station_id":"st_cvj6r9ubvosntc0bgbag","pricing_plan_id":"cebpf4jnsgd1na2vs0mg"},{"bike_id":"a79ebd03-2e0c-4997-9890-807da6fe9f25","system_id":"levelo_inurba_marseille","lat":43.26552,"lon":5.37285,"is_reserved":false,"is_disabled":false,"rental_uris":{"android":"levelo://app?vid=a79ebd03-2e0c-4997-9890-807da6fe9f25","ios":"levelo://app?vid=a79ebd03-2e0c-4997-9890-807da6fe9f25"},"vehicle_type_id":"4","last_reported":1756210945,"current_range_meters":9600,"station_id":"ce4bhg12rcd13ifvqf70","pricing_plan_id":"cebpf4jnsgd1na2vs0mg"},{"bike_id":"bfadbc39-acf9-4dfe-90fd-7f71797b34f9","system_id":"levelo_inurba_marseille","lat":43.30178,"lon":5.36618,"is_reserved":false,"is_disabled":false,"rental_uris":{"android":"levelo://app?vid=bfadbc39-acf9-4dfe-90fd-7f71797b34f9","ios":"levelo://app?vid=bfadbc39-acf9-4dfe-90fd-7f71797b34f9"},"vehicle_type_id":"4","last_reported":1756210945,"current_range_meters":10000,"station_id":"ce4bgrh2rcd13ifvqc8g","pricing_plan_id":"cebpf4jnsgd1na2vs0mg"},{"bike_id":"d4dfb875-85eb-45d0-b13f-4e64a05defc1","system_id":"levelo_inurba_marseille","lat":43.30536,"lon":5.36709,"is_reserved":false,"is_disabled":false,"rental_uris":{"android":"levelo://app?vid=d4dfb875-85eb-45d0-b13f-4e64a05defc1","ios":"levelo://app?vid=d4dfb875-85eb-45d0-b13f-4e64a05defc1"},"vehicle_type_id":"4","last_reported":1756210945,"current_range_meters":10000,"station_id":"ce4bgrp2rcd13ifvqc9g","pricing_plan_id":"cebpf4jnsgd1na2vs0mg"},{"bike_id":"849ec51a-bd21-4c5c-b844-23f920b9134f","system_id":"levelo_inurba_marseille","lat":43.301484,"lon":5.374261,"is_reserved":false,"is_disabled":false,"rental_uris":{"android":"levelo://app?vid=849ec51a-bd21-4c5c-b844-23f920b9134f","ios":"levelo://app?vid=849ec51a-bd21-4c5c-b844-23f920b9134f"},"vehicle_type_id":"4","last_reported":1756210945,"current_range_meters":9600,"station_id":"ce4bgs92rcd13ifvqcc0","pricing_plan_id":"cebpf4jnsgd1na2vs0mg"},{"bike_id":"bea9b573-b0c0-471b-a983-7d2a5da760bb","system_id":"levelo_inurba_marseille","lat":43.30372,"lon":5.42489,"is_reserved":false,"is_disabled":false,"rental_uris":{"android":"levelo://app?vid=bea9b573-b0c0-471b-a983-7d2a5da760bb","ios":"levelo://app?vid=bea9b573-b0c0-471b-a983-7d2a5da760bb"},"vehicle_type_id":"4","last_reported":1756210945,"current_range_meters":10800,"station_id":"ce4bhoh2rcd13ifvqh6g","pricing_plan_id":"cebpf4jnsgd1na2vs0mg"},{"bike_id":"4e326991-524a-498f-8eda-9c8ae7d86a4d","system_id":"levelo_inurba_marseille","lat":43.30532,"lon":5.36529,"is_reserved":false,"is_disabled":false,"rental_uris":{"android":"levelo://app?vid=4e326991-524a-498f-8eda-9c8ae7d86a4d","ios":"levelo://app?vid=4e326991-524a-498f-8eda-9c8ae7d86a4d"},"vehicle_type_id":"4","last_reported":1756210945,"current_range_meters":10800,"station_id":"ce4bgs12rcd13ifvqcag","pricing_plan_id":"cebpf4jnsgd1na2vs0mg"},{"bike_id":"ad2d48e7-1197-4129-8154-b8b3505fd06f","system_id":"levelo_inurba_marseille","lat":43.28678,"lon":5.37387,"is_reserved":false,"is_disabled":false,"rental_uris":{"android":"levelo://app?vid=ad2d48e7-1197-4129-8154-b8b3505fd06f","ios":"levelo://app?vid=ad2d48e7-1197-4129-8154-b8b3505fd06f"},"vehicle_type_id":"4","last_reported":1756210945,"current_range_meters":10800,"station_id":"ce4bh3p2rcd13ifvqdq0","pricing_plan_id":"cebpf4jnsgd1na2vs0mg"},{"bike_id":"f781d014-afa9-4acc-b6f7-3670b0862de3","system_id":"levelo_inurba_marseille","lat":43.21189,"lon":5.35071,"is_reserved":false,"is_disabled":false,"rental_uris":{"android":"levelo://app?vid=f781d014-afa9-4acc-b6f7-3670b0862de3","ios":"levelo://app?vid=f781d014-afa9-4acc-b6f7-3670b0862de3"},"vehicle_type_id":"4","last_reported":1756210945,"current_range_meters":10800,"station_id":"st_cvj6sg6p6f1abm77japg","pricing_plan_id":"cebpf4jnsgd1na2vs0mg"},{"bike_id":"7c8f3a51-5187-4ccb-b454-f6565d98a191","system_id":"levelo_inurba_marseille","lat":43.28289,"lon":5.35088,"is_reserved":false,"is_disabled":false,"rental_uris":{"android":"levelo://app?vid=7c8f3a51-5187-4ccb-b454-f6565d98a191","ios":"levelo://app?vid=7c8f3a51-5187-4ccb-b454-f6565d98a191"},"vehicle_type_id":"4","last_reported":1756210945,"current_range_meters":11200,"station_id":"ce4bhbp2rcd13ifvqerg","pricing_plan_id":"cebpf4jnsgd1na2vs0mg"},{"bike_id":"c7134a8e-6253-43eb-a370-000030c1519b","system_id":"levelo_inurba_marseille","lat":43.28698,"lon":5.37391,"is_reserved":false,"is_disabled":false,"rental_uris":{"android":"levelo://app?vid=c7134a8e-6253-43eb-a370-000030c1519b","ios":"levelo://app?vid=c7134a8e-6253-43eb-a370-000030c1519b"},"vehicle_type_id":"4","last_reported":1756210945,"current_range_meters":11200,"station_id":"ce4bh3p2rcd13ifvqdq0","pricing_plan_id":"cebpf4jnsgd1na2vs0mg"},{"bike_id":"8b09d6e8-3175-46a4-a882-3f13b9ad4be3","system_id":"levelo_inurba_marseille","lat":43.24642,"lon":5.43143,"is_reserved":false,"is_disabled":false,"rental_uris":{"android":"levelo://app?vid=8b09d6e8-3175-46a4-a882-3f13b9ad4be3","ios":"levelo://app?vid=8b09d6e8-3175-46a4-a882-3f13b9ad4be3"},"vehicle_type_id":"4","last_reported":1756210945,"current_range_meters":11200,"station_id":"st_d2m6c4gdas8pm72e190g","pricing_plan_id":"cebpf4jnsgd1na2vs0mg"},{"bike_id":"bf33470c-04d2-4704-9396-a46e2bb4f001","system_id":"levelo_inurba_marseille","lat":43.29529,"lon":5.38545,"is_reserved":false,"is_disabled":false,"rental_uris":{"android":"levelo://app?vid=bf33470c-04d2-4704-9396-a46e2bb4f001","ios":"levelo://app?vid=bf33470c-04d2-4704-9396-a46e2bb4f001"},"vehicle_type_id":"4","last_reported":1756210945,"current_range_meters":10800,"station_id":"ce4bgih2rcd13ifvqba0","pricing_plan_id":"cebpf4jnsgd1na2vs0mg"},{"bike_id":"e9b77ce8-5db9-49fd-815f-8eaeee26ba67","system_id":"levelo_inurba_marseille","lat":43.23074,"lon":5.35504,"is_reserved":false,"is_disabled":false,"rental_uris":{"android":"levelo://app?vid=e9b77ce8-5db9-49fd-815f-8eaeee26ba67","ios":"levelo://app?vid=e9b77ce8-5db9-49fd-815f-8eaeee26ba67"},"vehicle_type_id":"4","last_reported":1756210945,"current_range_meters":10800,"station_id":"cpo3342slgdg3j2ifvpg","pricing_plan_id":"cebpf4jnsgd1na2vs0mg"},{"bike_id":"c8f19ab0-2650-42bf-bf99-315bb14cecb1","system_id":"levelo_inurba_marseille","lat":43.32366,"lon":5.36745,"is_reserved":false,"is_disabled":false,"rental_uris":{"android":"levelo://app?vid=c8f19ab0-2650-42bf-bf99-315bb14cecb1","ios":"levelo://app?vid=c8f19ab0-2650-42bf-bf99-315bb14cecb1"},"vehicle_type_id":"4","last_reported":1756210945,"current_range_meters":11600,"station_id":"ce4bhsh2rcd13ifvqi2g","pricing_plan_id":"cebpf4jnsgd1na2vs0mg"},{"bike_id":"1ee1dc70-84ab-4c2d-bcaa-90d255ccd150","system_id":"levelo_inurba_marseille","lat":43.27188,"lon":5.39162,"is_reserved":false,"is_disabled":false,"rental_uris":{"android":"levelo://app?vid=1ee1dc70-84ab-4c2d-bcaa-90d255ccd150","ios":"levelo://app?vid=1ee1dc70-84ab-4c2d-bcaa-90d255ccd150"},"vehicle_type_id":"4","last_reported":1756210945,"current_range_meters":11600,"station_id":"ce4bhhp2rcd13ifvqfm0","pricing_plan_id":"cebpf4jnsgd1na2vs0mg"},{"bike_id":"64352914-fa5b-431d-bfa0-3208bb97ce49","system_id":"levelo_inurba_marseille","lat":43.24169,"lon":5.36394,"is_reserved":false,"is_disabled":false,"rental_uris":{"android":"levelo://app?vid=64352914-fa5b-431d-bfa0-3208bb97ce49","ios":"levelo://app?vid=64352914-fa5b-431d-bfa0-3208bb97ce49"},"vehicle_type_id":"4","last_reported":1756210945,"current_range_meters":11600,"station_id":"cpo36qri1sfpv3e86is0","pricing_plan_id":"cebpf4jnsgd1na2vs0mg"},{"bike_id":"1628099a-a094-4d8d-af8d-21bad918c2d8","system_id":"levelo_inurba_marseille","lat":43.28486,"lon":5.38412,"is_reserved":false,"is_disabled":false,"rental_uris":{"android":"levelo://app?vid=1628099a-a094-4d8d-af8d-21bad918c2d8","ios":"levelo://app?vid=1628099a-a094-4d8d-af8d-21bad918c2d8"},"vehicle_type_id":"4","last_reported":1756210945,"current_range_meters":12000,"station_id":"ce4bh512rcd13ifvqe3g","pricing_plan_id":"cebpf4jnsgd1na2vs0mg"},{"bike_id":"108b622f-741f-46bc-a63e-f53025af3542","system_id":"levelo_inurba_marseille","lat":43.23963,"lon":5.3668,"is_reserved":false,"is_disabled":false,"rental_uris":{"android":"levelo://app?vid=108b622f-741f-46bc-a63e-f53025af3542","ios":"levelo://app?vid=108b622f-741f-46bc-a63e-f53025af3542"},"vehicle_type_id":"4","last_reported":1756210945,"current_range_meters":12000,"station_id":"ce4bhi12rcd13ifvqfp0","pricing_plan_id":"cebpf4jnsgd1na2vs0mg"},{"bike_id":"bb3b1f8e-8cc5-4b98-b134-1d38210e2d7b","system_id":"levelo_inurba_marseille","lat":43.28405,"lon":5.34978,"is_reserved":false,"is_disabled":false,"rental_uris":{"android":"levelo://app?vid=bb3b1f8e-8cc5-4b98-b134-1d38210e2d7b","ios":"levelo://app?vid=bb3b1f8e-8cc5-4b98-b134-1d38210e2d7b"},"vehicle_type_id":"4","last_reported":1756210945,"current_range_meters":12000,"station_id":"ce4bhbh2rcd13ifvqepg","pricing_plan_id":"cebpf4jnsgd1na2vs0mg"},{"bike_id":"1f4178fc-ef3c-498b-b1d2-7b179879c230","system_id":"levelo_inurba_marseille","lat":43.287009,"lon":5.373803,"is_reserved":false,"is_disabled":false,"rental_uris":{"android":"levelo://app?vid=1f4178fc-ef3c-498b-b1d2-7b179879c230","ios":"levelo://app?vid=1f4178fc-ef3c-498b-b1d2-7b179879c230"},"vehicle_type_id":"4","last_reported":1756210945,"current_range_meters":12000,"station_id":"ce4bh3p2rcd13ifvqdq0","pricing_plan_id":"cebpf4jnsgd1na2vs0mg"},{"bike_id":"3fdab342-812b-4e87-a622-3fd4fcd806fa","system_id":"levelo_inurba_marseille","lat":43.31257,"lon":5.36917,"is_reserved":false,"is_disabled":false,"rental_uris":{"android":"levelo://app?vid=3fdab342-812b-4e87-a622-3fd4fcd806fa","ios":"levelo://app?vid=3fdab342-812b-4e87-a622-3fd4fcd806fa"},"vehicle_type_id":"4","last_reported":1756210945,"current_range_meters":12000,"station_id":"","pricing_plan_id":"cebpf4jnsgd1na2vs0mg"},{"bike_id":"3e130ff4-87da-4c51-a264-44d1f277fd66","system_id":"levelo_inurba_marseille","lat":43.32104,"lon":5.36766,"is_reserved":false,"is_disabled":false,"rental_uris":{"android":"levelo://app?vid=3e130ff4-87da-4c51-a264-44d1f277fd66","ios":"levelo://app?vid=3e130ff4-87da-4c51-a264-44d1f277fd66"},"vehicle_type_id":"4","last_reported":1756210945,"current_range_meters":12000,"station_id":"ce4bhrh2rcd13ifvqhug","pricing_plan_id":"cebpf4jnsgd1na2vs0mg"},{"bike_id":"46f38273-8c7d-49ab-b965-5341f541f616","system_id":"levelo_inurba_marseille","lat":43.2417,"lon":5.36396,"is_reserved":false,"is_disabled":false,"rental_uris":{"android":"levelo://app?vid=46f38273-8c7d-49ab-b965-5341f541f616","ios":"levelo://app?vid=46f38273-8c7d-49ab-b965-5341f541f616"},"vehicle_type_id":"4","last_reported":1756210945,"current_range_meters":12000,"station_id":"cpo36qri1sfpv3e86is0","pricing_plan_id":"cebpf4jnsgd1na2vs0mg"},{"bike_id":"cfd66be3-eb77-4fcb-9808-b084ac439d43","system_id":"levelo_inurba_marseille","lat":43.33778,"lon":5.3742,"is_reserved":false,"is_disabled":false,"rental_uris":{"android":"levelo://app?vid=cfd66be3-eb77-4fcb-9808-b084ac439d43","ios":"levelo://app?vid=cfd66be3-eb77-4fcb-9808-b084ac439d43"},"vehicle_type_id":"4","last_reported":1756210945,"current_range_meters":12000,"station_id":"","pricing_plan_id":"cebpf4jnsgd1na2vs0mg"},{"bike_id":"e2b0f307-cfe9-4ad5-b104-d661fcb0d809","system_id":"levelo_inurba_marseille","lat":43.22944,"lon":5.35365,"is_reserved":false,"is_disabled":false,"rental_uris":{"android":"levelo://app?vid=e2b0f307-cfe9-4ad5-b104-d661fcb0d809","ios":"levelo://app?vid=e2b0f307-cfe9-4ad5-b104-d661fcb0d809"},"vehicle_type_id":"4","last_reported":1756210945,"current_range_meters":12400,"station_id":"cpo3532slgdg3j2ikp40","pricing_plan_id":"cebpf4jnsgd1na2vs0mg"},{"bike_id":"2b85b7b6-4500-4552-9af4-1340a1e96b75","system_id":"levelo_inurba_marseille","lat":43.29295,"lon":5.37447,"is_reserved":false,"is_disabled":false,"rental_uris":{"android":"levelo://app?vid=2b85b7b6-4500-4552-9af4-1340a1e96b75","ios":"levelo://app?vid=2b85b7b6-4500-4552-9af4-1340a1e96b75"},"vehicle_type_id":"4","last_reported":1756210945,"current_range_meters":12400,"station_id":"ce4bgi12rcd13ifvqb70","pricing_plan_id":"cebpf4jnsgd1na2vs0mg"},{"bike_id":"85ba4cb2-7317-4c2b-b95d-691a4aa53317","system_id":"levelo_inurba_marseille","lat":43.32655,"lon":5.40997,"is_reserved":false,"is_disabled":false,"rental_uris":{"android":"levelo://app?vid=85ba4cb2-7317-4c2b-b95d-691a4aa53317","ios":"levelo://app?vid=85ba4cb2-7317-4c2b-b95d-691a4aa53317"},"vehicle_type_id":"4","last_reported":1756210945,"current_range_meters":12000,"station_id":"ce4bhpp2rcd13ifvqhgg","pricing_plan_id":"cebpf4jnsgd1na2vs0mg"},{"bike_id":"9ebbca0f-8b0f-49e0-bbc0-5934ebb0e846","system_id":"levelo_inurba_marseille","lat":43.21189,"lon":5.35065,"is_reserved":false,"is_disabled":false,"rental_uris":{"android":"levelo://app?vid=9ebbca0f-8b0f-49e0-bbc0-5934ebb0e846","ios":"levelo://app?vid=9ebbca0f-8b0f-49e0-bbc0-5934ebb0e846"},"vehicle_type_id":"4","last_reported":1756210945,"current_range_meters":12400,"station_id":"st_cvj6sg6p6f1abm77japg","pricing_plan_id":"cebpf4jnsgd1na2vs0mg"},{"bike_id":"c30b301c-7f7b-494a-8ee4-1d6c5f9cce1b","system_id":"levelo_inurba_marseille","lat":43.28397,"lon":5.37544,"is_reserved":false,"is_disabled":false,"rental_uris":{"android":"levelo://app?vid=c30b301c-7f7b-494a-8ee4-1d6c5f9cce1b","ios":"levelo://app?vid=c30b301c-7f7b-494a-8ee4-1d6c5f9cce1b"},"vehicle_type_id":"4","last_reported":1756210945,"current_range_meters":12400,"station_id":"ce4bh412rcd13ifvqds0","pricing_plan_id":"cebpf4jnsgd1na2vs0mg"},{"bike_id":"a02c36f2-5c73-4274-9dab-3dcfac8b6d0b","system_id":"levelo_inurba_marseille","lat":43.323613,"lon":5.367672,"is_reserved":false,"is_disabled":false,"rental_uris":{"android":"levelo://app?vid=a02c36f2-5c73-4274-9dab-3dcfac8b6d0b","ios":"levelo://app?vid=a02c36f2-5c73-4274-9dab-3dcfac8b6d0b"},"vehicle_type_id":"4","last_reported":1756210945,"current_range_meters":12400,"station_id":"ce4bhsh2rcd13ifvqi2g","pricing_plan_id":"cebpf4jnsgd1na2vs0mg"},{"bike_id":"b375d41b-9575-4c77-a6a9-d089747042e7","system_id":"levelo_inurba_marseille","lat":43.322825,"lon":5.367681,"is_reserved":false,"is_disabled":false,"rental_uris":{"android":"levelo://app?vid=b375d41b-9575-4c77-a6a9-d089747042e7","ios":"levelo://app?vid=b375d41b-9575-4c77-a6a9-d089747042e7"},"vehicle_type_id":"4","last_reported":1756210945,"current_range_meters":12800,"station_id":"","pricing_plan_id":"cebpf4jnsgd1na2vs0mg"},{"bike_id":"979e73f7-3abb-449f-9bdc-cb11a72712d9","system_id":"levelo_inurba_marseille","lat":43.28611,"lon":5.35108,"is_reserved":false,"is_disabled":true,"rental_uris":{"android":"levelo://app?vid=979e73f7-3abb-449f-9bdc-cb11a72712d9","ios":"levelo://app?vid=979e73f7-3abb-449f-9bdc-cb11a72712d9"},"vehicle_type_id":"4","last_reported":1756210945,"current_range_meters":12800,"station_id":"ce4bhch2rcd13ifvqeug","pricing_plan_id":"cebpf4jnsgd1na2vs0mg"},{"bike_id":"b6fa71de-cb87-445d-ba99-d3eabe8dc29d","system_id":"levelo_inurba_marseille","lat":43.2174,"lon":5.34589,"is_reserved":false,"is_disabled":false,"rental_uris":{"android":"levelo://app?vid=b6fa71de-cb87-445d-ba99-d3eabe8dc29d","ios":"levelo://app?vid=b6fa71de-cb87-445d-ba99-d3eabe8dc29d"},"vehicle_type_id":"4","last_reported":1756210945,"current_range_meters":13600,"station_id":"st_cvj6r9ubvosntc0bgbag","pricing_plan_id":"cebpf4jnsgd1na2vs0mg"},{"bike_id":"632030b5-1498-47c0-aa28-dfb19d01a1ea","system_id":"levelo_inurba_marseille","lat":43.26221,"lon":5.37446,"is_reserved":false,"is_disabled":false,"rental_uris":{"android":"levelo://app?vid=632030b5-1498-47c0-aa28-dfb19d01a1ea","ios":"levelo://app?vid=632030b5-1498-47c0-aa28-dfb19d01a1ea"},"vehicle_type_id":"4","last_reported":1756210945,"current_range_meters":13600,"station_id":"ce4bhgp2rcd13ifvqfc0","pricing_plan_id":"cebpf4jnsgd1na2vs0mg"},{"bike_id":"3471f848-1c0d-416c-8546-8eb586955e21","system_id":"levelo_inurba_marseille","lat":43.28255,"lon":5.35068,"is_reserved":false,"is_disabled":false,"rental_uris":{"android":"levelo://app?vid=3471f848-1c0d-416c-8546-8eb586955e21","ios":"levelo://app?vid=3471f848-1c0d-416c-8546-8eb586955e21"},"vehicle_type_id":"4","last_reported":1756210945,"current_range_meters":13600,"station_id":"ce4bhbp2rcd13ifvqerg","pricing_plan_id":"cebpf4jnsgd1na2vs0mg"},{"bike_id":"97baab57-b07e-4a6b-8fbd-e3de8dfb7142","system_id":"levelo_inurba_marseille","lat":43.27964,"lon":5.3873,"is_reserved":false,"is_disabled":false,"rental_uris":{"android":"levelo://app?vid=97baab57-b07e-4a6b-8fbd-e3de8dfb7142","ios":"levelo://app?vid=97baab57-b07e-4a6b-8fbd-e3de8dfb7142"},"vehicle_type_id":"4","last_reported":1756210945,"current_range_meters":13600,"station_id":"","pricing_plan_id":"cebpf4jnsgd1na2vs0mg"},{"bike_id":"24efef05-e128-4734-81a1-22cccf36a105","system_id":"levelo_inurba_marseille","lat":43.28851,"lon":5.35839,"is_reserved":false,"is_disabled":false,"rental_uris":{"android":"levelo://app?vid=24efef05-e128-4734-81a1-22cccf36a105","ios":"levelo://app?vid=24efef05-e128-4734-81a1-22cccf36a105"},"vehicle_type_id":"4","last_reported":1756210945,"current_range_meters":13600,"station_id":"ce4bhb12rcd13ifvqem0","pricing_plan_id":"cebpf4jnsgd1na2vs0mg"},{"bike_id":"83e818dd-7ff3-45dd-b46a-ecfe9cbc3bf8","system_id":"levelo_inurba_marseille","lat":43.262122,"lon":5.374481,"is_reserved":false,"is_disabled":false,"rental_uris":{"android":"levelo://app?vid=83e818dd-7ff3-45dd-b46a-ecfe9cbc3bf8","ios":"levelo://app?vid=83e818dd-7ff3-45dd-b46a-ecfe9cbc3bf8"},"vehicle_type_id":"4","last_reported":1756210945,"current_range_meters":13600,"station_id":"ce4bhgp2rcd13ifvqfc0","pricing_plan_id":"cebpf4jnsgd1na2vs0mg"},{"bike_id":"0d502687-08ef-4491-8893-8a03d8688be8","system_id":"levelo_inurba_marseille","lat":43.29632,"lon":5.36117,"is_reserved":false,"is_disabled":false,"rental_uris":{"android":"levelo://app?vid=0d502687-08ef-4491-8893-8a03d8688be8","ios":"levelo://app?vid=0d502687-08ef-4491-8893-8a03d8688be8"},"vehicle_type_id":"4","last_reported":1756210945,"current_range_meters":13600,"station_id":"","pricing_plan_id":"cebpf4jnsgd1na2vs0mg"},{"bike_id":"645400d9-f52c-461b-9f62-a9ebdae737b6","system_id":"levelo_inurba_marseille","lat":43.30601,"lon":5.37223,"is_reserved":false,"is_disabled":false,"rental_uris":{"android":"levelo://app?vid=645400d9-f52c-461b-9f62-a9ebdae737b6","ios":"levelo://app?vid=645400d9-f52c-461b-9f62-a9ebdae737b6"},"vehicle_type_id":"4","last_reported":1756210945,"current_range_meters":13600,"station_id":"ce4bgqh2rcd13ifvqc4g","pricing_plan_id":"cebpf4jnsgd1na2vs0mg"},{"bike_id":"a1026057-9700-4c9f-b26e-2fc0bda90e8c","system_id":"levelo_inurba_marseille","lat":43.26198,"lon":5.37447,"is_reserved":false,"is_disabled":false,"rental_uris":{"android":"levelo://app?vid=a1026057-9700-4c9f-b26e-2fc0bda90e8c","ios":"levelo://app?vid=a1026057-9700-4c9f-b26e-2fc0bda90e8c"},"vehicle_type_id":"4","last_reported":1756210945,"current_range_meters":13600,"station_id":"ce4bhgp2rcd13ifvqfc0","pricing_plan_id":"cebpf4jnsgd1na2vs0mg"},{"bike_id":"7efc4031-53a2-4c8b-a4a3-f833e7929dde","system_id":"levelo_inurba_marseille","lat":43.26247,"lon":5.37578,"is_reserved":false,"is_disabled":false,"rental_uris":{"android":"levelo://app?vid=7efc4031-53a2-4c8b-a4a3-f833e7929dde","ios":"levelo://app?vid=7efc4031-53a2-4c8b-a4a3-f833e7929dde"},"vehicle_type_id":"4","last_reported":1756210945,"current_range_meters":14000,"station_id":"","pricing_plan_id":"cebpf4jnsgd1na2vs0mg"},{"bike_id":"b6d727d8-b5ab-46d2-9978-fd5ba1dad8e0","system_id":"levelo_inurba_marseille","lat":43.30914,"lon":5.36868,"is_reserved":false,"is_disabled":false,"rental_uris":{"android":"levelo://app?vid=b6d727d8-b5ab-46d2-9978-fd5ba1dad8e0","ios":"levelo://app?vid=b6d727d8-b5ab-46d2-9978-fd5ba1dad8e0"},"vehicle_type_id":"4","last_reported":1756210945,"current_range_meters":14000,"station_id":"ce4bgn92rcd13ifvqbvg","pricing_plan_id":"cebpf4jnsgd1na2vs0mg"},{"bike_id":"6337adba-5163-4235-9c0e-abd7c0b624a7","system_id":"levelo_inurba_marseille","lat":43.290966,"lon":5.381363,"is_reserved":false,"is_disabled":false,"rental_uris":{"android":"levelo://app?vid=6337adba-5163-4235-9c0e-abd7c0b624a7","ios":"levelo://app?vid=6337adba-5163-4235-9c0e-abd7c0b624a7"},"vehicle_type_id":"4","last_reported":1756210945,"current_range_meters":14000,"station_id":"ce4bh512rcd13ifvqe2g","pricing_plan_id":"cebpf4jnsgd1na2vs0mg"},{"bike_id":"55634db1-60ba-4742-bee7-7773cac26982","system_id":"levelo_inurba_marseille","lat":43.26687,"lon":5.38273,"is_reserved":false,"is_disabled":false,"rental_uris":{"android":"levelo://app?vid=55634db1-60ba-4742-bee7-7773cac26982","ios":"levelo://app?vid=55634db1-60ba-4742-bee7-7773cac26982"},"vehicle_type_id":"4","last_reported":1756210945,"current_range_meters":14000,"station_id":"ce4bhg92rcd13ifvqf90","pricing_plan_id":"cebpf4jnsgd1na2vs0mg"},{"bike_id":"f99b84b3-3354-4c7b-9842-c7f9ab906f18","system_id":"levelo_inurba_marseille","lat":43.29267,"lon":5.40149,"is_reserved":false,"is_disabled":false,"rental_uris":{"android":"levelo://app?vid=f99b84b3-3354-4c7b-9842-c7f9ab906f18","ios":"levelo://app?vid=f99b84b3-3354-4c7b-9842-c7f9ab906f18"},"vehicle_type_id":"4","last_reported":1756210945,"current_range_meters":13600,"station_id":"ce4bh312rcd13ifvqdk0","pricing_plan_id":"cebpf4jnsgd1na2vs0mg"},{"bike_id":"e51549e2-5739-4b2c-a546-a12b98e3ab94","system_id":"levelo_inurba_marseille","lat":43.3018,"lon":5.36642,"is_reserved":false,"is_disabled":false,"rental_uris":{"android":"levelo://app?vid=e51549e2-5739-4b2c-a546-a12b98e3ab94","ios":"levelo://app?vid=e51549e2-5739-4b2c-a546-a12b98e3ab94"},"vehicle_type_id":"4","last_reported":1756210945,"current_range_meters":14000,"station_id":"ce4bgrh2rcd13ifvqc8g","pricing_plan_id":"cebpf4jnsgd1na2vs0mg"},{"bike_id":"17143f08-47ae-482a-af79-610af72ed478","system_id":"levelo_inurba_marseille","lat":43.292001,"lon":5.357999,"is_reserved":false,"is_disabled":false,"rental_uris":{"android":"levelo://app?vid=17143f08-47ae-482a-af79-610af72ed478","ios":"levelo://app?vid=17143f08-47ae-482a-af79-610af72ed478"},"vehicle_type_id":"4","last_reported":1756210945,"current_range_meters":14000,"station_id":"ce4bhb12rcd13ifvqel0","pricing_plan_id":"cebpf4jnsgd1na2vs0mg"},{"bike_id":"e55c5166-258e-4ef1-8bb0-61c40d73cb1f","system_id":"levelo_inurba_marseille","lat":43.28409,"lon":5.34987,"is_reserved":false,"is_disabled":false,"rental_uris":{"android":"levelo://app?vid=e55c5166-258e-4ef1-8bb0-61c40d73cb1f","ios":"levelo://app?vid=e55c5166-258e-4ef1-8bb0-61c40d73cb1f"},"vehicle_type_id":"4","last_reported":1756210945,"current_range_meters":14000,"station_id":"ce4bhbh2rcd13ifvqepg","pricing_plan_id":"cebpf4jnsgd1na2vs0mg"},{"bike_id":"a25faefd-0357-4bc0-914c-e2f2949d57b3","system_id":"levelo_inurba_marseille","lat":43.27071,"lon":5.42301,"is_reserved":false,"is_disabled":false,"rental_uris":{"android":"levelo://app?vid=a25faefd-0357-4bc0-914c-e2f2949d57b3","ios":"levelo://app?vid=a25faefd-0357-4bc0-914c-e2f2949d57b3"},"vehicle_type_id":"4","last_reported":1756210945,"current_range_meters":14000,"station_id":"ce4bhk92rcd13ifvqgb0","pricing_plan_id":"cebpf4jnsgd1na2vs0mg"},{"bike_id":"f84f46c8-243d-42cd-b308-2b289e4c09d3","system_id":"levelo_inurba_marseille","lat":43.334514,"lon":5.356717,"is_reserved":false,"is_disabled":false,"rental_uris":{"android":"levelo://app?vid=f84f46c8-243d-42cd-b308-2b289e4c09d3","ios":"levelo://app?vid=f84f46c8-243d-42cd-b308-2b289e4c09d3"},"vehicle_type_id":"4","last_reported":1756210945,"current_range_meters":14000,"station_id":"","pricing_plan_id":"cebpf4jnsgd1na2vs0mg"},{"bike_id":"a15a1c44-718b-407d-acaa-0383628c87d7","system_id":"levelo_inurba_marseille","lat":43.326911,"lon":5.392169,"is_reserved":false,"is_disabled":false,"rental_uris":{"android":"levelo://app?vid=a15a1c44-718b-407d-acaa-0383628c87d7","ios":"levelo://app?vid=a15a1c44-718b-407d-acaa-0383628c87d7"},"vehicle_type_id":"4","last_reported":1756210945,"current_range_meters":14400,"station_id":"","pricing_plan_id":"cebpf4jnsgd1na2vs0mg"},{"bike_id":"c47b2876-c564-417f-9d7f-97cdd2f94270","system_id":"levelo_inurba_marseille","lat":43.2415,"lon":5.36422,"is_reserved":false,"is_disabled":false,"rental_uris":{"android":"levelo://app?vid=c47b2876-c564-417f-9d7f-97cdd2f94270","ios":"levelo://app?vid=c47b2876-c564-417f-9d7f-97cdd2f94270"},"vehicle_type_id":"4","last_reported":1756210945,"current_range_meters":14400,"station_id":"cpo36qri1sfpv3e86is0","pricing_plan_id":"cebpf4jnsgd1na2vs0mg"},{"bike_id":"92a6daf4-52a3-4912-9963-677bd6223717","system_id":"levelo_inurba_marseille","lat":43.2119,"lon":5.35072,"is_reserved":false,"is_disabled":false,"rental_uris":{"android":"levelo://app?vid=92a6daf4-52a3-4912-9963-677bd6223717","ios":"levelo://app?vid=92a6daf4-52a3-4912-9963-677bd6223717"},"vehicle_type_id":"4","last_reported":1756210945,"current_range_meters":14400,"station_id":"st_cvj6sg6p6f1abm77japg","pricing_plan_id":"cebpf4jnsgd1na2vs0mg"},{"bike_id":"fd67696d-ef93-4fd1-be0a-8a9116cbc5b1","system_id":"levelo_inurba_marseille","lat":43.25006,"lon":5.389113,"is_reserved":false,"is_disabled":false,"rental_uris":{"android":"levelo://app?vid=fd67696d-ef93-4fd1-be0a-8a9116cbc5b1","ios":"levelo://app?vid=fd67696d-ef93-4fd1-be0a-8a9116cbc5b1"},"vehicle_type_id":"4","last_reported":1756210945,"current_range_meters":14400,"station_id":"","pricing_plan_id":"cebpf4jnsgd1na2vs0mg"},{"bike_id":"51842e17-ef10-4624-a23e-c8a182427991","system_id":"levelo_inurba_marseille","lat":43.31559,"lon":5.38175,"is_reserved":false,"is_disabled":false,"rental_uris":{"android":"levelo://app?vid=51842e17-ef10-4624-a23e-c8a182427991","ios":"levelo://app?vid=51842e17-ef10-4624-a23e-c8a182427991"},"vehicle_type_id":"4","last_reported":1756210945,"current_range_meters":14400,"station_id":"","pricing_plan_id":"cebpf4jnsgd1na2vs0mg"},{"bike_id":"b8f80bed-a26c-4b50-aa16-73ed9b840521","system_id":"levelo_inurba_marseille","lat":43.28429,"lon":5.35004,"is_reserved":false,"is_disabled":false,"rental_uris":{"android":"levelo://app?vid=b8f80bed-a26c-4b50-aa16-73ed9b840521","ios":"levelo://app?vid=b8f80bed-a26c-4b50-aa16-73ed9b840521"},"vehicle_type_id":"4","last_reported":1756210945,"current_range_meters":14400,"station_id":"ce4bhbh2rcd13ifvqepg","pricing_plan_id":"cebpf4jnsgd1na2vs0mg"},{"bike_id":"46bb9e02-33a5-4e9a-b16b-06a39fd7309b","system_id":"levelo_inurba_marseille","lat":43.27435,"lon":5.3942,"is_reserved":false,"is_disabled":false,"rental_uris":{"android":"levelo://app?vid=46bb9e02-33a5-4e9a-b16b-06a39fd7309b","ios":"levelo://app?vid=46bb9e02-33a5-4e9a-b16b-06a39fd7309b"},"vehicle_type_id":"4","last_reported":1756210945,"current_range_meters":14400,"station_id":"ce4bhdp2rcd13ifvqf20","pricing_plan_id":"cebpf4jnsgd1na2vs0mg"},{"bike_id":"5f9365e2-60dc-4158-a2c3-0e40911a7a32","system_id":"levelo_inurba_marseille","lat":43.33409,"lon":5.40079,"is_reserved":false,"is_disabled":false,"rental_uris":{"android":"levelo://app?vid=5f9365e2-60dc-4158-a2c3-0e40911a7a32","ios":"levelo://app?vid=5f9365e2-60dc-4158-a2c3-0e40911a7a32"},"vehicle_type_id":"4","last_reported":1756210945,"current_range_meters":14400,"station_id":"","pricing_plan_id":"cebpf4jnsgd1na2vs0mg"},{"bike_id":"1be3eb76-3ad5-4144-9e84-a823b032635f","system_id":"levelo_inurba_marseille","lat":43.29981,"lon":5.37182,"is_reserved":false,"is_disabled":false,"rental_uris":{"android":"levelo://app?vid=1be3eb76-3ad5-4144-9e84-a823b032635f","ios":"levelo://app?vid=1be3eb76-3ad5-4144-9e84-a823b032635f"},"vehicle_type_id":"4","last_reported":1756210945,"current_range_meters":14400,"station_id":"ce4bgr92rcd13ifvqc7g","pricing_plan_id":"cebpf4jnsgd1na2vs0mg"},{"bike_id":"3373f291-fdf9-4608-8755-af0a854bdfd2","system_id":"levelo_inurba_marseille","lat":43.21753,"lon":5.34594,"is_reserved":false,"is_disabled":false,"rental_uris":{"android":"levelo://app?vid=3373f291-fdf9-4608-8755-af0a854bdfd2","ios":"levelo://app?vid=3373f291-fdf9-4608-8755-af0a854bdfd2"},"vehicle_type_id":"4","last_reported":1756210945,"current_range_meters":14800,"station_id":"st_cvj6r9ubvosntc0bgbag","pricing_plan_id":"cebpf4jnsgd1na2vs0mg"},{"bike_id":"f50e029c-78e4-4943-96e6-f587e062386c","system_id":"levelo_inurba_marseille","lat":43.31709,"lon":5.42435,"is_reserved":false,"is_disabled":false,"rental_uris":{"android":"levelo://app?vid=f50e029c-78e4-4943-96e6-f587e062386c","ios":"levelo://app?vid=f50e029c-78e4-4943-96e6-f587e062386c"},"vehicle_type_id":"4","last_reported":1756210945,"current_range_meters":14800,"station_id":"ce4bhp92rcd13ifvqhbg","pricing_plan_id":"cebpf4jnsgd1na2vs0mg"},{"bike_id":"9930c7a8-3d2c-43a9-a556-765282cf6175","system_id":"levelo_inurba_marseille","lat":43.28951,"lon":5.39618,"is_reserved":false,"is_disabled":false,"rental_uris":{"android":"levelo://app?vid=9930c7a8-3d2c-43a9-a556-765282cf6175","ios":"levelo://app?vid=9930c7a8-3d2c-43a9-a556-765282cf6175"},"vehicle_type_id":"4","last_reported":1756210945,"current_range_meters":14800,"station_id":"ce4bh3h2rcd13ifvqdn0","pricing_plan_id":"cebpf4jnsgd1na2vs0mg"},{"bike_id":"806216fb-9217-4875-8fd5-9f139c321bc6","system_id":"levelo_inurba_marseille","lat":43.27377,"lon":5.36267,"is_reserved":false,"is_disabled":false,"rental_uris":{"android":"levelo://app?vid=806216fb-9217-4875-8fd5-9f139c321bc6","ios":"levelo://app?vid=806216fb-9217-4875-8fd5-9f139c321bc6"},"vehicle_type_id":"4","last_reported":1756210945,"current_range_meters":14800,"station_id":"ce4bhbh2rcd13ifvqeo0","pricing_plan_id":"cebpf4jnsgd1na2vs0mg"},{"bike_id":"50080086-5ad6-41c2-b993-d4f4d5e2439a","system_id":"levelo_inurba_marseille","lat":43.329602,"lon":5.389778,"is_reserved":false,"is_disabled":false,"rental_uris":{"android":"levelo://app?vid=50080086-5ad6-41c2-b993-d4f4d5e2439a","ios":"levelo://app?vid=50080086-5ad6-41c2-b993-d4f4d5e2439a"},"vehicle_type_id":"4","last_reported":1756210945,"current_range_meters":15200,"station_id":"","pricing_plan_id":"cebpf4jnsgd1na2vs0mg"},{"bike_id":"026e3973-93d1-4c5c-ae15-8b22641bac68","system_id":"levelo_inurba_marseille","lat":43.28641,"lon":5.35096,"is_reserved":false,"is_disabled":false,"rental_uris":{"android":"levelo://app?vid=026e3973-93d1-4c5c-ae15-8b22641bac68","ios":"levelo://app?vid=026e3973-93d1-4c5c-ae15-8b22641bac68"},"vehicle_type_id":"4","last_reported":1756210945,"current_range_meters":15200,"station_id":"ce4bhch2rcd13ifvqeug","pricing_plan_id":"cebpf4jnsgd1na2vs0mg"},{"bike_id":"eaac1ac6-6c5d-4274-970f-7bad9d177f4b","system_id":"levelo_inurba_marseille","lat":43.27185,"lon":5.39213,"is_reserved":false,"is_disabled":false,"rental_uris":{"android":"levelo://app?vid=eaac1ac6-6c5d-4274-970f-7bad9d177f4b","ios":"levelo://app?vid=eaac1ac6-6c5d-4274-970f-7bad9d177f4b"},"vehicle_type_id":"4","last_reported":1756210945,"current_range_meters":15200,"station_id":"ce4bhhp2rcd13ifvqfm0","pricing_plan_id":"cebpf4jnsgd1na2vs0mg"},{"bike_id":"1027bb83-a668-47de-9094-84302cb909d4","system_id":"levelo_inurba_marseille","lat":43.211909,"lon":5.350782,"is_reserved":false,"is_disabled":false,"rental_uris":{"android":"levelo://app?vid=1027bb83-a668-47de-9094-84302cb909d4","ios":"levelo://app?vid=1027bb83-a668-47de-9094-84302cb909d4"},"vehicle_type_id":"4","last_reported":1756210945,"current_range_meters":15200,"station_id":"st_cvj6sg6p6f1abm77japg","pricing_plan_id":"cebpf4jnsgd1na2vs0mg"},{"bike_id":"0e256118-fe33-4307-b7cb-16c76027513c","system_id":"levelo_inurba_marseille","lat":43.24095,"lon":5.37736,"is_reserved":false,"is_disabled":false,"rental_uris":{"android":"levelo://app?vid=0e256118-fe33-4307-b7cb-16c76027513c","ios":"levelo://app?vid=0e256118-fe33-4307-b7cb-16c76027513c"},"vehicle_type_id":"4","last_reported":1756210945,"current_range_meters":15200,"station_id":"ce4bhnp2rcd13ifvqgvg","pricing_plan_id":"cebpf4jnsgd1na2vs0mg"},{"bike_id":"af732ca8-2cea-448a-9928-59e03d12656f","system_id":"levelo_inurba_marseille","lat":43.33549,"lon":5.35813,"is_reserved":false,"is_disabled":false,"rental_uris":{"android":"levelo://app?vid=af732ca8-2cea-448a-9928-59e03d12656f","ios":"levelo://app?vid=af732ca8-2cea-448a-9928-59e03d12656f"},"vehicle_type_id":"4","last_reported":1756210945,"current_range_meters":12400,"station_id":"","pricing_plan_id":"cebpf4jnsgd1na2vs0mg"},{"bike_id":"db7d3d83-f39a-4469-8445-29697e69fec4","system_id":"levelo_inurba_marseille","lat":43.32232,"lon":5.38553,"is_reserved":false,"is_disabled":false,"rental_uris":{"android":"levelo://app?vid=db7d3d83-f39a-4469-8445-29697e69fec4","ios":"levelo://app?vid=db7d3d83-f39a-4469-8445-29697e69fec4"},"vehicle_type_id":"4","last_reported":1756210945,"current_range_meters":15200,"station_id":"","pricing_plan_id":"cebpf4jnsgd1na2vs0mg"},{"bike_id":"b243651b-cb07-42ce-afd0-8c676d14595c","system_id":"levelo_inurba_marseille","lat":43.25007,"lon":5.38917,"is_reserved":false,"is_disabled":false,"rental_uris":{"android":"levelo://app?vid=b243651b-cb07-42ce-afd0-8c676d14595c","ios":"levelo://app?vid=b243651b-cb07-42ce-afd0-8c676d14595c"},"vehicle_type_id":"4","last_reported":1756210945,"current_range_meters":16000,"station_id":"ce4bhgp2rcd13ifvqfd0","pricing_plan_id":"cebpf4jnsgd1na2vs0mg"},{"bike_id":"977df7ca-21e9-43e2-ade8-22de20bad5aa","system_id":"levelo_inurba_marseille","lat":43.26212,"lon":5.37443,"is_reserved":false,"is_disabled":false,"rental_uris":{"android":"levelo://app?vid=977df7ca-21e9-43e2-ade8-22de20bad5aa","ios":"levelo://app?vid=977df7ca-21e9-43e2-ade8-22de20bad5aa"},"vehicle_type_id":"4","last_reported":1756210945,"current_range_meters":16000,"station_id":"ce4bhgp2rcd13ifvqfc0","pricing_plan_id":"cebpf4jnsgd1na2vs0mg"},{"bike_id":"444185a1-99b2-4724-a588-1f691746c053","system_id":"levelo_inurba_marseille","lat":43.27083,"lon":5.42278,"is_reserved":false,"is_disabled":false,"rental_uris":{"android":"levelo://app?vid=444185a1-99b2-4724-a588-1f691746c053","ios":"levelo://app?vid=444185a1-99b2-4724-a588-1f691746c053"},"vehicle_type_id":"4","last_reported":1756210945,"current_range_meters":16000,"station_id":"ce4bhk92rcd13ifvqgb0","pricing_plan_id":"cebpf4jnsgd1na2vs0mg"},{"bike_id":"0988fa91-9cc7-4f9a-af6e-fc691961b1a8","system_id":"levelo_inurba_marseille","lat":43.255,"lon":5.3765,"is_reserved":false,"is_disabled":false,"rental_uris":{"android":"levelo://app?vid=0988fa91-9cc7-4f9a-af6e-fc691961b1a8","ios":"levelo://app?vid=0988fa91-9cc7-4f9a-af6e-fc691961b1a8"},"vehicle_type_id":"4","last_reported":1756210945,"current_range_meters":16000,"station_id":"ce4bhh12rcd13ifvqff0","pricing_plan_id":"cebpf4jnsgd1na2vs0mg"},{"bike_id":"84d12ccb-6366-409a-bb47-44f6ad184127","system_id":"levelo_inurba_marseille","lat":43.31216,"lon":5.36881,"is_reserved":false,"is_disabled":false,"rental_uris":{"android":"levelo://app?vid=84d12ccb-6366-409a-bb47-44f6ad184127","ios":"levelo://app?vid=84d12ccb-6366-409a-bb47-44f6ad184127"},"vehicle_type_id":"4","last_reported":1756210945,"current_range_meters":16000,"station_id":"ce4bgl92rcd13ifvqbq0","pricing_plan_id":"cebpf4jnsgd1na2vs0mg"},{"bike_id":"974ad24a-ebe3-4eaf-93e5-d979d93ceb49","system_id":"levelo_inurba_marseille","lat":43.30536,"lon":5.36531,"is_reserved":false,"is_disabled":false,"rental_uris":{"android":"levelo://app?vid=974ad24a-ebe3-4eaf-93e5-d979d93ceb49","ios":"levelo://app?vid=974ad24a-ebe3-4eaf-93e5-d979d93ceb49"},"vehicle_type_id":"4","last_reported":1756210945,"current_range_meters":16000,"station_id":"ce4bgs12rcd13ifvqcag","pricing_plan_id":"cebpf4jnsgd1na2vs0mg"},{"bike_id":"b0c8ee70-fcce-46a2-b2d8-80ef4063c6e0","system_id":"levelo_inurba_marseille","lat":43.26559,"lon":5.37285,"is_reserved":false,"is_disabled":false,"rental_uris":{"android":"levelo://app?vid=b0c8ee70-fcce-46a2-b2d8-80ef4063c6e0","ios":"levelo://app?vid=b0c8ee70-fcce-46a2-b2d8-80ef4063c6e0"},"vehicle_type_id":"4","last_reported":1756210945,"current_range_meters":16000,"station_id":"ce4bhg12rcd13ifvqf70","pricing_plan_id":"cebpf4jnsgd1na2vs0mg"},{"bike_id":"c28eb31b-f5a8-430d-a236-fc431093b085","system_id":"levelo_inurba_marseille","lat":43.27998,"lon":5.40005,"is_reserved":false,"is_disabled":false,"rental_uris":{"android":"levelo://app?vid=c28eb31b-f5a8-430d-a236-fc431093b085","ios":"levelo://app?vid=c28eb31b-f5a8-430d-a236-fc431093b085"},"vehicle_type_id":"4","last_reported":1756210945,"current_range_meters":16000,"station_id":"ce4bho92rcd13ifvqh4g","pricing_plan_id":"cebpf4jnsgd1na2vs0mg"},{"bike_id":"272700e1-b275-4d5d-a233-3e020d4f3cd1","system_id":"levelo_inurba_marseille","lat":43.30267,"lon":5.37709,"is_reserved":false,"is_disabled":false,"rental_uris":{"android":"levelo://app?vid=272700e1-b275-4d5d-a233-3e020d4f3cd1","ios":"levelo://app?vid=272700e1-b275-4d5d-a233-3e020d4f3cd1"},"vehicle_type_id":"4","last_reported":1756210945,"current_range_meters":16400,"station_id":"ce4bguh2rcd13ifvqcj0","pricing_plan_id":"cebpf4jnsgd1na2vs0mg"},{"bike_id":"826f9c0a-980b-43d8-bf4c-e43d77c221ed","system_id":"levelo_inurba_marseille","lat":43.23185,"lon":5.3998,"is_reserved":false,"is_disabled":false,"rental_uris":{"android":"levelo://app?vid=826f9c0a-980b-43d8-bf4c-e43d77c221ed","ios":"levelo://app?vid=826f9c0a-980b-43d8-bf4c-e43d77c221ed"},"vehicle_type_id":"4","last_reported":1756210945,"current_range_meters":16400,"station_id":"ce4bhn12rcd13ifvqgqg","pricing_plan_id":"cebpf4jnsgd1na2vs0mg"},{"bike_id":"f0400c37-c7f6-4929-b1ac-d92430ff6f2d","system_id":"levelo_inurba_marseille","lat":43.275708,"lon":5.397122,"is_reserved":false,"is_disabled":false,"rental_uris":{"android":"levelo://app?vid=f0400c37-c7f6-4929-b1ac-d92430ff6f2d","ios":"levelo://app?vid=f0400c37-c7f6-4929-b1ac-d92430ff6f2d"},"vehicle_type_id":"4","last_reported":1756210945,"current_range_meters":16400,"station_id":"","pricing_plan_id":"cebpf4jnsgd1na2vs0mg"},{"bike_id":"5bce688b-fc81-4596-8277-b66f54be87c1","system_id":"levelo_inurba_marseille","lat":43.33768,"lon":5.37438,"is_reserved":false,"is_disabled":false,"rental_uris":{"android":"levelo://app?vid=5bce688b-fc81-4596-8277-b66f54be87c1","ios":"levelo://app?vid=5bce688b-fc81-4596-8277-b66f54be87c1"},"vehicle_type_id":"4","last_reported":1756210945,"current_range_meters":16400,"station_id":"","pricing_plan_id":"cebpf4jnsgd1na2vs0mg"},{"bike_id":"ac684350-3014-45f3-875d-af933fb50867","system_id":"levelo_inurba_marseille","lat":43.26198,"lon":5.37445,"is_reserved":false,"is_disabled":true,"rental_uris":{"android":"levelo://app?vid=ac684350-3014-45f3-875d-af933fb50867","ios":"levelo://app?vid=ac684350-3014-45f3-875d-af933fb50867"},"vehicle_type_id":"4","last_reported":1756210945,"current_range_meters":16400,"station_id":"ce4bhgp2rcd13ifvqfc0","pricing_plan_id":"cebpf4jnsgd1na2vs0mg"},{"bike_id":"f18d5133-1ce1-4bba-b6d7-73c0fe7826cb","system_id":"levelo_inurba_marseille","lat":43.28665,"lon":5.3636,"is_reserved":false,"is_disabled":false,"rental_uris":{"android":"levelo://app?vid=f18d5133-1ce1-4bba-b6d7-73c0fe7826cb","ios":"levelo://app?vid=f18d5133-1ce1-4bba-b6d7-73c0fe7826cb"},"vehicle_type_id":"4","last_reported":1756210945,"current_range_meters":16000,"station_id":"ce4bhah2rcd13ifvqej0","pricing_plan_id":"cebpf4jnsgd1na2vs0mg"},{"bike_id":"5ea5de96-ab5a-4443-984f-50a4d21f7918","system_id":"levelo_inurba_marseille","lat":43.30883,"lon":5.37188,"is_reserved":false,"is_disabled":false,"rental_uris":{"android":"levelo://app?vid=5ea5de96-ab5a-4443-984f-50a4d21f7918","ios":"levelo://app?vid=5ea5de96-ab5a-4443-984f-50a4d21f7918"},"vehicle_type_id":"4","last_reported":1756210945,"current_range_meters":16400,"station_id":"ce4bguh2rcd13ifvqckg","pricing_plan_id":"cebpf4jnsgd1na2vs0mg"},{"bike_id":"e67ef5a5-ea50-4c26-92f7-4029031ccd1b","system_id":"levelo_inurba_marseille","lat":43.30138,"lon":5.37419,"is_reserved":false,"is_disabled":false,"rental_uris":{"android":"levelo://app?vid=e67ef5a5-ea50-4c26-92f7-4029031ccd1b","ios":"levelo://app?vid=e67ef5a5-ea50-4c26-92f7-4029031ccd1b"},"vehicle_type_id":"4","last_reported":1756210945,"current_range_meters":16400,"station_id":"ce4bgs92rcd13ifvqcc0","pricing_plan_id":"cebpf4jnsgd1na2vs0mg"},{"bike_id":"777a8c83-aed8-4881-84b6-34465956e738","system_id":"levelo_inurba_marseille","lat":43.25749,"lon":5.41014,"is_reserved":false,"is_disabled":false,"rental_uris":{"android":"levelo://app?vid=777a8c83-aed8-4881-84b6-34465956e738","ios":"levelo://app?vid=777a8c83-aed8-4881-84b6-34465956e738"},"vehicle_type_id":"4","last_reported":1756210945,"current_range_meters":16400,"station_id":"","pricing_plan_id":"cebpf4jnsgd1na2vs0mg"},{"bike_id":"507bfa7a-77ad-4faf-874f-5e94ad334f53","system_id":"levelo_inurba_marseille","lat":43.23183,"lon":5.39991,"is_reserved":false,"is_disabled":false,"rental_uris":{"android":"levelo://app?vid=507bfa7a-77ad-4faf-874f-5e94ad334f53","ios":"levelo://app?vid=507bfa7a-77ad-4faf-874f-5e94ad334f53"},"vehicle_type_id":"4","last_reported":1756210945,"current_range_meters":16400,"station_id":"ce4bhn12rcd13ifvqgqg","pricing_plan_id":"cebpf4jnsgd1na2vs0mg"},{"bike_id":"03b063c9-1165-451e-9197-647f1c1dffbb","system_id":"levelo_inurba_marseille","lat":43.23151,"lon":5.43722,"is_reserved":false,"is_disabled":false,"rental_uris":{"android":"levelo://app?vid=03b063c9-1165-451e-9197-647f1c1dffbb","ios":"levelo://app?vid=03b063c9-1165-451e-9197-647f1c1dffbb"},"vehicle_type_id":"4","last_reported":1756210945,"current_range_meters":16400,"station_id":"ce4bhmp2rcd13ifvqgog","pricing_plan_id":"cebpf4jnsgd1na2vs0mg"},{"bike_id":"af744081-2681-4d1e-9525-a9843cca33d2","system_id":"levelo_inurba_marseille","lat":43.32534,"lon":5.36492,"is_reserved":false,"is_disabled":false,"rental_uris":{"android":"levelo://app?vid=af744081-2681-4d1e-9525-a9843cca33d2","ios":"levelo://app?vid=af744081-2681-4d1e-9525-a9843cca33d2"},"vehicle_type_id":"4","last_reported":1756210945,"current_range_meters":16400,"station_id":"","pricing_plan_id":"cebpf4jnsgd1na2vs0mg"},{"bike_id":"0979c739-5f5a-42e4-8b4d-5606fa5e28ec","system_id":"levelo_inurba_marseille","lat":43.21762,"lon":5.34593,"is_reserved":false,"is_disabled":false,"rental_uris":{"android":"levelo://app?vid=0979c739-5f5a-42e4-8b4d-5606fa5e28ec","ios":"levelo://app?vid=0979c739-5f5a-42e4-8b4d-5606fa5e28ec"},"vehicle_type_id":"4","last_reported":1756210945,"current_range_meters":16400,"station_id":"st_cvj6r9ubvosntc0bgbag","pricing_plan_id":"cebpf4jnsgd1na2vs0mg"},{"bike_id":"070c5c08-8102-4233-9aa2-6dc44cc7988e","system_id":"levelo_inurba_marseille","lat":43.30287,"lon":5.38418,"is_reserved":false,"is_disabled":false,"rental_uris":{"android":"levelo://app?vid=070c5c08-8102-4233-9aa2-6dc44cc7988e","ios":"levelo://app?vid=070c5c08-8102-4233-9aa2-6dc44cc7988e"},"vehicle_type_id":"4","last_reported":1756210945,"current_range_meters":16800,"station_id":"","pricing_plan_id":"cebpf4jnsgd1na2vs0mg"},{"bike_id":"3ab0dcb5-3f03-4445-99cd-9c424e066f08","system_id":"levelo_inurba_marseille","lat":43.29847,"lon":5.36266,"is_reserved":false,"is_disabled":false,"rental_uris":{"android":"levelo://app?vid=3ab0dcb5-3f03-4445-99cd-9c424e066f08","ios":"levelo://app?vid=3ab0dcb5-3f03-4445-99cd-9c424e066f08"},"vehicle_type_id":"4","last_reported":1756210945,"current_range_meters":16800,"station_id":"ce4bgpp2rcd13ifvqc3g","pricing_plan_id":"cebpf4jnsgd1na2vs0mg"},{"bike_id":"4fc0d636-130b-4784-b54f-8e669b16fbd9","system_id":"levelo_inurba_marseille","lat":43.32461,"lon":5.36585,"is_reserved":false,"is_disabled":false,"rental_uris":{"android":"levelo://app?vid=4fc0d636-130b-4784-b54f-8e669b16fbd9","ios":"levelo://app?vid=4fc0d636-130b-4784-b54f-8e669b16fbd9"},"vehicle_type_id":"4","last_reported":1756210945,"current_range_meters":16800,"station_id":"ce4bhs12rcd13ifvqhvg","pricing_plan_id":"cebpf4jnsgd1na2vs0mg"},{"bike_id":"06454872-12d9-48b6-9781-b16e38ca1faf","system_id":"levelo_inurba_marseille","lat":43.29942,"lon":5.3656,"is_reserved":false,"is_disabled":false,"rental_uris":{"android":"levelo://app?vid=06454872-12d9-48b6-9781-b16e38ca1faf","ios":"levelo://app?vid=06454872-12d9-48b6-9781-b16e38ca1faf"},"vehicle_type_id":"4","last_reported":1756210945,"current_range_meters":16800,"station_id":"ce4bgm92rcd13ifvqbr0","pricing_plan_id":"cebpf4jnsgd1na2vs0mg"},{"bike_id":"1f8abda0-b398-458e-b1d4-8f630b737e5e","system_id":"levelo_inurba_marseille","lat":43.257237,"lon":5.411177,"is_reserved":false,"is_disabled":false,"rental_uris":{"android":"levelo://app?vid=1f8abda0-b398-458e-b1d4-8f630b737e5e","ios":"levelo://app?vid=1f8abda0-b398-458e-b1d4-8f630b737e5e"},"vehicle_type_id":"4","last_reported":1756210945,"current_range_meters":16800,"station_id":"ce4bhkp2rcd13ifvqgd0","pricing_plan_id":"cebpf4jnsgd1na2vs0mg"},{"bike_id":"2973bb63-a412-4e25-bf14-062ff276284a","system_id":"levelo_inurba_marseille","lat":43.28615,"lon":5.35108,"is_reserved":false,"is_disabled":false,"rental_uris":{"android":"levelo://app?vid=2973bb63-a412-4e25-bf14-062ff276284a","ios":"levelo://app?vid=2973bb63-a412-4e25-bf14-062ff276284a"},"vehicle_type_id":"4","last_reported":1756210945,"current_range_meters":16800,"station_id":"ce4bhch2rcd13ifvqeug","pricing_plan_id":"cebpf4jnsgd1na2vs0mg"},{"bike_id":"f20d33e7-7322-492b-a458-228c763f42cf","system_id":"levelo_inurba_marseille","lat":43.28384,"lon":5.35013,"is_reserved":false,"is_disabled":false,"rental_uris":{"android":"levelo://app?vid=f20d33e7-7322-492b-a458-228c763f42cf","ios":"levelo://app?vid=f20d33e7-7322-492b-a458-228c763f42cf"},"vehicle_type_id":"4","last_reported":1756210945,"current_range_meters":16800,"station_id":"ce4bhbh2rcd13ifvqepg","pricing_plan_id":"cebpf4jnsgd1na2vs0mg"},{"bike_id":"afa56f66-2a5a-411a-9035-eff838f9b42a","system_id":"levelo_inurba_marseille","lat":43.29642,"lon":5.37193,"is_reserved":false,"is_disabled":false,"rental_uris":{"android":"levelo://app?vid=afa56f66-2a5a-411a-9035-eff838f9b42a","ios":"levelo://app?vid=afa56f66-2a5a-411a-9035-eff838f9b42a"},"vehicle_type_id":"4","last_reported":1756210945,"current_range_meters":16800,"station_id":"ce4bgnh2rcd13ifvqc0g","pricing_plan_id":"cebpf4jnsgd1na2vs0mg"},{"bike_id":"01ed2653-a9c2-4dbb-b66d-74044d98088b","system_id":"levelo_inurba_marseille","lat":43.28267,"lon":5.35063,"is_reserved":false,"is_disabled":false,"rental_uris":{"android":"levelo://app?vid=01ed2653-a9c2-4dbb-b66d-74044d98088b","ios":"levelo://app?vid=01ed2653-a9c2-4dbb-b66d-74044d98088b"},"vehicle_type_id":"4","last_reported":1756210945,"current_range_meters":16800,"station_id":"ce4bhbp2rcd13ifvqerg","pricing_plan_id":"cebpf4jnsgd1na2vs0mg"},{"bike_id":"b17e9630-4e67-4e4a-bb95-0a4f7773f222","system_id":"levelo_inurba_marseille","lat":43.29676,"lon":5.37938,"is_reserved":false,"is_disabled":false,"rental_uris":{"android":"levelo://app?vid=b17e9630-4e67-4e4a-bb95-0a4f7773f222","ios":"levelo://app?vid=b17e9630-4e67-4e4a-bb95-0a4f7773f222"},"vehicle_type_id":"4","last_reported":1756210945,"current_range_meters":16800,"station_id":"","pricing_plan_id":"cebpf4jnsgd1na2vs0mg"},{"bike_id":"baf7e9f9-45ea-4235-ae37-d9c82c198bae","system_id":"levelo_inurba_marseille","lat":43.25004,"lon":5.38946,"is_reserved":false,"is_disabled":false,"rental_uris":{"android":"levelo://app?vid=baf7e9f9-45ea-4235-ae37-d9c82c198bae","ios":"levelo://app?vid=baf7e9f9-45ea-4235-ae37-d9c82c198bae"},"vehicle_type_id":"4","last_reported":1756210945,"current_range_meters":17200,"station_id":"ce4bhgp2rcd13ifvqfd0","pricing_plan_id":"cebpf4jnsgd1na2vs0mg"},{"bike_id":"df37200e-49b8-4a8b-b4cd-ca6d9e98e4d7","system_id":"levelo_inurba_marseille","lat":43.23189,"lon":5.39985,"is_reserved":false,"is_disabled":false,"rental_uris":{"android":"levelo://app?vid=df37200e-49b8-4a8b-b4cd-ca6d9e98e4d7","ios":"levelo://app?vid=df37200e-49b8-4a8b-b4cd-ca6d9e98e4d7"},"vehicle_type_id":"4","last_reported":1756210945,"current_range_meters":17600,"station_id":"ce4bhn12rcd13ifvqgqg","pricing_plan_id":"cebpf4jnsgd1na2vs0mg"},{"bike_id":"2541d4fc-920b-45e5-9207-4521eda06719","system_id":"levelo_inurba_marseille","lat":43.3093,"lon":5.40136,"is_reserved":false,"is_disabled":false,"rental_uris":{"android":"levelo://app?vid=2541d4fc-920b-45e5-9207-4521eda06719","ios":"levelo://app?vid=2541d4fc-920b-45e5-9207-4521eda06719"},"vehicle_type_id":"4","last_reported":1756210945,"current_range_meters":17600,"station_id":"ce4bgvp2rcd13ifvqct0","pricing_plan_id":"cebpf4jnsgd1na2vs0mg"},{"bike_id":"0306ba73-3d0f-4523-9d11-9a4554b2d8ff","system_id":"levelo_inurba_marseille","lat":43.21185,"lon":5.35076,"is_reserved":false,"is_disabled":false,"rental_uris":{"android":"levelo://app?vid=0306ba73-3d0f-4523-9d11-9a4554b2d8ff","ios":"levelo://app?vid=0306ba73-3d0f-4523-9d11-9a4554b2d8ff"},"vehicle_type_id":"4","last_reported":1756210945,"current_range_meters":17600,"station_id":"st_cvj6sg6p6f1abm77japg","pricing_plan_id":"cebpf4jnsgd1na2vs0mg"},{"bike_id":"cd822ebe-8d01-44f2-b9e8-1f0b3a981bae","system_id":"levelo_inurba_marseille","lat":43.28846,"lon":5.35843,"is_reserved":false,"is_disabled":true,"rental_uris":{"android":"levelo://app?vid=cd822ebe-8d01-44f2-b9e8-1f0b3a981bae","ios":"levelo://app?vid=cd822ebe-8d01-44f2-b9e8-1f0b3a981bae"},"vehicle_type_id":"4","last_reported":1756210945,"current_range_meters":17600,"station_id":"ce4bhb12rcd13ifvqem0","pricing_plan_id":"cebpf4jnsgd1na2vs0mg"},{"bike_id":"96b99427-8885-496e-ab85-145187f2bdf1","system_id":"levelo_inurba_marseille","lat":43.32108,"lon":5.36768,"is_reserved":false,"is_disabled":false,"rental_uris":{"android":"levelo://app?vid=96b99427-8885-496e-ab85-145187f2bdf1","ios":"levelo://app?vid=96b99427-8885-496e-ab85-145187f2bdf1"},"vehicle_type_id":"4","last_reported":1756210945,"current_range_meters":17600,"station_id":"ce4bhrh2rcd13ifvqhug","pricing_plan_id":"cebpf4jnsgd1na2vs0mg"},{"bike_id":"be00e296-420d-411a-933e-59cf249e8cad","system_id":"levelo_inurba_marseille","lat":43.21259,"lon":5.35283,"is_reserved":false,"is_disabled":false,"rental_uris":{"android":"levelo://app?vid=be00e296-420d-411a-933e-59cf249e8cad","ios":"levelo://app?vid=be00e296-420d-411a-933e-59cf249e8cad"},"vehicle_type_id":"4","last_reported":1756210945,"current_range_meters":17600,"station_id":"","pricing_plan_id":"cebpf4jnsgd1na2vs0mg"},{"bike_id":"c794b0b8-3a06-4dd9-b707-6ad1d096695c","system_id":"levelo_inurba_marseille","lat":43.29895,"lon":5.43663,"is_reserved":false,"is_disabled":false,"rental_uris":{"android":"levelo://app?vid=c794b0b8-3a06-4dd9-b707-6ad1d096695c","ios":"levelo://app?vid=c794b0b8-3a06-4dd9-b707-6ad1d096695c"},"vehicle_type_id":"4","last_reported":1756210945,"current_range_meters":18000,"station_id":"ce4bhpp2rcd13ifvqhfg","pricing_plan_id":"cebpf4jnsgd1na2vs0mg"},{"bike_id":"4a60479a-3004-454e-9ec8-4e5c011ffd5b","system_id":"levelo_inurba_marseille","lat":43.31688,"lon":5.40476,"is_reserved":false,"is_disabled":false,"rental_uris":{"android":"levelo://app?vid=4a60479a-3004-454e-9ec8-4e5c011ffd5b","ios":"levelo://app?vid=4a60479a-3004-454e-9ec8-4e5c011ffd5b"},"vehicle_type_id":"4","last_reported":1756210945,"current_range_meters":17600,"station_id":"ce4bh012rcd13ifvqd00","pricing_plan_id":"cebpf4jnsgd1na2vs0mg"},{"bike_id":"3dff11d5-3872-4ffe-8cce-b5631d6c6058","system_id":"levelo_inurba_marseille","lat":43.32697,"lon":5.39226,"is_reserved":false,"is_disabled":false,"rental_uris":{"android":"levelo://app?vid=3dff11d5-3872-4ffe-8cce-b5631d6c6058","ios":"levelo://app?vid=3dff11d5-3872-4ffe-8cce-b5631d6c6058"},"vehicle_type_id":"4","last_reported":1756210945,"current_range_meters":18000,"station_id":"","pricing_plan_id":"cebpf4jnsgd1na2vs0mg"},{"bike_id":"40c1fb45-9550-4904-9c4b-5647cd1299ba","system_id":"levelo_inurba_marseille","lat":43.21197,"lon":5.35079,"is_reserved":false,"is_disabled":false,"rental_uris":{"android":"levelo://app?vid=40c1fb45-9550-4904-9c4b-5647cd1299ba","ios":"levelo://app?vid=40c1fb45-9550-4904-9c4b-5647cd1299ba"},"vehicle_type_id":"4","last_reported":1756210945,"current_range_meters":18800,"station_id":"st_cvj6sg6p6f1abm77japg","pricing_plan_id":"cebpf4jnsgd1na2vs0mg"},{"bike_id":"248bf14d-378d-4e2f-9999-982acfdf56f9","system_id":"levelo_inurba_marseille","lat":43.284,"lon":5.35028,"is_reserved":false,"is_disabled":false,"rental_uris":{"android":"levelo://app?vid=248bf14d-378d-4e2f-9999-982acfdf56f9","ios":"levelo://app?vid=248bf14d-378d-4e2f-9999-982acfdf56f9"},"vehicle_type_id":"4","last_reported":1756210945,"current_range_meters":18800,"station_id":"ce4bhbh2rcd13ifvqepg","pricing_plan_id":"cebpf4jnsgd1na2vs0mg"},{"bike_id":"fbf0e9b4-0244-4455-89e8-bb336b1646cf","system_id":"levelo_inurba_marseille","lat":43.23201,"lon":5.40003,"is_reserved":false,"is_disabled":false,"rental_uris":{"android":"levelo://app?vid=fbf0e9b4-0244-4455-89e8-bb336b1646cf","ios":"levelo://app?vid=fbf0e9b4-0244-4455-89e8-bb336b1646cf"},"vehicle_type_id":"4","last_reported":1756210945,"current_range_meters":18800,"station_id":"ce4bhn12rcd13ifvqgqg","pricing_plan_id":"cebpf4jnsgd1na2vs0mg"},{"bike_id":"abaf99ca-5823-4460-ba5c-ff01280743d0","system_id":"levelo_inurba_marseille","lat":43.27054,"lon":5.42298,"is_reserved":false,"is_disabled":false,"rental_uris":{"android":"levelo://app?vid=abaf99ca-5823-4460-ba5c-ff01280743d0","ios":"levelo://app?vid=abaf99ca-5823-4460-ba5c-ff01280743d0"},"vehicle_type_id":"4","last_reported":1756210945,"current_range_meters":18800,"station_id":"ce4bhk92rcd13ifvqgb0","pricing_plan_id":"cebpf4jnsgd1na2vs0mg"},{"bike_id":"4dd066a3-5039-4c08-96e4-92ee4cbb306d","system_id":"levelo_inurba_marseille","lat":43.23219,"lon":5.35535,"is_reserved":false,"is_disabled":false,"rental_uris":{"android":"levelo://app?vid=4dd066a3-5039-4c08-96e4-92ee4cbb306d","ios":"levelo://app?vid=4dd066a3-5039-4c08-96e4-92ee4cbb306d"},"vehicle_type_id":"4","last_reported":1756210945,"current_range_meters":18800,"station_id":"ce4bhu92rcd13ifvqi70","pricing_plan_id":"cebpf4jnsgd1na2vs0mg"},{"bike_id":"d5edd176-dc20-48cc-aea0-c4b4119653a3","system_id":"levelo_inurba_marseille","lat":43.2841,"lon":5.34996,"is_reserved":false,"is_disabled":false,"rental_uris":{"android":"levelo://app?vid=d5edd176-dc20-48cc-aea0-c4b4119653a3","ios":"levelo://app?vid=d5edd176-dc20-48cc-aea0-c4b4119653a3"},"vehicle_type_id":"4","last_reported":1756210945,"current_range_meters":18800,"station_id":"ce4bhbh2rcd13ifvqepg","pricing_plan_id":"cebpf4jnsgd1na2vs0mg"},{"bike_id":"a78c16ad-366d-4781-aac7-605a2fd3997b","system_id":"levelo_inurba_marseille","lat":43.28421,"lon":5.34991,"is_reserved":false,"is_disabled":false,"rental_uris":{"android":"levelo://app?vid=a78c16ad-366d-4781-aac7-605a2fd3997b","ios":"levelo://app?vid=a78c16ad-366d-4781-aac7-605a2fd3997b"},"vehicle_type_id":"4","last_reported":1756210945,"current_range_meters":18800,"station_id":"ce4bhbh2rcd13ifvqepg","pricing_plan_id":"cebpf4jnsgd1na2vs0mg"},{"bike_id":"3efd5b4c-544b-47ae-b771-88c8225668bb","system_id":"levelo_inurba_marseille","lat":43.24143,"lon":5.36414,"is_reserved":false,"is_disabled":false,"rental_uris":{"android":"levelo://app?vid=3efd5b4c-544b-47ae-b771-88c8225668bb","ios":"levelo://app?vid=3efd5b4c-544b-47ae-b771-88c8225668bb"},"vehicle_type_id":"4","last_reported":1756210945,"current_range_meters":19200,"station_id":"cpo36qri1sfpv3e86is0","pricing_plan_id":"cebpf4jnsgd1na2vs0mg"},{"bike_id":"4c244c84-42a6-4974-bfc8-8e5591f3a1e7","system_id":"levelo_inurba_marseille","lat":43.30421,"lon":5.39757,"is_reserved":false,"is_disabled":false,"rental_uris":{"android":"levelo://app?vid=4c244c84-42a6-4974-bfc8-8e5591f3a1e7","ios":"levelo://app?vid=4c244c84-42a6-4974-bfc8-8e5591f3a1e7"},"vehicle_type_id":"4","last_reported":1756210945,"current_range_meters":18800,"station_id":"ce4bh092rcd13ifvqd20","pricing_plan_id":"cebpf4jnsgd1na2vs0mg"},{"bike_id":"e5eabf25-4e1c-476e-b130-9f83cdcfc80c","system_id":"levelo_inurba_marseille","lat":43.298,"lon":5.41721,"is_reserved":false,"is_disabled":false,"rental_uris":{"android":"levelo://app?vid=e5eabf25-4e1c-476e-b130-9f83cdcfc80c","ios":"levelo://app?vid=e5eabf25-4e1c-476e-b130-9f83cdcfc80c"},"vehicle_type_id":"4","last_reported":1756210945,"current_range_meters":19200,"station_id":"","pricing_plan_id":"cebpf4jnsgd1na2vs0mg"},{"bike_id":"a840bdfa-1651-4702-b8f5-e83149e931f2","system_id":"levelo_inurba_marseille","lat":43.2827,"lon":5.35055,"is_reserved":false,"is_disabled":false,"rental_uris":{"android":"levelo://app?vid=a840bdfa-1651-4702-b8f5-e83149e931f2","ios":"levelo://app?vid=a840bdfa-1651-4702-b8f5-e83149e931f2"},"vehicle_type_id":"4","last_reported":1756210945,"current_range_meters":19200,"station_id":"ce4bhbp2rcd13ifvqerg","pricing_plan_id":"cebpf4jnsgd1na2vs0mg"},{"bike_id":"20f28f76-b755-47e9-8a3e-cd105c7018b9","system_id":"levelo_inurba_marseille","lat":43.30538,"lon":5.36556,"is_reserved":false,"is_disabled":false,"rental_uris":{"android":"levelo://app?vid=20f28f76-b755-47e9-8a3e-cd105c7018b9","ios":"levelo://app?vid=20f28f76-b755-47e9-8a3e-cd105c7018b9"},"vehicle_type_id":"4","last_reported":1756210945,"current_range_meters":19200,"station_id":"ce4bgs12rcd13ifvqcag","pricing_plan_id":"cebpf4jnsgd1na2vs0mg"},{"bike_id":"70bb87b1-07d8-41e9-a23a-1e0097df11e6","system_id":"levelo_inurba_marseille","lat":43.30252,"lon":5.4006,"is_reserved":false,"is_disabled":false,"rental_uris":{"android":"levelo://app?vid=70bb87b1-07d8-41e9-a23a-1e0097df11e6","ios":"levelo://app?vid=70bb87b1-07d8-41e9-a23a-1e0097df11e6"},"vehicle_type_id":"4","last_reported":1756210945,"current_range_meters":19200,"station_id":"ce4bgvh2rcd13ifvqcs0","pricing_plan_id":"cebpf4jnsgd1na2vs0mg"},{"bike_id":"f245211a-e878-4ba8-82fd-b960cbc58020","system_id":"levelo_inurba_marseille","lat":43.24166,"lon":5.36393,"is_reserved":false,"is_disabled":false,"rental_uris":{"android":"levelo://app?vid=f245211a-e878-4ba8-82fd-b960cbc58020","ios":"levelo://app?vid=f245211a-e878-4ba8-82fd-b960cbc58020"},"vehicle_type_id":"4","last_reported":1756210945,"current_range_meters":19200,"station_id":"cpo36qri1sfpv3e86is0","pricing_plan_id":"cebpf4jnsgd1na2vs0mg"},{"bike_id":"7574a184-e163-435b-be50-4d80b1f9f304","system_id":"levelo_inurba_marseille","lat":43.24162,"lon":5.36415,"is_reserved":false,"is_disabled":false,"rental_uris":{"android":"levelo://app?vid=7574a184-e163-435b-be50-4d80b1f9f304","ios":"levelo://app?vid=7574a184-e163-435b-be50-4d80b1f9f304"},"vehicle_type_id":"4","last_reported":1756210945,"current_range_meters":19200,"station_id":"cpo36qri1sfpv3e86is0","pricing_plan_id":"cebpf4jnsgd1na2vs0mg"},{"bike_id":"5a63cc4f-02af-4d70-82a0-f2e560a9fea2","system_id":"levelo_inurba_marseille","lat":43.21737,"lon":5.34607,"is_reserved":false,"is_disabled":false,"rental_uris":{"android":"levelo://app?vid=5a63cc4f-02af-4d70-82a0-f2e560a9fea2","ios":"levelo://app?vid=5a63cc4f-02af-4d70-82a0-f2e560a9fea2"},"vehicle_type_id":"4","last_reported":1756210945,"current_range_meters":19200,"station_id":"st_cvj6r9ubvosntc0bgbag","pricing_plan_id":"cebpf4jnsgd1na2vs0mg"},{"bike_id":"7a4c7327-869b-418c-afd3-2fa3665ffd5c","system_id":"levelo_inurba_marseille","lat":43.2463,"lon":5.43147,"is_reserved":false,"is_disabled":false,"rental_uris":{"android":"levelo://app?vid=7a4c7327-869b-418c-afd3-2fa3665ffd5c","ios":"levelo://app?vid=7a4c7327-869b-418c-afd3-2fa3665ffd5c"},"vehicle_type_id":"4","last_reported":1756210945,"current_range_meters":19600,"station_id":"st_d2m6c4gdas8pm72e190g","pricing_plan_id":"cebpf4jnsgd1na2vs0mg"},{"bike_id":"d54d40f4-651c-422f-bbf0-9741c47753a6","system_id":"levelo_inurba_marseille","lat":43.23204,"lon":5.35547,"is_reserved":false,"is_disabled":false,"rental_uris":{"android":"levelo://app?vid=d54d40f4-651c-422f-bbf0-9741c47753a6","ios":"levelo://app?vid=d54d40f4-651c-422f-bbf0-9741c47753a6"},"vehicle_type_id":"4","last_reported":1756210945,"current_range_meters":19600,"station_id":"ce4bhu92rcd13ifvqi70","pricing_plan_id":"cebpf4jnsgd1na2vs0mg"},{"bike_id":"f67c8e5e-7af8-4847-a4ce-1e12088b4291","system_id":"levelo_inurba_marseille","lat":43.32513,"lon":5.36864,"is_reserved":false,"is_disabled":false,"rental_uris":{"android":"levelo://app?vid=f67c8e5e-7af8-4847-a4ce-1e12088b4291","ios":"levelo://app?vid=f67c8e5e-7af8-4847-a4ce-1e12088b4291"},"vehicle_type_id":"4","last_reported":1756210945,"current_range_meters":19600,"station_id":"","pricing_plan_id":"cebpf4jnsgd1na2vs0mg"},{"bike_id":"de189443-23b4-4494-9f3e-8e50a85504c9","system_id":"levelo_inurba_marseille","lat":43.24174,"lon":5.36394,"is_reserved":false,"is_disabled":false,"rental_uris":{"android":"levelo://app?vid=de189443-23b4-4494-9f3e-8e50a85504c9","ios":"levelo://app?vid=de189443-23b4-4494-9f3e-8e50a85504c9"},"vehicle_type_id":"4","last_reported":1756210945,"current_range_meters":19600,"station_id":"cpo36qri1sfpv3e86is0","pricing_plan_id":"cebpf4jnsgd1na2vs0mg"},{"bike_id":"459a1407-1002-484e-b7f4-f7ba0b47811d","system_id":"levelo_inurba_marseille","lat":43.299873,"lon":5.384979,"is_reserved":false,"is_disabled":false,"rental_uris":{"android":"levelo://app?vid=459a1407-1002-484e-b7f4-f7ba0b47811d","ios":"levelo://app?vid=459a1407-1002-484e-b7f4-f7ba0b47811d"},"vehicle_type_id":"4","last_reported":1756210945,"current_range_meters":19600,"station_id":"ce4bgj92rcd13ifvqbd0","pricing_plan_id":"cebpf4jnsgd1na2vs0mg"},{"bike_id":"2e15eb2a-29a5-458c-b1e7-35e0d403e0d0","system_id":"levelo_inurba_marseille","lat":43.21761,"lon":5.34567,"is_reserved":false,"is_disabled":false,"rental_uris":{"android":"levelo://app?vid=2e15eb2a-29a5-458c-b1e7-35e0d403e0d0","ios":"levelo://app?vid=2e15eb2a-29a5-458c-b1e7-35e0d403e0d0"},"vehicle_type_id":"4","last_reported":1756210945,"current_range_meters":19600,"station_id":"st_cvj6r9ubvosntc0bgbag","pricing_plan_id":"cebpf4jnsgd1na2vs0mg"},{"bike_id":"6b7cf2aa-fc1a-49a5-9b4d-81029376220a","system_id":"levelo_inurba_marseille","lat":43.26496,"lon":5.39549,"is_reserved":false,"is_disabled":false,"rental_uris":{"android":"levelo://app?vid=6b7cf2aa-fc1a-49a5-9b4d-81029376220a","ios":"levelo://app?vid=6b7cf2aa-fc1a-49a5-9b4d-81029376220a"},"vehicle_type_id":"4","last_reported":1756210945,"current_range_meters":19200,"station_id":"ce4bhi12rcd13ifvqfq0","pricing_plan_id":"cebpf4jnsgd1na2vs0mg"},{"bike_id":"ea3f0e70-58f7-4c4e-9a18-402a5de5f326","system_id":"levelo_inurba_marseille","lat":43.31224,"lon":5.36902,"is_reserved":false,"is_disabled":false,"rental_uris":{"android":"levelo://app?vid=ea3f0e70-58f7-4c4e-9a18-402a5de5f326","ios":"levelo://app?vid=ea3f0e70-58f7-4c4e-9a18-402a5de5f326"},"vehicle_type_id":"4","last_reported":1756210945,"current_range_meters":19600,"station_id":"ce4bgl92rcd13ifvqbq0","pricing_plan_id":"cebpf4jnsgd1na2vs0mg"},{"bike_id":"70573650-9cf4-4bd3-81cb-ccd1ff54a0ac","system_id":"levelo_inurba_marseille","lat":43.262126,"lon":5.374415,"is_reserved":false,"is_disabled":false,"rental_uris":{"android":"levelo://app?vid=70573650-9cf4-4bd3-81cb-ccd1ff54a0ac","ios":"levelo://app?vid=70573650-9cf4-4bd3-81cb-ccd1ff54a0ac"},"vehicle_type_id":"4","last_reported":1756210945,"current_range_meters":19600,"station_id":"ce4bhgp2rcd13ifvqfc0","pricing_plan_id":"cebpf4jnsgd1na2vs0mg"},{"bike_id":"5ae0b730-282c-47e7-ad5d-6c44221d9fc5","system_id":"levelo_inurba_marseille","lat":43.28614,"lon":5.35099,"is_reserved":false,"is_disabled":false,"rental_uris":{"android":"levelo://app?vid=5ae0b730-282c-47e7-ad5d-6c44221d9fc5","ios":"levelo://app?vid=5ae0b730-282c-47e7-ad5d-6c44221d9fc5"},"vehicle_type_id":"4","last_reported":1756210945,"current_range_meters":19600,"station_id":"ce4bhch2rcd13ifvqeug","pricing_plan_id":"cebpf4jnsgd1na2vs0mg"},{"bike_id":"6cab5b8d-9835-4896-a515-0c6fc5848d3e","system_id":"levelo_inurba_marseille","lat":43.302424,"lon":5.400832,"is_reserved":false,"is_disabled":false,"rental_uris":{"android":"levelo://app?vid=6cab5b8d-9835-4896-a515-0c6fc5848d3e","ios":"levelo://app?vid=6cab5b8d-9835-4896-a515-0c6fc5848d3e"},"vehicle_type_id":"4","last_reported":1756210945,"current_range_meters":20000,"station_id":"ce4bgvh2rcd13ifvqcs0","pricing_plan_id":"cebpf4jnsgd1na2vs0mg"},{"bike_id":"5002ab8f-0c9d-4313-b523-fd24100199d7","system_id":"levelo_inurba_marseille","lat":43.32469,"lon":5.36572,"is_reserved":false,"is_disabled":false,"rental_uris":{"android":"levelo://app?vid=5002ab8f-0c9d-4313-b523-fd24100199d7","ios":"levelo://app?vid=5002ab8f-0c9d-4313-b523-fd24100199d7"},"vehicle_type_id":"4","last_reported":1756210945,"current_range_meters":20000,"station_id":"ce4bhs12rcd13ifvqhvg","pricing_plan_id":"cebpf4jnsgd1na2vs0mg"},{"bike_id":"d0792d8b-efc2-4771-997f-cc2d3969d1cb","system_id":"levelo_inurba_marseille","lat":43.26207,"lon":5.37439,"is_reserved":false,"is_disabled":false,"rental_uris":{"android":"levelo://app?vid=d0792d8b-efc2-4771-997f-cc2d3969d1cb","ios":"levelo://app?vid=d0792d8b-efc2-4771-997f-cc2d3969d1cb"},"vehicle_type_id":"4","last_reported":1756210945,"current_range_meters":20000,"station_id":"ce4bhgp2rcd13ifvqfc0","pricing_plan_id":"cebpf4jnsgd1na2vs0mg"},{"bike_id":"5c26a54e-1e97-4ad3-a16d-614ad930b130","system_id":"levelo_inurba_marseille","lat":43.32097,"lon":5.36766,"is_reserved":false,"is_disabled":false,"rental_uris":{"android":"levelo://app?vid=5c26a54e-1e97-4ad3-a16d-614ad930b130","ios":"levelo://app?vid=5c26a54e-1e97-4ad3-a16d-614ad930b130"},"vehicle_type_id":"4","last_reported":1756210945,"current_range_meters":20000,"station_id":"ce4bhrh2rcd13ifvqhug","pricing_plan_id":"cebpf4jnsgd1na2vs0mg"},{"bike_id":"71136ea1-3aaf-4521-8084-554abe261412","system_id":"levelo_inurba_marseille","lat":43.303037,"lon":5.369059,"is_reserved":false,"is_disabled":true,"rental_uris":{"android":"levelo://app?vid=71136ea1-3aaf-4521-8084-554abe261412","ios":"levelo://app?vid=71136ea1-3aaf-4521-8084-554abe261412"},"vehicle_type_id":"4","last_reported":1756210945,"current_range_meters":20000,"station_id":"","pricing_plan_id":"cebpf4jnsgd1na2vs0mg"},{"bike_id":"67914a8c-d3d8-4eef-987b-4d9c98b01107","system_id":"levelo_inurba_marseille","lat":43.27992,"lon":5.41664,"is_reserved":false,"is_disabled":false,"rental_uris":{"android":"levelo://app?vid=67914a8c-d3d8-4eef-987b-4d9c98b01107","ios":"levelo://app?vid=67914a8c-d3d8-4eef-987b-4d9c98b01107"},"vehicle_type_id":"4","last_reported":1756210945,"current_range_meters":19600,"station_id":"ce4bho12rcd13ifvqh1g","pricing_plan_id":"cebpf4jnsgd1na2vs0mg"},{"bike_id":"858328e7-49ea-4151-8c51-db9f1b1070e6","system_id":"levelo_inurba_marseille","lat":43.28946,"lon":5.364,"is_reserved":false,"is_disabled":false,"rental_uris":{"android":"levelo://app?vid=858328e7-49ea-4151-8c51-db9f1b1070e6","ios":"levelo://app?vid=858328e7-49ea-4151-8c51-db9f1b1070e6"},"vehicle_type_id":"4","last_reported":1756210945,"current_range_meters":20000,"station_id":"ce4bhc92rcd13ifvqetg","pricing_plan_id":"cebpf4jnsgd1na2vs0mg"},{"bike_id":"3115c199-1541-45cb-a98a-f6ff5bbd4b1f","system_id":"levelo_inurba_marseille","lat":43.307966,"lon":5.369848,"is_reserved":false,"is_disabled":false,"rental_uris":{"android":"levelo://app?vid=3115c199-1541-45cb-a98a-f6ff5bbd4b1f","ios":"levelo://app?vid=3115c199-1541-45cb-a98a-f6ff5bbd4b1f"},"vehicle_type_id":"4","last_reported":1756210945,"current_range_meters":20000,"station_id":"","pricing_plan_id":"cebpf4jnsgd1na2vs0mg"},{"bike_id":"a9d83b21-9821-4029-bb59-40c830188146","system_id":"levelo_inurba_marseille","lat":43.32371,"lon":5.36758,"is_reserved":false,"is_disabled":false,"rental_uris":{"android":"levelo://app?vid=a9d83b21-9821-4029-bb59-40c830188146","ios":"levelo://app?vid=a9d83b21-9821-4029-bb59-40c830188146"},"vehicle_type_id":"4","last_reported":1756210945,"current_range_meters":20000,"station_id":"ce4bhsh2rcd13ifvqi2g","pricing_plan_id":"cebpf4jnsgd1na2vs0mg"},{"bike_id":"182848e1-c128-499b-944e-cad0c910e9fb","system_id":"levelo_inurba_marseille","lat":43.21195,"lon":5.35071,"is_reserved":false,"is_disabled":false,"rental_uris":{"android":"levelo://app?vid=182848e1-c128-499b-944e-cad0c910e9fb","ios":"levelo://app?vid=182848e1-c128-499b-944e-cad0c910e9fb"},"vehicle_type_id":"4","last_reported":1756210945,"current_range_meters":20000,"station_id":"st_cvj6sg6p6f1abm77japg","pricing_plan_id":"cebpf4jnsgd1na2vs0mg"},{"bike_id":"ebdfc841-051c-4d24-8cc2-8f17d758cfbd","system_id":"levelo_inurba_marseille","lat":43.28261,"lon":5.35065,"is_reserved":false,"is_disabled":false,"rental_uris":{"android":"levelo://app?vid=ebdfc841-051c-4d24-8cc2-8f17d758cfbd","ios":"levelo://app?vid=ebdfc841-051c-4d24-8cc2-8f17d758cfbd"},"vehicle_type_id":"4","last_reported":1756210945,"current_range_meters":20000,"station_id":"ce4bhbp2rcd13ifvqerg","pricing_plan_id":"cebpf4jnsgd1na2vs0mg"},{"bike_id":"c561b3be-23f4-46ed-8d38-1fc2450f503d","system_id":"levelo_inurba_marseille","lat":43.236511,"lon":5.362385,"is_reserved":false,"is_disabled":false,"rental_uris":{"android":"levelo://app?vid=c561b3be-23f4-46ed-8d38-1fc2450f503d","ios":"levelo://app?vid=c561b3be-23f4-46ed-8d38-1fc2450f503d"},"vehicle_type_id":"4","last_reported":1756210945,"current_range_meters":20000,"station_id":"","pricing_plan_id":"cebpf4jnsgd1na2vs0mg"},{"bike_id":"0c2ca64d-7518-499d-ad75-fe247c4d3ab3","system_id":"levelo_inurba_marseille","lat":43.24386,"lon":5.37061,"is_reserved":false,"is_disabled":false,"rental_uris":{"android":"levelo://app?vid=0c2ca64d-7518-499d-ad75-fe247c4d3ab3","ios":"levelo://app?vid=0c2ca64d-7518-499d-ad75-fe247c4d3ab3"},"vehicle_type_id":"4","last_reported":1756210945,"current_range_meters":20000,"station_id":"ce4bhhh2rcd13ifvqfk0","pricing_plan_id":"cebpf4jnsgd1na2vs0mg"},{"bike_id":"5557189e-4d8c-412b-8888-94db0ea051a7","system_id":"levelo_inurba_marseille","lat":43.3376,"lon":5.37417,"is_reserved":false,"is_disabled":false,"rental_uris":{"android":"levelo://app?vid=5557189e-4d8c-412b-8888-94db0ea051a7","ios":"levelo://app?vid=5557189e-4d8c-412b-8888-94db0ea051a7"},"vehicle_type_id":"4","last_reported":1756210945,"current_range_meters":20000,"station_id":"","pricing_plan_id":"cebpf4jnsgd1na2vs0mg"},{"bike_id":"84ba8b0b-6d6a-4919-9e45-3a5593232fd2","system_id":"levelo_inurba_marseille","lat":43.241683,"lon":5.363969,"is_reserved":false,"is_disabled":false,"rental_uris":{"android":"levelo://app?vid=84ba8b0b-6d6a-4919-9e45-3a5593232fd2","ios":"levelo://app?vid=84ba8b0b-6d6a-4919-9e45-3a5593232fd2"},"vehicle_type_id":"4","last_reported":1756210945,"current_range_meters":20000,"station_id":"cpo36qri1sfpv3e86is0","pricing_plan_id":"cebpf4jnsgd1na2vs0mg"},{"bike_id":"7d802eb3-8055-4765-a5e9-6c32f6d7ebc7","system_id":"levelo_inurba_marseille","lat":43.23951,"lon":5.36639,"is_reserved":false,"is_disabled":false,"rental_uris":{"android":"levelo://app?vid=7d802eb3-8055-4765-a5e9-6c32f6d7ebc7","ios":"levelo://app?vid=7d802eb3-8055-4765-a5e9-6c32f6d7ebc7"},"vehicle_type_id":"4","last_reported":1756210945,"current_range_meters":20400,"station_id":"ce4bhi12rcd13ifvqfp0","pricing_plan_id":"cebpf4jnsgd1na2vs0mg"},{"bike_id":"27ed6ef4-212c-4a1d-8bee-f1ac9a3f11b9","system_id":"levelo_inurba_marseille","lat":43.27372,"lon":5.36243,"is_reserved":false,"is_disabled":false,"rental_uris":{"android":"levelo://app?vid=27ed6ef4-212c-4a1d-8bee-f1ac9a3f11b9","ios":"levelo://app?vid=27ed6ef4-212c-4a1d-8bee-f1ac9a3f11b9"},"vehicle_type_id":"4","last_reported":1756210945,"current_range_meters":20400,"station_id":"ce4bhbh2rcd13ifvqeo0","pricing_plan_id":"cebpf4jnsgd1na2vs0mg"},{"bike_id":"3f9be686-da07-4cff-aa83-58ad7250b77b","system_id":"levelo_inurba_marseille","lat":43.28436,"lon":5.35012,"is_reserved":false,"is_disabled":false,"rental_uris":{"android":"levelo://app?vid=3f9be686-da07-4cff-aa83-58ad7250b77b","ios":"levelo://app?vid=3f9be686-da07-4cff-aa83-58ad7250b77b"},"vehicle_type_id":"4","last_reported":1756210945,"current_range_meters":20400,"station_id":"ce4bhbh2rcd13ifvqepg","pricing_plan_id":"cebpf4jnsgd1na2vs0mg"},{"bike_id":"3770897a-f144-494f-825f-bbf5b4fca81d","system_id":"levelo_inurba_marseille","lat":43.26209,"lon":5.37446,"is_reserved":false,"is_disabled":false,"rental_uris":{"android":"levelo://app?vid=3770897a-f144-494f-825f-bbf5b4fca81d","ios":"levelo://app?vid=3770897a-f144-494f-825f-bbf5b4fca81d"},"vehicle_type_id":"4","last_reported":1756210945,"current_range_meters":20400,"station_id":"ce4bhgp2rcd13ifvqfc0","pricing_plan_id":"cebpf4jnsgd1na2vs0mg"},{"bike_id":"6ca73d18-f8c0-4308-be9a-4dc229f6419b","system_id":"levelo_inurba_marseille","lat":43.26552,"lon":5.37284,"is_reserved":false,"is_disabled":false,"rental_uris":{"android":"levelo://app?vid=6ca73d18-f8c0-4308-be9a-4dc229f6419b","ios":"levelo://app?vid=6ca73d18-f8c0-4308-be9a-4dc229f6419b"},"vehicle_type_id":"4","last_reported":1756210945,"current_range_meters":20400,"station_id":"ce4bhg12rcd13ifvqf70","pricing_plan_id":"cebpf4jnsgd1na2vs0mg"},{"bike_id":"c0cf6917-bd6a-42b4-bbc7-9f344e0fc0eb","system_id":"levelo_inurba_marseille","lat":43.30796,"lon":5.38149,"is_reserved":false,"is_disabled":false,"rental_uris":{"android":"levelo://app?vid=c0cf6917-bd6a-42b4-bbc7-9f344e0fc0eb","ios":"levelo://app?vid=c0cf6917-bd6a-42b4-bbc7-9f344e0fc0eb"},"vehicle_type_id":"4","last_reported":1756210945,"current_range_meters":20000,"station_id":"ce4bgt12rcd13ifvqce0","pricing_plan_id":"cebpf4jnsgd1na2vs0mg"},