{"last_updated":1702544833,"ttl":30,"version":"2.2","data":{"bikes":[{"bike_id":"79b27502-46cd-423f-9fcb-ffae1d3f261a","system_id":"levelo_inurba_marseille","lat":43.31337,"lon":5.36717,"is_reserved":false,"is_disabled":false,"rental_uris":{"android":"levelo://app?vid=79b27502-46cd-423f-9fcb-ffae1d3f261a","ios":"levelo://app?vid=79b27502-46cd-423f-9fcb-ffae1d3f261a"},"vehicle_type_id":"4","last_reported":1702544833,"current_range_meters":26400,"station_id":"ce4bgr92rcd13ifvqc6g","pricing_plan_id":"free"},{"bike_id":"aba73269-eac1-4a01-9e09-70ddb68fbd12","system_id":"levelo_inurba_marseille","lat":43.31341,"lon":5.367098,"is_reserved":false,"is_disabled":false,"rental_uris":{"android":"levelo://app?vid=aba73269-eac1-4a01-9e09-70ddb68fbd12","ios":"levelo://app?vid=aba73269-eac1-4a01-9e09-70ddb68fbd12"},"vehicle_type_id":"4","last_reported":1702544833,"current_range_meters":30800,"station_id":"ce4bgr92rcd13ifvqc6g","pricing_plan_id":"free"},{"bike_id":"c1c32b59-86c7-419d-9316-35ad06227fd4","system_id":"levelo_inurba_marseille","lat":43.31341,"lon":5.367098,"is_reserved":false,"is_disabled":false,"rental_uris":{"android":"levelo://app?vid=c1c32b59-86c7-419d-9316-35ad06227fd4","ios":"levelo://app?vid=c1c32b59-86c7-419d-9316-35ad06227fd4"},"vehicle_type_id":"4","last_reported":1702544833,"current_range_meters":31200,"station_id":"ce4bgr92rcd13ifvqc6g","pricing_plan_id":"free"},{"bike_id":"fd0d3195-a222-4a69-a6a8-0786757b5026","system_id":"levelo_inurba_marseille","lat":43.313391,"lon":5.36706,"is_reserved":false,"is_disabled":false,"rental_uris":{"android":"levelo://app?vid=fd0d3195-a222-4a69-a6a8-0786757b5026","ios":"levelo://app?vid=fd0d3195-a222-4a69-a6a8-0786757b5026"},"vehicle_type_id":"4","last_reported":1702544833,"current_range_meters":21200,"station_id":"ce4bgr92rcd13ifvqc6g","pricing_plan_id":"free"},{"bike_id":"63506cc9-8014-44db-b920-011f0d9737ca","system_id":"levelo_inurba_marseille","lat":43.313391,"lon":5.36706,"is_reserved":false,"is_disabled":false,"rental_uris":{"android":"levelo://app?vid=63506cc9-8014-44db-b920-011f0d9737ca","ios":"levelo://app?vid=63506cc9-8014-44db-b920-011f0d9737ca"},"vehicle_type_id":"4","last_reported":1702544833,"current_range_meters":17200,"station_id":"ce4bgr92rcd13ifvqc6g","pricing_plan_id":"free"},{"bike_id":"0349cfe3-d4fc-4c2f-a928-645bcf88f8c7","system_id":"levelo_inurba_marseille","lat":43.313391,"lon":5.36706,"is_reserved":false,"is_disabled":false,"rental_uris":{"android":"levelo://app?vid=0349cfe3-d4fc-4c2f-a928-645bcf88f8c7","ios":"levelo://app?vid=0349cfe3-d4fc-4c2f-a928-645bcf88f8c7"},"vehicle_type_id":"4","last_reported":1702544833,"current_range_meters":29200,"station_id":"ce4bgr92rcd13ifvqc6g","pricing_plan_id":"free"},{"bike_id":"d32f0b04-c404-4f1c-a5ba-9bd39e5c89ef","system_id":"levelo_inurba_marseille","lat":43.313391,"lon":5.36706,"is_reserved":false,"is_disabled":false,"rental_uris":{"android":"levelo://app?vid=d32f0b04-c404-4f1c-a5ba-9bd39e5c89ef","ios":"levelo://app?vid=d32f0b04-c404-4f1c-a5ba-9bd39e5c89ef"},"vehicle_type_id":"4","last_reported":1702544833,"current_range_meters":0,"station_id":"ce4bgr92rcd13ifvqc6g","pricing_plan_id":"free"},{"bike_id":"2723693b-cb06-4ecf-a1c2-912360eb8da6","system_id":"levelo_inurba_marseille","lat":43.31341,"lon":5.367098,"is_reserved":false,"is_disabled":false,"rental_uris":{"android":"levelo://app?vid=2723693b-cb06-4ecf-a1c2-912360eb8da6","ios":"levelo://app?vid=2723693b-cb06-4ecf-a1c2-912360eb8da6"},"vehicle_type_id":"4","last_reported":1702544833,"current_range_meters":10400,"station_id":"ce4bgr92rcd13ifvqc6g","pricing_plan_id":"free"},{"bike_id":"a723faf6-6dfb-426d-a6cf-68dca6c2720e","system_id":"levelo_inurba_marseille","lat":43.313391,"lon":5.36706,"is_reserved":false,"is_disabled":false,"rental_uris":{"android":"levelo://app?vid=a723faf6-6dfb-426d-a6cf-68dca6c2720e","ios":"levelo://app?vid=a723faf6-6dfb-426d-a6cf-68dca6c2720e"},"vehicle_type_id":"4","last_reported":1702544833,"current_range_meters":18400,"station_id":"ce4bgr92rcd13ifvqc6g","pricing_plan_id":"free"},{"bike_id":"132756b2-21b0-4b37-a3ac-98574bf56a76","system_id":"levelo_inurba_marseille","lat":43.313391,"lon":5.36706,"is_reserved":false,"is_disabled":false,"rental_uris":{"android":"levelo://app?vid=132756b2-21b0-4b37-a3ac-98574bf56a76","ios":"levelo://app?vid=132756b2-21b0-4b37-a3ac-98574bf56a76"},"vehicle_type_id":"4","last_reported":1702544833,"current_range_meters":16000,"station_id":"ce4bgr92rcd13ifvqc6g","pricing_plan_id":"free"},{"bike_id":"49e5abb6-f09f-4b7e-bdeb-52461f3f6eb2","system_id":"levelo_inurba_marseille","lat":43.313391,"lon":5.36706,"is_reserved":false,"is_disabled":false,"rental_uris":{"android":"levelo://app?vid=49e5abb6-f09f-4b7e-bdeb-52461f3f6eb2","ios":"levelo://app?vid=49e5abb6-f09f-4b7e-bdeb-52461f3f6eb2"},"vehicle_type_id":"4","last_reported":1702544833,"current_range_meters":18400,"station_id":"ce4bgr92rcd13ifvqc6g","pricing_plan_id":"free"},{"bike_id":"5e870a68-e5e1-4f23-9b79-346d0b2e9ca3","system_id":"levelo_inurba_marseille","lat":43.313391,"lon":5.36706,"is_reserved":false,"is_disabled":false,"rental_uris":{"android":"levelo://app?vid=5e870a68-e5e1-4f23-9b79-346d0b2e9ca3","ios":"levelo://app?vid=5e870a68-e5e1-4f23-9b79-346d0b2e9ca3"},"vehicle_type_id":"4","last_reported":1702544833,"current_range_meters":20000,"station_id":"ce4bgr92rcd13ifvqc6g","pricing_plan_id":"free"},{"bike_id":"a48d9ac0-3c23-4594-aef1-26f94e1c11e1","system_id":"levelo_inurba_marseille","lat":43.31341,"lon":5.367098,"is_reserved":false,"is_disabled":false,"rental_uris":{"android":"levelo://app?vid=a48d9ac0-3c23-4594-aef1-26f94e1c11e1","ios":"levelo://app?vid=a48d9ac0-3c23-4594-aef1-26f94e1c11e1"},"vehicle_type_id":"4","last_reported":1702544833,"current_range_meters":18800,"station_id":"ce4bgr92rcd13ifvqc6g","pricing_plan_id":"free"},{"bike_id":"5a037603-ad63-44df-b177-426009f2951c","system_id":"levelo_inurba_marseille","lat":43.312239,"lon":5.368562,"is_reserved":false,"is_disabled":false,"rental_uris":{"android":"levelo://app?vid=5a037603-ad63-44df-b177-426009f2951c","ios":"levelo://app?vid=5a037603-ad63-44df-b177-426009f2951c"},"vehicle_type_id":"4","last_reported":1702544833,"current_range_meters":25600,"station_id":"ce4bgl92rcd13ifvqbq0","pricing_plan_id":"free"},{"bike_id":"299660e9-d616-4cc9-b346-6a8278be8d78","system_id":"levelo_inurba_marseille","lat":43.312239,"lon":5.368562,"is_reserved":false,"is_disabled":false,"rental_uris":{"android":"levelo://app?vid=299660e9-d616-4cc9-b346-6a8278be8d78","ios":"levelo://app?vid=299660e9-d616-4cc9-b346-6a8278be8d78"},"vehicle_type_id":"4","last_reported":1702544833,"current_range_meters":31200,"station_id":"ce4bgl92rcd13ifvqbq0","pricing_plan_id":"free"},{"bike_id":"4e8da820-d94c-4282-a15b-0d99d45343d6","system_id":"levelo_inurba_marseille","lat":43.312239,"lon":5.368562,"is_reserved":false,"is_disabled":false,"rental_uris":{"android":"levelo://app?vid=4e8da820-d94c-4282-a15b-0d99d45343d6","ios":"levelo://app?vid=4e8da820-d94c-4282-a15b-0d99d45343d6"},"vehicle_type_id":"4","last_reported":1702544833,"current_range_meters":31600,"station_id":"ce4bgl92rcd13ifvqbq0","pricing_plan_id":"free"},{"bike_id":"b78c9a51-0e04-4998-b6ca-7a16de769080","system_id":"levelo_inurba_marseille","lat":43.312239,"lon":5.368562,"is_reserved":false,"is_disabled":false,"rental_uris":{"android":"levelo://app?vid=b78c9a51-0e04-4998-b6ca-7a16de769080","ios":"levelo://app?vid=b78c9a51-0e04-4998-b6ca-7a16de769080"},"vehicle_type_id":"4","last_reported":1702544833,"current_range_meters":30000,"station_id":"ce4bgl92rcd13ifvqbq0","pricing_plan_id":"free"},{"bike_id":"dca2b111-d324-4194-89c5-abf8ada894d9","system_id":"levelo_inurba_marseille","lat":43.312239,"lon":5.368562,"is_reserved":false,"is_disabled":false,"rental_uris":{"android":"levelo://app?vid=dca2b111-d324-4194-89c5-abf8ada894d9","ios":"levelo://app?vid=dca2b111-d324-4194-89c5-abf8ada894d9"},"vehicle_type_id":"4","last_reported":1702544833,"current_range_meters":7200,"station_id":"ce4bgl92rcd13ifvqbq0","pricing_plan_id":"free"},{"bike_id":"59074f10-9bc7-4ffd-8bc8-559090846504","system_id":"levelo_inurba_marseille","lat":43.312239,"lon":5.368562,"is_reserved":false,"is_disabled":false,"rental_uris":{"android":"levelo://app?vid=59074f10-9bc7-4ffd-8bc8-559090846504","ios":"levelo://app?vid=59074f10-9bc7-4ffd-8bc8-559090846504"},"vehicle_type_id":"4","last_reported":1702544833,"current_range_meters":22400,"station_id":"ce4bgl92rcd13ifvqbq0","pricing_plan_id":"free"},{"bike_id":"782ba954-8744-44a8-ac2c-1af11b08b18d","system_id":"levelo_inurba_marseille","lat":43.312239,"lon":5.368562,"is_reserved":false,"is_disabled":false,"rental_uris":{"android":"levelo://app?vid=782ba954-8744-44a8-ac2c-1af11b08b18d","ios":"levelo://app?vid=782ba954-8744-44a8-ac2c-1af11b08b18d"},"vehicle_type_id":"4","last_reported":1702544833,"current_range_meters":5200,"station_id":"ce4bgl92rcd13ifvqbq0","pricing_plan_id":"free"},{"bike_id":"e1ae7124-1e20-4fff-ad1e-0516cca62f81","system_id":"levelo_inurba_marseille","lat":43.312239,"lon":5.368562,"is_reserved":false,"is_disabled":false,"rental_uris":{"android":"levelo://app?vid=e1ae7124-1e20-4fff-ad1e-0516cca62f81","ios":"levelo://app?vid=e1ae7124-1e20-4fff-ad1e-0516cca62f81"},"vehicle_type_id":"4","last_reported":1702544833,"current_range_meters":30800,"station_id":"ce4bgl92rcd13ifvqbq0","pricing_plan_id":"free"},{"bike_id":"4582da45-96bf-4ebe-9e31-ad0e506cdf31","system_id":"levelo_inurba_marseille","lat":43.309076,"lon":5.368465,"is_reserved":false,"is_disabled":false,"rental_uris":{"android":"levelo://app?vid=4582da45-96bf-4ebe-9e31-ad0e506cdf31","ios":"levelo://app?vid=4582da45-96bf-4ebe-9e31-ad0e506cdf31"},"vehicle_type_id":"4","last_reported":1702544833,"current_range_meters":28000,"station_id":"ce4bgn92rcd13ifvqbvg","pricing_plan_id":"free"},{"bike_id":"40bb6d40-d354-487f-bca0-c673e88974fa","system_id":"levelo_inurba_marseille","lat":43.309076,"lon":5.368465,"is_reserved":false,"is_disabled":false,"rental_uris":{"android":"levelo://app?vid=40bb6d40-d354-487f-bca0-c673e88974fa","ios":"levelo://app?vid=40bb6d40-d354-487f-bca0-c673e88974fa"},"vehicle_type_id":"4","last_reported":1702544833,"current_range_meters":4000,"station_id":"ce4bgn92rcd13ifvqbvg","pricing_plan_id":"free"},{"bike_id":"ded07690-ec9d-4e79-bc19-e7f16083597d","system_id":"levelo_inurba_marseille","lat":43.309076,"lon":5.368465,"is_reserved":false,"is_disabled":false,"rental_uris":{"android":"levelo://app?vid=ded07690-ec9d-4e79-bc19-e7f16083597d","ios":"levelo://app?vid=ded07690-ec9d-4e79-bc19-e7f16083597d"},"vehicle_type_id":"4","last_reported":1702544833,"current_range_meters":19200,"station_id":"ce4bgn92rcd13ifvqbvg","pricing_plan_id":"free"},{"bike_id":"e6534fab-2876-43a3-8c8d-0b18f049716d","system_id":"levelo_inurba_marseille","lat":43.309076,"lon":5.368465,"is_reserved":false,"is_disabled":false,"rental_uris":{"android":"levelo://app?vid=e6534fab-2876-43a3-8c8d-0b18f049716d","ios":"levelo://app?vid=e6534fab-2876-43a3-8c8d-0b18f049716d"},"vehicle_type_id":"4","last_reported":1702544833,"current_range_meters":24400,"station_id":"ce4bgn92rcd13ifvqbvg","pricing_plan_id":"free"},{"bike_id":"57397a5e-3391-48b8-9f24-c20384894e42","system_id":"levelo_inurba_marseille","lat":43.309076,"lon":5.368465,"is_reserved":false,"is_disabled":false,"rental_uris":{"android":"levelo://app?vid=57397a5e-3391-48b8-9f24-c20384894e42","ios":"levelo://app?vid=57397a5e-3391-48b8-9f24-c20384894e42"},"vehicle_type_id":"4","last_reported":1702544833,"current_range_meters":5600,"station_id":"ce4bgn92rcd13ifvqbvg","pricing_plan_id":"free"},{"bike_id":"84680145-9505-407c-8367-eb2bc9aa2711","system_id":"levelo_inurba_marseille","lat":43.309076,"lon":5.368465,"is_reserved":false,"is_disabled":false,"rental_uris":{"android":"levelo://app?vid=84680145-9505-407c-8367-eb2bc9aa2711","ios":"levelo://app?vid=84680145-9505-407c-8367-eb2bc9aa2711"},"vehicle_type_id":"4","last_reported":1702544833,"current_range_meters":20000,"station_id":"ce4bgn92rcd13ifvqbvg","pricing_plan_id":"free"},{"bike_id":"aad410c1-6af6-46dc-9f08-006f2a8be6d4","system_id":"levelo_inurba_marseille","lat":43.309076,"lon":5.368465,"is_reserved":false,"is_disabled":false,"rental_uris":{"android":"levelo://app?vid=aad410c1-6af6-46dc-9f08-006f2a8be6d4","ios":"levelo://app?vid=aad410c1-6af6-46dc-9f08-006f2a8be6d4"},"vehicle_type_id":"4","last_reported":1702544833,"current_range_meters":24800,"station_id":"ce4bgn92rcd13ifvqbvg","pricing_plan_id":"free"},{"bike_id":"16c714f4-9887-4908-8ee5-efa24a60657f","system_id":"levelo_inurba_marseille","lat":43.309076,"lon":5.368465,"is_reserved":false,"is_disabled":false,"rental_uris":{"android":"levelo://app?vid=16c714f4-9887-4908-8ee5-efa24a60657f","ios":"levelo://app?vid=16c714f4-9887-4908-8ee5-efa24a60657f"},"vehicle_type_id":"4","last_reported":1702544833,"current_range_meters":21200,"station_id":"ce4bgn92rcd13ifvqbvg","pricing_plan_id":"free"},{"bike_id":"94985d8c-b473-45de-8406-3b3789a5723e","system_id":"levelo_inurba_marseille","lat":43.309076,"lon":5.368465,"is_reserved":false,"is_disabled":false,"rental_uris":{"android":"levelo://app?vid=94985d8c-b473-45de-8406-3b3789a5723e","ios":"levelo://app?vid=94985d8c-b473-45de-8406-3b3789a5723e"},"vehicle_type_id":"4","last_reported":1702544833,"current_range_meters":21200,"station_id":"ce4bgn92rcd13ifvqbvg","pricing_plan_id":"free"},{"bike_id":"9aa19ce7-0b5d-40fd-9872-bc22122d3771","system_id":"levelo_inurba_marseille","lat":43.309076,"lon":5.368465,"is_reserved":false,"is_disabled":false,"rental_uris":{"android":"levelo://app?vid=9aa19ce7-0b5d-40fd-9872-bc22122d3771","ios":"levelo://app?vid=9aa19ce7-0b5d-40fd-9872-bc22122d3771"},"vehicle_type_id":"4","last_reported":1702544833,"current_range_meters":14400,"station_id":"ce4bgn92rcd13ifvqbvg","pricing_plan_id":"free"},{"bike_id":"556d34cd-1b95-4563-8298-2b71ac4f9ccb","system_id":"levelo_inurba_marseille","lat":43.309076,"lon":5.368465,"is_reserved":false,"is_disabled":false,"rental_uris":{"android":"levelo://app?vid=556d34cd-1b95-4563-8298-2b71ac4f9ccb","ios":"levelo://app?vid=556d34cd-1b95-4563-8298-2b71ac4f9ccb"},"vehicle_type_id":"4","last_reported":1702544833,"current_range_meters":30800,"station_id":"ce4bgn92rcd13ifvqbvg","pricing_plan_id":"free"},{"bike_id":"e26365d2-1e5c-42dc-bd4b-8a456efa6f5b","system_id":"levelo_inurba_marseille","lat":43.309039,"lon":5.371797,"is_reserved":false,"is_disabled":false,"rental_uris":{"android":"levelo://app?vid=e26365d2-1e5c-42dc-bd4b-8a456efa6f5b","ios":"levelo://app?vid=e26365d2-1e5c-42dc-bd4b-8a456efa6f5b"},"vehicle_type_id":"4","last_reported":1702544833,"current_range_meters":12400,"station_id":"ce4bguh2rcd13ifvqckg","pricing_plan_id":"free"},{"bike_id":"e61756d4-515a-4716-a37d-000abc48889f","system_id":"levelo_inurba_marseille","lat":43.309039,"lon":5.371797,"is_reserved":false,"is_disabled":false,"rental_uris":{"android":"levelo://app?vid=e61756d4-515a-4716-a37d-000abc48889f","ios":"levelo://app?vid=e61756d4-515a-4716-a37d-000abc48889f"},"vehicle_type_id":"4","last_reported":1702544833,"current_range_meters":13200,"station_id":"ce4bguh2rcd13ifvqckg","pricing_plan_id":"free"},{"bike_id":"3f8b821f-e430-4a35-bf14-f8b6e777ea11","system_id":"levelo_inurba_marseille","lat":43.313939,"lon":5.375306,"is_reserved":false,"is_disabled":false,"rental_uris":{"android":"levelo://app?vid=3f8b821f-e430-4a35-bf14-f8b6e777ea11","ios":"levelo://app?vid=3f8b821f-e430-4a35-bf14-f8b6e777ea11"},"vehicle_type_id":"4","last_reported":1702544833,"current_range_meters":4400,"station_id":"","pricing_plan_id":"free"},{"bike_id":"25300037-8ade-48ac-b8d1-1bc9a4136d89","system_id":"levelo_inurba_marseille","lat":43.305714,"lon":5.365633,"is_reserved":false,"is_disabled":false,"rental_uris":{"android":"levelo://app?vid=25300037-8ade-48ac-b8d1-1bc9a4136d89","ios":"levelo://app?vid=25300037-8ade-48ac-b8d1-1bc9a4136d89"},"vehicle_type_id":"4","last_reported":1702544833,"current_range_meters":21200,"station_id":"ce4bgs12rcd13ifvqcag","pricing_plan_id":"free"},{"bike_id":"955e4ab2-16e5-44e8-a986-a2f50ff96c06","system_id":"levelo_inurba_marseille","lat":43.305382,"lon":5.365389,"is_reserved":false,"is_disabled":false,"rental_uris":{"android":"levelo://app?vid=955e4ab2-16e5-44e8-a986-a2f50ff96c06","ios":"levelo://app?vid=955e4ab2-16e5-44e8-a986-a2f50ff96c06"},"vehicle_type_id":"4","last_reported":1702544833,"current_range_meters":24000,"station_id":"","pricing_plan_id":"free"},{"bike_id":"7600321c-fa70-4baf-b936-c39e40652602","system_id":"levelo_inurba_marseille","lat":43.305714,"lon":5.365633,"is_reserved":false,"is_disabled":false,"rental_uris":{"android":"levelo://app?vid=7600321c-fa70-4baf-b936-c39e40652602","ios":"levelo://app?vid=7600321c-fa70-4baf-b936-c39e40652602"},"vehicle_type_id":"4","last_reported":1702544833,"current_range_meters":31200,"station_id":"ce4bgs12rcd13ifvqcag","pricing_plan_id":"free"},{"bike_id":"227b454f-cbfd-4a97-b4c2-968569f53a3b","system_id":"levelo_inurba_marseille","lat":43.31537,"lon":5.380316,"is_reserved":false,"is_disabled":false,"rental_uris":{"android":"levelo://app?vid=227b454f-cbfd-4a97-b4c2-968569f53a3b","ios":"levelo://app?vid=227b454f-cbfd-4a97-b4c2-968569f53a3b"},"vehicle_type_id":"4","last_reported":1702544833,"current_range_meters":25600,"station_id":"ce4bhsp2rcd13ifvqi50","pricing_plan_id":"free"},{"bike_id":"d7f2e56d-d62b-41b4-916f-f2c2d2c3b6c6","system_id":"levelo_inurba_marseille","lat":43.31534,"lon":5.38034,"is_reserved":false,"is_disabled":false,"rental_uris":{"android":"levelo://app?vid=d7f2e56d-d62b-41b4-916f-f2c2d2c3b6c6","ios":"levelo://app?vid=d7f2e56d-d62b-41b4-916f-f2c2d2c3b6c6"},"vehicle_type_id":"4","last_reported":1702544833,"current_range_meters":26000,"station_id":"ce4bhsp2rcd13ifvqi50","pricing_plan_id":"free"},{"bike_id":"b480263e-1d6e-45a4-b7e0-1a75c6b81067","system_id":"levelo_inurba_marseille","lat":43.313571,"lon":5.384829,"is_reserved":false,"is_disabled":false,"rental_uris":{"android":"levelo://app?vid=b480263e-1d6e-45a4-b7e0-1a75c6b81067","ios":"levelo://app?vid=b480263e-1d6e-45a4-b7e0-1a75c6b81067"},"vehicle_type_id":"4","last_reported":1702544833,"current_range_meters":22800,"station_id":"ce4bgt92rcd13ifvqcf0","pricing_plan_id":"free"},{"bike_id":"e3704427-6a60-4f28-befe-68f064cef07d","system_id":"levelo_inurba_marseille","lat":43.29933,"lon":5.36523,"is_reserved":false,"is_disabled":false,"rental_uris":{"android":"levelo://app?vid=e3704427-6a60-4f28-befe-68f064cef07d","ios":"levelo://app?vid=e3704427-6a60-4f28-befe-68f064cef07d"},"vehicle_type_id":"4","last_reported":1702544833,"current_range_meters":26000,"station_id":"ce4bgm92rcd13ifvqbr0","pricing_plan_id":"free"},{"bike_id":"18bc0492-4a6d-4a6c-ab07-7d2dc8489d60","system_id":"levelo_inurba_marseille","lat":43.299724,"lon":5.371829,"is_reserved":false,"is_disabled":false,"rental_uris":{"android":"levelo://app?vid=18bc0492-4a6d-4a6c-ab07-7d2dc8489d60","ios":"levelo://app?vid=18bc0492-4a6d-4a6c-ab07-7d2dc8489d60"},"vehicle_type_id":"4","last_reported":1702544833,"current_range_meters":16000,"station_id":"ce4bgr92rcd13ifvqc7g","pricing_plan_id":"free"},{"bike_id":"f835b577-fbb6-411e-8fb2-7d818fb82187","system_id":"levelo_inurba_marseille","lat":43.298433,"lon":5.362774,"is_reserved":false,"is_disabled":false,"rental_uris":{"android":"levelo://app?vid=f835b577-fbb6-411e-8fb2-7d818fb82187","ios":"levelo://app?vid=f835b577-fbb6-411e-8fb2-7d818fb82187"},"vehicle_type_id":"4","last_reported":1702544833,"current_range_meters":14000,"station_id":"ce4bgpp2rcd13ifvqc3g","pricing_plan_id":"free"},{"bike_id":"62c4f95f-ec48-4f8f-96b5-1da2ba2b0a34","system_id":"levelo_inurba_marseille","lat":43.311576,"lon":5.386854,"is_reserved":false,"is_disabled":false,"rental_uris":{"android":"levelo://app?vid=62c4f95f-ec48-4f8f-96b5-1da2ba2b0a34","ios":"levelo://app?vid=62c4f95f-ec48-4f8f-96b5-1da2ba2b0a34"},"vehicle_type_id":"4","last_reported":1702544833,"current_range_meters":10400,"station_id":"","pricing_plan_id":"free"},{"bike_id":"ef1106cb-f131-49ab-93c5-811fe1dd48b5","system_id":"levelo_inurba_marseille","lat":43.298433,"lon":5.362774,"is_reserved":false,"is_disabled":false,"rental_uris":{"android":"levelo://app?vid=ef1106cb-f131-49ab-93c5-811fe1dd48b5","ios":"levelo://app?vid=ef1106cb-f131-49ab-93c5-811fe1dd48b5"},"vehicle_type_id":"4","last_reported":1702544833,"current_range_meters":30000,"station_id":"ce4bgpp2rcd13ifvqc3g","pricing_plan_id":"free"},{"bike_id":"68c11159-ade3-4a85-85b7-59a5cb531b38","system_id":"levelo_inurba_marseille","lat":43.298433,"lon":5.362774,"is_reserved":false,"is_disabled":false,"rental_uris":{"android":"levelo://app?vid=68c11159-ade3-4a85-85b7-59a5cb531b38","ios":"levelo://app?vid=68c11159-ade3-4a85-85b7-59a5cb531b38"},"vehicle_type_id":"4","last_reported":1702544833,"current_range_meters":28400,"station_id":"ce4bgpp2rcd13ifvqc3g","pricing_plan_id":"free"},{"bike_id":"6543c6e0-9993-4f3e-a468-370625d715e5","system_id":"levelo_inurba_marseille","lat":43.298433,"lon":5.362774,"is_reserved":false,"is_disabled":false,"rental_uris":{"android":"levelo://app?vid=6543c6e0-9993-4f3e-a468-370625d715e5","ios":"levelo://app?vid=6543c6e0-9993-4f3e-a468-370625d715e5"},"vehicle_type_id":"4","last_reported":1702544833,"current_range_meters":26800,"station_id":"ce4bgpp2rcd13ifvqc3g","pricing_plan_id":"free"},{"bike_id":"cf880a93-689f-496b-b06b-64d66a80d22d","system_id":"levelo_inurba_marseille","lat":43.298433,"lon":5.362774,"is_reserved":false,"is_disabled":false,"rental_uris":{"android":"levelo://app?vid=cf880a93-689f-496b-b06b-64d66a80d22d","ios":"levelo://app?vid=cf880a93-689f-496b-b06b-64d66a80d22d"},"vehicle_type_id":"4","last_reported":1702544833,"current_range_meters":9600,"station_id":"ce4bgpp2rcd13ifvqc3g","pricing_plan_id":"free"},{"bike_id":"6a58231e-42ce-4bb1-bcdb-ff1dfcd6f9fb","system_id":"levelo_inurba_marseille","lat":43.322872,"lon":5.382756,"is_reserved":false,"is_disabled":false,"rental_uris":{"android":"levelo://app?vid=6a58231e-42ce-4bb1-bcdb-ff1dfcd6f9fb","ios":"levelo://app?vid=6a58231e-42ce-4bb1-bcdb-ff1dfcd6f9fb"},"vehicle_type_id":"4","last_reported":1702544833,"current_range_meters":26800,"station_id":"ce4bhr12rcd13ifvqhqg","pricing_plan_id":"free"},{"bike_id":"ed5f0256-776d-4300-ad00-c107bee05a60","system_id":"levelo_inurba_marseille","lat":43.322872,"lon":5.382756,"is_reserved":false,"is_disabled":false,"rental_uris":{"android":"levelo://app?vid=ed5f0256-776d-4300-ad00-c107bee05a60","ios":"levelo://app?vid=ed5f0256-776d-4300-ad00-c107bee05a60"},"vehicle_type_id":"4","last_reported":1702544833,"current_range_meters":14800,"station_id":"ce4bhr12rcd13ifvqhqg","pricing_plan_id":"free"},{"bike_id":"cbc11d14-9f41-4b34-8edf-188c262dbf4e","system_id":"levelo_inurba_marseille","lat":43.328371,"lon":5.366909,"is_reserved":false,"is_disabled":false,"rental_uris":{"android":"levelo://app?vid=cbc11d14-9f41-4b34-8edf-188c262dbf4e","ios":"levelo://app?vid=cbc11d14-9f41-4b34-8edf-188c262dbf4e"},"vehicle_type_id":"4","last_reported":1702544833,"current_range_meters":30000,"station_id":"ce4bhs92rcd13ifvqi0g","pricing_plan_id":"free"},{"bike_id":"659a38c5-092d-469d-acdb-90f2143cb397","system_id":"levelo_inurba_marseille","lat":43.328315,"lon":5.366774,"is_reserved":false,"is_disabled":false,"rental_uris":{"android":"levelo://app?vid=659a38c5-092d-469d-acdb-90f2143cb397","ios":"levelo://app?vid=659a38c5-092d-469d-acdb-90f2143cb397"},"vehicle_type_id":"4","last_reported":1702544833,"current_range_meters":30000,"station_id":"ce4bhs92rcd13ifvqi0g","pricing_plan_id":"free"},{"bike_id":"bc06b289-dab8-4815-820b-662dd218c477","system_id":"levelo_inurba_marseille","lat":43.328324,"lon":5.366788,"is_reserved":false,"is_disabled":false,"rental_uris":{"android":"levelo://app?vid=bc06b289-dab8-4815-820b-662dd218c477","ios":"levelo://app?vid=bc06b289-dab8-4815-820b-662dd218c477"},"vehicle_type_id":"4","last_reported":1702544833,"current_range_meters":29600,"station_id":"ce4bhs92rcd13ifvqi0g","pricing_plan_id":"free"},{"bike_id":"7146b216-5dbf-4f39-a872-ebb9140c77d1","system_id":"levelo_inurba_marseille","lat":43.328355,"lon":5.36678,"is_reserved":false,"is_disabled":false,"rental_uris":{"android":"levelo://app?vid=7146b216-5dbf-4f39-a872-ebb9140c77d1","ios":"levelo://app?vid=7146b216-5dbf-4f39-a872-ebb9140c77d1"},"vehicle_type_id":"4","last_reported":1702544833,"current_range_meters":19200,"station_id":"ce4bhs92rcd13ifvqi0g","pricing_plan_id":"free"},{"bike_id":"5d5b50d8-8698-43ad-8537-0a9a6c97ad74","system_id":"levelo_inurba_marseille","lat":43.29573,"lon":5.367355,"is_reserved":false,"is_disabled":false,"rental_uris":{"android":"levelo://app?vid=5d5b50d8-8698-43ad-8537-0a9a6c97ad74","ios":"levelo://app?vid=5d5b50d8-8698-43ad-8537-0a9a6c97ad74"},"vehicle_type_id":"4","last_reported":1702544833,"current_range_meters":15600,"station_id":"ce4bgph2rcd13ifvqc2g","pricing_plan_id":"free"},{"bike_id":"ea0d86ef-1913-4a00-a38c-05f0c1954791","system_id":"levelo_inurba_marseille","lat":43.30973,"lon":5.39009,"is_reserved":false,"is_disabled":false,"rental_uris":{"android":"levelo://app?vid=ea0d86ef-1913-4a00-a38c-05f0c1954791","ios":"levelo://app?vid=ea0d86ef-1913-4a00-a38c-05f0c1954791"},"vehicle_type_id":"4","last_reported":1702544833,"current_range_meters":12000,"station_id":"","pricing_plan_id":"free"},{"bike_id":"e51eeb7e-2837-4661-872f-a2854256de4a","system_id":"levelo_inurba_marseille","lat":43.309589,"lon":5.390258,"is_reserved":false,"is_disabled":false,"rental_uris":{"android":"levelo://app?vid=e51eeb7e-2837-4661-872f-a2854256de4a","ios":"levelo://app?vid=e51eeb7e-2837-4661-872f-a2854256de4a"},"vehicle_type_id":"4","last_reported":1702544833,"current_range_meters":0,"station_id":"ce4bgup2rcd13ifvqco0","pricing_plan_id":"free"},{"bike_id":"2a98b7b2-730a-430f-8b15-7867670f0612","system_id":"levelo_inurba_marseille","lat":43.29907,"lon":5.38144,"is_reserved":false,"is_disabled":false,"rental_uris":{"android":"levelo://app?vid=2a98b7b2-730a-430f-8b15-7867670f0612","ios":"levelo://app?vid=2a98b7b2-730a-430f-8b15-7867670f0612"},"vehicle_type_id":"4","last_reported":1702544833,"current_range_meters":9600,"station_id":"ce4bgj12rcd13ifvqbc0","pricing_plan_id":"free"},{"bike_id":"57b5b78b-5537-4bc3-afb5-16b002d0cfcb","system_id":"levelo_inurba_marseille","lat":43.304491,"lon":5.388909,"is_reserved":false,"is_disabled":false,"rental_uris":{"android":"levelo://app?vid=57b5b78b-5537-4bc3-afb5-16b002d0cfcb","ios":"levelo://app?vid=57b5b78b-5537-4bc3-afb5-16b002d0cfcb"},"vehicle_type_id":"4","last_reported":1702544833,"current_range_meters":20800,"station_id":"","pricing_plan_id":"free"},{"bike_id":"9338a8ea-049b-4e8b-b070-a335d789c214","system_id":"levelo_inurba_marseille","lat":43.299707,"lon":5.384859,"is_reserved":false,"is_disabled":false,"rental_uris":{"android":"levelo://app?vid=9338a8ea-049b-4e8b-b070-a335d789c214","ios":"levelo://app?vid=9338a8ea-049b-4e8b-b070-a335d789c214"},"vehicle_type_id":"4","last_reported":1702544833,"current_range_meters":31200,"station_id":"ce4bgj92rcd13ifvqbd0","pricing_plan_id":"free"},{"bike_id":"03f6119d-7ba1-4608-b75b-b20f3efbdaef","system_id":"levelo_inurba_marseille","lat":43.32363,"lon":5.38883,"is_reserved":false,"is_disabled":false,"rental_uris":{"android":"levelo://app?vid=03f6119d-7ba1-4608-b75b-b20f3efbdaef","ios":"levelo://app?vid=03f6119d-7ba1-4608-b75b-b20f3efbdaef"},"vehicle_type_id":"4","last_reported":1702544833,"current_range_meters":12000,"station_id":"ce4bhqp2rcd13ifvqhog","pricing_plan_id":"free"},{"bike_id":"93846422-cb2e-46e0-8354-25fd62a996ed","system_id":"levelo_inurba_marseille","lat":43.32367,"lon":5.388836,"is_reserved":false,"is_disabled":false,"rental_uris":{"android":"levelo://app?vid=93846422-cb2e-46e0-8354-25fd62a996ed","ios":"levelo://app?vid=93846422-cb2e-46e0-8354-25fd62a996ed"},"vehicle_type_id":"4","last_reported":1702544833,"current_range_meters":16000,"station_id":"ce4bhqp2rcd13ifvqhog","pricing_plan_id":"free"},{"bike_id":"3166a8d8-57d6-47ca-b332-f53a4ed16828","system_id":"levelo_inurba_marseille","lat":43.293259,"lon":5.371586,"is_reserved":false,"is_disabled":false,"rental_uris":{"android":"levelo://app?vid=3166a8d8-57d6-47ca-b332-f53a4ed16828","ios":"levelo://app?vid=3166a8d8-57d6-47ca-b332-f53a4ed16828"},"vehicle_type_id":"4","last_reported":1702544833,"current_range_meters":25600,"station_id":"ce4bgh92rcd13ifvqb40","pricing_plan_id":"free"},{"bike_id":"3343973e-fe76-485c-8017-4a07306859ac","system_id":"levelo_inurba_marseille","lat":43.293009,"lon":5.374584,"is_reserved":false,"is_disabled":false,"rental_uris":{"android":"levelo://app?vid=3343973e-fe76-485c-8017-4a07306859ac","ios":"levelo://app?vid=3343973e-fe76-485c-8017-4a07306859ac"},"vehicle_type_id":"4","last_reported":1702544833,"current_range_meters":10800,"station_id":"ce4bgi12rcd13ifvqb70","pricing_plan_id":"free"},{"bike_id":"09b9e93c-f060-4bc8-9e70-8cc51ba66026","system_id":"levelo_inurba_marseille","lat":43.305994,"lon":5.393687,"is_reserved":false,"is_disabled":false,"rental_uris":{"android":"levelo://app?vid=09b9e93c-f060-4bc8-9e70-8cc51ba66026","ios":"levelo://app?vid=09b9e93c-f060-4bc8-9e70-8cc51ba66026"},"vehicle_type_id":"4","last_reported":1702544833,"current_range_meters":15600,"station_id":"ce4bh0p2rcd13ifvqd80","pricing_plan_id":"free"},{"bike_id":"e22d445c-7ad1-4a75-94f1-7adcaf48b6e4","system_id":"levelo_inurba_marseille","lat":43.305994,"lon":5.393687,"is_reserved":false,"is_disabled":false,"rental_uris":{"android":"levelo://app?vid=e22d445c-7ad1-4a75-94f1-7adcaf48b6e4","ios":"levelo://app?vid=e22d445c-7ad1-4a75-94f1-7adcaf48b6e4"},"vehicle_type_id":"4","last_reported":1702544833,"current_range_meters":25600,"station_id":"ce4bh0p2rcd13ifvqd80","pricing_plan_id":"free"},{"bike_id":"e960a479-89e0-47b9-a70f-fba12967d1ac","system_id":"levelo_inurba_marseille","lat":43.2936,"lon":5.37835,"is_reserved":false,"is_disabled":false,"rental_uris":{"android":"levelo://app?vid=e960a479-89e0-47b9-a70f-fba12967d1ac","ios":"levelo://app?vid=e960a479-89e0-47b9-a70f-fba12967d1ac"},"vehicle_type_id":"4","last_reported":1702544833,"current_range_meters":29200,"station_id":"ce4bgjh2rcd13ifvqbf0","pricing_plan_id":"free"},{"bike_id":"8b41fde1-4e08-4fde-ab70-4ffce277e5ff","system_id":"levelo_inurba_marseille","lat":43.300852,"lon":5.390859,"is_reserved":false,"is_disabled":false,"rental_uris":{"android":"levelo://app?vid=8b41fde1-4e08-4fde-ab70-4ffce277e5ff","ios":"levelo://app?vid=8b41fde1-4e08-4fde-ab70-4ffce277e5ff"},"vehicle_type_id":"4","last_reported":1702544833,"current_range_meters":5200,"station_id":"ce4bh192rcd13ifvqdb0","pricing_plan_id":"free"},{"bike_id":"7d53245e-de3a-4c11-b0e8-7204cb638e0e","system_id":"levelo_inurba_marseille","lat":43.291671,"lon":5.371575,"is_reserved":false,"is_disabled":false,"rental_uris":{"android":"levelo://app?vid=7d53245e-de3a-4c11-b0e8-7204cb638e0e","ios":"levelo://app?vid=7d53245e-de3a-4c11-b0e8-7204cb638e0e"},"vehicle_type_id":"4","last_reported":1702544833,"current_range_meters":0,"station_id":"ce4bha92rcd13ifvqeh0","pricing_plan_id":"free"},{"bike_id":"5ae730d6-5bb7-447c-8587-c782eedeb1cf","system_id":"levelo_inurba_marseille","lat":43.28933,"lon":5.36402,"is_reserved":false,"is_disabled":false,"rental_uris":{"android":"levelo://app?vid=5ae730d6-5bb7-447c-8587-c782eedeb1cf","ios":"levelo://app?vid=5ae730d6-5bb7-447c-8587-c782eedeb1cf"},"vehicle_type_id":"4","last_reported":1702544833,"current_range_meters":15600,"station_id":"ce4bhc92rcd13ifvqetg","pricing_plan_id":"free"},{"bike_id":"900d88e6-8df1-4d3e-ae3d-59119e0d63ac","system_id":"levelo_inurba_marseille","lat":43.28931,"lon":5.36388,"is_reserved":false,"is_disabled":false,"rental_uris":{"android":"levelo://app?vid=900d88e6-8df1-4d3e-ae3d-59119e0d63ac","ios":"levelo://app?vid=900d88e6-8df1-4d3e-ae3d-59119e0d63ac"},"vehicle_type_id":"4","last_reported":1702544833,"current_range_meters":28800,"station_id":"ce4bhc92rcd13ifvqetg","pricing_plan_id":"free"},{"bike_id":"d664c551-5cc9-498c-8f04-56b7706a9390","system_id":"levelo_inurba_marseille","lat":43.292642,"lon":5.384254,"is_reserved":false,"is_disabled":false,"rental_uris":{"android":"levelo://app?vid=d664c551-5cc9-498c-8f04-56b7706a9390","ios":"levelo://app?vid=d664c551-5cc9-498c-8f04-56b7706a9390"},"vehicle_type_id":"4","last_reported":1702544833,"current_range_meters":22400,"station_id":"ce4bh692rcd13ifvqea0","pricing_plan_id":"free"},{"bike_id":"6764468d-f692-495d-90d8-e2f4c34439ec","system_id":"levelo_inurba_marseille","lat":43.29106,"lon":5.38092,"is_reserved":false,"is_disabled":false,"rental_uris":{"android":"levelo://app?vid=6764468d-f692-495d-90d8-e2f4c34439ec","ios":"levelo://app?vid=6764468d-f692-495d-90d8-e2f4c34439ec"},"vehicle_type_id":"4","last_reported":1702544833,"current_range_meters":1600,"station_id":"ce4bh512rcd13ifvqe2g","pricing_plan_id":"free"},{"bike_id":"df82e3af-f053-4ae4-897d-846acdc6e011","system_id":"levelo_inurba_marseille","lat":43.290104,"lon":5.356111,"is_reserved":false,"is_disabled":false,"rental_uris":{"android":"levelo://app?vid=df82e3af-f053-4ae4-897d-846acdc6e011","ios":"levelo://app?vid=df82e3af-f053-4ae4-897d-846acdc6e011"},"vehicle_type_id":"4","last_reported":1702544833,"current_range_meters":25600,"station_id":"ce4bhb92rcd13ifvqen0","pricing_plan_id":"free"},{"bike_id":"e2cb029f-0fc0-4d15-85dc-0ea58c481e8e","system_id":"levelo_inurba_marseille","lat":43.29103,"lon":5.38118,"is_reserved":false,"is_disabled":false,"rental_uris":{"android":"levelo://app?vid=e2cb029f-0fc0-4d15-85dc-0ea58c481e8e","ios":"levelo://app?vid=e2cb029f-0fc0-4d15-85dc-0ea58c481e8e"},"vehicle_type_id":"4","last_reported":1702544833,"current_range_meters":19200,"station_id":"ce4bh512rcd13ifvqe2g","pricing_plan_id":"free"},{"bike_id":"6b8ee10b-0c98-45db-8d5d-3eaf23f0a23e","system_id":"levelo_inurba_marseille","lat":43.2901,"lon":5.381269,"is_reserved":false,"is_disabled":false,"rental_uris":{"android":"levelo://app?vid=6b8ee10b-0c98-45db-8d5d-3eaf23f0a23e","ios":"levelo://app?vid=6b8ee10b-0c98-45db-8d5d-3eaf23f0a23e"},"vehicle_type_id":"4","last_reported":1702544833,"current_range_meters":25200,"station_id":"ce4bh4p2rcd13ifvqe1g","pricing_plan_id":"free"},{"bike_id":"63071938-a9c0-45b7-9e9e-7e084c140631","system_id":"levelo_inurba_marseille","lat":43.3374,"lon":5.3747,"is_reserved":false,"is_disabled":false,"rental_uris":{"android":"levelo://app?vid=63071938-a9c0-45b7-9e9e-7e084c140631","ios":"levelo://app?vid=63071938-a9c0-45b7-9e9e-7e084c140631"},"vehicle_type_id":"4","last_reported":1702544833,"current_range_meters":28400,"station_id":"","pricing_plan_id":"free"},{"bike_id":"bf3e6a68-88fe-4af7-a926-f741c3abd34a","system_id":"levelo_inurba_marseille","lat":43.301117,"lon":5.398795,"is_reserved":false,"is_disabled":false,"rental_uris":{"android":"levelo://app?vid=bf3e6a68-88fe-4af7-a926-f741c3abd34a","ios":"levelo://app?vid=bf3e6a68-88fe-4af7-a926-f741c3abd34a"},"vehicle_type_id":"4","last_reported":1702544833,"current_range_meters":15200,"station_id":"ce4bh0h2rcd13ifvqd40","pricing_plan_id":"free"},{"bike_id":"96695137-1efe-401f-86f1-7f7257165e06","system_id":"levelo_inurba_marseille","lat":43.286591,"lon":5.363346,"is_reserved":false,"is_disabled":false,"rental_uris":{"android":"levelo://app?vid=96695137-1efe-401f-86f1-7f7257165e06","ios":"levelo://app?vid=96695137-1efe-401f-86f1-7f7257165e06"},"vehicle_type_id":"4","last_reported":1702544833,"current_range_meters":5200,"station_id":"ce4bhah2rcd13ifvqej0","pricing_plan_id":"free"},{"bike_id":"80bceb4e-b969-4f44-9288-918ab5fb5a1e","system_id":"levelo_inurba_marseille","lat":43.290345,"lon":5.38646,"is_reserved":false,"is_disabled":false,"rental_uris":{"android":"levelo://app?vid=80bceb4e-b969-4f44-9288-918ab5fb5a1e","ios":"levelo://app?vid=80bceb4e-b969-4f44-9288-918ab5fb5a1e"},"vehicle_type_id":"4","last_reported":1702544833,"current_range_meters":17200,"station_id":"ce4bh4p2rcd13ifvqe0g","pricing_plan_id":"free"},{"bike_id":"9be47ca4-d31e-4339-8204-99ff31e77118","system_id":"levelo_inurba_marseille","lat":43.289307,"lon":5.38406,"is_reserved":false,"is_disabled":false,"rental_uris":{"android":"levelo://app?vid=9be47ca4-d31e-4339-8204-99ff31e77118","ios":"levelo://app?vid=9be47ca4-d31e-4339-8204-99ff31e77118"},"vehicle_type_id":"4","last_reported":1702544833,"current_range_meters":25200,"station_id":"ce4bh612rcd13ifvqe6g","pricing_plan_id":"free"},{"bike_id":"fe128e37-54d7-430a-a784-e2daa9fa0594","system_id":"levelo_inurba_marseille","lat":43.287184,"lon":5.37937,"is_reserved":false,"is_disabled":false,"rental_uris":{"android":"levelo://app?vid=fe128e37-54d7-430a-a784-e2daa9fa0594","ios":"levelo://app?vid=fe128e37-54d7-430a-a784-e2daa9fa0594"},"vehicle_type_id":"4","last_reported":1702544833,"current_range_meters":27600,"station_id":"ce4bh9p2rcd13ifvqec0","pricing_plan_id":"free"},{"bike_id":"3202b371-1d5f-48ac-855b-5ace258fd2ba","system_id":"levelo_inurba_marseille","lat":43.287185,"lon":5.379373,"is_reserved":false,"is_disabled":false,"rental_uris":{"android":"levelo://app?vid=3202b371-1d5f-48ac-855b-5ace258fd2ba","ios":"levelo://app?vid=3202b371-1d5f-48ac-855b-5ace258fd2ba"},"vehicle_type_id":"4","last_reported":1702544833,"current_range_meters":22400,"station_id":"ce4bh9p2rcd13ifvqec0","pricing_plan_id":"free"},{"bike_id":"790d6035-9082-4ea9-9130-bb9457670dc7","system_id":"levelo_inurba_marseille","lat":43.31689,"lon":5.40468,"is_reserved":false,"is_disabled":false,"rental_uris":{"android":"levelo://app?vid=790d6035-9082-4ea9-9130-bb9457670dc7","ios":"levelo://app?vid=790d6035-9082-4ea9-9130-bb9457670dc7"},"vehicle_type_id":"4","last_reported":1702544833,"current_range_meters":16400,"station_id":"ce4bh012rcd13ifvqd00","pricing_plan_id":"free"},{"bike_id":"f3006f4a-8e6d-4d53-99d9-d2f61936cda8","system_id":"levelo_inurba_marseille","lat":43.294314,"lon":5.397498,"is_reserved":false,"is_disabled":false,"rental_uris":{"android":"levelo://app?vid=f3006f4a-8e6d-4d53-99d9-d2f61936cda8","ios":"levelo://app?vid=f3006f4a-8e6d-4d53-99d9-d2f61936cda8"},"vehicle_type_id":"4","last_reported":1702544833,"current_range_meters":28000,"station_id":"ce4bh3h2rcd13ifvqdo0","pricing_plan_id":"free"},{"bike_id":"e48ef7b1-a491-49ba-89ae-9e260d5b4141","system_id":"levelo_inurba_marseille","lat":43.319179,"lon":5.407725,"is_reserved":false,"is_disabled":false,"rental_uris":{"android":"levelo://app?vid=e48ef7b1-a491-49ba-89ae-9e260d5b4141","ios":"levelo://app?vid=e48ef7b1-a491-49ba-89ae-9e260d5b4141"},"vehicle_type_id":"4","last_reported":1702544833,"current_range_meters":19600,"station_id":"ce4bhq12rcd13ifvqhig","pricing_plan_id":"free"},{"bike_id":"2c92f10e-fa6e-4ddb-9530-d6f90043c9b5","system_id":"levelo_inurba_marseille","lat":43.33717,"lon":5.391857,"is_reserved":false,"is_disabled":false,"rental_uris":{"android":"levelo://app?vid=2c92f10e-fa6e-4ddb-9530-d6f90043c9b5","ios":"levelo://app?vid=2c92f10e-fa6e-4ddb-9530-d6f90043c9b5"},"vehicle_type_id":"4","last_reported":1702544833,"current_range_meters":24800,"station_id":"ce4bhr92rcd13ifvqhsg","pricing_plan_id":"free"},{"bike_id":"e283adfc-0a64-42fb-a424-2d4c327398f6","system_id":"levelo_inurba_marseille","lat":43.284793,"lon":5.384119,"is_reserved":false,"is_disabled":false,"rental_uris":{"android":"levelo://app?vid=e283adfc-0a64-42fb-a424-2d4c327398f6","ios":"levelo://app?vid=e283adfc-0a64-42fb-a424-2d4c327398f6"},"vehicle_type_id":"4","last_reported":1702544833,"current_range_meters":2800,"station_id":"ce4bh512rcd13ifvqe3g","pricing_plan_id":"free"},{"bike_id":"f7c8b091-3d10-4aae-a5b5-70483386d217","system_id":"levelo_inurba_marseille","lat":43.284787,"lon":5.384116,"is_reserved":false,"is_disabled":false,"rental_uris":{"android":"levelo://app?vid=f7c8b091-3d10-4aae-a5b5-70483386d217","ios":"levelo://app?vid=f7c8b091-3d10-4aae-a5b5-70483386d217"},"vehicle_type_id":"4","last_reported":1702544833,"current_range_meters":12800,"station_id":"ce4bh512rcd13ifvqe3g","pricing_plan_id":"free"},{"bike_id":"0c0fb72c-23cb-48d3-b991-887bdd77dca5","system_id":"levelo_inurba_marseille","lat":43.283494,"lon":5.380945,"is_reserved":false,"is_disabled":false,"rental_uris":{"android":"levelo://app?vid=0c0fb72c-23cb-48d3-b991-887bdd77dca5","ios":"levelo://app?vid=0c0fb72c-23cb-48d3-b991-887bdd77dca5"},"vehicle_type_id":"4","last_reported":1702544833,"current_range_meters":17200,"station_id":"ce4bh412rcd13ifvqdr0","pricing_plan_id":"free"},{"bike_id":"ddabc0d6-838a-4ab9-8199-a8eb07626d73","system_id":"levelo_inurba_marseille","lat":43.284217,"lon":5.349697,"is_reserved":false,"is_disabled":false,"rental_uris":{"android":"levelo://app?vid=ddabc0d6-838a-4ab9-8199-a8eb07626d73","ios":"levelo://app?vid=ddabc0d6-838a-4ab9-8199-a8eb07626d73"},"vehicle_type_id":"4","last_reported":1702544833,"current_range_meters":4800,"station_id":"ce4bhbh2rcd13ifvqepg","pricing_plan_id":"free"},{"bike_id":"2f52fa34-e76d-457a-8d2a-b5d4f55a29dc","system_id":"levelo_inurba_marseille","lat":43.289363,"lon":5.396322,"is_reserved":false,"is_disabled":false,"rental_uris":{"android":"levelo://app?vid=2f52fa34-e76d-457a-8d2a-b5d4f55a29dc","ios":"levelo://app?vid=2f52fa34-e76d-457a-8d2a-b5d4f55a29dc"},"vehicle_type_id":"4","last_reported":1702544833,"current_range_meters":12000,"station_id":"ce4bh3h2rcd13ifvqdn0","pricing_plan_id":"free"},{"bike_id":"0d252a0c-2019-465f-b424-5cc39f25927e","system_id":"levelo_inurba_marseille","lat":43.282754,"lon":5.350519,"is_reserved":false,"is_disabled":false,"rental_uris":{"android":"levelo://app?vid=0d252a0c-2019-465f-b424-5cc39f25927e","ios":"levelo://app?vid=0d252a0c-2019-465f-b424-5cc39f25927e"},"vehicle_type_id":"4","last_reported":1702544833,"current_range_meters":18400,"station_id":"ce4bhbp2rcd13ifvqerg","pricing_plan_id":"free"},{"bike_id":"c3f9fa67-7a59-4a18-817a-df7da012a8e1","system_id":"levelo_inurba_marseille","lat":43.296263,"lon":5.40601,"is_reserved":false,"is_disabled":false,"rental_uris":{"android":"levelo://app?vid=c3f9fa67-7a59-4a18-817a-df7da012a8e1","ios":"levelo://app?vid=c3f9fa67-7a59-4a18-817a-df7da012a8e1"},"vehicle_type_id":"4","last_reported":1702544833,"current_range_meters":17600,"station_id":"ce4bh0h2rcd13ifvqd60","pricing_plan_id":"free"},{"bike_id":"949dc632-2c03-4aa1-bc49-90c82f51e1cc","system_id":"levelo_inurba_marseille","lat":43.325233,"lon":5.414318,"is_reserved":false,"is_disabled":false,"rental_uris":{"android":"levelo://app?vid=949dc632-2c03-4aa1-bc49-90c82f51e1cc","ios":"levelo://app?vid=949dc632-2c03-4aa1-bc49-90c82f51e1cc"},"vehicle_type_id":"4","last_reported":1702544833,"current_range_meters":23600,"station_id":"ce4bhq12rcd13ifvqhhg","pricing_plan_id":"free"},{"bike_id":"37b1113c-51b2-47f3-8f3d-92b406d0acf8","system_id":"levelo_inurba_marseille","lat":43.325233,"lon":5.414318,"is_reserved":false,"is_disabled":false,"rental_uris":{"android":"levelo://app?vid=37b1113c-51b2-47f3-8f3d-92b406d0acf8","ios":"levelo://app?vid=37b1113c-51b2-47f3-8f3d-92b406d0acf8"},"vehicle_type_id":"4","last_reported":1702544833,"current_range_meters":31600,"station_id":"ce4bhq12rcd13ifvqhhg","pricing_plan_id":"free"},{"bike_id":"c016e672-b4d7-49b9-b38f-69fd9e1cf7ed","system_id":"levelo_inurba_marseille","lat":43.325243,"lon":5.414326,"is_reserved":false,"is_disabled":false,"rental_uris":{"android":"levelo://app?vid=c016e672-b4d7-49b9-b38f-69fd9e1cf7ed","ios":"levelo://app?vid=c016e672-b4d7-49b9-b38f-69fd9e1cf7ed"},"vehicle_type_id":"4","last_reported":1702544833,"current_range_meters":20000,"station_id":"ce4bhq12rcd13ifvqhhg","pricing_plan_id":"free"},{"bike_id":"a5b5dd54-e499-455a-b36b-9544a8e431ec","system_id":"levelo_inurba_marseille","lat":43.275625,"lon":5.384392,"is_reserved":false,"is_disabled":false,"rental_uris":{"android":"levelo://app?vid=a5b5dd54-e499-455a-b36b-9544a8e431ec","ios":"levelo://app?vid=a5b5dd54-e499-455a-b36b-9544a8e431ec"},"vehicle_type_id":"4","last_reported":1702544833,"current_range_meters":21200,"station_id":"ce4bhh92rcd13ifvqfi0","pricing_plan_id":"free"},{"bike_id":"2b7c0b87-9916-4175-ac1e-161315ea313d","system_id":"levelo_inurba_marseille","lat":43.336148,"lon":5.410349,"is_reserved":false,"is_disabled":false,"rental_uris":{"android":"levelo://app?vid=2b7c0b87-9916-4175-ac1e-161315ea313d","ios":"levelo://app?vid=2b7c0b87-9916-4175-ac1e-161315ea313d"},"vehicle_type_id":"4","last_reported":1702544833,"current_range_meters":30800,"station_id":"ce4bhqh2rcd13ifvqhmg","pricing_plan_id":"free"},{"bike_id":"d7d4f062-0673-4b27-94bc-76a2dc063b06","system_id":"levelo_inurba_marseille","lat":43.336134,"lon":5.410341,"is_reserved":false,"is_disabled":false,"rental_uris":{"android":"levelo://app?vid=d7d4f062-0673-4b27-94bc-76a2dc063b06","ios":"levelo://app?vid=d7d4f062-0673-4b27-94bc-76a2dc063b06"},"vehicle_type_id":"4","last_reported":1702544833,"current_range_meters":8800,"station_id":"ce4bhqh2rcd13ifvqhmg","pricing_plan_id":"free"},{"bike_id":"e7dfee88-812e-4710-923d-d931eb576936","system_id":"levelo_inurba_marseille","lat":43.276769,"lon":5.388787,"is_reserved":false,"is_disabled":false,"rental_uris":{"android":"levelo://app?vid=e7dfee88-812e-4710-923d-d931eb576936","ios":"levelo://app?vid=e7dfee88-812e-4710-923d-d931eb576936"},"vehicle_type_id":"4","last_reported":1702544833,"current_range_meters":10000,"station_id":"ce4bhi12rcd13ifvqfo0","pricing_plan_id":"free"},{"bike_id":"975b0afe-7df2-4a07-ab8e-c38139be8e5d","system_id":"levelo_inurba_marseille","lat":43.276771,"lon":5.388799,"is_reserved":false,"is_disabled":false,"rental_uris":{"android":"levelo://app?vid=975b0afe-7df2-4a07-ab8e-c38139be8e5d","ios":"levelo://app?vid=975b0afe-7df2-4a07-ab8e-c38139be8e5d"},"vehicle_type_id":"4","last_reported":1702544833,"current_range_meters":16000,"station_id":"ce4bhi12rcd13ifvqfo0","pricing_plan_id":"free"},{"bike_id":"297eb113-1649-4032-af03-d958d46f870d","system_id":"levelo_inurba_marseille","lat":43.276771,"lon":5.388799,"is_reserved":false,"is_disabled":false,"rental_uris":{"android":"levelo://app?vid=297eb113-1649-4032-af03-d958d46f870d","ios":"levelo://app?vid=297eb113-1649-4032-af03-d958d46f870d"},"vehicle_type_id":"4","last_reported":1702544833,"current_range_meters":21600,"station_id":"ce4bhi12rcd13ifvqfo0","pricing_plan_id":"free"},{"bike_id":"79bf898b-68e4-4a18-b4bb-ac64fa26f621","system_id":"levelo_inurba_marseille","lat":43.276771,"lon":5.388799,"is_reserved":false,"is_disabled":false,"rental_uris":{"android":"levelo://app?vid=79bf898b-68e4-4a18-b4bb-ac64fa26f621","ios":"levelo://app?vid=79bf898b-68e4-4a18-b4bb-ac64fa26f621"},"vehicle_type_id":"4","last_reported":1702544833,"current_range_meters":18800,"station_id":"ce4bhi12rcd13ifvqfo0","pricing_plan_id":"free"},{"bike_id":"b247ed0a-4850-4260-b834-860ac593a91b","system_id":"levelo_inurba_marseille","lat":43.279975,"lon":5.40009,"is_reserved":false,"is_disabled":false,"rental_uris":{"android":"levelo://app?vid=b247ed0a-4850-4260-b834-860ac593a91b","ios":"levelo://app?vid=b247ed0a-4850-4260-b834-860ac593a91b"},"vehicle_type_id":"4","last_reported":1702544833,"current_range_meters":31200,"station_id":"ce4bho92rcd13ifvqh4g","pricing_plan_id":"free"},{"bike_id":"55f8cf7b-a384-4860-b1f5-075034029351","system_id":"levelo_inurba_marseille","lat":43.31715,"lon":5.42399,"is_reserved":false,"is_disabled":false,"rental_uris":{"android":"levelo://app?vid=55f8cf7b-a384-4860-b1f5-075034029351","ios":"levelo://app?vid=55f8cf7b-a384-4860-b1f5-075034029351"},"vehicle_type_id":"4","last_reported":1702544833,"current_range_meters":21600,"station_id":"ce4bhp92rcd13ifvqhbg","pricing_plan_id":"free"},{"bike_id":"3ca2c2d2-99b0-4aa6-a05d-e30f02e6a7fb","system_id":"levelo_inurba_marseille","lat":43.27588,"lon":5.39495,"is_reserved":false,"is_disabled":false,"rental_uris":{"android":"levelo://app?vid=3ca2c2d2-99b0-4aa6-a05d-e30f02e6a7fb","ios":"levelo://app?vid=3ca2c2d2-99b0-4aa6-a05d-e30f02e6a7fb"},"vehicle_type_id":"4","last_reported":1702544833,"current_range_meters":11200,"station_id":"","pricing_plan_id":"free"},{"bike_id":"a9c6f5a4-a407-4ee1-be15-f3a81ebaf9f2","system_id":"levelo_inurba_marseille","lat":43.274103,"lon":5.394016,"is_reserved":false,"is_disabled":false,"rental_uris":{"android":"levelo://app?vid=a9c6f5a4-a407-4ee1-be15-f3a81ebaf9f2","ios":"levelo://app?vid=a9c6f5a4-a407-4ee1-be15-f3a81ebaf9f2"},"vehicle_type_id":"4","last_reported":1702544833,"current_range_meters":26800,"station_id":"ce4bhdp2rcd13ifvqf20","pricing_plan_id":"free"},{"bike_id":"fe04921c-1fb3-40b8-97f5-fb576340470a","system_id":"levelo_inurba_marseille","lat":43.274099,"lon":5.394019,"is_reserved":false,"is_disabled":false,"rental_uris":{"android":"levelo://app?vid=fe04921c-1fb3-40b8-97f5-fb576340470a","ios":"levelo://app?vid=fe04921c-1fb3-40b8-97f5-fb576340470a"},"vehicle_type_id":"4","last_reported":1702544833,"current_range_meters":26400,"station_id":"ce4bhdp2rcd13ifvqf20","pricing_plan_id":"free"},{"bike_id":"3d78c319-fd1f-43d5-b0c6-e1e451ba55dd","system_id":"levelo_inurba_marseille","lat":43.272116,"lon":5.391763,"is_reserved":false,"is_disabled":false,"rental_uris":{"android":"levelo://app?vid=3d78c319-fd1f-43d5-b0c6-e1e451ba55dd","ios":"levelo://app?vid=3d78c319-fd1f-43d5-b0c6-e1e451ba55dd"},"vehicle_type_id":"4","last_reported":1702544833,"current_range_meters":28000,"station_id":"ce4bhhp2rcd13ifvqfm0","pricing_plan_id":"free"},{"bike_id":"7de03947-1bc1-4823-8521-ffae269d824e","system_id":"levelo_inurba_marseille","lat":43.278128,"lon":5.407195,"is_reserved":false,"is_disabled":false,"rental_uris":{"android":"levelo://app?vid=7de03947-1bc1-4823-8521-ffae269d824e","ios":"levelo://app?vid=7de03947-1bc1-4823-8521-ffae269d824e"},"vehicle_type_id":"4","last_reported":1702544833,"current_range_meters":18400,"station_id":"ce4bhnh2rcd13ifvqgtg","pricing_plan_id":"free"},{"bike_id":"7d9d0f62-d444-4658-8d2c-6fd7a2c335ce","system_id":"levelo_inurba_marseille","lat":43.269467,"lon":5.386439,"is_reserved":false,"is_disabled":false,"rental_uris":{"android":"levelo://app?vid=7d9d0f62-d444-4658-8d2c-6fd7a2c335ce","ios":"levelo://app?vid=7d9d0f62-d444-4658-8d2c-6fd7a2c335ce"},"vehicle_type_id":"4","last_reported":1702544833,"current_range_meters":28800,"station_id":"ce4bhh92rcd13ifvqfh0","pricing_plan_id":"free"},{"bike_id":"480011b9-f9d2-4fdf-9b1c-aeac6f9eef67","system_id":"levelo_inurba_marseille","lat":43.26949,"lon":5.38627,"is_reserved":false,"is_disabled":false,"rental_uris":{"android":"levelo://app?vid=480011b9-f9d2-4fdf-9b1c-aeac6f9eef67","ios":"levelo://app?vid=480011b9-f9d2-4fdf-9b1c-aeac6f9eef67"},"vehicle_type_id":"4","last_reported":1702544833,"current_range_meters":29600,"station_id":"ce4bhh92rcd13ifvqfh0","pricing_plan_id":"free"},{"bike_id":"398e67e0-e76f-4afa-9584-576b16fccaa5","system_id":"levelo_inurba_marseille","lat":43.279465,"lon":5.410561,"is_reserved":false,"is_disabled":false,"rental_uris":{"android":"levelo://app?vid=398e67e0-e76f-4afa-9584-576b16fccaa5","ios":"levelo://app?vid=398e67e0-e76f-4afa-9584-576b16fccaa5"},"vehicle_type_id":"4","last_reported":1702544833,"current_range_meters":26000,"station_id":"ce4bhnp2rcd13ifvqh0g","pricing_plan_id":"free"},{"bike_id":"9ee2ba19-e221-4350-ba06-a0af7035b063","system_id":"levelo_inurba_marseille","lat":43.26681,"lon":5.382694,"is_reserved":false,"is_disabled":false,"rental_uris":{"android":"levelo://app?vid=9ee2ba19-e221-4350-ba06-a0af7035b063","ios":"levelo://app?vid=9ee2ba19-e221-4350-ba06-a0af7035b063"},"vehicle_type_id":"4","last_reported":1702544833,"current_range_meters":16800,"station_id":"ce4bhg92rcd13ifvqf90","pricing_plan_id":"free"},{"bike_id":"2c76a2ce-9e1c-4631-b059-44b078077956","system_id":"levelo_inurba_marseille","lat":43.26681,"lon":5.382694,"is_reserved":false,"is_disabled":false,"rental_uris":{"android":"levelo://app?vid=2c76a2ce-9e1c-4631-b059-44b078077956","ios":"levelo://app?vid=2c76a2ce-9e1c-4631-b059-44b078077956"},"vehicle_type_id":"4","last_reported":1702544833,"current_range_meters":30400,"station_id":"ce4bhg92rcd13ifvqf90","pricing_plan_id":"free"},{"bike_id":"3e82f2b2-e9da-47dd-8fa7-51d78203efd4","system_id":"levelo_inurba_marseille","lat":43.26681,"lon":5.382694,"is_reserved":false,"is_disabled":false,"rental_uris":{"android":"levelo://app?vid=3e82f2b2-e9da-47dd-8fa7-51d78203efd4","ios":"levelo://app?vid=3e82f2b2-e9da-47dd-8fa7-51d78203efd4"},"vehicle_type_id":"4","last_reported":1702544833,"current_range_meters":20800,"station_id":"ce4bhg92rcd13ifvqf90","pricing_plan_id":"free"},{"bike_id":"1b37560f-35b8-4acb-8949-cceeaa9da1d5","system_id":"levelo_inurba_marseille","lat":43.26681,"lon":5.382694,"is_reserved":false,"is_disabled":false,"rental_uris":{"android":"levelo://app?vid=1b37560f-35b8-4acb-8949-cceeaa9da1d5","ios":"levelo://app?vid=1b37560f-35b8-4acb-8949-cceeaa9da1d5"},"vehicle_type_id":"4","last_reported":1702544833,"current_range_meters":28400,"station_id":"ce4bhg92rcd13ifvqf90","pricing_plan_id":"free"},{"bike_id":"b2d8df3c-a539-49d1-8e5b-ec43b09f0c44","system_id":"levelo_inurba_marseille","lat":43.26681,"lon":5.382694,"is_reserved":false,"is_disabled":false,"rental_uris":{"android":"levelo://app?vid=b2d8df3c-a539-49d1-8e5b-ec43b09f0c44","ios":"levelo://app?vid=b2d8df3c-a539-49d1-8e5b-ec43b09f0c44"},"vehicle_type_id":"4","last_reported":1702544833,"current_range_meters":9600,"station_id":"ce4bhg92rcd13ifvqf90","pricing_plan_id":"free"},{"bike_id":"e11afa7f-6980-4249-a77f-c0b323ae72b3","system_id":"levelo_inurba_marseille","lat":43.26681,"lon":5.382694,"is_reserved":false,"is_disabled":false,"rental_uris":{"android":"levelo://app?vid=e11afa7f-6980-4249-a77f-c0b323ae72b3","ios":"levelo://app?vid=e11afa7f-6980-4249-a77f-c0b323ae72b3"},"vehicle_type_id":"4","last_reported":1702544833,"current_range_meters":17200,"station_id":"ce4bhg92rcd13ifvqf90","pricing_plan_id":"free"},{"bike_id":"783eee64-3d32-4120-ab1b-7d9c1ad813fe","system_id":"levelo_inurba_marseille","lat":43.265714,"lon":5.372891,"is_reserved":false,"is_disabled":false,"rental_uris":{"android":"levelo://app?vid=783eee64-3d32-4120-ab1b-7d9c1ad813fe","ios":"levelo://app?vid=783eee64-3d32-4120-ab1b-7d9c1ad813fe"},"vehicle_type_id":"4","last_reported":1702544833,"current_range_meters":28000,"station_id":"ce4bhg12rcd13ifvqf70","pricing_plan_id":"free"},{"bike_id":"55982385-09dc-4f65-ac85-a3307b4045bc","system_id":"levelo_inurba_marseille","lat":43.265714,"lon":5.372891,"is_reserved":false,"is_disabled":false,"rental_uris":{"android":"levelo://app?vid=55982385-09dc-4f65-ac85-a3307b4045bc","ios":"levelo://app?vid=55982385-09dc-4f65-ac85-a3307b4045bc"},"vehicle_type_id":"4","last_reported":1702544833,"current_range_meters":15600,"station_id":"ce4bhg12rcd13ifvqf70","pricing_plan_id":"free"},{"bike_id":"f8cf1a00-edd9-410c-88cc-b412faffb72b","system_id":"levelo_inurba_marseille","lat":43.26949,"lon":5.40262,"is_reserved":false,"is_disabled":false,"rental_uris":{"android":"levelo://app?vid=f8cf1a00-edd9-410c-88cc-b412faffb72b","ios":"levelo://app?vid=f8cf1a00-edd9-410c-88cc-b412faffb72b"},"vehicle_type_id":"4","last_reported":1702544833,"current_range_meters":3600,"station_id":"cjm6bp8fraef2m0cb0m0","pricing_plan_id":"free"},{"bike_id":"150b466a-6516-450f-8a09-f4cdbc7c18db","system_id":"levelo_inurba_marseille","lat":43.261782,"lon":5.374515,"is_reserved":false,"is_disabled":false,"rental_uris":{"android":"levelo://app?vid=150b466a-6516-450f-8a09-f4cdbc7c18db","ios":"levelo://app?vid=150b466a-6516-450f-8a09-f4cdbc7c18db"},"vehicle_type_id":"4","last_reported":1702544833,"current_range_meters":27600,"station_id":"ce4bhgp2rcd13ifvqfc0","pricing_plan_id":"free"},{"bike_id":"d7c68083-de0d-4032-884a-e4511850567b","system_id":"levelo_inurba_marseille","lat":43.26202,"lon":5.379299,"is_reserved":false,"is_disabled":false,"rental_uris":{"android":"levelo://app?vid=d7c68083-de0d-4032-884a-e4511850567b","ios":"levelo://app?vid=d7c68083-de0d-4032-884a-e4511850567b"},"vehicle_type_id":"4","last_reported":1702544833,"current_range_meters":31200,"station_id":"ce4bhjp2rcd13ifvqg90","pricing_plan_id":"free"},{"bike_id":"96dd960e-9e5f-4ba8-a693-12d87ec3b4a9","system_id":"levelo_inurba_marseille","lat":43.271388,"lon":5.409269,"is_reserved":false,"is_disabled":false,"rental_uris":{"android":"levelo://app?vid=96dd960e-9e5f-4ba8-a693-12d87ec3b4a9","ios":"levelo://app?vid=96dd960e-9e5f-4ba8-a693-12d87ec3b4a9"},"vehicle_type_id":"4","last_reported":1702544833,"current_range_meters":31200,"station_id":"ce4bhl12rcd13ifvqgf0","pricing_plan_id":"free"},{"bike_id":"293b0fd3-65b1-42bb-807b-a77a51ee2260","system_id":"levelo_inurba_marseille","lat":43.271388,"lon":5.409269,"is_reserved":false,"is_disabled":false,"rental_uris":{"android":"levelo://app?vid=293b0fd3-65b1-42bb-807b-a77a51ee2260","ios":"levelo://app?vid=293b0fd3-65b1-42bb-807b-a77a51ee2260"},"vehicle_type_id":"4","last_reported":1702544833,"current_range_meters":30800,"station_id":"ce4bhl12rcd13ifvqgf0","pricing_plan_id":"free"},{"bike_id":"96ba9d10-482b-4b54-ba33-7a67558f4e06","system_id":"levelo_inurba_marseille","lat":43.265,"lon":5.39536,"is_reserved":false,"is_disabled":false,"rental_uris":{"android":"levelo://app?vid=96ba9d10-482b-4b54-ba33-7a67558f4e06","ios":"levelo://app?vid=96ba9d10-482b-4b54-ba33-7a67558f4e06"},"vehicle_type_id":"4","last_reported":1702544833,"current_range_meters":15600,"station_id":"","pricing_plan_id":"free"},{"bike_id":"82b0f4f7-4c81-4f90-9966-4d5b8816f8e7","system_id":"levelo_inurba_marseille","lat":43.26475,"lon":5.39576,"is_reserved":false,"is_disabled":false,"rental_uris":{"android":"levelo://app?vid=82b0f4f7-4c81-4f90-9966-4d5b8816f8e7","ios":"levelo://app?vid=82b0f4f7-4c81-4f90-9966-4d5b8816f8e7"},"vehicle_type_id":"4","last_reported":1702544833,"current_range_meters":27200,"station_id":"","pricing_plan_id":"free"},{"bike_id":"38a4a3ac-b01c-43e0-abb4-5a012521fc8c","system_id":"levelo_inurba_marseille","lat":43.298768,"lon":5.43643,"is_reserved":false,"is_disabled":false,"rental_uris":{"android":"levelo://app?vid=38a4a3ac-b01c-43e0-abb4-5a012521fc8c","ios":"levelo://app?vid=38a4a3ac-b01c-43e0-abb4-5a012521fc8c"},"vehicle_type_id":"4","last_reported":1702544833,"current_range_meters":30800,"station_id":"ce4bhpp2rcd13ifvqhfg","pricing_plan_id":"free"},{"bike_id":"74973e57-6a7e-4011-8d5e-0912c55eb2aa","system_id":"levelo_inurba_marseille","lat":43.365643,"lon":5.357043,"is_reserved":false,"is_disabled":false,"rental_uris":{"android":"levelo://app?vid=74973e57-6a7e-4011-8d5e-0912c55eb2aa","ios":"levelo://app?vid=74973e57-6a7e-4011-8d5e-0912c55eb2aa"},"vehicle_type_id":"4","last_reported":1702544833,"current_range_meters":0,"station_id":"","pricing_plan_id":"free"},{"bike_id":"509c80c9-6d63-40e0-8d4b-cacee3eaffe8","system_id":"levelo_inurba_marseille","lat":43.2607,"lon":5.393983,"is_reserved":false,"is_disabled":false,"rental_uris":{"android":"levelo://app?vid=509c80c9-6d63-40e0-8d4b-cacee3eaffe8","ios":"levelo://app?vid=509c80c9-6d63-40e0-8d4b-cacee3eaffe8"},"vehicle_type_id":"4","last_reported":1702544833,"current_range_meters":26000,"station_id":"ce4bhh92rcd13ifvqfj0","pricing_plan_id":"free"},{"bike_id":"c95706b8-c06e-493a-987b-3f8972a4b709","system_id":"levelo_inurba_marseille","lat":43.275028,"lon":5.424534,"is_reserved":false,"is_disabled":false,"rental_uris":{"android":"levelo://app?vid=c95706b8-c06e-493a-987b-3f8972a4b709","ios":"levelo://app?vid=c95706b8-c06e-493a-987b-3f8972a4b709"},"vehicle_type_id":"4","last_reported":1702544833,"current_range_meters":26400,"station_id":"ce4bhn92rcd13ifvqgrg","pricing_plan_id":"free"},{"bike_id":"5c9e7f96-8059-476e-b740-05c49dd46bfe","system_id":"levelo_inurba_marseille","lat":43.275028,"lon":5.424534,"is_reserved":false,"is_disabled":false,"rental_uris":{"android":"levelo://app?vid=5c9e7f96-8059-476e-b740-05c49dd46bfe","ios":"levelo://app?vid=5c9e7f96-8059-476e-b740-05c49dd46bfe"},"vehicle_type_id":"4","last_reported":1702544833,"current_range_meters":25600,"station_id":"ce4bhn92rcd13ifvqgrg","pricing_plan_id":"free"},{"bike_id":"c6bb4aec-0e6a-449a-a6e9-d503ea37f43c","system_id":"levelo_inurba_marseille","lat":43.275028,"lon":5.424534,"is_reserved":false,"is_disabled":false,"rental_uris":{"android":"levelo://app?vid=c6bb4aec-0e6a-449a-a6e9-d503ea37f43c","ios":"levelo://app?vid=c6bb4aec-0e6a-449a-a6e9-d503ea37f43c"},"vehicle_type_id":"4","last_reported":1702544833,"current_range_meters":31200,"station_id":"ce4bhn92rcd13ifvqgrg","pricing_plan_id":"free"},{"bike_id":"48685aab-7b3a-4db2-9744-28d4e65317bd","system_id":"levelo_inurba_marseille","lat":43.275028,"lon":5.424534,"is_reserved":false,"is_disabled":false,"rental_uris":{"android":"levelo://app?vid=48685aab-7b3a-4db2-9744-28d4e65317bd","ios":"levelo://app?vid=48685aab-7b3a-4db2-9744-28d4e65317bd"},"vehicle_type_id":"4","last_reported":1702544833,"current_range_meters":27200,"station_id":"ce4bhn92rcd13ifvqgrg","pricing_plan_id":"free"},{"bike_id":"cd563140-6cc4-491c-90a0-6a28e6f2cda7","system_id":"levelo_inurba_marseille","lat":43.275028,"lon":5.424534,"is_reserved":false,"is_disabled":false,"rental_uris":{"android":"levelo://app?vid=cd563140-6cc4-491c-90a0-6a28e6f2cda7","ios":"levelo://app?vid=cd563140-6cc4-491c-90a0-6a28e6f2cda7"},"vehicle_type_id":"4","last_reported":1702544833,"current_range_meters":23600,"station_id":"ce4bhn92rcd13ifvqgrg","pricing_plan_id":"free"},{"bike_id":"e9ebb918-c38e-461b-b1a2-1b26ed9053cb","system_id":"levelo_inurba_marseille","lat":43.275028,"lon":5.424534,"is_reserved":false,"is_disabled":false,"rental_uris":{"android":"levelo://app?vid=e9ebb918-c38e-461b-b1a2-1b26ed9053cb","ios":"levelo://app?vid=e9ebb918-c38e-461b-b1a2-1b26ed9053cb"},"vehicle_type_id":"4","last_reported":1702544833,"current_range_meters":9200,"station_id":"ce4bhn92rcd13ifvqgrg","pricing_plan_id":"free"},{"bike_id":"c0b76d63-cc62-4157-82e7-39267fdb0980","system_id":"levelo_inurba_marseille","lat":43.275028,"lon":5.424534,"is_reserved":false,"is_disabled":false,"rental_uris":{"android":"levelo://app?vid=c0b76d63-cc62-4157-82e7-39267fdb0980","ios":"levelo://app?vid=c0b76d63-cc62-4157-82e7-39267fdb0980"},"vehicle_type_id":"4","last_reported":1702544833,"current_range_meters":24800,"station_id":"ce4bhn92rcd13ifvqgrg","pricing_plan_id":"free"},{"bike_id":"62dab26c-e89c-4d3c-b191-00d5f81a4916","system_id":"levelo_inurba_marseille","lat":43.275028,"lon":5.424534,"is_reserved":false,"is_disabled":false,"rental_uris":{"android":"levelo://app?vid=62dab26c-e89c-4d3c-b191-00d5f81a4916","ios":"levelo://app?vid=62dab26c-e89c-4d3c-b191-00d5f81a4916"},"vehicle_type_id":"4","last_reported":1702544833,"current_range_meters":10000,"station_id":"ce4bhn92rcd13ifvqgrg","pricing_plan_id":"free"},{"bike_id":"a5441e3e-2bec-4934-9057-6a23a02e89e5","system_id":"levelo_inurba_marseille","lat":43.275028,"lon":5.424534,"is_reserved":false,"is_disabled":false,"rental_uris":{"android":"levelo://app?vid=a5441e3e-2bec-4934-9057-6a23a02e89e5","ios":"levelo://app?vid=a5441e3e-2bec-4934-9057-6a23a02e89e5"},"vehicle_type_id":"4","last_reported":1702544833,"current_range_meters":28000,"station_id":"ce4bhn92rcd13ifvqgrg","pricing_plan_id":"free"},{"bike_id":"8d81024a-82cc-477a-9092-9daf4c646a46","system_id":"levelo_inurba_marseille","lat":43.275028,"lon":5.424534,"is_reserved":false,"is_disabled":false,"rental_uris":{"android":"levelo://app?vid=8d81024a-82cc-477a-9092-9daf4c646a46","ios":"levelo://app?vid=8d81024a-82cc-477a-9092-9daf4c646a46"},"vehicle_type_id":"4","last_reported":1702544833,"current_range_meters":22800,"station_id":"ce4bhn92rcd13ifvqgrg","pricing_plan_id":"free"},{"bike_id":"4dd88a8f-12f7-446f-9940-0b0a20d002e3","system_id":"levelo_inurba_marseille","lat":43.275028,"lon":5.424534,"is_reserved":false,"is_disabled":false,"rental_uris":{"android":"levelo://app?vid=4dd88a8f-12f7-446f-9940-0b0a20d002e3","ios":"levelo://app?vid=4dd88a8f-12f7-446f-9940-0b0a20d002e3"},"vehicle_type_id":"4","last_reported":1702544833,"current_range_meters":19600,"station_id":"ce4bhn92rcd13ifvqgrg","pricing_plan_id":"free"},{"bike_id":"20e2eeed-0b00-48de-a845-977035bd5de1","system_id":"levelo_inurba_marseille","lat":43.25582,"lon":5.38228,"is_reserved":false,"is_disabled":false,"rental_uris":{"android":"levelo://app?vid=20e2eeed-0b00-48de-a845-977035bd5de1","ios":"levelo://app?vid=20e2eeed-0b00-48de-a845-977035bd5de1"},"vehicle_type_id":"4","last_reported":1702544833,"current_range_meters":8400,"station_id":"ce4bhih2rcd13ifvqfs0","pricing_plan_id":"free"},{"bike_id":"b6684eb6-42db-49c6-acdd-10132acf1f69","system_id":"levelo_inurba_marseille","lat":43.25585,"lon":5.38252,"is_reserved":false,"is_disabled":false,"rental_uris":{"android":"levelo://app?vid=b6684eb6-42db-49c6-acdd-10132acf1f69","ios":"levelo://app?vid=b6684eb6-42db-49c6-acdd-10132acf1f69"},"vehicle_type_id":"4","last_reported":1702544833,"current_range_meters":18000,"station_id":"ce4bhih2rcd13ifvqfs0","pricing_plan_id":"free"},{"bike_id":"1afd3082-6432-4cd0-9128-f27f5d54c6d0","system_id":"levelo_inurba_marseille","lat":43.258224,"lon":5.394369,"is_reserved":false,"is_disabled":false,"rental_uris":{"android":"levelo://app?vid=1afd3082-6432-4cd0-9128-f27f5d54c6d0","ios":"levelo://app?vid=1afd3082-6432-4cd0-9128-f27f5d54c6d0"},"vehicle_type_id":"4","last_reported":1702544833,"current_range_meters":28000,"station_id":"ce4bhip2rcd13ifvqft0","pricing_plan_id":"free"},{"bike_id":"e2b39af5-a034-487b-b118-bf2a5fde0eeb","system_id":"levelo_inurba_marseille","lat":43.259009,"lon":5.40929,"is_reserved":false,"is_disabled":false,"rental_uris":{"android":"levelo://app?vid=e2b39af5-a034-487b-b118-bf2a5fde0eeb","ios":"levelo://app?vid=e2b39af5-a034-487b-b118-bf2a5fde0eeb"},"vehicle_type_id":"4","last_reported":1702544833,"current_range_meters":22000,"station_id":"ce4bhm92rcd13ifvqglg","pricing_plan_id":"free"},{"bike_id":"40794540-883f-447b-ae50-ca728bc605c5","system_id":"levelo_inurba_marseille","lat":43.259009,"lon":5.40929,"is_reserved":false,"is_disabled":false,"rental_uris":{"android":"levelo://app?vid=40794540-883f-447b-ae50-ca728bc605c5","ios":"levelo://app?vid=40794540-883f-447b-ae50-ca728bc605c5"},"vehicle_type_id":"4","last_reported":1702544833,"current_range_meters":23200,"station_id":"ce4bhm92rcd13ifvqglg","pricing_plan_id":"free"},{"bike_id":"300dbc1d-a643-4a79-92c8-a4280b42f9bf","system_id":"levelo_inurba_marseille","lat":43.25936,"lon":5.4091,"is_reserved":false,"is_disabled":false,"rental_uris":{"android":"levelo://app?vid=300dbc1d-a643-4a79-92c8-a4280b42f9bf","ios":"levelo://app?vid=300dbc1d-a643-4a79-92c8-a4280b42f9bf"},"vehicle_type_id":"4","last_reported":1702544833,"current_range_meters":11200,"station_id":"ce4bhm92rcd13ifvqglg","pricing_plan_id":"free"},{"bike_id":"71e9091b-169a-407a-a649-2f5e20e7ef76","system_id":"levelo_inurba_marseille","lat":43.259009,"lon":5.40929,"is_reserved":false,"is_disabled":false,"rental_uris":{"android":"levelo://app?vid=71e9091b-169a-407a-a649-2f5e20e7ef76","ios":"levelo://app?vid=71e9091b-169a-407a-a649-2f5e20e7ef76"},"vehicle_type_id":"4","last_reported":1702544833,"current_range_meters":21600,"station_id":"ce4bhm92rcd13ifvqglg","pricing_plan_id":"free"},{"bike_id":"b3778f4b-17a5-414d-a355-5d6709a05873","system_id":"levelo_inurba_marseille","lat":43.25127,"lon":5.38222,"is_reserved":false,"is_disabled":false,"rental_uris":{"android":"levelo://app?vid=b3778f4b-17a5-414d-a355-5d6709a05873","ios":"levelo://app?vid=b3778f4b-17a5-414d-a355-5d6709a05873"},"vehicle_type_id":"4","last_reported":1702544833,"current_range_meters":21600,"station_id":"","pricing_plan_id":"free"},{"bike_id":"31a985e0-b4a3-44c1-b049-c73d989935d0","system_id":"levelo_inurba_marseille","lat":43.250009,"lon":5.389195,"is_reserved":false,"is_disabled":false,"rental_uris":{"android":"levelo://app?vid=31a985e0-b4a3-44c1-b049-c73d989935d0","ios":"levelo://app?vid=31a985e0-b4a3-44c1-b049-c73d989935d0"},"vehicle_type_id":"4","last_reported":1702544833,"current_range_meters":20400,"station_id":"ce4bhgp2rcd13ifvqfd0","pricing_plan_id":"free"},{"bike_id":"de38a4e7-ae00-47a7-807f-9c7db8ad31f4","system_id":"levelo_inurba_marseille","lat":43.250009,"lon":5.389195,"is_reserved":false,"is_disabled":false,"rental_uris":{"android":"levelo://app?vid=de38a4e7-ae00-47a7-807f-9c7db8ad31f4","ios":"levelo://app?vid=de38a4e7-ae00-47a7-807f-9c7db8ad31f4"},"vehicle_type_id":"4","last_reported":1702544833,"current_range_meters":19600,"station_id":"ce4bhgp2rcd13ifvqfd0","pricing_plan_id":"free"},{"bike_id":"5df306f0-6c4c-4d4f-a5df-785fbc76a77f","system_id":"levelo_inurba_marseille","lat":43.250023,"lon":5.38919,"is_reserved":false,"is_disabled":false,"rental_uris":{"android":"levelo://app?vid=5df306f0-6c4c-4d4f-a5df-785fbc76a77f","ios":"levelo://app?vid=5df306f0-6c4c-4d4f-a5df-785fbc76a77f"},"vehicle_type_id":"4","last_reported":1702544833,"current_range_meters":13600,"station_id":"ce4bhgp2rcd13ifvqfd0","pricing_plan_id":"free"},{"bike_id":"f7bd77b4-a7b9-4f45-9992-7c5bfce4c7a0","system_id":"levelo_inurba_marseille","lat":43.25102,"lon":5.403214,"is_reserved":false,"is_disabled":false,"rental_uris":{"android":"levelo://app?vid=f7bd77b4-a7b9-4f45-9992-7c5bfce4c7a0","ios":"levelo://app?vid=f7bd77b4-a7b9-4f45-9992-7c5bfce4c7a0"},"vehicle_type_id":"4","last_reported":1702544833,"current_range_meters":18000,"station_id":"ce4bhlh2rcd13ifvqgig","pricing_plan_id":"free"},{"bike_id":"bbab40c2-40c0-4d87-a6b5-10a6339d71e5","system_id":"levelo_inurba_marseille","lat":43.246461,"lon":5.389014,"is_reserved":false,"is_disabled":false,"rental_uris":{"android":"levelo://app?vid=bbab40c2-40c0-4d87-a6b5-10a6339d71e5","ios":"levelo://app?vid=bbab40c2-40c0-4d87-a6b5-10a6339d71e5"},"vehicle_type_id":"4","last_reported":1702544833,"current_range_meters":26400,"station_id":"ce4bhg12rcd13ifvqf60","pricing_plan_id":"free"},{"bike_id":"a5f55ee0-2479-4e72-9590-80015b564a08","system_id":"levelo_inurba_marseille","lat":43.24076,"lon":5.37757,"is_reserved":false,"is_disabled":false,"rental_uris":{"android":"levelo://app?vid=a5f55ee0-2479-4e72-9590-80015b564a08","ios":"levelo://app?vid=a5f55ee0-2479-4e72-9590-80015b564a08"},"vehicle_type_id":"4","last_reported":1702544833,"current_range_meters":24400,"station_id":"ce4bhnp2rcd13ifvqgvg","pricing_plan_id":"free"},{"bike_id":"5f8bc3d7-06f0-48e4-888c-31c56afceb23","system_id":"levelo_inurba_marseille","lat":43.24076,"lon":5.37762,"is_reserved":false,"is_disabled":false,"rental_uris":{"android":"levelo://app?vid=5f8bc3d7-06f0-48e4-888c-31c56afceb23","ios":"levelo://app?vid=5f8bc3d7-06f0-48e4-888c-31c56afceb23"},"vehicle_type_id":"4","last_reported":1702544833,"current_range_meters":26800,"station_id":"ce4bhnp2rcd13ifvqgvg","pricing_plan_id":"free"},{"bike_id":"47060181-03ec-4fb2-881b-8f5278d4e9c3","system_id":"levelo_inurba_marseille","lat":43.24075,"lon":5.3776,"is_reserved":false,"is_disabled":false,"rental_uris":{"android":"levelo://app?vid=47060181-03ec-4fb2-881b-8f5278d4e9c3","ios":"levelo://app?vid=47060181-03ec-4fb2-881b-8f5278d4e9c3"},"vehicle_type_id":"4","last_reported":1702544833,"current_range_meters":8800,"station_id":"ce4bhnp2rcd13ifvqgvg","pricing_plan_id":"free"},{"bike_id":"06c7ce42-76f6-466a-8883-c8bd8bb8b12d","system_id":"levelo_inurba_marseille","lat":43.24074,"lon":5.37761,"is_reserved":false,"is_disabled":false,"rental_uris":{"android":"levelo://app?vid=06c7ce42-76f6-466a-8883-c8bd8bb8b12d","ios":"levelo://app?vid=06c7ce42-76f6-466a-8883-c8bd8bb8b12d"},"vehicle_type_id":"4","last_reported":1702544833,"current_range_meters":22400,"station_id":"ce4bhnp2rcd13ifvqgvg","pricing_plan_id":"free"},{"bike_id":"3d508560-12c7-47bf-a624-f0363b8ed29b","system_id":"levelo_inurba_marseille","lat":43.240623,"lon":5.377642,"is_reserved":false,"is_disabled":false,"rental_uris":{"android":"levelo://app?vid=3d508560-12c7-47bf-a624-f0363b8ed29b","ios":"levelo://app?vid=3d508560-12c7-47bf-a624-f0363b8ed29b"},"vehicle_type_id":"4","last_reported":1702544833,"current_range_meters":18000,"station_id":"ce4bhnp2rcd13ifvqgvg","pricing_plan_id":"free"},{"bike_id":"fcda7c8e-f453-4e2d-8c2a-7dfbf9c7774d","system_id":"levelo_inurba_marseille","lat":43.240623,"lon":5.377642,"is_reserved":false,"is_disabled":false,"rental_uris":{"android":"levelo://app?vid=fcda7c8e-f453-4e2d-8c2a-7dfbf9c7774d","ios":"levelo://app?vid=fcda7c8e-f453-4e2d-8c2a-7dfbf9c7774d"},"vehicle_type_id":"4","last_reported":1702544833,"current_range_meters":18400,"station_id":"ce4bhnp2rcd13ifvqgvg","pricing_plan_id":"free"},{"bike_id":"c2865502-55a8-4405-90b1-cd694b8c666c","system_id":"levelo_inurba_marseille","lat":43.240623,"lon":5.377642,"is_reserved":false,"is_disabled":false,"rental_uris":{"android":"levelo://app?vid=c2865502-55a8-4405-90b1-cd694b8c666c","ios":"levelo://app?vid=c2865502-55a8-4405-90b1-cd694b8c666c"},"vehicle_type_id":"4","last_reported":1702544833,"current_range_meters":28800,"station_id":"ce4bhnp2rcd13ifvqgvg","pricing_plan_id":"free"},{"bike_id":"b02754a7-5692-4f20-97c7-2a07efb82a26","system_id":"levelo_inurba_marseille","lat":43.2407,"lon":5.37748,"is_reserved":false,"is_disabled":false,"rental_uris":{"android":"levelo://app?vid=b02754a7-5692-4f20-97c7-2a07efb82a26","ios":"levelo://app?vid=b02754a7-5692-4f20-97c7-2a07efb82a26"},"vehicle_type_id":"4","last_reported":1702544833,"current_range_meters":26000,"station_id":"ce4bhnp2rcd13ifvqgvg","pricing_plan_id":"free"},{"bike_id":"d1e4ffa3-0a0a-4153-b85c-71ae60bb1e49","system_id":"levelo_inurba_marseille","lat":43.24071,"lon":5.37762,"is_reserved":false,"is_disabled":false,"rental_uris":{"android":"levelo://app?vid=d1e4ffa3-0a0a-4153-b85c-71ae60bb1e49","ios":"levelo://app?vid=d1e4ffa3-0a0a-4153-b85c-71ae60bb1e49"},"vehicle_type_id":"4","last_reported":1702544833,"current_range_meters":23200,"station_id":"ce4bhnp2rcd13ifvqgvg","pricing_plan_id":"free"},{"bike_id":"3f8ecba7-2fba-4620-9059-fc09999b9c19","system_id":"levelo_inurba_marseille","lat":43.24071,"lon":5.37762,"is_reserved":false,"is_disabled":false,"rental_uris":{"android":"levelo://app?vid=3f8ecba7-2fba-4620-9059-fc09999b9c19","ios":"levelo://app?vid=3f8ecba7-2fba-4620-9059-fc09999b9c19"},"vehicle_type_id":"4","last_reported":1702544833,"current_range_meters":20800,"station_id":"ce4bhnp2rcd13ifvqgvg","pricing_plan_id":"free"},{"bike_id":"d737be68-4571-4f1b-ba4e-d2c56d62bbf8","system_id":"levelo_inurba_marseille","lat":43.2407,"lon":5.37751,"is_reserved":false,"is_disabled":false,"rental_uris":{"android":"levelo://app?vid=d737be68-4571-4f1b-ba4e-d2c56d62bbf8","ios":"levelo://app?vid=d737be68-4571-4f1b-ba4e-d2c56d62bbf8"},"vehicle_type_id":"4","last_reported":1702544833,"current_range_meters":31200,"station_id":"ce4bhnp2rcd13ifvqgvg","pricing_plan_id":"free"},{"bike_id":"18963ec8-894a-472d-a3ce-67ea969793b3","system_id":"levelo_inurba_marseille","lat":43.240623,"lon":5.377642,"is_reserved":false,"is_disabled":false,"rental_uris":{"android":"levelo://app?vid=18963ec8-894a-472d-a3ce-67ea969793b3","ios":"levelo://app?vid=18963ec8-894a-472d-a3ce-67ea969793b3"},"vehicle_type_id":"4","last_reported":1702544833,"current_range_meters":24800,"station_id":"ce4bhnp2rcd13ifvqgvg","pricing_plan_id":"free"},{"bike_id":"cad9535f-cdf8-4e9b-bc8a-5be553fadb06","system_id":"levelo_inurba_marseille","lat":43.240623,"lon":5.377642,"is_reserved":false,"is_disabled":false,"rental_uris":{"android":"levelo://app?vid=cad9535f-cdf8-4e9b-bc8a-5be553fadb06","ios":"levelo://app?vid=cad9535f-cdf8-4e9b-bc8a-5be553fadb06"},"vehicle_type_id":"4","last_reported":1702544833,"current_range_meters":22400,"station_id":"ce4bhnp2rcd13ifvqgvg","pricing_plan_id":"free"},{"bike_id":"10ecc5bd-67bf-448f-9498-3b2682cf884c","system_id":"levelo_inurba_marseille","lat":43.240623,"lon":5.377642,"is_reserved":false,"is_disabled":false,"rental_uris":{"android":"levelo://app?vid=10ecc5bd-67bf-448f-9498-3b2682cf884c","ios":"levelo://app?vid=10ecc5bd-67bf-448f-9498-3b2682cf884c"},"vehicle_type_id":"4","last_reported":1702544833,"current_range_meters":14000,"station_id":"ce4bhnp2rcd13ifvqgvg","pricing_plan_id":"free"},{"bike_id":"b101342a-e851-42da-ad23-c91936b38551","system_id":"levelo_inurba_marseille","lat":43.240623,"lon":5.377642,"is_reserved":false,"is_disabled":false,"rental_uris":{"android":"levelo://app?vid=b101342a-e851-42da-ad23-c91936b38551","ios":"levelo://app?vid=b101342a-e851-42da-ad23-c91936b38551"},"vehicle_type_id":"4","last_reported":1702544833,"current_range_meters":30400,"station_id":"ce4bhnp2rcd13ifvqgvg","pricing_plan_id":"free"},{"bike_id":"b19b6a37-df69-4ad6-97ca-bf76703ef0d1","system_id":"levelo_inurba_marseille","lat":43.240623,"lon":5.377642,"is_reserved":false,"is_disabled":false,"rental_uris":{"android":"levelo://app?vid=b19b6a37-df69-4ad6-97ca-bf76703ef0d1","ios":"levelo://app?vid=b19b6a37-df69-4ad6-97ca-bf76703ef0d1"},"vehicle_type_id":"4","last_reported":1702544833,"current_range_meters":20800,"station_id":"ce4bhnp2rcd13ifvqgvg","pricing_plan_id":"free"},{"bike_id":"484c3c46-f26e-4174-8edb-80d5fb1b6183","system_id":"levelo_inurba_marseille","lat":43.240623,"lon":5.377642,"is_reserved":false,"is_disabled":false,"rental_uris":{"android":"levelo://app?vid=484c3c46-f26e-4174-8edb-80d5fb1b6183","ios":"levelo://app?vid=484c3c46-f26e-4174-8edb-80d5fb1b6183"},"vehicle_type_id":"4","last_reported":1702544833,"current_range_meters":28400,"station_id":"ce4bhnp2rcd13ifvqgvg","pricing_plan_id":"free"},{"bike_id":"fd24137e-19ca-47c6-8f27-5ddcc02a51b7","system_id":"levelo_inurba_marseille","lat":43.239588,"lon":5.366238,"is_reserved":false,"is_disabled":false,"rental_uris":{"android":"levelo://app?vid=fd24137e-19ca-47c6-8f27-5ddcc02a51b7","ios":"levelo://app?vid=fd24137e-19ca-47c6-8f27-5ddcc02a51b7"},"vehicle_type_id":"4","last_reported":1702544833,"current_range_meters":29200,"station_id":"ce4bhi12rcd13ifvqfp0","pricing_plan_id":"free"},{"bike_id":"46e85755-7f44-4770-9e69-88e3e5d2d0d4","system_id":"levelo_inurba_marseille","lat":43.231794,"lon":5.400052,"is_reserved":false,"is_disabled":false,"rental_uris":{"android":"levelo://app?vid=46e85755-7f44-4770-9e69-88e3e5d2d0d4","ios":"levelo://app?vid=46e85755-7f44-4770-9e69-88e3e5d2d0d4"},"vehicle_type_id":"4","last_reported":1702544833,"current_range_meters":18000,"station_id":"ce4bhn12rcd13ifvqgqg","pricing_plan_id":"free"},{"bike_id":"5d66a1e1-407e-43b7-8a1f-b43437a90341","system_id":"levelo_inurba_marseille","lat":43.231794,"lon":5.400052,"is_reserved":false,"is_disabled":false,"rental_uris":{"android":"levelo://app?vid=5d66a1e1-407e-43b7-8a1f-b43437a90341","ios":"levelo://app?vid=5d66a1e1-407e-43b7-8a1f-b43437a90341"},"vehicle_type_id":"4","last_reported":1702544833,"current_range_meters":31200,"station_id":"ce4bhn12rcd13ifvqgqg","pricing_plan_id":"free"},{"bike_id":"76fcf11d-04ed-4c3c-bb8e-807e5fae03f7","system_id":"levelo_inurba_marseille","lat":43.231562,"lon":5.436933,"is_reserved":false,"is_disabled":false,"rental_uris":{"android":"levelo://app?vid=76fcf11d-04ed-4c3c-bb8e-807e5fae03f7","ios":"levelo://app?vid=76fcf11d-04ed-4c3c-bb8e-807e5fae03f7"},"vehicle_type_id":"4","last_reported":1702544833,"current_range_meters":20000,"station_id":"ce4bhmp2rcd13ifvqgog","pricing_plan_id":"free"},{"bike_id":"5e33f474-8396-458a-957e-8d7cacaa1bee","system_id":"levelo_inurba_marseille","lat":43.231562,"lon":5.436933,"is_reserved":false,"is_disabled":false,"rental_uris":{"android":"levelo://app?vid=5e33f474-8396-458a-957e-8d7cacaa1bee","ios":"levelo://app?vid=5e33f474-8396-458a-957e-8d7cacaa1bee"},"vehicle_type_id":"4","last_reported":1702544833,"current_range_meters":24800,"station_id":"ce4bhmp2rcd13ifvqgog","pricing_plan_id":"free"},{"bike_id":"0f5119d3-99ee-4eca-86bf-ffe25c328d95","system_id":"levelo_inurba_marseille","lat":43.231562,"lon":5.436933,"is_reserved":false,"is_disabled":false,"rental_uris":{"android":"levelo://app?vid=0f5119d3-99ee-4eca-86bf-ffe25c328d95","ios":"levelo://app?vid=0f5119d3-99ee-4eca-86bf-ffe25c328d95"},"vehicle_type_id":"4","last_reported":1702544833,"current_range_meters":20400,"station_id":"ce4bhmp2rcd13ifvqgog","pricing_plan_id":"free"},{"bike_id":"6016208a-e6f9-4246-9258-6df793e310a7","system_id":"levelo_inurba_marseille","lat":43.231562,"lon":5.436933,"is_reserved":false,"is_disabled":false,"rental_uris":{"android":"levelo://app?vid=6016208a-e6f9-4246-9258-6df793e310a7","ios":"levelo://app?vid=6016208a-e6f9-4246-9258-6df793e310a7"},"vehicle_type_id":"4","last_reported":1702544833,"current_range_meters":15200,"station_id":"ce4bhmp2rcd13ifvqgog","pricing_plan_id":"free"},{"bike_id":"8cbffd70-1c71-4ae7-8282-3bf4479ed0ee","system_id":"levelo_inurba_marseille","lat":43.23154,"lon":5.43716,"is_reserved":false,"is_disabled":false,"rental_uris":{"android":"levelo://app?vid=8cbffd70-1c71-4ae7-8282-3bf4479ed0ee","ios":"levelo://app?vid=8cbffd70-1c71-4ae7-8282-3bf4479ed0ee"},"vehicle_type_id":"4","last_reported":1702544833,"current_range_meters":11200,"station_id":"ce4bhmp2rcd13ifvqgog","pricing_plan_id":"free"},{"bike_id":"7031c03b-3bfa-4baa-9211-167183c251e6","system_id":"levelo_inurba_marseille","lat":43.231562,"lon":5.436933,"is_reserved":false,"is_disabled":false,"rental_uris":{"android":"levelo://app?vid=7031c03b-3bfa-4baa-9211-167183c251e6","ios":"levelo://app?vid=7031c03b-3bfa-4baa-9211-167183c251e6"},"vehicle_type_id":"4","last_reported":1702544833,"current_range_meters":25200,"station_id":"ce4bhmp2rcd13ifvqgog","pricing_plan_id":"free"},{"bike_id":"c7667cbb-4ebc-4ff0-8cc3-d90f64a1a989","system_id":"levelo_inurba_marseille","lat":43.231562,"lon":5.436933,"is_reserved":false,"is_disabled":false,"rental_uris":{"android":"levelo://app?vid=c7667cbb-4ebc-4ff0-8cc3-d90f64a1a989","ios":"levelo://app?vid=c7667cbb-4ebc-4ff0-8cc3-d90f64a1a989"},"vehicle_type_id":"4","last_reported":1702544833,"current_range_meters":28000,"station_id":"ce4bhmp2rcd13ifvqgog","pricing_plan_id":"free"}]}}