{"last_updated":1698336494,"ttl":30,"version":"2.2","data":{"bikes":[{"bike_id":"cb7576bb-0362-4fbf-baa4-dcb32e287db2","system_id":"levelo_inurba_marseille","lat":43.313231,"lon":5.36681,"is_reserved":false,"is_disabled":false,"rental_uris":{"android":"levelo://app?vid=cb7576bb-0362-4fbf-baa4-dcb32e287db2","ios":"levelo://app?vid=cb7576bb-0362-4fbf-baa4-dcb32e287db2"},"vehicle_type_id":"4","last_reported":1698336494,"current_range_meters":29200,"station_id":"","pricing_plan_id":"free"},{"bike_id":"b5045a78-d46b-4586-a512-fe6434503da6","system_id":"levelo_inurba_marseille","lat":43.31227,"lon":5.36864,"is_reserved":false,"is_disabled":false,"rental_uris":{"android":"levelo://app?vid=b5045a78-d46b-4586-a512-fe6434503da6","ios":"levelo://app?vid=b5045a78-d46b-4586-a512-fe6434503da6"},"vehicle_type_id":"4","last_reported":1698336494,"current_range_meters":17600,"station_id":"ce4bgl92rcd13ifvqbq0","pricing_plan_id":"free"},{"bike_id":"f5c58904-aeb7-4548-b4b5-9f5e83f269ce","system_id":"levelo_inurba_marseille","lat":43.309797,"lon":5.368093,"is_reserved":false,"is_disabled":false,"rental_uris":{"android":"levelo://app?vid=f5c58904-aeb7-4548-b4b5-9f5e83f269ce","ios":"levelo://app?vid=f5c58904-aeb7-4548-b4b5-9f5e83f269ce"},"vehicle_type_id":"4","last_reported":1698336494,"current_range_meters":0,"station_id":"ce4bgn92rcd13ifvqbvg","pricing_plan_id":"free"},{"bike_id":"cf04d626-4cf4-4f35-a4f3-10bebc31c564","system_id":"levelo_inurba_marseille","lat":43.315552,"lon":5.372706,"is_reserved":false,"is_disabled":false,"rental_uris":{"android":"levelo://app?vid=cf04d626-4cf4-4f35-a4f3-10bebc31c564","ios":"levelo://app?vid=cf04d626-4cf4-4f35-a4f3-10bebc31c564"},"vehicle_type_id":"4","last_reported":1698336494,"current_range_meters":3600,"station_id":"","pricing_plan_id":"free"},{"bike_id":"dbbdea51-7e3d-4271-bd96-c3aabecbd7e2","system_id":"levelo_inurba_marseille","lat":43.315783,"lon":5.372523,"is_reserved":false,"is_disabled":false,"rental_uris":{"android":"levelo://app?vid=dbbdea51-7e3d-4271-bd96-c3aabecbd7e2","ios":"levelo://app?vid=dbbdea51-7e3d-4271-bd96-c3aabecbd7e2"},"vehicle_type_id":"4","last_reported":1698336494,"current_range_meters":15200,"station_id":"","pricing_plan_id":"free"},{"bike_id":"8f586d39-b7e1-4c20-a966-031b259bbee2","system_id":"levelo_inurba_marseille","lat":43.305494,"lon":5.36539,"is_reserved":false,"is_disabled":false,"rental_uris":{"android":"levelo://app?vid=8f586d39-b7e1-4c20-a966-031b259bbee2","ios":"levelo://app?vid=8f586d39-b7e1-4c20-a966-031b259bbee2"},"vehicle_type_id":"4","last_reported":1698336494,"current_range_meters":0,"station_id":"ce4bgs12rcd13ifvqcag","pricing_plan_id":"free"},{"bike_id":"f252b071-dddd-4e5f-ad07-506846af6d1a","system_id":"levelo_inurba_marseille","lat":43.305714,"lon":5.365633,"is_reserved":false,"is_disabled":false,"rental_uris":{"android":"levelo://app?vid=f252b071-dddd-4e5f-ad07-506846af6d1a","ios":"levelo://app?vid=f252b071-dddd-4e5f-ad07-506846af6d1a"},"vehicle_type_id":"4","last_reported":1698336494,"current_range_meters":28800,"station_id":"ce4bgs12rcd13ifvqcag","pricing_plan_id":"free"},{"bike_id":"6058bc51-1601-49ab-af95-042e04b3bdf5","system_id":"levelo_inurba_marseille","lat":43.305989,"lon":5.37225,"is_reserved":false,"is_disabled":false,"rental_uris":{"android":"levelo://app?vid=6058bc51-1601-49ab-af95-042e04b3bdf5","ios":"levelo://app?vid=6058bc51-1601-49ab-af95-042e04b3bdf5"},"vehicle_type_id":"4","last_reported":1698336494,"current_range_meters":11600,"station_id":"ce4bgqh2rcd13ifvqc4g","pricing_plan_id":"free"},{"bike_id":"2fe6addf-3f28-4e18-9be7-8e324eee151f","system_id":"levelo_inurba_marseille","lat":43.30501,"lon":5.37088,"is_reserved":false,"is_disabled":false,"rental_uris":{"android":"levelo://app?vid=2fe6addf-3f28-4e18-9be7-8e324eee151f","ios":"levelo://app?vid=2fe6addf-3f28-4e18-9be7-8e324eee151f"},"vehicle_type_id":"4","last_reported":1698336494,"current_range_meters":10000,"station_id":"","pricing_plan_id":"free"},{"bike_id":"556692ee-f32a-475a-9a45-abc9ca59d8f0","system_id":"levelo_inurba_marseille","lat":43.307945,"lon":5.376487,"is_reserved":false,"is_disabled":false,"rental_uris":{"android":"levelo://app?vid=556692ee-f32a-475a-9a45-abc9ca59d8f0","ios":"levelo://app?vid=556692ee-f32a-475a-9a45-abc9ca59d8f0"},"vehicle_type_id":"4","last_reported":1698336494,"current_range_meters":11600,"station_id":"ce4bgv92rcd13ifvqcq0","pricing_plan_id":"free"},{"bike_id":"0c6c8f27-60e7-4fd1-a2fc-0041cde815e9","system_id":"levelo_inurba_marseille","lat":43.30388,"lon":5.36822,"is_reserved":false,"is_disabled":false,"rental_uris":{"android":"levelo://app?vid=0c6c8f27-60e7-4fd1-a2fc-0041cde815e9","ios":"levelo://app?vid=0c6c8f27-60e7-4fd1-a2fc-0041cde815e9"},"vehicle_type_id":"4","last_reported":1698336494,"current_range_meters":0,"station_id":"","pricing_plan_id":"free"},{"bike_id":"d844b631-0c6c-460d-97ec-0e406a41a135","system_id":"levelo_inurba_marseille","lat":43.30308,"lon":5.36907,"is_reserved":false,"is_disabled":false,"rental_uris":{"android":"levelo://app?vid=d844b631-0c6c-460d-97ec-0e406a41a135","ios":"levelo://app?vid=d844b631-0c6c-460d-97ec-0e406a41a135"},"vehicle_type_id":"4","last_reported":1698336494,"current_range_meters":0,"station_id":"ce4bgqh2rcd13ifvqc5g","pricing_plan_id":"free"},{"bike_id":"fcf5847c-c456-4790-aa46-99bd346d6804","system_id":"levelo_inurba_marseille","lat":43.31535,"lon":5.3803,"is_reserved":false,"is_disabled":false,"rental_uris":{"android":"levelo://app?vid=fcf5847c-c456-4790-aa46-99bd346d6804","ios":"levelo://app?vid=fcf5847c-c456-4790-aa46-99bd346d6804"},"vehicle_type_id":"4","last_reported":1698336494,"current_range_meters":24800,"station_id":"ce4bhsp2rcd13ifvqi50","pricing_plan_id":"free"},{"bike_id":"9499ea0f-1f2b-4282-939c-33b92bfcf8fd","system_id":"levelo_inurba_marseille","lat":43.3046,"lon":5.37904,"is_reserved":false,"is_disabled":false,"rental_uris":{"android":"levelo://app?vid=9499ea0f-1f2b-4282-939c-33b92bfcf8fd","ios":"levelo://app?vid=9499ea0f-1f2b-4282-939c-33b92bfcf8fd"},"vehicle_type_id":"4","last_reported":1698336494,"current_range_meters":0,"station_id":"ce4bgup2rcd13ifvqcn0","pricing_plan_id":"free"},{"bike_id":"1047bcc5-10ff-460b-bd6f-eac1d4a67db4","system_id":"levelo_inurba_marseille","lat":43.31745,"lon":5.382537,"is_reserved":false,"is_disabled":false,"rental_uris":{"android":"levelo://app?vid=1047bcc5-10ff-460b-bd6f-eac1d4a67db4","ios":"levelo://app?vid=1047bcc5-10ff-460b-bd6f-eac1d4a67db4"},"vehicle_type_id":"4","last_reported":1698336494,"current_range_meters":0,"station_id":"","pricing_plan_id":"free"},{"bike_id":"46e59620-997e-486c-a36f-24a6f0541ad5","system_id":"levelo_inurba_marseille","lat":43.319937,"lon":5.381563,"is_reserved":false,"is_disabled":false,"rental_uris":{"android":"levelo://app?vid=46e59620-997e-486c-a36f-24a6f0541ad5","ios":"levelo://app?vid=46e59620-997e-486c-a36f-24a6f0541ad5"},"vehicle_type_id":"4","last_reported":1698336494,"current_range_meters":10000,"station_id":"","pricing_plan_id":"free"},{"bike_id":"97997ef7-b347-4148-ba57-9a15ecc4912d","system_id":"levelo_inurba_marseille","lat":43.320945,"lon":5.38306,"is_reserved":false,"is_disabled":false,"rental_uris":{"android":"levelo://app?vid=97997ef7-b347-4148-ba57-9a15ecc4912d","ios":"levelo://app?vid=97997ef7-b347-4148-ba57-9a15ecc4912d"},"vehicle_type_id":"4","last_reported":1698336494,"current_range_meters":400,"station_id":"","pricing_plan_id":"free"},{"bike_id":"d5c2417c-2d06-42c8-b796-2b8ccddeb954","system_id":"levelo_inurba_marseille","lat":43.30538,"lon":5.38432,"is_reserved":false,"is_disabled":false,"rental_uris":{"android":"levelo://app?vid=d5c2417c-2d06-42c8-b796-2b8ccddeb954","ios":"levelo://app?vid=d5c2417c-2d06-42c8-b796-2b8ccddeb954"},"vehicle_type_id":"4","last_reported":1698336494,"current_range_meters":0,"station_id":"ce4bgg92rcd13ifvqb30","pricing_plan_id":"free"},{"bike_id":"286311ea-3fef-4982-87a6-5683f0ef2813","system_id":"levelo_inurba_marseille","lat":43.298433,"lon":5.362774,"is_reserved":false,"is_disabled":false,"rental_uris":{"android":"levelo://app?vid=286311ea-3fef-4982-87a6-5683f0ef2813","ios":"levelo://app?vid=286311ea-3fef-4982-87a6-5683f0ef2813"},"vehicle_type_id":"4","last_reported":1698336494,"current_range_meters":28800,"station_id":"ce4bgpp2rcd13ifvqc3g","pricing_plan_id":"free"},{"bike_id":"24d8d41a-6c69-47bf-8986-14f3fd3cc30a","system_id":"levelo_inurba_marseille","lat":43.328371,"lon":5.366912,"is_reserved":false,"is_disabled":false,"rental_uris":{"android":"levelo://app?vid=24d8d41a-6c69-47bf-8986-14f3fd3cc30a","ios":"levelo://app?vid=24d8d41a-6c69-47bf-8986-14f3fd3cc30a"},"vehicle_type_id":"4","last_reported":1698336494,"current_range_meters":4800,"station_id":"ce4bhs92rcd13ifvqi0g","pricing_plan_id":"free"},{"bike_id":"85114e19-ca73-4bce-8707-c9ebdac383b2","system_id":"levelo_inurba_marseille","lat":43.328371,"lon":5.366912,"is_reserved":false,"is_disabled":false,"rental_uris":{"android":"levelo://app?vid=85114e19-ca73-4bce-8707-c9ebdac383b2","ios":"levelo://app?vid=85114e19-ca73-4bce-8707-c9ebdac383b2"},"vehicle_type_id":"4","last_reported":1698336494,"current_range_meters":2400,"station_id":"ce4bhs92rcd13ifvqi0g","pricing_plan_id":"free"},{"bike_id":"2bf09692-7151-4aba-9fa7-8ce1d6106004","system_id":"levelo_inurba_marseille","lat":43.328303,"lon":5.366873,"is_reserved":false,"is_disabled":false,"rental_uris":{"android":"levelo://app?vid=2bf09692-7151-4aba-9fa7-8ce1d6106004","ios":"levelo://app?vid=2bf09692-7151-4aba-9fa7-8ce1d6106004"},"vehicle_type_id":"4","last_reported":1698336494,"current_range_meters":20400,"station_id":"","pricing_plan_id":"free"},{"bike_id":"354fae86-0b17-4e34-b594-019cb8949f86","system_id":"levelo_inurba_marseille","lat":43.297163,"lon":5.365866,"is_reserved":false,"is_disabled":false,"rental_uris":{"android":"levelo://app?vid=354fae86-0b17-4e34-b594-019cb8949f86","ios":"levelo://app?vid=354fae86-0b17-4e34-b594-019cb8949f86"},"vehicle_type_id":"4","last_reported":1698336494,"current_range_meters":23200,"station_id":"ce4bgn12rcd13ifvqbt0","pricing_plan_id":"free"},{"bike_id":"c309b6e8-4bd9-451b-a4ff-b7aca8c553ca","system_id":"levelo_inurba_marseille","lat":43.2968,"lon":5.37291,"is_reserved":false,"is_disabled":false,"rental_uris":{"android":"levelo://app?vid=c309b6e8-4bd9-451b-a4ff-b7aca8c553ca","ios":"levelo://app?vid=c309b6e8-4bd9-451b-a4ff-b7aca8c553ca"},"vehicle_type_id":"4","last_reported":1698336494,"current_range_meters":28000,"station_id":"ce4bgk12rcd13ifvqbj0","pricing_plan_id":"free"},{"bike_id":"85381b3a-7dc1-49ff-9cee-4a0c3ba38f3a","system_id":"levelo_inurba_marseille","lat":43.296131,"lon":5.370791,"is_reserved":false,"is_disabled":false,"rental_uris":{"android":"levelo://app?vid=85381b3a-7dc1-49ff-9cee-4a0c3ba38f3a","ios":"levelo://app?vid=85381b3a-7dc1-49ff-9cee-4a0c3ba38f3a"},"vehicle_type_id":"4","last_reported":1698336494,"current_range_meters":29600,"station_id":"ce4bgnh2rcd13ifvqc0g","pricing_plan_id":"free"},{"bike_id":"e4b3329d-557f-44bb-af7f-9b98969e3688","system_id":"levelo_inurba_marseille","lat":43.296131,"lon":5.370791,"is_reserved":false,"is_disabled":false,"rental_uris":{"android":"levelo://app?vid=e4b3329d-557f-44bb-af7f-9b98969e3688","ios":"levelo://app?vid=e4b3329d-557f-44bb-af7f-9b98969e3688"},"vehicle_type_id":"4","last_reported":1698336494,"current_range_meters":0,"station_id":"ce4bgnh2rcd13ifvqc0g","pricing_plan_id":"free"},{"bike_id":"ddb06754-36b2-4574-9ee0-f8eaf7d63999","system_id":"levelo_inurba_marseille","lat":43.29573,"lon":5.367355,"is_reserved":false,"is_disabled":false,"rental_uris":{"android":"levelo://app?vid=ddb06754-36b2-4574-9ee0-f8eaf7d63999","ios":"levelo://app?vid=ddb06754-36b2-4574-9ee0-f8eaf7d63999"},"vehicle_type_id":"4","last_reported":1698336494,"current_range_meters":12800,"station_id":"ce4bgph2rcd13ifvqc2g","pricing_plan_id":"free"},{"bike_id":"f3d0381f-7a2d-409e-a12f-bd3d9095653d","system_id":"levelo_inurba_marseille","lat":43.329673,"lon":5.365468,"is_reserved":false,"is_disabled":false,"rental_uris":{"android":"levelo://app?vid=f3d0381f-7a2d-409e-a12f-bd3d9095653d","ios":"levelo://app?vid=f3d0381f-7a2d-409e-a12f-bd3d9095653d"},"vehicle_type_id":"4","last_reported":1698336494,"current_range_meters":12400,"station_id":"","pricing_plan_id":"free"},{"bike_id":"91832575-c768-424f-81de-4c185542e44a","system_id":"levelo_inurba_marseille","lat":43.29912,"lon":5.3814,"is_reserved":false,"is_disabled":false,"rental_uris":{"android":"levelo://app?vid=91832575-c768-424f-81de-4c185542e44a","ios":"levelo://app?vid=91832575-c768-424f-81de-4c185542e44a"},"vehicle_type_id":"4","last_reported":1698336494,"current_range_meters":27600,"station_id":"ce4bgj12rcd13ifvqbc0","pricing_plan_id":"free"},{"bike_id":"3db083d6-33c9-42cf-a115-b1cb43355c14","system_id":"levelo_inurba_marseille","lat":43.299028,"lon":5.381509,"is_reserved":false,"is_disabled":false,"rental_uris":{"android":"levelo://app?vid=3db083d6-33c9-42cf-a115-b1cb43355c14","ios":"levelo://app?vid=3db083d6-33c9-42cf-a115-b1cb43355c14"},"vehicle_type_id":"4","last_reported":1698336494,"current_range_meters":22800,"station_id":"ce4bgj12rcd13ifvqbc0","pricing_plan_id":"free"},{"bike_id":"a67acaf3-ea6c-4cb5-9f90-2691a47080dc","system_id":"levelo_inurba_marseille","lat":43.309589,"lon":5.390258,"is_reserved":false,"is_disabled":false,"rental_uris":{"android":"levelo://app?vid=a67acaf3-ea6c-4cb5-9f90-2691a47080dc","ios":"levelo://app?vid=a67acaf3-ea6c-4cb5-9f90-2691a47080dc"},"vehicle_type_id":"4","last_reported":1698336494,"current_range_meters":21600,"station_id":"ce4bgup2rcd13ifvqco0","pricing_plan_id":"free"},{"bike_id":"302b2963-b9e2-4704-9e25-4a30432b1449","system_id":"levelo_inurba_marseille","lat":43.267959,"lon":5.402685,"is_reserved":false,"is_disabled":false,"rental_uris":{"android":"levelo://app?vid=302b2963-b9e2-4704-9e25-4a30432b1449","ios":"levelo://app?vid=302b2963-b9e2-4704-9e25-4a30432b1449"},"vehicle_type_id":"4","last_reported":1698336494,"current_range_meters":18000,"station_id":"ce501612rcd8frsf0b60","pricing_plan_id":"free"},{"bike_id":"f41b9166-86fb-4427-bf7a-a7535ff4bd61","system_id":"levelo_inurba_marseille","lat":43.304367,"lon":5.38897,"is_reserved":false,"is_disabled":false,"rental_uris":{"android":"levelo://app?vid=f41b9166-86fb-4427-bf7a-a7535ff4bd61","ios":"levelo://app?vid=f41b9166-86fb-4427-bf7a-a7535ff4bd61"},"vehicle_type_id":"4","last_reported":1698336494,"current_range_meters":0,"station_id":"ce4bgk12rcd13ifvqbi0","pricing_plan_id":"free"},{"bike_id":"1f675328-0f67-42d4-b185-c1424fc69e82","system_id":"levelo_inurba_marseille","lat":43.299707,"lon":5.384859,"is_reserved":false,"is_disabled":false,"rental_uris":{"android":"levelo://app?vid=1f675328-0f67-42d4-b185-c1424fc69e82","ios":"levelo://app?vid=1f675328-0f67-42d4-b185-c1424fc69e82"},"vehicle_type_id":"4","last_reported":1698336494,"current_range_meters":14400,"station_id":"ce4bgj92rcd13ifvqbd0","pricing_plan_id":"free"},{"bike_id":"28424f5a-bee2-432c-9208-097ce97f60dc","system_id":"levelo_inurba_marseille","lat":43.299707,"lon":5.384859,"is_reserved":false,"is_disabled":false,"rental_uris":{"android":"levelo://app?vid=28424f5a-bee2-432c-9208-097ce97f60dc","ios":"levelo://app?vid=28424f5a-bee2-432c-9208-097ce97f60dc"},"vehicle_type_id":"4","last_reported":1698336494,"current_range_meters":4000,"station_id":"ce4bgj92rcd13ifvqbd0","pricing_plan_id":"free"},{"bike_id":"6321d14f-26f5-4dfe-8def-4319b01e5119","system_id":"levelo_inurba_marseille","lat":43.299717,"lon":5.384845,"is_reserved":false,"is_disabled":false,"rental_uris":{"android":"levelo://app?vid=6321d14f-26f5-4dfe-8def-4319b01e5119","ios":"levelo://app?vid=6321d14f-26f5-4dfe-8def-4319b01e5119"},"vehicle_type_id":"4","last_reported":1698336494,"current_range_meters":2400,"station_id":"ce4bgj92rcd13ifvqbd0","pricing_plan_id":"free"},{"bike_id":"7b3c5f71-6e7d-427c-a75b-22a6453410fc","system_id":"levelo_inurba_marseille","lat":43.299717,"lon":5.384845,"is_reserved":false,"is_disabled":false,"rental_uris":{"android":"levelo://app?vid=7b3c5f71-6e7d-427c-a75b-22a6453410fc","ios":"levelo://app?vid=7b3c5f71-6e7d-427c-a75b-22a6453410fc"},"vehicle_type_id":"4","last_reported":1698336494,"current_range_meters":20800,"station_id":"ce4bgj92rcd13ifvqbd0","pricing_plan_id":"free"},{"bike_id":"91911e98-9dd3-4d04-85d2-2a9a4176bf46","system_id":"levelo_inurba_marseille","lat":43.299724,"lon":5.384848,"is_reserved":false,"is_disabled":false,"rental_uris":{"android":"levelo://app?vid=91911e98-9dd3-4d04-85d2-2a9a4176bf46","ios":"levelo://app?vid=91911e98-9dd3-4d04-85d2-2a9a4176bf46"},"vehicle_type_id":"4","last_reported":1698336494,"current_range_meters":4000,"station_id":"ce4bgj92rcd13ifvqbd0","pricing_plan_id":"free"},{"bike_id":"50ba0a4e-dc52-4b36-bbea-ef74378b458b","system_id":"levelo_inurba_marseille","lat":43.29698,"lon":5.3812,"is_reserved":false,"is_disabled":false,"rental_uris":{"android":"levelo://app?vid=50ba0a4e-dc52-4b36-bbea-ef74378b458b","ios":"levelo://app?vid=50ba0a4e-dc52-4b36-bbea-ef74378b458b"},"vehicle_type_id":"4","last_reported":1698336494,"current_range_meters":1600,"station_id":"","pricing_plan_id":"free"},{"bike_id":"cef65dd8-e2a9-4bc6-9bda-0dd66b80ef3f","system_id":"levelo_inurba_marseille","lat":43.323676,"lon":5.388854,"is_reserved":false,"is_disabled":false,"rental_uris":{"android":"levelo://app?vid=cef65dd8-e2a9-4bc6-9bda-0dd66b80ef3f","ios":"levelo://app?vid=cef65dd8-e2a9-4bc6-9bda-0dd66b80ef3f"},"vehicle_type_id":"4","last_reported":1698336494,"current_range_meters":20800,"station_id":"","pricing_plan_id":"free"},{"bike_id":"ce5273b1-d0d6-4af7-afdc-d97721bd8812","system_id":"levelo_inurba_marseille","lat":43.32367,"lon":5.388836,"is_reserved":false,"is_disabled":false,"rental_uris":{"android":"levelo://app?vid=ce5273b1-d0d6-4af7-afdc-d97721bd8812","ios":"levelo://app?vid=ce5273b1-d0d6-4af7-afdc-d97721bd8812"},"vehicle_type_id":"4","last_reported":1698336494,"current_range_meters":16400,"station_id":"ce4bhqp2rcd13ifvqhog","pricing_plan_id":"free"},{"bike_id":"b11a2e6f-fd0a-4d15-9bb6-ea9d35d4b32f","system_id":"levelo_inurba_marseille","lat":43.32367,"lon":5.388836,"is_reserved":false,"is_disabled":false,"rental_uris":{"android":"levelo://app?vid=b11a2e6f-fd0a-4d15-9bb6-ea9d35d4b32f","ios":"levelo://app?vid=b11a2e6f-fd0a-4d15-9bb6-ea9d35d4b32f"},"vehicle_type_id":"4","last_reported":1698336494,"current_range_meters":25200,"station_id":"ce4bhqp2rcd13ifvqhog","pricing_plan_id":"free"},{"bike_id":"eb5bc363-d62b-4f46-aa7f-e66fa55022c2","system_id":"levelo_inurba_marseille","lat":43.32367,"lon":5.38892,"is_reserved":false,"is_disabled":false,"rental_uris":{"android":"levelo://app?vid=eb5bc363-d62b-4f46-aa7f-e66fa55022c2","ios":"levelo://app?vid=eb5bc363-d62b-4f46-aa7f-e66fa55022c2"},"vehicle_type_id":"4","last_reported":1698336494,"current_range_meters":0,"station_id":"ce4bhqp2rcd13ifvqhog","pricing_plan_id":"free"},{"bike_id":"8baff38f-3873-43f0-8cb8-302e025158a5","system_id":"levelo_inurba_marseille","lat":43.292749,"lon":5.368402,"is_reserved":false,"is_disabled":false,"rental_uris":{"android":"levelo://app?vid=8baff38f-3873-43f0-8cb8-302e025158a5","ios":"levelo://app?vid=8baff38f-3873-43f0-8cb8-302e025158a5"},"vehicle_type_id":"4","last_reported":1698336494,"current_range_meters":0,"station_id":"ce4bhbp2rcd13ifvqesg","pricing_plan_id":"free"},{"bike_id":"df903ef8-9780-47cd-a9ca-08baa31da32b","system_id":"levelo_inurba_marseille","lat":43.293249,"lon":5.371578,"is_reserved":false,"is_disabled":false,"rental_uris":{"android":"levelo://app?vid=df903ef8-9780-47cd-a9ca-08baa31da32b","ios":"levelo://app?vid=df903ef8-9780-47cd-a9ca-08baa31da32b"},"vehicle_type_id":"4","last_reported":1698336494,"current_range_meters":16800,"station_id":"ce4bgh92rcd13ifvqb40","pricing_plan_id":"free"},{"bike_id":"e3157686-5134-4ec9-95e0-db7778d6ddbe","system_id":"levelo_inurba_marseille","lat":43.29303,"lon":5.37174,"is_reserved":false,"is_disabled":false,"rental_uris":{"android":"levelo://app?vid=e3157686-5134-4ec9-95e0-db7778d6ddbe","ios":"levelo://app?vid=e3157686-5134-4ec9-95e0-db7778d6ddbe"},"vehicle_type_id":"4","last_reported":1698336494,"current_range_meters":25200,"station_id":"ce4bgh92rcd13ifvqb40","pricing_plan_id":"free"},{"bike_id":"bbab7e28-ee01-4080-b12e-dd8baccd43d0","system_id":"levelo_inurba_marseille","lat":43.32394,"lon":5.389747,"is_reserved":false,"is_disabled":false,"rental_uris":{"android":"levelo://app?vid=bbab7e28-ee01-4080-b12e-dd8baccd43d0","ios":"levelo://app?vid=bbab7e28-ee01-4080-b12e-dd8baccd43d0"},"vehicle_type_id":"4","last_reported":1698336494,"current_range_meters":16400,"station_id":"","pricing_plan_id":"free"},{"bike_id":"acf562db-7ba2-4737-a1c0-0aa7ea6d5b3d","system_id":"levelo_inurba_marseille","lat":43.293009,"lon":5.374584,"is_reserved":false,"is_disabled":false,"rental_uris":{"android":"levelo://app?vid=acf562db-7ba2-4737-a1c0-0aa7ea6d5b3d","ios":"levelo://app?vid=acf562db-7ba2-4737-a1c0-0aa7ea6d5b3d"},"vehicle_type_id":"4","last_reported":1698336494,"current_range_meters":0,"station_id":"ce4bgi12rcd13ifvqb70","pricing_plan_id":"free"},{"bike_id":"3be0dff1-422e-401e-8602-5a223666d2e1","system_id":"levelo_inurba_marseille","lat":43.29305,"lon":5.37456,"is_reserved":false,"is_disabled":false,"rental_uris":{"android":"levelo://app?vid=3be0dff1-422e-401e-8602-5a223666d2e1","ios":"levelo://app?vid=3be0dff1-422e-401e-8602-5a223666d2e1"},"vehicle_type_id":"4","last_reported":1698336494,"current_range_meters":17200,"station_id":"ce4bgi12rcd13ifvqb70","pricing_plan_id":"free"},{"bike_id":"ba303730-a74e-4fac-8fad-58b50bea5d15","system_id":"levelo_inurba_marseille","lat":43.30592,"lon":5.39358,"is_reserved":false,"is_disabled":false,"rental_uris":{"android":"levelo://app?vid=ba303730-a74e-4fac-8fad-58b50bea5d15","ios":"levelo://app?vid=ba303730-a74e-4fac-8fad-58b50bea5d15"},"vehicle_type_id":"4","last_reported":1698336494,"current_range_meters":0,"station_id":"ce4bh0p2rcd13ifvqd80","pricing_plan_id":"free"},{"bike_id":"4fb98c0f-8c1c-42d0-af3f-00fae5d60888","system_id":"levelo_inurba_marseille","lat":43.292311,"lon":5.360731,"is_reserved":false,"is_disabled":false,"rental_uris":{"android":"levelo://app?vid=4fb98c0f-8c1c-42d0-af3f-00fae5d60888","ios":"levelo://app?vid=4fb98c0f-8c1c-42d0-af3f-00fae5d60888"},"vehicle_type_id":"4","last_reported":1698336494,"current_range_meters":21600,"station_id":"ce4bhbh2rcd13ifvqeqg","pricing_plan_id":"free"},{"bike_id":"f1267f85-3e26-4c49-b6cf-f3dd324156ed","system_id":"levelo_inurba_marseille","lat":43.291675,"lon":5.371583,"is_reserved":false,"is_disabled":false,"rental_uris":{"android":"levelo://app?vid=f1267f85-3e26-4c49-b6cf-f3dd324156ed","ios":"levelo://app?vid=f1267f85-3e26-4c49-b6cf-f3dd324156ed"},"vehicle_type_id":"4","last_reported":1698336494,"current_range_meters":25600,"station_id":"ce4bha92rcd13ifvqeh0","pricing_plan_id":"free"},{"bike_id":"d0cad487-36b0-44b0-aea9-e997dc62baaf","system_id":"levelo_inurba_marseille","lat":43.298764,"lon":5.388973,"is_reserved":false,"is_disabled":false,"rental_uris":{"android":"levelo://app?vid=d0cad487-36b0-44b0-aea9-e997dc62baaf","ios":"levelo://app?vid=d0cad487-36b0-44b0-aea9-e997dc62baaf"},"vehicle_type_id":"4","last_reported":1698336494,"current_range_meters":0,"station_id":"ce4bh392rcd13ifvqdl0","pricing_plan_id":"free"},{"bike_id":"e028011b-a507-4399-ac12-b708e3d93dcb","system_id":"levelo_inurba_marseille","lat":43.291994,"lon":5.357886,"is_reserved":false,"is_disabled":false,"rental_uris":{"android":"levelo://app?vid=e028011b-a507-4399-ac12-b708e3d93dcb","ios":"levelo://app?vid=e028011b-a507-4399-ac12-b708e3d93dcb"},"vehicle_type_id":"4","last_reported":1698336494,"current_range_meters":0,"station_id":"ce4bhb12rcd13ifvqel0","pricing_plan_id":"free"},{"bike_id":"126d4670-e812-40c6-9f2a-535ee2ec9a6b","system_id":"levelo_inurba_marseille","lat":43.33219,"lon":5.38149,"is_reserved":false,"is_disabled":false,"rental_uris":{"android":"levelo://app?vid=126d4670-e812-40c6-9f2a-535ee2ec9a6b","ios":"levelo://app?vid=126d4670-e812-40c6-9f2a-535ee2ec9a6b"},"vehicle_type_id":"4","last_reported":1698336494,"current_range_meters":2800,"station_id":"","pricing_plan_id":"free"},{"bike_id":"d980d453-7c73-4f2f-92c9-3f4b1f6414be","system_id":"levelo_inurba_marseille","lat":43.290779,"lon":5.371482,"is_reserved":false,"is_disabled":false,"rental_uris":{"android":"levelo://app?vid=d980d453-7c73-4f2f-92c9-3f4b1f6414be","ios":"levelo://app?vid=d980d453-7c73-4f2f-92c9-3f4b1f6414be"},"vehicle_type_id":"4","last_reported":1698336494,"current_range_meters":27600,"station_id":"ce4bh5p2rcd13ifvqe4g","pricing_plan_id":"free"},{"bike_id":"efb5105e-0460-4cb3-8434-5fc1efb62c52","system_id":"levelo_inurba_marseille","lat":43.290779,"lon":5.371482,"is_reserved":false,"is_disabled":false,"rental_uris":{"android":"levelo://app?vid=efb5105e-0460-4cb3-8434-5fc1efb62c52","ios":"levelo://app?vid=efb5105e-0460-4cb3-8434-5fc1efb62c52"},"vehicle_type_id":"4","last_reported":1698336494,"current_range_meters":19200,"station_id":"ce4bh5p2rcd13ifvqe4g","pricing_plan_id":"free"},{"bike_id":"834003f1-d4b7-48a5-8fd2-7a343ff62d2b","system_id":"levelo_inurba_marseille","lat":43.290779,"lon":5.371482,"is_reserved":false,"is_disabled":false,"rental_uris":{"android":"levelo://app?vid=834003f1-d4b7-48a5-8fd2-7a343ff62d2b","ios":"levelo://app?vid=834003f1-d4b7-48a5-8fd2-7a343ff62d2b"},"vehicle_type_id":"4","last_reported":1698336494,"current_range_meters":23600,"station_id":"ce4bh5p2rcd13ifvqe4g","pricing_plan_id":"free"},{"bike_id":"a7f17507-076c-41e0-9e76-fecbcf8fefb3","system_id":"levelo_inurba_marseille","lat":43.307843,"lon":5.39747,"is_reserved":false,"is_disabled":false,"rental_uris":{"android":"levelo://app?vid=a7f17507-076c-41e0-9e76-fecbcf8fefb3","ios":"levelo://app?vid=a7f17507-076c-41e0-9e76-fecbcf8fefb3"},"vehicle_type_id":"4","last_reported":1698336494,"current_range_meters":30000,"station_id":"ce4bh0p2rcd13ifvqd70","pricing_plan_id":"free"},{"bike_id":"d445e7dc-8f39-4198-8d15-1838ad42556e","system_id":"levelo_inurba_marseille","lat":43.30217,"lon":5.394696,"is_reserved":false,"is_disabled":false,"rental_uris":{"android":"levelo://app?vid=d445e7dc-8f39-4198-8d15-1838ad42556e","ios":"levelo://app?vid=d445e7dc-8f39-4198-8d15-1838ad42556e"},"vehicle_type_id":"4","last_reported":1698336494,"current_range_meters":12400,"station_id":"ce4bh0p2rcd13ifvqd70","pricing_plan_id":"free"},{"bike_id":"8d5424a3-b07c-4cf2-833e-94c3105051da","system_id":"levelo_inurba_marseille","lat":43.30215,"lon":5.39469,"is_reserved":false,"is_disabled":false,"rental_uris":{"android":"levelo://app?vid=8d5424a3-b07c-4cf2-833e-94c3105051da","ios":"levelo://app?vid=8d5424a3-b07c-4cf2-833e-94c3105051da"},"vehicle_type_id":"4","last_reported":1698336494,"current_range_meters":0,"station_id":"ce4bh0p2rcd13ifvqd70","pricing_plan_id":"free"},{"bike_id":"3ba9337c-3a4c-4b79-bb22-9c08f678ee27","system_id":"levelo_inurba_marseille","lat":43.3339,"lon":5.37907,"is_reserved":false,"is_disabled":false,"rental_uris":{"android":"levelo://app?vid=3ba9337c-3a4c-4b79-bb22-9c08f678ee27","ios":"levelo://app?vid=3ba9337c-3a4c-4b79-bb22-9c08f678ee27"},"vehicle_type_id":"4","last_reported":1698336494,"current_range_meters":22000,"station_id":"","pricing_plan_id":"free"},{"bike_id":"862f5186-b597-489e-ac27-da25c2536f60","system_id":"levelo_inurba_marseille","lat":43.290631,"lon":5.359244,"is_reserved":false,"is_disabled":false,"rental_uris":{"android":"levelo://app?vid=862f5186-b597-489e-ac27-da25c2536f60","ios":"levelo://app?vid=862f5186-b597-489e-ac27-da25c2536f60"},"vehicle_type_id":"4","last_reported":1698336494,"current_range_meters":26000,"station_id":"ce4bha92rcd13ifvqeg0","pricing_plan_id":"free"},{"bike_id":"c222ece8-3bd0-4a8e-8798-6c426fe67653","system_id":"levelo_inurba_marseille","lat":43.294153,"lon":5.386305,"is_reserved":false,"is_disabled":false,"rental_uris":{"android":"levelo://app?vid=c222ece8-3bd0-4a8e-8798-6c426fe67653","ios":"levelo://app?vid=c222ece8-3bd0-4a8e-8798-6c426fe67653"},"vehicle_type_id":"4","last_reported":1698336494,"current_range_meters":11600,"station_id":"ce4bh2h2rcd13ifvqdh0","pricing_plan_id":"free"},{"bike_id":"c150bce2-0d73-4605-8221-6e3e65a2f488","system_id":"levelo_inurba_marseille","lat":43.29422,"lon":5.38625,"is_reserved":false,"is_disabled":false,"rental_uris":{"android":"levelo://app?vid=c150bce2-0d73-4605-8221-6e3e65a2f488","ios":"levelo://app?vid=c150bce2-0d73-4605-8221-6e3e65a2f488"},"vehicle_type_id":"4","last_reported":1698336494,"current_range_meters":0,"station_id":"ce4bh2h2rcd13ifvqdh0","pricing_plan_id":"free"},{"bike_id":"e1187221-20f5-4dd3-a54f-8603628c212c","system_id":"levelo_inurba_marseille","lat":43.294162,"lon":5.386292,"is_reserved":false,"is_disabled":false,"rental_uris":{"android":"levelo://app?vid=e1187221-20f5-4dd3-a54f-8603628c212c","ios":"levelo://app?vid=e1187221-20f5-4dd3-a54f-8603628c212c"},"vehicle_type_id":"4","last_reported":1698336494,"current_range_meters":1600,"station_id":"ce4bh2h2rcd13ifvqdh0","pricing_plan_id":"free"},{"bike_id":"d89c69f7-a8be-4a6d-89bd-30947fdb6e91","system_id":"levelo_inurba_marseille","lat":43.294162,"lon":5.386292,"is_reserved":false,"is_disabled":false,"rental_uris":{"android":"levelo://app?vid=d89c69f7-a8be-4a6d-89bd-30947fdb6e91","ios":"levelo://app?vid=d89c69f7-a8be-4a6d-89bd-30947fdb6e91"},"vehicle_type_id":"4","last_reported":1698336494,"current_range_meters":4000,"station_id":"ce4bh2h2rcd13ifvqdh0","pricing_plan_id":"free"},{"bike_id":"e0f79a5e-ce75-4ec8-9692-5367735e4376","system_id":"levelo_inurba_marseille","lat":43.28948,"lon":5.36452,"is_reserved":false,"is_disabled":false,"rental_uris":{"android":"levelo://app?vid=e0f79a5e-ce75-4ec8-9692-5367735e4376","ios":"levelo://app?vid=e0f79a5e-ce75-4ec8-9692-5367735e4376"},"vehicle_type_id":"4","last_reported":1698336494,"current_range_meters":28800,"station_id":"","pricing_plan_id":"free"},{"bike_id":"fb383dfb-1b6f-49b5-a27d-9faad7f9a6fb","system_id":"levelo_inurba_marseille","lat":43.289468,"lon":5.363719,"is_reserved":false,"is_disabled":false,"rental_uris":{"android":"levelo://app?vid=fb383dfb-1b6f-49b5-a27d-9faad7f9a6fb","ios":"levelo://app?vid=fb383dfb-1b6f-49b5-a27d-9faad7f9a6fb"},"vehicle_type_id":"4","last_reported":1698336494,"current_range_meters":0,"station_id":"ce4bhc92rcd13ifvqetg","pricing_plan_id":"free"},{"bike_id":"386d7b03-de5a-4eb8-8b65-d4d38a3fb3dc","system_id":"levelo_inurba_marseille","lat":43.290104,"lon":5.356111,"is_reserved":false,"is_disabled":false,"rental_uris":{"android":"levelo://app?vid=386d7b03-de5a-4eb8-8b65-d4d38a3fb3dc","ios":"levelo://app?vid=386d7b03-de5a-4eb8-8b65-d4d38a3fb3dc"},"vehicle_type_id":"4","last_reported":1698336494,"current_range_meters":18400,"station_id":"ce4bhb92rcd13ifvqen0","pricing_plan_id":"free"},{"bike_id":"9cd48395-f5db-4cc0-acea-8d8e208554a5","system_id":"levelo_inurba_marseille","lat":43.28994,"lon":5.35611,"is_reserved":false,"is_disabled":false,"rental_uris":{"android":"levelo://app?vid=9cd48395-f5db-4cc0-acea-8d8e208554a5","ios":"levelo://app?vid=9cd48395-f5db-4cc0-acea-8d8e208554a5"},"vehicle_type_id":"4","last_reported":1698336494,"current_range_meters":26800,"station_id":"ce4bhb92rcd13ifvqen0","pricing_plan_id":"free"},{"bike_id":"c22d19b6-0b6f-41ba-a621-12ec5bb12471","system_id":"levelo_inurba_marseille","lat":43.289743,"lon":5.378304,"is_reserved":false,"is_disabled":false,"rental_uris":{"android":"levelo://app?vid=c22d19b6-0b6f-41ba-a621-12ec5bb12471","ios":"levelo://app?vid=c22d19b6-0b6f-41ba-a621-12ec5bb12471"},"vehicle_type_id":"4","last_reported":1698336494,"current_range_meters":18800,"station_id":"ce4bh9p2rcd13ifvqed0","pricing_plan_id":"free"},{"bike_id":"6663c096-4286-4b0e-9cd6-4561fe6328fd","system_id":"levelo_inurba_marseille","lat":43.2901,"lon":5.381269,"is_reserved":false,"is_disabled":false,"rental_uris":{"android":"levelo://app?vid=6663c096-4286-4b0e-9cd6-4561fe6328fd","ios":"levelo://app?vid=6663c096-4286-4b0e-9cd6-4561fe6328fd"},"vehicle_type_id":"4","last_reported":1698336494,"current_range_meters":11600,"station_id":"ce4bh4p2rcd13ifvqe1g","pricing_plan_id":"free"},{"bike_id":"024668e1-f042-4771-a1b3-6bcd9cb8c931","system_id":"levelo_inurba_marseille","lat":43.33745,"lon":5.37466,"is_reserved":false,"is_disabled":false,"rental_uris":{"android":"levelo://app?vid=024668e1-f042-4771-a1b3-6bcd9cb8c931","ios":"levelo://app?vid=024668e1-f042-4771-a1b3-6bcd9cb8c931"},"vehicle_type_id":"4","last_reported":1698336494,"current_range_meters":28000,"station_id":"","pricing_plan_id":"free"},{"bike_id":"6c0f120d-7271-4971-bc94-37079cabe8d6","system_id":"levelo_inurba_marseille","lat":43.337632,"lon":5.374303,"is_reserved":false,"is_disabled":false,"rental_uris":{"android":"levelo://app?vid=6c0f120d-7271-4971-bc94-37079cabe8d6","ios":"levelo://app?vid=6c0f120d-7271-4971-bc94-37079cabe8d6"},"vehicle_type_id":"4","last_reported":1698336494,"current_range_meters":2000,"station_id":"","pricing_plan_id":"free"},{"bike_id":"98314946-91b2-42f5-8d43-0e3237f766a8","system_id":"levelo_inurba_marseille","lat":43.337627,"lon":5.374723,"is_reserved":false,"is_disabled":false,"rental_uris":{"android":"levelo://app?vid=98314946-91b2-42f5-8d43-0e3237f766a8","ios":"levelo://app?vid=98314946-91b2-42f5-8d43-0e3237f766a8"},"vehicle_type_id":"4","last_reported":1698336494,"current_range_meters":31200,"station_id":"","pricing_plan_id":"free"},{"bike_id":"3476bfdd-b9f7-4b04-bf52-2df46a3742c9","system_id":"levelo_inurba_marseille","lat":43.301117,"lon":5.398795,"is_reserved":false,"is_disabled":false,"rental_uris":{"android":"levelo://app?vid=3476bfdd-b9f7-4b04-bf52-2df46a3742c9","ios":"levelo://app?vid=3476bfdd-b9f7-4b04-bf52-2df46a3742c9"},"vehicle_type_id":"4","last_reported":1698336494,"current_range_meters":13600,"station_id":"ce4bh0h2rcd13ifvqd40","pricing_plan_id":"free"},{"bike_id":"06d0847f-dba1-4506-9e88-17f33643ce75","system_id":"levelo_inurba_marseille","lat":43.28727,"lon":5.36078,"is_reserved":false,"is_disabled":false,"rental_uris":{"android":"levelo://app?vid=06d0847f-dba1-4506-9e88-17f33643ce75","ios":"levelo://app?vid=06d0847f-dba1-4506-9e88-17f33643ce75"},"vehicle_type_id":"4","last_reported":1698336494,"current_range_meters":26800,"station_id":"cki0cbj6b192h4jlfktg","pricing_plan_id":"free"},{"bike_id":"709b758d-7f92-4fe8-bf73-54353cf74282","system_id":"levelo_inurba_marseille","lat":43.286591,"lon":5.363346,"is_reserved":false,"is_disabled":false,"rental_uris":{"android":"levelo://app?vid=709b758d-7f92-4fe8-bf73-54353cf74282","ios":"levelo://app?vid=709b758d-7f92-4fe8-bf73-54353cf74282"},"vehicle_type_id":"4","last_reported":1698336494,"current_range_meters":7600,"station_id":"ce4bhah2rcd13ifvqej0","pricing_plan_id":"free"},{"bike_id":"254be9ca-91df-422c-ad01-b7a75c6c9dd0","system_id":"levelo_inurba_marseille","lat":43.286591,"lon":5.363346,"is_reserved":false,"is_disabled":false,"rental_uris":{"android":"levelo://app?vid=254be9ca-91df-422c-ad01-b7a75c6c9dd0","ios":"levelo://app?vid=254be9ca-91df-422c-ad01-b7a75c6c9dd0"},"vehicle_type_id":"4","last_reported":1698336494,"current_range_meters":14000,"station_id":"ce4bhah2rcd13ifvqej0","pricing_plan_id":"free"},{"bike_id":"bc714f6a-4e7e-44b0-9325-efe55919097f","system_id":"levelo_inurba_marseille","lat":43.298681,"lon":5.397225,"is_reserved":false,"is_disabled":false,"rental_uris":{"android":"levelo://app?vid=bc714f6a-4e7e-44b0-9325-efe55919097f","ios":"levelo://app?vid=bc714f6a-4e7e-44b0-9325-efe55919097f"},"vehicle_type_id":"4","last_reported":1698336494,"current_range_meters":0,"station_id":"ce4bh0h2rcd13ifvqd50","pricing_plan_id":"free"},{"bike_id":"c546dfb5-f6fc-465d-be61-50a0e366504d","system_id":"levelo_inurba_marseille","lat":43.286591,"lon":5.363346,"is_reserved":false,"is_disabled":false,"rental_uris":{"android":"levelo://app?vid=c546dfb5-f6fc-465d-be61-50a0e366504d","ios":"levelo://app?vid=c546dfb5-f6fc-465d-be61-50a0e366504d"},"vehicle_type_id":"4","last_reported":1698336494,"current_range_meters":22000,"station_id":"ce4bhah2rcd13ifvqej0","pricing_plan_id":"free"},{"bike_id":"15364636-acbd-4d67-9b8b-63beba3902f0","system_id":"levelo_inurba_marseille","lat":43.286961,"lon":5.373785,"is_reserved":false,"is_disabled":false,"rental_uris":{"android":"levelo://app?vid=15364636-acbd-4d67-9b8b-63beba3902f0","ios":"levelo://app?vid=15364636-acbd-4d67-9b8b-63beba3902f0"},"vehicle_type_id":"4","last_reported":1698336494,"current_range_meters":23200,"station_id":"ce4bh3p2rcd13ifvqdq0","pricing_plan_id":"free"},{"bike_id":"7d4d1d8f-112e-441e-a309-71f225179ff4","system_id":"levelo_inurba_marseille","lat":43.286961,"lon":5.373785,"is_reserved":false,"is_disabled":false,"rental_uris":{"android":"levelo://app?vid=7d4d1d8f-112e-441e-a309-71f225179ff4","ios":"levelo://app?vid=7d4d1d8f-112e-441e-a309-71f225179ff4"},"vehicle_type_id":"4","last_reported":1698336494,"current_range_meters":0,"station_id":"ce4bh3p2rcd13ifvqdq0","pricing_plan_id":"free"},{"bike_id":"85efb757-50ed-4252-9e6f-36f99e126c2d","system_id":"levelo_inurba_marseille","lat":43.286961,"lon":5.373785,"is_reserved":false,"is_disabled":false,"rental_uris":{"android":"levelo://app?vid=85efb757-50ed-4252-9e6f-36f99e126c2d","ios":"levelo://app?vid=85efb757-50ed-4252-9e6f-36f99e126c2d"},"vehicle_type_id":"4","last_reported":1698336494,"current_range_meters":1200,"station_id":"ce4bh3p2rcd13ifvqdq0","pricing_plan_id":"free"},{"bike_id":"b9ad45c5-350d-4590-9e2c-e5a1d423e13e","system_id":"levelo_inurba_marseille","lat":43.2893,"lon":5.38384,"is_reserved":false,"is_disabled":false,"rental_uris":{"android":"levelo://app?vid=b9ad45c5-350d-4590-9e2c-e5a1d423e13e","ios":"levelo://app?vid=b9ad45c5-350d-4590-9e2c-e5a1d423e13e"},"vehicle_type_id":"4","last_reported":1698336494,"current_range_meters":0,"station_id":"ce4bh612rcd13ifvqe6g","pricing_plan_id":"free"},{"bike_id":"1ebbfcb5-37e5-490a-a21b-2866e8b757bd","system_id":"levelo_inurba_marseille","lat":43.290311,"lon":5.386333,"is_reserved":false,"is_disabled":false,"rental_uris":{"android":"levelo://app?vid=1ebbfcb5-37e5-490a-a21b-2866e8b757bd","ios":"levelo://app?vid=1ebbfcb5-37e5-490a-a21b-2866e8b757bd"},"vehicle_type_id":"4","last_reported":1698336494,"current_range_meters":10400,"station_id":"","pricing_plan_id":"free"},{"bike_id":"d1b3ae99-8c0c-478e-85c6-35073e1dd641","system_id":"levelo_inurba_marseille","lat":43.29035,"lon":5.38646,"is_reserved":false,"is_disabled":false,"rental_uris":{"android":"levelo://app?vid=d1b3ae99-8c0c-478e-85c6-35073e1dd641","ios":"levelo://app?vid=d1b3ae99-8c0c-478e-85c6-35073e1dd641"},"vehicle_type_id":"4","last_reported":1698336494,"current_range_meters":12400,"station_id":"ce4bh4p2rcd13ifvqe0g","pricing_plan_id":"free"},{"bike_id":"e8ea4ff6-1287-4318-858a-3c55e8a4247c","system_id":"levelo_inurba_marseille","lat":43.29027,"lon":5.3863,"is_reserved":false,"is_disabled":false,"rental_uris":{"android":"levelo://app?vid=e8ea4ff6-1287-4318-858a-3c55e8a4247c","ios":"levelo://app?vid=e8ea4ff6-1287-4318-858a-3c55e8a4247c"},"vehicle_type_id":"4","last_reported":1698336494,"current_range_meters":32000,"station_id":"ce4bh4p2rcd13ifvqe0g","pricing_plan_id":"free"},{"bike_id":"a05ddfb6-6c36-4cfe-a36f-6c92630dc1c2","system_id":"levelo_inurba_marseille","lat":43.29795,"lon":5.404086,"is_reserved":false,"is_disabled":false,"rental_uris":{"android":"levelo://app?vid=a05ddfb6-6c36-4cfe-a36f-6c92630dc1c2","ios":"levelo://app?vid=a05ddfb6-6c36-4cfe-a36f-6c92630dc1c2"},"vehicle_type_id":"4","last_reported":1698336494,"current_range_meters":1600,"station_id":"ce4bh112rcd13ifvqd90","pricing_plan_id":"free"},{"bike_id":"237c2e2c-6cb2-4fb4-8f9a-8967233c2b49","system_id":"levelo_inurba_marseille","lat":43.286039,"lon":5.370681,"is_reserved":false,"is_disabled":false,"rental_uris":{"android":"levelo://app?vid=237c2e2c-6cb2-4fb4-8f9a-8967233c2b49","ios":"levelo://app?vid=237c2e2c-6cb2-4fb4-8f9a-8967233c2b49"},"vehicle_type_id":"4","last_reported":1698336494,"current_range_meters":16000,"station_id":"ce4bht12rcd13ifvqi60","pricing_plan_id":"free"},{"bike_id":"bc368e20-93c0-495a-bb4f-cd8ed7ee7f0d","system_id":"levelo_inurba_marseille","lat":43.335307,"lon":5.388143,"is_reserved":false,"is_disabled":false,"rental_uris":{"android":"levelo://app?vid=bc368e20-93c0-495a-bb4f-cd8ed7ee7f0d","ios":"levelo://app?vid=bc368e20-93c0-495a-bb4f-cd8ed7ee7f0d"},"vehicle_type_id":"4","last_reported":1698336494,"current_range_meters":0,"station_id":"","pricing_plan_id":"free"},{"bike_id":"a2a925e6-d9ed-4591-8dd2-9dd8c6d8119a","system_id":"levelo_inurba_marseille","lat":43.301117,"lon":5.398795,"is_reserved":false,"is_disabled":false,"rental_uris":{"android":"levelo://app?vid=a2a925e6-d9ed-4591-8dd2-9dd8c6d8119a","ios":"levelo://app?vid=a2a925e6-d9ed-4591-8dd2-9dd8c6d8119a"},"vehicle_type_id":"4","last_reported":1698336494,"current_range_meters":0,"station_id":"ce4bh0h2rcd13ifvqd40","pricing_plan_id":"free"},{"bike_id":"83722879-b1d8-44a0-ae94-f19674fcc6e7","system_id":"levelo_inurba_marseille","lat":43.31645,"lon":5.40437,"is_reserved":false,"is_disabled":false,"rental_uris":{"android":"levelo://app?vid=83722879-b1d8-44a0-ae94-f19674fcc6e7","ios":"levelo://app?vid=83722879-b1d8-44a0-ae94-f19674fcc6e7"},"vehicle_type_id":"4","last_reported":1698336494,"current_range_meters":25200,"station_id":"ce4bh012rcd13ifvqd00","pricing_plan_id":"free"},{"bike_id":"bc005b01-5c91-4a4e-9d38-220ebbdb1ec3","system_id":"levelo_inurba_marseille","lat":43.283998,"lon":5.375062,"is_reserved":false,"is_disabled":false,"rental_uris":{"android":"levelo://app?vid=bc005b01-5c91-4a4e-9d38-220ebbdb1ec3","ios":"levelo://app?vid=bc005b01-5c91-4a4e-9d38-220ebbdb1ec3"},"vehicle_type_id":"4","last_reported":1698336494,"current_range_meters":6400,"station_id":"ce4bh412rcd13ifvqds0","pricing_plan_id":"free"},{"bike_id":"4a5e3424-9d04-496e-a057-bd9ea90a98fb","system_id":"levelo_inurba_marseille","lat":43.292071,"lon":5.393299,"is_reserved":false,"is_disabled":false,"rental_uris":{"android":"levelo://app?vid=4a5e3424-9d04-496e-a057-bd9ea90a98fb","ios":"levelo://app?vid=4a5e3424-9d04-496e-a057-bd9ea90a98fb"},"vehicle_type_id":"4","last_reported":1698336494,"current_range_meters":3200,"station_id":"ce4bh192rcd13ifvqdd0","pricing_plan_id":"free"},{"bike_id":"dba58f51-8504-478e-b0ee-584cf6063906","system_id":"levelo_inurba_marseille","lat":43.29201,"lon":5.39335,"is_reserved":false,"is_disabled":false,"rental_uris":{"android":"levelo://app?vid=dba58f51-8504-478e-b0ee-584cf6063906","ios":"levelo://app?vid=dba58f51-8504-478e-b0ee-584cf6063906"},"vehicle_type_id":"4","last_reported":1698336494,"current_range_meters":28400,"station_id":"ce4bh192rcd13ifvqdd0","pricing_plan_id":"free"},{"bike_id":"58ec99d1-968a-40bb-ac7d-b34e8272e543","system_id":"levelo_inurba_marseille","lat":43.292642,"lon":5.384254,"is_reserved":false,"is_disabled":false,"rental_uris":{"android":"levelo://app?vid=58ec99d1-968a-40bb-ac7d-b34e8272e543","ios":"levelo://app?vid=58ec99d1-968a-40bb-ac7d-b34e8272e543"},"vehicle_type_id":"4","last_reported":1698336494,"current_range_meters":2400,"station_id":"ce4bh692rcd13ifvqea0","pricing_plan_id":"free"},{"bike_id":"15414787-8fc5-4622-9daf-320d994e240f","system_id":"levelo_inurba_marseille","lat":43.294314,"lon":5.397498,"is_reserved":false,"is_disabled":false,"rental_uris":{"android":"levelo://app?vid=15414787-8fc5-4622-9daf-320d994e240f","ios":"levelo://app?vid=15414787-8fc5-4622-9daf-320d994e240f"},"vehicle_type_id":"4","last_reported":1698336494,"current_range_meters":0,"station_id":"ce4bh3h2rcd13ifvqdo0","pricing_plan_id":"free"},{"bike_id":"0072ce6d-7b2c-4686-923e-c31adda65a64","system_id":"levelo_inurba_marseille","lat":43.283998,"lon":5.375062,"is_reserved":false,"is_disabled":false,"rental_uris":{"android":"levelo://app?vid=0072ce6d-7b2c-4686-923e-c31adda65a64","ios":"levelo://app?vid=0072ce6d-7b2c-4686-923e-c31adda65a64"},"vehicle_type_id":"4","last_reported":1698336494,"current_range_meters":3600,"station_id":"ce4bh412rcd13ifvqds0","pricing_plan_id":"free"},{"bike_id":"86e08904-4d6c-498e-a645-eb4c667921b1","system_id":"levelo_inurba_marseille","lat":43.283998,"lon":5.375062,"is_reserved":false,"is_disabled":false,"rental_uris":{"android":"levelo://app?vid=86e08904-4d6c-498e-a645-eb4c667921b1","ios":"levelo://app?vid=86e08904-4d6c-498e-a645-eb4c667921b1"},"vehicle_type_id":"4","last_reported":1698336494,"current_range_meters":0,"station_id":"ce4bh412rcd13ifvqds0","pricing_plan_id":"free"},{"bike_id":"5e6b0987-a29d-4c25-a198-12e233cff940","system_id":"levelo_inurba_marseille","lat":43.283998,"lon":5.375062,"is_reserved":false,"is_disabled":false,"rental_uris":{"android":"levelo://app?vid=5e6b0987-a29d-4c25-a198-12e233cff940","ios":"levelo://app?vid=5e6b0987-a29d-4c25-a198-12e233cff940"},"vehicle_type_id":"4","last_reported":1698336494,"current_range_meters":20400,"station_id":"ce4bh412rcd13ifvqds0","pricing_plan_id":"free"},{"bike_id":"0975fd06-ea91-4a37-b1a3-4f84a2f40c9c","system_id":"levelo_inurba_marseille","lat":43.283998,"lon":5.375062,"is_reserved":false,"is_disabled":false,"rental_uris":{"android":"levelo://app?vid=0975fd06-ea91-4a37-b1a3-4f84a2f40c9c","ios":"levelo://app?vid=0975fd06-ea91-4a37-b1a3-4f84a2f40c9c"},"vehicle_type_id":"4","last_reported":1698336494,"current_range_meters":20400,"station_id":"ce4bh412rcd13ifvqds0","pricing_plan_id":"free"},{"bike_id":"85376d5d-4b4b-4be1-9f63-30f608b63309","system_id":"levelo_inurba_marseille","lat":43.283998,"lon":5.375062,"is_reserved":false,"is_disabled":false,"rental_uris":{"android":"levelo://app?vid=85376d5d-4b4b-4be1-9f63-30f608b63309","ios":"levelo://app?vid=85376d5d-4b4b-4be1-9f63-30f608b63309"},"vehicle_type_id":"4","last_reported":1698336494,"current_range_meters":19200,"station_id":"ce4bh412rcd13ifvqds0","pricing_plan_id":"free"},{"bike_id":"86d2e38e-5433-4cc3-aeaa-4413ec0a09d1","system_id":"levelo_inurba_marseille","lat":43.286595,"lon":5.386795,"is_reserved":false,"is_disabled":false,"rental_uris":{"android":"levelo://app?vid=86d2e38e-5433-4cc3-aeaa-4413ec0a09d1","ios":"levelo://app?vid=86d2e38e-5433-4cc3-aeaa-4413ec0a09d1"},"vehicle_type_id":"4","last_reported":1698336494,"current_range_meters":5600,"station_id":"ce4bh492rcd13ifvqdug","pricing_plan_id":"free"},{"bike_id":"a04dca67-8317-445e-90d6-5788929468fd","system_id":"levelo_inurba_marseille","lat":43.33674,"lon":5.39198,"is_reserved":false,"is_disabled":false,"rental_uris":{"android":"levelo://app?vid=a04dca67-8317-445e-90d6-5788929468fd","ios":"levelo://app?vid=a04dca67-8317-445e-90d6-5788929468fd"},"vehicle_type_id":"4","last_reported":1698336494,"current_range_meters":13200,"station_id":"","pricing_plan_id":"free"},{"bike_id":"f102fca7-56aa-4bab-acf2-680d32af9cad","system_id":"levelo_inurba_marseille","lat":43.337168,"lon":5.391825,"is_reserved":false,"is_disabled":false,"rental_uris":{"android":"levelo://app?vid=f102fca7-56aa-4bab-acf2-680d32af9cad","ios":"levelo://app?vid=f102fca7-56aa-4bab-acf2-680d32af9cad"},"vehicle_type_id":"4","last_reported":1698336494,"current_range_meters":18800,"station_id":"ce4bhr92rcd13ifvqhsg","pricing_plan_id":"free"},{"bike_id":"4fad6d41-ba4d-4b6e-a123-6888ade2f36e","system_id":"levelo_inurba_marseille","lat":43.297946,"lon":5.404063,"is_reserved":false,"is_disabled":false,"rental_uris":{"android":"levelo://app?vid=4fad6d41-ba4d-4b6e-a123-6888ade2f36e","ios":"levelo://app?vid=4fad6d41-ba4d-4b6e-a123-6888ade2f36e"},"vehicle_type_id":"4","last_reported":1698336494,"current_range_meters":8400,"station_id":"ce4bh112rcd13ifvqd90","pricing_plan_id":"free"},{"bike_id":"331855bd-b5df-4550-afbc-e695496d4a8a","system_id":"levelo_inurba_marseille","lat":43.29795,"lon":5.404086,"is_reserved":false,"is_disabled":false,"rental_uris":{"android":"levelo://app?vid=331855bd-b5df-4550-afbc-e695496d4a8a","ios":"levelo://app?vid=331855bd-b5df-4550-afbc-e695496d4a8a"},"vehicle_type_id":"4","last_reported":1698336494,"current_range_meters":16800,"station_id":"ce4bh112rcd13ifvqd90","pricing_plan_id":"free"},{"bike_id":"d6e0f25c-aaad-4436-9a20-7d785d7e759e","system_id":"levelo_inurba_marseille","lat":43.32521,"lon":5.40572,"is_reserved":false,"is_disabled":false,"rental_uris":{"android":"levelo://app?vid=d6e0f25c-aaad-4436-9a20-7d785d7e759e","ios":"levelo://app?vid=d6e0f25c-aaad-4436-9a20-7d785d7e759e"},"vehicle_type_id":"4","last_reported":1698336494,"current_range_meters":400,"station_id":"","pricing_plan_id":"free"},{"bike_id":"2f666bbb-190f-4291-ade2-95e2c0cfd815","system_id":"levelo_inurba_marseille","lat":43.325281,"lon":5.405683,"is_reserved":false,"is_disabled":false,"rental_uris":{"android":"levelo://app?vid=2f666bbb-190f-4291-ade2-95e2c0cfd815","ios":"levelo://app?vid=2f666bbb-190f-4291-ade2-95e2c0cfd815"},"vehicle_type_id":"4","last_reported":1698336494,"current_range_meters":25200,"station_id":"","pricing_plan_id":"free"},{"bike_id":"fa5a42d1-266c-4d9b-8fac-3bb9dafc8be2","system_id":"levelo_inurba_marseille","lat":43.284217,"lon":5.349697,"is_reserved":false,"is_disabled":false,"rental_uris":{"android":"levelo://app?vid=fa5a42d1-266c-4d9b-8fac-3bb9dafc8be2","ios":"levelo://app?vid=fa5a42d1-266c-4d9b-8fac-3bb9dafc8be2"},"vehicle_type_id":"4","last_reported":1698336494,"current_range_meters":4000,"station_id":"ce4bhbh2rcd13ifvqepg","pricing_plan_id":"free"},{"bike_id":"7bcde5e6-7e6c-44d1-95dd-63f3e8b38520","system_id":"levelo_inurba_marseille","lat":43.284219,"lon":5.3497,"is_reserved":false,"is_disabled":false,"rental_uris":{"android":"levelo://app?vid=7bcde5e6-7e6c-44d1-95dd-63f3e8b38520","ios":"levelo://app?vid=7bcde5e6-7e6c-44d1-95dd-63f3e8b38520"},"vehicle_type_id":"4","last_reported":1698336494,"current_range_meters":1200,"station_id":"ce4bhbh2rcd13ifvqepg","pricing_plan_id":"free"},{"bike_id":"b8c19b05-4010-4057-a2f2-bacee6496402","system_id":"levelo_inurba_marseille","lat":43.284217,"lon":5.349697,"is_reserved":false,"is_disabled":false,"rental_uris":{"android":"levelo://app?vid=b8c19b05-4010-4057-a2f2-bacee6496402","ios":"levelo://app?vid=b8c19b05-4010-4057-a2f2-bacee6496402"},"vehicle_type_id":"4","last_reported":1698336494,"current_range_meters":20000,"station_id":"ce4bhbh2rcd13ifvqepg","pricing_plan_id":"free"},{"bike_id":"3893999a-d9e6-459a-ac5c-dc96c8c855aa","system_id":"levelo_inurba_marseille","lat":43.28039,"lon":5.369297,"is_reserved":false,"is_disabled":false,"rental_uris":{"android":"levelo://app?vid=3893999a-d9e6-459a-ac5c-dc96c8c855aa","ios":"levelo://app?vid=3893999a-d9e6-459a-ac5c-dc96c8c855aa"},"vehicle_type_id":"4","last_reported":1698336494,"current_range_meters":10000,"station_id":"ce4bha12rcd13ifvqef0","pricing_plan_id":"free"},{"bike_id":"bd29e73a-fd6e-45d1-8248-2e716306868d","system_id":"levelo_inurba_marseille","lat":43.28039,"lon":5.369297,"is_reserved":false,"is_disabled":false,"rental_uris":{"android":"levelo://app?vid=bd29e73a-fd6e-45d1-8248-2e716306868d","ios":"levelo://app?vid=bd29e73a-fd6e-45d1-8248-2e716306868d"},"vehicle_type_id":"4","last_reported":1698336494,"current_range_meters":26000,"station_id":"ce4bha12rcd13ifvqef0","pricing_plan_id":"free"},{"bike_id":"eae608c4-d84e-4731-b7f0-fdf7ef265fdf","system_id":"levelo_inurba_marseille","lat":43.28039,"lon":5.369297,"is_reserved":false,"is_disabled":false,"rental_uris":{"android":"levelo://app?vid=eae608c4-d84e-4731-b7f0-fdf7ef265fdf","ios":"levelo://app?vid=eae608c4-d84e-4731-b7f0-fdf7ef265fdf"},"vehicle_type_id":"4","last_reported":1698336494,"current_range_meters":6000,"station_id":"ce4bha12rcd13ifvqef0","pricing_plan_id":"free"},{"bike_id":"1ca242fe-6084-4f9b-8b54-35d465872844","system_id":"levelo_inurba_marseille","lat":43.29041,"lon":5.399634,"is_reserved":false,"is_disabled":false,"rental_uris":{"android":"levelo://app?vid=1ca242fe-6084-4f9b-8b54-35d465872844","ios":"levelo://app?vid=1ca242fe-6084-4f9b-8b54-35d465872844"},"vehicle_type_id":"4","last_reported":1698336494,"current_range_meters":22400,"station_id":"ce4bh392rcd13ifvqdm0","pricing_plan_id":"free"},{"bike_id":"5c019edb-213b-45d7-b049-ff8441192cdc","system_id":"levelo_inurba_marseille","lat":43.296263,"lon":5.40601,"is_reserved":false,"is_disabled":false,"rental_uris":{"android":"levelo://app?vid=5c019edb-213b-45d7-b049-ff8441192cdc","ios":"levelo://app?vid=5c019edb-213b-45d7-b049-ff8441192cdc"},"vehicle_type_id":"4","last_reported":1698336494,"current_range_meters":0,"station_id":"ce4bh0h2rcd13ifvqd60","pricing_plan_id":"free"},{"bike_id":"a57d0fdb-b213-4e44-87aa-9e931832f41a","system_id":"levelo_inurba_marseille","lat":43.336569,"lon":5.398701,"is_reserved":false,"is_disabled":false,"rental_uris":{"android":"levelo://app?vid=a57d0fdb-b213-4e44-87aa-9e931832f41a","ios":"levelo://app?vid=a57d0fdb-b213-4e44-87aa-9e931832f41a"},"vehicle_type_id":"4","last_reported":1698336494,"current_range_meters":0,"station_id":"","pricing_plan_id":"free"},{"bike_id":"9cfbf0e7-1207-4ef9-91eb-aa5bae88d815","system_id":"levelo_inurba_marseille","lat":43.28448,"lon":5.39185,"is_reserved":false,"is_disabled":false,"rental_uris":{"android":"levelo://app?vid=9cfbf0e7-1207-4ef9-91eb-aa5bae88d815","ios":"levelo://app?vid=9cfbf0e7-1207-4ef9-91eb-aa5bae88d815"},"vehicle_type_id":"4","last_reported":1698336494,"current_range_meters":8400,"station_id":"ce4bhoh2rcd13ifvqh5g","pricing_plan_id":"free"},{"bike_id":"3875af24-9b65-41fc-9f66-7e342f6e24a0","system_id":"levelo_inurba_marseille","lat":43.304188,"lon":5.412904,"is_reserved":false,"is_disabled":false,"rental_uris":{"android":"levelo://app?vid=3875af24-9b65-41fc-9f66-7e342f6e24a0","ios":"levelo://app?vid=3875af24-9b65-41fc-9f66-7e342f6e24a0"},"vehicle_type_id":"4","last_reported":1698336494,"current_range_meters":0,"station_id":"ce4bhop2rcd13ifvqh8g","pricing_plan_id":"free"},{"bike_id":"3c270c4a-586b-474d-a22d-76a4365c48a0","system_id":"levelo_inurba_marseille","lat":43.304188,"lon":5.412904,"is_reserved":false,"is_disabled":false,"rental_uris":{"android":"levelo://app?vid=3c270c4a-586b-474d-a22d-76a4365c48a0","ios":"levelo://app?vid=3c270c4a-586b-474d-a22d-76a4365c48a0"},"vehicle_type_id":"4","last_reported":1698336494,"current_range_meters":16800,"station_id":"ce4bhop2rcd13ifvqh8g","pricing_plan_id":"free"},{"bike_id":"016674fc-e6ea-42b1-a664-eac1ac7da5a3","system_id":"levelo_inurba_marseille","lat":43.304188,"lon":5.412904,"is_reserved":false,"is_disabled":false,"rental_uris":{"android":"levelo://app?vid=016674fc-e6ea-42b1-a664-eac1ac7da5a3","ios":"levelo://app?vid=016674fc-e6ea-42b1-a664-eac1ac7da5a3"},"vehicle_type_id":"4","last_reported":1698336494,"current_range_meters":17200,"station_id":"ce4bhop2rcd13ifvqh8g","pricing_plan_id":"free"},{"bike_id":"fcf7a919-3d44-4042-8096-5181d844891c","system_id":"levelo_inurba_marseille","lat":43.29958,"lon":5.41322,"is_reserved":false,"is_disabled":false,"rental_uris":{"android":"levelo://app?vid=fcf7a919-3d44-4042-8096-5181d844891c","ios":"levelo://app?vid=fcf7a919-3d44-4042-8096-5181d844891c"},"vehicle_type_id":"4","last_reported":1698336494,"current_range_meters":3600,"station_id":"ce4bhp12rcd13ifvqh9g","pricing_plan_id":"free"},{"bike_id":"3135f09a-7fe6-4654-9aed-555b6efceedf","system_id":"levelo_inurba_marseille","lat":43.27958,"lon":5.38724,"is_reserved":false,"is_disabled":false,"rental_uris":{"android":"levelo://app?vid=3135f09a-7fe6-4654-9aed-555b6efceedf","ios":"levelo://app?vid=3135f09a-7fe6-4654-9aed-555b6efceedf"},"vehicle_type_id":"4","last_reported":1698336494,"current_range_meters":0,"station_id":"ce4bhg12rcd13ifvqf80","pricing_plan_id":"free"},{"bike_id":"39099932-cdd4-4159-b093-b65716f6fa63","system_id":"levelo_inurba_marseille","lat":43.27617,"lon":5.36117,"is_reserved":false,"is_disabled":false,"rental_uris":{"android":"levelo://app?vid=39099932-cdd4-4159-b093-b65716f6fa63","ios":"levelo://app?vid=39099932-cdd4-4159-b093-b65716f6fa63"},"vehicle_type_id":"4","last_reported":1698336494,"current_range_meters":22000,"station_id":"ce4bgj92rcd13ifvqbe0","pricing_plan_id":"free"},{"bike_id":"af287c7c-47d3-4f16-b661-8b3de3864727","system_id":"levelo_inurba_marseille","lat":43.277985,"lon":5.385645,"is_reserved":false,"is_disabled":false,"rental_uris":{"android":"levelo://app?vid=af287c7c-47d3-4f16-b661-8b3de3864727","ios":"levelo://app?vid=af287c7c-47d3-4f16-b661-8b3de3864727"},"vehicle_type_id":"4","last_reported":1698336494,"current_range_meters":9200,"station_id":"ce4bhg92rcd13ifvqf90","pricing_plan_id":"free"},{"bike_id":"3e360079-d603-4172-9162-07539277ecc8","system_id":"levelo_inurba_marseille","lat":43.280784,"lon":5.396622,"is_reserved":false,"is_disabled":false,"rental_uris":{"android":"levelo://app?vid=3e360079-d603-4172-9162-07539277ecc8","ios":"levelo://app?vid=3e360079-d603-4172-9162-07539277ecc8"},"vehicle_type_id":"4","last_reported":1698336494,"current_range_meters":14800,"station_id":"ce4bho12rcd13ifvqh2g","pricing_plan_id":"free"},{"bike_id":"a89ebd1c-12c0-423f-9de5-ed51958659f3","system_id":"levelo_inurba_marseille","lat":43.280784,"lon":5.396622,"is_reserved":false,"is_disabled":false,"rental_uris":{"android":"levelo://app?vid=a89ebd1c-12c0-423f-9de5-ed51958659f3","ios":"levelo://app?vid=a89ebd1c-12c0-423f-9de5-ed51958659f3"},"vehicle_type_id":"4","last_reported":1698336494,"current_range_meters":28800,"station_id":"ce4bho12rcd13ifvqh2g","pricing_plan_id":"free"},{"bike_id":"a2027346-b519-4327-82ca-910bbd21e69d","system_id":"levelo_inurba_marseille","lat":43.30357,"lon":5.41887,"is_reserved":false,"is_disabled":false,"rental_uris":{"android":"levelo://app?vid=a2027346-b519-4327-82ca-910bbd21e69d","ios":"levelo://app?vid=a2027346-b519-4327-82ca-910bbd21e69d"},"vehicle_type_id":"4","last_reported":1698336494,"current_range_meters":0,"station_id":"ce4bhop2rcd13ifvqh7g","pricing_plan_id":"free"},{"bike_id":"5c1820fd-42b9-4bc6-b84b-ca604719e150","system_id":"levelo_inurba_marseille","lat":43.278401,"lon":5.392152,"is_reserved":false,"is_disabled":false,"rental_uris":{"android":"levelo://app?vid=5c1820fd-42b9-4bc6-b84b-ca604719e150","ios":"levelo://app?vid=5c1820fd-42b9-4bc6-b84b-ca604719e150"},"vehicle_type_id":"4","last_reported":1698336494,"current_range_meters":6000,"station_id":"ce4bhjp2rcd13ifvqga0","pricing_plan_id":"free"},{"bike_id":"65de01ed-2f23-42b9-aaa1-6c6c35ca362f","system_id":"levelo_inurba_marseille","lat":43.278399,"lon":5.392139,"is_reserved":false,"is_disabled":false,"rental_uris":{"android":"levelo://app?vid=65de01ed-2f23-42b9-aaa1-6c6c35ca362f","ios":"levelo://app?vid=65de01ed-2f23-42b9-aaa1-6c6c35ca362f"},"vehicle_type_id":"4","last_reported":1698336494,"current_range_meters":20400,"station_id":"ce4bhjp2rcd13ifvqga0","pricing_plan_id":"free"},{"bike_id":"f1d2bb22-88b6-40c0-9198-e7202712b013","system_id":"levelo_inurba_marseille","lat":43.278399,"lon":5.392139,"is_reserved":false,"is_disabled":false,"rental_uris":{"android":"levelo://app?vid=f1d2bb22-88b6-40c0-9198-e7202712b013","ios":"levelo://app?vid=f1d2bb22-88b6-40c0-9198-e7202712b013"},"vehicle_type_id":"4","last_reported":1698336494,"current_range_meters":1600,"station_id":"ce4bhjp2rcd13ifvqga0","pricing_plan_id":"free"},{"bike_id":"93f8db32-afef-452a-ad8b-3c82c9bc86bc","system_id":"levelo_inurba_marseille","lat":43.275625,"lon":5.384392,"is_reserved":false,"is_disabled":false,"rental_uris":{"android":"levelo://app?vid=93f8db32-afef-452a-ad8b-3c82c9bc86bc","ios":"levelo://app?vid=93f8db32-afef-452a-ad8b-3c82c9bc86bc"},"vehicle_type_id":"4","last_reported":1698336494,"current_range_meters":4000,"station_id":"ce4bhh92rcd13ifvqfi0","pricing_plan_id":"free"},{"bike_id":"3476c3b4-df36-4c7b-a136-09f623297ff1","system_id":"levelo_inurba_marseille","lat":43.27994,"lon":5.40024,"is_reserved":false,"is_disabled":false,"rental_uris":{"android":"levelo://app?vid=3476c3b4-df36-4c7b-a136-09f623297ff1","ios":"levelo://app?vid=3476c3b4-df36-4c7b-a136-09f623297ff1"},"vehicle_type_id":"4","last_reported":1698336494,"current_range_meters":0,"station_id":"ce4bho92rcd13ifvqh4g","pricing_plan_id":"free"},{"bike_id":"08142ef6-e381-4788-b104-c0a1335b54e5","system_id":"levelo_inurba_marseille","lat":43.31713,"lon":5.42407,"is_reserved":false,"is_disabled":false,"rental_uris":{"android":"levelo://app?vid=08142ef6-e381-4788-b104-c0a1335b54e5","ios":"levelo://app?vid=08142ef6-e381-4788-b104-c0a1335b54e5"},"vehicle_type_id":"4","last_reported":1698336494,"current_range_meters":18400,"station_id":"ce4bhp92rcd13ifvqhbg","pricing_plan_id":"free"},{"bike_id":"10771e27-9dfa-483f-a879-18ff14f74247","system_id":"levelo_inurba_marseille","lat":43.310021,"lon":5.425067,"is_reserved":false,"is_disabled":false,"rental_uris":{"android":"levelo://app?vid=10771e27-9dfa-483f-a879-18ff14f74247","ios":"levelo://app?vid=10771e27-9dfa-483f-a879-18ff14f74247"},"vehicle_type_id":"4","last_reported":1698336494,"current_range_meters":4400,"station_id":"","pricing_plan_id":"free"},{"bike_id":"72904c6b-86f1-4a96-83bb-7126650357d1","system_id":"levelo_inurba_marseille","lat":43.273125,"lon":5.390731,"is_reserved":false,"is_disabled":false,"rental_uris":{"android":"levelo://app?vid=72904c6b-86f1-4a96-83bb-7126650357d1","ios":"levelo://app?vid=72904c6b-86f1-4a96-83bb-7126650357d1"},"vehicle_type_id":"4","last_reported":1698336494,"current_range_meters":18400,"station_id":"ce4bhgp2rcd13ifvqfe0","pricing_plan_id":"free"},{"bike_id":"68f57650-0e98-472b-88e6-ebf93d106faf","system_id":"levelo_inurba_marseille","lat":43.273125,"lon":5.390731,"is_reserved":false,"is_disabled":false,"rental_uris":{"android":"levelo://app?vid=68f57650-0e98-472b-88e6-ebf93d106faf","ios":"levelo://app?vid=68f57650-0e98-472b-88e6-ebf93d106faf"},"vehicle_type_id":"4","last_reported":1698336494,"current_range_meters":3200,"station_id":"ce4bhgp2rcd13ifvqfe0","pricing_plan_id":"free"},{"bike_id":"c4311037-d43a-495a-a080-77447e81fdb0","system_id":"levelo_inurba_marseille","lat":43.274103,"lon":5.394016,"is_reserved":false,"is_disabled":false,"rental_uris":{"android":"levelo://app?vid=c4311037-d43a-495a-a080-77447e81fdb0","ios":"levelo://app?vid=c4311037-d43a-495a-a080-77447e81fdb0"},"vehicle_type_id":"4","last_reported":1698336494,"current_range_meters":4400,"station_id":"ce4bhdp2rcd13ifvqf20","pricing_plan_id":"free"},{"bike_id":"1c957a76-266b-40fa-a000-fb65c8556c7d","system_id":"levelo_inurba_marseille","lat":43.273125,"lon":5.390731,"is_reserved":false,"is_disabled":false,"rental_uris":{"android":"levelo://app?vid=1c957a76-266b-40fa-a000-fb65c8556c7d","ios":"levelo://app?vid=1c957a76-266b-40fa-a000-fb65c8556c7d"},"vehicle_type_id":"4","last_reported":1698336494,"current_range_meters":21600,"station_id":"ce4bhgp2rcd13ifvqfe0","pricing_plan_id":"free"},{"bike_id":"4b341924-c8bc-4dc7-8cde-7ecefe2fe85c","system_id":"levelo_inurba_marseille","lat":43.27315,"lon":5.390699,"is_reserved":false,"is_disabled":false,"rental_uris":{"android":"levelo://app?vid=4b341924-c8bc-4dc7-8cde-7ecefe2fe85c","ios":"levelo://app?vid=4b341924-c8bc-4dc7-8cde-7ecefe2fe85c"},"vehicle_type_id":"4","last_reported":1698336494,"current_range_meters":0,"station_id":"ce4bhgp2rcd13ifvqfe0","pricing_plan_id":"free"},{"bike_id":"61e5b475-f830-4f3e-9ee5-ea3c8624cbe8","system_id":"levelo_inurba_marseille","lat":43.273129,"lon":5.390725,"is_reserved":false,"is_disabled":false,"rental_uris":{"android":"levelo://app?vid=61e5b475-f830-4f3e-9ee5-ea3c8624cbe8","ios":"levelo://app?vid=61e5b475-f830-4f3e-9ee5-ea3c8624cbe8"},"vehicle_type_id":"4","last_reported":1698336494,"current_range_meters":30400,"station_id":"ce4bhgp2rcd13ifvqfe0","pricing_plan_id":"free"},{"bike_id":"45c76e75-6fc9-4917-b24d-8000d1cef8a6","system_id":"levelo_inurba_marseille","lat":43.274103,"lon":5.394016,"is_reserved":false,"is_disabled":false,"rental_uris":{"android":"levelo://app?vid=45c76e75-6fc9-4917-b24d-8000d1cef8a6","ios":"levelo://app?vid=45c76e75-6fc9-4917-b24d-8000d1cef8a6"},"vehicle_type_id":"4","last_reported":1698336494,"current_range_meters":6800,"station_id":"ce4bhdp2rcd13ifvqf20","pricing_plan_id":"free"},{"bike_id":"007c0999-37ee-495d-b9dd-c5ec0d39b749","system_id":"levelo_inurba_marseille","lat":43.273125,"lon":5.390731,"is_reserved":false,"is_disabled":false,"rental_uris":{"android":"levelo://app?vid=007c0999-37ee-495d-b9dd-c5ec0d39b749","ios":"levelo://app?vid=007c0999-37ee-495d-b9dd-c5ec0d39b749"},"vehicle_type_id":"4","last_reported":1698336494,"current_range_meters":12400,"station_id":"ce4bhgp2rcd13ifvqfe0","pricing_plan_id":"free"},{"bike_id":"95adfe7d-2c59-4633-ad76-fbe39e9796a7","system_id":"levelo_inurba_marseille","lat":43.274103,"lon":5.394016,"is_reserved":false,"is_disabled":false,"rental_uris":{"android":"levelo://app?vid=95adfe7d-2c59-4633-ad76-fbe39e9796a7","ios":"levelo://app?vid=95adfe7d-2c59-4633-ad76-fbe39e9796a7"},"vehicle_type_id":"4","last_reported":1698336494,"current_range_meters":11600,"station_id":"ce4bhdp2rcd13ifvqf20","pricing_plan_id":"free"},{"bike_id":"6b4b8fa7-dae5-4cf7-95e2-20b09e16a1db","system_id":"levelo_inurba_marseille","lat":43.273125,"lon":5.390731,"is_reserved":false,"is_disabled":false,"rental_uris":{"android":"levelo://app?vid=6b4b8fa7-dae5-4cf7-95e2-20b09e16a1db","ios":"levelo://app?vid=6b4b8fa7-dae5-4cf7-95e2-20b09e16a1db"},"vehicle_type_id":"4","last_reported":1698336494,"current_range_meters":22800,"station_id":"ce4bhgp2rcd13ifvqfe0","pricing_plan_id":"free"},{"bike_id":"e8fb80d9-3dee-4788-af69-3398bb145c14","system_id":"levelo_inurba_marseille","lat":43.273163,"lon":5.390829,"is_reserved":false,"is_disabled":false,"rental_uris":{"android":"levelo://app?vid=e8fb80d9-3dee-4788-af69-3398bb145c14","ios":"levelo://app?vid=e8fb80d9-3dee-4788-af69-3398bb145c14"},"vehicle_type_id":"4","last_reported":1698336494,"current_range_meters":0,"station_id":"ce4bhgp2rcd13ifvqfe0","pricing_plan_id":"free"},{"bike_id":"9646a2ee-6867-4298-b619-9b7e4f8d73dc","system_id":"levelo_inurba_marseille","lat":43.274099,"lon":5.394019,"is_reserved":false,"is_disabled":false,"rental_uris":{"android":"levelo://app?vid=9646a2ee-6867-4298-b619-9b7e4f8d73dc","ios":"levelo://app?vid=9646a2ee-6867-4298-b619-9b7e4f8d73dc"},"vehicle_type_id":"4","last_reported":1698336494,"current_range_meters":4400,"station_id":"ce4bhdp2rcd13ifvqf20","pricing_plan_id":"free"},{"bike_id":"c5a37750-6326-4fbd-af49-9bac628435b9","system_id":"levelo_inurba_marseille","lat":43.273129,"lon":5.390725,"is_reserved":false,"is_disabled":false,"rental_uris":{"android":"levelo://app?vid=c5a37750-6326-4fbd-af49-9bac628435b9","ios":"levelo://app?vid=c5a37750-6326-4fbd-af49-9bac628435b9"},"vehicle_type_id":"4","last_reported":1698336494,"current_range_meters":4000,"station_id":"ce4bhgp2rcd13ifvqfe0","pricing_plan_id":"free"},{"bike_id":"13669728-2523-44cf-8253-3a7a7e827464","system_id":"levelo_inurba_marseille","lat":43.273129,"lon":5.390725,"is_reserved":false,"is_disabled":false,"rental_uris":{"android":"levelo://app?vid=13669728-2523-44cf-8253-3a7a7e827464","ios":"levelo://app?vid=13669728-2523-44cf-8253-3a7a7e827464"},"vehicle_type_id":"4","last_reported":1698336494,"current_range_meters":13200,"station_id":"ce4bhgp2rcd13ifvqfe0","pricing_plan_id":"free"},{"bike_id":"304b5f18-5067-4844-a4c8-34b5ffe5a7e3","system_id":"levelo_inurba_marseille","lat":43.274099,"lon":5.394019,"is_reserved":false,"is_disabled":false,"rental_uris":{"android":"levelo://app?vid=304b5f18-5067-4844-a4c8-34b5ffe5a7e3","ios":"levelo://app?vid=304b5f18-5067-4844-a4c8-34b5ffe5a7e3"},"vehicle_type_id":"4","last_reported":1698336494,"current_range_meters":29200,"station_id":"ce4bhdp2rcd13ifvqf20","pricing_plan_id":"free"},{"bike_id":"65242ff7-9377-4bcc-a3c3-09a632e5d8db","system_id":"levelo_inurba_marseille","lat":43.274099,"lon":5.394019,"is_reserved":false,"is_disabled":false,"rental_uris":{"android":"levelo://app?vid=65242ff7-9377-4bcc-a3c3-09a632e5d8db","ios":"levelo://app?vid=65242ff7-9377-4bcc-a3c3-09a632e5d8db"},"vehicle_type_id":"4","last_reported":1698336494,"current_range_meters":23600,"station_id":"ce4bhdp2rcd13ifvqf20","pricing_plan_id":"free"},{"bike_id":"c20d50f3-00eb-4cc4-9678-5f9ac9c17fa5","system_id":"levelo_inurba_marseille","lat":43.273129,"lon":5.390725,"is_reserved":false,"is_disabled":false,"rental_uris":{"android":"levelo://app?vid=c20d50f3-00eb-4cc4-9678-5f9ac9c17fa5","ios":"levelo://app?vid=c20d50f3-00eb-4cc4-9678-5f9ac9c17fa5"},"vehicle_type_id":"4","last_reported":1698336494,"current_range_meters":24800,"station_id":"ce4bhgp2rcd13ifvqfe0","pricing_plan_id":"free"},{"bike_id":"6a00d3fd-8327-4241-a60a-3b3cfa594a9d","system_id":"levelo_inurba_marseille","lat":43.274099,"lon":5.394019,"is_reserved":false,"is_disabled":false,"rental_uris":{"android":"levelo://app?vid=6a00d3fd-8327-4241-a60a-3b3cfa594a9d","ios":"levelo://app?vid=6a00d3fd-8327-4241-a60a-3b3cfa594a9d"},"vehicle_type_id":"4","last_reported":1698336494,"current_range_meters":8800,"station_id":"ce4bhdp2rcd13ifvqf20","pricing_plan_id":"free"},{"bike_id":"8a5a05c1-733e-4b6d-a953-7955521928b4","system_id":"levelo_inurba_marseille","lat":43.273129,"lon":5.390725,"is_reserved":false,"is_disabled":false,"rental_uris":{"android":"levelo://app?vid=8a5a05c1-733e-4b6d-a953-7955521928b4","ios":"levelo://app?vid=8a5a05c1-733e-4b6d-a953-7955521928b4"},"vehicle_type_id":"4","last_reported":1698336494,"current_range_meters":16800,"station_id":"ce4bhgp2rcd13ifvqfe0","pricing_plan_id":"free"},{"bike_id":"0c68240c-5a6f-4f9b-b90e-77d889a9b6c5","system_id":"levelo_inurba_marseille","lat":43.274103,"lon":5.394016,"is_reserved":false,"is_disabled":false,"rental_uris":{"android":"levelo://app?vid=0c68240c-5a6f-4f9b-b90e-77d889a9b6c5","ios":"levelo://app?vid=0c68240c-5a6f-4f9b-b90e-77d889a9b6c5"},"vehicle_type_id":"4","last_reported":1698336494,"current_range_meters":17200,"station_id":"ce4bhdp2rcd13ifvqf20","pricing_plan_id":"free"},{"bike_id":"f0715e0c-4723-4cde-8477-a9be4fb1a83d","system_id":"levelo_inurba_marseille","lat":43.274103,"lon":5.394016,"is_reserved":false,"is_disabled":false,"rental_uris":{"android":"levelo://app?vid=f0715e0c-4723-4cde-8477-a9be4fb1a83d","ios":"levelo://app?vid=f0715e0c-4723-4cde-8477-a9be4fb1a83d"},"vehicle_type_id":"4","last_reported":1698336494,"current_range_meters":20000,"station_id":"ce4bhdp2rcd13ifvqf20","pricing_plan_id":"free"},{"bike_id":"bb8bc910-d854-4276-a697-62b4f54e6695","system_id":"levelo_inurba_marseille","lat":43.274099,"lon":5.394019,"is_reserved":false,"is_disabled":false,"rental_uris":{"android":"levelo://app?vid=bb8bc910-d854-4276-a697-62b4f54e6695","ios":"levelo://app?vid=bb8bc910-d854-4276-a697-62b4f54e6695"},"vehicle_type_id":"4","last_reported":1698336494,"current_range_meters":15200,"station_id":"ce4bhdp2rcd13ifvqf20","pricing_plan_id":"free"},{"bike_id":"1cba86d3-4556-4c79-ad64-91571f328174","system_id":"levelo_inurba_marseille","lat":43.273129,"lon":5.390725,"is_reserved":false,"is_disabled":false,"rental_uris":{"android":"levelo://app?vid=1cba86d3-4556-4c79-ad64-91571f328174","ios":"levelo://app?vid=1cba86d3-4556-4c79-ad64-91571f328174"},"vehicle_type_id":"4","last_reported":1698336494,"current_range_meters":29600,"station_id":"ce4bhgp2rcd13ifvqfe0","pricing_plan_id":"free"},{"bike_id":"2955c875-c8c4-4f4d-b8f0-b952349d3a39","system_id":"levelo_inurba_marseille","lat":43.30416,"lon":5.42541,"is_reserved":false,"is_disabled":false,"rental_uris":{"android":"levelo://app?vid=2955c875-c8c4-4f4d-b8f0-b952349d3a39","ios":"levelo://app?vid=2955c875-c8c4-4f4d-b8f0-b952349d3a39"},"vehicle_type_id":"4","last_reported":1698336494,"current_range_meters":0,"station_id":"ce4bhoh2rcd13ifvqh6g","pricing_plan_id":"free"},{"bike_id":"5457ad81-5010-483a-8212-f8b58f35f1ed","system_id":"levelo_inurba_marseille","lat":43.304088,"lon":5.425388,"is_reserved":false,"is_disabled":false,"rental_uris":{"android":"levelo://app?vid=5457ad81-5010-483a-8212-f8b58f35f1ed","ios":"levelo://app?vid=5457ad81-5010-483a-8212-f8b58f35f1ed"},"vehicle_type_id":"4","last_reported":1698336494,"current_range_meters":26000,"station_id":"ce4bhoh2rcd13ifvqh6g","pricing_plan_id":"free"},{"bike_id":"48b1c85d-4258-4ca8-9cba-545fb5b198e8","system_id":"levelo_inurba_marseille","lat":43.295496,"lon":5.422762,"is_reserved":false,"is_disabled":false,"rental_uris":{"android":"levelo://app?vid=48b1c85d-4258-4ca8-9cba-545fb5b198e8","ios":"levelo://app?vid=48b1c85d-4258-4ca8-9cba-545fb5b198e8"},"vehicle_type_id":"4","last_reported":1698336494,"current_range_meters":12400,"station_id":"ce4bhph2rcd13ifvqhdg","pricing_plan_id":"free"},{"bike_id":"a7c56460-be4d-4141-9984-ce4aaf8d8f7b","system_id":"levelo_inurba_marseille","lat":43.295511,"lon":5.422926,"is_reserved":false,"is_disabled":false,"rental_uris":{"android":"levelo://app?vid=a7c56460-be4d-4141-9984-ce4aaf8d8f7b","ios":"levelo://app?vid=a7c56460-be4d-4141-9984-ce4aaf8d8f7b"},"vehicle_type_id":"4","last_reported":1698336494,"current_range_meters":31600,"station_id":"ce4bhph2rcd13ifvqhdg","pricing_plan_id":"free"},{"bike_id":"42e7df98-2874-4333-92cd-3208041f6f1d","system_id":"levelo_inurba_marseille","lat":43.295511,"lon":5.422926,"is_reserved":false,"is_disabled":false,"rental_uris":{"android":"levelo://app?vid=42e7df98-2874-4333-92cd-3208041f6f1d","ios":"levelo://app?vid=42e7df98-2874-4333-92cd-3208041f6f1d"},"vehicle_type_id":"4","last_reported":1698336494,"current_range_meters":19200,"station_id":"ce4bhph2rcd13ifvqhdg","pricing_plan_id":"free"},{"bike_id":"6725e3a1-002a-4232-9fac-9bc63566c3c2","system_id":"levelo_inurba_marseille","lat":43.29554,"lon":5.42299,"is_reserved":false,"is_disabled":false,"rental_uris":{"android":"levelo://app?vid=6725e3a1-002a-4232-9fac-9bc63566c3c2","ios":"levelo://app?vid=6725e3a1-002a-4232-9fac-9bc63566c3c2"},"vehicle_type_id":"4","last_reported":1698336494,"current_range_meters":24400,"station_id":"ce4bhph2rcd13ifvqhdg","pricing_plan_id":"free"},{"bike_id":"ee2bdaa3-6bf6-4f44-b345-4e8224786dd6","system_id":"levelo_inurba_marseille","lat":43.272118,"lon":5.391758,"is_reserved":false,"is_disabled":false,"rental_uris":{"android":"levelo://app?vid=ee2bdaa3-6bf6-4f44-b345-4e8224786dd6","ios":"levelo://app?vid=ee2bdaa3-6bf6-4f44-b345-4e8224786dd6"},"vehicle_type_id":"4","last_reported":1698336494,"current_range_meters":31200,"station_id":"ce4bhhp2rcd13ifvqfm0","pricing_plan_id":"free"},{"bike_id":"62502b77-ec4a-4bb2-a9b5-a1ae89b6bebc","system_id":"levelo_inurba_marseille","lat":43.272116,"lon":5.391763,"is_reserved":false,"is_disabled":false,"rental_uris":{"android":"levelo://app?vid=62502b77-ec4a-4bb2-a9b5-a1ae89b6bebc","ios":"levelo://app?vid=62502b77-ec4a-4bb2-a9b5-a1ae89b6bebc"},"vehicle_type_id":"4","last_reported":1698336494,"current_range_meters":18800,"station_id":"ce4bhhp2rcd13ifvqfm0","pricing_plan_id":"free"},{"bike_id":"45124ef3-641b-4e37-9dd3-a573ecde657c","system_id":"levelo_inurba_marseille","lat":43.272124,"lon":5.391768,"is_reserved":false,"is_disabled":false,"rental_uris":{"android":"levelo://app?vid=45124ef3-641b-4e37-9dd3-a573ecde657c","ios":"levelo://app?vid=45124ef3-641b-4e37-9dd3-a573ecde657c"},"vehicle_type_id":"4","last_reported":1698336494,"current_range_meters":18000,"station_id":"ce4bhhp2rcd13ifvqfm0","pricing_plan_id":"free"},{"bike_id":"cbee2cff-7724-4efd-a3f4-86e7868003fe","system_id":"levelo_inurba_marseille","lat":43.272116,"lon":5.391747,"is_reserved":false,"is_disabled":false,"rental_uris":{"android":"levelo://app?vid=cbee2cff-7724-4efd-a3f4-86e7868003fe","ios":"levelo://app?vid=cbee2cff-7724-4efd-a3f4-86e7868003fe"},"vehicle_type_id":"4","last_reported":1698336494,"current_range_meters":31200,"station_id":"ce4bhhp2rcd13ifvqfm0","pricing_plan_id":"free"},{"bike_id":"bbf89468-32e3-4ee6-95a3-a728b168178e","system_id":"levelo_inurba_marseille","lat":43.272116,"lon":5.391763,"is_reserved":false,"is_disabled":false,"rental_uris":{"android":"levelo://app?vid=bbf89468-32e3-4ee6-95a3-a728b168178e","ios":"levelo://app?vid=bbf89468-32e3-4ee6-95a3-a728b168178e"},"vehicle_type_id":"4","last_reported":1698336494,"current_range_meters":31600,"station_id":"ce4bhhp2rcd13ifvqfm0","pricing_plan_id":"free"},{"bike_id":"03ab5fe1-3e8a-4e1e-958a-18a52b9c81d5","system_id":"levelo_inurba_marseille","lat":43.272124,"lon":5.391768,"is_reserved":false,"is_disabled":false,"rental_uris":{"android":"levelo://app?vid=03ab5fe1-3e8a-4e1e-958a-18a52b9c81d5","ios":"levelo://app?vid=03ab5fe1-3e8a-4e1e-958a-18a52b9c81d5"},"vehicle_type_id":"4","last_reported":1698336494,"current_range_meters":31200,"station_id":"ce4bhhp2rcd13ifvqfm0","pricing_plan_id":"free"},{"bike_id":"bb2f0d64-7ae1-4cb9-9964-4161806fdc1a","system_id":"levelo_inurba_marseille","lat":43.272116,"lon":5.391763,"is_reserved":false,"is_disabled":false,"rental_uris":{"android":"levelo://app?vid=bb2f0d64-7ae1-4cb9-9964-4161806fdc1a","ios":"levelo://app?vid=bb2f0d64-7ae1-4cb9-9964-4161806fdc1a"},"vehicle_type_id":"4","last_reported":1698336494,"current_range_meters":30400,"station_id":"ce4bhhp2rcd13ifvqfm0","pricing_plan_id":"free"},{"bike_id":"5e6ec964-3cc6-490b-8a2b-7a27035f37af","system_id":"levelo_inurba_marseille","lat":43.272118,"lon":5.391758,"is_reserved":false,"is_disabled":false,"rental_uris":{"android":"levelo://app?vid=5e6ec964-3cc6-490b-8a2b-7a27035f37af","ios":"levelo://app?vid=5e6ec964-3cc6-490b-8a2b-7a27035f37af"},"vehicle_type_id":"4","last_reported":1698336494,"current_range_meters":14400,"station_id":"ce4bhhp2rcd13ifvqfm0","pricing_plan_id":"free"},{"bike_id":"6802a647-40f7-47ad-985a-a707f081a631","system_id":"levelo_inurba_marseille","lat":43.272116,"lon":5.391763,"is_reserved":false,"is_disabled":false,"rental_uris":{"android":"levelo://app?vid=6802a647-40f7-47ad-985a-a707f081a631","ios":"levelo://app?vid=6802a647-40f7-47ad-985a-a707f081a631"},"vehicle_type_id":"4","last_reported":1698336494,"current_range_meters":26000,"station_id":"ce4bhhp2rcd13ifvqfm0","pricing_plan_id":"free"},{"bike_id":"f3d08946-268f-4a61-9830-e819de85e0af","system_id":"levelo_inurba_marseille","lat":43.272118,"lon":5.391758,"is_reserved":false,"is_disabled":false,"rental_uris":{"android":"levelo://app?vid=f3d08946-268f-4a61-9830-e819de85e0af","ios":"levelo://app?vid=f3d08946-268f-4a61-9830-e819de85e0af"},"vehicle_type_id":"4","last_reported":1698336494,"current_range_meters":31200,"station_id":"ce4bhhp2rcd13ifvqfm0","pricing_plan_id":"free"},{"bike_id":"60ac38ad-4790-4ee4-83ae-f8d7b19bbdd3","system_id":"levelo_inurba_marseille","lat":43.272118,"lon":5.391758,"is_reserved":false,"is_disabled":false,"rental_uris":{"android":"levelo://app?vid=60ac38ad-4790-4ee4-83ae-f8d7b19bbdd3","ios":"levelo://app?vid=60ac38ad-4790-4ee4-83ae-f8d7b19bbdd3"},"vehicle_type_id":"4","last_reported":1698336494,"current_range_meters":31200,"station_id":"ce4bhhp2rcd13ifvqfm0","pricing_plan_id":"free"},{"bike_id":"68395858-08f6-4b37-a706-817a134bf6da","system_id":"levelo_inurba_marseille","lat":43.272118,"lon":5.391758,"is_reserved":false,"is_disabled":false,"rental_uris":{"android":"levelo://app?vid=68395858-08f6-4b37-a706-817a134bf6da","ios":"levelo://app?vid=68395858-08f6-4b37-a706-817a134bf6da"},"vehicle_type_id":"4","last_reported":1698336494,"current_range_meters":31200,"station_id":"ce4bhhp2rcd13ifvqfm0","pricing_plan_id":"free"},{"bike_id":"4af19100-6559-4864-aab4-c713aab7bfde","system_id":"levelo_inurba_marseille","lat":43.272124,"lon":5.391768,"is_reserved":false,"is_disabled":false,"rental_uris":{"android":"levelo://app?vid=4af19100-6559-4864-aab4-c713aab7bfde","ios":"levelo://app?vid=4af19100-6559-4864-aab4-c713aab7bfde"},"vehicle_type_id":"4","last_reported":1698336494,"current_range_meters":16800,"station_id":"ce4bhhp2rcd13ifvqfm0","pricing_plan_id":"free"},{"bike_id":"cdf99bae-6c2b-46d6-a244-a1687f2d19a8","system_id":"levelo_inurba_marseille","lat":43.272118,"lon":5.391758,"is_reserved":false,"is_disabled":false,"rental_uris":{"android":"levelo://app?vid=cdf99bae-6c2b-46d6-a244-a1687f2d19a8","ios":"levelo://app?vid=cdf99bae-6c2b-46d6-a244-a1687f2d19a8"},"vehicle_type_id":"4","last_reported":1698336494,"current_range_meters":30000,"station_id":"ce4bhhp2rcd13ifvqfm0","pricing_plan_id":"free"},{"bike_id":"8e5ec689-874f-46c9-b529-0020e89b03a7","system_id":"levelo_inurba_marseille","lat":43.272118,"lon":5.391758,"is_reserved":false,"is_disabled":false,"rental_uris":{"android":"levelo://app?vid=8e5ec689-874f-46c9-b529-0020e89b03a7","ios":"levelo://app?vid=8e5ec689-874f-46c9-b529-0020e89b03a7"},"vehicle_type_id":"4","last_reported":1698336494,"current_range_meters":31200,"station_id":"ce4bhhp2rcd13ifvqfm0","pricing_plan_id":"free"},{"bike_id":"3728e48c-c357-4e31-95f7-93290a891e25","system_id":"levelo_inurba_marseille","lat":43.278128,"lon":5.407195,"is_reserved":false,"is_disabled":false,"rental_uris":{"android":"levelo://app?vid=3728e48c-c357-4e31-95f7-93290a891e25","ios":"levelo://app?vid=3728e48c-c357-4e31-95f7-93290a891e25"},"vehicle_type_id":"4","last_reported":1698336494,"current_range_meters":8800,"station_id":"ce4bhnh2rcd13ifvqgtg","pricing_plan_id":"free"},{"bike_id":"489652d8-09ac-4057-9c1d-08bdd007090b","system_id":"levelo_inurba_marseille","lat":43.278128,"lon":5.407195,"is_reserved":false,"is_disabled":false,"rental_uris":{"android":"levelo://app?vid=489652d8-09ac-4057-9c1d-08bdd007090b","ios":"levelo://app?vid=489652d8-09ac-4057-9c1d-08bdd007090b"},"vehicle_type_id":"4","last_reported":1698336494,"current_range_meters":21600,"station_id":"ce4bhnh2rcd13ifvqgtg","pricing_plan_id":"free"},{"bike_id":"59540741-89f5-4078-93c9-d4adf43088ce","system_id":"levelo_inurba_marseille","lat":43.2781,"lon":5.40719,"is_reserved":false,"is_disabled":false,"rental_uris":{"android":"levelo://app?vid=59540741-89f5-4078-93c9-d4adf43088ce","ios":"levelo://app?vid=59540741-89f5-4078-93c9-d4adf43088ce"},"vehicle_type_id":"4","last_reported":1698336494,"current_range_meters":16000,"station_id":"ce4bhnh2rcd13ifvqgtg","pricing_plan_id":"free"},{"bike_id":"32103ecb-128f-418f-bab2-cf31a452d0b9","system_id":"levelo_inurba_marseille","lat":43.278128,"lon":5.407195,"is_reserved":false,"is_disabled":false,"rental_uris":{"android":"levelo://app?vid=32103ecb-128f-418f-bab2-cf31a452d0b9","ios":"levelo://app?vid=32103ecb-128f-418f-bab2-cf31a452d0b9"},"vehicle_type_id":"4","last_reported":1698336494,"current_range_meters":31200,"station_id":"ce4bhnh2rcd13ifvqgtg","pricing_plan_id":"free"},{"bike_id":"ad5d9763-da45-4d5a-88f0-26ead3d072d4","system_id":"levelo_inurba_marseille","lat":43.27807,"lon":5.40719,"is_reserved":false,"is_disabled":false,"rental_uris":{"android":"levelo://app?vid=ad5d9763-da45-4d5a-88f0-26ead3d072d4","ios":"levelo://app?vid=ad5d9763-da45-4d5a-88f0-26ead3d072d4"},"vehicle_type_id":"4","last_reported":1698336494,"current_range_meters":25200,"station_id":"ce4bhnh2rcd13ifvqgtg","pricing_plan_id":"free"},{"bike_id":"a4218121-4455-4416-9d3b-5bc79610a638","system_id":"levelo_inurba_marseille","lat":43.278046,"lon":5.407159,"is_reserved":false,"is_disabled":false,"rental_uris":{"android":"levelo://app?vid=a4218121-4455-4416-9d3b-5bc79610a638","ios":"levelo://app?vid=a4218121-4455-4416-9d3b-5bc79610a638"},"vehicle_type_id":"4","last_reported":1698336494,"current_range_meters":26400,"station_id":"ce4bhnh2rcd13ifvqgtg","pricing_plan_id":"free"},{"bike_id":"2d5d6a8c-2684-4f76-b867-2e221edeb772","system_id":"levelo_inurba_marseille","lat":43.269467,"lon":5.386439,"is_reserved":false,"is_disabled":false,"rental_uris":{"android":"levelo://app?vid=2d5d6a8c-2684-4f76-b867-2e221edeb772","ios":"levelo://app?vid=2d5d6a8c-2684-4f76-b867-2e221edeb772"},"vehicle_type_id":"4","last_reported":1698336494,"current_range_meters":25200,"station_id":"ce4bhh92rcd13ifvqfh0","pricing_plan_id":"free"},{"bike_id":"891e1734-0f2b-4304-8bd4-989a6a3bbdb4","system_id":"levelo_inurba_marseille","lat":43.279435,"lon":5.410405,"is_reserved":false,"is_disabled":false,"rental_uris":{"android":"levelo://app?vid=891e1734-0f2b-4304-8bd4-989a6a3bbdb4","ios":"levelo://app?vid=891e1734-0f2b-4304-8bd4-989a6a3bbdb4"},"vehicle_type_id":"4","last_reported":1698336494,"current_range_meters":8800,"station_id":"ce4bhnp2rcd13ifvqh0g","pricing_plan_id":"free"},{"bike_id":"66a46cce-2509-423f-8e36-ccbf8c1330ab","system_id":"levelo_inurba_marseille","lat":43.26935,"lon":5.38911,"is_reserved":false,"is_disabled":false,"rental_uris":{"android":"levelo://app?vid=66a46cce-2509-423f-8e36-ccbf8c1330ab","ios":"levelo://app?vid=66a46cce-2509-423f-8e36-ccbf8c1330ab"},"vehicle_type_id":"4","last_reported":1698336494,"current_range_meters":18000,"station_id":"ce4bhhh2rcd13ifvqfl0","pricing_plan_id":"free"},{"bike_id":"ba4b9538-df1b-4cfb-994b-b308591a23a3","system_id":"levelo_inurba_marseille","lat":43.26559,"lon":5.37295,"is_reserved":false,"is_disabled":false,"rental_uris":{"android":"levelo://app?vid=ba4b9538-df1b-4cfb-994b-b308591a23a3","ios":"levelo://app?vid=ba4b9538-df1b-4cfb-994b-b308591a23a3"},"vehicle_type_id":"4","last_reported":1698336494,"current_range_meters":25200,"station_id":"ce4bhg12rcd13ifvqf70","pricing_plan_id":"free"},{"bike_id":"c10e2a73-6caf-4b0d-9371-016cb26bc05a","system_id":"levelo_inurba_marseille","lat":43.265568,"lon":5.37287,"is_reserved":false,"is_disabled":false,"rental_uris":{"android":"levelo://app?vid=c10e2a73-6caf-4b0d-9371-016cb26bc05a","ios":"levelo://app?vid=c10e2a73-6caf-4b0d-9371-016cb26bc05a"},"vehicle_type_id":"4","last_reported":1698336494,"current_range_meters":0,"station_id":"ce4bhg12rcd13ifvqf70","pricing_plan_id":"free"},{"bike_id":"5b150e21-cd1b-4f2c-ba5c-15efe3c1940a","system_id":"levelo_inurba_marseille","lat":43.265546,"lon":5.372891,"is_reserved":false,"is_disabled":false,"rental_uris":{"android":"levelo://app?vid=5b150e21-cd1b-4f2c-ba5c-15efe3c1940a","ios":"levelo://app?vid=5b150e21-cd1b-4f2c-ba5c-15efe3c1940a"},"vehicle_type_id":"4","last_reported":1698336494,"current_range_meters":17200,"station_id":"ce4bhg12rcd13ifvqf70","pricing_plan_id":"free"},{"bike_id":"5ec85365-0e81-4211-87ad-4e94a8dde9d9","system_id":"levelo_inurba_marseille","lat":43.33122,"lon":5.42905,"is_reserved":false,"is_disabled":false,"rental_uris":{"android":"levelo://app?vid=5ec85365-0e81-4211-87ad-4e94a8dde9d9","ios":"levelo://app?vid=5ec85365-0e81-4211-87ad-4e94a8dde9d9"},"vehicle_type_id":"4","last_reported":1698336494,"current_range_meters":5600,"station_id":"","pricing_plan_id":"free"},{"bike_id":"dde22103-6613-4569-a5a4-bc9b6249ff57","system_id":"levelo_inurba_marseille","lat":43.27996,"lon":5.41665,"is_reserved":false,"is_disabled":false,"rental_uris":{"android":"levelo://app?vid=dde22103-6613-4569-a5a4-bc9b6249ff57","ios":"levelo://app?vid=dde22103-6613-4569-a5a4-bc9b6249ff57"},"vehicle_type_id":"4","last_reported":1698336494,"current_range_meters":5600,"station_id":"ce4bho12rcd13ifvqh1g","pricing_plan_id":"free"},{"bike_id":"978e2b49-f828-4893-969f-16a66e829957","system_id":"levelo_inurba_marseille","lat":43.26793,"lon":5.39412,"is_reserved":false,"is_disabled":false,"rental_uris":{"android":"levelo://app?vid=978e2b49-f828-4893-969f-16a66e829957","ios":"levelo://app?vid=978e2b49-f828-4893-969f-16a66e829957"},"vehicle_type_id":"4","last_reported":1698336494,"current_range_meters":31200,"station_id":"ce4bhh12rcd13ifvqfg0","pricing_plan_id":"free"},{"bike_id":"3d43c7cb-aaef-4b44-9979-3ce23b8e54b9","system_id":"levelo_inurba_marseille","lat":43.26792,"lon":5.39411,"is_reserved":false,"is_disabled":false,"rental_uris":{"android":"levelo://app?vid=3d43c7cb-aaef-4b44-9979-3ce23b8e54b9","ios":"levelo://app?vid=3d43c7cb-aaef-4b44-9979-3ce23b8e54b9"},"vehicle_type_id":"4","last_reported":1698336494,"current_range_meters":31200,"station_id":"ce4bhh12rcd13ifvqfg0","pricing_plan_id":"free"},{"bike_id":"7d369d83-10d0-43b8-944f-cdecc8a8ba84","system_id":"levelo_inurba_marseille","lat":43.26792,"lon":5.39411,"is_reserved":false,"is_disabled":false,"rental_uris":{"android":"levelo://app?vid=7d369d83-10d0-43b8-944f-cdecc8a8ba84","ios":"levelo://app?vid=7d369d83-10d0-43b8-944f-cdecc8a8ba84"},"vehicle_type_id":"4","last_reported":1698336494,"current_range_meters":0,"station_id":"ce4bhh12rcd13ifvqfg0","pricing_plan_id":"free"},{"bike_id":"b6a9f497-48b4-442c-a400-9af279539141","system_id":"levelo_inurba_marseille","lat":43.26791,"lon":5.39415,"is_reserved":false,"is_disabled":false,"rental_uris":{"android":"levelo://app?vid=b6a9f497-48b4-442c-a400-9af279539141","ios":"levelo://app?vid=b6a9f497-48b4-442c-a400-9af279539141"},"vehicle_type_id":"4","last_reported":1698336494,"current_range_meters":14800,"station_id":"ce4bhh12rcd13ifvqfg0","pricing_plan_id":"free"},{"bike_id":"a769a2a2-2d1e-4609-b9f6-47f058199445","system_id":"levelo_inurba_marseille","lat":43.26788,"lon":5.39411,"is_reserved":false,"is_disabled":false,"rental_uris":{"android":"levelo://app?vid=a769a2a2-2d1e-4609-b9f6-47f058199445","ios":"levelo://app?vid=a769a2a2-2d1e-4609-b9f6-47f058199445"},"vehicle_type_id":"4","last_reported":1698336494,"current_range_meters":21200,"station_id":"ce4bhh12rcd13ifvqfg0","pricing_plan_id":"free"},{"bike_id":"9a930779-90f4-4088-9d18-1a1fbe09a44b","system_id":"levelo_inurba_marseille","lat":43.26788,"lon":5.39411,"is_reserved":false,"is_disabled":false,"rental_uris":{"android":"levelo://app?vid=9a930779-90f4-4088-9d18-1a1fbe09a44b","ios":"levelo://app?vid=9a930779-90f4-4088-9d18-1a1fbe09a44b"},"vehicle_type_id":"4","last_reported":1698336494,"current_range_meters":5200,"station_id":"ce4bhh12rcd13ifvqfg0","pricing_plan_id":"free"},{"bike_id":"9e1bfa2b-2f65-4e90-a1f6-2a95fa644012","system_id":"levelo_inurba_marseille","lat":43.267859,"lon":5.39406,"is_reserved":false,"is_disabled":false,"rental_uris":{"android":"levelo://app?vid=9e1bfa2b-2f65-4e90-a1f6-2a95fa644012","ios":"levelo://app?vid=9e1bfa2b-2f65-4e90-a1f6-2a95fa644012"},"vehicle_type_id":"4","last_reported":1698336494,"current_range_meters":9600,"station_id":"ce4bhh12rcd13ifvqfg0","pricing_plan_id":"free"},{"bike_id":"69a8e73f-3b00-40d9-8afa-0cadbbd875ea","system_id":"levelo_inurba_marseille","lat":43.2679,"lon":5.39419,"is_reserved":false,"is_disabled":false,"rental_uris":{"android":"levelo://app?vid=69a8e73f-3b00-40d9-8afa-0cadbbd875ea","ios":"levelo://app?vid=69a8e73f-3b00-40d9-8afa-0cadbbd875ea"},"vehicle_type_id":"4","last_reported":1698336494,"current_range_meters":14800,"station_id":"ce4bhh12rcd13ifvqfg0","pricing_plan_id":"free"},{"bike_id":"49d1cf0b-a653-4d76-9a0f-cb388bf86af5","system_id":"levelo_inurba_marseille","lat":43.26787,"lon":5.3941,"is_reserved":false,"is_disabled":false,"rental_uris":{"android":"levelo://app?vid=49d1cf0b-a653-4d76-9a0f-cb388bf86af5","ios":"levelo://app?vid=49d1cf0b-a653-4d76-9a0f-cb388bf86af5"},"vehicle_type_id":"4","last_reported":1698336494,"current_range_meters":9200,"station_id":"ce4bhh12rcd13ifvqfg0","pricing_plan_id":"free"},{"bike_id":"ba622125-b60f-44e7-a3f9-64d8e4a86010","system_id":"levelo_inurba_marseille","lat":43.267882,"lon":5.39414,"is_reserved":false,"is_disabled":false,"rental_uris":{"android":"levelo://app?vid=ba622125-b60f-44e7-a3f9-64d8e4a86010","ios":"levelo://app?vid=ba622125-b60f-44e7-a3f9-64d8e4a86010"},"vehicle_type_id":"4","last_reported":1698336494,"current_range_meters":7200,"station_id":"ce4bhh12rcd13ifvqfg0","pricing_plan_id":"free"},{"bike_id":"3c082aa6-4f7d-4e76-a49e-394545f6a717","system_id":"levelo_inurba_marseille","lat":43.26787,"lon":5.39414,"is_reserved":false,"is_disabled":false,"rental_uris":{"android":"levelo://app?vid=3c082aa6-4f7d-4e76-a49e-394545f6a717","ios":"levelo://app?vid=3c082aa6-4f7d-4e76-a49e-394545f6a717"},"vehicle_type_id":"4","last_reported":1698336494,"current_range_meters":24400,"station_id":"ce4bhh12rcd13ifvqfg0","pricing_plan_id":"free"},{"bike_id":"0c58f4db-db34-4fd2-8fd1-88606ec05a2b","system_id":"levelo_inurba_marseille","lat":43.26788,"lon":5.39418,"is_reserved":false,"is_disabled":false,"rental_uris":{"android":"levelo://app?vid=0c58f4db-db34-4fd2-8fd1-88606ec05a2b","ios":"levelo://app?vid=0c58f4db-db34-4fd2-8fd1-88606ec05a2b"},"vehicle_type_id":"4","last_reported":1698336494,"current_range_meters":4800,"station_id":"ce4bhh12rcd13ifvqfg0","pricing_plan_id":"free"},{"bike_id":"5ddb401a-e8ae-4925-a4a1-16d31af03125","system_id":"levelo_inurba_marseille","lat":43.267966,"lon":5.393976,"is_reserved":false,"is_disabled":false,"rental_uris":{"android":"levelo://app?vid=5ddb401a-e8ae-4925-a4a1-16d31af03125","ios":"levelo://app?vid=5ddb401a-e8ae-4925-a4a1-16d31af03125"},"vehicle_type_id":"4","last_reported":1698336494,"current_range_meters":26000,"station_id":"ce4bhh12rcd13ifvqfg0","pricing_plan_id":"free"},{"bike_id":"c789c5fb-7392-433b-93a4-1daf588c0ad0","system_id":"levelo_inurba_marseille","lat":43.26786,"lon":5.39412,"is_reserved":false,"is_disabled":false,"rental_uris":{"android":"levelo://app?vid=c789c5fb-7392-433b-93a4-1daf588c0ad0","ios":"levelo://app?vid=c789c5fb-7392-433b-93a4-1daf588c0ad0"},"vehicle_type_id":"4","last_reported":1698336494,"current_range_meters":30400,"station_id":"","pricing_plan_id":"free"},{"bike_id":"42e8adbf-a8fa-4566-aa13-e9a39b76a47a","system_id":"levelo_inurba_marseille","lat":43.26786,"lon":5.39415,"is_reserved":false,"is_disabled":false,"rental_uris":{"android":"levelo://app?vid=42e8adbf-a8fa-4566-aa13-e9a39b76a47a","ios":"levelo://app?vid=42e8adbf-a8fa-4566-aa13-e9a39b76a47a"},"vehicle_type_id":"4","last_reported":1698336494,"current_range_meters":31200,"station_id":"ce4bhh12rcd13ifvqfg0","pricing_plan_id":"free"},{"bike_id":"8e56052b-fbb4-48d7-b440-41b8026376bf","system_id":"levelo_inurba_marseille","lat":43.26785,"lon":5.39415,"is_reserved":false,"is_disabled":false,"rental_uris":{"android":"levelo://app?vid=8e56052b-fbb4-48d7-b440-41b8026376bf","ios":"levelo://app?vid=8e56052b-fbb4-48d7-b440-41b8026376bf"},"vehicle_type_id":"4","last_reported":1698336494,"current_range_meters":23600,"station_id":"ce4bhh12rcd13ifvqfg0","pricing_plan_id":"free"},{"bike_id":"019ba9ac-95de-40a4-a6d0-99b601f9b2d9","system_id":"levelo_inurba_marseille","lat":43.26784,"lon":5.39413,"is_reserved":false,"is_disabled":false,"rental_uris":{"android":"levelo://app?vid=019ba9ac-95de-40a4-a6d0-99b601f9b2d9","ios":"levelo://app?vid=019ba9ac-95de-40a4-a6d0-99b601f9b2d9"},"vehicle_type_id":"4","last_reported":1698336494,"current_range_meters":31200,"station_id":"ce4bhh12rcd13ifvqfg0","pricing_plan_id":"free"},{"bike_id":"f444fc3d-c1de-4755-95e9-f120c68fd932","system_id":"levelo_inurba_marseille","lat":43.26783,"lon":5.39419,"is_reserved":false,"is_disabled":false,"rental_uris":{"android":"levelo://app?vid=f444fc3d-c1de-4755-95e9-f120c68fd932","ios":"levelo://app?vid=f444fc3d-c1de-4755-95e9-f120c68fd932"},"vehicle_type_id":"4","last_reported":1698336494,"current_range_meters":13600,"station_id":"ce4bhh12rcd13ifvqfg0","pricing_plan_id":"free"},{"bike_id":"afca425b-1f28-448a-8c5c-f73b58e5c728","system_id":"levelo_inurba_marseille","lat":43.26783,"lon":5.3942,"is_reserved":false,"is_disabled":false,"rental_uris":{"android":"levelo://app?vid=afca425b-1f28-448a-8c5c-f73b58e5c728","ios":"levelo://app?vid=afca425b-1f28-448a-8c5c-f73b58e5c728"},"vehicle_type_id":"4","last_reported":1698336494,"current_range_meters":14400,"station_id":"ce4bhh12rcd13ifvqfg0","pricing_plan_id":"free"},{"bike_id":"f7be53e2-8e68-410f-a969-9b18cf422a59","system_id":"levelo_inurba_marseille","lat":43.267809,"lon":5.394136,"is_reserved":false,"is_disabled":false,"rental_uris":{"android":"levelo://app?vid=f7be53e2-8e68-410f-a969-9b18cf422a59","ios":"levelo://app?vid=f7be53e2-8e68-410f-a969-9b18cf422a59"},"vehicle_type_id":"4","last_reported":1698336494,"current_range_meters":1600,"station_id":"ce4bhh12rcd13ifvqfg0","pricing_plan_id":"free"},{"bike_id":"025e7e68-5080-44d6-b315-8d42b575ccd3","system_id":"levelo_inurba_marseille","lat":43.26781,"lon":5.39421,"is_reserved":false,"is_disabled":false,"rental_uris":{"android":"levelo://app?vid=025e7e68-5080-44d6-b315-8d42b575ccd3","ios":"levelo://app?vid=025e7e68-5080-44d6-b315-8d42b575ccd3"},"vehicle_type_id":"4","last_reported":1698336494,"current_range_meters":24000,"station_id":"ce4bhh12rcd13ifvqfg0","pricing_plan_id":"free"},{"bike_id":"1c64b3d0-69f3-49bb-8e0a-2e245c88b03f","system_id":"levelo_inurba_marseille","lat":43.26776,"lon":5.39408,"is_reserved":false,"is_disabled":false,"rental_uris":{"android":"levelo://app?vid=1c64b3d0-69f3-49bb-8e0a-2e245c88b03f","ios":"levelo://app?vid=1c64b3d0-69f3-49bb-8e0a-2e245c88b03f"},"vehicle_type_id":"4","last_reported":1698336494,"current_range_meters":27600,"station_id":"ce4bhh12rcd13ifvqfg0","pricing_plan_id":"free"},{"bike_id":"865944e3-25d4-4c90-b3a8-15ac0279d7a7","system_id":"levelo_inurba_marseille","lat":43.26778,"lon":5.39417,"is_reserved":false,"is_disabled":false,"rental_uris":{"android":"levelo://app?vid=865944e3-25d4-4c90-b3a8-15ac0279d7a7","ios":"levelo://app?vid=865944e3-25d4-4c90-b3a8-15ac0279d7a7"},"vehicle_type_id":"4","last_reported":1698336494,"current_range_meters":31200,"station_id":"ce4bhh12rcd13ifvqfg0","pricing_plan_id":"free"},{"bike_id":"bd3c33cb-aed4-4f13-bf75-7e277c81e323","system_id":"levelo_inurba_marseille","lat":43.267966,"lon":5.393976,"is_reserved":false,"is_disabled":false,"rental_uris":{"android":"levelo://app?vid=bd3c33cb-aed4-4f13-bf75-7e277c81e323","ios":"levelo://app?vid=bd3c33cb-aed4-4f13-bf75-7e277c81e323"},"vehicle_type_id":"4","last_reported":1698336494,"current_range_meters":400,"station_id":"ce4bhh12rcd13ifvqfg0","pricing_plan_id":"free"},{"bike_id":"7bfe61ae-f56f-41aa-9340-a2efeb145f4d","system_id":"levelo_inurba_marseille","lat":43.26779,"lon":5.39422,"is_reserved":false,"is_disabled":false,"rental_uris":{"android":"levelo://app?vid=7bfe61ae-f56f-41aa-9340-a2efeb145f4d","ios":"levelo://app?vid=7bfe61ae-f56f-41aa-9340-a2efeb145f4d"},"vehicle_type_id":"4","last_reported":1698336494,"current_range_meters":30800,"station_id":"ce4bhh12rcd13ifvqfg0","pricing_plan_id":"free"},{"bike_id":"5880d8d7-b8a5-4bab-bba9-457841575dd5","system_id":"levelo_inurba_marseille","lat":43.26776,"lon":5.39426,"is_reserved":false,"is_disabled":false,"rental_uris":{"android":"levelo://app?vid=5880d8d7-b8a5-4bab-bba9-457841575dd5","ios":"levelo://app?vid=5880d8d7-b8a5-4bab-bba9-457841575dd5"},"vehicle_type_id":"4","last_reported":1698336494,"current_range_meters":31200,"station_id":"ce4bhh12rcd13ifvqfg0","pricing_plan_id":"free"},{"bike_id":"7fccf6c0-5337-4dd6-a02c-1e0c8f7616fc","system_id":"levelo_inurba_marseille","lat":43.26774,"lon":5.39421,"is_reserved":false,"is_disabled":false,"rental_uris":{"android":"levelo://app?vid=7fccf6c0-5337-4dd6-a02c-1e0c8f7616fc","ios":"levelo://app?vid=7fccf6c0-5337-4dd6-a02c-1e0c8f7616fc"},"vehicle_type_id":"4","last_reported":1698336494,"current_range_meters":31200,"station_id":"ce4bhh12rcd13ifvqfg0","pricing_plan_id":"free"},{"bike_id":"e9b0d128-0a4a-426f-908d-d011551546fc","system_id":"levelo_inurba_marseille","lat":43.328212,"lon":5.431596,"is_reserved":false,"is_disabled":false,"rental_uris":{"android":"levelo://app?vid=e9b0d128-0a4a-426f-908d-d011551546fc","ios":"levelo://app?vid=e9b0d128-0a4a-426f-908d-d011551546fc"},"vehicle_type_id":"4","last_reported":1698336494,"current_range_meters":26800,"station_id":"","pricing_plan_id":"free"},{"bike_id":"106153d2-88c3-4d3e-b301-dfa17593db27","system_id":"levelo_inurba_marseille","lat":43.265571,"lon":5.390032,"is_reserved":false,"is_disabled":false,"rental_uris":{"android":"levelo://app?vid=106153d2-88c3-4d3e-b301-dfa17593db27","ios":"levelo://app?vid=106153d2-88c3-4d3e-b301-dfa17593db27"},"vehicle_type_id":"4","last_reported":1698336494,"current_range_meters":30800,"station_id":"ce4bhe12rcd13ifvqf30","pricing_plan_id":"free"},{"bike_id":"8d3becdc-fa92-481a-984f-a6c83158d78f","system_id":"levelo_inurba_marseille","lat":43.26571,"lon":5.3901,"is_reserved":false,"is_disabled":false,"rental_uris":{"android":"levelo://app?vid=8d3becdc-fa92-481a-984f-a6c83158d78f","ios":"levelo://app?vid=8d3becdc-fa92-481a-984f-a6c83158d78f"},"vehicle_type_id":"4","last_reported":1698336494,"current_range_meters":6000,"station_id":"ce4bhe12rcd13ifvqf30","pricing_plan_id":"free"},{"bike_id":"76c10337-4e2b-49a7-a8af-b77fbf2ba3ec","system_id":"levelo_inurba_marseille","lat":43.26569,"lon":5.39015,"is_reserved":false,"is_disabled":false,"rental_uris":{"android":"levelo://app?vid=76c10337-4e2b-49a7-a8af-b77fbf2ba3ec","ios":"levelo://app?vid=76c10337-4e2b-49a7-a8af-b77fbf2ba3ec"},"vehicle_type_id":"4","last_reported":1698336494,"current_range_meters":17600,"station_id":"ce4bhe12rcd13ifvqf30","pricing_plan_id":"free"},{"bike_id":"abeee2f8-78a4-4e6f-8aac-b95d2455fb50","system_id":"levelo_inurba_marseille","lat":43.26566,"lon":5.39007,"is_reserved":false,"is_disabled":false,"rental_uris":{"android":"levelo://app?vid=abeee2f8-78a4-4e6f-8aac-b95d2455fb50","ios":"levelo://app?vid=abeee2f8-78a4-4e6f-8aac-b95d2455fb50"},