{"last_updated":1704089438,"ttl":30,"version":"2.2","data":{"bikes":[{"bike_id":"19681d20-0e94-4d95-bd6e-75843e212133","system_id":"levelo_inurba_marseille","lat":43.313391,"lon":5.36706,"is_reserved":false,"is_disabled":false,"rental_uris":{"android":"levelo://app?vid=19681d20-0e94-4d95-bd6e-75843e212133","ios":"levelo://app?vid=19681d20-0e94-4d95-bd6e-75843e212133"},"vehicle_type_id":"4","last_reported":1704089438,"current_range_meters":30000,"station_id":"ce4bgr92rcd13ifvqc6g","pricing_plan_id":"free"},{"bike_id":"ba3aba46-f07f-46b5-a5d6-23b5891b61b4","system_id":"levelo_inurba_marseille","lat":43.31341,"lon":5.367098,"is_reserved":false,"is_disabled":false,"rental_uris":{"android":"levelo://app?vid=ba3aba46-f07f-46b5-a5d6-23b5891b61b4","ios":"levelo://app?vid=ba3aba46-f07f-46b5-a5d6-23b5891b61b4"},"vehicle_type_id":"4","last_reported":1704089438,"current_range_meters":26400,"station_id":"ce4bgr92rcd13ifvqc6g","pricing_plan_id":"free"},{"bike_id":"1862bd8e-99d5-4a12-9621-aed23de87e43","system_id":"levelo_inurba_marseille","lat":43.31341,"lon":5.367098,"is_reserved":false,"is_disabled":false,"rental_uris":{"android":"levelo://app?vid=1862bd8e-99d5-4a12-9621-aed23de87e43","ios":"levelo://app?vid=1862bd8e-99d5-4a12-9621-aed23de87e43"},"vehicle_type_id":"4","last_reported":1704089438,"current_range_meters":30400,"station_id":"ce4bgr92rcd13ifvqc6g","pricing_plan_id":"free"},{"bike_id":"3d0c4403-5c9c-41f7-b424-8f0b0b359a4c","system_id":"levelo_inurba_marseille","lat":43.31341,"lon":5.367098,"is_reserved":false,"is_disabled":false,"rental_uris":{"android":"levelo://app?vid=3d0c4403-5c9c-41f7-b424-8f0b0b359a4c","ios":"levelo://app?vid=3d0c4403-5c9c-41f7-b424-8f0b0b359a4c"},"vehicle_type_id":"4","last_reported":1704089438,"current_range_meters":22400,"station_id":"ce4bgr92rcd13ifvqc6g","pricing_plan_id":"free"},{"bike_id":"920b8645-9a0f-4150-bc3a-916efc7c0455","system_id":"levelo_inurba_marseille","lat":43.314811,"lon":5.373103,"is_reserved":false,"is_disabled":false,"rental_uris":{"android":"levelo://app?vid=920b8645-9a0f-4150-bc3a-916efc7c0455","ios":"levelo://app?vid=920b8645-9a0f-4150-bc3a-916efc7c0455"},"vehicle_type_id":"4","last_reported":1704089438,"current_range_meters":22400,"station_id":"ce4bgt12rcd13ifvqcd0","pricing_plan_id":"free"},{"bike_id":"889b30bc-6836-4e38-abd7-178148c049c7","system_id":"levelo_inurba_marseille","lat":43.314811,"lon":5.373103,"is_reserved":false,"is_disabled":false,"rental_uris":{"android":"levelo://app?vid=889b30bc-6836-4e38-abd7-178148c049c7","ios":"levelo://app?vid=889b30bc-6836-4e38-abd7-178148c049c7"},"vehicle_type_id":"4","last_reported":1704089438,"current_range_meters":32000,"station_id":"ce4bgt12rcd13ifvqcd0","pricing_plan_id":"free"},{"bike_id":"a67098e8-629f-466d-a7a5-082807bca2f7","system_id":"levelo_inurba_marseille","lat":43.314811,"lon":5.373104,"is_reserved":false,"is_disabled":false,"rental_uris":{"android":"levelo://app?vid=a67098e8-629f-466d-a7a5-082807bca2f7","ios":"levelo://app?vid=a67098e8-629f-466d-a7a5-082807bca2f7"},"vehicle_type_id":"4","last_reported":1704089438,"current_range_meters":30400,"station_id":"ce4bgt12rcd13ifvqcd0","pricing_plan_id":"free"},{"bike_id":"677453f6-9acf-4638-b44f-cb0bfc3710f4","system_id":"levelo_inurba_marseille","lat":43.314811,"lon":5.373103,"is_reserved":false,"is_disabled":false,"rental_uris":{"android":"levelo://app?vid=677453f6-9acf-4638-b44f-cb0bfc3710f4","ios":"levelo://app?vid=677453f6-9acf-4638-b44f-cb0bfc3710f4"},"vehicle_type_id":"4","last_reported":1704089438,"current_range_meters":14400,"station_id":"ce4bgt12rcd13ifvqcd0","pricing_plan_id":"free"},{"bike_id":"c8db761f-a274-4a11-905d-fd913fd3fbe4","system_id":"levelo_inurba_marseille","lat":43.309039,"lon":5.371797,"is_reserved":false,"is_disabled":false,"rental_uris":{"android":"levelo://app?vid=c8db761f-a274-4a11-905d-fd913fd3fbe4","ios":"levelo://app?vid=c8db761f-a274-4a11-905d-fd913fd3fbe4"},"vehicle_type_id":"4","last_reported":1704089438,"current_range_meters":28000,"station_id":"ce4bguh2rcd13ifvqckg","pricing_plan_id":"free"},{"bike_id":"42450fe8-f2b8-4fb9-b545-2a9a74f93631","system_id":"levelo_inurba_marseille","lat":43.305564,"lon":5.367106,"is_reserved":false,"is_disabled":false,"rental_uris":{"android":"levelo://app?vid=42450fe8-f2b8-4fb9-b545-2a9a74f93631","ios":"levelo://app?vid=42450fe8-f2b8-4fb9-b545-2a9a74f93631"},"vehicle_type_id":"4","last_reported":1704089438,"current_range_meters":31200,"station_id":"ce4bgrp2rcd13ifvqc9g","pricing_plan_id":"free"},{"bike_id":"a0538ff6-67fc-4099-98f2-13a25cca42ac","system_id":"levelo_inurba_marseille","lat":43.30537,"lon":5.367345,"is_reserved":false,"is_disabled":false,"rental_uris":{"android":"levelo://app?vid=a0538ff6-67fc-4099-98f2-13a25cca42ac","ios":"levelo://app?vid=a0538ff6-67fc-4099-98f2-13a25cca42ac"},"vehicle_type_id":"4","last_reported":1704089438,"current_range_meters":31200,"station_id":"ce4bgrp2rcd13ifvqc9g","pricing_plan_id":"free"},{"bike_id":"1e57225a-8327-4d54-8991-10e7eef568f4","system_id":"levelo_inurba_marseille","lat":43.305368,"lon":5.367343,"is_reserved":false,"is_disabled":false,"rental_uris":{"android":"levelo://app?vid=1e57225a-8327-4d54-8991-10e7eef568f4","ios":"levelo://app?vid=1e57225a-8327-4d54-8991-10e7eef568f4"},"vehicle_type_id":"4","last_reported":1704089438,"current_range_meters":31200,"station_id":"ce4bgrp2rcd13ifvqc9g","pricing_plan_id":"free"},{"bike_id":"6cc10ba3-514e-4b87-b859-081a0f2df958","system_id":"levelo_inurba_marseille","lat":43.305706,"lon":5.365654,"is_reserved":false,"is_disabled":false,"rental_uris":{"android":"levelo://app?vid=6cc10ba3-514e-4b87-b859-081a0f2df958","ios":"levelo://app?vid=6cc10ba3-514e-4b87-b859-081a0f2df958"},"vehicle_type_id":"4","last_reported":1704089438,"current_range_meters":24800,"station_id":"ce4bgs12rcd13ifvqcag","pricing_plan_id":"free"},{"bike_id":"b1168300-4048-42a1-90db-b6bcec8558b6","system_id":"levelo_inurba_marseille","lat":43.305989,"lon":5.37225,"is_reserved":false,"is_disabled":false,"rental_uris":{"android":"levelo://app?vid=b1168300-4048-42a1-90db-b6bcec8558b6","ios":"levelo://app?vid=b1168300-4048-42a1-90db-b6bcec8558b6"},"vehicle_type_id":"4","last_reported":1704089438,"current_range_meters":31600,"station_id":"ce4bgqh2rcd13ifvqc4g","pricing_plan_id":"free"},{"bike_id":"4111f68d-aebb-42f7-8b49-47b885edbbc0","system_id":"levelo_inurba_marseille","lat":43.305989,"lon":5.37225,"is_reserved":false,"is_disabled":false,"rental_uris":{"android":"levelo://app?vid=4111f68d-aebb-42f7-8b49-47b885edbbc0","ios":"levelo://app?vid=4111f68d-aebb-42f7-8b49-47b885edbbc0"},"vehicle_type_id":"4","last_reported":1704089438,"current_range_meters":18000,"station_id":"ce4bgqh2rcd13ifvqc4g","pricing_plan_id":"free"},{"bike_id":"d14979d8-4199-447e-94f6-8c249d32fc0b","system_id":"levelo_inurba_marseille","lat":43.311131,"lon":5.377651,"is_reserved":false,"is_disabled":false,"rental_uris":{"android":"levelo://app?vid=d14979d8-4199-447e-94f6-8c249d32fc0b","ios":"levelo://app?vid=d14979d8-4199-447e-94f6-8c249d32fc0b"},"vehicle_type_id":"4","last_reported":1704089438,"current_range_meters":27600,"station_id":"ce4bgt92rcd13ifvqcg0","pricing_plan_id":"free"},{"bike_id":"5a35c6dd-93b2-49f7-9a6e-ea28ee09d459","system_id":"levelo_inurba_marseille","lat":43.311131,"lon":5.377651,"is_reserved":false,"is_disabled":false,"rental_uris":{"android":"levelo://app?vid=5a35c6dd-93b2-49f7-9a6e-ea28ee09d459","ios":"levelo://app?vid=5a35c6dd-93b2-49f7-9a6e-ea28ee09d459"},"vehicle_type_id":"4","last_reported":1704089438,"current_range_meters":24800,"station_id":"ce4bgt92rcd13ifvqcg0","pricing_plan_id":"free"},{"bike_id":"25af9e1c-886c-4f64-92f2-5ca68e46ae4a","system_id":"levelo_inurba_marseille","lat":43.31722,"lon":5.37668,"is_reserved":false,"is_disabled":false,"rental_uris":{"android":"levelo://app?vid=25af9e1c-886c-4f64-92f2-5ca68e46ae4a","ios":"levelo://app?vid=25af9e1c-886c-4f64-92f2-5ca68e46ae4a"},"vehicle_type_id":"4","last_reported":1704089438,"current_range_meters":19200,"station_id":"","pricing_plan_id":"free"},{"bike_id":"12361c67-a6ab-4df2-b2ff-ecdb1599267d","system_id":"levelo_inurba_marseille","lat":43.307945,"lon":5.376487,"is_reserved":false,"is_disabled":false,"rental_uris":{"android":"levelo://app?vid=12361c67-a6ab-4df2-b2ff-ecdb1599267d","ios":"levelo://app?vid=12361c67-a6ab-4df2-b2ff-ecdb1599267d"},"vehicle_type_id":"4","last_reported":1704089438,"current_range_meters":30400,"station_id":"ce4bgv92rcd13ifvqcq0","pricing_plan_id":"free"},{"bike_id":"b70fb076-a113-4290-9e16-3c036d19d828","system_id":"levelo_inurba_marseille","lat":43.307945,"lon":5.376487,"is_reserved":false,"is_disabled":false,"rental_uris":{"android":"levelo://app?vid=b70fb076-a113-4290-9e16-3c036d19d828","ios":"levelo://app?vid=b70fb076-a113-4290-9e16-3c036d19d828"},"vehicle_type_id":"4","last_reported":1704089438,"current_range_meters":31600,"station_id":"ce4bgv92rcd13ifvqcq0","pricing_plan_id":"free"},{"bike_id":"815df7b1-eb70-49f9-9b93-bdef005a1639","system_id":"levelo_inurba_marseille","lat":43.284219,"lon":5.3497,"is_reserved":false,"is_disabled":false,"rental_uris":{"android":"levelo://app?vid=815df7b1-eb70-49f9-9b93-bdef005a1639","ios":"levelo://app?vid=815df7b1-eb70-49f9-9b93-bdef005a1639"},"vehicle_type_id":"4","last_reported":1704089438,"current_range_meters":30800,"station_id":"ce4bhbh2rcd13ifvqepg","pricing_plan_id":"free"},{"bike_id":"694e5b99-2d62-424a-87a3-a632ed4e788f","system_id":"levelo_inurba_marseille","lat":43.317075,"lon":5.377367,"is_reserved":false,"is_disabled":false,"rental_uris":{"android":"levelo://app?vid=694e5b99-2d62-424a-87a3-a632ed4e788f","ios":"levelo://app?vid=694e5b99-2d62-424a-87a3-a632ed4e788f"},"vehicle_type_id":"4","last_reported":1704089438,"current_range_meters":29600,"station_id":"ce4bgth2rcd13ifvqch0","pricing_plan_id":"free"},{"bike_id":"64a93320-b6f7-4f00-82e1-5c71938933c4","system_id":"levelo_inurba_marseille","lat":43.31648,"lon":5.37786,"is_reserved":false,"is_disabled":false,"rental_uris":{"android":"levelo://app?vid=64a93320-b6f7-4f00-82e1-5c71938933c4","ios":"levelo://app?vid=64a93320-b6f7-4f00-82e1-5c71938933c4"},"vehicle_type_id":"4","last_reported":1704089438,"current_range_meters":20000,"station_id":"","pricing_plan_id":"free"},{"bike_id":"e396057a-9e96-4e6d-bb6b-ed001471212f","system_id":"levelo_inurba_marseille","lat":43.317075,"lon":5.377367,"is_reserved":false,"is_disabled":false,"rental_uris":{"android":"levelo://app?vid=e396057a-9e96-4e6d-bb6b-ed001471212f","ios":"levelo://app?vid=e396057a-9e96-4e6d-bb6b-ed001471212f"},"vehicle_type_id":"4","last_reported":1704089438,"current_range_meters":28800,"station_id":"ce4bgth2rcd13ifvqch0","pricing_plan_id":"free"},{"bike_id":"b30b3d1b-ef61-4776-bd7b-61c34fd8cc81","system_id":"levelo_inurba_marseille","lat":43.317163,"lon":5.377978,"is_reserved":false,"is_disabled":false,"rental_uris":{"android":"levelo://app?vid=b30b3d1b-ef61-4776-bd7b-61c34fd8cc81","ios":"levelo://app?vid=b30b3d1b-ef61-4776-bd7b-61c34fd8cc81"},"vehicle_type_id":"4","last_reported":1704089438,"current_range_meters":0,"station_id":"","pricing_plan_id":"free"},{"bike_id":"30b109af-1814-4147-9d77-7c3db47a4ae7","system_id":"levelo_inurba_marseille","lat":43.30304,"lon":5.368987,"is_reserved":false,"is_disabled":false,"rental_uris":{"android":"levelo://app?vid=30b109af-1814-4147-9d77-7c3db47a4ae7","ios":"levelo://app?vid=30b109af-1814-4147-9d77-7c3db47a4ae7"},"vehicle_type_id":"4","last_reported":1704089438,"current_range_meters":30400,"station_id":"ce4bgqh2rcd13ifvqc5g","pricing_plan_id":"free"},{"bike_id":"6e5818dc-3972-4287-9058-8f8f2e517733","system_id":"levelo_inurba_marseille","lat":43.318017,"lon":5.378543,"is_reserved":false,"is_disabled":false,"rental_uris":{"android":"levelo://app?vid=6e5818dc-3972-4287-9058-8f8f2e517733","ios":"levelo://app?vid=6e5818dc-3972-4287-9058-8f8f2e517733"},"vehicle_type_id":"4","last_reported":1704089438,"current_range_meters":22400,"station_id":"ce4bgth2rcd13ifvqch0","pricing_plan_id":"free"},{"bike_id":"2eee3bee-8a58-4598-b69c-08fea2289695","system_id":"levelo_inurba_marseille","lat":43.315293,"lon":5.380349,"is_reserved":false,"is_disabled":false,"rental_uris":{"android":"levelo://app?vid=2eee3bee-8a58-4598-b69c-08fea2289695","ios":"levelo://app?vid=2eee3bee-8a58-4598-b69c-08fea2289695"},"vehicle_type_id":"4","last_reported":1704089438,"current_range_meters":1600,"station_id":"ce4bhsp2rcd13ifvqi50","pricing_plan_id":"free"},{"bike_id":"26f03828-da9a-4365-8a5c-33c655eef16d","system_id":"levelo_inurba_marseille","lat":43.301939,"lon":5.366286,"is_reserved":false,"is_disabled":false,"rental_uris":{"android":"levelo://app?vid=26f03828-da9a-4365-8a5c-33c655eef16d","ios":"levelo://app?vid=26f03828-da9a-4365-8a5c-33c655eef16d"},"vehicle_type_id":"4","last_reported":1704089438,"current_range_meters":28400,"station_id":"ce4bgrh2rcd13ifvqc8g","pricing_plan_id":"free"},{"bike_id":"d719e38e-bdab-435e-b50d-ec73b9c76d97","system_id":"levelo_inurba_marseille","lat":43.301939,"lon":5.366286,"is_reserved":false,"is_disabled":false,"rental_uris":{"android":"levelo://app?vid=d719e38e-bdab-435e-b50d-ec73b9c76d97","ios":"levelo://app?vid=d719e38e-bdab-435e-b50d-ec73b9c76d97"},"vehicle_type_id":"4","last_reported":1704089438,"current_range_meters":22400,"station_id":"ce4bgrh2rcd13ifvqc8g","pricing_plan_id":"free"},{"bike_id":"a5291874-f635-43ed-9c4e-b592f5564ee1","system_id":"levelo_inurba_marseille","lat":43.323616,"lon":5.363768,"is_reserved":false,"is_disabled":false,"rental_uris":{"android":"levelo://app?vid=a5291874-f635-43ed-9c4e-b592f5564ee1","ios":"levelo://app?vid=a5291874-f635-43ed-9c4e-b592f5564ee1"},"vehicle_type_id":"4","last_reported":1704089438,"current_range_meters":6000,"station_id":"","pricing_plan_id":"free"},{"bike_id":"99b233bd-57a8-4697-a302-26bfe062abd5","system_id":"levelo_inurba_marseille","lat":43.308012,"lon":5.381511,"is_reserved":false,"is_disabled":false,"rental_uris":{"android":"levelo://app?vid=99b233bd-57a8-4697-a302-26bfe062abd5","ios":"levelo://app?vid=99b233bd-57a8-4697-a302-26bfe062abd5"},"vehicle_type_id":"4","last_reported":1704089438,"current_range_meters":18400,"station_id":"ce4bgt12rcd13ifvqce0","pricing_plan_id":"free"},{"bike_id":"dffc2115-7fb4-446b-a125-f242d4063b8a","system_id":"levelo_inurba_marseille","lat":43.304708,"lon":5.379039,"is_reserved":false,"is_disabled":false,"rental_uris":{"android":"levelo://app?vid=dffc2115-7fb4-446b-a125-f242d4063b8a","ios":"levelo://app?vid=dffc2115-7fb4-446b-a125-f242d4063b8a"},"vehicle_type_id":"4","last_reported":1704089438,"current_range_meters":16000,"station_id":"","pricing_plan_id":"free"},{"bike_id":"7f6a44a1-4674-48e7-8b21-de3141981789","system_id":"levelo_inurba_marseille","lat":43.304612,"lon":5.379027,"is_reserved":false,"is_disabled":false,"rental_uris":{"android":"levelo://app?vid=7f6a44a1-4674-48e7-8b21-de3141981789","ios":"levelo://app?vid=7f6a44a1-4674-48e7-8b21-de3141981789"},"vehicle_type_id":"4","last_reported":1704089438,"current_range_meters":30000,"station_id":"ce4bgup2rcd13ifvqcn0","pricing_plan_id":"free"},{"bike_id":"6cffe203-3449-4294-a276-e8dde0533321","system_id":"levelo_inurba_marseille","lat":43.304606,"lon":5.379026,"is_reserved":false,"is_disabled":false,"rental_uris":{"android":"levelo://app?vid=6cffe203-3449-4294-a276-e8dde0533321","ios":"levelo://app?vid=6cffe203-3449-4294-a276-e8dde0533321"},"vehicle_type_id":"4","last_reported":1704089438,"current_range_meters":30400,"station_id":"ce4bgup2rcd13ifvqcn0","pricing_plan_id":"free"},{"bike_id":"79f0d8a4-334f-4f3c-a8df-bf0b7ddfd4c9","system_id":"levelo_inurba_marseille","lat":43.324771,"lon":5.36557,"is_reserved":false,"is_disabled":false,"rental_uris":{"android":"levelo://app?vid=79f0d8a4-334f-4f3c-a8df-bf0b7ddfd4c9","ios":"levelo://app?vid=79f0d8a4-334f-4f3c-a8df-bf0b7ddfd4c9"},"vehicle_type_id":"4","last_reported":1704089438,"current_range_meters":7600,"station_id":"ce4bhs12rcd13ifvqhvg","pricing_plan_id":"free"},{"bike_id":"f1c4a9f6-f95e-4244-be32-9b3daec9f8d4","system_id":"levelo_inurba_marseille","lat":43.319935,"lon":5.381699,"is_reserved":false,"is_disabled":false,"rental_uris":{"android":"levelo://app?vid=f1c4a9f6-f95e-4244-be32-9b3daec9f8d4","ios":"levelo://app?vid=f1c4a9f6-f95e-4244-be32-9b3daec9f8d4"},"vehicle_type_id":"4","last_reported":1704089438,"current_range_meters":26800,"station_id":"ce4bhr12rcd13ifvqhpg","pricing_plan_id":"free"},{"bike_id":"5b4b059d-6ba3-4926-96a6-c99691a50e24","system_id":"levelo_inurba_marseille","lat":43.313571,"lon":5.384829,"is_reserved":false,"is_disabled":false,"rental_uris":{"android":"levelo://app?vid=5b4b059d-6ba3-4926-96a6-c99691a50e24","ios":"levelo://app?vid=5b4b059d-6ba3-4926-96a6-c99691a50e24"},"vehicle_type_id":"4","last_reported":1704089438,"current_range_meters":31200,"station_id":"ce4bgt92rcd13ifvqcf0","pricing_plan_id":"free"},{"bike_id":"3c847989-638b-46f4-99eb-472ba4fee795","system_id":"levelo_inurba_marseille","lat":43.299724,"lon":5.371829,"is_reserved":false,"is_disabled":false,"rental_uris":{"android":"levelo://app?vid=3c847989-638b-46f4-99eb-472ba4fee795","ios":"levelo://app?vid=3c847989-638b-46f4-99eb-472ba4fee795"},"vehicle_type_id":"4","last_reported":1704089438,"current_range_meters":2000,"station_id":"ce4bgr92rcd13ifvqc7g","pricing_plan_id":"free"},{"bike_id":"5a7b6f71-2a1a-475e-9087-fdbf7ac8818b","system_id":"levelo_inurba_marseille","lat":43.299893,"lon":5.37437,"is_reserved":false,"is_disabled":false,"rental_uris":{"android":"levelo://app?vid=5a7b6f71-2a1a-475e-9087-fdbf7ac8818b","ios":"levelo://app?vid=5a7b6f71-2a1a-475e-9087-fdbf7ac8818b"},"vehicle_type_id":"4","last_reported":1704089438,"current_range_meters":24000,"station_id":"","pricing_plan_id":"free"},{"bike_id":"ea7074d7-b7c9-4941-82c2-dff391bae9cb","system_id":"levelo_inurba_marseille","lat":43.32791,"lon":5.36697,"is_reserved":false,"is_disabled":false,"rental_uris":{"android":"levelo://app?vid=ea7074d7-b7c9-4941-82c2-dff391bae9cb","ios":"levelo://app?vid=ea7074d7-b7c9-4941-82c2-dff391bae9cb"},"vehicle_type_id":"4","last_reported":1704089438,"current_range_meters":22000,"station_id":"ce4bhs92rcd13ifvqi0g","pricing_plan_id":"free"},{"bike_id":"055b346b-b389-4ce2-9522-40c1c31db238","system_id":"levelo_inurba_marseille","lat":43.29784,"lon":5.3711,"is_reserved":false,"is_disabled":false,"rental_uris":{"android":"levelo://app?vid=055b346b-b389-4ce2-9522-40c1c31db238","ios":"levelo://app?vid=055b346b-b389-4ce2-9522-40c1c31db238"},"vehicle_type_id":"4","last_reported":1704089438,"current_range_meters":23600,"station_id":"ce4bgop2rcd13ifvqc1g","pricing_plan_id":"free"},{"bike_id":"df7848f8-31ab-473f-9a21-20a54afe0084","system_id":"levelo_inurba_marseille","lat":43.322912,"lon":5.382602,"is_reserved":false,"is_disabled":false,"rental_uris":{"android":"levelo://app?vid=df7848f8-31ab-473f-9a21-20a54afe0084","ios":"levelo://app?vid=df7848f8-31ab-473f-9a21-20a54afe0084"},"vehicle_type_id":"4","last_reported":1704089438,"current_range_meters":13600,"station_id":"","pricing_plan_id":"free"},{"bike_id":"7dacb968-7456-46f9-98a4-1c1aa118f5e2","system_id":"levelo_inurba_marseille","lat":43.32289,"lon":5.38269,"is_reserved":false,"is_disabled":false,"rental_uris":{"android":"levelo://app?vid=7dacb968-7456-46f9-98a4-1c1aa118f5e2","ios":"levelo://app?vid=7dacb968-7456-46f9-98a4-1c1aa118f5e2"},"vehicle_type_id":"4","last_reported":1704089438,"current_range_meters":22800,"station_id":"ce4bhr12rcd13ifvqhqg","pricing_plan_id":"free"},{"bike_id":"a814d147-e775-45a2-b5cb-60efdd10d17b","system_id":"levelo_inurba_marseille","lat":43.322872,"lon":5.382756,"is_reserved":false,"is_disabled":false,"rental_uris":{"android":"levelo://app?vid=a814d147-e775-45a2-b5cb-60efdd10d17b","ios":"levelo://app?vid=a814d147-e775-45a2-b5cb-60efdd10d17b"},"vehicle_type_id":"4","last_reported":1704089438,"current_range_meters":31600,"station_id":"ce4bhr12rcd13ifvqhqg","pricing_plan_id":"free"},{"bike_id":"7892f7ad-391a-4b01-9629-9863c77731a1","system_id":"levelo_inurba_marseille","lat":43.32288,"lon":5.38273,"is_reserved":false,"is_disabled":false,"rental_uris":{"android":"levelo://app?vid=7892f7ad-391a-4b01-9629-9863c77731a1","ios":"levelo://app?vid=7892f7ad-391a-4b01-9629-9863c77731a1"},"vehicle_type_id":"4","last_reported":1704089438,"current_range_meters":31200,"station_id":"ce4bhr12rcd13ifvqhqg","pricing_plan_id":"free"},{"bike_id":"a677cd10-a09b-4b2e-bffd-45b05d2c9229","system_id":"levelo_inurba_marseille","lat":43.328233,"lon":5.366769,"is_reserved":false,"is_disabled":false,"rental_uris":{"android":"levelo://app?vid=a677cd10-a09b-4b2e-bffd-45b05d2c9229","ios":"levelo://app?vid=a677cd10-a09b-4b2e-bffd-45b05d2c9229"},"vehicle_type_id":"4","last_reported":1704089438,"current_range_meters":10000,"station_id":"ce4bhs92rcd13ifvqi0g","pricing_plan_id":"free"},{"bike_id":"3406ac08-144e-419c-8a8c-9c89910b5b78","system_id":"levelo_inurba_marseille","lat":43.328248,"lon":5.36683,"is_reserved":false,"is_disabled":false,"rental_uris":{"android":"levelo://app?vid=3406ac08-144e-419c-8a8c-9c89910b5b78","ios":"levelo://app?vid=3406ac08-144e-419c-8a8c-9c89910b5b78"},"vehicle_type_id":"4","last_reported":1704089438,"current_range_meters":24000,"station_id":"ce4bhs92rcd13ifvqi0g","pricing_plan_id":"free"},{"bike_id":"904f83aa-e9ab-401d-84c1-9edfed82b884","system_id":"levelo_inurba_marseille","lat":43.32829,"lon":5.36683,"is_reserved":false,"is_disabled":false,"rental_uris":{"android":"levelo://app?vid=904f83aa-e9ab-401d-84c1-9edfed82b884","ios":"levelo://app?vid=904f83aa-e9ab-401d-84c1-9edfed82b884"},"vehicle_type_id":"4","last_reported":1704089438,"current_range_meters":19200,"station_id":"ce4bhs92rcd13ifvqi0g","pricing_plan_id":"free"},{"bike_id":"8233d320-3015-483d-9317-9f5ea8045c87","system_id":"levelo_inurba_marseille","lat":43.3283,"lon":5.36692,"is_reserved":false,"is_disabled":false,"rental_uris":{"android":"levelo://app?vid=8233d320-3015-483d-9317-9f5ea8045c87","ios":"levelo://app?vid=8233d320-3015-483d-9317-9f5ea8045c87"},"vehicle_type_id":"4","last_reported":1704089438,"current_range_meters":8400,"station_id":"ce4bhs92rcd13ifvqi0g","pricing_plan_id":"free"},{"bike_id":"9d832f49-b330-492c-bca5-26b211dfab4e","system_id":"levelo_inurba_marseille","lat":43.3283,"lon":5.36675,"is_reserved":false,"is_disabled":false,"rental_uris":{"android":"levelo://app?vid=9d832f49-b330-492c-bca5-26b211dfab4e","ios":"levelo://app?vid=9d832f49-b330-492c-bca5-26b211dfab4e"},"vehicle_type_id":"4","last_reported":1704089438,"current_range_meters":12800,"station_id":"ce4bhs92rcd13ifvqi0g","pricing_plan_id":"free"},{"bike_id":"08da10e3-f904-47dc-873c-e910b4def063","system_id":"levelo_inurba_marseille","lat":43.328371,"lon":5.366912,"is_reserved":false,"is_disabled":false,"rental_uris":{"android":"levelo://app?vid=08da10e3-f904-47dc-873c-e910b4def063","ios":"levelo://app?vid=08da10e3-f904-47dc-873c-e910b4def063"},"vehicle_type_id":"4","last_reported":1704089438,"current_range_meters":0,"station_id":"ce4bhs92rcd13ifvqi0g","pricing_plan_id":"free"},{"bike_id":"370cccf7-c9ba-46c2-819b-c8e8cacc4c21","system_id":"levelo_inurba_marseille","lat":43.3277,"lon":5.37458,"is_reserved":false,"is_disabled":false,"rental_uris":{"android":"levelo://app?vid=370cccf7-c9ba-46c2-819b-c8e8cacc4c21","ios":"levelo://app?vid=370cccf7-c9ba-46c2-819b-c8e8cacc4c21"},"vehicle_type_id":"4","last_reported":1704089438,"current_range_meters":13600,"station_id":"","pricing_plan_id":"free"},{"bike_id":"921b424d-ad0d-4c7a-9d74-66e3a49bfa19","system_id":"levelo_inurba_marseille","lat":43.32934,"lon":5.36612,"is_reserved":false,"is_disabled":false,"rental_uris":{"android":"levelo://app?vid=921b424d-ad0d-4c7a-9d74-66e3a49bfa19","ios":"levelo://app?vid=921b424d-ad0d-4c7a-9d74-66e3a49bfa19"},"vehicle_type_id":"4","last_reported":1704089438,"current_range_meters":0,"station_id":"","pricing_plan_id":"free"},{"bike_id":"aab083fa-1444-4367-b16b-095813458a80","system_id":"levelo_inurba_marseille","lat":43.29573,"lon":5.367355,"is_reserved":false,"is_disabled":false,"rental_uris":{"android":"levelo://app?vid=aab083fa-1444-4367-b16b-095813458a80","ios":"levelo://app?vid=aab083fa-1444-4367-b16b-095813458a80"},"vehicle_type_id":"4","last_reported":1704089438,"current_range_meters":26400,"station_id":"ce4bgph2rcd13ifvqc2g","pricing_plan_id":"free"},{"bike_id":"e2920004-b3ee-4e63-aa63-8a4d73a1bb8b","system_id":"levelo_inurba_marseille","lat":43.309589,"lon":5.390258,"is_reserved":false,"is_disabled":false,"rental_uris":{"android":"levelo://app?vid=e2920004-b3ee-4e63-aa63-8a4d73a1bb8b","ios":"levelo://app?vid=e2920004-b3ee-4e63-aa63-8a4d73a1bb8b"},"vehicle_type_id":"4","last_reported":1704089438,"current_range_meters":31600,"station_id":"ce4bgup2rcd13ifvqco0","pricing_plan_id":"free"},{"bike_id":"0598afd4-6662-4bf3-a074-8543ee4dae5f","system_id":"levelo_inurba_marseille","lat":43.309589,"lon":5.390258,"is_reserved":false,"is_disabled":false,"rental_uris":{"android":"levelo://app?vid=0598afd4-6662-4bf3-a074-8543ee4dae5f","ios":"levelo://app?vid=0598afd4-6662-4bf3-a074-8543ee4dae5f"},"vehicle_type_id":"4","last_reported":1704089438,"current_range_meters":14800,"station_id":"ce4bgup2rcd13ifvqco0","pricing_plan_id":"free"},{"bike_id":"35c083ea-e8bd-4bbe-9aa4-7c89690037a1","system_id":"levelo_inurba_marseille","lat":43.309589,"lon":5.390258,"is_reserved":false,"is_disabled":false,"rental_uris":{"android":"levelo://app?vid=35c083ea-e8bd-4bbe-9aa4-7c89690037a1","ios":"levelo://app?vid=35c083ea-e8bd-4bbe-9aa4-7c89690037a1"},"vehicle_type_id":"4","last_reported":1704089438,"current_range_meters":27600,"station_id":"ce4bgup2rcd13ifvqco0","pricing_plan_id":"free"},{"bike_id":"0ca1108b-ac2a-4b6e-8b4d-4626ed1dc955","system_id":"levelo_inurba_marseille","lat":43.29572,"lon":5.37414,"is_reserved":false,"is_disabled":false,"rental_uris":{"android":"levelo://app?vid=0ca1108b-ac2a-4b6e-8b4d-4626ed1dc955","ios":"levelo://app?vid=0ca1108b-ac2a-4b6e-8b4d-4626ed1dc955"},"vehicle_type_id":"4","last_reported":1704089438,"current_range_meters":4400,"station_id":"","pricing_plan_id":"free"},{"bike_id":"d60802d6-4f47-444a-b234-883690eec05b","system_id":"levelo_inurba_marseille","lat":43.33062,"lon":5.3627,"is_reserved":false,"is_disabled":false,"rental_uris":{"android":"levelo://app?vid=d60802d6-4f47-444a-b234-883690eec05b","ios":"levelo://app?vid=d60802d6-4f47-444a-b234-883690eec05b"},"vehicle_type_id":"4","last_reported":1704089438,"current_range_meters":20800,"station_id":"","pricing_plan_id":"free"},{"bike_id":"7119845d-00aa-4d9f-be8c-fc97d41f1380","system_id":"levelo_inurba_marseille","lat":43.297594,"lon":5.381134,"is_reserved":false,"is_disabled":false,"rental_uris":{"android":"levelo://app?vid=7119845d-00aa-4d9f-be8c-fc97d41f1380","ios":"levelo://app?vid=7119845d-00aa-4d9f-be8c-fc97d41f1380"},"vehicle_type_id":"4","last_reported":1704089438,"current_range_meters":9200,"station_id":"ce4bgip2rcd13ifvqbb0","pricing_plan_id":"free"},{"bike_id":"fac23ac6-2740-4d73-b5a1-28ac6e8f1b60","system_id":"levelo_inurba_marseille","lat":43.299707,"lon":5.384859,"is_reserved":false,"is_disabled":false,"rental_uris":{"android":"levelo://app?vid=fac23ac6-2740-4d73-b5a1-28ac6e8f1b60","ios":"levelo://app?vid=fac23ac6-2740-4d73-b5a1-28ac6e8f1b60"},"vehicle_type_id":"4","last_reported":1704089438,"current_range_meters":3600,"station_id":"ce4bgj92rcd13ifvqbd0","pricing_plan_id":"free"},{"bike_id":"2aa83930-551e-4463-823c-68df542ebafa","system_id":"levelo_inurba_marseille","lat":43.29974,"lon":5.38485,"is_reserved":false,"is_disabled":false,"rental_uris":{"android":"levelo://app?vid=2aa83930-551e-4463-823c-68df542ebafa","ios":"levelo://app?vid=2aa83930-551e-4463-823c-68df542ebafa"},"vehicle_type_id":"4","last_reported":1704089438,"current_range_meters":30000,"station_id":"ce4bgj92rcd13ifvqbd0","pricing_plan_id":"free"},{"bike_id":"fbe9cf4d-5756-4294-b6ea-069aba55d2fb","system_id":"levelo_inurba_marseille","lat":43.32367,"lon":5.388836,"is_reserved":false,"is_disabled":false,"rental_uris":{"android":"levelo://app?vid=fbe9cf4d-5756-4294-b6ea-069aba55d2fb","ios":"levelo://app?vid=fbe9cf4d-5756-4294-b6ea-069aba55d2fb"},"vehicle_type_id":"4","last_reported":1704089438,"current_range_meters":30800,"station_id":"ce4bhqp2rcd13ifvqhog","pricing_plan_id":"free"},{"bike_id":"fb64b198-2a57-4dbc-a2a6-55bc6bb760f2","system_id":"levelo_inurba_marseille","lat":43.32367,"lon":5.388836,"is_reserved":false,"is_disabled":false,"rental_uris":{"android":"levelo://app?vid=fb64b198-2a57-4dbc-a2a6-55bc6bb760f2","ios":"levelo://app?vid=fb64b198-2a57-4dbc-a2a6-55bc6bb760f2"},"vehicle_type_id":"4","last_reported":1704089438,"current_range_meters":30800,"station_id":"ce4bhqp2rcd13ifvqhog","pricing_plan_id":"free"},{"bike_id":"545ffa0b-32c2-45c2-b00c-94e9432aecc7","system_id":"levelo_inurba_marseille","lat":43.32367,"lon":5.388836,"is_reserved":false,"is_disabled":false,"rental_uris":{"android":"levelo://app?vid=545ffa0b-32c2-45c2-b00c-94e9432aecc7","ios":"levelo://app?vid=545ffa0b-32c2-45c2-b00c-94e9432aecc7"},"vehicle_type_id":"4","last_reported":1704089438,"current_range_meters":30800,"station_id":"ce4bhqp2rcd13ifvqhog","pricing_plan_id":"free"},{"bike_id":"4534b23c-3b2f-44a9-95fd-ae6d2d7ab535","system_id":"levelo_inurba_marseille","lat":43.292749,"lon":5.368402,"is_reserved":false,"is_disabled":false,"rental_uris":{"android":"levelo://app?vid=4534b23c-3b2f-44a9-95fd-ae6d2d7ab535","ios":"levelo://app?vid=4534b23c-3b2f-44a9-95fd-ae6d2d7ab535"},"vehicle_type_id":"4","last_reported":1704089438,"current_range_meters":19200,"station_id":"ce4bhbp2rcd13ifvqesg","pricing_plan_id":"free"},{"bike_id":"e271404d-e611-4efd-bff9-6dcccf613cd9","system_id":"levelo_inurba_marseille","lat":43.305994,"lon":5.393687,"is_reserved":false,"is_disabled":false,"rental_uris":{"android":"levelo://app?vid=e271404d-e611-4efd-bff9-6dcccf613cd9","ios":"levelo://app?vid=e271404d-e611-4efd-bff9-6dcccf613cd9"},"vehicle_type_id":"4","last_reported":1704089438,"current_range_meters":26400,"station_id":"ce4bh0p2rcd13ifvqd80","pricing_plan_id":"free"},{"bike_id":"f30338ce-6fc7-4ff2-96b9-94d207f73ed7","system_id":"levelo_inurba_marseille","lat":43.29601,"lon":5.381084,"is_reserved":false,"is_disabled":false,"rental_uris":{"android":"levelo://app?vid=f30338ce-6fc7-4ff2-96b9-94d207f73ed7","ios":"levelo://app?vid=f30338ce-6fc7-4ff2-96b9-94d207f73ed7"},"vehicle_type_id":"4","last_reported":1704089438,"current_range_meters":25200,"station_id":"ce4bgl12rcd13ifvqbo0","pricing_plan_id":"free"},{"bike_id":"aeb5e4fa-6ed2-4234-8625-b1d06e6652f3","system_id":"levelo_inurba_marseille","lat":43.305994,"lon":5.393687,"is_reserved":false,"is_disabled":false,"rental_uris":{"android":"levelo://app?vid=aeb5e4fa-6ed2-4234-8625-b1d06e6652f3","ios":"levelo://app?vid=aeb5e4fa-6ed2-4234-8625-b1d06e6652f3"},"vehicle_type_id":"4","last_reported":1704089438,"current_range_meters":21600,"station_id":"ce4bh0p2rcd13ifvqd80","pricing_plan_id":"free"},{"bike_id":"c05d138a-9eaa-4578-84f8-5eb99c852b0c","system_id":"levelo_inurba_marseille","lat":43.293133,"lon":5.37843,"is_reserved":false,"is_disabled":false,"rental_uris":{"android":"levelo://app?vid=c05d138a-9eaa-4578-84f8-5eb99c852b0c","ios":"levelo://app?vid=c05d138a-9eaa-4578-84f8-5eb99c852b0c"},"vehicle_type_id":"4","last_reported":1704089438,"current_range_meters":400,"station_id":"","pricing_plan_id":"free"},{"bike_id":"565647b4-bf55-458e-b5d5-cae0e929a588","system_id":"levelo_inurba_marseille","lat":43.309038,"lon":5.396546,"is_reserved":false,"is_disabled":false,"rental_uris":{"android":"levelo://app?vid=565647b4-bf55-458e-b5d5-cae0e929a588","ios":"levelo://app?vid=565647b4-bf55-458e-b5d5-cae0e929a588"},"vehicle_type_id":"4","last_reported":1704089438,"current_range_meters":28800,"station_id":"ce4bh012rcd13ifvqcv0","pricing_plan_id":"free"},{"bike_id":"668942d6-33c2-433a-a4c3-8da233302454","system_id":"levelo_inurba_marseille","lat":43.313291,"lon":5.396838,"is_reserved":false,"is_disabled":false,"rental_uris":{"android":"levelo://app?vid=668942d6-33c2-433a-a4c3-8da233302454","ios":"levelo://app?vid=668942d6-33c2-433a-a4c3-8da233302454"},"vehicle_type_id":"4","last_reported":1704089438,"current_range_meters":31200,"station_id":"ce4bgvp2rcd13ifvqcu0","pricing_plan_id":"free"},{"bike_id":"3febb153-9788-41dd-864c-580236eaa610","system_id":"levelo_inurba_marseille","lat":43.30885,"lon":5.396497,"is_reserved":false,"is_disabled":false,"rental_uris":{"android":"levelo://app?vid=3febb153-9788-41dd-864c-580236eaa610","ios":"levelo://app?vid=3febb153-9788-41dd-864c-580236eaa610"},"vehicle_type_id":"4","last_reported":1704089438,"current_range_meters":14400,"station_id":"ce4bh012rcd13ifvqcv0","pricing_plan_id":"free"},{"bike_id":"97206d5e-8a76-484c-8677-a7a0ee0a8a9a","system_id":"levelo_inurba_marseille","lat":43.294162,"lon":5.386292,"is_reserved":false,"is_disabled":false,"rental_uris":{"android":"levelo://app?vid=97206d5e-8a76-484c-8677-a7a0ee0a8a9a","ios":"levelo://app?vid=97206d5e-8a76-484c-8677-a7a0ee0a8a9a"},"vehicle_type_id":"4","last_reported":1704089438,"current_range_meters":8400,"station_id":"ce4bh2h2rcd13ifvqdh0","pricing_plan_id":"free"},{"bike_id":"bf077859-eea7-406b-9e9d-cf5eeaa80c9e","system_id":"levelo_inurba_marseille","lat":43.28933,"lon":5.36634,"is_reserved":false,"is_disabled":false,"rental_uris":{"android":"levelo://app?vid=bf077859-eea7-406b-9e9d-cf5eeaa80c9e","ios":"levelo://app?vid=bf077859-eea7-406b-9e9d-cf5eeaa80c9e"},"vehicle_type_id":"4","last_reported":1704089438,"current_range_meters":15200,"station_id":"ce4bhap2rcd13ifvqek0","pricing_plan_id":"free"},{"bike_id":"6af5d335-5cd1-4585-a6f0-a6e99c645196","system_id":"levelo_inurba_marseille","lat":43.289468,"lon":5.363719,"is_reserved":false,"is_disabled":false,"rental_uris":{"android":"levelo://app?vid=6af5d335-5cd1-4585-a6f0-a6e99c645196","ios":"levelo://app?vid=6af5d335-5cd1-4585-a6f0-a6e99c645196"},"vehicle_type_id":"4","last_reported":1704089438,"current_range_meters":29600,"station_id":"ce4bhc92rcd13ifvqetg","pricing_plan_id":"free"},{"bike_id":"206c8bf1-d0c3-4c60-ad8c-ce2db092bd1c","system_id":"levelo_inurba_marseille","lat":43.290103,"lon":5.356114,"is_reserved":false,"is_disabled":false,"rental_uris":{"android":"levelo://app?vid=206c8bf1-d0c3-4c60-ad8c-ce2db092bd1c","ios":"levelo://app?vid=206c8bf1-d0c3-4c60-ad8c-ce2db092bd1c"},"vehicle_type_id":"4","last_reported":1704089438,"current_range_meters":23200,"station_id":"ce4bhb92rcd13ifvqen0","pricing_plan_id":"free"},{"bike_id":"6e2658c3-ee1d-4a87-bc80-9fc40d9c8421","system_id":"levelo_inurba_marseille","lat":43.284219,"lon":5.3497,"is_reserved":false,"is_disabled":false,"rental_uris":{"android":"levelo://app?vid=6e2658c3-ee1d-4a87-bc80-9fc40d9c8421","ios":"levelo://app?vid=6e2658c3-ee1d-4a87-bc80-9fc40d9c8421"},"vehicle_type_id":"4","last_reported":1704089438,"current_range_meters":27600,"station_id":"ce4bhbh2rcd13ifvqepg","pricing_plan_id":"free"},{"bike_id":"e596a0c7-a181-47d0-ac60-f28a12e9b7b0","system_id":"levelo_inurba_marseille","lat":43.290044,"lon":5.356145,"is_reserved":false,"is_disabled":false,"rental_uris":{"android":"levelo://app?vid=e596a0c7-a181-47d0-ac60-f28a12e9b7b0","ios":"levelo://app?vid=e596a0c7-a181-47d0-ac60-f28a12e9b7b0"},"vehicle_type_id":"4","last_reported":1704089438,"current_range_meters":23200,"station_id":"","pricing_plan_id":"free"},{"bike_id":"7e0d4bad-c9b4-44eb-86a2-10a5d0159802","system_id":"levelo_inurba_marseille","lat":43.297755,"lon":5.39333,"is_reserved":false,"is_disabled":false,"rental_uris":{"android":"levelo://app?vid=7e0d4bad-c9b4-44eb-86a2-10a5d0159802","ios":"levelo://app?vid=7e0d4bad-c9b4-44eb-86a2-10a5d0159802"},"vehicle_type_id":"4","last_reported":1704089438,"current_range_meters":18000,"station_id":"chh1huq6cuj3fo74tm60","pricing_plan_id":"free"},{"bike_id":"2b7df1ba-d4c7-47bd-ad62-4d6e0668f1a4","system_id":"levelo_inurba_marseille","lat":43.297852,"lon":5.393436,"is_reserved":false,"is_disabled":false,"rental_uris":{"android":"levelo://app?vid=2b7df1ba-d4c7-47bd-ad62-4d6e0668f1a4","ios":"levelo://app?vid=2b7df1ba-d4c7-47bd-ad62-4d6e0668f1a4"},"vehicle_type_id":"4","last_reported":1704089438,"current_range_meters":15600,"station_id":"chh1huq6cuj3fo74tm60","pricing_plan_id":"free"},{"bike_id":"fdfb70d8-9890-422e-9251-12e030bcfb72","system_id":"levelo_inurba_marseille","lat":43.330442,"lon":5.389148,"is_reserved":false,"is_disabled":false,"rental_uris":{"android":"levelo://app?vid=fdfb70d8-9890-422e-9251-12e030bcfb72","ios":"levelo://app?vid=fdfb70d8-9890-422e-9251-12e030bcfb72"},"vehicle_type_id":"4","last_reported":1704089438,"current_range_meters":19200,"station_id":"ce4bhr92rcd13ifvqhrg","pricing_plan_id":"free"},{"bike_id":"3c5fc9fe-c078-404a-80d7-321a790bcff9","system_id":"levelo_inurba_marseille","lat":43.295169,"lon":5.390426,"is_reserved":false,"is_disabled":false,"rental_uris":{"android":"levelo://app?vid=3c5fc9fe-c078-404a-80d7-321a790bcff9","ios":"levelo://app?vid=3c5fc9fe-c078-404a-80d7-321a790bcff9"},"vehicle_type_id":"4","last_reported":1704089438,"current_range_meters":800,"station_id":"ce4bh3p2rcd13ifvqdp0","pricing_plan_id":"free"},{"bike_id":"13d41c86-d361-4b17-ae49-6b5491dd4e85","system_id":"levelo_inurba_marseille","lat":43.330442,"lon":5.389148,"is_reserved":false,"is_disabled":false,"rental_uris":{"android":"levelo://app?vid=13d41c86-d361-4b17-ae49-6b5491dd4e85","ios":"levelo://app?vid=13d41c86-d361-4b17-ae49-6b5491dd4e85"},"vehicle_type_id":"4","last_reported":1704089438,"current_range_meters":30000,"station_id":"ce4bhr92rcd13ifvqhrg","pricing_plan_id":"free"},{"bike_id":"f5f383b0-6363-402d-95af-f2b428f4ca84","system_id":"levelo_inurba_marseille","lat":43.295169,"lon":5.390426,"is_reserved":false,"is_disabled":false,"rental_uris":{"android":"levelo://app?vid=f5f383b0-6363-402d-95af-f2b428f4ca84","ios":"levelo://app?vid=f5f383b0-6363-402d-95af-f2b428f4ca84"},"vehicle_type_id":"4","last_reported":1704089438,"current_range_meters":21200,"station_id":"ce4bh3p2rcd13ifvqdp0","pricing_plan_id":"free"},{"bike_id":"7d3f0707-26fc-41d0-8f63-88674e57e19c","system_id":"levelo_inurba_marseille","lat":43.330442,"lon":5.389148,"is_reserved":false,"is_disabled":false,"rental_uris":{"android":"levelo://app?vid=7d3f0707-26fc-41d0-8f63-88674e57e19c","ios":"levelo://app?vid=7d3f0707-26fc-41d0-8f63-88674e57e19c"},"vehicle_type_id":"4","last_reported":1704089438,"current_range_meters":12800,"station_id":"ce4bhr92rcd13ifvqhrg","pricing_plan_id":"free"},{"bike_id":"0792451a-b41a-49fc-9eee-66d8d0a36133","system_id":"levelo_inurba_marseille","lat":43.295169,"lon":5.390426,"is_reserved":false,"is_disabled":false,"rental_uris":{"android":"levelo://app?vid=0792451a-b41a-49fc-9eee-66d8d0a36133","ios":"levelo://app?vid=0792451a-b41a-49fc-9eee-66d8d0a36133"},"vehicle_type_id":"4","last_reported":1704089438,"current_range_meters":22800,"station_id":"ce4bh3p2rcd13ifvqdp0","pricing_plan_id":"free"},{"bike_id":"983ae15b-e6ac-4e63-857d-b1c023399b7b","system_id":"levelo_inurba_marseille","lat":43.330442,"lon":5.389148,"is_reserved":false,"is_disabled":false,"rental_uris":{"android":"levelo://app?vid=983ae15b-e6ac-4e63-857d-b1c023399b7b","ios":"levelo://app?vid=983ae15b-e6ac-4e63-857d-b1c023399b7b"},"vehicle_type_id":"4","last_reported":1704089438,"current_range_meters":28800,"station_id":"ce4bhr92rcd13ifvqhrg","pricing_plan_id":"free"},{"bike_id":"52a3eff9-1d33-4959-ae19-efa7c8d94de2","system_id":"levelo_inurba_marseille","lat":43.29601,"lon":5.381084,"is_reserved":false,"is_disabled":false,"rental_uris":{"android":"levelo://app?vid=52a3eff9-1d33-4959-ae19-efa7c8d94de2","ios":"levelo://app?vid=52a3eff9-1d33-4959-ae19-efa7c8d94de2"},"vehicle_type_id":"4","last_reported":1704089438,"current_range_meters":27200,"station_id":"ce4bgl12rcd13ifvqbo0","pricing_plan_id":"free"},{"bike_id":"51547583-08e8-454e-9693-b465f0327b02","system_id":"levelo_inurba_marseille","lat":43.28856,"lon":5.358371,"is_reserved":false,"is_disabled":false,"rental_uris":{"android":"levelo://app?vid=51547583-08e8-454e-9693-b465f0327b02","ios":"levelo://app?vid=51547583-08e8-454e-9693-b465f0327b02"},"vehicle_type_id":"4","last_reported":1704089438,"current_range_meters":31200,"station_id":"ce4bhb12rcd13ifvqem0","pricing_plan_id":"free"},{"bike_id":"847fd9f7-26a3-4e89-b060-88498a4c5875","system_id":"levelo_inurba_marseille","lat":43.312609,"lon":5.401662,"is_reserved":false,"is_disabled":false,"rental_uris":{"android":"levelo://app?vid=847fd9f7-26a3-4e89-b060-88498a4c5875","ios":"levelo://app?vid=847fd9f7-26a3-4e89-b060-88498a4c5875"},"vehicle_type_id":"4","last_reported":1704089438,"current_range_meters":0,"station_id":"ce4bh092rcd13ifvqd30","pricing_plan_id":"free"},{"bike_id":"0a4ff4c2-5407-45a7-8bd8-681bae981765","system_id":"levelo_inurba_marseille","lat":43.312609,"lon":5.401662,"is_reserved":false,"is_disabled":false,"rental_uris":{"android":"levelo://app?vid=0a4ff4c2-5407-45a7-8bd8-681bae981765","ios":"levelo://app?vid=0a4ff4c2-5407-45a7-8bd8-681bae981765"},"vehicle_type_id":"4","last_reported":1704089438,"current_range_meters":0,"station_id":"ce4bh092rcd13ifvqd30","pricing_plan_id":"free"},{"bike_id":"d628ee32-1c50-4c11-9b99-9f24a97552ff","system_id":"levelo_inurba_marseille","lat":43.309371,"lon":5.401449,"is_reserved":false,"is_disabled":false,"rental_uris":{"android":"levelo://app?vid=d628ee32-1c50-4c11-9b99-9f24a97552ff","ios":"levelo://app?vid=d628ee32-1c50-4c11-9b99-9f24a97552ff"},"vehicle_type_id":"4","last_reported":1704089438,"current_range_meters":24400,"station_id":"ce4bgvp2rcd13ifvqct0","pricing_plan_id":"free"},{"bike_id":"d731d671-a3f5-4243-ac4b-1201edd40e88","system_id":"levelo_inurba_marseille","lat":43.284217,"lon":5.349697,"is_reserved":false,"is_disabled":false,"rental_uris":{"android":"levelo://app?vid=d731d671-a3f5-4243-ac4b-1201edd40e88","ios":"levelo://app?vid=d731d671-a3f5-4243-ac4b-1201edd40e88"},"vehicle_type_id":"4","last_reported":1704089438,"current_range_meters":31600,"station_id":"ce4bhbh2rcd13ifvqepg","pricing_plan_id":"free"},{"bike_id":"62f568c2-d756-464b-b542-d7c9a64c2b3c","system_id":"levelo_inurba_marseille","lat":43.28727,"lon":5.36078,"is_reserved":false,"is_disabled":false,"rental_uris":{"android":"levelo://app?vid=62f568c2-d756-464b-b542-d7c9a64c2b3c","ios":"levelo://app?vid=62f568c2-d756-464b-b542-d7c9a64c2b3c"},"vehicle_type_id":"4","last_reported":1704089438,"current_range_meters":28400,"station_id":"cki0cbj6b192h4jlfktg","pricing_plan_id":"free"},{"bike_id":"8f86b6e9-fc13-4a10-84aa-29b2d74c7608","system_id":"levelo_inurba_marseille","lat":43.286591,"lon":5.363346,"is_reserved":false,"is_disabled":false,"rental_uris":{"android":"levelo://app?vid=8f86b6e9-fc13-4a10-84aa-29b2d74c7608","ios":"levelo://app?vid=8f86b6e9-fc13-4a10-84aa-29b2d74c7608"},"vehicle_type_id":"4","last_reported":1704089438,"current_range_meters":26400,"station_id":"ce4bhah2rcd13ifvqej0","pricing_plan_id":"free"},{"bike_id":"753348a2-941d-4b13-9aea-1f3b95c16e3c","system_id":"levelo_inurba_marseille","lat":43.286591,"lon":5.363346,"is_reserved":false,"is_disabled":false,"rental_uris":{"android":"levelo://app?vid=753348a2-941d-4b13-9aea-1f3b95c16e3c","ios":"levelo://app?vid=753348a2-941d-4b13-9aea-1f3b95c16e3c"},"vehicle_type_id":"4","last_reported":1704089438,"current_range_meters":31600,"station_id":"ce4bhah2rcd13ifvqej0","pricing_plan_id":"free"},{"bike_id":"ac7b866f-77c5-4f8e-9c2e-59c215ad3166","system_id":"levelo_inurba_marseille","lat":43.295196,"lon":5.39397,"is_reserved":false,"is_disabled":false,"rental_uris":{"android":"levelo://app?vid=ac7b866f-77c5-4f8e-9c2e-59c215ad3166","ios":"levelo://app?vid=ac7b866f-77c5-4f8e-9c2e-59c215ad3166"},"vehicle_type_id":"4","last_reported":1704089438,"current_range_meters":800,"station_id":"ce4bh292rcd13ifvqdf0","pricing_plan_id":"free"},{"bike_id":"7cf22cec-4334-49f0-8e7c-9064c07425fb","system_id":"levelo_inurba_marseille","lat":43.295196,"lon":5.39397,"is_reserved":false,"is_disabled":false,"rental_uris":{"android":"levelo://app?vid=7cf22cec-4334-49f0-8e7c-9064c07425fb","ios":"levelo://app?vid=7cf22cec-4334-49f0-8e7c-9064c07425fb"},"vehicle_type_id":"4","last_reported":1704089438,"current_range_meters":22000,"station_id":"ce4bh292rcd13ifvqdf0","pricing_plan_id":"free"},{"bike_id":"f8698ac3-02b9-46f1-981d-c9335383ad4d","system_id":"levelo_inurba_marseille","lat":43.295194,"lon":5.39397,"is_reserved":false,"is_disabled":false,"rental_uris":{"android":"levelo://app?vid=f8698ac3-02b9-46f1-981d-c9335383ad4d","ios":"levelo://app?vid=f8698ac3-02b9-46f1-981d-c9335383ad4d"},"vehicle_type_id":"4","last_reported":1704089438,"current_range_meters":20800,"station_id":"ce4bh292rcd13ifvqdf0","pricing_plan_id":"free"},{"bike_id":"98210579-b468-44f5-8836-9b2f621a84ec","system_id":"levelo_inurba_marseille","lat":43.295196,"lon":5.39397,"is_reserved":false,"is_disabled":false,"rental_uris":{"android":"levelo://app?vid=98210579-b468-44f5-8836-9b2f621a84ec","ios":"levelo://app?vid=98210579-b468-44f5-8836-9b2f621a84ec"},"vehicle_type_id":"4","last_reported":1704089438,"current_range_meters":20800,"station_id":"ce4bh292rcd13ifvqdf0","pricing_plan_id":"free"},{"bike_id":"5bf153fb-b71b-4ea0-9f9b-c05b2ebe476c","system_id":"levelo_inurba_marseille","lat":43.295713,"lon":5.399639,"is_reserved":false,"is_disabled":false,"rental_uris":{"android":"levelo://app?vid=5bf153fb-b71b-4ea0-9f9b-c05b2ebe476c","ios":"levelo://app?vid=5bf153fb-b71b-4ea0-9f9b-c05b2ebe476c"},"vehicle_type_id":"4","last_reported":1704089438,"current_range_meters":25200,"station_id":"ce4bh312rcd13ifvqdj0","pricing_plan_id":"free"},{"bike_id":"26805137-ae0a-48b4-8969-c4f64c005bdd","system_id":"levelo_inurba_marseille","lat":43.295713,"lon":5.399639,"is_reserved":false,"is_disabled":false,"rental_uris":{"android":"levelo://app?vid=26805137-ae0a-48b4-8969-c4f64c005bdd","ios":"levelo://app?vid=26805137-ae0a-48b4-8969-c4f64c005bdd"},"vehicle_type_id":"4","last_reported":1704089438,"current_range_meters":25600,"station_id":"ce4bh312rcd13ifvqdj0","pricing_plan_id":"free"},{"bike_id":"ee1bbac6-a713-489d-bbb8-721927c34664","system_id":"levelo_inurba_marseille","lat":43.291994,"lon":5.392907,"is_reserved":false,"is_disabled":false,"rental_uris":{"android":"levelo://app?vid=ee1bbac6-a713-489d-bbb8-721927c34664","ios":"levelo://app?vid=ee1bbac6-a713-489d-bbb8-721927c34664"},"vehicle_type_id":"4","last_reported":1704089438,"current_range_meters":14800,"station_id":"ce4bh192rcd13ifvqdd0","pricing_plan_id":"free"},{"bike_id":"ae0fd938-f7c5-4c2b-a600-cbfe2628e765","system_id":"levelo_inurba_marseille","lat":43.291994,"lon":5.392907,"is_reserved":false,"is_disabled":false,"rental_uris":{"android":"levelo://app?vid=ae0fd938-f7c5-4c2b-a600-cbfe2628e765","ios":"levelo://app?vid=ae0fd938-f7c5-4c2b-a600-cbfe2628e765"},"vehicle_type_id":"4","last_reported":1704089438,"current_range_meters":27200,"station_id":"ce4bh192rcd13ifvqdd0","pricing_plan_id":"free"},{"bike_id":"ae007959-1210-4ec1-a519-f16d75583f62","system_id":"levelo_inurba_marseille","lat":43.294314,"lon":5.397498,"is_reserved":false,"is_disabled":false,"rental_uris":{"android":"levelo://app?vid=ae007959-1210-4ec1-a519-f16d75583f62","ios":"levelo://app?vid=ae007959-1210-4ec1-a519-f16d75583f62"},"vehicle_type_id":"4","last_reported":1704089438,"current_range_meters":11200,"station_id":"ce4bh3h2rcd13ifvqdo0","pricing_plan_id":"free"},{"bike_id":"6d6fe783-1222-4da5-8869-6556a448e627","system_id":"levelo_inurba_marseille","lat":43.285856,"lon":5.350771,"is_reserved":false,"is_disabled":false,"rental_uris":{"android":"levelo://app?vid=6d6fe783-1222-4da5-8869-6556a448e627","ios":"levelo://app?vid=6d6fe783-1222-4da5-8869-6556a448e627"},"vehicle_type_id":"4","last_reported":1704089438,"current_range_meters":31200,"station_id":"ce4bhch2rcd13ifvqeug","pricing_plan_id":"free"},{"bike_id":"2e9e36c0-6122-4cfe-bac7-03161815aaa3","system_id":"levelo_inurba_marseille","lat":43.285856,"lon":5.350771,"is_reserved":false,"is_disabled":false,"rental_uris":{"android":"levelo://app?vid=2e9e36c0-6122-4cfe-bac7-03161815aaa3","ios":"levelo://app?vid=2e9e36c0-6122-4cfe-bac7-03161815aaa3"},"vehicle_type_id":"4","last_reported":1704089438,"current_range_meters":30800,"station_id":"ce4bhch2rcd13ifvqeug","pricing_plan_id":"free"},{"bike_id":"1b114ff4-acf6-4ea3-a5f5-1f9d854ad175","system_id":"levelo_inurba_marseille","lat":43.285856,"lon":5.350771,"is_reserved":false,"is_disabled":false,"rental_uris":{"android":"levelo://app?vid=1b114ff4-acf6-4ea3-a5f5-1f9d854ad175","ios":"levelo://app?vid=1b114ff4-acf6-4ea3-a5f5-1f9d854ad175"},"vehicle_type_id":"4","last_reported":1704089438,"current_range_meters":28400,"station_id":"ce4bhch2rcd13ifvqeug","pricing_plan_id":"free"},{"bike_id":"06062616-ae8d-4f33-964d-9bda701607ef","system_id":"levelo_inurba_marseille","lat":43.285848,"lon":5.350787,"is_reserved":false,"is_disabled":false,"rental_uris":{"android":"levelo://app?vid=06062616-ae8d-4f33-964d-9bda701607ef","ios":"levelo://app?vid=06062616-ae8d-4f33-964d-9bda701607ef"},"vehicle_type_id":"4","last_reported":1704089438,"current_range_meters":30800,"station_id":"ce4bhch2rcd13ifvqeug","pricing_plan_id":"free"},{"bike_id":"498530ed-bb8c-4d7a-8d52-9d782cfbfd44","system_id":"levelo_inurba_marseille","lat":43.29047,"lon":5.39253,"is_reserved":false,"is_disabled":false,"rental_uris":{"android":"levelo://app?vid=498530ed-bb8c-4d7a-8d52-9d782cfbfd44","ios":"levelo://app?vid=498530ed-bb8c-4d7a-8d52-9d782cfbfd44"},"vehicle_type_id":"4","last_reported":1704089438,"current_range_meters":2400,"station_id":"","pricing_plan_id":"free"},{"bike_id":"16db5d79-852d-4c2d-8b89-6ac38ecfe465","system_id":"levelo_inurba_marseille","lat":43.285856,"lon":5.350771,"is_reserved":false,"is_disabled":false,"rental_uris":{"android":"levelo://app?vid=16db5d79-852d-4c2d-8b89-6ac38ecfe465","ios":"levelo://app?vid=16db5d79-852d-4c2d-8b89-6ac38ecfe465"},"vehicle_type_id":"4","last_reported":1704089438,"current_range_meters":31200,"station_id":"ce4bhch2rcd13ifvqeug","pricing_plan_id":"free"},{"bike_id":"9712f9d9-d7ea-4e92-a7aa-c97565ad50a6","system_id":"levelo_inurba_marseille","lat":43.285848,"lon":5.350787,"is_reserved":false,"is_disabled":false,"rental_uris":{"android":"levelo://app?vid=9712f9d9-d7ea-4e92-a7aa-c97565ad50a6","ios":"levelo://app?vid=9712f9d9-d7ea-4e92-a7aa-c97565ad50a6"},"vehicle_type_id":"4","last_reported":1704089438,"current_range_meters":24800,"station_id":"ce4bhch2rcd13ifvqeug","pricing_plan_id":"free"},{"bike_id":"cb2ee55a-ee57-41e5-b85f-bae49a78399d","system_id":"levelo_inurba_marseille","lat":43.285848,"lon":5.350787,"is_reserved":false,"is_disabled":false,"rental_uris":{"android":"levelo://app?vid=cb2ee55a-ee57-41e5-b85f-bae49a78399d","ios":"levelo://app?vid=cb2ee55a-ee57-41e5-b85f-bae49a78399d"},"vehicle_type_id":"4","last_reported":1704089438,"current_range_meters":21600,"station_id":"ce4bhch2rcd13ifvqeug","pricing_plan_id":"free"},{"bike_id":"a988206a-5075-42c1-90bb-44559a8d8d95","system_id":"levelo_inurba_marseille","lat":43.295713,"lon":5.399639,"is_reserved":false,"is_disabled":false,"rental_uris":{"android":"levelo://app?vid=a988206a-5075-42c1-90bb-44559a8d8d95","ios":"levelo://app?vid=a988206a-5075-42c1-90bb-44559a8d8d95"},"vehicle_type_id":"4","last_reported":1704089438,"current_range_meters":30000,"station_id":"ce4bh312rcd13ifvqdj0","pricing_plan_id":"free"},{"bike_id":"c183a73d-a524-4337-b676-43f7789a3af5","system_id":"levelo_inurba_marseille","lat":43.283998,"lon":5.375062,"is_reserved":false,"is_disabled":false,"rental_uris":{"android":"levelo://app?vid=c183a73d-a524-4337-b676-43f7789a3af5","ios":"levelo://app?vid=c183a73d-a524-4337-b676-43f7789a3af5"},"vehicle_type_id":"4","last_reported":1704089438,"current_range_meters":22000,"station_id":"ce4bh412rcd13ifvqds0","pricing_plan_id":"free"},{"bike_id":"1e1351b8-98c2-4e11-ae64-720c92776dc3","system_id":"levelo_inurba_marseille","lat":43.319179,"lon":5.407725,"is_reserved":false,"is_disabled":false,"rental_uris":{"android":"levelo://app?vid=1e1351b8-98c2-4e11-ae64-720c92776dc3","ios":"levelo://app?vid=1e1351b8-98c2-4e11-ae64-720c92776dc3"},"vehicle_type_id":"4","last_reported":1704089438,"current_range_meters":26400,"station_id":"ce4bhq12rcd13ifvqhig","pricing_plan_id":"free"},{"bike_id":"4b646453-2bd8-4c46-a9db-dc5bcbc3e4b2","system_id":"levelo_inurba_marseille","lat":43.319179,"lon":5.407725,"is_reserved":false,"is_disabled":false,"rental_uris":{"android":"levelo://app?vid=4b646453-2bd8-4c46-a9db-dc5bcbc3e4b2","ios":"levelo://app?vid=4b646453-2bd8-4c46-a9db-dc5bcbc3e4b2"},"vehicle_type_id":"4","last_reported":1704089438,"current_range_meters":30000,"station_id":"ce4bhq12rcd13ifvqhig","pricing_plan_id":"free"},{"bike_id":"ed4bdaa8-1388-432c-9707-9410a7cddf90","system_id":"levelo_inurba_marseille","lat":43.319179,"lon":5.407725,"is_reserved":false,"is_disabled":false,"rental_uris":{"android":"levelo://app?vid=ed4bdaa8-1388-432c-9707-9410a7cddf90","ios":"levelo://app?vid=ed4bdaa8-1388-432c-9707-9410a7cddf90"},"vehicle_type_id":"4","last_reported":1704089438,"current_range_meters":21600,"station_id":"ce4bhq12rcd13ifvqhig","pricing_plan_id":"free"},{"bike_id":"9c89ccbb-1205-42f3-9670-7f7c8e469aa6","system_id":"levelo_inurba_marseille","lat":43.323464,"lon":5.406297,"is_reserved":false,"is_disabled":false,"rental_uris":{"android":"levelo://app?vid=9c89ccbb-1205-42f3-9670-7f7c8e469aa6","ios":"levelo://app?vid=9c89ccbb-1205-42f3-9670-7f7c8e469aa6"},"vehicle_type_id":"4","last_reported":1704089438,"current_range_meters":28400,"station_id":"ce4bhq92rcd13ifvqhjg","pricing_plan_id":"free"},{"bike_id":"8af6642b-e526-4770-8a06-6b115e68c32b","system_id":"levelo_inurba_marseille","lat":43.33728,"lon":5.39177,"is_reserved":false,"is_disabled":false,"rental_uris":{"android":"levelo://app?vid=8af6642b-e526-4770-8a06-6b115e68c32b","ios":"levelo://app?vid=8af6642b-e526-4770-8a06-6b115e68c32b"},"vehicle_type_id":"4","last_reported":1704089438,"current_range_meters":26400,"station_id":"ce4bhr92rcd13ifvqhsg","pricing_plan_id":"free"},{"bike_id":"1860c054-e673-4084-804e-8832a59aeb53","system_id":"levelo_inurba_marseille","lat":43.337168,"lon":5.391825,"is_reserved":false,"is_disabled":false,"rental_uris":{"android":"levelo://app?vid=1860c054-e673-4084-804e-8832a59aeb53","ios":"levelo://app?vid=1860c054-e673-4084-804e-8832a59aeb53"},"vehicle_type_id":"4","last_reported":1704089438,"current_range_meters":29600,"station_id":"ce4bhr92rcd13ifvqhsg","pricing_plan_id":"free"},{"bike_id":"73baccf2-2f35-40cb-b44e-6d50cd41c007","system_id":"levelo_inurba_marseille","lat":43.29795,"lon":5.404086,"is_reserved":false,"is_disabled":false,"rental_uris":{"android":"levelo://app?vid=73baccf2-2f35-40cb-b44e-6d50cd41c007","ios":"levelo://app?vid=73baccf2-2f35-40cb-b44e-6d50cd41c007"},"vehicle_type_id":"4","last_reported":1704089438,"current_range_meters":24000,"station_id":"ce4bh112rcd13ifvqd90","pricing_plan_id":"free"},{"bike_id":"66dcdc13-877c-45fa-b87d-892892d36e02","system_id":"levelo_inurba_marseille","lat":43.288458,"lon":5.393096,"is_reserved":false,"is_disabled":false,"rental_uris":{"android":"levelo://app?vid=66dcdc13-877c-45fa-b87d-892892d36e02","ios":"levelo://app?vid=66dcdc13-877c-45fa-b87d-892892d36e02"},"vehicle_type_id":"4","last_reported":1704089438,"current_range_meters":28000,"station_id":"ce4bh2p2rcd13ifvqdi0","pricing_plan_id":"free"},{"bike_id":"4d596014-02c1-43ee-b3e0-efc2b6f1b029","system_id":"levelo_inurba_marseille","lat":43.275625,"lon":5.384392,"is_reserved":false,"is_disabled":false,"rental_uris":{"android":"levelo://app?vid=4d596014-02c1-43ee-b3e0-efc2b6f1b029","ios":"levelo://app?vid=4d596014-02c1-43ee-b3e0-efc2b6f1b029"},"vehicle_type_id":"4","last_reported":1704089438,"current_range_meters":22000,"station_id":"ce4bhh92rcd13ifvqfi0","pricing_plan_id":"free"},{"bike_id":"07ce3283-9bab-40bf-8b26-72b3cfef7452","system_id":"levelo_inurba_marseille","lat":43.284219,"lon":5.3497,"is_reserved":false,"is_disabled":false,"rental_uris":{"android":"levelo://app?vid=07ce3283-9bab-40bf-8b26-72b3cfef7452","ios":"levelo://app?vid=07ce3283-9bab-40bf-8b26-72b3cfef7452"},"vehicle_type_id":"4","last_reported":1704089438,"current_range_meters":31600,"station_id":"ce4bhbh2rcd13ifvqepg","pricing_plan_id":"free"},{"bike_id":"92af0806-ed77-4c96-b6dd-1451c2e4283e","system_id":"levelo_inurba_marseille","lat":43.284217,"lon":5.349697,"is_reserved":false,"is_disabled":false,"rental_uris":{"android":"levelo://app?vid=92af0806-ed77-4c96-b6dd-1451c2e4283e","ios":"levelo://app?vid=92af0806-ed77-4c96-b6dd-1451c2e4283e"},"vehicle_type_id":"4","last_reported":1704089438,"current_range_meters":25600,"station_id":"ce4bhbh2rcd13ifvqepg","pricing_plan_id":"free"},{"bike_id":"fddd2611-feab-4620-876b-52cc1e62e134","system_id":"levelo_inurba_marseille","lat":43.284219,"lon":5.3497,"is_reserved":false,"is_disabled":false,"rental_uris":{"android":"levelo://app?vid=fddd2611-feab-4620-876b-52cc1e62e134","ios":"levelo://app?vid=fddd2611-feab-4620-876b-52cc1e62e134"},"vehicle_type_id":"4","last_reported":1704089438,"current_range_meters":31600,"station_id":"ce4bhbh2rcd13ifvqepg","pricing_plan_id":"free"},{"bike_id":"5f69564c-9a19-4772-bb69-8f50001da08c","system_id":"levelo_inurba_marseille","lat":43.284217,"lon":5.349697,"is_reserved":false,"is_disabled":false,"rental_uris":{"android":"levelo://app?vid=5f69564c-9a19-4772-bb69-8f50001da08c","ios":"levelo://app?vid=5f69564c-9a19-4772-bb69-8f50001da08c"},"vehicle_type_id":"4","last_reported":1704089438,"current_range_meters":18800,"station_id":"ce4bhbh2rcd13ifvqepg","pricing_plan_id":"free"},{"bike_id":"76340ce1-dda3-4d99-a351-0815ebad4b17","system_id":"levelo_inurba_marseille","lat":43.284217,"lon":5.349697,"is_reserved":false,"is_disabled":false,"rental_uris":{"android":"levelo://app?vid=76340ce1-dda3-4d99-a351-0815ebad4b17","ios":"levelo://app?vid=76340ce1-dda3-4d99-a351-0815ebad4b17"},"vehicle_type_id":"4","last_reported":1704089438,"current_range_meters":22000,"station_id":"ce4bhbh2rcd13ifvqepg","pricing_plan_id":"free"},{"bike_id":"77b1be3b-5ad4-468a-a9de-f30fb56e94ca","system_id":"levelo_inurba_marseille","lat":43.280382,"lon":5.369291,"is_reserved":false,"is_disabled":false,"rental_uris":{"android":"levelo://app?vid=77b1be3b-5ad4-468a-a9de-f30fb56e94ca","ios":"levelo://app?vid=77b1be3b-5ad4-468a-a9de-f30fb56e94ca"},"vehicle_type_id":"4","last_reported":1704089438,"current_range_meters":31200,"station_id":"ce4bha12rcd13ifvqef0","pricing_plan_id":"free"},{"bike_id":"784d0d32-a607-4226-b336-1b61e44b43e3","system_id":"levelo_inurba_marseille","lat":43.28036,"lon":5.36938,"is_reserved":false,"is_disabled":false,"rental_uris":{"android":"levelo://app?vid=784d0d32-a607-4226-b336-1b61e44b43e3","ios":"levelo://app?vid=784d0d32-a607-4226-b336-1b61e44b43e3"},"vehicle_type_id":"4","last_reported":1704089438,"current_range_meters":30000,"station_id":"ce4bha12rcd13ifvqef0","pricing_plan_id":"free"},{"bike_id":"90ec1a9d-ccff-4a21-9cfc-32fb0df34b6c","system_id":"levelo_inurba_marseille","lat":43.280382,"lon":5.369291,"is_reserved":false,"is_disabled":false,"rental_uris":{"android":"levelo://app?vid=90ec1a9d-ccff-4a21-9cfc-32fb0df34b6c","ios":"levelo://app?vid=90ec1a9d-ccff-4a21-9cfc-32fb0df34b6c"},"vehicle_type_id":"4","last_reported":1704089438,"current_range_meters":31200,"station_id":"ce4bha12rcd13ifvqef0","pricing_plan_id":"free"},{"bike_id":"478ea88e-c405-403d-a627-8dfc8e2d7cbc","system_id":"levelo_inurba_marseille","lat":43.28022,"lon":5.36946,"is_reserved":false,"is_disabled":false,"rental_uris":{"android":"levelo://app?vid=478ea88e-c405-403d-a627-8dfc8e2d7cbc","ios":"levelo://app?vid=478ea88e-c405-403d-a627-8dfc8e2d7cbc"},"vehicle_type_id":"4","last_reported":1704089438,"current_range_meters":31200,"station_id":"ce4bha12rcd13ifvqef0","pricing_plan_id":"free"},{"bike_id":"c40c4a78-88a7-4420-b9d8-fe8b454cb597","system_id":"levelo_inurba_marseille","lat":43.296263,"lon":5.40601,"is_reserved":false,"is_disabled":false,"rental_uris":{"android":"levelo://app?vid=c40c4a78-88a7-4420-b9d8-fe8b454cb597","ios":"levelo://app?vid=c40c4a78-88a7-4420-b9d8-fe8b454cb597"},"vehicle_type_id":"4","last_reported":1704089438,"current_range_meters":7200,"station_id":"ce4bh0h2rcd13ifvqd60","pricing_plan_id":"free"},{"bike_id":"ad558773-ef61-4fff-b61f-258282748d91","system_id":"levelo_inurba_marseille","lat":43.284462,"lon":5.392121,"is_reserved":false,"is_disabled":false,"rental_uris":{"android":"levelo://app?vid=ad558773-ef61-4fff-b61f-258282748d91","ios":"levelo://app?vid=ad558773-ef61-4fff-b61f-258282748d91"},"vehicle_type_id":"4","last_reported":1704089438,"current_range_meters":26000,"station_id":"ce4bhoh2rcd13ifvqh5g","pricing_plan_id":"free"},{"bike_id":"3760a156-d0b5-4cdb-9468-7435f297304e","system_id":"levelo_inurba_marseille","lat":43.284462,"lon":5.392121,"is_reserved":false,"is_disabled":false,"rental_uris":{"android":"levelo://app?vid=3760a156-d0b5-4cdb-9468-7435f297304e","ios":"levelo://app?vid=3760a156-d0b5-4cdb-9468-7435f297304e"},"vehicle_type_id":"4","last_reported":1704089438,"current_range_meters":27600,"station_id":"ce4bhoh2rcd13ifvqh5g","pricing_plan_id":"free"},{"bike_id":"f182ad30-578d-439a-b895-037c49f93cbb","system_id":"levelo_inurba_marseille","lat":43.28573,"lon":5.394992,"is_reserved":false,"is_disabled":false,"rental_uris":{"android":"levelo://app?vid=f182ad30-578d-439a-b895-037c49f93cbb","ios":"levelo://app?vid=f182ad30-578d-439a-b895-037c49f93cbb"},"vehicle_type_id":"4","last_reported":1704089438,"current_range_meters":28800,"station_id":"ce4bh292rcd13ifvqdg0","pricing_plan_id":"free"},{"bike_id":"1df8fc05-2e03-46a3-81d2-82c36938aca9","system_id":"levelo_inurba_marseille","lat":43.28573,"lon":5.394992,"is_reserved":false,"is_disabled":false,"rental_uris":{"android":"levelo://app?vid=1df8fc05-2e03-46a3-81d2-82c36938aca9","ios":"levelo://app?vid=1df8fc05-2e03-46a3-81d2-82c36938aca9"},"vehicle_type_id":"4","last_reported":1704089438,"current_range_meters":26800,"station_id":"ce4bh292rcd13ifvqdg0","pricing_plan_id":"free"},{"bike_id":"64188e5f-ba41-4f73-8ef2-66a949ae074f","system_id":"levelo_inurba_marseille","lat":43.326605,"lon":5.409903,"is_reserved":false,"is_disabled":false,"rental_uris":{"android":"levelo://app?vid=64188e5f-ba41-4f73-8ef2-66a949ae074f","ios":"levelo://app?vid=64188e5f-ba41-4f73-8ef2-66a949ae074f"},"vehicle_type_id":"4","last_reported":1704089438,"current_range_meters":21600,"station_id":"ce4bhpp2rcd13ifvqhgg","pricing_plan_id":"free"},{"bike_id":"f9b0a9c8-24c1-4156-a225-5ec62d466306","system_id":"levelo_inurba_marseille","lat":43.326605,"lon":5.409903,"is_reserved":false,"is_disabled":false,"rental_uris":{"android":"levelo://app?vid=f9b0a9c8-24c1-4156-a225-5ec62d466306","ios":"levelo://app?vid=f9b0a9c8-24c1-4156-a225-5ec62d466306"},"vehicle_type_id":"4","last_reported":1704089438,"current_range_meters":17200,"station_id":"ce4bhpp2rcd13ifvqhgg","pricing_plan_id":"free"},{"bike_id":"7c55af57-c780-4eb0-bb61-99e712d20ce8","system_id":"levelo_inurba_marseille","lat":43.326605,"lon":5.409903,"is_reserved":false,"is_disabled":false,"rental_uris":{"android":"levelo://app?vid=7c55af57-c780-4eb0-bb61-99e712d20ce8","ios":"levelo://app?vid=7c55af57-c780-4eb0-bb61-99e712d20ce8"},"vehicle_type_id":"4","last_reported":1704089438,"current_range_meters":29600,"station_id":"ce4bhpp2rcd13ifvqhgg","pricing_plan_id":"free"},{"bike_id":"cbb9e2cc-a472-4c54-92f5-3a275548a944","system_id":"levelo_inurba_marseille","lat":43.304188,"lon":5.412904,"is_reserved":false,"is_disabled":false,"rental_uris":{"android":"levelo://app?vid=cbb9e2cc-a472-4c54-92f5-3a275548a944","ios":"levelo://app?vid=cbb9e2cc-a472-4c54-92f5-3a275548a944"},"vehicle_type_id":"4","last_reported":1704089438,"current_range_meters":8400,"station_id":"ce4bhop2rcd13ifvqh8g","pricing_plan_id":"free"},{"bike_id":"7a7b8e62-c8dc-4a24-b821-8fb8b5b3113d","system_id":"levelo_inurba_marseille","lat":43.304116,"lon":5.412807,"is_reserved":false,"is_disabled":false,"rental_uris":{"android":"levelo://app?vid=7a7b8e62-c8dc-4a24-b821-8fb8b5b3113d","ios":"levelo://app?vid=7a7b8e62-c8dc-4a24-b821-8fb8b5b3113d"},"vehicle_type_id":"4","last_reported":1704089438,"current_range_meters":28400,"station_id":"ce4bhop2rcd13ifvqh8g","pricing_plan_id":"free"},{"bike_id":"c4132c7f-76ff-41d5-b88c-db7d184b8c09","system_id":"levelo_inurba_marseille","lat":43.279087,"lon":5.380114,"is_reserved":false,"is_disabled":false,"rental_uris":{"android":"levelo://app?vid=c4132c7f-76ff-41d5-b88c-db7d184b8c09","ios":"levelo://app?vid=c4132c7f-76ff-41d5-b88c-db7d184b8c09"},"vehicle_type_id":"4","last_reported":1704089438,"current_range_meters":25200,"station_id":"ce4bhf92rcd13ifvqf50","pricing_plan_id":"free"},{"bike_id":"015a45af-9099-4bca-9baa-d553bec05e68","system_id":"levelo_inurba_marseille","lat":43.279742,"lon":5.38744,"is_reserved":false,"is_disabled":false,"rental_uris":{"android":"levelo://app?vid=015a45af-9099-4bca-9baa-d553bec05e68","ios":"levelo://app?vid=015a45af-9099-4bca-9baa-d553bec05e68"},"vehicle_type_id":"4","last_reported":1704089438,"current_range_meters":31600,"station_id":"ce4bhg12rcd13ifvqf80","pricing_plan_id":"free"},{"bike_id":"e2b70482-983a-4eb3-855b-92ebd77ef153","system_id":"levelo_inurba_marseille","lat":43.279742,"lon":5.38744,"is_reserved":false,"is_disabled":false,"rental_uris":{"android":"levelo://app?vid=e2b70482-983a-4eb3-855b-92ebd77ef153","ios":"levelo://app?vid=e2b70482-983a-4eb3-855b-92ebd77ef153"},"vehicle_type_id":"4","last_reported":1704089438,"current_range_meters":30000,"station_id":"ce4bhg12rcd13ifvqf80","pricing_plan_id":"free"},{"bike_id":"1fb8b3d9-4f81-41b4-a93b-bbd0cee0edb7","system_id":"levelo_inurba_marseille","lat":43.279742,"lon":5.38744,"is_reserved":false,"is_disabled":false,"rental_uris":{"android":"levelo://app?vid=1fb8b3d9-4f81-41b4-a93b-bbd0cee0edb7","ios":"levelo://app?vid=1fb8b3d9-4f81-41b4-a93b-bbd0cee0edb7"},"vehicle_type_id":"4","last_reported":1704089438,"current_range_meters":27600,"station_id":"ce4bhg12rcd13ifvqf80","pricing_plan_id":"free"},{"bike_id":"3b58789a-b344-4ae4-ba73-fa3de2c62c54","system_id":"levelo_inurba_marseille","lat":43.279742,"lon":5.38744,"is_reserved":false,"is_disabled":false,"rental_uris":{"android":"levelo://app?vid=3b58789a-b344-4ae4-ba73-fa3de2c62c54","ios":"levelo://app?vid=3b58789a-b344-4ae4-ba73-fa3de2c62c54"},"vehicle_type_id":"4","last_reported":1704089438,"current_range_meters":31600,"station_id":"ce4bhg12rcd13ifvqf80","pricing_plan_id":"free"},{"bike_id":"e7d49ff7-24f0-4636-b7df-6437e0f36772","system_id":"levelo_inurba_marseille","lat":43.292569,"lon":5.409107,"is_reserved":false,"is_disabled":false,"rental_uris":{"android":"levelo://app?vid=e7d49ff7-24f0-4636-b7df-6437e0f36772","ios":"levelo://app?vid=e7d49ff7-24f0-4636-b7df-6437e0f36772"},"vehicle_type_id":"4","last_reported":1704089438,"current_range_meters":3200,"station_id":"ce4bh192rcd13ifvqdc0","pricing_plan_id":"free"},{"bike_id":"4b647f7c-7637-4d83-9c3a-3a9ed3b89804","system_id":"levelo_inurba_marseille","lat":43.336134,"lon":5.410341,"is_reserved":false,"is_disabled":false,"rental_uris":{"android":"levelo://app?vid=4b647f7c-7637-4d83-9c3a-3a9ed3b89804","ios":"levelo://app?vid=4b647f7c-7637-4d83-9c3a-3a9ed3b89804"},"vehicle_type_id":"4","last_reported":1704089438,"current_range_meters":30800,"station_id":"ce4bhqh2rcd13ifvqhmg","pricing_plan_id":"free"},{"bike_id":"8df3e2f4-2393-4c49-ade2-99503011b1d1","system_id":"levelo_inurba_marseille","lat":43.292569,"lon":5.409107,"is_reserved":false,"is_disabled":false,"rental_uris":{"android":"levelo://app?vid=8df3e2f4-2393-4c49-ade2-99503011b1d1","ios":"levelo://app?vid=8df3e2f4-2393-4c49-ade2-99503011b1d1"},"vehicle_type_id":"4","last_reported":1704089438,"current_range_meters":8400,"station_id":"ce4bh192rcd13ifvqdc0","pricing_plan_id":"free"},{"bike_id":"7389963c-4373-432e-983b-bc3036ac7d53","system_id":"levelo_inurba_marseille","lat":43.292569,"lon":5.409107,"is_reserved":false,"is_disabled":false,"rental_uris":{"android":"levelo://app?vid=7389963c-4373-432e-983b-bc3036ac7d53","ios":"levelo://app?vid=7389963c-4373-432e-983b-bc3036ac7d53"},"vehicle_type_id":"4","last_reported":1704089438,"current_range_meters":15200,"station_id":"ce4bh192rcd13ifvqdc0","pricing_plan_id":"free"},{"bike_id":"cd8667c0-162a-48e2-b307-542888f9c89e","system_id":"levelo_inurba_marseille","lat":43.292569,"lon":5.409107,"is_reserved":false,"is_disabled":false,"rental_uris":{"android":"levelo://app?vid=cd8667c0-162a-48e2-b307-542888f9c89e","ios":"levelo://app?vid=cd8667c0-162a-48e2-b307-542888f9c89e"},"vehicle_type_id":"4","last_reported":1704089438,"current_range_meters":20800,"station_id":"ce4bh192rcd13ifvqdc0","pricing_plan_id":"free"},{"bike_id":"d7b74a6d-0877-49d9-9407-79f632a404ca","system_id":"levelo_inurba_marseille","lat":43.27618,"lon":5.361009,"is_reserved":false,"is_disabled":false,"rental_uris":{"android":"levelo://app?vid=d7b74a6d-0877-49d9-9407-79f632a404ca","ios":"levelo://app?vid=d7b74a6d-0877-49d9-9407-79f632a404ca"},"vehicle_type_id":"4","last_reported":1704089438,"current_range_meters":31200,"station_id":"ce4bgj92rcd13ifvqbe0","pricing_plan_id":"free"},{"bike_id":"1b879387-a5db-4e3b-8561-28e8076ac370","system_id":"levelo_inurba_marseille","lat":43.276179,"lon":5.361009,"is_reserved":false,"is_disabled":false,"rental_uris":{"android":"levelo://app?vid=1b879387-a5db-4e3b-8561-28e8076ac370","ios":"levelo://app?vid=1b879387-a5db-4e3b-8561-28e8076ac370"},"vehicle_type_id":"4","last_reported":1704089438,"current_range_meters":23200,"station_id":"ce4bgj92rcd13ifvqbe0","pricing_plan_id":"free"},{"bike_id":"46656abe-8be6-4082-81d8-1b69a947c7dc","system_id":"levelo_inurba_marseille","lat":43.280784,"lon":5.396622,"is_reserved":false,"is_disabled":false,"rental_uris":{"android":"levelo://app?vid=46656abe-8be6-4082-81d8-1b69a947c7dc","ios":"levelo://app?vid=46656abe-8be6-4082-81d8-1b69a947c7dc"},"vehicle_type_id":"4","last_reported":1704089438,"current_range_meters":30800,"station_id":"ce4bho12rcd13ifvqh2g","pricing_plan_id":"free"},{"bike_id":"e1838f9f-299f-437d-abd8-4f286644fe17","system_id":"levelo_inurba_marseille","lat":43.280784,"lon":5.396622,"is_reserved":false,"is_disabled":false,"rental_uris":{"android":"levelo://app?vid=e1838f9f-299f-437d-abd8-4f286644fe17","ios":"levelo://app?vid=e1838f9f-299f-437d-abd8-4f286644fe17"},"vehicle_type_id":"4","last_reported":1704089438,"current_range_meters":26400,"station_id":"ce4bho12rcd13ifvqh2g","pricing_plan_id":"free"},{"bike_id":"dfbd1885-cba8-44d6-bbb9-1d1362a6e924","system_id":"levelo_inurba_marseille","lat":43.303837,"lon":5.418724,"is_reserved":false,"is_disabled":false,"rental_uris":{"android":"levelo://app?vid=dfbd1885-cba8-44d6-bbb9-1d1362a6e924","ios":"levelo://app?vid=dfbd1885-cba8-44d6-bbb9-1d1362a6e924"},"vehicle_type_id":"4","last_reported":1704089438,"current_range_meters":26000,"station_id":"ce4bhop2rcd13ifvqh7g","pricing_plan_id":"free"},{"bike_id":"8ab47e8d-cfcf-4540-b54d-177b29432faa","system_id":"levelo_inurba_marseille","lat":43.303837,"lon":5.418724,"is_reserved":false,"is_disabled":false,"rental_uris":{"android":"levelo://app?vid=8ab47e8d-cfcf-4540-b54d-177b29432faa","ios":"levelo://app?vid=8ab47e8d-cfcf-4540-b54d-177b29432faa"},"vehicle_type_id":"4","last_reported":1704089438,"current_range_meters":18000,"station_id":"ce4bhop2rcd13ifvqh7g","pricing_plan_id":"free"},{"bike_id":"b53a9def-597c-4d87-8a4e-4c2177f1839c","system_id":"levelo_inurba_marseille","lat":43.278399,"lon":5.392139,"is_reserved":false,"is_disabled":false,"rental_uris":{"android":"levelo://app?vid=b53a9def-597c-4d87-8a4e-4c2177f1839c","ios":"levelo://app?vid=b53a9def-597c-4d87-8a4e-4c2177f1839c"},"vehicle_type_id":"4","last_reported":1704089438,"current_range_meters":15200,"station_id":"ce4bhjp2rcd13ifvqga0","pricing_plan_id":"free"},{"bike_id":"368ee7d7-ca1c-486e-8d04-99e33067d674","system_id":"levelo_inurba_marseille","lat":43.278399,"lon":5.392139,"is_reserved":false,"is_disabled":false,"rental_uris":{"android":"levelo://app?vid=368ee7d7-ca1c-486e-8d04-99e33067d674","ios":"levelo://app?vid=368ee7d7-ca1c-486e-8d04-99e33067d674"},"vehicle_type_id":"4","last_reported":1704089438,"current_range_meters":24000,"station_id":"ce4bhjp2rcd13ifvqga0","pricing_plan_id":"free"},{"bike_id":"824ef797-2a4e-4785-bf6d-29e20bce20dc","system_id":"levelo_inurba_marseille","lat":43.273613,"lon":5.362705,"is_reserved":false,"is_disabled":false,"rental_uris":{"android":"levelo://app?vid=824ef797-2a4e-4785-bf6d-29e20bce20dc","ios":"levelo://app?vid=824ef797-2a4e-4785-bf6d-29e20bce20dc"},"vehicle_type_id":"4","last_reported":1704089438,"current_range_meters":28400,"station_id":"ce4bhbh2rcd13ifvqeo0","pricing_plan_id":"free"},{"bike_id":"ed2e87a1-1a5f-4a57-857b-62dc7040cd05","system_id":"levelo_inurba_marseille","lat":43.273609,"lon":5.362708,"is_reserved":false,"is_disabled":false,"rental_uris":{"android":"levelo://app?vid=ed2e87a1-1a5f-4a57-857b-62dc7040cd05","ios":"levelo://app?vid=ed2e87a1-1a5f-4a57-857b-62dc7040cd05"},"vehicle_type_id":"4","last_reported":1704089438,"current_range_meters":24800,"station_id":"ce4bhbh2rcd13ifvqeo0","pricing_plan_id":"free"},{"bike_id":"8588751c-146b-43e8-9cef-4436cc04a621","system_id":"levelo_inurba_marseille","lat":43.275625,"lon":5.384392,"is_reserved":false,"is_disabled":false,"rental_uris":{"android":"levelo://app?vid=8588751c-146b-43e8-9cef-4436cc04a621","ios":"levelo://app?vid=8588751c-146b-43e8-9cef-4436cc04a621"},"vehicle_type_id":"4","last_reported":1704089438,"current_range_meters":16400,"station_id":"ce4bhh92rcd13ifvqfi0","pricing_plan_id":"free"},{"bike_id":"397158e4-4280-4303-9c12-7481d5f0dd18","system_id":"levelo_inurba_marseille","lat":43.336134,"lon":5.410341,"is_reserved":false,"is_disabled":false,"rental_uris":{"android":"levelo://app?vid=397158e4-4280-4303-9c12-7481d5f0dd18","ios":"levelo://app?vid=397158e4-4280-4303-9c12-7481d5f0dd18"},"vehicle_type_id":"4","last_reported":1704089438,"current_range_meters":31600,"station_id":"ce4bhqh2rcd13ifvqhmg","pricing_plan_id":"free"},{"bike_id":"6062380a-6af2-4bc6-9057-30fe66edd11a","system_id":"levelo_inurba_marseille","lat":43.275625,"lon":5.384392,"is_reserved":false,"is_disabled":false,"rental_uris":{"android":"levelo://app?vid=6062380a-6af2-4bc6-9057-30fe66edd11a","ios":"levelo://app?vid=6062380a-6af2-4bc6-9057-30fe66edd11a"},"vehicle_type_id":"4","last_reported":1704089438,"current_range_meters":25200,"station_id":"ce4bhh92rcd13ifvqfi0","pricing_plan_id":"free"},{"bike_id":"f1ae9b59-3c2d-4e71-a2ee-b4aaae724f06","system_id":"levelo_inurba_marseille","lat":43.336134,"lon":5.410341,"is_reserved":false,"is_disabled":false,"rental_uris":{"android":"levelo://app?vid=f1ae9b59-3c2d-4e71-a2ee-b4aaae724f06","ios":"levelo://app?vid=f1ae9b59-3c2d-4e71-a2ee-b4aaae724f06"},"vehicle_type_id":"4","last_reported":1704089438,"current_range_meters":4400,"station_id":"ce4bhqh2rcd13ifvqhmg","pricing_plan_id":"free"},{"bike_id":"4d05d184-fbc7-459b-9155-c27fc2b76dab","system_id":"levelo_inurba_marseille","lat":43.340804,"lon":5.410219,"is_reserved":false,"is_disabled":false,"rental_uris":{"android":"levelo://app?vid=4d05d184-fbc7-459b-9155-c27fc2b76dab","ios":"levelo://app?vid=4d05d184-fbc7-459b-9155-c27fc2b76dab"},"vehicle_type_id":"4","last_reported":1704089438,"current_range_meters":24800,"station_id":"ce4bhqh2rcd13ifvqhlg","pricing_plan_id":"free"},{"bike_id":"64c24014-07c5-4b79-8aef-3c3f461b2b59","system_id":"levelo_inurba_marseille","lat":43.336134,"lon":5.410341,"is_reserved":false,"is_disabled":false,"rental_uris":{"android":"levelo://app?vid=64c24014-07c5-4b79-8aef-3c3f461b2b59","ios":"levelo://app?vid=64c24014-07c5-4b79-8aef-3c3f461b2b59"},"vehicle_type_id":"4","last_reported":1704089438,"current_range_meters":31200,"station_id":"ce4bhqh2rcd13ifvqhmg","pricing_plan_id":"free"},{"bike_id":"f291a200-8743-4f4e-96b1-9bfa3ab6b0d2","system_id":"levelo_inurba_marseille","lat":43.336134,"lon":5.410341,"is_reserved":false,"is_disabled":false,"rental_uris":{"android":"levelo://app?vid=f291a200-8743-4f4e-96b1-9bfa3ab6b0d2","ios":"levelo://app?vid=f291a200-8743-4f4e-96b1-9bfa3ab6b0d2"},"vehicle_type_id":"4","last_reported":1704089438,"current_range_meters":13200,"station_id":"ce4bhqh2rcd13ifvqhmg","pricing_plan_id":"free"},{"bike_id":"d28334e4-340b-403b-a4f9-6cf4990a38be","system_id":"levelo_inurba_marseille","lat":43.276771,"lon":5.388799,"is_reserved":false,"is_disabled":false,"rental_uris":{"android":"levelo://app?vid=d28334e4-340b-403b-a4f9-6cf4990a38be","ios":"levelo://app?vid=d28334e4-340b-403b-a4f9-6cf4990a38be"},"vehicle_type_id":"4","last_reported":1704089438,"current_range_meters":21600,"station_id":"ce4bhi12rcd13ifvqfo0","pricing_plan_id":"free"},{"bike_id":"838e390a-0d2f-44c2-87a4-d40aabcd8ccc","system_id":"levelo_inurba_marseille","lat":43.27671,"lon":5.389198,"is_reserved":false,"is_disabled":false,"rental_uris":{"android":"levelo://app?vid=838e390a-0d2f-44c2-87a4-d40aabcd8ccc","ios":"levelo://app?vid=838e390a-0d2f-44c2-87a4-d40aabcd8ccc"},"vehicle_type_id":"4","last_reported":1704089438,"current_range_meters":2400,"station_id":"","pricing_plan_id":"free"},{"bike_id":"ad8ead7b-2150-462d-9ff1-f4303c6e32bd","system_id":"levelo_inurba_marseille","lat":43.279952,"lon":5.400085,"is_reserved":false,"is_disabled":false,"rental_uris":{"android":"levelo://app?vid=ad8ead7b-2150-462d-9ff1-f4303c6e32bd","ios":"levelo://app?vid=ad8ead7b-2150-462d-9ff1-f4303c6e32bd"},"vehicle_type_id":"4","last_reported":1704089438,"current_range_meters":25200,"station_id":"ce4bho92rcd13ifvqh4g","pricing_plan_id":"free"},{"bike_id":"9538348d-498b-442e-aa22-ec1eec7d72dc","system_id":"levelo_inurba_marseille","lat":43.310785,"lon":5.424305,"is_reserved":false,"is_disabled":false,"rental_uris":{"android":"levelo://app?vid=9538348d-498b-442e-aa22-ec1eec7d72dc","ios":"levelo://app?vid=9538348d-498b-442e-aa22-ec1eec7d72dc"},"vehicle_type_id":"4","last_reported":1704089438,"current_range_meters":20000,"station_id":"ce4bhp92rcd13ifvqhag","pricing_plan_id":"free"},{"bike_id":"5285e27f-da4f-4726-9ead-ee955e24ad2a","system_id":"levelo_inurba_marseille","lat":43.310785,"lon":5.424305,"is_reserved":false,"is_disabled":false,"rental_uris":{"android":"levelo://app?vid=5285e27f-da4f-4726-9ead-ee955e24ad2a","ios":"levelo://app?vid=5285e27f-da4f-4726-9ead-ee955e24ad2a"},"vehicle_type_id":"4","last_reported":1704089438,"current_range_meters":31200,"station_id":"ce4bhp92rcd13ifvqhag","pricing_plan_id":"free"},{"bike_id":"d9c8318c-3031-4f68-9885-19375abd858f","system_id":"levelo_inurba_marseille","lat":43.31468,"lon":5.42608,"is_reserved":false,"is_disabled":false,"rental_uris":{"android":"levelo://app?vid=d9c8318c-3031-4f68-9885-19375abd858f","ios":"levelo://app?vid=d9c8318c-3031-4f68-9885-19375abd858f"},"vehicle_type_id":"4","last_reported":1704089438,"current_range_meters":400,"station_id":"","pricing_plan_id":"free"},{"bike_id":"b9c9b136-7dd5-4870-8b96-ab83983c8f3b","system_id":"levelo_inurba_marseille","lat":43.274103,"lon":5.394016,"is_reserved":false,"is_disabled":false,"rental_uris":{"android":"levelo://app?vid=b9c9b136-7dd5-4870-8b96-ab83983c8f3b","ios":"levelo://app?vid=b9c9b136-7dd5-4870-8b96-ab83983c8f3b"},"vehicle_type_id":"4","last_reported":1704089438,"current_range_meters":30800,"station_id":"ce4bhdp2rcd13ifvqf20","pricing_plan_id":"free"},{"bike_id":"cdfa6dd1-e517-46ca-b0db-875a041abec8","system_id":"levelo_inurba_marseille","lat":43.304096,"lon":5.425385,"is_reserved":false,"is_disabled":false,"rental_uris":{"android":"levelo://app?vid=cdfa6dd1-e517-46ca-b0db-875a041abec8","ios":"levelo://app?vid=cdfa6dd1-e517-46ca-b0db-875a041abec8"},"vehicle_type_id":"4","last_reported":1704089438,"current_range_meters":25600,"station_id":"ce4bhoh2rcd13ifvqh6g","pricing_plan_id":"free"},{"bike_id":"637959c9-e2c1-4e1d-b896-d4e55c95413e","system_id":"levelo_inurba_marseille","lat":43.304088,"lon":5.425388,"is_reserved":false,"is_disabled":false,"rental_uris":{"android":"levelo://app?vid=637959c9-e2c1-4e1d-b896-d4e55c95413e","ios":"levelo://app?vid=637959c9-e2c1-4e1d-b896-d4e55c95413e"},"vehicle_type_id":"4","last_reported":1704089438,"current_range_meters":31200,"station_id":"ce4bhoh2rcd13ifvqh6g","pricing_plan_id":"free"},{"bike_id":"6bdf129d-6c7f-49c2-9be6-40cfce5a300a","system_id":"levelo_inurba_marseille","lat":43.304088,"lon":5.425388,"is_reserved":false,"is_disabled":false,"rental_uris":{"android":"levelo://app?vid=6bdf129d-6c7f-49c2-9be6-40cfce5a300a","ios":"levelo://app?vid=6bdf129d-6c7f-49c2-9be6-40cfce5a300a"},"vehicle_type_id":"4","last_reported":1704089438,"current_range_meters":28400,"station_id":"ce4bhoh2rcd13ifvqh6g","pricing_plan_id":"free"},{"bike_id":"926e2c6a-f6fc-4efb-862c-83f5befd1c16","system_id":"levelo_inurba_marseille","lat":43.29553,"lon":5.42276,"is_reserved":false,"is_disabled":false,"rental_uris":{"android":"levelo://app?vid=926e2c6a-f6fc-4efb-862c-83f5befd1c16","ios":"levelo://app?vid=926e2c6a-f6fc-4efb-862c-83f5befd1c16"},"vehicle_type_id":"4","last_reported":1704089438,"current_range_meters":31200,"station_id":"ce4bhph2rcd13ifvqhdg","pricing_plan_id":"free"},{"bike_id":"306afd85-beb4-4f6c-b611-066e0436e9ba","system_id":"levelo_inurba_marseille","lat":43.29551,"lon":5.42284,"is_reserved":false,"is_disabled":false,"rental_uris":{"android":"levelo://app?vid=306afd85-beb4-4f6c-b611-066e0436e9ba","ios":"levelo://app?vid=306afd85-beb4-4f6c-b611-066e0436e9ba"},"vehicle_type_id":"4","last_reported":1704089438,"current_range_meters":31200,"station_id":"ce4bhph2rcd13ifvqhdg","pricing_plan_id":"free"},{"bike_id":"d548d66b-88c9-49f9-867c-e26df10c9510","system_id":"levelo_inurba_marseille","lat":43.295532,"lon":5.422859,"is_reserved":false,"is_disabled":false,"rental_uris":{"android":"levelo://app?vid=d548d66b-88c9-49f9-867c-e26df10c9510","ios":"levelo://app?vid=d548d66b-88c9-49f9-867c-e26df10c9510"},"vehicle_type_id":"4","last_reported":1704089438,"current_range_meters":29200,"station_id":"ce4bhph2rcd13ifvqhdg","pricing_plan_id":"free"},{"bike_id":"2e19ce1d-1caf-404c-9771-51f4ff49ad9d","system_id":"levelo_inurba_marseille","lat":43.272116,"lon":5.391747,"is_reserved":false,"is_disabled":false,"rental_uris":{"android":"levelo://app?vid=2e19ce1d-1caf-404c-9771-51f4ff49ad9d","ios":"levelo://app?vid=2e19ce1d-1caf-404c-9771-51f4ff49ad9d"},"vehicle_type_id":"4","last_reported":1704089438,"current_range_meters":26800,"station_id":"ce4bhhp2rcd13ifvqfm0","pricing_plan_id":"free"},{"bike_id":"e9ebbe4b-fbbc-4df1-9ed1-04b991ab9c5d","system_id":"levelo_inurba_marseille","lat":43.317104,"lon":5.436818,"is_reserved":false,"is_disabled":false,"rental_uris":{"android":"levelo://app?vid=e9ebbe4b-fbbc-4df1-9ed1-04b991ab9c5d","ios":"levelo://app?vid=e9ebbe4b-fbbc-4df1-9ed1-04b991ab9c5d"},"vehicle_type_id":"4","last_reported":1704089438,"current_range_meters":29200,"station_id":"ce4bhp92rcd13ifvqhcg","pricing_plan_id":"free"},{"bike_id":"3460faa3-3efa-4ced-a2dd-75c84b806075","system_id":"levelo_inurba_marseille","lat":43.278128,"lon":5.407195,"is_reserved":false,"is_disabled":false,"rental_uris":{"android":"levelo://app?vid=3460faa3-3efa-4ced-a2dd-75c84b806075","ios":"levelo://app?vid=3460faa3-3efa-4ced-a2dd-75c84b806075"},"vehicle_type_id":"4","last_reported":1704089438,"current_range_meters":31600,"station_id":"ce4bhnh2rcd13ifvqgtg","pricing_plan_id":"free"},{"bike_id":"49ed539d-a525-408e-a3e9-48585140e904","system_id":"levelo_inurba_marseille","lat":43.278128,"lon":5.407195,"is_reserved":false,"is_disabled":false,"rental_uris":{"android":"levelo://app?vid=49ed539d-a525-408e-a3e9-48585140e904","ios":"levelo://app?vid=49ed539d-a525-408e-a3e9-48585140e904"},"vehicle_type_id":"4","last_reported":1704089438,"current_range_meters":31600,"station_id":"ce4bhnh2rcd13ifvqgtg","pricing_plan_id":"free"},{"bike_id":"32c57ad4-079c-44fe-8b02-2ae6b96f705f","system_id":"levelo_inurba_marseille","lat":43.278128,"lon":5.407195,"is_reserved":false,"is_disabled":false,"rental_uris":{"android":"levelo://app?vid=32c57ad4-079c-44fe-8b02-2ae6b96f705f","ios":"levelo://app?vid=32c57ad4-079c-44fe-8b02-2ae6b96f705f"},"vehicle_type_id":"4","last_reported":1704089438,"current_range_meters":12000,"station_id":"ce4bhnh2rcd13ifvqgtg","pricing_plan_id":"free"},{"bike_id":"f0a7805d-8667-4510-82e9-ef78b1699166","system_id":"levelo_inurba_marseille","lat":43.278128,"lon":5.407195,"is_reserved":false,"is_disabled":false,"rental_uris":{"android":"levelo://app?vid=f0a7805d-8667-4510-82e9-ef78b1699166","ios":"levelo://app?vid=f0a7805d-8667-4510-82e9-ef78b1699166"},"vehicle_type_id":"4","last_reported":1704089438,"current_range_meters":14000,"station_id":"ce4bhnh2rcd13ifvqgtg","pricing_plan_id":"free"},{"bike_id":"8f002fa8-6f9c-4630-8343-b12b1ef9b9ad","system_id":"levelo_inurba_marseille","lat":43.269467,"lon":5.386439,"is_reserved":false,"is_disabled":false,"rental_uris":{"android":"levelo://app?vid=8f002fa8-6f9c-4630-8343-b12b1ef9b9ad","ios":"levelo://app?vid=8f002fa8-6f9c-4630-8343-b12b1ef9b9ad"},"vehicle_type_id":"4","last_reported":1704089438,"current_range_meters":32000,"station_id":"ce4bhh92rcd13ifvqfh0","pricing_plan_id":"free"},{"bike_id":"3323efeb-9670-43fa-8604-d29a24480007","system_id":"levelo_inurba_marseille","lat":43.269467,"lon":5.386439,"is_reserved":false,"is_disabled":false,"rental_uris":{"android":"levelo://app?vid=3323efeb-9670-43fa-8604-d29a24480007","ios":"levelo://app?vid=3323efeb-9670-43fa-8604-d29a24480007"},"vehicle_type_id":"4","last_reported":1704089438,"current_range_meters":27600,"station_id":"ce4bhh92rcd13ifvqfh0","pricing_plan_id":"free"},{"bike_id":"67fa249e-3f52-409d-a454-faa95a72e7de","system_id":"levelo_inurba_marseille","lat":43.269467,"lon":5.386439,"is_reserved":false,"is_disabled":false,"rental_uris":{"android":"levelo://app?vid=67fa249e-3f52-409d-a454-faa95a72e7de","ios":"levelo://app?vid=67fa249e-3f52-409d-a454-faa95a72e7de"},"vehicle_type_id":"4","last_reported":1704089438,"current_range_meters":16800,"station_id":"ce4bhh92rcd13ifvqfh0","pricing_plan_id":"free"},{"bike_id":"0f431921-4dd9-4037-a211-457cf805d9f2","system_id":"levelo_inurba_marseille","lat":43.279465,"lon":5.410561,"is_reserved":false,"is_disabled":false,"rental_uris":{"android":"levelo://app?vid=0f431921-4dd9-4037-a211-457cf805d9f2","ios":"levelo://app?vid=0f431921-4dd9-4037-a211-457cf805d9f2"},"vehicle_type_id":"4","last_reported":1704089438,"current_range_meters":26800,"station_id":"ce4bhnp2rcd13ifvqh0g","pricing_plan_id":"free"},{"bike_id":"ce9af740-b6f6-4d36-b727-80a14c223ef9","system_id":"levelo_inurba_marseille","lat":43.279465,"lon":5.410561,"is_reserved":false,"is_disabled":false,"rental_uris":{"android":"levelo://app?vid=ce9af740-b6f6-4d36-b727-80a14c223ef9","ios":"levelo://app?vid=ce9af740-b6f6-4d36-b727-80a14c223ef9"},"vehicle_type_id":"4","last_reported":1704089438,"current_range_meters":4000,"station_id":"ce4bhnp2rcd13ifvqh0g","pricing_plan_id":"free"},{"bike_id":"4ace0143-54eb-450f-874b-0d5359e906a6","system_id":"levelo_inurba_marseille","lat":43.312969,"lon":5.430987,"is_reserved":false,"is_disabled":false,"rental_uris":{"android":"levelo://app?vid=4ace0143-54eb-450f-874b-0d5359e906a6","ios":"levelo://app?vid=4ace0143-54eb-450f-874b-0d5359e906a6"},"vehicle_type_id":"4","last_reported":1704089438,"current_range_meters":24000,"station_id":"","pricing_plan_id":"free"},{"bike_id":"4e7b82a4-f271-4a72-bdbd-460d1cfbd58d","system_id":"levelo_inurba_marseille","lat":43.27181,"lon":5.404997,"is_reserved":false,"is_disabled":false,"rental_uris":{"android":"levelo://app?vid=4e7b82a4-f271-4a72-bdbd-460d1cfbd58d","ios":"levelo://app?vid=4e7b82a4-f271-4a72-bdbd-460d1cfbd58d"},"vehicle_type_id":"4","last_reported":1704089438,"current_range_meters":12000,"station_id":"","pricing_plan_id":"free"},{"bike_id":"3ed4222d-3eb5-439b-8911-728f19db683e","system_id":"levelo_inurba_marseille","lat":43.308051,"lon":5.43527,"is_reserved":false,"is_disabled":false,"rental_uris":{"android":"levelo://app?vid=3ed4222d-3eb5-439b-8911-728f19db683e","ios":"levelo://app?vid=3ed4222d-3eb5-439b-8911-728f19db683e"},"vehicle_type_id":"4","last_reported":1704089438,"current_range_meters":27600,"station_id":"ce4bhph2rcd13ifvqheg","pricing_plan_id":"free"},{"bike_id":"0e2c6e78-45bc-427b-9f98-86a647897b89","system_id":"levelo_inurba_marseille","lat":43.26932,"lon":5.40253,"is_reserved":false,"is_disabled":false,"rental_uris":{"android":"levelo://app?vid=0e2c6e78-45bc-427b-9f98-86a647897b89","ios":"levelo://app?vid=0e2c6e78-45bc-427b-9f98-86a647897b89"},"vehicle_type_id":"4","last_reported":1704089438,"current_range_meters":22400,"station_id":"cjm6bp8fraef2m0cb0m0","pricing_plan_id":"free"},{"bike_id":"dac5ea74-92f7-462e-b536-31f322bb01c0","system_id":"levelo_inurba_marseille","lat":43.331893,"lon":5.431791,"is_reserved":false,"is_disabled":false,"rental_uris":{"android":"levelo://app?vid=dac5ea74-92f7-462e-b536-31f322bb01c0","ios":"levelo://app?vid=dac5ea74-92f7-462e-b536-31f322bb01c0"},"vehicle_type_id":"4","last_reported":1704089438,"current_range_meters":8400,"station_id":"","pricing_plan_id":"free"},{"bike_id":"09f009bd-9e78-4a83-b2bb-05fc1c2bb7eb","system_id":"levelo_inurba_marseille","lat":43.317104,"lon":5.436818,"is_reserved":false,"is_disabled":false,"rental_uris":{"android":"levelo://app?vid=09f009bd-9e78-4a83-b2bb-05fc1c2bb7eb","ios":"levelo://app?vid=09f009bd-9e78-4a83-b2bb-05fc1c2bb7eb"},"vehicle_type_id":"4","last_reported":1704089438,"current_range_meters":31600,"station_id":"ce4bhp92rcd13ifvqhcg","pricing_plan_id":"free"},{"bike_id":"dc793c91-cb73-4c9e-ac6f-4cc07abf5d0a","system_id":"levelo_inurba_marseille","lat":43.26202,"lon":5.379299,"is_reserved":false,"is_disabled":false,"rental_uris":{"android":"levelo://app?vid=dc793c91-cb73-4c9e-ac6f-4cc07abf5d0a","ios":"levelo://app?vid=dc793c91-cb73-4c9e-ac6f-4cc07abf5d0a"},"vehicle_type_id":"4","last_reported":1704089438,"current_range_meters":25600,"station_id":"ce4bhjp2rcd13ifvqg90","pricing_plan_id":"free"},{"bike_id":"a150474d-40b8-4ec3-b199-4c73eaa64b79","system_id":"levelo_inurba_marseille","lat":43.262012,"lon":5.379307,"is_reserved":false,"is_disabled":false,"rental_uris":{"android":"levelo://app?vid=a150474d-40b8-4ec3-b199-4c73eaa64b79","ios":"levelo://app?vid=a150474d-40b8-4ec3-b199-4c73eaa64b79"},"vehicle_type_id":"4","last_reported":1704089438,"current_range_meters":28400,"station_id":"ce4bhjp2rcd13ifvqg90","pricing_plan_id":"free"},{"bike_id":"24a8f553-12c1-4d7b-acf9-7cb382e5158b","system_id":"levelo_inurba_marseille","lat":43.26802,"lon":5.40265,"is_reserved":false,"is_disabled":false,"rental_uris":{"android":"levelo://app?vid=24a8f553-12c1-4d7b-acf9-7cb382e5158b","ios":"levelo://app?vid=24a8f553-12c1-4d7b-acf9-7cb382e5158b"},"vehicle_type_id":"4","last_reported":1704089438,"current_range_meters":27600,"station_id":"ce501612rcd8frsf0b60","pricing_plan_id":"free"},{"bike_id":"998cbe97-b23d-4803-8a45-4e42215098ea","system_id":"levelo_inurba_marseille","lat":43.2651,"lon":5.39469,"is_reserved":false,"is_disabled":false,"rental_uris":{"android":"levelo://app?vid=998cbe97-b23d-4803-8a45-4e42215098ea","ios":"levelo://app?vid=998cbe97-b23d-4803-8a45-4e42215098ea"},"vehicle_type_id":"4","last_reported":1704089438,"current_range_meters":27200,"station_id":"ce4bhi12rcd13ifvqfq0","pricing_plan_id":"free"},{"bike_id":"f359195f-f069-42a0-b818-68741f0dae01","system_id":"levelo_inurba_marseille","lat":43.298768,"lon":5.43643,"is_reserved":false,"is_disabled":false,"rental_uris":{"android":"levelo://app?vid=f359195f-f069-42a0-b818-68741f0dae01","ios":"levelo://app?vid=f359195f-f069-42a0-b818-68741f0dae01"},"vehicle_type_id":"4","last_reported":1704089438,"current_range_meters":30800,"station_id":"ce4bhpp2rcd13ifvqhfg","pricing_plan_id":"free"},{"bike_id":"2aef17d2-5e1a-42db-a1a2-eebc4e3d678f","system_id":"levelo_inurba_marseille","lat":43.298768,"lon":5.43643,"is_reserved":false,"is_disabled":false,"rental_uris":{"android":"levelo://app?vid=2aef17d2-5e1a-42db-a1a2-eebc4e3d678f","ios":"levelo://app?vid=2aef17d2-5e1a-42db-a1a2-eebc4e3d678f"},"vehicle_type_id":"4","last_reported":1704089438,"current_range_meters":10800,"station_id":"ce4bhpp2rcd13ifvqhfg","pricing_plan_id":"free"},{"bike_id":"ec17f12b-76f2-4e38-bdf0-2f3dcd905333","system_id":"levelo_inurba_marseille","lat":43.298768,"lon":5.43643,"is_reserved":false,"is_disabled":false,"rental_uris":{"android":"levelo://app?vid=ec17f12b-76f2-4e38-bdf0-2f3dcd905333","ios":"levelo://app?vid=ec17f12b-76f2-4e38-bdf0-2f3dcd905333"},"vehicle_type_id":"4","last_reported":1704089438,"current_range_meters":29600,"station_id":"ce4bhpp2rcd13ifvqhfg","pricing_plan_id":"free"},{"bike_id":"58756083-15be-4646-af48-7193c5c7ed73","system_id":"levelo_inurba_marseille","lat":43.26025,"lon":5.37555,"is_reserved":false,"is_disabled":false,"rental_uris":{"android":"levelo://app?vid=58756083-15be-4646-af48-7193c5c7ed73","ios":"levelo://app?vid=58756083-15be-4646-af48-7193c5c7ed73"},"vehicle_type_id":"4","last_reported":1704089438,"current_range_meters":16000,"station_id":"ce4bhgh2rcd13ifvqfa0","pricing_plan_id":"free"},{"bike_id":"5a04ea17-eb41-4e08-b828-ac0858829f65","system_id":"levelo_inurba_marseille","lat":43.281548,"lon":5.42643,"is_reserved":false,"is_disabled":false,"rental_uris":{"android":"levelo://app?vid=5a04ea17-eb41-4e08-b828-ac0858829f65","ios":"levelo://app?vid=5a04ea17-eb41-4e08-b828-ac0858829f65"},"vehicle_type_id":"4","last_reported":1704089438,"current_range_meters":20800,"station_id":"ce4bhnh2rcd13ifvqgug","pricing_plan_id":"free"},{"bike_id":"51b307ad-3e03-4c88-8cbb-3669bbc8a1ad","system_id":"levelo_inurba_marseille","lat":43.281548,"lon":5.42643,"is_reserved":false,"is_disabled":false,"rental_uris":{"android":"levelo://app?vid=51b307ad-3e03-4c88-8cbb-3669bbc8a1ad","ios":"levelo://app?vid=51b307ad-3e03-4c88-8cbb-3669bbc8a1ad"},"vehicle_type_id":"4","last_reported":1704089438,"current_range_meters":31600,"station_id":"ce4bhnh2rcd13ifvqgug","pricing_plan_id":"free"},{"bike_id":"239866bf-d593-439b-8f00-008a123dffd7","system_id":"levelo_inurba_marseille","lat":43.281548,"lon":5.42643,"is_reserved":false,"is_disabled":false,"rental_uris":{"android":"levelo://app?vid=239866bf-d593-439b-8f00-008a123dffd7","ios":"levelo://app?vid=239866bf-d593-439b-8f00-008a123dffd7"},"vehicle_type_id":"4","last_reported":1704089438,"current_range_meters":31600,"station_id":"ce4bhnh2rcd13ifvqgug","pricing_plan_id":"free"},{"bike_id":"20f457aa-21b0-4254-bd2f-8b6f31ce302e","system_id":"levelo_inurba_marseille","lat":43.281548,"lon":5.42643,"is_reserved":false,"is_disabled":false,"rental_uris":{"android":"levelo://app?vid=20f457aa-21b0-4254-bd2f-8b6f31ce302e","ios":"levelo://app?vid=20f457aa-21b0-4254-bd2f-8b6f31ce302e"},"vehicle_type_id":"4","last_reported":1704089438,"current_range_meters":28400,"station_id":"ce4bhnh2rcd13ifvqgug","pricing_plan_id":"free"},{"bike_id":"01f7eda3-66b8-4dcd-bf13-0ce0ef9d991a","system_id":"levelo_inurba_marseille","lat":43.2607,"lon":5.393983,"is_reserved":false,"is_disabled":false,"rental_uris":{"android":"levelo://app?vid=01f7eda3-66b8-4dcd-bf13-0ce0ef9d991a","ios":"levelo://app?vid=01f7eda3-66b8-4dcd-bf13-0ce0ef9d991a"},"vehicle_type_id":"4","last_reported":1704089438,"current_range_meters":31200,"station_id":"ce4bhh92rcd13ifvqfj0","pricing_plan_id":"free"},{"bike_id":"d1e094fb-d921-48ac-8658-fc20eeb4416f","system_id":"levelo_inurba_marseille","lat":43.2607,"lon":5.393983,"is_reserved":false,"is_disabled":false,"rental_uris":{"android":"levelo://app?vid=d1e094fb-d921-48ac-8658-fc20eeb4416f","ios":"levelo://app?vid=d1e094fb-d921-48ac-8658-fc20eeb4416f"},"vehicle_type_id":"4","last_reported":1704089438,"current_range_meters":18800,"station_id":"ce4bhh92rcd13ifvqfj0","pricing_plan_id":"free"},{"bike_id":"bda89174-3cab-44c1-874d-f33cf9bd1902","system_id":"levelo_inurba_marseille","lat":43.274997,"lon":5.424473,"is_reserved":false,"is_disabled":false,"rental_uris":{"android":"levelo://app?vid=bda89174-3cab-44c1-874d-f33cf9bd1902","ios":"levelo://app?vid=bda89174-3cab-44c1-874d-f33cf9bd1902"},"vehicle_type_id":"4","last_reported":1704089438,"current_range_meters":18800,"station_id":"ce4bhn92rcd13ifvqgrg","pricing_plan_id":"free"},{"bike_id":"45fc6e2f-9e95-4494-a2de-c52c7faa0223","system_id":"levelo_inurba_marseille","lat":43.274998,"lon":5.424483,"is_reserved":false,"is_disabled":false,"rental_uris":{"android":"levelo://app?vid=45fc6e2f-9e95-4494-a2de-c52c7faa0223","ios":"levelo://app?vid=45fc6e2f-9e95-4494-a2de-c52c7faa0223"},"vehicle_type_id":"4","last_reported":1704089438,"current_range_meters":27600,"station_id":"","pricing_plan_id":"free"},{"bike_id":"9179f49f-3670-4ecd-bc3e-4f831f422d67","system_id":"levelo_inurba_marseille","lat":43.275028,"lon":5.424534,"is_reserved":false,"is_disabled":false,"rental_uris":{"android":"levelo://app?vid=9179f49f-3670-4ecd-bc3e-4f831f422d67","ios":"levelo://app?vid=9179f49f-3670-4ecd-bc3e-4f831f422d67"},"vehicle_type_id":"4","last_reported":1704089438,"current_range_meters":4000,"station_id":"ce4bhn92rcd13ifvqgrg","pricing_plan_id":"free"},{"bike_id":"a06ec287-2a56-41b0-9658-83b9e37bbbe8","system_id":"levelo_inurba_marseille","lat":43.275028,"lon":5.424534,"is_reserved":false,"is_disabled":false,"rental_uris":{"android":"levelo://app?vid=a06ec287-2a56-41b0-9658-83b9e37bbbe8","ios":"levelo://app?vid=a06ec287-2a56-41b0-9658-83b9e37bbbe8"},"vehicle_type_id":"4","last_reported":1704089438,"current_range_meters":31600,"station_id":"ce4bhn92rcd13ifvqgrg","pricing_plan_id":"free"},{"bike_id":"45641b02-053e-45a0-9062-dcd0f3d0b8a8","system_id":"levelo_inurba_marseille","lat":43.27494,"lon":5.42451,"is_reserved":false,"is_disabled":false,"rental_uris":{"android":"levelo://app?vid=45641b02-053e-45a0-9062-dcd0f3d0b8a8","ios":"levelo://app?vid=45641b02-053e-45a0-9062-dcd0f3d0b8a8"},"vehicle_type_id":"4","last_reported":1704089438,"current_range_meters":18800,"station_id":"ce4bhn92rcd13ifvqgrg","pricing_plan_id":"free"},{"bike_id":"33793795-b087-44d4-a02e-efe98f05f298","system_id":"levelo_inurba_marseille","lat":43.275028,"lon":5.424534,"is_reserved":false,"is_disabled":false,"rental_uris":{"android":"levelo://app?vid=33793795-b087-44d4-a02e-efe98f05f298","ios":"levelo://app?vid=33793795-b087-44d4-a02e-efe98f05f298"},"vehicle_type_id":"4","last_reported":1704089438,"current_range_meters":29600,"station_id":"ce4bhn92rcd13ifvqgrg","pricing_plan_id":"free"},{"bike_id":"6d878514-726e-4ffd-9b3a-eefd5879b168","system_id":"levelo_inurba_marseille","lat":43.275028,"lon":5.424534,"is_reserved":false,"is_disabled":false,"rental_uris":{"android":"levelo://app?vid=6d878514-726e-4ffd-9b3a-eefd5879b168","ios":"levelo://app?vid=6d878514-726e-4ffd-9b3a-eefd5879b168"},"vehicle_type_id":"4","last_reported":1704089438,"current_range_meters":31200,"station_id":"ce4bhn92rcd13ifvqgrg","pricing_plan_id":"free"},{"bike_id":"23a57bfb-979b-41bc-8255-554a79acebf8","system_id":"levelo_inurba_marseille","lat":43.258287,"lon":5.394215,"is_reserved":false,"is_disabled":false,"rental_uris":{"android":"levelo://app?vid=23a57bfb-979b-41bc-8255-554a79acebf8","ios":"levelo://app?vid=23a57bfb-979b-41bc-8255-554a79acebf8"},"vehicle_type_id":"4","last_reported":1704089438,"current_range_meters":30000,"station_id":"ce4bhip2rcd13ifvqft0","pricing_plan_id":"free"},{"bike_id":"a7324e14-bfe4-4f39-9f0e-21c969048957","system_id":"levelo_inurba_marseille","lat":43.255756,"lon":5.382303,"is_reserved":false,"is_disabled":false,"rental_uris":{"android":"levelo://app?vid=a7324e14-bfe4-4f39-9f0e-21c969048957","ios":"levelo://app?vid=a7324e14-bfe4-4f39-9f0e-21c969048957"},"vehicle_type_id":"4","last_reported":1704089438,"current_range_meters":28800,"station_id":"ce4bhih2rcd13ifvqfs0","pricing_plan_id":"free"},{"bike_id":"5788762e-9472-46a7-8231-ae83009faa18","system_id":"levelo_inurba_marseille","lat":43.270721,"lon":5.422764,"is_reserved":false,"is_disabled":false,"rental_uris":{"android":"levelo://app?vid=5788762e-9472-46a7-8231-ae83009faa18","ios":"levelo://app?vid=5788762e-9472-46a7-8231-ae83009faa18"},"vehicle_type_id":"4","last_reported":1704089438,"current_range_meters":31600,"station_id":"ce4bhk92rcd13ifvqgb0","pricing_plan_id":"free"},{"bike_id":"62fa9472-9020-4411-8504-0cd1e2282d5e","system_id":"levelo_inurba_marseille","lat":43.270691,"lon":5.422775,"is_reserved":false,"is_disabled":false,"rental_uris":{"android":"levelo://app?vid=62fa9472-9020-4411-8504-0cd1e2282d5e","ios":"levelo://app?vid=62fa9472-9020-4411-8504-0cd1e2282d5e"},