{"last_updated":1738415435,"ttl":60,"version":"2.2","data":{"bikes":[{"bike_id":"5121270c-1c11-4ce0-892b-9a8960db6210","system_id":"levelo_inurba_marseille","lat":43.31767,"lon":5.39,"is_reserved":false,"is_disabled":false,"rental_uris":{"android":"levelo://app?vid=5121270c-1c11-4ce0-892b-9a8960db6210","ios":"levelo://app?vid=5121270c-1c11-4ce0-892b-9a8960db6210"},"vehicle_type_id":"4","last_reported":1738415435,"current_range_meters":30000,"station_id":"ce4bhqp2rcd13ifvqhng","pricing_plan_id":"cebpf4jnsgd1na2vs0mg"},{"bike_id":"99c8e731-f913-430f-a2bc-32d57a5fab53","system_id":"levelo_inurba_marseille","lat":43.28476,"lon":5.38483,"is_reserved":false,"is_disabled":true,"rental_uris":{"android":"levelo://app?vid=99c8e731-f913-430f-a2bc-32d57a5fab53","ios":"levelo://app?vid=99c8e731-f913-430f-a2bc-32d57a5fab53"},"vehicle_type_id":"4","last_reported":1738415435,"current_range_meters":24400,"station_id":"ce4bh512rcd13ifvqe3g","pricing_plan_id":"cebpf4jnsgd1na2vs0mg"},{"bike_id":"56449502-cf81-4e0b-9369-54d98b67c1bb","system_id":"levelo_inurba_marseille","lat":43.31307,"lon":5.36717,"is_reserved":false,"is_disabled":false,"rental_uris":{"android":"levelo://app?vid=56449502-cf81-4e0b-9369-54d98b67c1bb","ios":"levelo://app?vid=56449502-cf81-4e0b-9369-54d98b67c1bb"},"vehicle_type_id":"4","last_reported":1738415435,"current_range_meters":18800,"station_id":"ce4bgr92rcd13ifvqc6g","pricing_plan_id":"cebpf4jnsgd1na2vs0mg"},{"bike_id":"3960e9b9-a3ca-48a0-a568-d59ff50cb61d","system_id":"levelo_inurba_marseille","lat":43.30141,"lon":5.38068,"is_reserved":false,"is_disabled":false,"rental_uris":{"android":"levelo://app?vid=3960e9b9-a3ca-48a0-a568-d59ff50cb61d","ios":"levelo://app?vid=3960e9b9-a3ca-48a0-a568-d59ff50cb61d"},"vehicle_type_id":"4","last_reported":1738415435,"current_range_meters":13600,"station_id":"ce4bgjp2rcd13ifvqbh0","pricing_plan_id":"cebpf4jnsgd1na2vs0mg"},{"bike_id":"50dba4e6-d441-43cb-81b3-18b5b479c80a","system_id":"levelo_inurba_marseille","lat":43.27375,"lon":5.36275,"is_reserved":false,"is_disabled":false,"rental_uris":{"android":"levelo://app?vid=50dba4e6-d441-43cb-81b3-18b5b479c80a","ios":"levelo://app?vid=50dba4e6-d441-43cb-81b3-18b5b479c80a"},"vehicle_type_id":"4","last_reported":1738415435,"current_range_meters":27200,"station_id":"ce4bhbh2rcd13ifvqeo0","pricing_plan_id":"cebpf4jnsgd1na2vs0mg"},{"bike_id":"11a4d244-c59c-4823-b704-9c99e46e7c29","system_id":"levelo_inurba_marseille","lat":43.2931,"lon":5.37428,"is_reserved":false,"is_disabled":false,"rental_uris":{"android":"levelo://app?vid=11a4d244-c59c-4823-b704-9c99e46e7c29","ios":"levelo://app?vid=11a4d244-c59c-4823-b704-9c99e46e7c29"},"vehicle_type_id":"4","last_reported":1738415435,"current_range_meters":38800,"station_id":"ce4bgi12rcd13ifvqb70","pricing_plan_id":"cebpf4jnsgd1na2vs0mg"},{"bike_id":"68ec889f-fbad-4ec7-bbe1-dbda6b88a3f5","system_id":"levelo_inurba_marseille","lat":43.290281,"lon":5.386446,"is_reserved":false,"is_disabled":true,"rental_uris":{"android":"levelo://app?vid=68ec889f-fbad-4ec7-bbe1-dbda6b88a3f5","ios":"levelo://app?vid=68ec889f-fbad-4ec7-bbe1-dbda6b88a3f5"},"vehicle_type_id":"4","last_reported":1738415435,"current_range_meters":29600,"station_id":"ce4bh4p2rcd13ifvqe0g","pricing_plan_id":"cebpf4jnsgd1na2vs0mg"},{"bike_id":"ec8f6058-6100-4152-a231-a6e2b63a93a4","system_id":"levelo_inurba_marseille","lat":43.25844,"lon":5.39419,"is_reserved":false,"is_disabled":false,"rental_uris":{"android":"levelo://app?vid=ec8f6058-6100-4152-a231-a6e2b63a93a4","ios":"levelo://app?vid=ec8f6058-6100-4152-a231-a6e2b63a93a4"},"vehicle_type_id":"4","last_reported":1738415435,"current_range_meters":24000,"station_id":"ce4bhip2rcd13ifvqft0","pricing_plan_id":"cebpf4jnsgd1na2vs0mg"},{"bike_id":"aa29fb87-ec0f-457c-89b2-8a2b86cc68a7","system_id":"levelo_inurba_marseille","lat":43.32282,"lon":5.38262,"is_reserved":false,"is_disabled":false,"rental_uris":{"android":"levelo://app?vid=aa29fb87-ec0f-457c-89b2-8a2b86cc68a7","ios":"levelo://app?vid=aa29fb87-ec0f-457c-89b2-8a2b86cc68a7"},"vehicle_type_id":"4","last_reported":1738415435,"current_range_meters":26800,"station_id":"ce4bhr12rcd13ifvqhqg","pricing_plan_id":"cebpf4jnsgd1na2vs0mg"},{"bike_id":"775ea6c8-830e-43b4-8783-0f1b578a59f2","system_id":"levelo_inurba_marseille","lat":43.25888,"lon":5.39865,"is_reserved":false,"is_disabled":false,"rental_uris":{"android":"levelo://app?vid=775ea6c8-830e-43b4-8783-0f1b578a59f2","ios":"levelo://app?vid=775ea6c8-830e-43b4-8783-0f1b578a59f2"},"vehicle_type_id":"4","last_reported":1738415435,"current_range_meters":14000,"station_id":"ce4bhl92rcd13ifvqghg","pricing_plan_id":"cebpf4jnsgd1na2vs0mg"},{"bike_id":"ed3b7fbe-dd9d-4bab-8f42-a2405c5dd34c","system_id":"levelo_inurba_marseille","lat":43.26681,"lon":5.38264,"is_reserved":false,"is_disabled":false,"rental_uris":{"android":"levelo://app?vid=ed3b7fbe-dd9d-4bab-8f42-a2405c5dd34c","ios":"levelo://app?vid=ed3b7fbe-dd9d-4bab-8f42-a2405c5dd34c"},"vehicle_type_id":"4","last_reported":1738415435,"current_range_meters":38800,"station_id":"ce4bhg92rcd13ifvqf90","pricing_plan_id":"cebpf4jnsgd1na2vs0mg"},{"bike_id":"09a7f084-e83a-4ea7-9d4d-0760cf1940fc","system_id":"levelo_inurba_marseille","lat":43.309476,"lon":5.390417,"is_reserved":false,"is_disabled":false,"rental_uris":{"android":"levelo://app?vid=09a7f084-e83a-4ea7-9d4d-0760cf1940fc","ios":"levelo://app?vid=09a7f084-e83a-4ea7-9d4d-0760cf1940fc"},"vehicle_type_id":"4","last_reported":1738415435,"current_range_meters":34000,"station_id":"ce4bgup2rcd13ifvqco0","pricing_plan_id":"cebpf4jnsgd1na2vs0mg"},{"bike_id":"d393723a-6908-441b-91f0-930ef3714226","system_id":"levelo_inurba_marseille","lat":43.34144,"lon":5.40907,"is_reserved":false,"is_disabled":false,"rental_uris":{"android":"levelo://app?vid=d393723a-6908-441b-91f0-930ef3714226","ios":"levelo://app?vid=d393723a-6908-441b-91f0-930ef3714226"},"vehicle_type_id":"4","last_reported":1738415435,"current_range_meters":36400,"station_id":"ce4bhqh2rcd13ifvqhlg","pricing_plan_id":"cebpf4jnsgd1na2vs0mg"},{"bike_id":"0f34ced6-9c0b-4b80-99d8-a4641f354d15","system_id":"levelo_inurba_marseille","lat":43.30148,"lon":5.39857,"is_reserved":false,"is_disabled":false,"rental_uris":{"android":"levelo://app?vid=0f34ced6-9c0b-4b80-99d8-a4641f354d15","ios":"levelo://app?vid=0f34ced6-9c0b-4b80-99d8-a4641f354d15"},"vehicle_type_id":"4","last_reported":1738415435,"current_range_meters":39200,"station_id":"ce4bh0h2rcd13ifvqd40","pricing_plan_id":"cebpf4jnsgd1na2vs0mg"},{"bike_id":"2fbb8cae-bc83-4d9f-a595-dbdebd811247","system_id":"levelo_inurba_marseille","lat":43.27924,"lon":5.3958,"is_reserved":false,"is_disabled":false,"rental_uris":{"android":"levelo://app?vid=2fbb8cae-bc83-4d9f-a595-dbdebd811247","ios":"levelo://app?vid=2fbb8cae-bc83-4d9f-a595-dbdebd811247"},"vehicle_type_id":"4","last_reported":1738415435,"current_range_meters":38800,"station_id":"ce4bhf92rcd13ifvqf40","pricing_plan_id":"cebpf4jnsgd1na2vs0mg"},{"bike_id":"364eb652-69b2-4cd0-85cc-79efa41d2c35","system_id":"levelo_inurba_marseille","lat":43.27055,"lon":5.4026,"is_reserved":false,"is_disabled":false,"rental_uris":{"android":"levelo://app?vid=364eb652-69b2-4cd0-85cc-79efa41d2c35","ios":"levelo://app?vid=364eb652-69b2-4cd0-85cc-79efa41d2c35"},"vehicle_type_id":"4","last_reported":1738415435,"current_range_meters":4800,"station_id":"ce4bhk92rcd13ifvqgc0","pricing_plan_id":"cebpf4jnsgd1na2vs0mg"},{"bike_id":"8126c25c-c3a2-4cdd-a2e4-d380d215e724","system_id":"levelo_inurba_marseille","lat":43.26813,"lon":5.40263,"is_reserved":false,"is_disabled":false,"rental_uris":{"android":"levelo://app?vid=8126c25c-c3a2-4cdd-a2e4-d380d215e724","ios":"levelo://app?vid=8126c25c-c3a2-4cdd-a2e4-d380d215e724"},"vehicle_type_id":"4","last_reported":1738415435,"current_range_meters":38800,"station_id":"ce501612rcd8frsf0b60","pricing_plan_id":"cebpf4jnsgd1na2vs0mg"},{"bike_id":"2e717bd1-6f1e-4705-ac56-fd230708337b","system_id":"levelo_inurba_marseille","lat":43.28616,"lon":5.37062,"is_reserved":false,"is_disabled":false,"rental_uris":{"android":"levelo://app?vid=2e717bd1-6f1e-4705-ac56-fd230708337b","ios":"levelo://app?vid=2e717bd1-6f1e-4705-ac56-fd230708337b"},"vehicle_type_id":"4","last_reported":1738415435,"current_range_meters":38000,"station_id":"ce4bht12rcd13ifvqi60","pricing_plan_id":"cebpf4jnsgd1na2vs0mg"},{"bike_id":"e9abb5d2-2073-4162-b2dc-cfd7f7c30827","system_id":"levelo_inurba_marseille","lat":43.30142,"lon":5.39844,"is_reserved":false,"is_disabled":false,"rental_uris":{"android":"levelo://app?vid=e9abb5d2-2073-4162-b2dc-cfd7f7c30827","ios":"levelo://app?vid=e9abb5d2-2073-4162-b2dc-cfd7f7c30827"},"vehicle_type_id":"4","last_reported":1738415435,"current_range_meters":38800,"station_id":"ce4bh0h2rcd13ifvqd40","pricing_plan_id":"cebpf4jnsgd1na2vs0mg"},{"bike_id":"1fbf3f20-0930-4b85-8900-561217e5a0eb","system_id":"levelo_inurba_marseille","lat":43.30429,"lon":5.41282,"is_reserved":false,"is_disabled":false,"rental_uris":{"android":"levelo://app?vid=1fbf3f20-0930-4b85-8900-561217e5a0eb","ios":"levelo://app?vid=1fbf3f20-0930-4b85-8900-561217e5a0eb"},"vehicle_type_id":"4","last_reported":1738415435,"current_range_meters":25200,"station_id":"ce4bhop2rcd13ifvqh8g","pricing_plan_id":"cebpf4jnsgd1na2vs0mg"},{"bike_id":"91d4d49e-3083-4bac-9de0-b5ec86415821","system_id":"levelo_inurba_marseille","lat":43.24644,"lon":5.38899,"is_reserved":false,"is_disabled":false,"rental_uris":{"android":"levelo://app?vid=91d4d49e-3083-4bac-9de0-b5ec86415821","ios":"levelo://app?vid=91d4d49e-3083-4bac-9de0-b5ec86415821"},"vehicle_type_id":"4","last_reported":1738415435,"current_range_meters":38800,"station_id":"ce4bhg12rcd13ifvqf60","pricing_plan_id":"cebpf4jnsgd1na2vs0mg"},{"bike_id":"b53cf432-0e47-4b61-a305-952377a64c88","system_id":"levelo_inurba_marseille","lat":43.308024,"lon":5.381679,"is_reserved":false,"is_disabled":true,"rental_uris":{"android":"levelo://app?vid=b53cf432-0e47-4b61-a305-952377a64c88","ios":"levelo://app?vid=b53cf432-0e47-4b61-a305-952377a64c88"},"vehicle_type_id":"4","last_reported":1738415435,"current_range_meters":38800,"station_id":"ce4bgt12rcd13ifvqce0","pricing_plan_id":"cebpf4jnsgd1na2vs0mg"},{"bike_id":"7b3e02c5-0818-4fc4-813c-4a89f3c75475","system_id":"levelo_inurba_marseille","lat":43.27993,"lon":5.39986,"is_reserved":false,"is_disabled":false,"rental_uris":{"android":"levelo://app?vid=7b3e02c5-0818-4fc4-813c-4a89f3c75475","ios":"levelo://app?vid=7b3e02c5-0818-4fc4-813c-4a89f3c75475"},"vehicle_type_id":"4","last_reported":1738415435,"current_range_meters":26000,"station_id":"ce4bho92rcd13ifvqh4g","pricing_plan_id":"cebpf4jnsgd1na2vs0mg"},{"bike_id":"13a71ca0-af90-4e61-a6f2-18a028732efe","system_id":"levelo_inurba_marseille","lat":43.25092,"lon":5.39513,"is_reserved":false,"is_disabled":false,"rental_uris":{"android":"levelo://app?vid=13a71ca0-af90-4e61-a6f2-18a028732efe","ios":"levelo://app?vid=13a71ca0-af90-4e61-a6f2-18a028732efe"},"vehicle_type_id":"4","last_reported":1738415435,"current_range_meters":32800,"station_id":"ce4bhm12rcd13ifvqgkg","pricing_plan_id":"cebpf4jnsgd1na2vs0mg"},{"bike_id":"73637413-8732-49c9-ab7d-ba037e3c1fcf","system_id":"levelo_inurba_marseille","lat":43.27988,"lon":5.40023,"is_reserved":false,"is_disabled":false,"rental_uris":{"android":"levelo://app?vid=73637413-8732-49c9-ab7d-ba037e3c1fcf","ios":"levelo://app?vid=73637413-8732-49c9-ab7d-ba037e3c1fcf"},"vehicle_type_id":"4","last_reported":1738415435,"current_range_meters":25200,"station_id":"ce4bho92rcd13ifvqh4g","pricing_plan_id":"cebpf4jnsgd1na2vs0mg"},{"bike_id":"8784a30a-a330-4b05-89bf-f5db332a6fc3","system_id":"levelo_inurba_marseille","lat":43.28723,"lon":5.37929,"is_reserved":false,"is_disabled":false,"rental_uris":{"android":"levelo://app?vid=8784a30a-a330-4b05-89bf-f5db332a6fc3","ios":"levelo://app?vid=8784a30a-a330-4b05-89bf-f5db332a6fc3"},"vehicle_type_id":"4","last_reported":1738415435,"current_range_meters":36000,"station_id":"ce4bh9p2rcd13ifvqec0","pricing_plan_id":"cebpf4jnsgd1na2vs0mg"},{"bike_id":"616ab4bd-85f5-4e17-a0e2-7b3122796fc9","system_id":"levelo_inurba_marseille","lat":43.29621,"lon":5.37167,"is_reserved":false,"is_disabled":false,"rental_uris":{"android":"levelo://app?vid=616ab4bd-85f5-4e17-a0e2-7b3122796fc9","ios":"levelo://app?vid=616ab4bd-85f5-4e17-a0e2-7b3122796fc9"},"vehicle_type_id":"4","last_reported":1738415435,"current_range_meters":26800,"station_id":"ce4bgnh2rcd13ifvqc0g","pricing_plan_id":"cebpf4jnsgd1na2vs0mg"},{"bike_id":"cca9da95-e0e4-4a1a-9fa6-232e9cbcc558","system_id":"levelo_inurba_marseille","lat":43.30544,"lon":5.36542,"is_reserved":false,"is_disabled":false,"rental_uris":{"android":"levelo://app?vid=cca9da95-e0e4-4a1a-9fa6-232e9cbcc558","ios":"levelo://app?vid=cca9da95-e0e4-4a1a-9fa6-232e9cbcc558"},"vehicle_type_id":"4","last_reported":1738415435,"current_range_meters":28000,"station_id":"ce4bgs12rcd13ifvqcag","pricing_plan_id":"cebpf4jnsgd1na2vs0mg"},{"bike_id":"96b3e34a-8e5f-41e1-8213-bd3edd8a945b","system_id":"levelo_inurba_marseille","lat":43.29222,"lon":5.36062,"is_reserved":false,"is_disabled":false,"rental_uris":{"android":"levelo://app?vid=96b3e34a-8e5f-41e1-8213-bd3edd8a945b","ios":"levelo://app?vid=96b3e34a-8e5f-41e1-8213-bd3edd8a945b"},"vehicle_type_id":"4","last_reported":1738415435,"current_range_meters":30400,"station_id":"ce4bhbh2rcd13ifvqeqg","pricing_plan_id":"cebpf4jnsgd1na2vs0mg"},{"bike_id":"cc47836a-b908-432f-8e0e-2f793407f141","system_id":"levelo_inurba_marseille","lat":43.22924,"lon":5.35378,"is_reserved":false,"is_disabled":false,"rental_uris":{"android":"levelo://app?vid=cc47836a-b908-432f-8e0e-2f793407f141","ios":"levelo://app?vid=cc47836a-b908-432f-8e0e-2f793407f141"},"vehicle_type_id":"4","last_reported":1738415435,"current_range_meters":6400,"station_id":"cpo3532slgdg3j2ikp40","pricing_plan_id":"cebpf4jnsgd1na2vs0mg"},{"bike_id":"b7b8b73a-0c1c-45e0-b545-54a4098ad50c","system_id":"levelo_inurba_marseille","lat":43.27569,"lon":5.38406,"is_reserved":false,"is_disabled":true,"rental_uris":{"android":"levelo://app?vid=b7b8b73a-0c1c-45e0-b545-54a4098ad50c","ios":"levelo://app?vid=b7b8b73a-0c1c-45e0-b545-54a4098ad50c"},"vehicle_type_id":"4","last_reported":1738415435,"current_range_meters":35600,"station_id":"ce4bhh92rcd13ifvqfi0","pricing_plan_id":"cebpf4jnsgd1na2vs0mg"},{"bike_id":"eccf3e1b-479c-430a-81d9-b77c081460ec","system_id":"levelo_inurba_marseille","lat":43.31764,"lon":5.39014,"is_reserved":false,"is_disabled":true,"rental_uris":{"android":"levelo://app?vid=eccf3e1b-479c-430a-81d9-b77c081460ec","ios":"levelo://app?vid=eccf3e1b-479c-430a-81d9-b77c081460ec"},"vehicle_type_id":"4","last_reported":1738415435,"current_range_meters":15200,"station_id":"ce4bhqp2rcd13ifvqhng","pricing_plan_id":"cebpf4jnsgd1na2vs0mg"},{"bike_id":"d71d72c3-6ab1-418b-a776-4e0c7c5959e7","system_id":"levelo_inurba_marseille","lat":43.25829,"lon":5.39408,"is_reserved":false,"is_disabled":false,"rental_uris":{"android":"levelo://app?vid=d71d72c3-6ab1-418b-a776-4e0c7c5959e7","ios":"levelo://app?vid=d71d72c3-6ab1-418b-a776-4e0c7c5959e7"},"vehicle_type_id":"4","last_reported":1738415435,"current_range_meters":38800,"station_id":"ce4bhip2rcd13ifvqft0","pricing_plan_id":"cebpf4jnsgd1na2vs0mg"},{"bike_id":"23c923a1-af91-4640-af96-e279148e4230","system_id":"levelo_inurba_marseille","lat":43.29299,"lon":5.37448,"is_reserved":false,"is_disabled":false,"rental_uris":{"android":"levelo://app?vid=23c923a1-af91-4640-af96-e279148e4230","ios":"levelo://app?vid=23c923a1-af91-4640-af96-e279148e4230"},"vehicle_type_id":"4","last_reported":1738415435,"current_range_meters":37600,"station_id":"ce4bgi12rcd13ifvqb70","pricing_plan_id":"cebpf4jnsgd1na2vs0mg"},{"bike_id":"0edaa840-e8b0-4f2c-ad98-c123355c590c","system_id":"levelo_inurba_marseille","lat":43.26066,"lon":5.39359,"is_reserved":false,"is_disabled":true,"rental_uris":{"android":"levelo://app?vid=0edaa840-e8b0-4f2c-ad98-c123355c590c","ios":"levelo://app?vid=0edaa840-e8b0-4f2c-ad98-c123355c590c"},"vehicle_type_id":"4","last_reported":1738415435,"current_range_meters":34800,"station_id":"ce4bhh92rcd13ifvqfj0","pricing_plan_id":"cebpf4jnsgd1na2vs0mg"},{"bike_id":"0c8187f5-988a-4457-bbb8-4cf908ac31d3","system_id":"levelo_inurba_marseille","lat":43.25861,"lon":5.39443,"is_reserved":false,"is_disabled":false,"rental_uris":{"android":"levelo://app?vid=0c8187f5-988a-4457-bbb8-4cf908ac31d3","ios":"levelo://app?vid=0c8187f5-988a-4457-bbb8-4cf908ac31d3"},"vehicle_type_id":"4","last_reported":1738415435,"current_range_meters":18800,"station_id":"ce4bhip2rcd13ifvqft0","pricing_plan_id":"cebpf4jnsgd1na2vs0mg"},{"bike_id":"3ebc5ba0-5190-4a29-bb96-e3a4b494961c","system_id":"levelo_inurba_marseille","lat":43.24553,"lon":5.39532,"is_reserved":false,"is_disabled":false,"rental_uris":{"android":"levelo://app?vid=3ebc5ba0-5190-4a29-bb96-e3a4b494961c","ios":"levelo://app?vid=3ebc5ba0-5190-4a29-bb96-e3a4b494961c"},"vehicle_type_id":"4","last_reported":1738415435,"current_range_meters":17200,"station_id":"ce4bhlp2rcd13ifvqgjg","pricing_plan_id":"cebpf4jnsgd1na2vs0mg"},{"bike_id":"66761650-6861-4b43-a923-1a20129be620","system_id":"levelo_inurba_marseille","lat":43.29571,"lon":5.37509,"is_reserved":false,"is_disabled":false,"rental_uris":{"android":"levelo://app?vid=66761650-6861-4b43-a923-1a20129be620","ios":"levelo://app?vid=66761650-6861-4b43-a923-1a20129be620"},"vehicle_type_id":"4","last_reported":1738415435,"current_range_meters":26800,"station_id":"ce4bgh92rcd13ifvqb50","pricing_plan_id":"cebpf4jnsgd1na2vs0mg"},{"bike_id":"a6075a34-f94f-4f52-9ebc-598d8926e2ba","system_id":"levelo_inurba_marseille","lat":43.29278,"lon":5.36852,"is_reserved":false,"is_disabled":false,"rental_uris":{"android":"levelo://app?vid=a6075a34-f94f-4f52-9ebc-598d8926e2ba","ios":"levelo://app?vid=a6075a34-f94f-4f52-9ebc-598d8926e2ba"},"vehicle_type_id":"4","last_reported":1738415435,"current_range_meters":38800,"station_id":"ce4bhbp2rcd13ifvqesg","pricing_plan_id":"cebpf4jnsgd1na2vs0mg"},{"bike_id":"9ecfc8d4-291d-4236-afb2-b6d9f6efb723","system_id":"levelo_inurba_marseille","lat":43.31224,"lon":5.36848,"is_reserved":false,"is_disabled":false,"rental_uris":{"android":"levelo://app?vid=9ecfc8d4-291d-4236-afb2-b6d9f6efb723","ios":"levelo://app?vid=9ecfc8d4-291d-4236-afb2-b6d9f6efb723"},"vehicle_type_id":"4","last_reported":1738415435,"current_range_meters":39200,"station_id":"ce4bgl92rcd13ifvqbq0","pricing_plan_id":"cebpf4jnsgd1na2vs0mg"},{"bike_id":"606053f9-3da2-4594-b4df-8e24b5fa812c","system_id":"levelo_inurba_marseille","lat":43.2693,"lon":5.40268,"is_reserved":false,"is_disabled":false,"rental_uris":{"android":"levelo://app?vid=606053f9-3da2-4594-b4df-8e24b5fa812c","ios":"levelo://app?vid=606053f9-3da2-4594-b4df-8e24b5fa812c"},"vehicle_type_id":"4","last_reported":1738415435,"current_range_meters":36000,"station_id":"cjm6bp8fraef2m0cb0m0","pricing_plan_id":"cebpf4jnsgd1na2vs0mg"},{"bike_id":"f720c211-f619-416a-9767-3407b271a46e","system_id":"levelo_inurba_marseille","lat":43.31279,"lon":5.37347,"is_reserved":false,"is_disabled":false,"rental_uris":{"android":"levelo://app?vid=f720c211-f619-416a-9767-3407b271a46e","ios":"levelo://app?vid=f720c211-f619-416a-9767-3407b271a46e"},"vehicle_type_id":"4","last_reported":1738415435,"current_range_meters":34000,"station_id":"","pricing_plan_id":"cebpf4jnsgd1na2vs0mg"},{"bike_id":"db1aa567-1d04-4a26-a1f5-0de8ad3269f7","system_id":"levelo_inurba_marseille","lat":43.26556,"lon":5.37281,"is_reserved":false,"is_disabled":false,"rental_uris":{"android":"levelo://app?vid=db1aa567-1d04-4a26-a1f5-0de8ad3269f7","ios":"levelo://app?vid=db1aa567-1d04-4a26-a1f5-0de8ad3269f7"},"vehicle_type_id":"4","last_reported":1738415435,"current_range_meters":38000,"station_id":"ce4bhg12rcd13ifvqf70","pricing_plan_id":"cebpf4jnsgd1na2vs0mg"},{"bike_id":"9d482136-ce86-42bd-8af6-c747f6e74a73","system_id":"levelo_inurba_marseille","lat":43.27619,"lon":5.36112,"is_reserved":false,"is_disabled":false,"rental_uris":{"android":"levelo://app?vid=9d482136-ce86-42bd-8af6-c747f6e74a73","ios":"levelo://app?vid=9d482136-ce86-42bd-8af6-c747f6e74a73"},"vehicle_type_id":"4","last_reported":1738415435,"current_range_meters":6800,"station_id":"ce4bgj92rcd13ifvqbe0","pricing_plan_id":"cebpf4jnsgd1na2vs0mg"},{"bike_id":"2d4ac7cf-dd31-48ab-b38a-9608533cbc17","system_id":"levelo_inurba_marseille","lat":43.29036,"lon":5.39962,"is_reserved":false,"is_disabled":false,"rental_uris":{"android":"levelo://app?vid=2d4ac7cf-dd31-48ab-b38a-9608533cbc17","ios":"levelo://app?vid=2d4ac7cf-dd31-48ab-b38a-9608533cbc17"},"vehicle_type_id":"4","last_reported":1738415435,"current_range_meters":25600,"station_id":"ce4bh392rcd13ifvqdm0","pricing_plan_id":"cebpf4jnsgd1na2vs0mg"},{"bike_id":"26f0c763-2955-4920-a58a-d28d6a489be6","system_id":"levelo_inurba_marseille","lat":43.30464,"lon":5.37913,"is_reserved":false,"is_disabled":false,"rental_uris":{"android":"levelo://app?vid=26f0c763-2955-4920-a58a-d28d6a489be6","ios":"levelo://app?vid=26f0c763-2955-4920-a58a-d28d6a489be6"},"vehicle_type_id":"4","last_reported":1738415435,"current_range_meters":28400,"station_id":"ce4bgup2rcd13ifvqcn0","pricing_plan_id":"cebpf4jnsgd1na2vs0mg"},{"bike_id":"ccb14f96-c600-4289-9163-893262461446","system_id":"levelo_inurba_marseille","lat":43.30274,"lon":5.37713,"is_reserved":false,"is_disabled":false,"rental_uris":{"android":"levelo://app?vid=ccb14f96-c600-4289-9163-893262461446","ios":"levelo://app?vid=ccb14f96-c600-4289-9163-893262461446"},"vehicle_type_id":"4","last_reported":1738415435,"current_range_meters":38000,"station_id":"ce4bguh2rcd13ifvqcj0","pricing_plan_id":"cebpf4jnsgd1na2vs0mg"},{"bike_id":"095e5291-f842-4478-bc34-3769cd441c0c","system_id":"levelo_inurba_marseille","lat":43.28165,"lon":5.42651,"is_reserved":false,"is_disabled":false,"rental_uris":{"android":"levelo://app?vid=095e5291-f842-4478-bc34-3769cd441c0c","ios":"levelo://app?vid=095e5291-f842-4478-bc34-3769cd441c0c"},"vehicle_type_id":"4","last_reported":1738415435,"current_range_meters":18800,"station_id":"ce4bhnh2rcd13ifvqgug","pricing_plan_id":"cebpf4jnsgd1na2vs0mg"},{"bike_id":"d691d2e1-f164-46e3-bf1d-7ce2ea9a6382","system_id":"levelo_inurba_marseille","lat":43.29897,"lon":5.38143,"is_reserved":false,"is_disabled":false,"rental_uris":{"android":"levelo://app?vid=d691d2e1-f164-46e3-bf1d-7ce2ea9a6382","ios":"levelo://app?vid=d691d2e1-f164-46e3-bf1d-7ce2ea9a6382"},"vehicle_type_id":"4","last_reported":1738415435,"current_range_meters":16000,"station_id":"ce4bgj12rcd13ifvqbc0","pricing_plan_id":"cebpf4jnsgd1na2vs0mg"},{"bike_id":"9f7cbc3c-6e0b-4442-8c70-64c0b2a1452e","system_id":"levelo_inurba_marseille","lat":43.230564,"lon":5.355011,"is_reserved":false,"is_disabled":false,"rental_uris":{"android":"levelo://app?vid=9f7cbc3c-6e0b-4442-8c70-64c0b2a1452e","ios":"levelo://app?vid=9f7cbc3c-6e0b-4442-8c70-64c0b2a1452e"},"vehicle_type_id":"4","last_reported":1738415435,"current_range_meters":36800,"station_id":"cpo3342slgdg3j2ifvpg","pricing_plan_id":"cebpf4jnsgd1na2vs0mg"},{"bike_id":"c8a3a0ed-dff2-4f3c-87dc-2e6b47b1ad28","system_id":"levelo_inurba_marseille","lat":43.337444,"lon":5.374475,"is_reserved":false,"is_disabled":true,"rental_uris":{"android":"levelo://app?vid=c8a3a0ed-dff2-4f3c-87dc-2e6b47b1ad28","ios":"levelo://app?vid=c8a3a0ed-dff2-4f3c-87dc-2e6b47b1ad28"},"vehicle_type_id":"4","last_reported":1738415435,"current_range_meters":0,"station_id":"","pricing_plan_id":"cebpf4jnsgd1na2vs0mg"},{"bike_id":"8afdb513-b832-4957-b577-864c8e16af85","system_id":"levelo_inurba_marseille","lat":43.30226,"lon":5.37351,"is_reserved":false,"is_disabled":false,"rental_uris":{"android":"levelo://app?vid=8afdb513-b832-4957-b577-864c8e16af85","ios":"levelo://app?vid=8afdb513-b832-4957-b577-864c8e16af85"},"vehicle_type_id":"4","last_reported":1738415435,"current_range_meters":38800,"station_id":"ce4bgs92rcd13ifvqcc0","pricing_plan_id":"cebpf4jnsgd1na2vs0mg"},{"bike_id":"c31d014f-122a-4ce5-a451-3ed2550c24db","system_id":"levelo_inurba_marseille","lat":43.27209,"lon":5.39181,"is_reserved":false,"is_disabled":false,"rental_uris":{"android":"levelo://app?vid=c31d014f-122a-4ce5-a451-3ed2550c24db","ios":"levelo://app?vid=c31d014f-122a-4ce5-a451-3ed2550c24db"},"vehicle_type_id":"4","last_reported":1738415435,"current_range_meters":35200,"station_id":"ce4bhhp2rcd13ifvqfm0","pricing_plan_id":"cebpf4jnsgd1na2vs0mg"},{"bike_id":"9191983c-f500-4e34-800a-5c4da4f130cb","system_id":"levelo_inurba_marseille","lat":43.27943,"lon":5.41051,"is_reserved":false,"is_disabled":false,"rental_uris":{"android":"levelo://app?vid=9191983c-f500-4e34-800a-5c4da4f130cb","ios":"levelo://app?vid=9191983c-f500-4e34-800a-5c4da4f130cb"},"vehicle_type_id":"4","last_reported":1738415435,"current_range_meters":36800,"station_id":"ce4bhnp2rcd13ifvqh0g","pricing_plan_id":"cebpf4jnsgd1na2vs0mg"},{"bike_id":"caaf94cc-d5a5-4f54-af0c-57a90c24c095","system_id":"levelo_inurba_marseille","lat":43.26688,"lon":5.38253,"is_reserved":false,"is_disabled":false,"rental_uris":{"android":"levelo://app?vid=caaf94cc-d5a5-4f54-af0c-57a90c24c095","ios":"levelo://app?vid=caaf94cc-d5a5-4f54-af0c-57a90c24c095"},"vehicle_type_id":"4","last_reported":1738415435,"current_range_meters":28000,"station_id":"ce4bhg92rcd13ifvqf90","pricing_plan_id":"cebpf4jnsgd1na2vs0mg"},{"bike_id":"49c9271e-6488-43ce-a64d-362891e609ce","system_id":"levelo_inurba_marseille","lat":43.30616,"lon":5.37134,"is_reserved":false,"is_disabled":false,"rental_uris":{"android":"levelo://app?vid=49c9271e-6488-43ce-a64d-362891e609ce","ios":"levelo://app?vid=49c9271e-6488-43ce-a64d-362891e609ce"},"vehicle_type_id":"4","last_reported":1738415435,"current_range_meters":25200,"station_id":"","pricing_plan_id":"cebpf4jnsgd1na2vs0mg"},{"bike_id":"494f92b0-f1c3-4838-a761-e452632aad1a","system_id":"levelo_inurba_marseille","lat":43.2901,"lon":5.37614,"is_reserved":false,"is_disabled":false,"rental_uris":{"android":"levelo://app?vid=494f92b0-f1c3-4838-a761-e452632aad1a","ios":"levelo://app?vid=494f92b0-f1c3-4838-a761-e452632aad1a"},"vehicle_type_id":"4","last_reported":1738415435,"current_range_meters":36000,"station_id":"ce4bh692rcd13ifvqe90","pricing_plan_id":"cebpf4jnsgd1na2vs0mg"},{"bike_id":"32802d31-82e5-49aa-928e-45336ddb5e58","system_id":"levelo_inurba_marseille","lat":43.25021,"lon":5.38936,"is_reserved":false,"is_disabled":false,"rental_uris":{"android":"levelo://app?vid=32802d31-82e5-49aa-928e-45336ddb5e58","ios":"levelo://app?vid=32802d31-82e5-49aa-928e-45336ddb5e58"},"vehicle_type_id":"4","last_reported":1738415435,"current_range_meters":38800,"station_id":"ce4bhgp2rcd13ifvqfd0","pricing_plan_id":"cebpf4jnsgd1na2vs0mg"},{"bike_id":"d06240a3-8895-42e8-9212-5c068d44e9d2","system_id":"levelo_inurba_marseille","lat":43.2862,"lon":5.35104,"is_reserved":false,"is_disabled":false,"rental_uris":{"android":"levelo://app?vid=d06240a3-8895-42e8-9212-5c068d44e9d2","ios":"levelo://app?vid=d06240a3-8895-42e8-9212-5c068d44e9d2"},"vehicle_type_id":"4","last_reported":1738415435,"current_range_meters":23200,"station_id":"ce4bhch2rcd13ifvqeug","pricing_plan_id":"cebpf4jnsgd1na2vs0mg"},{"bike_id":"040177a9-ca65-4fa4-be02-ee46e8ee4cff","system_id":"levelo_inurba_marseille","lat":43.24383,"lon":5.37062,"is_reserved":false,"is_disabled":false,"rental_uris":{"android":"levelo://app?vid=040177a9-ca65-4fa4-be02-ee46e8ee4cff","ios":"levelo://app?vid=040177a9-ca65-4fa4-be02-ee46e8ee4cff"},"vehicle_type_id":"4","last_reported":1738415435,"current_range_meters":38800,"station_id":"ce4bhhh2rcd13ifvqfk0","pricing_plan_id":"cebpf4jnsgd1na2vs0mg"},{"bike_id":"c6ad9228-2f33-41f3-a929-9e0a226fedef","system_id":"levelo_inurba_marseille","lat":43.2456,"lon":5.39525,"is_reserved":false,"is_disabled":false,"rental_uris":{"android":"levelo://app?vid=c6ad9228-2f33-41f3-a929-9e0a226fedef","ios":"levelo://app?vid=c6ad9228-2f33-41f3-a929-9e0a226fedef"},"vehicle_type_id":"4","last_reported":1738415435,"current_range_meters":38800,"station_id":"ce4bhlp2rcd13ifvqgjg","pricing_plan_id":"cebpf4jnsgd1na2vs0mg"},{"bike_id":"18196808-44f8-4974-a42b-2b5e5fd3835b","system_id":"levelo_inurba_marseille","lat":43.31165,"lon":5.38728,"is_reserved":false,"is_disabled":false,"rental_uris":{"android":"levelo://app?vid=18196808-44f8-4974-a42b-2b5e5fd3835b","ios":"levelo://app?vid=18196808-44f8-4974-a42b-2b5e5fd3835b"},"vehicle_type_id":"4","last_reported":1738415435,"current_range_meters":28000,"station_id":"ce4bgv12rcd13ifvqcp0","pricing_plan_id":"cebpf4jnsgd1na2vs0mg"},{"bike_id":"06e40ee8-ee21-4fa9-9bf1-15cf9519c817","system_id":"levelo_inurba_marseille","lat":43.28956,"lon":5.36399,"is_reserved":false,"is_disabled":false,"rental_uris":{"android":"levelo://app?vid=06e40ee8-ee21-4fa9-9bf1-15cf9519c817","ios":"levelo://app?vid=06e40ee8-ee21-4fa9-9bf1-15cf9519c817"},"vehicle_type_id":"4","last_reported":1738415435,"current_range_meters":37600,"station_id":"ce4bhc92rcd13ifvqetg","pricing_plan_id":"cebpf4jnsgd1na2vs0mg"},{"bike_id":"b8aa63e6-cb90-4588-9748-c28862d53a81","system_id":"levelo_inurba_marseille","lat":43.29598,"lon":5.38077,"is_reserved":false,"is_disabled":false,"rental_uris":{"android":"levelo://app?vid=b8aa63e6-cb90-4588-9748-c28862d53a81","ios":"levelo://app?vid=b8aa63e6-cb90-4588-9748-c28862d53a81"},"vehicle_type_id":"4","last_reported":1738415435,"current_range_meters":38800,"station_id":"ce4bgl12rcd13ifvqbo0","pricing_plan_id":"cebpf4jnsgd1na2vs0mg"},{"bike_id":"0674f2e8-d722-4461-bba5-58a6fa1f6e8c","system_id":"levelo_inurba_marseille","lat":43.27658,"lon":5.38945,"is_reserved":false,"is_disabled":false,"rental_uris":{"android":"levelo://app?vid=0674f2e8-d722-4461-bba5-58a6fa1f6e8c","ios":"levelo://app?vid=0674f2e8-d722-4461-bba5-58a6fa1f6e8c"},"vehicle_type_id":"4","last_reported":1738415435,"current_range_meters":36800,"station_id":"ce4bhi12rcd13ifvqfo0","pricing_plan_id":"cebpf4jnsgd1na2vs0mg"},{"bike_id":"cfdc3e36-f1ca-4859-b324-931a3f1626bd","system_id":"levelo_inurba_marseille","lat":43.25587,"lon":5.38237,"is_reserved":false,"is_disabled":false,"rental_uris":{"android":"levelo://app?vid=cfdc3e36-f1ca-4859-b324-931a3f1626bd","ios":"levelo://app?vid=cfdc3e36-f1ca-4859-b324-931a3f1626bd"},"vehicle_type_id":"4","last_reported":1738415435,"current_range_meters":39200,"station_id":"ce4bhih2rcd13ifvqfs0","pricing_plan_id":"cebpf4jnsgd1na2vs0mg"},{"bike_id":"b01bb5b3-7849-4f8d-a115-ff3fc460c0c2","system_id":"levelo_inurba_marseille","lat":43.31523,"lon":5.38623,"is_reserved":false,"is_disabled":false,"rental_uris":{"android":"levelo://app?vid=b01bb5b3-7849-4f8d-a115-ff3fc460c0c2","ios":"levelo://app?vid=b01bb5b3-7849-4f8d-a115-ff3fc460c0c2"},"vehicle_type_id":"4","last_reported":1738415435,"current_range_meters":35200,"station_id":"ce4bhr12rcd13ifvqhpg","pricing_plan_id":"cebpf4jnsgd1na2vs0mg"},{"bike_id":"29f86acd-aa50-4395-9377-730a470ce878","system_id":"levelo_inurba_marseille","lat":43.30906,"lon":5.43659,"is_reserved":false,"is_disabled":false,"rental_uris":{"android":"levelo://app?vid=29f86acd-aa50-4395-9377-730a470ce878","ios":"levelo://app?vid=29f86acd-aa50-4395-9377-730a470ce878"},"vehicle_type_id":"4","last_reported":1738415435,"current_range_meters":7200,"station_id":"ce4bhph2rcd13ifvqheg","pricing_plan_id":"cebpf4jnsgd1na2vs0mg"},{"bike_id":"39f7b83f-d9fe-4541-9853-6b7ea8cb6c34","system_id":"levelo_inurba_marseille","lat":43.28607,"lon":5.37068,"is_reserved":false,"is_disabled":false,"rental_uris":{"android":"levelo://app?vid=39f7b83f-d9fe-4541-9853-6b7ea8cb6c34","ios":"levelo://app?vid=39f7b83f-d9fe-4541-9853-6b7ea8cb6c34"},"vehicle_type_id":"4","last_reported":1738415435,"current_range_meters":20800,"station_id":"ce4bht12rcd13ifvqi60","pricing_plan_id":"cebpf4jnsgd1na2vs0mg"},{"bike_id":"99ada82f-98f9-42c9-be08-39ee133997ac","system_id":"levelo_inurba_marseille","lat":43.28641,"lon":5.35087,"is_reserved":false,"is_disabled":false,"rental_uris":{"android":"levelo://app?vid=99ada82f-98f9-42c9-be08-39ee133997ac","ios":"levelo://app?vid=99ada82f-98f9-42c9-be08-39ee133997ac"},"vehicle_type_id":"4","last_reported":1738415435,"current_range_meters":20000,"station_id":"ce4bhch2rcd13ifvqeug","pricing_plan_id":"cebpf4jnsgd1na2vs0mg"},{"bike_id":"fdf5ccbb-6691-4820-b060-001348788f2f","system_id":"levelo_inurba_marseille","lat":43.29885,"lon":5.38902,"is_reserved":false,"is_disabled":false,"rental_uris":{"android":"levelo://app?vid=fdf5ccbb-6691-4820-b060-001348788f2f","ios":"levelo://app?vid=fdf5ccbb-6691-4820-b060-001348788f2f"},"vehicle_type_id":"4","last_reported":1738415435,"current_range_meters":38000,"station_id":"ce4bh392rcd13ifvqdl0","pricing_plan_id":"cebpf4jnsgd1na2vs0mg"},{"bike_id":"b9eb1ddc-de7a-4091-baa0-0bfef462a03a","system_id":"levelo_inurba_marseille","lat":43.27907,"lon":5.38016,"is_reserved":false,"is_disabled":false,"rental_uris":{"android":"levelo://app?vid=b9eb1ddc-de7a-4091-baa0-0bfef462a03a","ios":"levelo://app?vid=b9eb1ddc-de7a-4091-baa0-0bfef462a03a"},"vehicle_type_id":"4","last_reported":1738415435,"current_range_meters":37600,"station_id":"ce4bhf92rcd13ifvqf50","pricing_plan_id":"cebpf4jnsgd1na2vs0mg"},{"bike_id":"29e433c5-f86e-40bf-8cf3-374b024916b0","system_id":"levelo_inurba_marseille","lat":43.32302,"lon":5.38278,"is_reserved":false,"is_disabled":false,"rental_uris":{"android":"levelo://app?vid=29e433c5-f86e-40bf-8cf3-374b024916b0","ios":"levelo://app?vid=29e433c5-f86e-40bf-8cf3-374b024916b0"},"vehicle_type_id":"4","last_reported":1738415435,"current_range_meters":38800,"station_id":"ce4bhr12rcd13ifvqhqg","pricing_plan_id":"cebpf4jnsgd1na2vs0mg"},{"bike_id":"0e015226-4528-4598-a4b8-26eb7be5cfeb","system_id":"levelo_inurba_marseille","lat":43.24077,"lon":5.37764,"is_reserved":false,"is_disabled":false,"rental_uris":{"android":"levelo://app?vid=0e015226-4528-4598-a4b8-26eb7be5cfeb","ios":"levelo://app?vid=0e015226-4528-4598-a4b8-26eb7be5cfeb"},"vehicle_type_id":"4","last_reported":1738415435,"current_range_meters":38800,"station_id":"ce4bhnp2rcd13ifvqgvg","pricing_plan_id":"cebpf4jnsgd1na2vs0mg"},{"bike_id":"0a0f86a8-d100-4a62-a04c-310f2a1f8fad","system_id":"levelo_inurba_marseille","lat":43.29885,"lon":5.38912,"is_reserved":false,"is_disabled":false,"rental_uris":{"android":"levelo://app?vid=0a0f86a8-d100-4a62-a04c-310f2a1f8fad","ios":"levelo://app?vid=0a0f86a8-d100-4a62-a04c-310f2a1f8fad"},"vehicle_type_id":"4","last_reported":1738415435,"current_range_meters":39200,"station_id":"ce4bh392rcd13ifvqdl0","pricing_plan_id":"cebpf4jnsgd1na2vs0mg"},{"bike_id":"59e98682-9355-45ca-aaa0-29b37b791d30","system_id":"levelo_inurba_marseille","lat":43.29565,"lon":5.42249,"is_reserved":false,"is_disabled":false,"rental_uris":{"android":"levelo://app?vid=59e98682-9355-45ca-aaa0-29b37b791d30","ios":"levelo://app?vid=59e98682-9355-45ca-aaa0-29b37b791d30"},"vehicle_type_id":"4","last_reported":1738415435,"current_range_meters":7200,"station_id":"ce4bhph2rcd13ifvqhdg","pricing_plan_id":"cebpf4jnsgd1na2vs0mg"},{"bike_id":"aeb89edc-6039-48aa-9242-aad0fb69d5db","system_id":"levelo_inurba_marseille","lat":43.2721,"lon":5.39171,"is_reserved":false,"is_disabled":false,"rental_uris":{"android":"levelo://app?vid=aeb89edc-6039-48aa-9242-aad0fb69d5db","ios":"levelo://app?vid=aeb89edc-6039-48aa-9242-aad0fb69d5db"},"vehicle_type_id":"4","last_reported":1738415435,"current_range_meters":22800,"station_id":"ce4bhhp2rcd13ifvqfm0","pricing_plan_id":"cebpf4jnsgd1na2vs0mg"},{"bike_id":"69e174bd-a543-4158-a55c-5adfe82be490","system_id":"levelo_inurba_marseille","lat":43.31481,"lon":5.37308,"is_reserved":false,"is_disabled":false,"rental_uris":{"android":"levelo://app?vid=69e174bd-a543-4158-a55c-5adfe82be490","ios":"levelo://app?vid=69e174bd-a543-4158-a55c-5adfe82be490"},"vehicle_type_id":"4","last_reported":1738415435,"current_range_meters":33600,"station_id":"ce4bgt12rcd13ifvqcd0","pricing_plan_id":"cebpf4jnsgd1na2vs0mg"},{"bike_id":"e2c49145-d80d-4c68-8184-02b30e52c755","system_id":"levelo_inurba_marseille","lat":43.30783,"lon":5.4348,"is_reserved":false,"is_disabled":false,"rental_uris":{"android":"levelo://app?vid=e2c49145-d80d-4c68-8184-02b30e52c755","ios":"levelo://app?vid=e2c49145-d80d-4c68-8184-02b30e52c755"},"vehicle_type_id":"4","last_reported":1738415435,"current_range_meters":24800,"station_id":"ce4bhph2rcd13ifvqheg","pricing_plan_id":"cebpf4jnsgd1na2vs0mg"},{"bike_id":"d829177c-d836-4342-89dc-0d658cbdb12b","system_id":"levelo_inurba_marseille","lat":43.2961,"lon":5.37733,"is_reserved":false,"is_disabled":false,"rental_uris":{"android":"levelo://app?vid=d829177c-d836-4342-89dc-0d658cbdb12b","ios":"levelo://app?vid=d829177c-d836-4342-89dc-0d658cbdb12b"},"vehicle_type_id":"4","last_reported":1738415435,"current_range_meters":29600,"station_id":"ce4bgi92rcd13ifvqb90","pricing_plan_id":"cebpf4jnsgd1na2vs0mg"},{"bike_id":"d979d8d2-ec65-47af-9229-e4270aab279a","system_id":"levelo_inurba_marseille","lat":43.23067,"lon":5.35494,"is_reserved":false,"is_disabled":false,"rental_uris":{"android":"levelo://app?vid=d979d8d2-ec65-47af-9229-e4270aab279a","ios":"levelo://app?vid=d979d8d2-ec65-47af-9229-e4270aab279a"},"vehicle_type_id":"4","last_reported":1738415435,"current_range_meters":6000,"station_id":"cpo3342slgdg3j2ifvpg","pricing_plan_id":"cebpf4jnsgd1na2vs0mg"},{"bike_id":"1cf31538-5f18-467f-8725-232cdef4f899","system_id":"levelo_inurba_marseille","lat":43.29847,"lon":5.36265,"is_reserved":false,"is_disabled":false,"rental_uris":{"android":"levelo://app?vid=1cf31538-5f18-467f-8725-232cdef4f899","ios":"levelo://app?vid=1cf31538-5f18-467f-8725-232cdef4f899"},"vehicle_type_id":"4","last_reported":1738415435,"current_range_meters":38800,"station_id":"ce4bgpp2rcd13ifvqc3g","pricing_plan_id":"cebpf4jnsgd1na2vs0mg"},{"bike_id":"0a799aef-c450-4e16-9417-256c141f5048","system_id":"levelo_inurba_marseille","lat":43.25128,"lon":5.40369,"is_reserved":false,"is_disabled":false,"rental_uris":{"android":"levelo://app?vid=0a799aef-c450-4e16-9417-256c141f5048","ios":"levelo://app?vid=0a799aef-c450-4e16-9417-256c141f5048"},"vehicle_type_id":"4","last_reported":1738415435,"current_range_meters":36800,"station_id":"ce4bhlh2rcd13ifvqgig","pricing_plan_id":"cebpf4jnsgd1na2vs0mg"},{"bike_id":"553b078b-b4de-4088-bb93-c6d7c7ca5338","system_id":"levelo_inurba_marseille","lat":43.29969,"lon":5.38496,"is_reserved":false,"is_disabled":false,"rental_uris":{"android":"levelo://app?vid=553b078b-b4de-4088-bb93-c6d7c7ca5338","ios":"levelo://app?vid=553b078b-b4de-4088-bb93-c6d7c7ca5338"},"vehicle_type_id":"4","last_reported":1738415435,"current_range_meters":25600,"station_id":"ce4bgj92rcd13ifvqbd0","pricing_plan_id":"cebpf4jnsgd1na2vs0mg"},{"bike_id":"5e247067-8eb1-4b0c-b753-3edbc9392c23","system_id":"levelo_inurba_marseille","lat":43.26804,"lon":5.40263,"is_reserved":false,"is_disabled":false,"rental_uris":{"android":"levelo://app?vid=5e247067-8eb1-4b0c-b753-3edbc9392c23","ios":"levelo://app?vid=5e247067-8eb1-4b0c-b753-3edbc9392c23"},"vehicle_type_id":"4","last_reported":1738415435,"current_range_meters":8800,"station_id":"ce501612rcd8frsf0b60","pricing_plan_id":"cebpf4jnsgd1na2vs0mg"},{"bike_id":"5f54821c-0fbe-49b4-9faa-b664d07c2b1a","system_id":"levelo_inurba_marseille","lat":43.24399,"lon":5.37065,"is_reserved":false,"is_disabled":false,"rental_uris":{"android":"levelo://app?vid=5f54821c-0fbe-49b4-9faa-b664d07c2b1a","ios":"levelo://app?vid=5f54821c-0fbe-49b4-9faa-b664d07c2b1a"},"vehicle_type_id":"4","last_reported":1738415435,"current_range_meters":38800,"station_id":"ce4bhhh2rcd13ifvqfk0","pricing_plan_id":"cebpf4jnsgd1na2vs0mg"},{"bike_id":"1c41cbaf-3730-490a-8f3f-73ef6adf0876","system_id":"levelo_inurba_marseille","lat":43.29635,"lon":5.40594,"is_reserved":false,"is_disabled":false,"rental_uris":{"android":"levelo://app?vid=1c41cbaf-3730-490a-8f3f-73ef6adf0876","ios":"levelo://app?vid=1c41cbaf-3730-490a-8f3f-73ef6adf0876"},"vehicle_type_id":"4","last_reported":1738415435,"current_range_meters":6800,"station_id":"ce4bh0h2rcd13ifvqd60","pricing_plan_id":"cebpf4jnsgd1na2vs0mg"},{"bike_id":"5a21ca27-2b54-405c-b817-21b4abedc86f","system_id":"levelo_inurba_marseille","lat":43.30414,"lon":5.43518,"is_reserved":false,"is_disabled":false,"rental_uris":{"android":"levelo://app?vid=5a21ca27-2b54-405c-b817-21b4abedc86f","ios":"levelo://app?vid=5a21ca27-2b54-405c-b817-21b4abedc86f"},"vehicle_type_id":"4","last_reported":1738415435,"current_range_meters":26800,"station_id":"ce4bh112rcd13ifvqda0","pricing_plan_id":"cebpf4jnsgd1na2vs0mg"},{"bike_id":"90d8247b-1174-449d-9eb0-b1f3c78024c6","system_id":"levelo_inurba_marseille","lat":43.27979,"lon":5.4166,"is_reserved":false,"is_disabled":false,"rental_uris":{"android":"levelo://app?vid=90d8247b-1174-449d-9eb0-b1f3c78024c6","ios":"levelo://app?vid=90d8247b-1174-449d-9eb0-b1f3c78024c6"},"vehicle_type_id":"4","last_reported":1738415435,"current_range_meters":32400,"station_id":"ce4bho12rcd13ifvqh1g","pricing_plan_id":"cebpf4jnsgd1na2vs0mg"},{"bike_id":"71ab66a6-71e5-47e5-81dd-111cf003d83e","system_id":"levelo_inurba_marseille","lat":43.30609,"lon":5.37259,"is_reserved":false,"is_disabled":false,"rental_uris":{"android":"levelo://app?vid=71ab66a6-71e5-47e5-81dd-111cf003d83e","ios":"levelo://app?vid=71ab66a6-71e5-47e5-81dd-111cf003d83e"},"vehicle_type_id":"4","last_reported":1738415435,"current_range_meters":38000,"station_id":"ce4bgqh2rcd13ifvqc4g","pricing_plan_id":"cebpf4jnsgd1na2vs0mg"},{"bike_id":"f99e91c4-2330-4795-bfe7-3495ca9ba92c","system_id":"levelo_inurba_marseille","lat":43.28946,"lon":5.36642,"is_reserved":false,"is_disabled":true,"rental_uris":{"android":"levelo://app?vid=f99e91c4-2330-4795-bfe7-3495ca9ba92c","ios":"levelo://app?vid=f99e91c4-2330-4795-bfe7-3495ca9ba92c"},"vehicle_type_id":"4","last_reported":1738415435,"current_range_meters":33200,"station_id":"ce4bhap2rcd13ifvqek0","pricing_plan_id":"cebpf4jnsgd1na2vs0mg"},{"bike_id":"55bcfd08-58f2-4f77-9e1d-5a8df3c15b85","system_id":"levelo_inurba_marseille","lat":43.29797,"lon":5.38091,"is_reserved":false,"is_disabled":false,"rental_uris":{"android":"levelo://app?vid=55bcfd08-58f2-4f77-9e1d-5a8df3c15b85","ios":"levelo://app?vid=55bcfd08-58f2-4f77-9e1d-5a8df3c15b85"},"vehicle_type_id":"4","last_reported":1738415435,"current_range_meters":37600,"station_id":"ce4bgip2rcd13ifvqbb0","pricing_plan_id":"cebpf4jnsgd1na2vs0mg"},{"bike_id":"d68091b2-d230-47ac-b9a6-a9e4cb2a9e4e","system_id":"levelo_inurba_marseille","lat":43.29786,"lon":5.39345,"is_reserved":false,"is_disabled":false,"rental_uris":{"android":"levelo://app?vid=d68091b2-d230-47ac-b9a6-a9e4cb2a9e4e","ios":"levelo://app?vid=d68091b2-d230-47ac-b9a6-a9e4cb2a9e4e"},"vehicle_type_id":"4","last_reported":1738415435,"current_range_meters":9200,"station_id":"chh1huq6cuj3fo74tm60","pricing_plan_id":"cebpf4jnsgd1na2vs0mg"},{"bike_id":"d8b1c3f9-ff6e-4179-8423-4ba0d2a2af0e","system_id":"levelo_inurba_marseille","lat":43.3376,"lon":5.39195,"is_reserved":false,"is_disabled":false,"rental_uris":{"android":"levelo://app?vid=d8b1c3f9-ff6e-4179-8423-4ba0d2a2af0e","ios":"levelo://app?vid=d8b1c3f9-ff6e-4179-8423-4ba0d2a2af0e"},"vehicle_type_id":"4","last_reported":1738415435,"current_range_meters":38800,"station_id":"ce4bhr92rcd13ifvqhsg","pricing_plan_id":"cebpf4jnsgd1na2vs0mg"},{"bike_id":"aa9a502a-bd2c-4129-b0a1-12c36b93e0b4","system_id":"levelo_inurba_marseille","lat":43.24804,"lon":5.3746,"is_reserved":false,"is_disabled":false,"rental_uris":{"android":"levelo://app?vid=aa9a502a-bd2c-4129-b0a1-12c36b93e0b4","ios":"levelo://app?vid=aa9a502a-bd2c-4129-b0a1-12c36b93e0b4"},"vehicle_type_id":"4","last_reported":1738415435,"current_range_meters":38400,"station_id":"ce4bhgh2rcd13ifvqfb0","pricing_plan_id":"cebpf4jnsgd1na2vs0mg"},{"bike_id":"86c9ecf0-ec12-474e-a488-215bc78d933b","system_id":"levelo_inurba_marseille","lat":43.29704,"lon":5.36619,"is_reserved":false,"is_disabled":false,"rental_uris":{"android":"levelo://app?vid=86c9ecf0-ec12-474e-a488-215bc78d933b","ios":"levelo://app?vid=86c9ecf0-ec12-474e-a488-215bc78d933b"},"vehicle_type_id":"4","last_reported":1738415435,"current_range_meters":38800,"station_id":"ce4bgn12rcd13ifvqbt0","pricing_plan_id":"cebpf4jnsgd1na2vs0mg"},{"bike_id":"23d607b4-9cdd-4843-8952-4da90f95e291","system_id":"levelo_inurba_marseille","lat":43.24154,"lon":5.39707,"is_reserved":false,"is_disabled":false,"rental_uris":{"android":"levelo://app?vid=23d607b4-9cdd-4843-8952-4da90f95e291","ios":"levelo://app?vid=23d607b4-9cdd-4843-8952-4da90f95e291"},"vehicle_type_id":"4","last_reported":1738415435,"current_range_meters":29600,"station_id":"ce4bhn12rcd13ifvqgpg","pricing_plan_id":"cebpf4jnsgd1na2vs0mg"},{"bike_id":"73a2bc86-dd33-4183-8337-9c114afeeb74","system_id":"levelo_inurba_marseille","lat":43.2927,"lon":5.4089,"is_reserved":false,"is_disabled":false,"rental_uris":{"android":"levelo://app?vid=73a2bc86-dd33-4183-8337-9c114afeeb74","ios":"levelo://app?vid=73a2bc86-dd33-4183-8337-9c114afeeb74"},"vehicle_type_id":"4","last_reported":1738415435,"current_range_meters":28800,"station_id":"ce4bh192rcd13ifvqdc0","pricing_plan_id":"cebpf4jnsgd1na2vs0mg"},{"bike_id":"37a316fb-b3fd-47c4-b337-ae3ed2613770","system_id":"levelo_inurba_marseille","lat":43.25865,"lon":5.39918,"is_reserved":false,"is_disabled":false,"rental_uris":{"android":"levelo://app?vid=37a316fb-b3fd-47c4-b337-ae3ed2613770","ios":"levelo://app?vid=37a316fb-b3fd-47c4-b337-ae3ed2613770"},"vehicle_type_id":"4","last_reported":1738415435,"current_range_meters":36000,"station_id":"ce4bhl92rcd13ifvqghg","pricing_plan_id":"cebpf4jnsgd1na2vs0mg"},{"bike_id":"96cdde99-07e1-4e29-ada8-0165767ba907","system_id":"levelo_inurba_marseille","lat":43.2795,"lon":5.4104,"is_reserved":false,"is_disabled":false,"rental_uris":{"android":"levelo://app?vid=96cdde99-07e1-4e29-ada8-0165767ba907","ios":"levelo://app?vid=96cdde99-07e1-4e29-ada8-0165767ba907"},"vehicle_type_id":"4","last_reported":1738415435,"current_range_meters":14800,"station_id":"ce4bhnp2rcd13ifvqh0g","pricing_plan_id":"cebpf4jnsgd1na2vs0mg"},{"bike_id":"f1531728-b8ea-45f6-b10e-94dd52db4db3","system_id":"levelo_inurba_marseille","lat":43.3134,"lon":5.39697,"is_reserved":false,"is_disabled":false,"rental_uris":{"android":"levelo://app?vid=f1531728-b8ea-45f6-b10e-94dd52db4db3","ios":"levelo://app?vid=f1531728-b8ea-45f6-b10e-94dd52db4db3"},"vehicle_type_id":"4","last_reported":1738415435,"current_range_meters":37600,"station_id":"ce4bgvp2rcd13ifvqcu0","pricing_plan_id":"cebpf4jnsgd1na2vs0mg"},{"bike_id":"8ade83a9-a1b3-45c6-96b4-4317e4ea0ef6","system_id":"levelo_inurba_marseille","lat":43.2925,"lon":5.4091,"is_reserved":false,"is_disabled":false,"rental_uris":{"android":"levelo://app?vid=8ade83a9-a1b3-45c6-96b4-4317e4ea0ef6","ios":"levelo://app?vid=8ade83a9-a1b3-45c6-96b4-4317e4ea0ef6"},"vehicle_type_id":"4","last_reported":1738415435,"current_range_meters":36000,"station_id":"ce4bh192rcd13ifvqdc0","pricing_plan_id":"cebpf4jnsgd1na2vs0mg"},{"bike_id":"3e8ac81e-fafa-4918-bfdd-b6bf11718524","system_id":"levelo_inurba_marseille","lat":43.29008,"lon":5.35946,"is_reserved":false,"is_disabled":false,"rental_uris":{"android":"levelo://app?vid=3e8ac81e-fafa-4918-bfdd-b6bf11718524","ios":"levelo://app?vid=3e8ac81e-fafa-4918-bfdd-b6bf11718524"},"vehicle_type_id":"4","last_reported":1738415435,"current_range_meters":38800,"station_id":"","pricing_plan_id":"cebpf4jnsgd1na2vs0mg"},{"bike_id":"842bdcfa-a745-459c-b96a-04fa9f9c87b5","system_id":"levelo_inurba_marseille","lat":43.337444,"lon":5.374475,"is_reserved":false,"is_disabled":false,"rental_uris":{"android":"levelo://app?vid=842bdcfa-a745-459c-b96a-04fa9f9c87b5","ios":"levelo://app?vid=842bdcfa-a745-459c-b96a-04fa9f9c87b5"},"vehicle_type_id":"4","last_reported":1738415435,"current_range_meters":10000,"station_id":"","pricing_plan_id":"cebpf4jnsgd1na2vs0mg"},{"bike_id":"2047e938-57e3-4375-958a-69a4e97a2c7d","system_id":"levelo_inurba_marseille","lat":43.23205,"lon":5.39985,"is_reserved":false,"is_disabled":true,"rental_uris":{"android":"levelo://app?vid=2047e938-57e3-4375-958a-69a4e97a2c7d","ios":"levelo://app?vid=2047e938-57e3-4375-958a-69a4e97a2c7d"},"vehicle_type_id":"4","last_reported":1738415435,"current_range_meters":9200,"station_id":"ce4bhn12rcd13ifvqgqg","pricing_plan_id":"cebpf4jnsgd1na2vs0mg"},{"bike_id":"6c374735-1c46-4f9c-a756-1d891dd14283","system_id":"levelo_inurba_marseille","lat":43.29618,"lon":5.37723,"is_reserved":false,"is_disabled":false,"rental_uris":{"android":"levelo://app?vid=6c374735-1c46-4f9c-a756-1d891dd14283","ios":"levelo://app?vid=6c374735-1c46-4f9c-a756-1d891dd14283"},"vehicle_type_id":"4","last_reported":1738415435,"current_range_meters":30800,"station_id":"ce4bgi92rcd13ifvqb90","pricing_plan_id":"cebpf4jnsgd1na2vs0mg"},{"bike_id":"5dd8e8c0-c04f-43b6-b935-fb3c1ee809cd","system_id":"levelo_inurba_marseille","lat":43.33765,"lon":5.37487,"is_reserved":false,"is_disabled":false,"rental_uris":{"android":"levelo://app?vid=5dd8e8c0-c04f-43b6-b935-fb3c1ee809cd","ios":"levelo://app?vid=5dd8e8c0-c04f-43b6-b935-fb3c1ee809cd"},"vehicle_type_id":"4","last_reported":1738415435,"current_range_meters":38800,"station_id":"","pricing_plan_id":"cebpf4jnsgd1na2vs0mg"},{"bike_id":"9a5dd714-85fe-466b-a1c2-d9dcf5c309b2","system_id":"levelo_inurba_marseille","lat":43.28622,"lon":5.35112,"is_reserved":false,"is_disabled":false,"rental_uris":{"android":"levelo://app?vid=9a5dd714-85fe-466b-a1c2-d9dcf5c309b2","ios":"levelo://app?vid=9a5dd714-85fe-466b-a1c2-d9dcf5c309b2"},"vehicle_type_id":"4","last_reported":1738415435,"current_range_meters":11600,"station_id":"ce4bhch2rcd13ifvqeug","pricing_plan_id":"cebpf4jnsgd1na2vs0mg"},{"bike_id":"e86efa9d-d3f7-410d-a58d-05db12d8e1e9","system_id":"levelo_inurba_marseille","lat":43.29289,"lon":5.37145,"is_reserved":false,"is_disabled":false,"rental_uris":{"android":"levelo://app?vid=e86efa9d-d3f7-410d-a58d-05db12d8e1e9","ios":"levelo://app?vid=e86efa9d-d3f7-410d-a58d-05db12d8e1e9"},"vehicle_type_id":"4","last_reported":1738415435,"current_range_meters":38800,"station_id":"ce4bgh92rcd13ifvqb40","pricing_plan_id":"cebpf4jnsgd1na2vs0mg"},{"bike_id":"fa7fe4a9-29d6-4ebf-8f79-2665f37910aa","system_id":"levelo_inurba_marseille","lat":43.28083,"lon":5.39689,"is_reserved":false,"is_disabled":false,"rental_uris":{"android":"levelo://app?vid=fa7fe4a9-29d6-4ebf-8f79-2665f37910aa","ios":"levelo://app?vid=fa7fe4a9-29d6-4ebf-8f79-2665f37910aa"},"vehicle_type_id":"4","last_reported":1738415435,"current_range_meters":18800,"station_id":"ce4bho12rcd13ifvqh2g","pricing_plan_id":"cebpf4jnsgd1na2vs0mg"},{"bike_id":"4b12e0b6-d8ba-4f01-82fa-ef4aa8f46029","system_id":"levelo_inurba_marseille","lat":43.29617,"lon":5.37704,"is_reserved":false,"is_disabled":false,"rental_uris":{"android":"levelo://app?vid=4b12e0b6-d8ba-4f01-82fa-ef4aa8f46029","ios":"levelo://app?vid=4b12e0b6-d8ba-4f01-82fa-ef4aa8f46029"},"vehicle_type_id":"4","last_reported":1738415435,"current_range_meters":27200,"station_id":"ce4bgi92rcd13ifvqb90","pricing_plan_id":"cebpf4jnsgd1na2vs0mg"},{"bike_id":"4393f107-7ade-44e0-afcc-c0de5961179c","system_id":"levelo_inurba_marseille","lat":43.31082,"lon":5.38707,"is_reserved":false,"is_disabled":false,"rental_uris":{"android":"levelo://app?vid=4393f107-7ade-44e0-afcc-c0de5961179c","ios":"levelo://app?vid=4393f107-7ade-44e0-afcc-c0de5961179c"},"vehicle_type_id":"4","last_reported":1738415435,"current_range_meters":30000,"station_id":"ce4bgv12rcd13ifvqcp0","pricing_plan_id":"cebpf4jnsgd1na2vs0mg"},{"bike_id":"606424c7-9f9d-4a68-8911-71079c9162c6","system_id":"levelo_inurba_marseille","lat":43.29909,"lon":5.38168,"is_reserved":false,"is_disabled":false,"rental_uris":{"android":"levelo://app?vid=606424c7-9f9d-4a68-8911-71079c9162c6","ios":"levelo://app?vid=606424c7-9f9d-4a68-8911-71079c9162c6"},"vehicle_type_id":"4","last_reported":1738415435,"current_range_meters":34800,"station_id":"ce4bgj12rcd13ifvqbc0","pricing_plan_id":"cebpf4jnsgd1na2vs0mg"},{"bike_id":"0fc8ef95-5e15-4825-b91c-cf0a986a3e9e","system_id":"levelo_inurba_marseille","lat":43.24204,"lon":5.39712,"is_reserved":false,"is_disabled":false,"rental_uris":{"android":"levelo://app?vid=0fc8ef95-5e15-4825-b91c-cf0a986a3e9e","ios":"levelo://app?vid=0fc8ef95-5e15-4825-b91c-cf0a986a3e9e"},"vehicle_type_id":"4","last_reported":1738415435,"current_range_meters":20400,"station_id":"ce4bhn12rcd13ifvqgpg","pricing_plan_id":"cebpf4jnsgd1na2vs0mg"},{"bike_id":"3a60ebc0-dac7-4b3e-a8c5-4699cca32d17","system_id":"levelo_inurba_marseille","lat":43.30763,"lon":5.43506,"is_reserved":false,"is_disabled":false,"rental_uris":{"android":"levelo://app?vid=3a60ebc0-dac7-4b3e-a8c5-4699cca32d17","ios":"levelo://app?vid=3a60ebc0-dac7-4b3e-a8c5-4699cca32d17"},"vehicle_type_id":"4","last_reported":1738415435,"current_range_meters":34800,"station_id":"ce4bhph2rcd13ifvqheg","pricing_plan_id":"cebpf4jnsgd1na2vs0mg"},{"bike_id":"7518cb61-bd73-4848-a0ed-6d0cb54c2844","system_id":"levelo_inurba_marseille","lat":43.30095,"lon":5.39087,"is_reserved":false,"is_disabled":false,"rental_uris":{"android":"levelo://app?vid=7518cb61-bd73-4848-a0ed-6d0cb54c2844","ios":"levelo://app?vid=7518cb61-bd73-4848-a0ed-6d0cb54c2844"},"vehicle_type_id":"4","last_reported":1738415435,"current_range_meters":10000,"station_id":"ce4bh192rcd13ifvqdb0","pricing_plan_id":"cebpf4jnsgd1na2vs0mg"},{"bike_id":"c9bd489c-cfea-4f67-b873-dfb6c5c512d2","system_id":"levelo_inurba_marseille","lat":43.28719,"lon":5.37927,"is_reserved":false,"is_disabled":false,"rental_uris":{"android":"levelo://app?vid=c9bd489c-cfea-4f67-b873-dfb6c5c512d2","ios":"levelo://app?vid=c9bd489c-cfea-4f67-b873-dfb6c5c512d2"},"vehicle_type_id":"4","last_reported":1738415435,"current_range_meters":38800,"station_id":"ce4bh9p2rcd13ifvqec0","pricing_plan_id":"cebpf4jnsgd1na2vs0mg"},{"bike_id":"e3b54e92-6670-483a-a8d2-3d31bdb091c1","system_id":"levelo_inurba_marseille","lat":43.25503,"lon":5.37653,"is_reserved":false,"is_disabled":true,"rental_uris":{"android":"levelo://app?vid=e3b54e92-6670-483a-a8d2-3d31bdb091c1","ios":"levelo://app?vid=e3b54e92-6670-483a-a8d2-3d31bdb091c1"},"vehicle_type_id":"4","last_reported":1738415435,"current_range_meters":0,"station_id":"ce4bhh12rcd13ifvqff0","pricing_plan_id":"cebpf4jnsgd1na2vs0mg"},{"bike_id":"0c8d479f-1533-480d-95ac-c1c17898a918","system_id":"levelo_inurba_marseille","lat":43.30159,"lon":5.38079,"is_reserved":false,"is_disabled":false,"rental_uris":{"android":"levelo://app?vid=0c8d479f-1533-480d-95ac-c1c17898a918","ios":"levelo://app?vid=0c8d479f-1533-480d-95ac-c1c17898a918"},"vehicle_type_id":"4","last_reported":1738415435,"current_range_meters":39200,"station_id":"ce4bgjp2rcd13ifvqbh0","pricing_plan_id":"cebpf4jnsgd1na2vs0mg"},{"bike_id":"65b976fa-99d7-4d87-9a38-da2f8e99bbbf","system_id":"levelo_inurba_marseille","lat":43.28718,"lon":5.36095,"is_reserved":false,"is_disabled":false,"rental_uris":{"android":"levelo://app?vid=65b976fa-99d7-4d87-9a38-da2f8e99bbbf","ios":"levelo://app?vid=65b976fa-99d7-4d87-9a38-da2f8e99bbbf"},"vehicle_type_id":"4","last_reported":1738415435,"current_range_meters":38800,"station_id":"cki0cbj6b192h4jlfktg","pricing_plan_id":"cebpf4jnsgd1na2vs0mg"},{"bike_id":"56b09552-4219-4565-a734-8e0fd6e4802e","system_id":"levelo_inurba_marseille","lat":43.26217,"lon":5.37452,"is_reserved":false,"is_disabled":false,"rental_uris":{"android":"levelo://app?vid=56b09552-4219-4565-a734-8e0fd6e4802e","ios":"levelo://app?vid=56b09552-4219-4565-a734-8e0fd6e4802e"},"vehicle_type_id":"4","last_reported":1738415435,"current_range_meters":25200,"station_id":"ce4bhgp2rcd13ifvqfc0","pricing_plan_id":"cebpf4jnsgd1na2vs0mg"},{"bike_id":"5cc7bc2b-f739-4f31-acac-12272565811d","system_id":"levelo_inurba_marseille","lat":43.30894,"lon":5.39629,"is_reserved":false,"is_disabled":false,"rental_uris":{"android":"levelo://app?vid=5cc7bc2b-f739-4f31-acac-12272565811d","ios":"levelo://app?vid=5cc7bc2b-f739-4f31-acac-12272565811d"},"vehicle_type_id":"4","last_reported":1738415435,"current_range_meters":38000,"station_id":"ce4bh012rcd13ifvqcv0","pricing_plan_id":"cebpf4jnsgd1na2vs0mg"},{"bike_id":"362981de-ee9c-4202-9582-1217e540e245","system_id":"levelo_inurba_marseille","lat":43.29876,"lon":5.36289,"is_reserved":false,"is_disabled":false,"rental_uris":{"android":"levelo://app?vid=362981de-ee9c-4202-9582-1217e540e245","ios":"levelo://app?vid=362981de-ee9c-4202-9582-1217e540e245"},"vehicle_type_id":"4","last_reported":1738415435,"current_range_meters":32000,"station_id":"ce4bgpp2rcd13ifvqc3g","pricing_plan_id":"cebpf4jnsgd1na2vs0mg"},{"bike_id":"9aee4606-c150-4ae9-8663-a503bb7126aa","system_id":"levelo_inurba_marseille","lat":43.32376,"lon":5.38885,"is_reserved":false,"is_disabled":false,"rental_uris":{"android":"levelo://app?vid=9aee4606-c150-4ae9-8663-a503bb7126aa","ios":"levelo://app?vid=9aee4606-c150-4ae9-8663-a503bb7126aa"},"vehicle_type_id":"4","last_reported":1738415435,"current_range_meters":25200,"station_id":"ce4bhqp2rcd13ifvqhog","pricing_plan_id":"cebpf4jnsgd1na2vs0mg"},{"bike_id":"ab2c796a-c23b-4a3a-9534-777b873d6a05","system_id":"levelo_inurba_marseille","lat":43.2417,"lon":5.36408,"is_reserved":false,"is_disabled":false,"rental_uris":{"android":"levelo://app?vid=ab2c796a-c23b-4a3a-9534-777b873d6a05","ios":"levelo://app?vid=ab2c796a-c23b-4a3a-9534-777b873d6a05"},"vehicle_type_id":"4","last_reported":1738415435,"current_range_meters":32800,"station_id":"cpo36qri1sfpv3e86is0","pricing_plan_id":"cebpf4jnsgd1na2vs0mg"},{"bike_id":"1b857ce7-a20c-4770-9790-7268dce5d355","system_id":"levelo_inurba_marseille","lat":43.28479,"lon":5.38469,"is_reserved":false,"is_disabled":true,"rental_uris":{"android":"levelo://app?vid=1b857ce7-a20c-4770-9790-7268dce5d355","ios":"levelo://app?vid=1b857ce7-a20c-4770-9790-7268dce5d355"},"vehicle_type_id":"4","last_reported":1738415435,"current_range_meters":0,"station_id":"ce4bh512rcd13ifvqe3g","pricing_plan_id":"cebpf4jnsgd1na2vs0mg"},{"bike_id":"40ab3297-4f8b-45e0-860a-11d324602c8e","system_id":"levelo_inurba_marseille","lat":43.25504,"lon":5.37657,"is_reserved":false,"is_disabled":false,"rental_uris":{"android":"levelo://app?vid=40ab3297-4f8b-45e0-860a-11d324602c8e","ios":"levelo://app?vid=40ab3297-4f8b-45e0-860a-11d324602c8e"},"vehicle_type_id":"4","last_reported":1738415435,"current_range_meters":30000,"station_id":"ce4bhh12rcd13ifvqff0","pricing_plan_id":"cebpf4jnsgd1na2vs0mg"},{"bike_id":"5828b83b-f7c6-4d80-a783-c5c9cb673d67","system_id":"levelo_inurba_marseille","lat":43.30145,"lon":5.37423,"is_reserved":false,"is_disabled":false,"rental_uris":{"android":"levelo://app?vid=5828b83b-f7c6-4d80-a783-c5c9cb673d67","ios":"levelo://app?vid=5828b83b-f7c6-4d80-a783-c5c9cb673d67"},"vehicle_type_id":"4","last_reported":1738415435,"current_range_meters":38000,"station_id":"ce4bgs92rcd13ifvqcc0","pricing_plan_id":"cebpf4jnsgd1na2vs0mg"},{"bike_id":"58feef8f-17b5-470d-8151-c7a13f0dbe24","system_id":"levelo_inurba_marseille","lat":43.28439,"lon":5.37516,"is_reserved":false,"is_disabled":true,"rental_uris":{"android":"levelo://app?vid=58feef8f-17b5-470d-8151-c7a13f0dbe24","ios":"levelo://app?vid=58feef8f-17b5-470d-8151-c7a13f0dbe24"},"vehicle_type_id":"4","last_reported":1738415435,"current_range_meters":0,"station_id":"ce4bh412rcd13ifvqds0","pricing_plan_id":"cebpf4jnsgd1na2vs0mg"},{"bike_id":"8d716cf9-0140-474d-99c9-eaa29a86bf63","system_id":"levelo_inurba_marseille","lat":43.28395,"lon":5.37529,"is_reserved":false,"is_disabled":false,"rental_uris":{"android":"levelo://app?vid=8d716cf9-0140-474d-99c9-eaa29a86bf63","ios":"levelo://app?vid=8d716cf9-0140-474d-99c9-eaa29a86bf63"},"vehicle_type_id":"4","last_reported":1738415435,"current_range_meters":10000,"station_id":"ce4bh412rcd13ifvqds0","pricing_plan_id":"cebpf4jnsgd1na2vs0mg"},{"bike_id":"7b1972b5-4724-4ee7-8ef3-3d52a3645f58","system_id":"levelo_inurba_marseille","lat":43.28139,"lon":5.4264,"is_reserved":false,"is_disabled":false,"rental_uris":{"android":"levelo://app?vid=7b1972b5-4724-4ee7-8ef3-3d52a3645f58","ios":"levelo://app?vid=7b1972b5-4724-4ee7-8ef3-3d52a3645f58"},"vehicle_type_id":"4","last_reported":1738415435,"current_range_meters":30400,"station_id":"ce4bhnh2rcd13ifvqgug","pricing_plan_id":"cebpf4jnsgd1na2vs0mg"},{"bike_id":"758c7df1-b289-413f-9578-cb267f266c2c","system_id":"levelo_inurba_marseille","lat":43.28418,"lon":5.37524,"is_reserved":false,"is_disabled":false,"rental_uris":{"android":"levelo://app?vid=758c7df1-b289-413f-9578-cb267f266c2c","ios":"levelo://app?vid=758c7df1-b289-413f-9578-cb267f266c2c"},"vehicle_type_id":"4","last_reported":1738415435,"current_range_meters":27600,"station_id":"ce4bh412rcd13ifvqds0","pricing_plan_id":"cebpf4jnsgd1na2vs0mg"},{"bike_id":"cf2c4705-488e-469d-94a9-79a965729262","system_id":"levelo_inurba_marseille","lat":43.300884,"lon":5.390852,"is_reserved":false,"is_disabled":false,"rental_uris":{"android":"levelo://app?vid=cf2c4705-488e-469d-94a9-79a965729262","ios":"levelo://app?vid=cf2c4705-488e-469d-94a9-79a965729262"},"vehicle_type_id":"4","last_reported":1738415435,"current_range_meters":24400,"station_id":"ce4bh192rcd13ifvqdb0","pricing_plan_id":"cebpf4jnsgd1na2vs0mg"},{"bike_id":"65c530b5-2aaa-424b-a792-20fcaf1cc087","system_id":"levelo_inurba_marseille","lat":43.286161,"lon":5.35101,"is_reserved":false,"is_disabled":false,"rental_uris":{"android":"levelo://app?vid=65c530b5-2aaa-424b-a792-20fcaf1cc087","ios":"levelo://app?vid=65c530b5-2aaa-424b-a792-20fcaf1cc087"},"vehicle_type_id":"4","last_reported":1738415435,"current_range_meters":16000,"station_id":"ce4bhch2rcd13ifvqeug","pricing_plan_id":"cebpf4jnsgd1na2vs0mg"},{"bike_id":"1f367278-209d-4e97-8303-f8487ffe1cb2","system_id":"levelo_inurba_marseille","lat":43.28283,"lon":5.35071,"is_reserved":false,"is_disabled":false,"rental_uris":{"android":"levelo://app?vid=1f367278-209d-4e97-8303-f8487ffe1cb2","ios":"levelo://app?vid=1f367278-209d-4e97-8303-f8487ffe1cb2"},"vehicle_type_id":"4","last_reported":1738415435,"current_range_meters":38400,"station_id":"ce4bhbp2rcd13ifvqerg","pricing_plan_id":"cebpf4jnsgd1na2vs0mg"},{"bike_id":"81ab5a4b-5a7b-4b6a-b59c-6d5548bc8f7c","system_id":"levelo_inurba_marseille","lat":43.30254,"lon":5.40093,"is_reserved":false,"is_disabled":false,"rental_uris":{"android":"levelo://app?vid=81ab5a4b-5a7b-4b6a-b59c-6d5548bc8f7c","ios":"levelo://app?vid=81ab5a4b-5a7b-4b6a-b59c-6d5548bc8f7c"},"vehicle_type_id":"4","last_reported":1738415435,"current_range_meters":33200,"station_id":"ce4bgvh2rcd13ifvqcs0","pricing_plan_id":"cebpf4jnsgd1na2vs0mg"},{"bike_id":"e1d4a2f1-c484-42e0-9232-e98e59dd1624","system_id":"levelo_inurba_marseille","lat":43.29027,"lon":5.3864,"is_reserved":false,"is_disabled":true,"rental_uris":{"android":"levelo://app?vid=e1d4a2f1-c484-42e0-9232-e98e59dd1624","ios":"levelo://app?vid=e1d4a2f1-c484-42e0-9232-e98e59dd1624"},"vehicle_type_id":"4","last_reported":1738415435,"current_range_meters":38800,"station_id":"ce4bh4p2rcd13ifvqe0g","pricing_plan_id":"cebpf4jnsgd1na2vs0mg"},{"bike_id":"f5192a48-f127-416f-ac25-5dcd6cb43014","system_id":"levelo_inurba_marseille","lat":43.31077,"lon":5.42432,"is_reserved":false,"is_disabled":false,"rental_uris":{"android":"levelo://app?vid=f5192a48-f127-416f-ac25-5dcd6cb43014","ios":"levelo://app?vid=f5192a48-f127-416f-ac25-5dcd6cb43014"},"vehicle_type_id":"4","last_reported":1738415435,"current_range_meters":37600,"station_id":"ce4bhp92rcd13ifvqhag","pricing_plan_id":"cebpf4jnsgd1na2vs0mg"},{"bike_id":"e8e1f7c6-d773-4c38-bfcc-4a6d773355ce","system_id":"levelo_inurba_marseille","lat":43.22929,"lon":5.35383,"is_reserved":false,"is_disabled":false,"rental_uris":{"android":"levelo://app?vid=e8e1f7c6-d773-4c38-bfcc-4a6d773355ce","ios":"levelo://app?vid=e8e1f7c6-d773-4c38-bfcc-4a6d773355ce"},"vehicle_type_id":"4","last_reported":1738415435,"current_range_meters":39200,"station_id":"cpo3532slgdg3j2ikp40","pricing_plan_id":"cebpf4jnsgd1na2vs0mg"},{"bike_id":"d48eb152-182f-4d65-b244-9231fd788532","system_id":"levelo_inurba_marseille","lat":43.30138,"lon":5.39865,"is_reserved":false,"is_disabled":false,"rental_uris":{"android":"levelo://app?vid=d48eb152-182f-4d65-b244-9231fd788532","ios":"levelo://app?vid=d48eb152-182f-4d65-b244-9231fd788532"},"vehicle_type_id":"4","last_reported":1738415435,"current_range_meters":38000,"station_id":"ce4bh0h2rcd13ifvqd40","pricing_plan_id":"cebpf4jnsgd1na2vs0mg"},{"bike_id":"3d5cd3e3-9417-45ac-91cc-715af0568bfc","system_id":"levelo_inurba_marseille","lat":43.258673,"lon":5.399087,"is_reserved":false,"is_disabled":false,"rental_uris":{"android":"levelo://app?vid=3d5cd3e3-9417-45ac-91cc-715af0568bfc","ios":"levelo://app?vid=3d5cd3e3-9417-45ac-91cc-715af0568bfc"},"vehicle_type_id":"4","last_reported":1738415435,"current_range_meters":38800,"station_id":"ce4bhl92rcd13ifvqghg","pricing_plan_id":"cebpf4jnsgd1na2vs0mg"},{"bike_id":"ea6c894d-2016-4405-87c2-24a4ddf729fd","system_id":"levelo_inurba_marseille","lat":43.26212,"lon":5.37425,"is_reserved":false,"is_disabled":false,"rental_uris":{"android":"levelo://app?vid=ea6c894d-2016-4405-87c2-24a4ddf729fd","ios":"levelo://app?vid=ea6c894d-2016-4405-87c2-24a4ddf729fd"},"vehicle_type_id":"4","last_reported":1738415435,"current_range_meters":38800,"station_id":"ce4bhgp2rcd13ifvqfc0","pricing_plan_id":"cebpf4jnsgd1na2vs0mg"},{"bike_id":"e2e22a8d-9796-421d-9c3c-c902e6974122","system_id":"levelo_inurba_marseille","lat":43.26573,"lon":5.39011,"is_reserved":false,"is_disabled":false,"rental_uris":{"android":"levelo://app?vid=e2e22a8d-9796-421d-9c3c-c902e6974122","ios":"levelo://app?vid=e2e22a8d-9796-421d-9c3c-c902e6974122"},"vehicle_type_id":"4","last_reported":1738415435,"current_range_meters":15200,"station_id":"ce4bhe12rcd13ifvqf30","pricing_plan_id":"cebpf4jnsgd1na2vs0mg"},{"bike_id":"446cfbd8-380d-483d-82ba-61ff47e31d05","system_id":"levelo_inurba_marseille","lat":43.29253,"lon":5.38432,"is_reserved":false,"is_disabled":true,"rental_uris":{"android":"levelo://app?vid=446cfbd8-380d-483d-82ba-61ff47e31d05","ios":"levelo://app?vid=446cfbd8-380d-483d-82ba-61ff47e31d05"},"vehicle_type_id":"4","last_reported":1738415435,"current_range_meters":35200,"station_id":"ce4bh692rcd13ifvqea0","pricing_plan_id":"cebpf4jnsgd1na2vs0mg"},{"bike_id":"a7cc74ac-b07d-4f6c-9eb2-f06b858cff6c","system_id":"levelo_inurba_marseille","lat":43.28162,"lon":5.42636,"is_reserved":false,"is_disabled":false,"rental_uris":{"android":"levelo://app?vid=a7cc74ac-b07d-4f6c-9eb2-f06b858cff6c","ios":"levelo://app?vid=a7cc74ac-b07d-4f6c-9eb2-f06b858cff6c"},"vehicle_type_id":"4","last_reported":1738415435,"current_range_meters":28000,"station_id":"ce4bhnh2rcd13ifvqgug","pricing_plan_id":"cebpf4jnsgd1na2vs0mg"},{"bike_id":"3d2ad4eb-c3df-4be8-82a3-1864655479da","system_id":"levelo_inurba_marseille","lat":43.28626,"lon":5.35113,"is_reserved":false,"is_disabled":false,"rental_uris":{"android":"levelo://app?vid=3d2ad4eb-c3df-4be8-82a3-1864655479da","ios":"levelo://app?vid=3d2ad4eb-c3df-4be8-82a3-1864655479da"},"vehicle_type_id":"4","last_reported":1738415435,"current_range_meters":38800,"station_id":"ce4bhch2rcd13ifvqeug","pricing_plan_id":"cebpf4jnsgd1na2vs0mg"},{"bike_id":"92ff4960-534f-419f-84ce-c3092dfee89b","system_id":"levelo_inurba_marseille","lat":43.30434,"lon":5.39749,"is_reserved":false,"is_disabled":false,"rental_uris":{"android":"levelo://app?vid=92ff4960-534f-419f-84ce-c3092dfee89b","ios":"levelo://app?vid=92ff4960-534f-419f-84ce-c3092dfee89b"},"vehicle_type_id":"4","last_reported":1738415435,"current_range_meters":38800,"station_id":"ce4bh092rcd13ifvqd20","pricing_plan_id":"cebpf4jnsgd1na2vs0mg"},{"bike_id":"0ab11052-6474-4543-a6a5-fbe9f08121fd","system_id":"levelo_inurba_marseille","lat":43.31263,"lon":5.36863,"is_reserved":false,"is_disabled":false,"rental_uris":{"android":"levelo://app?vid=0ab11052-6474-4543-a6a5-fbe9f08121fd","ios":"levelo://app?vid=0ab11052-6474-4543-a6a5-fbe9f08121fd"},"vehicle_type_id":"4","last_reported":1738415435,"current_range_meters":27600,"station_id":"ce4bgl92rcd13ifvqbq0","pricing_plan_id":"cebpf4jnsgd1na2vs0mg"},{"bike_id":"7095d643-c88c-4380-b0d5-45028aa7507f","system_id":"levelo_inurba_marseille","lat":43.2467,"lon":5.38885,"is_reserved":false,"is_disabled":false,"rental_uris":{"android":"levelo://app?vid=7095d643-c88c-4380-b0d5-45028aa7507f","ios":"levelo://app?vid=7095d643-c88c-4380-b0d5-45028aa7507f"},"vehicle_type_id":"4","last_reported":1738415435,"current_range_meters":23200,"station_id":"ce4bhg12rcd13ifvqf60","pricing_plan_id":"cebpf4jnsgd1na2vs0mg"},{"bike_id":"599c2113-cefb-497c-bd40-33fa754309d1","system_id":"levelo_inurba_marseille","lat":43.2762,"lon":5.36112,"is_reserved":false,"is_disabled":false,"rental_uris":{"android":"levelo://app?vid=599c2113-cefb-497c-bd40-33fa754309d1","ios":"levelo://app?vid=599c2113-cefb-497c-bd40-33fa754309d1"},"vehicle_type_id":"4","last_reported":1738415435,"current_range_meters":16400,"station_id":"ce4bgj92rcd13ifvqbe0","pricing_plan_id":"cebpf4jnsgd1na2vs0mg"},{"bike_id":"2b22b5ed-c4c8-4bfa-9d5a-6c94e076fef4","system_id":"levelo_inurba_marseille","lat":43.30464,"lon":5.379098,"is_reserved":false,"is_disabled":false,"rental_uris":{"android":"levelo://app?vid=2b22b5ed-c4c8-4bfa-9d5a-6c94e076fef4","ios":"levelo://app?vid=2b22b5ed-c4c8-4bfa-9d5a-6c94e076fef4"},"vehicle_type_id":"4","last_reported":1738415435,"current_range_meters":16400,"station_id":"ce4bgup2rcd13ifvqcn0","pricing_plan_id":"cebpf4jnsgd1na2vs0mg"},{"bike_id":"71f34f72-d3b7-46a5-9bd4-1fe057b3152f","system_id":"levelo_inurba_marseille","lat":43.22932,"lon":5.35383,"is_reserved":false,"is_disabled":false,"rental_uris":{"android":"levelo://app?vid=71f34f72-d3b7-46a5-9bd4-1fe057b3152f","ios":"levelo://app?vid=71f34f72-d3b7-46a5-9bd4-1fe057b3152f"},"vehicle_type_id":"4","last_reported":1738415435,"current_range_meters":39200,"station_id":"cpo3532slgdg3j2ikp40","pricing_plan_id":"cebpf4jnsgd1na2vs0mg"},{"bike_id":"ba1b16dd-09e2-4536-8411-babb750bcb3c","system_id":"levelo_inurba_marseille","lat":43.23188,"lon":5.40005,"is_reserved":false,"is_disabled":true,"rental_uris":{"android":"levelo://app?vid=ba1b16dd-09e2-4536-8411-babb750bcb3c","ios":"levelo://app?vid=ba1b16dd-09e2-4536-8411-babb750bcb3c"},"vehicle_type_id":"4","last_reported":1738415435,"current_range_meters":27200,"station_id":"ce4bhn12rcd13ifvqgqg","pricing_plan_id":"cebpf4jnsgd1na2vs0mg"},{"bike_id":"20029bdd-9f9c-4ff9-86e4-5ba6ed30f46a","system_id":"levelo_inurba_marseille","lat":43.23148,"lon":5.43705,"is_reserved":false,"is_disabled":true,"rental_uris":{"android":"levelo://app?vid=20029bdd-9f9c-4ff9-86e4-5ba6ed30f46a","ios":"levelo://app?vid=20029bdd-9f9c-4ff9-86e4-5ba6ed30f46a"},"vehicle_type_id":"4","last_reported":1738415435,"current_range_meters":0,"station_id":"ce4bhmp2rcd13ifvqgog","pricing_plan_id":"cebpf4jnsgd1na2vs0mg"},{"bike_id":"11b674a2-b47a-42e2-91bf-c6e6c2cea6f7","system_id":"levelo_inurba_marseille","lat":43.28702,"lon":5.39959,"is_reserved":false,"is_disabled":false,"rental_uris":{"android":"levelo://app?vid=11b674a2-b47a-42e2-91bf-c6e6c2cea6f7","ios":"levelo://app?vid=11b674a2-b47a-42e2-91bf-c6e6c2cea6f7"},"vehicle_type_id":"4","last_reported":1738415435,"current_range_meters":34000,"station_id":"ce4bho92rcd13ifvqh3g","pricing_plan_id":"cebpf4jnsgd1na2vs0mg"},{"bike_id":"7118d11c-fb23-4ced-9eb9-83d3fb024883","system_id":"levelo_inurba_marseille","lat":43.29226,"lon":5.36049,"is_reserved":false,"is_disabled":false,"rental_uris":{"android":"levelo://app?vid=7118d11c-fb23-4ced-9eb9-83d3fb024883","ios":"levelo://app?vid=7118d11c-fb23-4ced-9eb9-83d3fb024883"},"vehicle_type_id":"4","last_reported":1738415435,"current_range_meters":28800,"station_id":"ce4bhbh2rcd13ifvqeqg","pricing_plan_id":"cebpf4jnsgd1na2vs0mg"},{"bike_id":"678f5edd-1b4b-476c-bbd1-1e851715e509","system_id":"levelo_inurba_marseille","lat":43.28454,"lon":5.35892,"is_reserved":false,"is_disabled":false,"rental_uris":{"android":"levelo://app?vid=678f5edd-1b4b-476c-bbd1-1e851715e509","ios":"levelo://app?vid=678f5edd-1b4b-476c-bbd1-1e851715e509"},"vehicle_type_id":"4","last_reported":1738415435,"current_range_meters":38800,"station_id":"ce4bhah2rcd13ifvqei0","pricing_plan_id":"cebpf4jnsgd1na2vs0mg"},{"bike_id":"0b4194f3-2972-468f-941d-952f79ac6b26","system_id":"levelo_inurba_marseille","lat":43.279114,"lon":5.395864,"is_reserved":false,"is_disabled":true,"rental_uris":{"android":"levelo://app?vid=0b4194f3-2972-468f-941d-952f79ac6b26","ios":"levelo://app?vid=0b4194f3-2972-468f-941d-952f79ac6b26"},"vehicle_type_id":"4","last_reported":1738415435,"current_range_meters":0,"station_id":"ce4bhf92rcd13ifvqf40","pricing_plan_id":"cebpf4jnsgd1na2vs0mg"},{"bike_id":"4c6419a7-9a55-44ac-a18c-21511cff9f84","system_id":"levelo_inurba_marseille","lat":43.29967,"lon":5.37187,"is_reserved":false,"is_disabled":false,"rental_uris":{"android":"levelo://app?vid=4c6419a7-9a55-44ac-a18c-21511cff9f84","ios":"levelo://app?vid=4c6419a7-9a55-44ac-a18c-21511cff9f84"},"vehicle_type_id":"4","last_reported":1738415435,"current_range_meters":38800,"station_id":"ce4bgr92rcd13ifvqc7g","pricing_plan_id":"cebpf4jnsgd1na2vs0mg"},{"bike_id":"a5bee0bb-ebc0-41c1-9eff-4d868e054cb9","system_id":"levelo_inurba_marseille","lat":43.28456,"lon":5.35894,"is_reserved":false,"is_disabled":false,"rental_uris":{"android":"levelo://app?vid=a5bee0bb-ebc0-41c1-9eff-4d868e054cb9","ios":"levelo://app?vid=a5bee0bb-ebc0-41c1-9eff-4d868e054cb9"},"vehicle_type_id":"4","last_reported":1738415435,"current_range_meters":30000,"station_id":"ce4bhah2rcd13ifvqei0","pricing_plan_id":"cebpf4jnsgd1na2vs0mg"},{"bike_id":"4d2fa91d-31d6-4109-9724-1a91084adf8f","system_id":"levelo_inurba_marseille","lat":43.30462,"lon":5.3789,"is_reserved":false,"is_disabled":false,"rental_uris":{"android":"levelo://app?vid=4d2fa91d-31d6-4109-9724-1a91084adf8f","ios":"levelo://app?vid=4d2fa91d-31d6-4109-9724-1a91084adf8f"},"vehicle_type_id":"4","last_reported":1738415435,"current_range_meters":16800,"station_id":"ce4bgup2rcd13ifvqcn0","pricing_plan_id":"cebpf4jnsgd1na2vs0mg"},{"bike_id":"491407c5-a175-44f0-86fc-0f4ccadf82e3","system_id":"levelo_inurba_marseille","lat":43.337444,"lon":5.374475,"is_reserved":false,"is_disabled":true,"rental_uris":{"android":"levelo://app?vid=491407c5-a175-44f0-86fc-0f4ccadf82e3","ios":"levelo://app?vid=491407c5-a175-44f0-86fc-0f4ccadf82e3"},"vehicle_type_id":"4","last_reported":1738415435,"current_range_meters":0,"station_id":"","pricing_plan_id":"cebpf4jnsgd1na2vs0mg"},{"bike_id":"f15b606d-b287-44c9-8e50-29d4fd2445a7","system_id":"levelo_inurba_marseille","lat":43.2979,"lon":5.38048,"is_reserved":false,"is_disabled":false,"rental_uris":{"android":"levelo://app?vid=f15b606d-b287-44c9-8e50-29d4fd2445a7","ios":"levelo://app?vid=f15b606d-b287-44c9-8e50-29d4fd2445a7"},"vehicle_type_id":"4","last_reported":1738415435,"current_range_meters":38400,"station_id":"ce4bgip2rcd13ifvqbb0","pricing_plan_id":"cebpf4jnsgd1na2vs0mg"},{"bike_id":"e89f5088-65d9-4e75-b934-4b4598e4617c","system_id":"levelo_inurba_marseille","lat":43.30613,"lon":5.39338,"is_reserved":false,"is_disabled":false,"rental_uris":{"android":"levelo://app?vid=e89f5088-65d9-4e75-b934-4b4598e4617c","ios":"levelo://app?vid=e89f5088-65d9-4e75-b934-4b4598e4617c"},"vehicle_type_id":"4","last_reported":1738415435,"current_range_meters":12400,"station_id":"ce4bh0p2rcd13ifvqd80","pricing_plan_id":"cebpf4jnsgd1na2vs0mg"},{"bike_id":"e1aa3b6c-0a4b-4fca-bb68-feab18e798c9","system_id":"levelo_inurba_marseille","lat":43.32369,"lon":5.38888,"is_reserved":false,"is_disabled":true,"rental_uris":{"android":"levelo://app?vid=e1aa3b6c-0a4b-4fca-bb68-feab18e798c9","ios":"levelo://app?vid=e1aa3b6c-0a4b-4fca-bb68-feab18e798c9"},"vehicle_type_id":"4","last_reported":1738415435,"current_range_meters":800,"station_id":"ce4bhqp2rcd13ifvqhog","pricing_plan_id":"cebpf4jnsgd1na2vs0mg"},{"bike_id":"1cce3a2e-ff90-4614-81d0-f5fce2a059e9","system_id":"levelo_inurba_marseille","lat":43.28982,"lon":5.37823,"is_reserved":false,"is_disabled":false,"rental_uris":{"android":"levelo://app?vid=1cce3a2e-ff90-4614-81d0-f5fce2a059e9","ios":"levelo://app?vid=1cce3a2e-ff90-4614-81d0-f5fce2a059e9"},"vehicle_type_id":"4","last_reported":1738415435,"current_range_meters":38400,"station_id":"ce4bh9p2rcd13ifvqed0","pricing_plan_id":"cebpf4jnsgd1na2vs0mg"},{"bike_id":"ccccb8fb-db7a-403f-8d6e-ab21673f64ce","system_id":"levelo_inurba_marseille","lat":43.28477,"lon":5.3841,"is_reserved":false,"is_disabled":false,"rental_uris":{"android":"levelo://app?vid=ccccb8fb-db7a-403f-8d6e-ab21673f64ce","ios":"levelo://app?vid=ccccb8fb-db7a-403f-8d6e-ab21673f64ce"},"vehicle_type_id":"4","last_reported":1738415435,"current_range_meters":39200,"station_id":"ce4bh512rcd13ifvqe3g","pricing_plan_id":"cebpf4jnsgd1na2vs0mg"},{"bike_id":"249b7b60-8305-4794-bc88-bf145ce1b67c","system_id":"levelo_inurba_marseille","lat":43.23189,"lon":5.39989,"is_reserved":false,"is_disabled":false,"rental_uris":{"android":"levelo://app?vid=249b7b60-8305-4794-bc88-bf145ce1b67c","ios":"levelo://app?vid=249b7b60-8305-4794-bc88-bf145ce1b67c"},"vehicle_type_id":"4","last_reported":1738415435,"current_range_meters":10000,"station_id":"ce4bhn12rcd13ifvqgqg","pricing_plan_id":"cebpf4jnsgd1na2vs0mg"},{"bike_id":"0b439ceb-bbef-470b-b522-3e20f798d948","system_id":"levelo_inurba_marseille","lat":43.29088,"lon":5.38161,"is_reserved":false,"is_disabled":true,"rental_uris":{"android":"levelo://app?vid=0b439ceb-bbef-470b-b522-3e20f798d948","ios":"levelo://app?vid=0b439ceb-bbef-470b-b522-3e20f798d948"},"vehicle_type_id":"4","last_reported":1738415435,"current_range_meters":22800,"station_id":"ce4bh512rcd13ifvqe2g","pricing_plan_id":"cebpf4jnsgd1na2vs0mg"},{"bike_id":"528fe304-774b-4f5e-99b0-3a6df52f7bd5","system_id":"levelo_inurba_marseille","lat":43.26689,"lon":5.38271,"is_reserved":false,"is_disabled":false,"rental_uris":{"android":"levelo://app?vid=528fe304-774b-4f5e-99b0-3a6df52f7bd5","ios":"levelo://app?vid=528fe304-774b-4f5e-99b0-3a6df52f7bd5"},"vehicle_type_id":"4","last_reported":1738415435,"current_range_meters":20400,"station_id":"ce4bhg92rcd13ifvqf90","pricing_plan_id":"cebpf4jnsgd1na2vs0mg"},{"bike_id":"693a29bd-5ac5-4712-a645-e5d8a8553060","system_id":"levelo_inurba_marseille","lat":43.29574,"lon":5.39983,"is_reserved":false,"is_disabled":true,"rental_uris":{"android":"levelo://app?vid=693a29bd-5ac5-4712-a645-e5d8a8553060","ios":"levelo://app?vid=693a29bd-5ac5-4712-a645-e5d8a8553060"},"vehicle_type_id":"4","last_reported":1738415435,"current_range_meters":38800,"station_id":"ce4bh312rcd13ifvqdj0","pricing_plan_id":"cebpf4jnsgd1na2vs0mg"},{"bike_id":"a561cf4d-af3c-4b7c-a5d0-0e14d6887efb","system_id":"levelo_inurba_marseille","lat":43.305,"lon":5.37888,"is_reserved":false,"is_disabled":false,"rental_uris":{"android":"levelo://app?vid=a561cf4d-af3c-4b7c-a5d0-0e14d6887efb","ios":"levelo://app?vid=a561cf4d-af3c-4b7c-a5d0-0e14d6887efb"},"vehicle_type_id":"4","last_reported":1738415435,"current_range_meters":38800,"station_id":"ce4bgup2rcd13ifvqcn0","pricing_plan_id":"cebpf4jnsgd1na2vs0mg"},{"bike_id":"f38a9b51-7bc8-4445-89b3-2095fb6b771f","system_id":"levelo_inurba_marseille","lat":43.28706,"lon":5.37398,"is_reserved":false,"is_disabled":true,"rental_uris":{"android":"levelo://app?vid=f38a9b51-7bc8-4445-89b3-2095fb6b771f","ios":"levelo://app?vid=f38a9b51-7bc8-4445-89b3-2095fb6b771f"},"vehicle_type_id":"4","last_reported":1738415435,"current_range_meters":28000,"station_id":"ce4bh3p2rcd13ifvqdq0","pricing_plan_id":"cebpf4jnsgd1na2vs0mg"},{"bike_id":"0d7a244d-eddd-4c0c-a11f-51af00f1caed","system_id":"levelo_inurba_marseille","lat":43.26778,"lon":5.39418,"is_reserved":false,"is_disabled":false,"rental_uris":{"android":"levelo://app?vid=0d7a244d-eddd-4c0c-a11f-51af00f1caed","ios":"levelo://app?vid=0d7a244d-eddd-4c0c-a11f-51af00f1caed"},"vehicle_type_id":"4","last_reported":1738415435,"current_range_meters":35200,"station_id":"ce4bhh12rcd13ifvqfg0","pricing_plan_id":"cebpf4jnsgd1na2vs0mg"},{"bike_id":"fe117411-d9ae-46ad-96d7-1d4828206f4a","system_id":"levelo_inurba_marseille","lat":43.24401,"lon":5.37063,"is_reserved":false,"is_disabled":false,"rental_uris":{"android":"levelo://app?vid=fe117411-d9ae-46ad-96d7-1d4828206f4a","ios":"levelo://app?vid=fe117411-d9ae-46ad-96d7-1d4828206f4a"},"vehicle_type_id":"4","last_reported":1738415435,"current_range_meters":38800,"station_id":"ce4bhhh2rcd13ifvqfk0","pricing_plan_id":"cebpf4jnsgd1na2vs0mg"},{"bike_id":"596db8be-c1ef-4532-968e-3ed361605f2d","system_id":"levelo_inurba_marseille","lat":43.27994,"lon":5.40012,"is_reserved":false,"is_disabled":false,"rental_uris":{"android":"levelo://app?vid=596db8be-c1ef-4532-968e-3ed361605f2d","ios":"levelo://app?vid=596db8be-c1ef-4532-968e-3ed361605f2d"},"vehicle_type_id":"4","last_reported":1738415435,"current_range_meters":38800,"station_id":"ce4bho92rcd13ifvqh4g","pricing_plan_id":"cebpf4jnsgd1na2vs0mg"},{"bike_id":"6725a974-636a-4cad-bf4d-273395199ad4","system_id":"levelo_inurba_marseille","lat":43.337295,"lon":5.391921,"is_reserved":false,"is_disabled":false,"rental_uris":{"android":"levelo://app?vid=6725a974-636a-4cad-bf4d-273395199ad4","ios":"levelo://app?vid=6725a974-636a-4cad-bf4d-273395199ad4"},"vehicle_type_id":"4","last_reported":1738415435,"current_range_meters":17600,"station_id":"ce4bhr92rcd13ifvqhsg","pricing_plan_id":"cebpf4jnsgd1na2vs0mg"},{"bike_id":"d1341e38-7bed-41d9-8483-9b19ce606a76","system_id":"levelo_inurba_marseille","lat":43.28827,"lon":5.38443,"is_reserved":false,"is_disabled":false,"rental_uris":{"android":"levelo://app?vid=d1341e38-7bed-41d9-8483-9b19ce606a76","ios":"levelo://app?vid=d1341e38-7bed-41d9-8483-9b19ce606a76"},"vehicle_type_id":"4","last_reported":1738415435,"current_range_meters":8800,"station_id":"ce4bh612rcd13ifvqe6g","pricing_plan_id":"cebpf4jnsgd1na2vs0mg"},{"bike_id":"e5fae204-2bf4-47da-92c1-9988eb2ab96f","system_id":"levelo_inurba_marseille","lat":43.295981,"lon":5.381003,"is_reserved":false,"is_disabled":false,"rental_uris":{"android":"levelo://app?vid=e5fae204-2bf4-47da-92c1-9988eb2ab96f","ios":"levelo://app?vid=e5fae204-2bf4-47da-92c1-9988eb2ab96f"},"vehicle_type_id":"4","last_reported":1738415435,"current_range_meters":36800,"station_id":"ce4bgl12rcd13ifvqbo0","pricing_plan_id":"cebpf4jnsgd1na2vs0mg"},{"bike_id":"48316449-3088-4ff2-b12b-1855abfe4b0d","system_id":"levelo_inurba_marseille","lat":43.30151,"lon":5.38088,"is_reserved":false,"is_disabled":false,"rental_uris":{"android":"levelo://app?vid=48316449-3088-4ff2-b12b-1855abfe4b0d","ios":"levelo://app?vid=48316449-3088-4ff2-b12b-1855abfe4b0d"},"vehicle_type_id":"4","last_reported":1738415435,"current_range_meters":25600,"station_id":"ce4bgjp2rcd13ifvqbh0","pricing_plan_id":"cebpf4jnsgd1na2vs0mg"},{"bike_id":"7d18ef3a-e6a0-456f-a410-dcc81e70de23","system_id":"levelo_inurba_marseille","lat":43.28938,"lon":5.36416,"is_reserved":false,"is_disabled":false,"rental_uris":{"android":"levelo://app?vid=7d18ef3a-e6a0-456f-a410-dcc81e70de23","ios":"levelo://app?vid=7d18ef3a-e6a0-456f-a410-dcc81e70de23"},"vehicle_type_id":"4","last_reported":1738415435,"current_range_meters":38800,"station_id":"ce4bhc92rcd13ifvqetg","pricing_plan_id":"cebpf4jnsgd1na2vs0mg"},{"bike_id":"259bc585-bc16-4a39-8a4e-d312bc4bf4eb","system_id":"levelo_inurba_marseille","lat":43.28491,"lon":5.38474,"is_reserved":false,"is_disabled":false,"rental_uris":{"android":"levelo://app?vid=259bc585-bc16-4a39-8a4e-d312bc4bf4eb","ios":"levelo://app?vid=259bc585-bc16-4a39-8a4e-d312bc4bf4eb"},"vehicle_type_id":"4","last_reported":1738415435,"current_range_meters":27200,"station_id":"ce4bh512rcd13ifvqe3g","pricing_plan_id":"cebpf4jnsgd1na2vs0mg"},{"bike_id":"4a5aec68-58bb-4a4d-bcf2-b54b380181da","system_id":"levelo_inurba_marseille","lat":43.29633,"lon":5.40619,"is_reserved":false,"is_disabled":false,"rental_uris":{"android":"levelo://app?vid=4a5aec68-58bb-4a4d-bcf2-b54b380181da","ios":"levelo://app?vid=4a5aec68-58bb-4a4d-bcf2-b54b380181da"},"vehicle_type_id":"4","last_reported":1738415435,"current_range_meters":23200,"station_id":"ce4bh0h2rcd13ifvqd60","pricing_plan_id":"cebpf4jnsgd1na2vs0mg"},{"bike_id":"a9e57f2a-2e24-4bb9-905f-718f32fa9ec6","system_id":"levelo_inurba_marseille","lat":43.30874,"lon":5.39671,"is_reserved":false,"is_disabled":true,"rental_uris":{"android":"levelo://app?vid=a9e57f2a-2e24-4bb9-905f-718f32fa9ec6","ios":"levelo://app?vid=a9e57f2a-2e24-4bb9-905f-718f32fa9ec6"},"vehicle_type_id":"4","last_reported":1738415435,"current_range_meters":1200,"station_id":"ce4bh012rcd13ifvqcv0","pricing_plan_id":"cebpf4jnsgd1na2vs0mg"},{"bike_id":"f300758a-e57f-46db-b5bf-8bf139d56cd7","system_id":"levelo_inurba_marseille","lat":43.25122,"lon":5.40356,"is_reserved":false,"is_disabled":false,"rental_uris":{"android":"levelo://app?vid=f300758a-e57f-46db-b5bf-8bf139d56cd7","ios":"levelo://app?vid=f300758a-e57f-46db-b5bf-8bf139d56cd7"},"vehicle_type_id":"4","last_reported":1738415435,"current_range_meters":17600,"station_id":"ce4bhlh2rcd13ifvqgig","pricing_plan_id":"cebpf4jnsgd1na2vs0mg"},{"bike_id":"a39c9ffd-0582-484d-ba16-bf62d8e8ded2","system_id":"levelo_inurba_marseille","lat":43.26055,"lon":5.39397,"is_reserved":false,"is_disabled":false,"rental_uris":{"android":"levelo://app?vid=a39c9ffd-0582-484d-ba16-bf62d8e8ded2","ios":"levelo://app?vid=a39c9ffd-0582-484d-ba16-bf62d8e8ded2"},"vehicle_type_id":"4","last_reported":1738415435,"current_range_meters":36400,"station_id":"ce4bhh92rcd13ifvqfj0","pricing_plan_id":"cebpf4jnsgd1na2vs0mg"},{"bike_id":"1f4e4183-ba38-4674-b19d-0c758736fe8e","system_id":"levelo_inurba_marseille","lat":43.25088,"lon":5.39512,"is_reserved":false,"is_disabled":false,"rental_uris":{"android":"levelo://app?vid=1f4e4183-ba38-4674-b19d-0c758736fe8e","ios":"levelo://app?vid=1f4e4183-ba38-4674-b19d-0c758736fe8e"},"vehicle_type_id":"4","last_reported":1738415435,"current_range_meters":28800,"station_id":"ce4bhm12rcd13ifvqgkg","pricing_plan_id":"cebpf4jnsgd1na2vs0mg"},{"bike_id":"c890785b-a449-4d52-91fc-f5f1b26df012","system_id":"levelo_inurba_marseille","lat":43.25876,"lon":5.39921,"is_reserved":false,"is_disabled":false,"rental_uris":{"android":"levelo://app?vid=c890785b-a449-4d52-91fc-f5f1b26df012","ios":"levelo://app?vid=c890785b-a449-4d52-91fc-f5f1b26df012"},"vehicle_type_id":"4","last_reported":1738415435,"current_range_meters":19600,"station_id":"ce4bhl92rcd13ifvqghg","pricing_plan_id":"cebpf4jnsgd1na2vs0mg"},{"bike_id":"35e12bcc-8f2b-4918-be62-9bf93122f559","system_id":"levelo_inurba_marseille","lat":43.31493,"lon":5.37298,"is_reserved":false,"is_disabled":false,"rental_uris":{"android":"levelo://app?vid=35e12bcc-8f2b-4918-be62-9bf93122f559","ios":"levelo://app?vid=35e12bcc-8f2b-4918-be62-9bf93122f559"},"vehicle_type_id":"4","last_reported":1738415435,"current_range_meters":28800,"station_id":"ce4bgt12rcd13ifvqcd0","pricing_plan_id":"cebpf4jnsgd1na2vs0mg"},{"bike_id":"46b43093-b875-4b52-a6ea-76dd9dc96ba1","system_id":"levelo_inurba_marseille","lat":43.30537,"lon":5.36569,"is_reserved":false,"is_disabled":false,"rental_uris":{"android":"levelo://app?vid=46b43093-b875-4b52-a6ea-76dd9dc96ba1","ios":"levelo://app?vid=46b43093-b875-4b52-a6ea-76dd9dc96ba1"},"vehicle_type_id":"4","last_reported":1738415435,"current_range_meters":38800,"station_id":"ce4bgs12rcd13ifvqcag","pricing_plan_id":"cebpf4jnsgd1na2vs0mg"},{"bike_id":"56d6b97f-30a2-4c2a-8be6-a12a9fc19507","system_id":"levelo_inurba_marseille","lat":43.31755,"lon":5.39022,"is_reserved":false,"is_disabled":false,"rental_uris":{"android":"levelo://app?vid=56d6b97f-30a2-4c2a-8be6-a12a9fc19507","ios":"levelo://app?vid=56d6b97f-30a2-4c2a-8be6-a12a9fc19507"},"vehicle_type_id":"4","last_reported":1738415435,"current_range_meters":9600,"station_id":"ce4bhqp2rcd13ifvqhng","pricing_plan_id":"cebpf4jnsgd1na2vs0mg"},{"bike_id":"a895efa9-50aa-435c-91d1-c119eaf59a54","system_id":"levelo_inurba_marseille","lat":43.26462,"lon":5.39484,"is_reserved":false,"is_disabled":false,"rental_uris":{"android":"levelo://app?vid=a895efa9-50aa-435c-91d1-c119eaf59a54","ios":"levelo://app?vid=a895efa9-50aa-435c-91d1-c119eaf59a54"},"vehicle_type_id":"4","last_reported":1738415435,"current_range_meters":36400,"station_id":"ce4bhi12rcd13ifvqfq0","pricing_plan_id":"cebpf4jnsgd1na2vs0mg"},{"bike_id":"32e8657c-7e52-4c6f-9cc3-fa9c15f63333","system_id":"levelo_inurba_marseille","lat":43.30101,"lon":5.39087,"is_reserved":false,"is_disabled":false,"rental_uris":{"android":"levelo://app?vid=32e8657c-7e52-4c6f-9cc3-fa9c15f63333","ios":"levelo://app?vid=32e8657c-7e52-4c6f-9cc3-fa9c15f63333"},"vehicle_type_id":"4","last_reported":1738415435,"current_range_meters":16800,"station_id":"ce4bh192rcd13ifvqdb0","pricing_plan_id":"cebpf4jnsgd1na2vs0mg"},{"bike_id":"8e104399-aef2-4f9b-ac7b-a192d80911fa","system_id":"levelo_inurba_marseille","lat":43.26565,"lon":5.39019,"is_reserved":false,"is_disabled":true,"rental_uris":{"android":"levelo://app?vid=8e104399-aef2-4f9b-ac7b-a192d80911fa","ios":"levelo://app?vid=8e104399-aef2-4f9b-ac7b-a192d80911fa"},"vehicle_type_id":"4","last_reported":1738415435,"current_range_meters":0,"station_id":"ce4bhe12rcd13ifvqf30","pricing_plan_id":"cebpf4jnsgd1na2vs0mg"},{"bike_id":"3f3daf50-ce5a-4315-a155-e6dbe67d0af1","system_id":"levelo_inurba_marseille","lat":43.3133,"lon":5.36719,"is_reserved":false,"is_disabled":false,"rental_uris":{"android":"levelo://app?vid=3f3daf50-ce5a-4315-a155-e6dbe67d0af1","ios":"levelo://app?vid=3f3daf50-ce5a-4315-a155-e6dbe67d0af1"},"vehicle_type_id":"4","last_reported":1738415435,"current_range_meters":32000,"station_id":"ce4bgr92rcd13ifvqc6g","pricing_plan_id":"cebpf4jnsgd1na2vs0mg"},{"bike_id":"d8ed3149-1b3d-468c-b65c-32b89925f608","system_id":"levelo_inurba_marseille","lat":43.33032,"lon":5.41269,"is_reserved":false,"is_disabled":false,"rental_uris":{"android":"levelo://app?vid=d8ed3149-1b3d-468c-b65c-32b89925f608","ios":"levelo://app?vid=d8ed3149-1b3d-468c-b65c-32b89925f608"},"vehicle_type_id":"4","last_reported":1738415435,"current_range_meters":7200,"station_id":"","pricing_plan_id":"cebpf4jnsgd1na2vs0mg"},{"bike_id":"845b88ac-6a9d-4212-b870-9e6d8c49f79c","system_id":"levelo_inurba_marseille","lat":43.3061,"lon":5.37225,"is_reserved":false,"is_disabled":false,"rental_uris":{"android":"levelo://app?vid=845b88ac-6a9d-4212-b870-9e6d8c49f79c","ios":"levelo://app?vid=845b88ac-6a9d-4212-b870-9e6d8c49f79c"},"vehicle_type_id":"4","last_reported":1738415435,"current_range_meters":33600,"station_id":"ce4bgqh2rcd13ifvqc4g","pricing_plan_id":"cebpf4jnsgd1na2vs0mg"},{"bike_id":"7eef495c-9588-4be3-9f22-d95d0825c21e","system_id":"levelo_inurba_marseille","lat":43.298163,"lon":5.381274,"is_reserved":false,"is_disabled":false,"rental_uris":{"android":"levelo://app?vid=7eef495c-9588-4be3-9f22-d95d0825c21e","ios":"levelo://app?vid=7eef495c-9588-4be3-9f22-d95d0825c21e"},"vehicle_type_id":"4","last_reported":1738415435,"current_range_meters":38800,"station_id":"ce4bgip2rcd13ifvqbb0","pricing_plan_id":"cebpf4jnsgd1na2vs0mg"},{"bike_id":"7fb6ab77-a0da-4c31-a142-000053d2b004","system_id":"levelo_inurba_marseille","lat":43.28489,"lon":5.38423,"is_reserved":false,"is_disabled":false,"rental_uris":{"android":"levelo://app?vid=7fb6ab77-a0da-4c31-a142-000053d2b004","ios":"levelo://app?vid=7fb6ab77-a0da-4c31-a142-000053d2b004"},"vehicle_type_id":"4","last_reported":1738415435,"current_range_meters":35200,"station_id":"ce4bh512rcd13ifvqe3g","pricing_plan_id":"cebpf4jnsgd1na2vs0mg"},{"bike_id":"873ef300-c4e8-4b17-b11f-b52da8e4b259","system_id":"levelo_inurba_marseille","lat":43.29598,"lon":5.38094,"is_reserved":false,"is_disabled":false,"rental_uris":{"android":"levelo://app?vid=873ef300-c4e8-4b17-b11f-b52da8e4b259","ios":"levelo://app?vid=873ef300-c4e8-4b17-b11f-b52da8e4b259"},"vehicle_type_id":"4","last_reported":1738415435,"current_range_meters":33600,"station_id":"ce4bgl12rcd13ifvqbo0","pricing_plan_id":"cebpf4jnsgd1na2vs0mg"},{"bike_id":"1dea0d1d-b5f5-454c-bafa-5ed21154abef","system_id":"levelo_inurba_marseille","lat":43.29704,"lon":5.37703,"is_reserved":false,"is_disabled":false,"rental_uris":{"android":"levelo://app?vid=1dea0d1d-b5f5-454c-bafa-5ed21154abef","ios":"levelo://app?vid=1dea0d1d-b5f5-454c-bafa-5ed21154abef"},"vehicle_type_id":"4","last_reported":1738415435,"current_range_meters":38800,"station_id":"ce4bgkh2rcd13ifvqbl0","pricing_plan_id":"cebpf4jnsgd1na2vs0mg"},{"bike_id":"7dda9017-cfbc-485c-ad3b-2e9f7c6cce9c","system_id":"levelo_inurba_marseille","lat":43.32544,"lon":5.41421,"is_reserved":false,"is_disabled":false,"rental_uris":{"android":"levelo://app?vid=7dda9017-cfbc-485c-ad3b-2e9f7c6cce9c","ios":"levelo://app?vid=7dda9017-cfbc-485c-ad3b-2e9f7c6cce9c"},"vehicle_type_id":"4","last_reported":1738415435,"current_range_meters":36000,"station_id":"ce4bhq12rcd13ifvqhhg","pricing_plan_id":"cebpf4jnsgd1na2vs0mg"},{"bike_id":"28ce290d-8d04-4330-a7c1-f5bd8854fe7e","system_id":"levelo_inurba_marseille","lat":43.29844,"lon":5.36294,"is_reserved":false,"is_disabled":false,"rental_uris":{"android":"levelo://app?vid=28ce290d-8d04-4330-a7c1-f5bd8854fe7e","ios":"levelo://app?vid=28ce290d-8d04-4330-a7c1-f5bd8854fe7e"},"vehicle_type_id":"4","last_reported":1738415435,"current_range_meters":17600,"station_id":"ce4bgpp2rcd13ifvqc3g","pricing_plan_id":"cebpf4jnsgd1na2vs0mg"},{"bike_id":"2a5c4506-aaab-4494-9b8c-276f0d2946d9","system_id":"levelo_inurba_marseille","lat":43.30473,"lon":5.37895,"is_reserved":false,"is_disabled":false,"rental_uris":{"android":"levelo://app?vid=2a5c4506-aaab-4494-9b8c-276f0d2946d9","ios":"levelo://app?vid=2a5c4506-aaab-4494-9b8c-276f0d2946d9"},"vehicle_type_id":"4","last_reported":1738415435,"current_range_meters":29600,"station_id":"ce4bgup2rcd13ifvqcn0","pricing_plan_id":"cebpf4jnsgd1na2vs0mg"},{"bike_id":"32d9a329-7366-4eb8-8d55-73b5c99c70c3","system_id":"levelo_inurba_marseille","lat":43.23198,"lon":5.35549,"is_reserved":false,"is_disabled":false,"rental_uris":{"android":"levelo://app?vid=32d9a329-7366-4eb8-8d55-73b5c99c70c3","ios":"levelo://app?vid=32d9a329-7366-4eb8-8d55-73b5c99c70c3"},"vehicle_type_id":"4","last_reported":1738415435,"current_range_meters":38800,"station_id":"ce4bhu92rcd13ifvqi70","pricing_plan_id":"cebpf4jnsgd1na2vs0mg"},{"bike_id":"84e02a3d-3f7f-46b1-b7f1-97431a8c6cee","system_id":"levelo_inurba_marseille","lat":43.24818,"lon":5.37454,"is_reserved":false,"is_disabled":true,"rental_uris":{"android":"levelo://app?vid=84e02a3d-3f7f-46b1-b7f1-97431a8c6cee","ios":"levelo://app?vid=84e02a3d-3f7f-46b1-b7f1-97431a8c6cee"},"vehicle_type_id":"4","last_reported":1738415435,"current_range_meters":22800,"station_id":"ce4bhgh2rcd13ifvqfb0","pricing_plan_id":"cebpf4jnsgd1na2vs0mg"},{"bike_id":"b2ff94bd-c7b2-48a1-a4da-41c0f81ef36b","system_id":"levelo_inurba_marseille","lat":43.29271,"lon":5.37432,"is_reserved":false,"is_disabled":false,"rental_uris":{"android":"levelo://app?vid=b2ff94bd-c7b2-48a1-a4da-41c0f81ef36b","ios":"levelo://app?vid=b2ff94bd-c7b2-48a1-a4da-41c0f81ef36b"},"vehicle_type_id":"4","last_reported":1738415435,"current_range_meters":38800,"station_id":"ce4bgi12rcd13ifvqb70","pricing_plan_id":"cebpf4jnsgd1na2vs0mg"},{"bike_id":"0a2fd205-d616-4064-aa75-d4d529957d90","system_id":"levelo_inurba_marseille","lat":43.23059,"lon":5.35492,"is_reserved":false,"is_disabled":false,"rental_uris":{"android":"levelo://app?vid=0a2fd205-d616-4064-aa75-d4d529957d90","ios":"levelo://app?vid=0a2fd205-d616-4064-aa75-d4d529957d90"},"vehicle_type_id":"4","last_reported":1738415435,"current_range_meters":16400,"station_id":"cpo3342slgdg3j2ifvpg","pricing_plan_id":"cebpf4jnsgd1na2vs0mg"},{"bike_id":"0a6bdfce-8ece-4497-bb8b-e2a11ad19654","system_id":"levelo_inurba_marseille","lat":43.31235,"lon":5.36846,"is_reserved":false,"is_disabled":false,"rental_uris":{"android":"levelo://app?vid=0a6bdfce-8ece-4497-bb8b-e2a11ad19654","ios":"levelo://app?vid=0a6bdfce-8ece-4497-bb8b-e2a11ad19654"},"vehicle_type_id":"4","last_reported":1738415435,"current_range_meters":38800,"station_id":"ce4bgl92rcd13ifvqbq0","pricing_plan_id":"cebpf4jnsgd1na2vs0mg"},{"bike_id":"b98674e3-2e45-41a4-93b8-51d3bb7a2185","system_id":"levelo_inurba_marseille","lat":43.27918,"lon":5.39565,"is_reserved":false,"is_disabled":false,"rental_uris":{"android":"levelo://app?vid=b98674e3-2e45-41a4-93b8-51d3bb7a2185","ios":"levelo://app?vid=b98674e3-2e45-41a4-93b8-51d3bb7a2185"},"vehicle_type_id":"4","last_reported":1738415435,"current_range_meters":28400,"station_id":"ce4bhf92rcd13ifvqf40","pricing_plan_id":"cebpf4jnsgd1na2vs0mg"},{"bike_id":"659dfd1e-2059-4618-abb8-678bbdece2e8","system_id":"levelo_inurba_marseille","lat":43.28443,"lon":5.34999,"is_reserved":false,"is_disabled":false,"rental_uris":{"android":"levelo://app?vid=659dfd1e-2059-4618-abb8-678bbdece2e8","ios":"levelo://app?vid=659dfd1e-2059-4618-abb8-678bbdece2e8"},"vehicle_type_id":"4","last_reported":1738415435,"current_range_meters":9600,"station_id":"ce4bhbh2rcd13ifvqepg","pricing_plan_id":"cebpf4jnsgd1na2vs0mg"},{"bike_id":"09f1127d-0767-4cdd-854a-7858cb70586b","system_id":"levelo_inurba_marseille","lat":43.30155,"lon":5.38075,"is_reserved":false,"is_disabled":false,"rental_uris":{"android":"levelo://app?vid=09f1127d-0767-4cdd-854a-7858cb70586b","ios":"levelo://app?vid=09f1127d-0767-4cdd-854a-7858cb70586b"},"vehicle_type_id":"4","last_reported":1738415435,"current_range_meters":38800,"station_id":"ce4bgjp2rcd13ifvqbh0","pricing_plan_id":"cebpf4jnsgd1na2vs0mg"},{"bike_id":"2f63d585-76e0-47ba-b6c3-d9d3c357101d","system_id":"levelo_inurba_marseille","lat":43.27984,"lon":5.38743,"is_reserved":false,"is_disabled":false,"rental_uris":{"android":"levelo://app?vid=2f63d585-76e0-47ba-b6c3-d9d3c357101d","ios":"levelo://app?vid=2f63d585-76e0-47ba-b6c3-d9d3c357101d"},"vehicle_type_id":"4","last_reported":1738415435,"current_range_meters":38800,"station_id":"ce4bhg12rcd13ifvqf80","pricing_plan_id":"cebpf4jnsgd1na2vs0mg"},{"bike_id":"2da415bf-c525-44f0-9bf3-9011a3fe0150","system_id":"levelo_inurba_marseille","lat":43.30551,"lon":5.36544,"is_reserved":false,"is_disabled":false,"rental_uris":{"android":"levelo://app?vid=2da415bf-c525-44f0-9bf3-9011a3fe0150","ios":"levelo://app?vid=2da415bf-c525-44f0-9bf3-9011a3fe0150"},"vehicle_type_id":"4","last_reported":1738415435,"current_range_meters":23200,"station_id":"ce4bgs12rcd13ifvqcag","pricing_plan_id":"cebpf4jnsgd1na2vs0mg"},{"bike_id":"751a6904-a495-407a-96bd-84f6d6232ca6","system_id":"levelo_inurba_marseille","lat":43.23951,"lon":5.43831,"is_reserved":false,"is_disabled":true,"rental_uris":{"android":"levelo://app?vid=751a6904-a495-407a-96bd-84f6d6232ca6","ios":"levelo://app?vid=751a6904-a495-407a-96bd-84f6d6232ca6"},"vehicle_type_id":"4","last_reported":1738415435,"current_range_meters":0,"station_id":"","pricing_plan_id":"cebpf4jnsgd1na2vs0mg"},{"bike_id":"787cc70c-db25-42d8-bba7-585654938087","system_id":"levelo_inurba_marseille","lat":43.24391,"lon":5.37063,"is_reserved":false,"is_disabled":false,"rental_uris":{"android":"levelo://app?vid=787cc70c-db25-42d8-bba7-585654938087","ios":"levelo://app?vid=787cc70c-db25-42d8-bba7-585654938087"},"vehicle_type_id":"4","last_reported":1738415435,"current_range_meters":24400,"station_id":"ce4bhhh2rcd13ifvqfk0","pricing_plan_id":"cebpf4jnsgd1na2vs0mg"},{"bike_id":"eda21f84-4b19-4610-a62b-590cdda194b5","system_id":"levelo_inurba_marseille","lat":43.3122,"lon":5.36874,"is_reserved":false,"is_disabled":false,"rental_uris":{"android":"levelo://app?vid=eda21f84-4b19-4610-a62b-590cdda194b5","ios":"levelo://app?vid=eda21f84-4b19-4610-a62b-590cdda194b5"},"vehicle_type_id":"4","last_reported":1738415435,"current_range_meters":38800,"station_id":"ce4bgl92rcd13ifvqbq0","pricing_plan_id":"cebpf4jnsgd1na2vs0mg"},{"bike_id":"0bf7fee1-61db-4529-9f67-f9b455b0133b","system_id":"levelo_inurba_marseille","lat":43.31128,"lon":5.37753,"is_reserved":false,"is_disabled":false,"rental_uris":{"android":"levelo://app?vid=0bf7fee1-61db-4529-9f67-f9b455b0133b","ios":"levelo://app?vid=0bf7fee1-61db-4529-9f67-f9b455b0133b"},"vehicle_type_id":"4","last_reported":1738415435,"current_range_meters":36400,"station_id":"ce4bgt92rcd13ifvqcg0","pricing_plan_id":"cebpf4jnsgd1na2vs0mg"},{"bike_id":"dc9b7ab9-797c-4ba1-92c5-a449bf17f1f2","system_id":"levelo_inurba_marseille","lat":43.28487,"lon":5.38425,"is_reserved":false,"is_disabled":false,"rental_uris":{"android":"levelo://app?vid=dc9b7ab9-797c-4ba1-92c5-a449bf17f1f2","ios":"levelo://app?vid=dc9b7ab9-797c-4ba1-92c5-a449bf17f1f2"},"vehicle_type_id":"4","last_reported":1738415435,"current_range_meters":12400,"station_id":"ce4bh512rcd13ifvqe3g","pricing_plan_id":"cebpf4jnsgd1na2vs0mg"},