{"last_updated":1736374107,"ttl":60,"version":"2.2","data":{"bikes":[{"bike_id":"2a23b6bc-659d-47e7-bdd2-c47241a722d0","system_id":"levelo_inurba_marseille","lat":43.314978,"lon":5.37302,"is_reserved":false,"is_disabled":false,"rental_uris":{"android":"levelo://app?vid=2a23b6bc-659d-47e7-bdd2-c47241a722d0","ios":"levelo://app?vid=2a23b6bc-659d-47e7-bdd2-c47241a722d0"},"vehicle_type_id":"4","last_reported":1736374107,"current_range_meters":35600,"station_id":"ce4bgt12rcd13ifvqcd0","pricing_plan_id":"cebpf4jnsgd1na2vs0mg"},{"bike_id":"1db5158e-767d-4ae3-99cf-55245b9ab73b","system_id":"levelo_inurba_marseille","lat":43.23963,"lon":5.3663,"is_reserved":false,"is_disabled":false,"rental_uris":{"android":"levelo://app?vid=1db5158e-767d-4ae3-99cf-55245b9ab73b","ios":"levelo://app?vid=1db5158e-767d-4ae3-99cf-55245b9ab73b"},"vehicle_type_id":"4","last_reported":1736374107,"current_range_meters":25200,"station_id":"ce4bhi12rcd13ifvqfp0","pricing_plan_id":"cebpf4jnsgd1na2vs0mg"},{"bike_id":"424b02a3-71fc-4629-934b-0ffcd9c06e9e","system_id":"levelo_inurba_marseille","lat":43.308889,"lon":5.39655,"is_reserved":false,"is_disabled":false,"rental_uris":{"android":"levelo://app?vid=424b02a3-71fc-4629-934b-0ffcd9c06e9e","ios":"levelo://app?vid=424b02a3-71fc-4629-934b-0ffcd9c06e9e"},"vehicle_type_id":"4","last_reported":1736374107,"current_range_meters":38000,"station_id":"ce4bh012rcd13ifvqcv0","pricing_plan_id":"cebpf4jnsgd1na2vs0mg"},{"bike_id":"5b5cf344-c2cf-49f3-9358-c0c838084ffe","system_id":"levelo_inurba_marseille","lat":43.30588,"lon":5.3936,"is_reserved":false,"is_disabled":false,"rental_uris":{"android":"levelo://app?vid=5b5cf344-c2cf-49f3-9358-c0c838084ffe","ios":"levelo://app?vid=5b5cf344-c2cf-49f3-9358-c0c838084ffe"},"vehicle_type_id":"4","last_reported":1736374107,"current_range_meters":24400,"station_id":"ce4bh0p2rcd13ifvqd80","pricing_plan_id":"cebpf4jnsgd1na2vs0mg"},{"bike_id":"079a2489-d193-414b-8b47-82e93bfb4b65","system_id":"levelo_inurba_marseille","lat":43.28891,"lon":5.37986,"is_reserved":false,"is_disabled":false,"rental_uris":{"android":"levelo://app?vid=079a2489-d193-414b-8b47-82e93bfb4b65","ios":"levelo://app?vid=079a2489-d193-414b-8b47-82e93bfb4b65"},"vehicle_type_id":"4","last_reported":1736374107,"current_range_meters":36400,"station_id":"","pricing_plan_id":"cebpf4jnsgd1na2vs0mg"},{"bike_id":"38b313e7-9a2f-452f-bdb8-d453ae7237a3","system_id":"levelo_inurba_marseille","lat":43.27501,"lon":5.42458,"is_reserved":false,"is_disabled":false,"rental_uris":{"android":"levelo://app?vid=38b313e7-9a2f-452f-bdb8-d453ae7237a3","ios":"levelo://app?vid=38b313e7-9a2f-452f-bdb8-d453ae7237a3"},"vehicle_type_id":"4","last_reported":1736374107,"current_range_meters":38800,"station_id":"ce4bhn92rcd13ifvqgrg","pricing_plan_id":"cebpf4jnsgd1na2vs0mg"},{"bike_id":"41d6970c-e10d-400f-848a-5bd88654fc55","system_id":"levelo_inurba_marseille","lat":43.28233,"lon":5.40288,"is_reserved":false,"is_disabled":false,"rental_uris":{"android":"levelo://app?vid=41d6970c-e10d-400f-848a-5bd88654fc55","ios":"levelo://app?vid=41d6970c-e10d-400f-848a-5bd88654fc55"},"vehicle_type_id":"4","last_reported":1736374107,"current_range_meters":16800,"station_id":"","pricing_plan_id":"cebpf4jnsgd1na2vs0mg"},{"bike_id":"499f9695-a8d6-4ede-a6dc-9e2a3933daae","system_id":"levelo_inurba_marseille","lat":43.3065,"lon":5.40074,"is_reserved":false,"is_disabled":false,"rental_uris":{"android":"levelo://app?vid=499f9695-a8d6-4ede-a6dc-9e2a3933daae","ios":"levelo://app?vid=499f9695-a8d6-4ede-a6dc-9e2a3933daae"},"vehicle_type_id":"4","last_reported":1736374107,"current_range_meters":38800,"station_id":"ce4bh112rcd13ifvqda0","pricing_plan_id":"cebpf4jnsgd1na2vs0mg"},{"bike_id":"2610dc56-5e17-459a-8cdb-789c1021167b","system_id":"levelo_inurba_marseille","lat":43.2407,"lon":5.37765,"is_reserved":false,"is_disabled":false,"rental_uris":{"android":"levelo://app?vid=2610dc56-5e17-459a-8cdb-789c1021167b","ios":"levelo://app?vid=2610dc56-5e17-459a-8cdb-789c1021167b"},"vehicle_type_id":"4","last_reported":1736374107,"current_range_meters":27600,"station_id":"ce4bhnp2rcd13ifvqgvg","pricing_plan_id":"cebpf4jnsgd1na2vs0mg"},{"bike_id":"3e3386bf-a129-4bdb-9d7c-9f4e5ff9cf3c","system_id":"levelo_inurba_marseille","lat":43.29559,"lon":5.42277,"is_reserved":false,"is_disabled":false,"rental_uris":{"android":"levelo://app?vid=3e3386bf-a129-4bdb-9d7c-9f4e5ff9cf3c","ios":"levelo://app?vid=3e3386bf-a129-4bdb-9d7c-9f4e5ff9cf3c"},"vehicle_type_id":"4","last_reported":1736374107,"current_range_meters":7200,"station_id":"ce4bhph2rcd13ifvqhdg","pricing_plan_id":"cebpf4jnsgd1na2vs0mg"},{"bike_id":"3942a5ec-c6a8-4239-932c-68f6ac7e79cd","system_id":"levelo_inurba_marseille","lat":43.31358,"lon":5.38497,"is_reserved":false,"is_disabled":false,"rental_uris":{"android":"levelo://app?vid=3942a5ec-c6a8-4239-932c-68f6ac7e79cd","ios":"levelo://app?vid=3942a5ec-c6a8-4239-932c-68f6ac7e79cd"},"vehicle_type_id":"4","last_reported":1736374107,"current_range_meters":32400,"station_id":"ce4bgt92rcd13ifvqcf0","pricing_plan_id":"cebpf4jnsgd1na2vs0mg"},{"bike_id":"b9132468-1d90-4cfc-a8e5-4d2d1700188a","system_id":"levelo_inurba_marseille","lat":43.24085,"lon":5.37749,"is_reserved":false,"is_disabled":false,"rental_uris":{"android":"levelo://app?vid=b9132468-1d90-4cfc-a8e5-4d2d1700188a","ios":"levelo://app?vid=b9132468-1d90-4cfc-a8e5-4d2d1700188a"},"vehicle_type_id":"4","last_reported":1736374107,"current_range_meters":38800,"station_id":"ce4bhnp2rcd13ifvqgvg","pricing_plan_id":"cebpf4jnsgd1na2vs0mg"},{"bike_id":"784c114c-6b4b-4d66-8437-8a364b7d7999","system_id":"levelo_inurba_marseille","lat":43.33757,"lon":5.39149,"is_reserved":false,"is_disabled":false,"rental_uris":{"android":"levelo://app?vid=784c114c-6b4b-4d66-8437-8a364b7d7999","ios":"levelo://app?vid=784c114c-6b4b-4d66-8437-8a364b7d7999"},"vehicle_type_id":"4","last_reported":1736374107,"current_range_meters":33200,"station_id":"","pricing_plan_id":"cebpf4jnsgd1na2vs0mg"},{"bike_id":"c0355827-dcdf-45f7-a43f-efd0dd7b0659","system_id":"levelo_inurba_marseille","lat":43.29869,"lon":5.38899,"is_reserved":false,"is_disabled":false,"rental_uris":{"android":"levelo://app?vid=c0355827-dcdf-45f7-a43f-efd0dd7b0659","ios":"levelo://app?vid=c0355827-dcdf-45f7-a43f-efd0dd7b0659"},"vehicle_type_id":"4","last_reported":1736374107,"current_range_meters":36400,"station_id":"ce4bh392rcd13ifvqdl0","pricing_plan_id":"cebpf4jnsgd1na2vs0mg"},{"bike_id":"bdace8c8-8a34-4392-97b5-34f84e2b406a","system_id":"levelo_inurba_marseille","lat":43.30689,"lon":5.40091,"is_reserved":false,"is_disabled":false,"rental_uris":{"android":"levelo://app?vid=bdace8c8-8a34-4392-97b5-34f84e2b406a","ios":"levelo://app?vid=bdace8c8-8a34-4392-97b5-34f84e2b406a"},"vehicle_type_id":"4","last_reported":1736374107,"current_range_meters":32400,"station_id":"","pricing_plan_id":"cebpf4jnsgd1na2vs0mg"},{"bike_id":"b757b6ac-22c3-4b05-bd64-8c3ede23276e","system_id":"levelo_inurba_marseille","lat":43.27956,"lon":5.38725,"is_reserved":false,"is_disabled":false,"rental_uris":{"android":"levelo://app?vid=b757b6ac-22c3-4b05-bd64-8c3ede23276e","ios":"levelo://app?vid=b757b6ac-22c3-4b05-bd64-8c3ede23276e"},"vehicle_type_id":"4","last_reported":1736374107,"current_range_meters":36800,"station_id":"ce4bhg12rcd13ifvqf80","pricing_plan_id":"cebpf4jnsgd1na2vs0mg"},{"bike_id":"ece82557-6569-4215-9027-5b44a37fe52e","system_id":"levelo_inurba_marseille","lat":43.29057,"lon":5.38005,"is_reserved":false,"is_disabled":true,"rental_uris":{"android":"levelo://app?vid=ece82557-6569-4215-9027-5b44a37fe52e","ios":"levelo://app?vid=ece82557-6569-4215-9027-5b44a37fe52e"},"vehicle_type_id":"4","last_reported":1736374107,"current_range_meters":1600,"station_id":"","pricing_plan_id":"cebpf4jnsgd1na2vs0mg"},{"bike_id":"6afb34d0-7b4c-4f2a-b7fa-cd31ac416a2f","system_id":"levelo_inurba_marseille","lat":43.28674,"lon":5.36344,"is_reserved":false,"is_disabled":false,"rental_uris":{"android":"levelo://app?vid=6afb34d0-7b4c-4f2a-b7fa-cd31ac416a2f","ios":"levelo://app?vid=6afb34d0-7b4c-4f2a-b7fa-cd31ac416a2f"},"vehicle_type_id":"4","last_reported":1736374107,"current_range_meters":38400,"station_id":"ce4bhah2rcd13ifvqej0","pricing_plan_id":"cebpf4jnsgd1na2vs0mg"},{"bike_id":"90db9e76-d1a5-4bf5-bd29-89cca1aa37d9","system_id":"levelo_inurba_marseille","lat":43.29574,"lon":5.37522,"is_reserved":false,"is_disabled":false,"rental_uris":{"android":"levelo://app?vid=90db9e76-d1a5-4bf5-bd29-89cca1aa37d9","ios":"levelo://app?vid=90db9e76-d1a5-4bf5-bd29-89cca1aa37d9"},"vehicle_type_id":"4","last_reported":1736374107,"current_range_meters":4000,"station_id":"ce4bgh92rcd13ifvqb50","pricing_plan_id":"cebpf4jnsgd1na2vs0mg"},{"bike_id":"06614d3c-cc90-4bac-b3be-d11a09097945","system_id":"levelo_inurba_marseille","lat":43.29878,"lon":5.38917,"is_reserved":false,"is_disabled":false,"rental_uris":{"android":"levelo://app?vid=06614d3c-cc90-4bac-b3be-d11a09097945","ios":"levelo://app?vid=06614d3c-cc90-4bac-b3be-d11a09097945"},"vehicle_type_id":"4","last_reported":1736374107,"current_range_meters":27600,"station_id":"ce4bh392rcd13ifvqdl0","pricing_plan_id":"cebpf4jnsgd1na2vs0mg"},{"bike_id":"f40a23e1-4db4-43c9-bf26-5d3436aadc87","system_id":"levelo_inurba_marseille","lat":43.283651,"lon":5.386104,"is_reserved":false,"is_disabled":true,"rental_uris":{"android":"levelo://app?vid=f40a23e1-4db4-43c9-bf26-5d3436aadc87","ios":"levelo://app?vid=f40a23e1-4db4-43c9-bf26-5d3436aadc87"},"vehicle_type_id":"4","last_reported":1736374107,"current_range_meters":36400,"station_id":"ce4bh492rcd13ifvqdvg","pricing_plan_id":"cebpf4jnsgd1na2vs0mg"},{"bike_id":"4a20ca9b-7c1f-4104-8acc-2c162a7c3b99","system_id":"levelo_inurba_marseille","lat":43.30286,"lon":5.392,"is_reserved":false,"is_disabled":false,"rental_uris":{"android":"levelo://app?vid=4a20ca9b-7c1f-4104-8acc-2c162a7c3b99","ios":"levelo://app?vid=4a20ca9b-7c1f-4104-8acc-2c162a7c3b99"},"vehicle_type_id":"4","last_reported":1736374107,"current_range_meters":38800,"station_id":"ce4bgkh2rcd13ifvqbk0","pricing_plan_id":"cebpf4jnsgd1na2vs0mg"},{"bike_id":"73eb524f-2d58-4a00-9fa5-76f6077910dd","system_id":"levelo_inurba_marseille","lat":43.23186,"lon":5.40001,"is_reserved":false,"is_disabled":true,"rental_uris":{"android":"levelo://app?vid=73eb524f-2d58-4a00-9fa5-76f6077910dd","ios":"levelo://app?vid=73eb524f-2d58-4a00-9fa5-76f6077910dd"},"vehicle_type_id":"4","last_reported":1736374107,"current_range_meters":10800,"station_id":"ce4bhn12rcd13ifvqgqg","pricing_plan_id":"cebpf4jnsgd1na2vs0mg"},{"bike_id":"56927883-162a-4449-b147-a1ca9b8005ba","system_id":"levelo_inurba_marseille","lat":43.28621,"lon":5.35097,"is_reserved":false,"is_disabled":false,"rental_uris":{"android":"levelo://app?vid=56927883-162a-4449-b147-a1ca9b8005ba","ios":"levelo://app?vid=56927883-162a-4449-b147-a1ca9b8005ba"},"vehicle_type_id":"4","last_reported":1736374107,"current_range_meters":17200,"station_id":"ce4bhch2rcd13ifvqeug","pricing_plan_id":"cebpf4jnsgd1na2vs0mg"},{"bike_id":"2199d219-e0ca-4b28-a772-ba63161f237a","system_id":"levelo_inurba_marseille","lat":43.32105,"lon":5.36809,"is_reserved":false,"is_disabled":false,"rental_uris":{"android":"levelo://app?vid=2199d219-e0ca-4b28-a772-ba63161f237a","ios":"levelo://app?vid=2199d219-e0ca-4b28-a772-ba63161f237a"},"vehicle_type_id":"4","last_reported":1736374107,"current_range_meters":16800,"station_id":"ce4bhrh2rcd13ifvqhug","pricing_plan_id":"cebpf4jnsgd1na2vs0mg"},{"bike_id":"dd93dd09-b45c-4902-b989-ec9b3a3db419","system_id":"levelo_inurba_marseille","lat":43.28617,"lon":5.35135,"is_reserved":false,"is_disabled":false,"rental_uris":{"android":"levelo://app?vid=dd93dd09-b45c-4902-b989-ec9b3a3db419","ios":"levelo://app?vid=dd93dd09-b45c-4902-b989-ec9b3a3db419"},"vehicle_type_id":"4","last_reported":1736374107,"current_range_meters":30000,"station_id":"ce4bhch2rcd13ifvqeug","pricing_plan_id":"cebpf4jnsgd1na2vs0mg"},{"bike_id":"4635a6dc-be57-476b-b966-992e4a429b0e","system_id":"levelo_inurba_marseille","lat":43.25102,"lon":5.40338,"is_reserved":false,"is_disabled":false,"rental_uris":{"android":"levelo://app?vid=4635a6dc-be57-476b-b966-992e4a429b0e","ios":"levelo://app?vid=4635a6dc-be57-476b-b966-992e4a429b0e"},"vehicle_type_id":"4","last_reported":1736374107,"current_range_meters":38800,"station_id":"ce4bhlh2rcd13ifvqgig","pricing_plan_id":"cebpf4jnsgd1na2vs0mg"},{"bike_id":"2d648351-f34f-49f7-a31d-1dbaa2fc1ef9","system_id":"levelo_inurba_marseille","lat":43.30794,"lon":5.37668,"is_reserved":false,"is_disabled":false,"rental_uris":{"android":"levelo://app?vid=2d648351-f34f-49f7-a31d-1dbaa2fc1ef9","ios":"levelo://app?vid=2d648351-f34f-49f7-a31d-1dbaa2fc1ef9"},"vehicle_type_id":"4","last_reported":1736374107,"current_range_meters":39200,"station_id":"ce4bgv92rcd13ifvqcq0","pricing_plan_id":"cebpf4jnsgd1na2vs0mg"},{"bike_id":"8f3222f5-c1e8-4651-b24f-48760890fd0c","system_id":"levelo_inurba_marseille","lat":43.2868,"lon":5.36322,"is_reserved":false,"is_disabled":false,"rental_uris":{"android":"levelo://app?vid=8f3222f5-c1e8-4651-b24f-48760890fd0c","ios":"levelo://app?vid=8f3222f5-c1e8-4651-b24f-48760890fd0c"},"vehicle_type_id":"4","last_reported":1736374107,"current_range_meters":38800,"station_id":"ce4bhah2rcd13ifvqej0","pricing_plan_id":"cebpf4jnsgd1na2vs0mg"},{"bike_id":"e9811af6-2b58-44bf-8a8f-1cf010738c20","system_id":"levelo_inurba_marseille","lat":43.23185,"lon":5.39981,"is_reserved":false,"is_disabled":false,"rental_uris":{"android":"levelo://app?vid=e9811af6-2b58-44bf-8a8f-1cf010738c20","ios":"levelo://app?vid=e9811af6-2b58-44bf-8a8f-1cf010738c20"},"vehicle_type_id":"4","last_reported":1736374107,"current_range_meters":39200,"station_id":"ce4bhn12rcd13ifvqgqg","pricing_plan_id":"cebpf4jnsgd1na2vs0mg"},{"bike_id":"5ebc11ec-bbdc-4f46-afff-cbd5432dc90d","system_id":"levelo_inurba_marseille","lat":43.29524,"lon":5.39038,"is_reserved":false,"is_disabled":false,"rental_uris":{"android":"levelo://app?vid=5ebc11ec-bbdc-4f46-afff-cbd5432dc90d","ios":"levelo://app?vid=5ebc11ec-bbdc-4f46-afff-cbd5432dc90d"},"vehicle_type_id":"4","last_reported":1736374107,"current_range_meters":27200,"station_id":"ce4bh3p2rcd13ifvqdp0","pricing_plan_id":"cebpf4jnsgd1na2vs0mg"},{"bike_id":"92b15878-90b2-470d-b1f5-05b4f85f4c59","system_id":"levelo_inurba_marseille","lat":43.30947,"lon":5.40113,"is_reserved":false,"is_disabled":false,"rental_uris":{"android":"levelo://app?vid=92b15878-90b2-470d-b1f5-05b4f85f4c59","ios":"levelo://app?vid=92b15878-90b2-470d-b1f5-05b4f85f4c59"},"vehicle_type_id":"4","last_reported":1736374107,"current_range_meters":38800,"station_id":"ce4bgvp2rcd13ifvqct0","pricing_plan_id":"cebpf4jnsgd1na2vs0mg"},{"bike_id":"e9873f2b-a887-415c-a996-5b4a99f7bf5a","system_id":"levelo_inurba_marseille","lat":43.29511,"lon":5.39401,"is_reserved":false,"is_disabled":false,"rental_uris":{"android":"levelo://app?vid=e9873f2b-a887-415c-a996-5b4a99f7bf5a","ios":"levelo://app?vid=e9873f2b-a887-415c-a996-5b4a99f7bf5a"},"vehicle_type_id":"4","last_reported":1736374107,"current_range_meters":36800,"station_id":"ce4bh292rcd13ifvqdf0","pricing_plan_id":"cebpf4jnsgd1na2vs0mg"},{"bike_id":"5f01e351-0beb-4bec-99a6-8ccfaafab549","system_id":"levelo_inurba_marseille","lat":43.2901,"lon":5.38122,"is_reserved":false,"is_disabled":true,"rental_uris":{"android":"levelo://app?vid=5f01e351-0beb-4bec-99a6-8ccfaafab549","ios":"levelo://app?vid=5f01e351-0beb-4bec-99a6-8ccfaafab549"},"vehicle_type_id":"4","last_reported":1736374107,"current_range_meters":38800,"station_id":"ce4bh4p2rcd13ifvqe1g","pricing_plan_id":"cebpf4jnsgd1na2vs0mg"},{"bike_id":"b9f177c3-a19f-44db-865d-0e637f7b5865","system_id":"levelo_inurba_marseille","lat":43.28701,"lon":5.37948,"is_reserved":false,"is_disabled":false,"rental_uris":{"android":"levelo://app?vid=b9f177c3-a19f-44db-865d-0e637f7b5865","ios":"levelo://app?vid=b9f177c3-a19f-44db-865d-0e637f7b5865"},"vehicle_type_id":"4","last_reported":1736374107,"current_range_meters":38800,"station_id":"ce4bh9p2rcd13ifvqec0","pricing_plan_id":"cebpf4jnsgd1na2vs0mg"},{"bike_id":"e9345e81-7c41-4877-a960-17dc2ec67e8c","system_id":"levelo_inurba_marseille","lat":43.25941,"lon":5.40898,"is_reserved":false,"is_disabled":false,"rental_uris":{"android":"levelo://app?vid=e9345e81-7c41-4877-a960-17dc2ec67e8c","ios":"levelo://app?vid=e9345e81-7c41-4877-a960-17dc2ec67e8c"},"vehicle_type_id":"4","last_reported":1736374107,"current_range_meters":34800,"station_id":"ce4bhm92rcd13ifvqglg","pricing_plan_id":"cebpf4jnsgd1na2vs0mg"},{"bike_id":"7dec6aae-3a5e-48d2-8ad8-6396fd199003","system_id":"levelo_inurba_marseille","lat":43.33725,"lon":5.39181,"is_reserved":false,"is_disabled":false,"rental_uris":{"android":"levelo://app?vid=7dec6aae-3a5e-48d2-8ad8-6396fd199003","ios":"levelo://app?vid=7dec6aae-3a5e-48d2-8ad8-6396fd199003"},"vehicle_type_id":"4","last_reported":1736374107,"current_range_meters":38000,"station_id":"ce4bhr92rcd13ifvqhsg","pricing_plan_id":"cebpf4jnsgd1na2vs0mg"},{"bike_id":"6cef133b-2783-4159-bcaf-db8e9f6852c9","system_id":"levelo_inurba_marseille","lat":43.26934,"lon":5.40258,"is_reserved":false,"is_disabled":false,"rental_uris":{"android":"levelo://app?vid=6cef133b-2783-4159-bcaf-db8e9f6852c9","ios":"levelo://app?vid=6cef133b-2783-4159-bcaf-db8e9f6852c9"},"vehicle_type_id":"4","last_reported":1736374107,"current_range_meters":35200,"station_id":"cjm6bp8fraef2m0cb0m0","pricing_plan_id":"cebpf4jnsgd1na2vs0mg"},{"bike_id":"9f6d41fa-a10d-4c81-b1f1-62f8445d7170","system_id":"levelo_inurba_marseille","lat":43.328921,"lon":5.387638,"is_reserved":false,"is_disabled":false,"rental_uris":{"android":"levelo://app?vid=9f6d41fa-a10d-4c81-b1f1-62f8445d7170","ios":"levelo://app?vid=9f6d41fa-a10d-4c81-b1f1-62f8445d7170"},"vehicle_type_id":"4","last_reported":1736374107,"current_range_meters":28800,"station_id":"ce4bhq92rcd13ifvqhkg","pricing_plan_id":"cebpf4jnsgd1na2vs0mg"},{"bike_id":"0a6a52d1-5461-4b92-981a-54573f2f2ef3","system_id":"levelo_inurba_marseille","lat":43.27495,"lon":5.42447,"is_reserved":false,"is_disabled":false,"rental_uris":{"android":"levelo://app?vid=0a6a52d1-5461-4b92-981a-54573f2f2ef3","ios":"levelo://app?vid=0a6a52d1-5461-4b92-981a-54573f2f2ef3"},"vehicle_type_id":"4","last_reported":1736374107,"current_range_meters":28800,"station_id":"ce4bhn92rcd13ifvqgrg","pricing_plan_id":"cebpf4jnsgd1na2vs0mg"},{"bike_id":"027fb515-cf5e-4431-9b8b-d23328baea59","system_id":"levelo_inurba_marseille","lat":43.23453,"lon":5.41134,"is_reserved":false,"is_disabled":false,"rental_uris":{"android":"levelo://app?vid=027fb515-cf5e-4431-9b8b-d23328baea59","ios":"levelo://app?vid=027fb515-cf5e-4431-9b8b-d23328baea59"},"vehicle_type_id":"4","last_reported":1736374107,"current_range_meters":17200,"station_id":"","pricing_plan_id":"cebpf4jnsgd1na2vs0mg"},{"bike_id":"df02e1b6-3a50-4ccf-933f-7b5e41abfc53","system_id":"levelo_inurba_marseille","lat":43.31328,"lon":5.39701,"is_reserved":false,"is_disabled":false,"rental_uris":{"android":"levelo://app?vid=df02e1b6-3a50-4ccf-933f-7b5e41abfc53","ios":"levelo://app?vid=df02e1b6-3a50-4ccf-933f-7b5e41abfc53"},"vehicle_type_id":"4","last_reported":1736374107,"current_range_meters":38800,"station_id":"ce4bgvp2rcd13ifvqcu0","pricing_plan_id":"cebpf4jnsgd1na2vs0mg"},{"bike_id":"e601d8b6-f206-400a-be15-a8cb866ef7c3","system_id":"levelo_inurba_marseille","lat":43.29382,"lon":5.37833,"is_reserved":false,"is_disabled":true,"rental_uris":{"android":"levelo://app?vid=e601d8b6-f206-400a-be15-a8cb866ef7c3","ios":"levelo://app?vid=e601d8b6-f206-400a-be15-a8cb866ef7c3"},"vehicle_type_id":"4","last_reported":1736374107,"current_range_meters":38400,"station_id":"ce4bgjh2rcd13ifvqbf0","pricing_plan_id":"cebpf4jnsgd1na2vs0mg"},{"bike_id":"be4c59f4-a498-44be-a430-245c96b05e75","system_id":"levelo_inurba_marseille","lat":43.32849,"lon":5.39181,"is_reserved":false,"is_disabled":false,"rental_uris":{"android":"levelo://app?vid=be4c59f4-a498-44be-a430-245c96b05e75","ios":"levelo://app?vid=be4c59f4-a498-44be-a430-245c96b05e75"},"vehicle_type_id":"4","last_reported":1736374107,"current_range_meters":14400,"station_id":"","pricing_plan_id":"cebpf4jnsgd1na2vs0mg"},{"bike_id":"feeeae9a-4bcc-477a-bc8c-e9391fa8aedd","system_id":"levelo_inurba_marseille","lat":43.29186,"lon":5.39304,"is_reserved":false,"is_disabled":true,"rental_uris":{"android":"levelo://app?vid=feeeae9a-4bcc-477a-bc8c-e9391fa8aedd","ios":"levelo://app?vid=feeeae9a-4bcc-477a-bc8c-e9391fa8aedd"},"vehicle_type_id":"4","last_reported":1736374107,"current_range_meters":1200,"station_id":"ce4bh192rcd13ifvqdd0","pricing_plan_id":"cebpf4jnsgd1na2vs0mg"},{"bike_id":"834d266b-5410-4e39-8e47-d1108b4333dd","system_id":"levelo_inurba_marseille","lat":43.31325,"lon":5.39693,"is_reserved":false,"is_disabled":false,"rental_uris":{"android":"levelo://app?vid=834d266b-5410-4e39-8e47-d1108b4333dd","ios":"levelo://app?vid=834d266b-5410-4e39-8e47-d1108b4333dd"},"vehicle_type_id":"4","last_reported":1736374107,"current_range_meters":10800,"station_id":"ce4bgvp2rcd13ifvqcu0","pricing_plan_id":"cebpf4jnsgd1na2vs0mg"},{"bike_id":"dbe4d7d2-95f9-4a28-b000-f9ac7c3f52eb","system_id":"levelo_inurba_marseille","lat":43.29194,"lon":5.39317,"is_reserved":false,"is_disabled":true,"rental_uris":{"android":"levelo://app?vid=dbe4d7d2-95f9-4a28-b000-f9ac7c3f52eb","ios":"levelo://app?vid=dbe4d7d2-95f9-4a28-b000-f9ac7c3f52eb"},"vehicle_type_id":"4","last_reported":1736374107,"current_range_meters":1600,"station_id":"ce4bh192rcd13ifvqdd0","pricing_plan_id":"cebpf4jnsgd1na2vs0mg"},{"bike_id":"8dbe984d-a495-4550-9f90-89df3bd24be5","system_id":"levelo_inurba_marseille","lat":43.322937,"lon":5.38276,"is_reserved":false,"is_disabled":false,"rental_uris":{"android":"levelo://app?vid=8dbe984d-a495-4550-9f90-89df3bd24be5","ios":"levelo://app?vid=8dbe984d-a495-4550-9f90-89df3bd24be5"},"vehicle_type_id":"4","last_reported":1736374107,"current_range_meters":36800,"station_id":"ce4bhr12rcd13ifvqhqg","pricing_plan_id":"cebpf4jnsgd1na2vs0mg"},{"bike_id":"b02ae6ee-06d8-4b9f-9872-c8fcf9b7576a","system_id":"levelo_inurba_marseille","lat":43.30542,"lon":5.36528,"is_reserved":false,"is_disabled":true,"rental_uris":{"android":"levelo://app?vid=b02ae6ee-06d8-4b9f-9872-c8fcf9b7576a","ios":"levelo://app?vid=b02ae6ee-06d8-4b9f-9872-c8fcf9b7576a"},"vehicle_type_id":"4","last_reported":1736374107,"current_range_meters":23200,"station_id":"ce4bgs12rcd13ifvqcag","pricing_plan_id":"cebpf4jnsgd1na2vs0mg"},{"bike_id":"812c63ca-4ac5-4dcb-b455-48f84fc39ed7","system_id":"levelo_inurba_marseille","lat":43.28409,"lon":5.37506,"is_reserved":false,"is_disabled":false,"rental_uris":{"android":"levelo://app?vid=812c63ca-4ac5-4dcb-b455-48f84fc39ed7","ios":"levelo://app?vid=812c63ca-4ac5-4dcb-b455-48f84fc39ed7"},"vehicle_type_id":"4","last_reported":1736374107,"current_range_meters":37600,"station_id":"ce4bh412rcd13ifvqds0","pricing_plan_id":"cebpf4jnsgd1na2vs0mg"},{"bike_id":"fef458c6-230f-461e-8e33-932a2204b0f4","system_id":"levelo_inurba_marseille","lat":43.32367,"lon":5.38889,"is_reserved":false,"is_disabled":false,"rental_uris":{"android":"levelo://app?vid=fef458c6-230f-461e-8e33-932a2204b0f4","ios":"levelo://app?vid=fef458c6-230f-461e-8e33-932a2204b0f4"},"vehicle_type_id":"4","last_reported":1736374107,"current_range_meters":37600,"station_id":"ce4bhqp2rcd13ifvqhog","pricing_plan_id":"cebpf4jnsgd1na2vs0mg"},{"bike_id":"a6651c34-fed4-4c7e-8f28-b7a09eca38fb","system_id":"levelo_inurba_marseille","lat":43.27174,"lon":5.4099,"is_reserved":false,"is_disabled":false,"rental_uris":{"android":"levelo://app?vid=a6651c34-fed4-4c7e-8f28-b7a09eca38fb","ios":"levelo://app?vid=a6651c34-fed4-4c7e-8f28-b7a09eca38fb"},"vehicle_type_id":"4","last_reported":1736374107,"current_range_meters":17600,"station_id":"ce4bhl12rcd13ifvqgf0","pricing_plan_id":"cebpf4jnsgd1na2vs0mg"},{"bike_id":"b02ad7c6-d7fe-4e58-a826-97f5db9adaa2","system_id":"levelo_inurba_marseille","lat":43.30141,"lon":5.39864,"is_reserved":false,"is_disabled":false,"rental_uris":{"android":"levelo://app?vid=b02ad7c6-d7fe-4e58-a826-97f5db9adaa2","ios":"levelo://app?vid=b02ad7c6-d7fe-4e58-a826-97f5db9adaa2"},"vehicle_type_id":"4","last_reported":1736374107,"current_range_meters":29600,"station_id":"ce4bh0h2rcd13ifvqd40","pricing_plan_id":"cebpf4jnsgd1na2vs0mg"},{"bike_id":"1ac6229f-570c-462b-9dc0-43d075592766","system_id":"levelo_inurba_marseille","lat":43.31485,"lon":5.37309,"is_reserved":false,"is_disabled":false,"rental_uris":{"android":"levelo://app?vid=1ac6229f-570c-462b-9dc0-43d075592766","ios":"levelo://app?vid=1ac6229f-570c-462b-9dc0-43d075592766"},"vehicle_type_id":"4","last_reported":1736374107,"current_range_meters":32800,"station_id":"ce4bgt12rcd13ifvqcd0","pricing_plan_id":"cebpf4jnsgd1na2vs0mg"},{"bike_id":"b9a758d4-4e11-4e40-878a-fb05953086c0","system_id":"levelo_inurba_marseille","lat":43.2396,"lon":5.36642,"is_reserved":false,"is_disabled":false,"rental_uris":{"android":"levelo://app?vid=b9a758d4-4e11-4e40-878a-fb05953086c0","ios":"levelo://app?vid=b9a758d4-4e11-4e40-878a-fb05953086c0"},"vehicle_type_id":"4","last_reported":1736374107,"current_range_meters":14000,"station_id":"ce4bhi12rcd13ifvqfp0","pricing_plan_id":"cebpf4jnsgd1na2vs0mg"},{"bike_id":"c591373d-587c-41ff-afe0-106caa315b20","system_id":"levelo_inurba_marseille","lat":43.28717,"lon":5.37908,"is_reserved":false,"is_disabled":false,"rental_uris":{"android":"levelo://app?vid=c591373d-587c-41ff-afe0-106caa315b20","ios":"levelo://app?vid=c591373d-587c-41ff-afe0-106caa315b20"},"vehicle_type_id":"4","last_reported":1736374107,"current_range_meters":38800,"station_id":"ce4bh9p2rcd13ifvqec0","pricing_plan_id":"cebpf4jnsgd1na2vs0mg"},{"bike_id":"74f2d628-450c-4ceb-af40-c0025325e507","system_id":"levelo_inurba_marseille","lat":43.29256,"lon":5.40915,"is_reserved":false,"is_disabled":false,"rental_uris":{"android":"levelo://app?vid=74f2d628-450c-4ceb-af40-c0025325e507","ios":"levelo://app?vid=74f2d628-450c-4ceb-af40-c0025325e507"},"vehicle_type_id":"4","last_reported":1736374107,"current_range_meters":37600,"station_id":"ce4bh192rcd13ifvqdc0","pricing_plan_id":"cebpf4jnsgd1na2vs0mg"},{"bike_id":"0bb18fce-6faa-40ab-8066-a4cf72d623a7","system_id":"levelo_inurba_marseille","lat":43.28705,"lon":5.37321,"is_reserved":false,"is_disabled":false,"rental_uris":{"android":"levelo://app?vid=0bb18fce-6faa-40ab-8066-a4cf72d623a7","ios":"levelo://app?vid=0bb18fce-6faa-40ab-8066-a4cf72d623a7"},"vehicle_type_id":"4","last_reported":1736374107,"current_range_meters":38800,"station_id":"ce4bh3p2rcd13ifvqdq0","pricing_plan_id":"cebpf4jnsgd1na2vs0mg"},{"bike_id":"99f648aa-e09b-45e8-b9c8-672cdbf61ccc","system_id":"levelo_inurba_marseille","lat":43.28702,"lon":5.39983,"is_reserved":false,"is_disabled":false,"rental_uris":{"android":"levelo://app?vid=99f648aa-e09b-45e8-b9c8-672cdbf61ccc","ios":"levelo://app?vid=99f648aa-e09b-45e8-b9c8-672cdbf61ccc"},"vehicle_type_id":"4","last_reported":1736374107,"current_range_meters":12800,"station_id":"ce4bho92rcd13ifvqh3g","pricing_plan_id":"cebpf4jnsgd1na2vs0mg"},{"bike_id":"83e7e804-2b99-4e06-93a6-e481d372b06c","system_id":"levelo_inurba_marseille","lat":43.27826,"lon":5.40732,"is_reserved":false,"is_disabled":false,"rental_uris":{"android":"levelo://app?vid=83e7e804-2b99-4e06-93a6-e481d372b06c","ios":"levelo://app?vid=83e7e804-2b99-4e06-93a6-e481d372b06c"},"vehicle_type_id":"4","last_reported":1736374107,"current_range_meters":38800,"station_id":"ce4bhnh2rcd13ifvqgtg","pricing_plan_id":"cebpf4jnsgd1na2vs0mg"},{"bike_id":"1f7acae7-6f95-41c5-acb6-5b27620cc537","system_id":"levelo_inurba_marseille","lat":43.2573,"lon":5.41105,"is_reserved":false,"is_disabled":false,"rental_uris":{"android":"levelo://app?vid=1f7acae7-6f95-41c5-acb6-5b27620cc537","ios":"levelo://app?vid=1f7acae7-6f95-41c5-acb6-5b27620cc537"},"vehicle_type_id":"4","last_reported":1736374107,"current_range_meters":34000,"station_id":"ce4bhkp2rcd13ifvqgd0","pricing_plan_id":"cebpf4jnsgd1na2vs0mg"},{"bike_id":"1a55702b-0603-4b8e-a18f-8e9aadc27b1d","system_id":"levelo_inurba_marseille","lat":43.28419,"lon":5.37519,"is_reserved":false,"is_disabled":false,"rental_uris":{"android":"levelo://app?vid=1a55702b-0603-4b8e-a18f-8e9aadc27b1d","ios":"levelo://app?vid=1a55702b-0603-4b8e-a18f-8e9aadc27b1d"},"vehicle_type_id":"4","last_reported":1736374107,"current_range_meters":16400,"station_id":"ce4bh412rcd13ifvqds0","pricing_plan_id":"cebpf4jnsgd1na2vs0mg"},{"bike_id":"f59f91e7-8ce9-452a-b6a7-1ff02ba0ea59","system_id":"levelo_inurba_marseille","lat":43.28102,"lon":5.37843,"is_reserved":false,"is_disabled":false,"rental_uris":{"android":"levelo://app?vid=f59f91e7-8ce9-452a-b6a7-1ff02ba0ea59","ios":"levelo://app?vid=f59f91e7-8ce9-452a-b6a7-1ff02ba0ea59"},"vehicle_type_id":"4","last_reported":1736374107,"current_range_meters":39200,"station_id":"ce4bha12rcd13ifvqee0","pricing_plan_id":"cebpf4jnsgd1na2vs0mg"},{"bike_id":"1317d9c5-6115-4289-976f-21e3dea4341c","system_id":"levelo_inurba_marseille","lat":43.28849,"lon":5.35852,"is_reserved":false,"is_disabled":false,"rental_uris":{"android":"levelo://app?vid=1317d9c5-6115-4289-976f-21e3dea4341c","ios":"levelo://app?vid=1317d9c5-6115-4289-976f-21e3dea4341c"},"vehicle_type_id":"4","last_reported":1736374107,"current_range_meters":36400,"station_id":"ce4bhb12rcd13ifvqem0","pricing_plan_id":"cebpf4jnsgd1na2vs0mg"},{"bike_id":"4d06e28f-fd81-46e2-b203-74c7b7fb13c1","system_id":"levelo_inurba_marseille","lat":43.30436,"lon":5.38881,"is_reserved":false,"is_disabled":false,"rental_uris":{"android":"levelo://app?vid=4d06e28f-fd81-46e2-b203-74c7b7fb13c1","ios":"levelo://app?vid=4d06e28f-fd81-46e2-b203-74c7b7fb13c1"},"vehicle_type_id":"4","last_reported":1736374107,"current_range_meters":28400,"station_id":"ce4bgk12rcd13ifvqbi0","pricing_plan_id":"cebpf4jnsgd1na2vs0mg"},{"bike_id":"128e494f-c5f6-49d1-8da7-12ffc5ea9838","system_id":"levelo_inurba_marseille","lat":43.24169,"lon":5.36389,"is_reserved":false,"is_disabled":false,"rental_uris":{"android":"levelo://app?vid=128e494f-c5f6-49d1-8da7-12ffc5ea9838","ios":"levelo://app?vid=128e494f-c5f6-49d1-8da7-12ffc5ea9838"},"vehicle_type_id":"4","last_reported":1736374107,"current_range_meters":16000,"station_id":"cpo36qri1sfpv3e86is0","pricing_plan_id":"cebpf4jnsgd1na2vs0mg"},{"bike_id":"3d868b4f-1b37-4fc8-b318-fa1649add3a3","system_id":"levelo_inurba_marseille","lat":43.30436,"lon":5.38886,"is_reserved":false,"is_disabled":false,"rental_uris":{"android":"levelo://app?vid=3d868b4f-1b37-4fc8-b318-fa1649add3a3","ios":"levelo://app?vid=3d868b4f-1b37-4fc8-b318-fa1649add3a3"},"vehicle_type_id":"4","last_reported":1736374107,"current_range_meters":34000,"station_id":"ce4bgk12rcd13ifvqbi0","pricing_plan_id":"cebpf4jnsgd1na2vs0mg"},{"bike_id":"1efd9b19-a5fc-4b93-9407-1247024c6503","system_id":"levelo_inurba_marseille","lat":43.30254,"lon":5.40038,"is_reserved":false,"is_disabled":false,"rental_uris":{"android":"levelo://app?vid=1efd9b19-a5fc-4b93-9407-1247024c6503","ios":"levelo://app?vid=1efd9b19-a5fc-4b93-9407-1247024c6503"},"vehicle_type_id":"4","last_reported":1736374107,"current_range_meters":34800,"station_id":"ce4bgvh2rcd13ifvqcs0","pricing_plan_id":"cebpf4jnsgd1na2vs0mg"},{"bike_id":"fbcb738e-6308-4ce9-9dfd-7548d8ffef4b","system_id":"levelo_inurba_marseille","lat":43.27921,"lon":5.38682,"is_reserved":false,"is_disabled":false,"rental_uris":{"android":"levelo://app?vid=fbcb738e-6308-4ce9-9dfd-7548d8ffef4b","ios":"levelo://app?vid=fbcb738e-6308-4ce9-9dfd-7548d8ffef4b"},"vehicle_type_id":"4","last_reported":1736374107,"current_range_meters":38800,"station_id":"ce4bhg12rcd13ifvqf80","pricing_plan_id":"cebpf4jnsgd1na2vs0mg"},{"bike_id":"750d7974-8cb1-496b-b770-639d40ce6c4e","system_id":"levelo_inurba_marseille","lat":43.30128,"lon":5.39864,"is_reserved":false,"is_disabled":false,"rental_uris":{"android":"levelo://app?vid=750d7974-8cb1-496b-b770-639d40ce6c4e","ios":"levelo://app?vid=750d7974-8cb1-496b-b770-639d40ce6c4e"},"vehicle_type_id":"4","last_reported":1736374107,"current_range_meters":38800,"station_id":"ce4bh0h2rcd13ifvqd40","pricing_plan_id":"cebpf4jnsgd1na2vs0mg"},{"bike_id":"607f36c7-3f25-43a0-aea5-52069d6de697","system_id":"levelo_inurba_marseille","lat":43.287,"lon":5.3737,"is_reserved":false,"is_disabled":false,"rental_uris":{"android":"levelo://app?vid=607f36c7-3f25-43a0-aea5-52069d6de697","ios":"levelo://app?vid=607f36c7-3f25-43a0-aea5-52069d6de697"},"vehicle_type_id":"4","last_reported":1736374107,"current_range_meters":27600,"station_id":"ce4bh3p2rcd13ifvqdq0","pricing_plan_id":"cebpf4jnsgd1na2vs0mg"},{"bike_id":"4bd97677-1203-4566-b163-4a43fc0532ee","system_id":"levelo_inurba_marseille","lat":43.27815,"lon":5.40699,"is_reserved":false,"is_disabled":false,"rental_uris":{"android":"levelo://app?vid=4bd97677-1203-4566-b163-4a43fc0532ee","ios":"levelo://app?vid=4bd97677-1203-4566-b163-4a43fc0532ee"},"vehicle_type_id":"4","last_reported":1736374107,"current_range_meters":12400,"station_id":"ce4bhnh2rcd13ifvqgtg","pricing_plan_id":"cebpf4jnsgd1na2vs0mg"},{"bike_id":"9fd9a3de-90df-466c-8510-f29e450ec62b","system_id":"levelo_inurba_marseille","lat":43.31078,"lon":5.42443,"is_reserved":false,"is_disabled":true,"rental_uris":{"android":"levelo://app?vid=9fd9a3de-90df-466c-8510-f29e450ec62b","ios":"levelo://app?vid=9fd9a3de-90df-466c-8510-f29e450ec62b"},"vehicle_type_id":"4","last_reported":1736374107,"current_range_meters":16800,"station_id":"ce4bhp92rcd13ifvqhag","pricing_plan_id":"cebpf4jnsgd1na2vs0mg"},{"bike_id":"7e647b87-ee39-48c8-8a57-8ca415c7293d","system_id":"levelo_inurba_marseille","lat":43.23059,"lon":5.35489,"is_reserved":false,"is_disabled":false,"rental_uris":{"android":"levelo://app?vid=7e647b87-ee39-48c8-8a57-8ca415c7293d","ios":"levelo://app?vid=7e647b87-ee39-48c8-8a57-8ca415c7293d"},"vehicle_type_id":"4","last_reported":1736374107,"current_range_meters":36400,"station_id":"cpo3342slgdg3j2ifvpg","pricing_plan_id":"cebpf4jnsgd1na2vs0mg"},{"bike_id":"ce13f8ef-6a55-40b7-88bb-4c27c0ea90aa","system_id":"levelo_inurba_marseille","lat":43.28416,"lon":5.37521,"is_reserved":false,"is_disabled":false,"rental_uris":{"android":"levelo://app?vid=ce13f8ef-6a55-40b7-88bb-4c27c0ea90aa","ios":"levelo://app?vid=ce13f8ef-6a55-40b7-88bb-4c27c0ea90aa"},"vehicle_type_id":"4","last_reported":1736374107,"current_range_meters":36000,"station_id":"ce4bh412rcd13ifvqds0","pricing_plan_id":"cebpf4jnsgd1na2vs0mg"},{"bike_id":"b6cbeee7-faa3-45ef-9fe5-d1892572141e","system_id":"levelo_inurba_marseille","lat":43.295184,"lon":5.394004,"is_reserved":false,"is_disabled":false,"rental_uris":{"android":"levelo://app?vid=b6cbeee7-faa3-45ef-9fe5-d1892572141e","ios":"levelo://app?vid=b6cbeee7-faa3-45ef-9fe5-d1892572141e"},"vehicle_type_id":"4","last_reported":1736374107,"current_range_meters":34800,"station_id":"ce4bh292rcd13ifvqdf0","pricing_plan_id":"cebpf4jnsgd1na2vs0mg"},{"bike_id":"102cb488-e37e-4a25-ae00-7f174450be41","system_id":"levelo_inurba_marseille","lat":43.27565,"lon":5.38416,"is_reserved":false,"is_disabled":false,"rental_uris":{"android":"levelo://app?vid=102cb488-e37e-4a25-ae00-7f174450be41","ios":"levelo://app?vid=102cb488-e37e-4a25-ae00-7f174450be41"},"vehicle_type_id":"4","last_reported":1736374107,"current_range_meters":38800,"station_id":"ce4bhh92rcd13ifvqfi0","pricing_plan_id":"cebpf4jnsgd1na2vs0mg"},{"bike_id":"92f6caa1-17ee-444f-ab84-fa663790e43b","system_id":"levelo_inurba_marseille","lat":43.31077,"lon":5.38351,"is_reserved":false,"is_disabled":false,"rental_uris":{"android":"levelo://app?vid=92f6caa1-17ee-444f-ab84-fa663790e43b","ios":"levelo://app?vid=92f6caa1-17ee-444f-ab84-fa663790e43b"},"vehicle_type_id":"4","last_reported":1736374107,"current_range_meters":19600,"station_id":"ce4bgv92rcd13ifvqcr0","pricing_plan_id":"cebpf4jnsgd1na2vs0mg"},{"bike_id":"af2f2691-642a-471f-a229-6edf3264ebdb","system_id":"levelo_inurba_marseille","lat":43.29939,"lon":5.36521,"is_reserved":false,"is_disabled":false,"rental_uris":{"android":"levelo://app?vid=af2f2691-642a-471f-a229-6edf3264ebdb","ios":"levelo://app?vid=af2f2691-642a-471f-a229-6edf3264ebdb"},"vehicle_type_id":"4","last_reported":1736374107,"current_range_meters":33600,"station_id":"ce4bgm92rcd13ifvqbr0","pricing_plan_id":"cebpf4jnsgd1na2vs0mg"},{"bike_id":"47f78906-79ec-4312-b87c-b16484c68cff","system_id":"levelo_inurba_marseille","lat":43.288448,"lon":5.358598,"is_reserved":false,"is_disabled":false,"rental_uris":{"android":"levelo://app?vid=47f78906-79ec-4312-b87c-b16484c68cff","ios":"levelo://app?vid=47f78906-79ec-4312-b87c-b16484c68cff"},"vehicle_type_id":"4","last_reported":1736374107,"current_range_meters":38800,"station_id":"ce4bhb12rcd13ifvqem0","pricing_plan_id":"cebpf4jnsgd1na2vs0mg"},{"bike_id":"132c0cf2-3f3e-4cf3-a098-8f836778ca04","system_id":"levelo_inurba_marseille","lat":43.31706,"lon":5.37765,"is_reserved":false,"is_disabled":false,"rental_uris":{"android":"levelo://app?vid=132c0cf2-3f3e-4cf3-a098-8f836778ca04","ios":"levelo://app?vid=132c0cf2-3f3e-4cf3-a098-8f836778ca04"},"vehicle_type_id":"4","last_reported":1736374107,"current_range_meters":38400,"station_id":"ce4bgth2rcd13ifvqch0","pricing_plan_id":"cebpf4jnsgd1na2vs0mg"},{"bike_id":"678eefba-c14d-498b-a87c-ed9964645dda","system_id":"levelo_inurba_marseille","lat":43.29368,"lon":5.37844,"is_reserved":false,"is_disabled":false,"rental_uris":{"android":"levelo://app?vid=678eefba-c14d-498b-a87c-ed9964645dda","ios":"levelo://app?vid=678eefba-c14d-498b-a87c-ed9964645dda"},"vehicle_type_id":"4","last_reported":1736374107,"current_range_meters":28000,"station_id":"ce4bgjh2rcd13ifvqbf0","pricing_plan_id":"cebpf4jnsgd1na2vs0mg"},{"bike_id":"343183ae-451e-4927-9689-222cf65f7c9b","system_id":"levelo_inurba_marseille","lat":43.27922,"lon":5.39594,"is_reserved":false,"is_disabled":false,"rental_uris":{"android":"levelo://app?vid=343183ae-451e-4927-9689-222cf65f7c9b","ios":"levelo://app?vid=343183ae-451e-4927-9689-222cf65f7c9b"},"vehicle_type_id":"4","last_reported":1736374107,"current_range_meters":38800,"station_id":"ce4bhf92rcd13ifvqf40","pricing_plan_id":"cebpf4jnsgd1na2vs0mg"},{"bike_id":"fdc068af-990e-4220-bc8a-ad61edad86b8","system_id":"levelo_inurba_marseille","lat":43.28702,"lon":5.37936,"is_reserved":false,"is_disabled":false,"rental_uris":{"android":"levelo://app?vid=fdc068af-990e-4220-bc8a-ad61edad86b8","ios":"levelo://app?vid=fdc068af-990e-4220-bc8a-ad61edad86b8"},"vehicle_type_id":"4","last_reported":1736374107,"current_range_meters":38400,"station_id":"ce4bh9p2rcd13ifvqec0","pricing_plan_id":"cebpf4jnsgd1na2vs0mg"},{"bike_id":"09e3588e-7ba5-47e4-87a0-bfa5eb2056aa","system_id":"levelo_inurba_marseille","lat":43.31755,"lon":5.39015,"is_reserved":false,"is_disabled":false,"rental_uris":{"android":"levelo://app?vid=09e3588e-7ba5-47e4-87a0-bfa5eb2056aa","ios":"levelo://app?vid=09e3588e-7ba5-47e4-87a0-bfa5eb2056aa"},"vehicle_type_id":"4","last_reported":1736374107,"current_range_meters":14800,"station_id":"ce4bhqp2rcd13ifvqhng","pricing_plan_id":"cebpf4jnsgd1na2vs0mg"},{"bike_id":"e39f6b1f-389e-44fc-b750-d548ad83bcc0","system_id":"levelo_inurba_marseille","lat":43.268,"lon":5.40222,"is_reserved":false,"is_disabled":false,"rental_uris":{"android":"levelo://app?vid=e39f6b1f-389e-44fc-b750-d548ad83bcc0","ios":"levelo://app?vid=e39f6b1f-389e-44fc-b750-d548ad83bcc0"},"vehicle_type_id":"4","last_reported":1736374107,"current_range_meters":35600,"station_id":"ce501612rcd8frsf0b60","pricing_plan_id":"cebpf4jnsgd1na2vs0mg"},{"bike_id":"80716bfe-ce4c-458a-a817-cd7a4ffc01a2","system_id":"levelo_inurba_marseille","lat":43.31705,"lon":5.37796,"is_reserved":false,"is_disabled":false,"rental_uris":{"android":"levelo://app?vid=80716bfe-ce4c-458a-a817-cd7a4ffc01a2","ios":"levelo://app?vid=80716bfe-ce4c-458a-a817-cd7a4ffc01a2"},"vehicle_type_id":"4","last_reported":1736374107,"current_range_meters":38800,"station_id":"ce4bgth2rcd13ifvqch0","pricing_plan_id":"cebpf4jnsgd1na2vs0mg"},{"bike_id":"2d1536de-ed9a-4813-bbd6-10bda74ca621","system_id":"levelo_inurba_marseille","lat":43.24798,"lon":5.37455,"is_reserved":false,"is_disabled":false,"rental_uris":{"android":"levelo://app?vid=2d1536de-ed9a-4813-bbd6-10bda74ca621","ios":"levelo://app?vid=2d1536de-ed9a-4813-bbd6-10bda74ca621"},"vehicle_type_id":"4","last_reported":1736374107,"current_range_meters":14000,"station_id":"ce4bhgh2rcd13ifvqfb0","pricing_plan_id":"cebpf4jnsgd1na2vs0mg"},{"bike_id":"22e8eaa8-9c81-4bc8-bb62-37e6ef3df73f","system_id":"levelo_inurba_marseille","lat":43.28918,"lon":5.38388,"is_reserved":false,"is_disabled":false,"rental_uris":{"android":"levelo://app?vid=22e8eaa8-9c81-4bc8-bb62-37e6ef3df73f","ios":"levelo://app?vid=22e8eaa8-9c81-4bc8-bb62-37e6ef3df73f"},"vehicle_type_id":"4","last_reported":1736374107,"current_range_meters":8000,"station_id":"ce4bh612rcd13ifvqe6g","pricing_plan_id":"cebpf4jnsgd1na2vs0mg"},{"bike_id":"90b843e6-8784-47a9-a2b3-fcad4693b5da","system_id":"levelo_inurba_marseille","lat":43.28843,"lon":5.39304,"is_reserved":false,"is_disabled":false,"rental_uris":{"android":"levelo://app?vid=90b843e6-8784-47a9-a2b3-fcad4693b5da","ios":"levelo://app?vid=90b843e6-8784-47a9-a2b3-fcad4693b5da"},"vehicle_type_id":"4","last_reported":1736374107,"current_range_meters":31200,"station_id":"ce4bh2p2rcd13ifvqdi0","pricing_plan_id":"cebpf4jnsgd1na2vs0mg"},{"bike_id":"39faa2fe-395f-49c9-9056-e37436793a85","system_id":"levelo_inurba_marseille","lat":43.30321,"lon":5.40447,"is_reserved":false,"is_disabled":true,"rental_uris":{"android":"levelo://app?vid=39faa2fe-395f-49c9-9056-e37436793a85","ios":"levelo://app?vid=39faa2fe-395f-49c9-9056-e37436793a85"},"vehicle_type_id":"4","last_reported":1736374107,"current_range_meters":30800,"station_id":"ce4bh012rcd13ifvqd10","pricing_plan_id":"cebpf4jnsgd1na2vs0mg"},{"bike_id":"32989765-44f0-4e54-8f07-1797ec957573","system_id":"levelo_inurba_marseille","lat":43.307935,"lon":5.435271,"is_reserved":false,"is_disabled":false,"rental_uris":{"android":"levelo://app?vid=32989765-44f0-4e54-8f07-1797ec957573","ios":"levelo://app?vid=32989765-44f0-4e54-8f07-1797ec957573"},"vehicle_type_id":"4","last_reported":1736374107,"current_range_meters":38800,"station_id":"ce4bhph2rcd13ifvqheg","pricing_plan_id":"cebpf4jnsgd1na2vs0mg"},{"bike_id":"21fdd4e2-bbc1-43cb-86c0-97b28f9abeac","system_id":"levelo_inurba_marseille","lat":43.27806,"lon":5.40723,"is_reserved":false,"is_disabled":false,"rental_uris":{"android":"levelo://app?vid=21fdd4e2-bbc1-43cb-86c0-97b28f9abeac","ios":"levelo://app?vid=21fdd4e2-bbc1-43cb-86c0-97b28f9abeac"},"vehicle_type_id":"4","last_reported":1736374107,"current_range_meters":38800,"station_id":"ce4bhnh2rcd13ifvqgtg","pricing_plan_id":"cebpf4jnsgd1na2vs0mg"},{"bike_id":"ce75ebef-7043-461d-8e87-049178fff0d3","system_id":"levelo_inurba_marseille","lat":43.31327,"lon":5.39694,"is_reserved":false,"is_disabled":false,"rental_uris":{"android":"levelo://app?vid=ce75ebef-7043-461d-8e87-049178fff0d3","ios":"levelo://app?vid=ce75ebef-7043-461d-8e87-049178fff0d3"},"vehicle_type_id":"4","last_reported":1736374107,"current_range_meters":24800,"station_id":"ce4bgvp2rcd13ifvqcu0","pricing_plan_id":"cebpf4jnsgd1na2vs0mg"},{"bike_id":"78cf7860-0a57-46e1-ae18-c4489c3d4c0b","system_id":"levelo_inurba_marseille","lat":43.30404,"lon":5.41284,"is_reserved":false,"is_disabled":false,"rental_uris":{"android":"levelo://app?vid=78cf7860-0a57-46e1-ae18-c4489c3d4c0b","ios":"levelo://app?vid=78cf7860-0a57-46e1-ae18-c4489c3d4c0b"},"vehicle_type_id":"4","last_reported":1736374107,"current_range_meters":30400,"station_id":"ce4bhop2rcd13ifvqh8g","pricing_plan_id":"cebpf4jnsgd1na2vs0mg"},{"bike_id":"5db20c31-12b6-4d09-895f-c9f7cbdfec00","system_id":"levelo_inurba_marseille","lat":43.271143,"lon":5.394915,"is_reserved":false,"is_disabled":true,"rental_uris":{"android":"levelo://app?vid=5db20c31-12b6-4d09-895f-c9f7cbdfec00","ios":"levelo://app?vid=5db20c31-12b6-4d09-895f-c9f7cbdfec00"},"vehicle_type_id":"4","last_reported":1736374107,"current_range_meters":0,"station_id":"ce4bhk92rcd13ifvqgc0","pricing_plan_id":"cebpf4jnsgd1na2vs0mg"},{"bike_id":"4b1bcc07-82a7-477b-8def-610d4f653cb3","system_id":"levelo_inurba_marseille","lat":43.29024,"lon":5.38128,"is_reserved":false,"is_disabled":true,"rental_uris":{"android":"levelo://app?vid=4b1bcc07-82a7-477b-8def-610d4f653cb3","ios":"levelo://app?vid=4b1bcc07-82a7-477b-8def-610d4f653cb3"},"vehicle_type_id":"4","last_reported":1736374107,"current_range_meters":26000,"station_id":"ce4bh4p2rcd13ifvqe1g","pricing_plan_id":"cebpf4jnsgd1na2vs0mg"},{"bike_id":"b69e39e4-e108-465d-bddd-4ffc1dea8f10","system_id":"levelo_inurba_marseille","lat":43.25731,"lon":5.4112,"is_reserved":false,"is_disabled":false,"rental_uris":{"android":"levelo://app?vid=b69e39e4-e108-465d-bddd-4ffc1dea8f10","ios":"levelo://app?vid=b69e39e4-e108-465d-bddd-4ffc1dea8f10"},"vehicle_type_id":"4","last_reported":1736374107,"current_range_meters":38000,"station_id":"ce4bhkp2rcd13ifvqgd0","pricing_plan_id":"cebpf4jnsgd1na2vs0mg"},{"bike_id":"f2536309-8d2b-4ccd-86e1-4c168080c77c","system_id":"levelo_inurba_marseille","lat":43.23191,"lon":5.35548,"is_reserved":false,"is_disabled":false,"rental_uris":{"android":"levelo://app?vid=f2536309-8d2b-4ccd-86e1-4c168080c77c","ios":"levelo://app?vid=f2536309-8d2b-4ccd-86e1-4c168080c77c"},"vehicle_type_id":"4","last_reported":1736374107,"current_range_meters":9200,"station_id":"ce4bhu92rcd13ifvqi70","pricing_plan_id":"cebpf4jnsgd1na2vs0mg"},{"bike_id":"8bcf41b6-deb6-4885-bd8e-ef97fb3f3142","system_id":"levelo_inurba_marseille","lat":43.28593,"lon":5.39463,"is_reserved":false,"is_disabled":false,"rental_uris":{"android":"levelo://app?vid=8bcf41b6-deb6-4885-bd8e-ef97fb3f3142","ios":"levelo://app?vid=8bcf41b6-deb6-4885-bd8e-ef97fb3f3142"},"vehicle_type_id":"4","last_reported":1736374107,"current_range_meters":34000,"station_id":"ce4bh292rcd13ifvqdg0","pricing_plan_id":"cebpf4jnsgd1na2vs0mg"},{"bike_id":"4efa11c0-139c-4710-b266-c4459fd23c8c","system_id":"levelo_inurba_marseille","lat":43.27839,"lon":5.39199,"is_reserved":false,"is_disabled":false,"rental_uris":{"android":"levelo://app?vid=4efa11c0-139c-4710-b266-c4459fd23c8c","ios":"levelo://app?vid=4efa11c0-139c-4710-b266-c4459fd23c8c"},"vehicle_type_id":"4","last_reported":1736374107,"current_range_meters":39200,"station_id":"ce4bhjp2rcd13ifvqga0","pricing_plan_id":"cebpf4jnsgd1na2vs0mg"},{"bike_id":"2cc9dbc1-e9d5-4c8a-8d04-785c075f30b4","system_id":"levelo_inurba_marseille","lat":43.31355,"lon":5.38495,"is_reserved":false,"is_disabled":false,"rental_uris":{"android":"levelo://app?vid=2cc9dbc1-e9d5-4c8a-8d04-785c075f30b4","ios":"levelo://app?vid=2cc9dbc1-e9d5-4c8a-8d04-785c075f30b4"},"vehicle_type_id":"4","last_reported":1736374107,"current_range_meters":28400,"station_id":"ce4bgt92rcd13ifvqcf0","pricing_plan_id":"cebpf4jnsgd1na2vs0mg"},{"bike_id":"84c8daa8-a9e5-4c9c-a5f6-9526f0ec5bd0","system_id":"levelo_inurba_marseille","lat":43.29885,"lon":5.38747,"is_reserved":false,"is_disabled":false,"rental_uris":{"android":"levelo://app?vid=84c8daa8-a9e5-4c9c-a5f6-9526f0ec5bd0","ios":"levelo://app?vid=84c8daa8-a9e5-4c9c-a5f6-9526f0ec5bd0"},"vehicle_type_id":"4","last_reported":1736374107,"current_range_meters":20400,"station_id":"ce4bh0p2rcd13ifvqd70","pricing_plan_id":"cebpf4jnsgd1na2vs0mg"},{"bike_id":"b8b738cb-ef0c-4357-b3a7-9b64021e64ef","system_id":"levelo_inurba_marseille","lat":43.33,"lon":5.39065,"is_reserved":false,"is_disabled":false,"rental_uris":{"android":"levelo://app?vid=b8b738cb-ef0c-4357-b3a7-9b64021e64ef","ios":"levelo://app?vid=b8b738cb-ef0c-4357-b3a7-9b64021e64ef"},"vehicle_type_id":"4","last_reported":1736374107,"current_range_meters":36800,"station_id":"ce4bhr92rcd13ifvqhrg","pricing_plan_id":"cebpf4jnsgd1na2vs0mg"},{"bike_id":"834bf074-3839-434a-89d6-617847f95fc7","system_id":"levelo_inurba_marseille","lat":43.31755,"lon":5.39018,"is_reserved":false,"is_disabled":false,"rental_uris":{"android":"levelo://app?vid=834bf074-3839-434a-89d6-617847f95fc7","ios":"levelo://app?vid=834bf074-3839-434a-89d6-617847f95fc7"},"vehicle_type_id":"4","last_reported":1736374107,"current_range_meters":33600,"station_id":"ce4bhqp2rcd13ifvqhng","pricing_plan_id":"cebpf4jnsgd1na2vs0mg"},{"bike_id":"bb636211-c010-46b6-b358-bf7db6dac6a4","system_id":"levelo_inurba_marseille","lat":43.29019,"lon":5.38136,"is_reserved":false,"is_disabled":true,"rental_uris":{"android":"levelo://app?vid=bb636211-c010-46b6-b358-bf7db6dac6a4","ios":"levelo://app?vid=bb636211-c010-46b6-b358-bf7db6dac6a4"},"vehicle_type_id":"4","last_reported":1736374107,"current_range_meters":38400,"station_id":"ce4bh4p2rcd13ifvqe1g","pricing_plan_id":"cebpf4jnsgd1na2vs0mg"},{"bike_id":"36cd0b0b-3b9b-4f45-8abd-e5b966ccd39a","system_id":"levelo_inurba_marseille","lat":43.31895,"lon":5.40735,"is_reserved":false,"is_disabled":false,"rental_uris":{"android":"levelo://app?vid=36cd0b0b-3b9b-4f45-8abd-e5b966ccd39a","ios":"levelo://app?vid=36cd0b0b-3b9b-4f45-8abd-e5b966ccd39a"},"vehicle_type_id":"4","last_reported":1736374107,"current_range_meters":37600,"station_id":"ce4bhq12rcd13ifvqhig","pricing_plan_id":"cebpf4jnsgd1na2vs0mg"},{"bike_id":"f76caccf-de8b-4760-a4b0-3d1087b2d15c","system_id":"levelo_inurba_marseille","lat":43.27848,"lon":5.39194,"is_reserved":false,"is_disabled":false,"rental_uris":{"android":"levelo://app?vid=f76caccf-de8b-4760-a4b0-3d1087b2d15c","ios":"levelo://app?vid=f76caccf-de8b-4760-a4b0-3d1087b2d15c"},"vehicle_type_id":"4","last_reported":1736374107,"current_range_meters":38400,"station_id":"ce4bhjp2rcd13ifvqga0","pricing_plan_id":"cebpf4jnsgd1na2vs0mg"},{"bike_id":"c96b391a-db92-450f-a788-c47766c7d89c","system_id":"levelo_inurba_marseille","lat":43.23968,"lon":5.36634,"is_reserved":false,"is_disabled":false,"rental_uris":{"android":"levelo://app?vid=c96b391a-db92-450f-a788-c47766c7d89c","ios":"levelo://app?vid=c96b391a-db92-450f-a788-c47766c7d89c"},"vehicle_type_id":"4","last_reported":1736374107,"current_range_meters":25200,"station_id":"ce4bhi12rcd13ifvqfp0","pricing_plan_id":"cebpf4jnsgd1na2vs0mg"},{"bike_id":"a023b9e2-2413-4b3d-a218-b9727e7097b5","system_id":"levelo_inurba_marseille","lat":43.292991,"lon":5.374633,"is_reserved":false,"is_disabled":true,"rental_uris":{"android":"levelo://app?vid=a023b9e2-2413-4b3d-a218-b9727e7097b5","ios":"levelo://app?vid=a023b9e2-2413-4b3d-a218-b9727e7097b5"},"vehicle_type_id":"4","last_reported":1736374107,"current_range_meters":32400,"station_id":"ce4bgi12rcd13ifvqb70","pricing_plan_id":"cebpf4jnsgd1na2vs0mg"},{"bike_id":"b9d19b8c-88a0-4b24-a901-7eae74ced255","system_id":"levelo_inurba_marseille","lat":43.30435,"lon":5.38893,"is_reserved":false,"is_disabled":false,"rental_uris":{"android":"levelo://app?vid=b9d19b8c-88a0-4b24-a901-7eae74ced255","ios":"levelo://app?vid=b9d19b8c-88a0-4b24-a901-7eae74ced255"},"vehicle_type_id":"4","last_reported":1736374107,"current_range_meters":38400,"station_id":"ce4bgk12rcd13ifvqbi0","pricing_plan_id":"cebpf4jnsgd1na2vs0mg"},{"bike_id":"412c961b-9eee-480e-9da4-be4fd2e54380","system_id":"levelo_inurba_marseille","lat":43.2956,"lon":5.42289,"is_reserved":false,"is_disabled":false,"rental_uris":{"android":"levelo://app?vid=412c961b-9eee-480e-9da4-be4fd2e54380","ios":"levelo://app?vid=412c961b-9eee-480e-9da4-be4fd2e54380"},"vehicle_type_id":"4","last_reported":1736374107,"current_range_meters":38800,"station_id":"ce4bhph2rcd13ifvqhdg","pricing_plan_id":"cebpf4jnsgd1na2vs0mg"},{"bike_id":"0738368e-bb66-45af-a35b-10f02dbbeef6","system_id":"levelo_inurba_marseille","lat":43.27825,"lon":5.40709,"is_reserved":false,"is_disabled":false,"rental_uris":{"android":"levelo://app?vid=0738368e-bb66-45af-a35b-10f02dbbeef6","ios":"levelo://app?vid=0738368e-bb66-45af-a35b-10f02dbbeef6"},"vehicle_type_id":"4","last_reported":1736374107,"current_range_meters":28800,"station_id":"ce4bhnh2rcd13ifvqgtg","pricing_plan_id":"cebpf4jnsgd1na2vs0mg"},{"bike_id":"19fe5123-848b-444c-8195-47893cf00757","system_id":"levelo_inurba_marseille","lat":43.3013,"lon":5.39875,"is_reserved":false,"is_disabled":false,"rental_uris":{"android":"levelo://app?vid=19fe5123-848b-444c-8195-47893cf00757","ios":"levelo://app?vid=19fe5123-848b-444c-8195-47893cf00757"},"vehicle_type_id":"4","last_reported":1736374107,"current_range_meters":39200,"station_id":"ce4bh0h2rcd13ifvqd40","pricing_plan_id":"cebpf4jnsgd1na2vs0mg"},{"bike_id":"4795cc5a-7058-456b-bbbb-cdaf0bc9586c","system_id":"levelo_inurba_marseille","lat":43.29983,"lon":5.3849,"is_reserved":false,"is_disabled":true,"rental_uris":{"android":"levelo://app?vid=4795cc5a-7058-456b-bbbb-cdaf0bc9586c","ios":"levelo://app?vid=4795cc5a-7058-456b-bbbb-cdaf0bc9586c"},"vehicle_type_id":"4","last_reported":1736374107,"current_range_meters":38800,"station_id":"ce4bgj92rcd13ifvqbd0","pricing_plan_id":"cebpf4jnsgd1na2vs0mg"},{"bike_id":"7d7aa8f8-b35a-4820-919c-568aae9dc147","system_id":"levelo_inurba_marseille","lat":43.25112,"lon":5.4032,"is_reserved":false,"is_disabled":false,"rental_uris":{"android":"levelo://app?vid=7d7aa8f8-b35a-4820-919c-568aae9dc147","ios":"levelo://app?vid=7d7aa8f8-b35a-4820-919c-568aae9dc147"},"vehicle_type_id":"4","last_reported":1736374107,"current_range_meters":6400,"station_id":"ce4bhlh2rcd13ifvqgig","pricing_plan_id":"cebpf4jnsgd1na2vs0mg"},{"bike_id":"2825a119-5b5a-4630-b83a-5a86bf58ccad","system_id":"levelo_inurba_marseille","lat":43.31283,"lon":5.37353,"is_reserved":false,"is_disabled":false,"rental_uris":{"android":"levelo://app?vid=2825a119-5b5a-4630-b83a-5a86bf58ccad","ios":"levelo://app?vid=2825a119-5b5a-4630-b83a-5a86bf58ccad"},"vehicle_type_id":"4","last_reported":1736374107,"current_range_meters":8400,"station_id":"","pricing_plan_id":"cebpf4jnsgd1na2vs0mg"},{"bike_id":"599cb150-7973-4a42-bd67-2927c118c704","system_id":"levelo_inurba_marseille","lat":43.33597,"lon":5.40994,"is_reserved":false,"is_disabled":false,"rental_uris":{"android":"levelo://app?vid=599cb150-7973-4a42-bd67-2927c118c704","ios":"levelo://app?vid=599cb150-7973-4a42-bd67-2927c118c704"},"vehicle_type_id":"4","last_reported":1736374107,"current_range_meters":38000,"station_id":"ce4bhqh2rcd13ifvqhmg","pricing_plan_id":"cebpf4jnsgd1na2vs0mg"},{"bike_id":"51f10feb-bb91-4052-82f3-cd9dbb59e701","system_id":"levelo_inurba_marseille","lat":43.33608,"lon":5.41026,"is_reserved":false,"is_disabled":false,"rental_uris":{"android":"levelo://app?vid=51f10feb-bb91-4052-82f3-cd9dbb59e701","ios":"levelo://app?vid=51f10feb-bb91-4052-82f3-cd9dbb59e701"},"vehicle_type_id":"4","last_reported":1736374107,"current_range_meters":38800,"station_id":"ce4bhqh2rcd13ifvqhmg","pricing_plan_id":"cebpf4jnsgd1na2vs0mg"},{"bike_id":"9ff18bba-93a9-408d-807b-4b083b194239","system_id":"levelo_inurba_marseille","lat":43.30305,"lon":5.39201,"is_reserved":false,"is_disabled":false,"rental_uris":{"android":"levelo://app?vid=9ff18bba-93a9-408d-807b-4b083b194239","ios":"levelo://app?vid=9ff18bba-93a9-408d-807b-4b083b194239"},"vehicle_type_id":"4","last_reported":1736374107,"current_range_meters":38000,"station_id":"ce4bgkh2rcd13ifvqbk0","pricing_plan_id":"cebpf4jnsgd1na2vs0mg"},{"bike_id":"d845dbd3-f4cd-4ca3-9ff5-d8a306c0f066","system_id":"levelo_inurba_marseille","lat":43.26788,"lon":5.39423,"is_reserved":false,"is_disabled":false,"rental_uris":{"android":"levelo://app?vid=d845dbd3-f4cd-4ca3-9ff5-d8a306c0f066","ios":"levelo://app?vid=d845dbd3-f4cd-4ca3-9ff5-d8a306c0f066"},"vehicle_type_id":"4","last_reported":1736374107,"current_range_meters":38800,"station_id":"ce4bhh12rcd13ifvqfg0","pricing_plan_id":"cebpf4jnsgd1na2vs0mg"},{"bike_id":"c77e216b-213d-4638-bd23-e59801e2674c","system_id":"levelo_inurba_marseille","lat":43.33593,"lon":5.41006,"is_reserved":false,"is_disabled":false,"rental_uris":{"android":"levelo://app?vid=c77e216b-213d-4638-bd23-e59801e2674c","ios":"levelo://app?vid=c77e216b-213d-4638-bd23-e59801e2674c"},"vehicle_type_id":"4","last_reported":1736374107,"current_range_meters":35600,"station_id":"ce4bhqh2rcd13ifvqhmg","pricing_plan_id":"cebpf4jnsgd1na2vs0mg"},{"bike_id":"6e06c37e-23bd-45f4-a04e-5a1203f0c89f","system_id":"levelo_inurba_marseille","lat":43.31756,"lon":5.39014,"is_reserved":false,"is_disabled":false,"rental_uris":{"android":"levelo://app?vid=6e06c37e-23bd-45f4-a04e-5a1203f0c89f","ios":"levelo://app?vid=6e06c37e-23bd-45f4-a04e-5a1203f0c89f"},"vehicle_type_id":"4","last_reported":1736374107,"current_range_meters":32800,"station_id":"ce4bhqp2rcd13ifvqhng","pricing_plan_id":"cebpf4jnsgd1na2vs0mg"},{"bike_id":"e7ae70f7-9028-4369-9a40-f98d783790cd","system_id":"levelo_inurba_marseille","lat":43.30882,"lon":5.39626,"is_reserved":false,"is_disabled":false,"rental_uris":{"android":"levelo://app?vid=e7ae70f7-9028-4369-9a40-f98d783790cd","ios":"levelo://app?vid=e7ae70f7-9028-4369-9a40-f98d783790cd"},"vehicle_type_id":"4","last_reported":1736374107,"current_range_meters":30400,"station_id":"ce4bh012rcd13ifvqcv0","pricing_plan_id":"cebpf4jnsgd1na2vs0mg"},{"bike_id":"bb40170b-f536-431a-bdc4-a5b52fd0ad16","system_id":"levelo_inurba_marseille","lat":43.25122,"lon":5.40326,"is_reserved":false,"is_disabled":false,"rental_uris":{"android":"levelo://app?vid=bb40170b-f536-431a-bdc4-a5b52fd0ad16","ios":"levelo://app?vid=bb40170b-f536-431a-bdc4-a5b52fd0ad16"},"vehicle_type_id":"4","last_reported":1736374107,"current_range_meters":32800,"station_id":"ce4bhlh2rcd13ifvqgig","pricing_plan_id":"cebpf4jnsgd1na2vs0mg"},{"bike_id":"7a0a8a69-615c-43f3-a001-073b74f4a57b","system_id":"levelo_inurba_marseille","lat":43.25583,"lon":5.38232,"is_reserved":false,"is_disabled":false,"rental_uris":{"android":"levelo://app?vid=7a0a8a69-615c-43f3-a001-073b74f4a57b","ios":"levelo://app?vid=7a0a8a69-615c-43f3-a001-073b74f4a57b"},"vehicle_type_id":"4","last_reported":1736374107,"current_range_meters":33200,"station_id":"ce4bhih2rcd13ifvqfs0","pricing_plan_id":"cebpf4jnsgd1na2vs0mg"},{"bike_id":"9fc299a4-7959-49e3-85f6-cec59a7d7af9","system_id":"levelo_inurba_marseille","lat":43.26939,"lon":5.38902,"is_reserved":false,"is_disabled":false,"rental_uris":{"android":"levelo://app?vid=9fc299a4-7959-49e3-85f6-cec59a7d7af9","ios":"levelo://app?vid=9fc299a4-7959-49e3-85f6-cec59a7d7af9"},"vehicle_type_id":"4","last_reported":1736374107,"current_range_meters":11200,"station_id":"ce4bhhh2rcd13ifvqfl0","pricing_plan_id":"cebpf4jnsgd1na2vs0mg"},{"bike_id":"d03baa4e-a1ff-4dbb-aa3a-8f7610789178","system_id":"levelo_inurba_marseille","lat":43.33731,"lon":5.39192,"is_reserved":false,"is_disabled":false,"rental_uris":{"android":"levelo://app?vid=d03baa4e-a1ff-4dbb-aa3a-8f7610789178","ios":"levelo://app?vid=d03baa4e-a1ff-4dbb-aa3a-8f7610789178"},"vehicle_type_id":"4","last_reported":1736374107,"current_range_meters":39200,"station_id":"ce4bhr92rcd13ifvqhsg","pricing_plan_id":"cebpf4jnsgd1na2vs0mg"},{"bike_id":"53dc5514-ec32-47ff-ac33-5805e8866d7e","system_id":"levelo_inurba_marseille","lat":43.28348,"lon":5.38108,"is_reserved":false,"is_disabled":false,"rental_uris":{"android":"levelo://app?vid=53dc5514-ec32-47ff-ac33-5805e8866d7e","ios":"levelo://app?vid=53dc5514-ec32-47ff-ac33-5805e8866d7e"},"vehicle_type_id":"4","last_reported":1736374107,"current_range_meters":38800,"station_id":"ce4bh412rcd13ifvqdr0","pricing_plan_id":"cebpf4jnsgd1na2vs0mg"},{"bike_id":"0a3d01c7-b1b6-4282-806b-4f33aa594a92","system_id":"levelo_inurba_marseille","lat":43.24391,"lon":5.37055,"is_reserved":false,"is_disabled":false,"rental_uris":{"android":"levelo://app?vid=0a3d01c7-b1b6-4282-806b-4f33aa594a92","ios":"levelo://app?vid=0a3d01c7-b1b6-4282-806b-4f33aa594a92"},"vehicle_type_id":"4","last_reported":1736374107,"current_range_meters":38800,"station_id":"ce4bhhh2rcd13ifvqfk0","pricing_plan_id":"cebpf4jnsgd1na2vs0mg"},{"bike_id":"c46908a5-8296-41ca-bb79-9a70f768795f","system_id":"levelo_inurba_marseille","lat":43.25572,"lon":5.38258,"is_reserved":false,"is_disabled":false,"rental_uris":{"android":"levelo://app?vid=c46908a5-8296-41ca-bb79-9a70f768795f","ios":"levelo://app?vid=c46908a5-8296-41ca-bb79-9a70f768795f"},"vehicle_type_id":"4","last_reported":1736374107,"current_range_meters":38800,"station_id":"ce4bhih2rcd13ifvqfs0","pricing_plan_id":"cebpf4jnsgd1na2vs0mg"},{"bike_id":"6634f8bf-9d52-4118-86a1-d5dfb9f73ba8","system_id":"levelo_inurba_marseille","lat":43.28447,"lon":5.39186,"is_reserved":false,"is_disabled":true,"rental_uris":{"android":"levelo://app?vid=6634f8bf-9d52-4118-86a1-d5dfb9f73ba8","ios":"levelo://app?vid=6634f8bf-9d52-4118-86a1-d5dfb9f73ba8"},"vehicle_type_id":"4","last_reported":1736374107,"current_range_meters":38400,"station_id":"ce4bhoh2rcd13ifvqh5g","pricing_plan_id":"cebpf4jnsgd1na2vs0mg"},{"bike_id":"58a1ab09-3af8-49c4-988b-7342a3c81f56","system_id":"levelo_inurba_marseille","lat":43.25584,"lon":5.38245,"is_reserved":false,"is_disabled":false,"rental_uris":{"android":"levelo://app?vid=58a1ab09-3af8-49c4-988b-7342a3c81f56","ios":"levelo://app?vid=58a1ab09-3af8-49c4-988b-7342a3c81f56"},"vehicle_type_id":"4","last_reported":1736374107,"current_range_meters":38800,"station_id":"ce4bhih2rcd13ifvqfs0","pricing_plan_id":"cebpf4jnsgd1na2vs0mg"},{"bike_id":"a48e8ede-8b89-467e-ba10-f85bc2205c8e","system_id":"levelo_inurba_marseille","lat":43.28097,"lon":5.37833,"is_reserved":false,"is_disabled":false,"rental_uris":{"android":"levelo://app?vid=a48e8ede-8b89-467e-ba10-f85bc2205c8e","ios":"levelo://app?vid=a48e8ede-8b89-467e-ba10-f85bc2205c8e"},"vehicle_type_id":"4","last_reported":1736374107,"current_range_meters":36400,"station_id":"ce4bha12rcd13ifvqee0","pricing_plan_id":"cebpf4jnsgd1na2vs0mg"},{"bike_id":"5ed0875a-e47c-4908-ab9e-ba87e3a2e914","system_id":"levelo_inurba_marseille","lat":43.30314,"lon":5.40445,"is_reserved":false,"is_disabled":true,"rental_uris":{"android":"levelo://app?vid=5ed0875a-e47c-4908-ab9e-ba87e3a2e914","ios":"levelo://app?vid=5ed0875a-e47c-4908-ab9e-ba87e3a2e914"},"vehicle_type_id":"4","last_reported":1736374107,"current_range_meters":400,"station_id":"ce4bh012rcd13ifvqd10","pricing_plan_id":"cebpf4jnsgd1na2vs0mg"},{"bike_id":"c8620edc-4b1a-4a54-992f-df9b92a06d3c","system_id":"levelo_inurba_marseille","lat":43.290513,"lon":5.359128,"is_reserved":false,"is_disabled":false,"rental_uris":{"android":"levelo://app?vid=c8620edc-4b1a-4a54-992f-df9b92a06d3c","ios":"levelo://app?vid=c8620edc-4b1a-4a54-992f-df9b92a06d3c"},"vehicle_type_id":"4","last_reported":1736374107,"current_range_meters":30800,"station_id":"ce4bha92rcd13ifvqeg0","pricing_plan_id":"cebpf4jnsgd1na2vs0mg"},{"bike_id":"116bb4c1-3a22-4d49-b9c7-c27e8abe447c","system_id":"levelo_inurba_marseille","lat":43.31326,"lon":5.39695,"is_reserved":false,"is_disabled":false,"rental_uris":{"android":"levelo://app?vid=116bb4c1-3a22-4d49-b9c7-c27e8abe447c","ios":"levelo://app?vid=116bb4c1-3a22-4d49-b9c7-c27e8abe447c"},"vehicle_type_id":"4","last_reported":1736374107,"current_range_meters":39200,"station_id":"ce4bgvp2rcd13ifvqcu0","pricing_plan_id":"cebpf4jnsgd1na2vs0mg"},{"bike_id":"8e435477-8680-48db-8fc4-d0fd040c2a60","system_id":"levelo_inurba_marseille","lat":43.29091,"lon":5.38119,"is_reserved":false,"is_disabled":false,"rental_uris":{"android":"levelo://app?vid=8e435477-8680-48db-8fc4-d0fd040c2a60","ios":"levelo://app?vid=8e435477-8680-48db-8fc4-d0fd040c2a60"},"vehicle_type_id":"4","last_reported":1736374107,"current_range_meters":28800,"station_id":"ce4bh512rcd13ifvqe2g","pricing_plan_id":"cebpf4jnsgd1na2vs0mg"},{"bike_id":"6f1ee490-7bc4-42e0-b607-6e7265faac75","system_id":"levelo_inurba_marseille","lat":43.26679,"lon":5.38262,"is_reserved":false,"is_disabled":false,"rental_uris":{"android":"levelo://app?vid=6f1ee490-7bc4-42e0-b607-6e7265faac75","ios":"levelo://app?vid=6f1ee490-7bc4-42e0-b607-6e7265faac75"},"vehicle_type_id":"4","last_reported":1736374107,"current_range_meters":38800,"station_id":"ce4bhg92rcd13ifvqf90","pricing_plan_id":"cebpf4jnsgd1na2vs0mg"},{"bike_id":"2521e2ab-d3d0-4401-aa84-15ce3c1bee78","system_id":"levelo_inurba_marseille","lat":43.31723,"lon":5.42389,"is_reserved":false,"is_disabled":false,"rental_uris":{"android":"levelo://app?vid=2521e2ab-d3d0-4401-aa84-15ce3c1bee78","ios":"levelo://app?vid=2521e2ab-d3d0-4401-aa84-15ce3c1bee78"},"vehicle_type_id":"4","last_reported":1736374107,"current_range_meters":38800,"station_id":"ce4bhp92rcd13ifvqhbg","pricing_plan_id":"cebpf4jnsgd1na2vs0mg"},{"bike_id":"705157bd-db76-408e-8a69-66f12909cb65","system_id":"levelo_inurba_marseille","lat":43.26942,"lon":5.38903,"is_reserved":false,"is_disabled":false,"rental_uris":{"android":"levelo://app?vid=705157bd-db76-408e-8a69-66f12909cb65","ios":"levelo://app?vid=705157bd-db76-408e-8a69-66f12909cb65"},"vehicle_type_id":"4","last_reported":1736374107,"current_range_meters":38800,"station_id":"ce4bhhh2rcd13ifvqfl0","pricing_plan_id":"cebpf4jnsgd1na2vs0mg"},{"bike_id":"afbc7259-67ea-4497-bd55-b1eb5f81e40e","system_id":"levelo_inurba_marseille","lat":43.29031,"lon":5.35663,"is_reserved":false,"is_disabled":false,"rental_uris":{"android":"levelo://app?vid=afbc7259-67ea-4497-bd55-b1eb5f81e40e","ios":"levelo://app?vid=afbc7259-67ea-4497-bd55-b1eb5f81e40e"},"vehicle_type_id":"4","last_reported":1736374107,"current_range_meters":18000,"station_id":"ce4bhb92rcd13ifvqen0","pricing_plan_id":"cebpf4jnsgd1na2vs0mg"},{"bike_id":"0db9e203-6e4d-486b-a02e-43dd6c54be0e","system_id":"levelo_inurba_marseille","lat":43.30135,"lon":5.39874,"is_reserved":false,"is_disabled":false,"rental_uris":{"android":"levelo://app?vid=0db9e203-6e4d-486b-a02e-43dd6c54be0e","ios":"levelo://app?vid=0db9e203-6e4d-486b-a02e-43dd6c54be0e"},"vehicle_type_id":"4","last_reported":1736374107,"current_range_meters":38800,"station_id":"ce4bh0h2rcd13ifvqd40","pricing_plan_id":"cebpf4jnsgd1na2vs0mg"},{"bike_id":"bd2625b1-3fbd-4bba-be12-e2b9bac661f2","system_id":"levelo_inurba_marseille","lat":43.30265,"lon":5.40066,"is_reserved":false,"is_disabled":false,"rental_uris":{"android":"levelo://app?vid=bd2625b1-3fbd-4bba-be12-e2b9bac661f2","ios":"levelo://app?vid=bd2625b1-3fbd-4bba-be12-e2b9bac661f2"},"vehicle_type_id":"4","last_reported":1736374107,"current_range_meters":38800,"station_id":"ce4bgvh2rcd13ifvqcs0","pricing_plan_id":"cebpf4jnsgd1na2vs0mg"},{"bike_id":"61f80575-9f0e-4647-b8bb-2460d9473614","system_id":"levelo_inurba_marseille","lat":43.27553,"lon":5.38434,"is_reserved":false,"is_disabled":false,"rental_uris":{"android":"levelo://app?vid=61f80575-9f0e-4647-b8bb-2460d9473614","ios":"levelo://app?vid=61f80575-9f0e-4647-b8bb-2460d9473614"},"vehicle_type_id":"4","last_reported":1736374107,"current_range_meters":38800,"station_id":"ce4bhh92rcd13ifvqfi0","pricing_plan_id":"cebpf4jnsgd1na2vs0mg"},{"bike_id":"04a71345-bd90-46a9-b180-f515a07fa0f8","system_id":"levelo_inurba_marseille","lat":43.30302,"lon":5.3921,"is_reserved":false,"is_disabled":false,"rental_uris":{"android":"levelo://app?vid=04a71345-bd90-46a9-b180-f515a07fa0f8","ios":"levelo://app?vid=04a71345-bd90-46a9-b180-f515a07fa0f8"},"vehicle_type_id":"4","last_reported":1736374107,"current_range_meters":38400,"station_id":"ce4bgkh2rcd13ifvqbk0","pricing_plan_id":"cebpf4jnsgd1na2vs0mg"},{"bike_id":"3e9af0f3-c885-4d2f-828e-990566482751","system_id":"levelo_inurba_marseille","lat":43.31383,"lon":5.38492,"is_reserved":false,"is_disabled":true,"rental_uris":{"android":"levelo://app?vid=3e9af0f3-c885-4d2f-828e-990566482751","ios":"levelo://app?vid=3e9af0f3-c885-4d2f-828e-990566482751"},"vehicle_type_id":"4","last_reported":1736374107,"current_range_meters":0,"station_id":"ce4bgt92rcd13ifvqcf0","pricing_plan_id":"cebpf4jnsgd1na2vs0mg"},{"bike_id":"088eed0f-2f77-42a9-9771-571bb978c2de","system_id":"levelo_inurba_marseille","lat":43.28732,"lon":5.36069,"is_reserved":false,"is_disabled":false,"rental_uris":{"android":"levelo://app?vid=088eed0f-2f77-42a9-9771-571bb978c2de","ios":"levelo://app?vid=088eed0f-2f77-42a9-9771-571bb978c2de"},"vehicle_type_id":"4","last_reported":1736374107,"current_range_meters":37600,"station_id":"cki0cbj6b192h4jlfktg","pricing_plan_id":"cebpf4jnsgd1na2vs0mg"},{"bike_id":"b21dcf80-509b-405b-bb35-c7b3d9eba343","system_id":"levelo_inurba_marseille","lat":43.2707,"lon":5.42271,"is_reserved":false,"is_disabled":false,"rental_uris":{"android":"levelo://app?vid=b21dcf80-509b-405b-bb35-c7b3d9eba343","ios":"levelo://app?vid=b21dcf80-509b-405b-bb35-c7b3d9eba343"},"vehicle_type_id":"4","last_reported":1736374107,"current_range_meters":38800,"station_id":"ce4bhk92rcd13ifvqgb0","pricing_plan_id":"cebpf4jnsgd1na2vs0mg"},{"bike_id":"37d8e1ef-d932-49d7-b893-49542cf44d13","system_id":"levelo_inurba_marseille","lat":43.32345,"lon":5.40629,"is_reserved":false,"is_disabled":true,"rental_uris":{"android":"levelo://app?vid=37d8e1ef-d932-49d7-b893-49542cf44d13","ios":"levelo://app?vid=37d8e1ef-d932-49d7-b893-49542cf44d13"},"vehicle_type_id":"4","last_reported":1736374107,"current_range_meters":0,"station_id":"ce4bhq92rcd13ifvqhjg","pricing_plan_id":"cebpf4jnsgd1na2vs0mg"},{"bike_id":"32a4fb87-34f7-41cc-a1bf-df05e6828b58","system_id":"levelo_inurba_marseille","lat":43.31324,"lon":5.397,"is_reserved":false,"is_disabled":false,"rental_uris":{"android":"levelo://app?vid=32a4fb87-34f7-41cc-a1bf-df05e6828b58","ios":"levelo://app?vid=32a4fb87-34f7-41cc-a1bf-df05e6828b58"},"vehicle_type_id":"4","last_reported":1736374107,"current_range_meters":39200,"station_id":"ce4bgvp2rcd13ifvqcu0","pricing_plan_id":"cebpf4jnsgd1na2vs0mg"},{"bike_id":"a31dbb2d-226d-4c95-a43e-fc7a54783140","system_id":"levelo_inurba_marseille","lat":43.29921,"lon":5.37485,"is_reserved":false,"is_disabled":false,"rental_uris":{"android":"levelo://app?vid=a31dbb2d-226d-4c95-a43e-fc7a54783140","ios":"levelo://app?vid=a31dbb2d-226d-4c95-a43e-fc7a54783140"},"vehicle_type_id":"4","last_reported":1736374107,"current_range_meters":38000,"station_id":"ce4bgjh2rcd13ifvqbg0","pricing_plan_id":"cebpf4jnsgd1na2vs0mg"},{"bike_id":"3b7632aa-402d-4c76-9843-c492f60f6fda","system_id":"levelo_inurba_marseille","lat":43.30245,"lon":5.40057,"is_reserved":false,"is_disabled":false,"rental_uris":{"android":"levelo://app?vid=3b7632aa-402d-4c76-9843-c492f60f6fda","ios":"levelo://app?vid=3b7632aa-402d-4c76-9843-c492f60f6fda"},"vehicle_type_id":"4","last_reported":1736374107,"current_range_meters":30400,"station_id":"ce4bgvh2rcd13ifvqcs0","pricing_plan_id":"cebpf4jnsgd1na2vs0mg"},{"bike_id":"38dfc8fb-ea1c-45fb-9111-06f55dd590b6","system_id":"levelo_inurba_marseille","lat":43.29029,"lon":5.38636,"is_reserved":false,"is_disabled":false,"rental_uris":{"android":"levelo://app?vid=38dfc8fb-ea1c-45fb-9111-06f55dd590b6","ios":"levelo://app?vid=38dfc8fb-ea1c-45fb-9111-06f55dd590b6"},"vehicle_type_id":"4","last_reported":1736374107,"current_range_meters":23200,"station_id":"ce4bh4p2rcd13ifvqe0g","pricing_plan_id":"cebpf4jnsgd1na2vs0mg"},{"bike_id":"63c817a8-7fe4-4bba-9c1c-70e578257f97","system_id":"levelo_inurba_marseille","lat":43.23966,"lon":5.36629,"is_reserved":false,"is_disabled":false,"rental_uris":{"android":"levelo://app?vid=63c817a8-7fe4-4bba-9c1c-70e578257f97","ios":"levelo://app?vid=63c817a8-7fe4-4bba-9c1c-70e578257f97"},"vehicle_type_id":"4","last_reported":1736374107,"current_range_meters":38800,"station_id":"ce4bhi12rcd13ifvqfp0","pricing_plan_id":"cebpf4jnsgd1na2vs0mg"},{"bike_id":"9b2f55e0-edd8-4d6c-b73b-00ee1872c633","system_id":"levelo_inurba_marseille","lat":43.33026,"lon":5.39044,"is_reserved":false,"is_disabled":false,"rental_uris":{"android":"levelo://app?vid=9b2f55e0-edd8-4d6c-b73b-00ee1872c633","ios":"levelo://app?vid=9b2f55e0-edd8-4d6c-b73b-00ee1872c633"},"vehicle_type_id":"4","last_reported":1736374107,"current_range_meters":11600,"station_id":"ce4bhr92rcd13ifvqhrg","pricing_plan_id":"cebpf4jnsgd1na2vs0mg"},{"bike_id":"fea1fffd-c565-46f1-9be8-c63252d1995f","system_id":"levelo_inurba_marseille","lat":43.30802,"lon":5.38173,"is_reserved":false,"is_disabled":false,"rental_uris":{"android":"levelo://app?vid=fea1fffd-c565-46f1-9be8-c63252d1995f","ios":"levelo://app?vid=fea1fffd-c565-46f1-9be8-c63252d1995f"},"vehicle_type_id":"4","last_reported":1736374107,"current_range_meters":38800,"station_id":"ce4bgt12rcd13ifvqce0","pricing_plan_id":"cebpf4jnsgd1na2vs0mg"},{"bike_id":"3a77ca4d-f207-4f1c-958f-bb3e3a5a4d4b","system_id":"levelo_inurba_marseille","lat":43.25103,"lon":5.40345,"is_reserved":false,"is_disabled":false,"rental_uris":{"android":"levelo://app?vid=3a77ca4d-f207-4f1c-958f-bb3e3a5a4d4b","ios":"levelo://app?vid=3a77ca4d-f207-4f1c-958f-bb3e3a5a4d4b"},"vehicle_type_id":"4","last_reported":1736374107,"current_range_meters":34000,"station_id":"ce4bhlh2rcd13ifvqgig","pricing_plan_id":"cebpf4jnsgd1na2vs0mg"},{"bike_id":"924ad5ad-c210-4ddc-8b94-db960c18c9c4","system_id":"levelo_inurba_marseille","lat":43.29883,"lon":5.39747,"is_reserved":false,"is_disabled":false,"rental_uris":{"android":"levelo://app?vid=924ad5ad-c210-4ddc-8b94-db960c18c9c4","ios":"levelo://app?vid=924ad5ad-c210-4ddc-8b94-db960c18c9c4"},"vehicle_type_id":"4","last_reported":1736374107,"current_range_meters":32800,"station_id":"ce4bh0h2rcd13ifvqd50","pricing_plan_id":"cebpf4jnsgd1na2vs0mg"},{"bike_id":"3bab732f-9d7b-4bd9-ae0c-18b5ee50ed85","system_id":"levelo_inurba_marseille","lat":43.30264,"lon":5.40073,"is_reserved":false,"is_disabled":false,"rental_uris":{"android":"levelo://app?vid=3bab732f-9d7b-4bd9-ae0c-18b5ee50ed85","ios":"levelo://app?vid=3bab732f-9d7b-4bd9-ae0c-18b5ee50ed85"},"vehicle_type_id":"4","last_reported":1736374107,"current_range_meters":28800,"station_id":"ce4bgvh2rcd13ifvqcs0","pricing_plan_id":"cebpf4jnsgd1na2vs0mg"},{"bike_id":"59043b71-4b9c-41d6-9ae4-c5123970f427","system_id":"levelo_inurba_marseille","lat":43.28698,"lon":5.39983,"is_reserved":false,"is_disabled":false,"rental_uris":{"android":"levelo://app?vid=59043b71-4b9c-41d6-9ae4-c5123970f427","ios":"levelo://app?vid=59043b71-4b9c-41d6-9ae4-c5123970f427"},"vehicle_type_id":"4","last_reported":1736374107,"current_range_meters":22000,"station_id":"ce4bho92rcd13ifvqh3g","pricing_plan_id":"cebpf4jnsgd1na2vs0mg"},{"bike_id":"f162e091-eaf8-40f8-b4ce-6d0b5a00bdb2","system_id":"levelo_inurba_marseille","lat":43.28038,"lon":5.36943,"is_reserved":false,"is_disabled":false,"rental_uris":{"android":"levelo://app?vid=f162e091-eaf8-40f8-b4ce-6d0b5a00bdb2","ios":"levelo://app?vid=f162e091-eaf8-40f8-b4ce-6d0b5a00bdb2"},"vehicle_type_id":"4","last_reported":1736374107,"current_range_meters":32800,"station_id":"ce4bha12rcd13ifvqef0","pricing_plan_id":"cebpf4jnsgd1na2vs0mg"},{"bike_id":"e11e8f93-513f-46bb-8751-382c363b5515","system_id":"levelo_inurba_marseille","lat":43.28066,"lon":5.39618,"is_reserved":false,"is_disabled":false,"rental_uris":{"android":"levelo://app?vid=e11e8f93-513f-46bb-8751-382c363b5515","ios":"levelo://app?vid=e11e8f93-513f-46bb-8751-382c363b5515"},"vehicle_type_id":"4","last_reported":1736374107,"current_range_meters":8000,"station_id":"ce4bho12rcd13ifvqh2g","pricing_plan_id":"cebpf4jnsgd1na2vs0mg"},{"bike_id":"ba29c5b7-bc9d-4bd3-83cb-d5efa0b17840","system_id":"levelo_inurba_marseille","lat":43.29014,"lon":5.3862,"is_reserved":false,"is_disabled":false,"rental_uris":{"android":"levelo://app?vid=ba29c5b7-bc9d-4bd3-83cb-d5efa0b17840","ios":"levelo://app?vid=ba29c5b7-bc9d-4bd3-83cb-d5efa0b17840"},"vehicle_type_id":"4","last_reported":1736374107,"current_range_meters":16000,"station_id":"ce4bh4p2rcd13ifvqe0g","pricing_plan_id":"cebpf4jnsgd1na2vs0mg"},{"bike_id":"c24332a9-0468-4914-8e3e-448cea1e0446","system_id":"levelo_inurba_marseille","lat":43.31069,"lon":5.38379,"is_reserved":false,"is_disabled":false,"rental_uris":{"android":"levelo://app?vid=c24332a9-0468-4914-8e3e-448cea1e0446","ios":"levelo://app?vid=c24332a9-0468-4914-8e3e-448cea1e0446"},"vehicle_type_id":"4","last_reported":1736374107,"current_range_meters":11200,"station_id":"ce4bgv92rcd13ifvqcr0","pricing_plan_id":"cebpf4jnsgd1na2vs0mg"},{"bike_id":"2e849a09-c051-4495-8a30-6224bfeb431b","system_id":"levelo_inurba_marseille","lat":43.27903,"lon":5.38013,"is_reserved":false,"is_disabled":false,"rental_uris":{"android":"levelo://app?vid=2e849a09-c051-4495-8a30-6224bfeb431b","ios":"levelo://app?vid=2e849a09-c051-4495-8a30-6224bfeb431b"},"vehicle_type_id":"4","last_reported":1736374107,"current_range_meters":37600,"station_id":"ce4bhf92rcd13ifvqf50","pricing_plan_id":"cebpf4jnsgd1na2vs0mg"},{"bike_id":"60ce1b70-e47d-4caf-abee-52e7d5bfe299","system_id":"levelo_inurba_marseille","lat":43.24646,"lon":5.38886,"is_reserved":false,"is_disabled":false,"rental_uris":{"android":"levelo://app?vid=60ce1b70-e47d-4caf-abee-52e7d5bfe299","ios":"levelo://app?vid=60ce1b70-e47d-4caf-abee-52e7d5bfe299"},"vehicle_type_id":"4","last_reported":1736374107,"current_range_meters":38800,"station_id":"ce4bhg12rcd13ifvqf60","pricing_plan_id":"cebpf4jnsgd1na2vs0mg"},{"bike_id":"cf23d6f0-b4d6-4804-b338-55491bb0fdd4","system_id":"levelo_inurba_marseille","lat":43.30785,"lon":5.38149,"is_reserved":false,"is_disabled":false,"rental_uris":{"android":"levelo://app?vid=cf23d6f0-b4d6-4804-b338-55491bb0fdd4","ios":"levelo://app?vid=cf23d6f0-b4d6-4804-b338-55491bb0fdd4"},"vehicle_type_id":"4","last_reported":1736374107,"current_range_meters":32000,"station_id":"ce4bgt12rcd13ifvqce0","pricing_plan_id":"cebpf4jnsgd1na2vs0mg"},{"bike_id":"5459b7d3-63f4-48c6-b477-8f2d1d2004c2","system_id":"levelo_inurba_marseille","lat":43.306514,"lon":5.400986,"is_reserved":false,"is_disabled":false,"rental_uris":{"android":"levelo://app?vid=5459b7d3-63f4-48c6-b477-8f2d1d2004c2","ios":"levelo://app?vid=5459b7d3-63f4-48c6-b477-8f2d1d2004c2"},"vehicle_type_id":"4","last_reported":1736374107,"current_range_meters":34800,"station_id":"ce4bh112rcd13ifvqda0","pricing_plan_id":"cebpf4jnsgd1na2vs0mg"},{"bike_id":"33e0e95a-bdcb-4c07-ac3f-010317a7178d","system_id":"levelo_inurba_marseille","lat":43.27172,"lon":5.40991,"is_reserved":false,"is_disabled":false,"rental_uris":{"android":"levelo://app?vid=33e0e95a-bdcb-4c07-ac3f-010317a7178d","ios":"levelo://app?vid=33e0e95a-bdcb-4c07-ac3f-010317a7178d"},"vehicle_type_id":"4","last_reported":1736374107,"current_range_meters":6800,"station_id":"ce4bhl12rcd13ifvqgf0","pricing_plan_id":"cebpf4jnsgd1na2vs0mg"},{"bike_id":"2ff8706d-52c6-4cba-98b4-c8e945f8cf78","system_id":"levelo_inurba_marseille","lat":43.2921,"lon":5.35828,"is_reserved":false,"is_disabled":false,"rental_uris":{"android":"levelo://app?vid=2ff8706d-52c6-4cba-98b4-c8e945f8cf78","ios":"levelo://app?vid=2ff8706d-52c6-4cba-98b4-c8e945f8cf78"},"vehicle_type_id":"4","last_reported":1736374107,"current_range_meters":38800,"station_id":"ce4bhb12rcd13ifvqel0","pricing_plan_id":"cebpf4jnsgd1na2vs0mg"},{"bike_id":"22b674e4-ddb8-4af9-805f-1c0f8e6dbb2e","system_id":"levelo_inurba_marseille","lat":43.286156,"lon":5.351014,"is_reserved":false,"is_disabled":false,"rental_uris":{"android":"levelo://app?vid=22b674e4-ddb8-4af9-805f-1c0f8e6dbb2e","ios":"levelo://app?vid=22b674e4-ddb8-4af9-805f-1c0f8e6dbb2e"},"vehicle_type_id":"4","last_reported":1736374107,"current_range_meters":27600,"station_id":"ce4bhch2rcd13ifvqeug","pricing_plan_id":"cebpf4jnsgd1na2vs0mg"},{"bike_id":"01da78b9-bf8c-4af1-ac40-8283bd8b12b3","system_id":"levelo_inurba_marseille","lat":43.299,"lon":5.43664,"is_reserved":false,"is_disabled":true,"rental_uris":{"android":"levelo://app?vid=01da78b9-bf8c-4af1-ac40-8283bd8b12b3","ios":"levelo://app?vid=01da78b9-bf8c-4af1-ac40-8283bd8b12b3"},"vehicle_type_id":"4","last_reported":1736374107,"current_range_meters":19200,"station_id":"ce4bhpp2rcd13ifvqhfg","pricing_plan_id":"cebpf4jnsgd1na2vs0mg"},{"bike_id":"48ce03f6-f3a8-490e-8671-5ca1c760d650","system_id":"levelo_inurba_marseille","lat":43.28943,"lon":5.36622,"is_reserved":false,"is_disabled":true,"rental_uris":{"android":"levelo://app?vid=48ce03f6-f3a8-490e-8671-5ca1c760d650","ios":"levelo://app?vid=48ce03f6-f3a8-490e-8671-5ca1c760d650"},"vehicle_type_id":"4","last_reported":1736374107,"current_range_meters":37600,"station_id":"ce4bhap2rcd13ifvqek0","pricing_plan_id":"cebpf4jnsgd1na2vs0mg"},{"bike_id":"1d27be0d-961c-4e0d-8ce0-c23bf855f1df","system_id":"levelo_inurba_marseille","lat":43.28273,"lon":5.3508,"is_reserved":false,"is_disabled":false,"rental_uris":{"android":"levelo://app?vid=1d27be0d-961c-4e0d-8ce0-c23bf855f1df","ios":"levelo://app?vid=1d27be0d-961c-4e0d-8ce0-c23bf855f1df"},"vehicle_type_id":"4","last_reported":1736374107,"current_range_meters":38800,"station_id":"ce4bhbp2rcd13ifvqerg","pricing_plan_id":"cebpf4jnsgd1na2vs0mg"},{"bike_id":"ea755274-d4ae-44fe-b6cb-80a7dcfbba79","system_id":"levelo_inurba_marseille","lat":43.29885,"lon":5.38915,"is_reserved":false,"is_disabled":false,"rental_uris":{"android":"levelo://app?vid=ea755274-d4ae-44fe-b6cb-80a7dcfbba79","ios":"levelo://app?vid=ea755274-d4ae-44fe-b6cb-80a7dcfbba79"},"vehicle_type_id":"4","last_reported":1736374107,"current_range_meters":32400,"station_id":"ce4bh392rcd13ifvqdl0","pricing_plan_id":"cebpf4jnsgd1na2vs0mg"},{"bike_id":"baed37d9-12de-44ee-9b42-4d103c2ba688","system_id":"levelo_inurba_marseille","lat":43.28243,"lon":5.38806,"is_reserved":false,"is_disabled":false,"rental_uris":{"android":"levelo://app?vid=baed37d9-12de-44ee-9b42-4d103c2ba688","ios":"levelo://app?vid=baed37d9-12de-44ee-9b42-4d103c2ba688"},"vehicle_type_id":"4","last_reported":1736374107,"current_range_meters":32400,"station_id":"cjm6bp8fraef2m0cb0m0","pricing_plan_id":"cebpf4jnsgd1na2vs0mg"},{"bike_id":"6c9daffc-e174-4a9a-8b3e-30a6cf4027c8","system_id":"levelo_inurba_marseille","lat":43.32104,"lon":5.36774,"is_reserved":false,"is_disabled":false,"rental_uris":{"android":"levelo://app?vid=6c9daffc-e174-4a9a-8b3e-30a6cf4027c8","ios":"levelo://app?vid=6c9daffc-e174-4a9a-8b3e-30a6cf4027c8"},"vehicle_type_id":"4","last_reported":1736374107,"current_range_meters":18000,"station_id":"ce4bhrh2rcd13ifvqhug","pricing_plan_id":"cebpf4jnsgd1na2vs0mg"},{"bike_id":"93b7e7bc-917a-4253-af1e-71755c2c5a70","system_id":"levelo_inurba_marseille","lat":43.29588,"lon":5.37719,"is_reserved":false,"is_disabled":true,"rental_uris":{"android":"levelo://app?vid=93b7e7bc-917a-4253-af1e-71755c2c5a70","ios":"levelo://app?vid=93b7e7bc-917a-4253-af1e-71755c2c5a70"},"vehicle_type_id":"4","last_reported":1736374107,"current_range_meters":14800,"station_id":"ce4bgi92rcd13ifvqb90","pricing_plan_id":"cebpf4jnsgd1na2vs0mg"},{"bike_id":"feb25d79-4952-4770-b555-c308b02b5941","system_id":"levelo_inurba_marseille","lat":43.29242,"lon":5.40804,"is_reserved":false,"is_disabled":false,"rental_uris":{"android":"levelo://app?vid=feb25d79-4952-4770-b555-c308b02b5941","ios":"levelo://app?vid=feb25d79-4952-4770-b555-c308b02b5941"},"vehicle_type_id":"4","last_reported":1736374107,"current_range_meters":21600,"station_id":"ce4bh192rcd13ifvqdc0","pricing_plan_id":"cebpf4jnsgd1na2vs0mg"},{"bike_id":"aa93e012-148e-4dfc-80c5-c18401d721dd","system_id":"levelo_inurba_marseille","lat":43.27972,"lon":5.38742,"is_reserved":false,"is_disabled":false,"rental_uris":{"android":"levelo://app?vid=aa93e012-148e-4dfc-80c5-c18401d721dd","ios":"levelo://app?vid=aa93e012-148e-4dfc-80c5-c18401d721dd"},"vehicle_type_id":"4","last_reported":1736374107,"current_range_meters":38800,"station_id":"ce4bhg12rcd13ifvqf80","pricing_plan_id":"cebpf4jnsgd1na2vs0mg"},{"bike_id":"24efe2c3-290f-4beb-8d33-5643c9baa67a","system_id":"levelo_inurba_marseille","lat":43.29788,"lon":5.39308,"is_reserved":false,"is_disabled":false,"rental_uris":{"android":"levelo://app?vid=24efe2c3-290f-4beb-8d33-5643c9baa67a","ios":"levelo://app?vid=24efe2c3-290f-4beb-8d33-5643c9baa67a"},"vehicle_type_id":"4","last_reported":1736374107,"current_range_meters":38800,"station_id":"chh1huq6cuj3fo74tm60","pricing_plan_id":"cebpf4jnsgd1na2vs0mg"},{"bike_id":"49f71cfb-5f4f-4efd-8023-2c4eb676a391","system_id":"levelo_inurba_marseille","lat":43.24177,"lon":5.36379,"is_reserved":false,"is_disabled":false,"rental_uris":{"android":"levelo://app?vid=49f71cfb-5f4f-4efd-8023-2c4eb676a391","ios":"levelo://app?vid=49f71cfb-5f4f-4efd-8023-2c4eb676a391"},"vehicle_type_id":"4","last_reported":1736374107,"current_range_meters":36400,"station_id":"cpo36qri1sfpv3e86is0","pricing_plan_id":"cebpf4jnsgd1na2vs0mg"},{"bike_id":"546fbb96-800b-4f90-be23-b4f678471f8f","system_id":"levelo_inurba_marseille","lat":43.25573,"lon":5.38235,"is_reserved":false,"is_disabled":false,"rental_uris":{"android":"levelo://app?vid=546fbb96-800b-4f90-be23-b4f678471f8f","ios":"levelo://app?vid=546fbb96-800b-4f90-be23-b4f678471f8f"},"vehicle_type_id":"4","last_reported":1736374107,"current_range_meters":15200,"station_id":"ce4bhih2rcd13ifvqfs0","pricing_plan_id":"cebpf4jnsgd1na2vs0mg"},{"bike_id":"8ef679df-5ec4-4af8-bea7-c89a17b54f97","system_id":"levelo_inurba_marseille","lat":43.32657,"lon":5.40993,"is_reserved":false,"is_disabled":false,"rental_uris":{"android":"levelo://app?vid=8ef679df-5ec4-4af8-bea7-c89a17b54f97","ios":"levelo://app?vid=8ef679df-5ec4-4af8-bea7-c89a17b54f97"},"vehicle_type_id":"4","last_reported":1736374107,"current_range_meters":28400,"station_id":"ce4bhpp2rcd13ifvqhgg","pricing_plan_id":"cebpf4jnsgd1na2vs0mg"},{"bike_id":"13017816-3ab0-484a-ae75-e5c49659e9ac","system_id":"levelo_inurba_marseille","lat":43.25083,"lon":5.39498,"is_reserved":false,"is_disabled":false,"rental_uris":{"android":"levelo://app?vid=13017816-3ab0-484a-ae75-e5c49659e9ac","ios":"levelo://app?vid=13017816-3ab0-484a-ae75-e5c49659e9ac"},"vehicle_type_id":"4","last_reported":1736374107,"current_range_meters":38800,"station_id":"ce4bhm12rcd13ifvqgkg","pricing_plan_id":"cebpf4jnsgd1na2vs0mg"},{"bike_id":"95d3448a-591f-493e-a463-7ae24e6b0478","system_id":"levelo_inurba_marseille","lat":43.30152,"lon":5.38785,"is_reserved":false,"is_disabled":true,"rental_uris":{"android":"levelo://app?vid=95d3448a-591f-493e-a463-7ae24e6b0478","ios":"levelo://app?vid=95d3448a-591f-493e-a463-7ae24e6b0478"},"vehicle_type_id":"4","last_reported":1736374107,"current_range_meters":17600,"station_id":"ce4bghh2rcd13ifvqb60","pricing_plan_id":"cebpf4jnsgd1na2vs0mg"},{"bike_id":"85bf6384-1a17-4757-9a3d-992c32bf64ed","system_id":"levelo_inurba_marseille","lat":43.32362,"lon":5.38887,"is_reserved":false,"is_disabled":false,"rental_uris":{"android":"levelo://app?vid=85bf6384-1a17-4757-9a3d-992c32bf64ed","ios":"levelo://app?vid=85bf6384-1a17-4757-9a3d-992c32bf64ed"},"vehicle_type_id":"4","last_reported":1736374107,"current_range_meters":34000,"station_id":"ce4bhqp2rcd13ifvqhog","pricing_plan_id":"cebpf4jnsgd1na2vs0mg"},{"bike_id":"5a65b83f-d577-4d9e-9266-b87c271925e6","system_id":"levelo_inurba_marseille","lat":43.2855,"lon":5.39502,"is_reserved":false,"is_disabled":false,"rental_uris":{"android":"levelo://app?vid=5a65b83f-d577-4d9e-9266-b87c271925e6","ios":"levelo://app?vid=5a65b83f-d577-4d9e-9266-b87c271925e6"},"vehicle_type_id":"4","last_reported":1736374107,"current_range_meters":38800,"station_id":"ce4bh292rcd13ifvqdg0","pricing_plan_id":"cebpf4jnsgd1na2vs0mg"},{"bike_id":"056e6a25-022b-4f1b-be62-fca4c87d1663","system_id":"levelo_inurba_marseille","lat":43.284572,"lon":5.358845,"is_reserved":false,"is_disabled":false,"rental_uris":{"android":"levelo://app?vid=056e6a25-022b-4f1b-be62-fca4c87d1663","ios":"levelo://app?vid=056e6a25-022b-4f1b-be62-fca4c87d1663"},"vehicle_type_id":"4","last_reported":1736374107,"current_range_meters":24400,"station_id":"ce4bhah2rcd13ifvqei0","pricing_plan_id":"cebpf4jnsgd1na2vs0mg"},{"bike_id":"507309ad-2c5e-4442-b16a-0a701fe1fda0","system_id":"levelo_inurba_marseille","lat":43.30548,"lon":5.36521,"is_reserved":false,"is_disabled":true,"rental_uris":{"android":"levelo://app?vid=507309ad-2c5e-4442-b16a-0a701fe1fda0","ios":"levelo://app?vid=507309ad-2c5e-4442-b16a-0a701fe1fda0"},"vehicle_type_id":"4","last_reported":1736374107,"current_range_meters":0,"station_id":"ce4bgs12rcd13ifvqcag","pricing_plan_id":"cebpf4jnsgd1na2vs0mg"},{"bike_id":"dffac218-ec8c-423e-a7ee-c9f680375aa9","system_id":"levelo_inurba_marseille","lat":43.28844,"lon":5.3588,"is_reserved":false,"is_disabled":false,"rental_uris":{"android":"levelo://app?vid=dffac218-ec8c-423e-a7ee-c9f680375aa9","ios":"levelo://app?vid=dffac218-ec8c-423e-a7ee-c9f680375aa9"},"vehicle_type_id":"4","last_reported":1736374107,"current_range_meters":24000,"station_id":"ce4bhb12rcd13ifvqem0","pricing_plan_id":"cebpf4jnsgd1na2vs0mg"},{"bike_id":"c3fed3ff-6b92-4fcd-9518-3530a380cb58","system_id":"levelo_inurba_marseille","lat":43.28933,"lon":5.36416,"is_reserved":false,"is_disabled":true,"rental_uris":{"android":"levelo://app?vid=c3fed3ff-6b92-4fcd-9518-3530a380cb58","ios":"levelo://app?vid=c3fed3ff-6b92-4fcd-9518-3530a380cb58"},"vehicle_type_id":"4","last_reported":1736374107,"current_range_meters":38800,"station_id":"ce4bhc92rcd13ifvqetg","pricing_plan_id":"cebpf4jnsgd1na2vs0mg"},{"bike_id":"1e2223a2-c032-49e7-8dbf-982df86a0520","system_id":"levelo_inurba_marseille","lat":43.22915,"lon":5.35389,"is_reserved":false,"is_disabled":false,"rental_uris":{"android":"levelo://app?vid=1e2223a2-c032-49e7-8dbf-982df86a0520","ios":"levelo://app?vid=1e2223a2-c032-49e7-8dbf-982df86a0520"},"vehicle_type_id":"4","last_reported":1736374107,"current_range_meters":38400,"station_id":"cpo3532slgdg3j2ikp40","pricing_plan_id":"cebpf4jnsgd1na2vs0mg"},{"bike_id":"cc006390-9640-4fd1-a416-bd891cffbe80","system_id":"levelo_inurba_marseille","lat":43.3053,"lon":5.36541,"is_reserved":false,"is_disabled":false,"rental_uris":{"android":"levelo://app?vid=cc006390-9640-4fd1-a416-bd891cffbe80","ios":"levelo://app?vid=cc006390-9640-4fd1-a416-bd891cffbe80"},"vehicle_type_id":"4","last_reported":1736374107,"current_range_meters":39200,"station_id":"ce4bgs12rcd13ifvqcag","pricing_plan_id":"cebpf4jnsgd1na2vs0mg"},{"bike_id":"c56b2502-6c9c-45cc-90bd-6a7bee2ed06a","system_id":"levelo_inurba_marseille","lat":43.3148,"lon":5.37306,"is_reserved":false,"is_disabled":false,"rental_uris":{"android":"levelo://app?vid=c56b2502-6c9c-45cc-90bd-6a7bee2ed06a","ios":"levelo://app?vid=c56b2502-6c9c-45cc-90bd-6a7bee2ed06a"},"vehicle_type_id":"4","last_reported":1736374107,"current_range_meters":37600,"station_id":"ce4bgt12rcd13ifvqcd0","pricing_plan_id":"cebpf4jnsgd1na2vs0mg"},{"bike_id":"3aefb9c1-3e4a-487c-b413-b90ef97c7063","system_id":"levelo_inurba_marseille","lat":43.2408,"lon":5.37759,"is_reserved":false,"is_disabled":false,"rental_uris":{"android":"levelo://app?vid=3aefb9c1-3e4a-487c-b413-b90ef97c7063","ios":"levelo://app?vid=3aefb9c1-3e4a-487c-b413-b90ef97c7063"},"vehicle_type_id":"4","last_reported":1736374107,"current_range_meters":18000,"station_id":"ce4bhnp2rcd13ifvqgvg","pricing_plan_id":"cebpf4jnsgd1na2vs0mg"},{"bike_id":"be8a233f-ad85-41b2-af03-bfa1e3033438","system_id":"levelo_inurba_marseille","lat":43.23196,"lon":5.35549,"is_reserved":false,"is_disabled":false,"rental_uris":{"android":"levelo://app?vid=be8a233f-ad85-41b2-af03-bfa1e3033438","ios":"levelo://app?vid=be8a233f-ad85-41b2-af03-bfa1e3033438"},"vehicle_type_id":"4","last_reported":1736374107,"current_range_meters":30400,"station_id":"ce4bhu92rcd13ifvqi70","pricing_plan_id":"cebpf4jnsgd1na2vs0mg"},{"bike_id":"05a63b2f-40ac-4d1f-ba14-bedb0da7e726","system_id":"levelo_inurba_marseille","lat":43.28696,"lon":5.39971,"is_reserved":false,"is_disabled":false,"rental_uris":{"android":"levelo://app?vid=05a63b2f-40ac-4d1f-ba14-bedb0da7e726","ios":"levelo://app?vid=05a63b2f-40ac-4d1f-ba14-bedb0da7e726"},"vehicle_type_id":"4","last_reported":1736374107,"current_range_meters":38800,"station_id":"ce4bho92rcd13ifvqh3g","pricing_plan_id":"cebpf4jnsgd1na2vs0mg"},{"bike_id":"4120c69b-ef0d-47c6-8f0b-c46a7a3f4540","system_id":"levelo_inurba_marseille","lat":43.29804,"lon":5.40401,"is_reserved":false,"is_disabled":false,"rental_uris":{"android":"levelo://app?vid=4120c69b-ef0d-47c6-8f0b-c46a7a3f4540","ios":"levelo://app?vid=4120c69b-ef0d-47c6-8f0b-c46a7a3f4540"},"vehicle_type_id":"4","last_reported":1736374107,"current_range_meters":38800,"station_id":"ce4bh112rcd13ifvqd90","pricing_plan_id":"cebpf4jnsgd1na2vs0mg"},{"bike_id":"cd307db6-26a0-4b26-9cd1-a83bb943510f","system_id":"levelo_inurba_marseille","lat":43.28697,"lon":5.3739,"is_reserved":false,"is_disabled":false,"rental_uris":{"android":"levelo://app?vid=cd307db6-26a0-4b26-9cd1-a83bb943510f","ios":"levelo://app?vid=cd307db6-26a0-4b26-9cd1-a83bb943510f"},"vehicle_type_id":"4","last_reported":1736374107,"current_range_meters":28400,"station_id":"ce4bh3p2rcd13ifvqdq0","pricing_plan_id":"cebpf4jnsgd1na2vs0mg"},{"bike_id":"be7fc417-ef72-43b0-9156-ea18f8112719","system_id":"levelo_inurba_marseille","lat":43.30452,"lon":5.38897,"is_reserved":false,"is_disabled":false,"rental_uris":{"android":"levelo://app?vid=be7fc417-ef72-43b0-9156-ea18f8112719","ios":"levelo://app?vid=be7fc417-ef72-43b0-9156-ea18f8112719"},"vehicle_type_id":"4","last_reported":1736374107,"current_range_meters":35200,"station_id":"ce4bgk12rcd13ifvqbi0","pricing_plan_id":"cebpf4jnsgd1na2vs0mg"},{"bike_id":"2555e9c2-41eb-42cc-8360-399e32805217","system_id":"levelo_inurba_marseille","lat":43.29616,"lon":5.37702,"is_reserved":false,"is_disabled":true,"rental_uris":{"android":"levelo://app?vid=2555e9c2-41eb-42cc-8360-399e32805217","ios":"levelo://app?vid=2555e9c2-41eb-42cc-8360-399e32805217"},"vehicle_type_id":"4","last_reported":1736374107,"current_range_meters":37600,"station_id":"ce4bgi92rcd13ifvqb90","pricing_plan_id":"cebpf4jnsgd1na2vs0mg"},{"bike_id":"37b09418-8b8b-4f62-8a31-a029fe162ab7","system_id":"levelo_inurba_marseille","lat":43.29517,"lon":5.39409,"is_reserved":false,"is_disabled":false,"rental_uris":{"android":"levelo://app?vid=37b09418-8b8b-4f62-8a31-a029fe162ab7","ios":"levelo://app?vid=37b09418-8b8b-4f62-8a31-a029fe162ab7"},"vehicle_type_id":"4","last_reported":1736374107,"current_range_meters":20800,"station_id":"ce4bh292rcd13ifvqdf0","pricing_plan_id":"cebpf4jnsgd1na2vs0mg"},{"bike_id":"69045d54-9c36-4d48-847e-d5856ff620cc","system_id":"levelo_inurba_marseille","lat":43.28038,"lon":5.36945,"is_reserved":false,"is_disabled":false,"rental_uris":{"android":"levelo://app?vid=69045d54-9c36-4d48-847e-d5856ff620cc","ios":"levelo://app?vid=69045d54-9c36-4d48-847e-d5856ff620cc"},"vehicle_type_id":"4","last_reported":1736374107,"current_range_meters":21600,"station_id":"ce4bha12rcd13ifvqef0","pricing_plan_id":"cebpf4jnsgd1na2vs0mg"},{"bike_id":"f8c3b9cf-852c-4533-977a-e93b7328e3a3","system_id":"levelo_inurba_marseille","lat":43.28467,"lon":5.35889,"is_reserved":false,"is_disabled":false,"rental_uris":{"android":"levelo://app?vid=f8c3b9cf-852c-4533-977a-e93b7328e3a3","ios":"levelo://app?vid=f8c3b9cf-852c-4533-977a-e93b7328e3a3"},"vehicle_type_id":"4","last_reported":1736374107,"current_range_meters":18800,"station_id":"ce4bhah2rcd13ifvqei0","pricing_plan_id":"cebpf4jnsgd1na2vs0mg"},{"bike_id":"83f2499c-8298-4af9-b340-a84d89af26b3","system_id":"levelo_inurba_marseille","lat":43.25882,"lon":5.39896,"is_reserved":false,"is_disabled":false,"rental_uris":{"android":"levelo://app?vid=83f2499c-8298-4af9-b340-a84d89af26b3","ios":"levelo://app?vid=83f2499c-8298-4af9-b340-a84d89af26b3"},"vehicle_type_id":"4","last_reported":1736374107,"current_range_meters":6000,"station_id":"ce4bhl92rcd13ifvqghg","pricing_plan_id":"cebpf4jnsgd1na2vs0mg"},{"bike_id":"0686a8cb-2b76-4424-87d1-4f58c91d61f2","system_id":"levelo_inurba_marseille","lat":43.25712,"lon":5.41118,"is_reserved":false,"is_disabled":false,"rental_uris":{"android":"levelo://app?vid=0686a8cb-2b76-4424-87d1-4f58c91d61f2","ios":"levelo://app?vid=0686a8cb-2b76-4424-87d1-4f58c91d61f2"},"vehicle_type_id":"4","last_reported":1736374107,"current_range_meters":38800,"station_id":"ce4bhkp2rcd13ifvqgd0","pricing_plan_id":"cebpf4jnsgd1na2vs0mg"},{"bike_id":"c7692741-6326-44f7-884d-fd5406ac9fd5","system_id":"levelo_inurba_marseille","lat":43.3013,"lon":5.39868,"is_reserved":false,"is_disabled":false,"rental_uris":{"android":"levelo://app?vid=c7692741-6326-44f7-884d-fd5406ac9fd5","ios":"levelo://app?vid=c7692741-6326-44f7-884d-fd5406ac9fd5"},"vehicle_type_id":"4","last_reported":1736374107,"current_range_meters":24400,"station_id":"ce4bh0h2rcd13ifvqd40","pricing_plan_id":"cebpf4jnsgd1na2vs0mg"},{"bike_id":"1f13abda-0c2f-485b-b7d9-de8f3b464a21","system_id":"levelo_inurba_marseille","lat":43.29659,"lon":5.37727,"is_reserved":false,"is_disabled":true,"rental_uris":{"android":"levelo://app?vid=1f13abda-0c2f-485b-b7d9-de8f3b464a21","ios":"levelo://app?vid=1f13abda-0c2f-485b-b7d9-de8f3b464a21"},"vehicle_type_id":"4","last_reported":1736374107,"current_range_meters":36800,"station_id":"ce4bgi92rcd13ifvqb90","pricing_plan_id":"cebpf4jnsgd1na2vs0mg"},{"bike_id":"3102b529-7a6c-418e-b23a-1ed52ff4b4ce","system_id":"levelo_inurba_marseille","lat":43.30134,"lon":5.38778,"is_reserved":false,"is_disabled":false,"rental_uris":{"android":"levelo://app?vid=3102b529-7a6c-418e-b23a-1ed52ff4b4ce","ios":"levelo://app?vid=3102b529-7a6c-418e-b23a-1ed52ff4b4ce"},"vehicle_type_id":"4","last_reported":1736374107,"current_range_meters":26800,"station_id":"ce4bghh2rcd13ifvqb60","pricing_plan_id":"cebpf4jnsgd1na2vs0mg"},{"bike_id":"ca5b73b8-bbae-4af5-a5a9-ad3889f9d436","system_id":"levelo_inurba_marseille","lat":43.27362,"lon":5.36251,"is_reserved":false,"is_disabled":false,"rental_uris":{"android":"levelo://app?vid=ca5b73b8-bbae-4af5-a5a9-ad3889f9d436","ios":"levelo://app?vid=ca5b73b8-bbae-4af5-a5a9-ad3889f9d436"},"vehicle_type_id":"4","last_reported":1736374107,"current_range_meters":38800,"station_id":"ce4bhbh2rcd13ifvqeo0","pricing_plan_id":"cebpf4jnsgd1na2vs0mg"},{"bike_id":"ad28bd53-1c8c-44ea-9a1c-1e5a5b2498fe","system_id":"levelo_inurba_marseille","lat":43.24172,"lon":5.36378,"is_reserved":false,"is_disabled":false,"rental_uris":{"android":"levelo://app?vid=ad28bd53-1c8c-44ea-9a1c-1e5a5b2498fe","ios":"levelo://app?vid=ad28bd53-1c8c-44ea-9a1c-1e5a5b2498fe"},"vehicle_type_id":"4","last_reported":1736374107,"current_range_meters":17600,"station_id":"cpo36qri1sfpv3e86is0","pricing_plan_id":"cebpf4jnsgd1na2vs0mg"},{"bike_id":"924962a0-4817-4d37-8373-f1fda8a0baf9","system_id":"levelo_inurba_marseille","lat":43.2928,"lon":5.40121,"is_reserved":false,"is_disabled":false,"rental_uris":{"android":"levelo://app?vid=924962a0-4817-4d37-8373-f1fda8a0baf9","ios":"levelo://app?vid=924962a0-4817-4d37-8373-f1fda8a0baf9"},"vehicle_type_id":"4","last_reported":1736374107,"current_range_meters":35200,"station_id":"ce4bh312rcd13ifvqdk0","pricing_plan_id":"cebpf4jnsgd1na2vs0mg"},{"bike_id":"0b6a8a3c-f12f-4c89-83b5-82fb55ed042b","system_id":"levelo_inurba_marseille","lat":43.28699,"lon":5.39981,"is_reserved":false,"is_disabled":false,"rental_uris":{"android":"levelo://app?vid=0b6a8a3c-f12f-4c89-83b5-82fb55ed042b","ios":"levelo://app?vid=0b6a8a3c-f12f-4c89-83b5-82fb55ed042b"},"vehicle_type_id":"4","last_reported":1736374107,"current_range_meters":12000,"station_id":"ce4bho92rcd13ifvqh3g","pricing_plan_id":"cebpf4jnsgd1na2vs0mg"},{"bike_id":"3b46a4ed-74ee-409d-9a0b-977e6a987106","system_id":"levelo_inurba_marseille","lat":43.31699,"lon":5.37773,"is_reserved":false,"is_disabled":true,"rental_uris":{"android":"levelo://app?vid=3b46a4ed-74ee-409d-9a0b-977e6a987106","ios":"levelo://app?vid=3b46a4ed-74ee-409d-9a0b-977e6a987106"},"vehicle_type_id":"4","last_reported":1736374107,"current_range_meters":37600,"station_id":"ce4bgth2rcd13ifvqch0","pricing_plan_id":"cebpf4jnsgd1na2vs0mg"},{"bike_id":"f5ea98b5-ebe9-4c9e-af48-e393603ce84f","system_id":"levelo_inurba_marseille","lat":43.29801,"lon":5.40407,"is_reserved":false,"is_disabled":false,"rental_uris":{"android":"levelo://app?vid=f5ea98b5-ebe9-4c9e-af48-e393603ce84f","ios":"levelo://app?vid=f5ea98b5-ebe9-4c9e-af48-e393603ce84f"},"vehicle_type_id":"4","last_reported":1736374107,"current_range_meters":36800,"station_id":"ce4bh112rcd13ifvqd90","pricing_plan_id":"cebpf4jnsgd1na2vs0mg"},{"bike_id":"46afa4bc-c930-44a2-adc9-94c8f932b324","system_id":"levelo_inurba_marseille","lat":43.28711,"lon":5.36427,"is_reserved":false,"is_disabled":false,"rental_uris":{"android":"levelo://app?vid=46afa4bc-c930-44a2-adc9-94c8f932b324","ios":"levelo://app?vid=46afa4bc-c930-44a2-adc9-94c8f932b324"},"vehicle_type_id":"4","last_reported":1736374107,"current_range_meters":8800,"station_id":"","pricing_plan_id":"cebpf4jnsgd1na2vs0mg"},{"bike_id":"84124f1a-469a-4379-8f7f-2c9524f70029","system_id":"levelo_inurba_marseille","lat":43.28699,"lon":5.37413,"is_reserved":false,"is_disabled":false,"rental_uris":{"android":"levelo://app?vid=84124f1a-469a-4379-8f7f-2c9524f70029","ios":"levelo://app?vid=84124f1a-469a-4379-8f7f-2c9524f70029"},"vehicle_type_id":"4","last_reported":1736374107,"current_range_meters":35600,"station_id":"ce4bh3p2rcd13ifvqdq0","pricing_plan_id":"cebpf4jnsgd1na2vs0mg"},