{"last_updated":1703286424,"ttl":30,"version":"2.2","data":{"bikes":[{"bike_id":"ec3214d1-0cbf-4d91-9c7b-1538d332cbaf","system_id":"levelo_inurba_marseille","lat":43.314811,"lon":5.373103,"is_reserved":false,"is_disabled":false,"rental_uris":{"android":"levelo://app?vid=ec3214d1-0cbf-4d91-9c7b-1538d332cbaf","ios":"levelo://app?vid=ec3214d1-0cbf-4d91-9c7b-1538d332cbaf"},"vehicle_type_id":"4","last_reported":1703286424,"current_range_meters":10000,"station_id":"ce4bgt12rcd13ifvqcd0","pricing_plan_id":"free"},{"bike_id":"d37d52c6-a1eb-4740-a5cc-e7935cd603f0","system_id":"levelo_inurba_marseille","lat":43.314811,"lon":5.373103,"is_reserved":false,"is_disabled":false,"rental_uris":{"android":"levelo://app?vid=d37d52c6-a1eb-4740-a5cc-e7935cd603f0","ios":"levelo://app?vid=d37d52c6-a1eb-4740-a5cc-e7935cd603f0"},"vehicle_type_id":"4","last_reported":1703286424,"current_range_meters":29200,"station_id":"ce4bgt12rcd13ifvqcd0","pricing_plan_id":"free"},{"bike_id":"9d8db9d4-b6f4-46d3-8619-672e6448567c","system_id":"levelo_inurba_marseille","lat":43.314811,"lon":5.373103,"is_reserved":false,"is_disabled":false,"rental_uris":{"android":"levelo://app?vid=9d8db9d4-b6f4-46d3-8619-672e6448567c","ios":"levelo://app?vid=9d8db9d4-b6f4-46d3-8619-672e6448567c"},"vehicle_type_id":"4","last_reported":1703286424,"current_range_meters":22800,"station_id":"ce4bgt12rcd13ifvqcd0","pricing_plan_id":"free"},{"bike_id":"fb118b0a-db0f-4e92-a91a-a6fadc82352a","system_id":"levelo_inurba_marseille","lat":43.311131,"lon":5.377651,"is_reserved":false,"is_disabled":false,"rental_uris":{"android":"levelo://app?vid=fb118b0a-db0f-4e92-a91a-a6fadc82352a","ios":"levelo://app?vid=fb118b0a-db0f-4e92-a91a-a6fadc82352a"},"vehicle_type_id":"4","last_reported":1703286424,"current_range_meters":7200,"station_id":"ce4bgt92rcd13ifvqcg0","pricing_plan_id":"free"},{"bike_id":"c2e4bb4a-aa60-408d-bd0c-233ace1fcaea","system_id":"levelo_inurba_marseille","lat":43.311125,"lon":5.377624,"is_reserved":false,"is_disabled":false,"rental_uris":{"android":"levelo://app?vid=c2e4bb4a-aa60-408d-bd0c-233ace1fcaea","ios":"levelo://app?vid=c2e4bb4a-aa60-408d-bd0c-233ace1fcaea"},"vehicle_type_id":"4","last_reported":1703286424,"current_range_meters":11600,"station_id":"ce4bgt92rcd13ifvqcg0","pricing_plan_id":"free"},{"bike_id":"bc74c432-90ab-4b82-bc0b-9716a4ccf6b2","system_id":"levelo_inurba_marseille","lat":43.317075,"lon":5.377367,"is_reserved":false,"is_disabled":false,"rental_uris":{"android":"levelo://app?vid=bc74c432-90ab-4b82-bc0b-9716a4ccf6b2","ios":"levelo://app?vid=bc74c432-90ab-4b82-bc0b-9716a4ccf6b2"},"vehicle_type_id":"4","last_reported":1703286424,"current_range_meters":17200,"station_id":"ce4bgth2rcd13ifvqch0","pricing_plan_id":"free"},{"bike_id":"31064d41-982a-4d68-957c-a6ab36a1327f","system_id":"levelo_inurba_marseille","lat":43.317075,"lon":5.377367,"is_reserved":false,"is_disabled":false,"rental_uris":{"android":"levelo://app?vid=31064d41-982a-4d68-957c-a6ab36a1327f","ios":"levelo://app?vid=31064d41-982a-4d68-957c-a6ab36a1327f"},"vehicle_type_id":"4","last_reported":1703286424,"current_range_meters":30000,"station_id":"ce4bgth2rcd13ifvqch0","pricing_plan_id":"free"},{"bike_id":"cf28ca03-6df3-4dbf-a190-bbac42653145","system_id":"levelo_inurba_marseille","lat":43.301939,"lon":5.366286,"is_reserved":false,"is_disabled":false,"rental_uris":{"android":"levelo://app?vid=cf28ca03-6df3-4dbf-a190-bbac42653145","ios":"levelo://app?vid=cf28ca03-6df3-4dbf-a190-bbac42653145"},"vehicle_type_id":"4","last_reported":1703286424,"current_range_meters":11600,"station_id":"ce4bgrh2rcd13ifvqc8g","pricing_plan_id":"free"},{"bike_id":"d2a20330-7d63-4c58-b62b-0e00da829c12","system_id":"levelo_inurba_marseille","lat":43.308012,"lon":5.381511,"is_reserved":false,"is_disabled":false,"rental_uris":{"android":"levelo://app?vid=d2a20330-7d63-4c58-b62b-0e00da829c12","ios":"levelo://app?vid=d2a20330-7d63-4c58-b62b-0e00da829c12"},"vehicle_type_id":"4","last_reported":1703286424,"current_range_meters":23600,"station_id":"ce4bgt12rcd13ifvqce0","pricing_plan_id":"free"},{"bike_id":"eec90538-11f1-423c-b0bb-f9dfd9a7f6ef","system_id":"levelo_inurba_marseille","lat":43.308012,"lon":5.381511,"is_reserved":false,"is_disabled":false,"rental_uris":{"android":"levelo://app?vid=eec90538-11f1-423c-b0bb-f9dfd9a7f6ef","ios":"levelo://app?vid=eec90538-11f1-423c-b0bb-f9dfd9a7f6ef"},"vehicle_type_id":"4","last_reported":1703286424,"current_range_meters":18400,"station_id":"ce4bgt12rcd13ifvqce0","pricing_plan_id":"free"},{"bike_id":"ee0ce18a-f1f4-4b10-8982-ea3567b96562","system_id":"levelo_inurba_marseille","lat":43.308012,"lon":5.381511,"is_reserved":false,"is_disabled":false,"rental_uris":{"android":"levelo://app?vid=ee0ce18a-f1f4-4b10-8982-ea3567b96562","ios":"levelo://app?vid=ee0ce18a-f1f4-4b10-8982-ea3567b96562"},"vehicle_type_id":"4","last_reported":1703286424,"current_range_meters":2000,"station_id":"ce4bgt12rcd13ifvqce0","pricing_plan_id":"free"},{"bike_id":"00192217-4083-4c24-b3dc-41e4ad6320b2","system_id":"levelo_inurba_marseille","lat":43.304606,"lon":5.379026,"is_reserved":false,"is_disabled":false,"rental_uris":{"android":"levelo://app?vid=00192217-4083-4c24-b3dc-41e4ad6320b2","ios":"levelo://app?vid=00192217-4083-4c24-b3dc-41e4ad6320b2"},"vehicle_type_id":"4","last_reported":1703286424,"current_range_meters":28000,"station_id":"ce4bgup2rcd13ifvqcn0","pricing_plan_id":"free"},{"bike_id":"5173c815-5ad8-4866-809e-c9042bb14333","system_id":"levelo_inurba_marseille","lat":43.304606,"lon":5.379026,"is_reserved":false,"is_disabled":false,"rental_uris":{"android":"levelo://app?vid=5173c815-5ad8-4866-809e-c9042bb14333","ios":"levelo://app?vid=5173c815-5ad8-4866-809e-c9042bb14333"},"vehicle_type_id":"4","last_reported":1703286424,"current_range_meters":22400,"station_id":"ce4bgup2rcd13ifvqcn0","pricing_plan_id":"free"},{"bike_id":"f66b2c3a-dca4-44e4-83aa-0408996240b7","system_id":"levelo_inurba_marseille","lat":43.304606,"lon":5.379026,"is_reserved":false,"is_disabled":false,"rental_uris":{"android":"levelo://app?vid=f66b2c3a-dca4-44e4-83aa-0408996240b7","ios":"levelo://app?vid=f66b2c3a-dca4-44e4-83aa-0408996240b7"},"vehicle_type_id":"4","last_reported":1703286424,"current_range_meters":31200,"station_id":"ce4bgup2rcd13ifvqcn0","pricing_plan_id":"free"},{"bike_id":"0f12f4a1-9d18-4087-b872-4b0ae162eb1d","system_id":"levelo_inurba_marseille","lat":43.324771,"lon":5.36557,"is_reserved":false,"is_disabled":false,"rental_uris":{"android":"levelo://app?vid=0f12f4a1-9d18-4087-b872-4b0ae162eb1d","ios":"levelo://app?vid=0f12f4a1-9d18-4087-b872-4b0ae162eb1d"},"vehicle_type_id":"4","last_reported":1703286424,"current_range_meters":0,"station_id":"ce4bhs12rcd13ifvqhvg","pricing_plan_id":"free"},{"bike_id":"fc8ec5f1-5f09-4364-9576-3ec3ab394e4b","system_id":"levelo_inurba_marseille","lat":43.324771,"lon":5.36557,"is_reserved":false,"is_disabled":false,"rental_uris":{"android":"levelo://app?vid=fc8ec5f1-5f09-4364-9576-3ec3ab394e4b","ios":"levelo://app?vid=fc8ec5f1-5f09-4364-9576-3ec3ab394e4b"},"vehicle_type_id":"4","last_reported":1703286424,"current_range_meters":24800,"station_id":"ce4bhs12rcd13ifvqhvg","pricing_plan_id":"free"},{"bike_id":"4b176a2b-35a8-478e-93c2-e09cc8ed4702","system_id":"levelo_inurba_marseille","lat":43.302784,"lon":5.377158,"is_reserved":false,"is_disabled":false,"rental_uris":{"android":"levelo://app?vid=4b176a2b-35a8-478e-93c2-e09cc8ed4702","ios":"levelo://app?vid=4b176a2b-35a8-478e-93c2-e09cc8ed4702"},"vehicle_type_id":"4","last_reported":1703286424,"current_range_meters":1600,"station_id":"ce4bguh2rcd13ifvqcj0","pricing_plan_id":"free"},{"bike_id":"69599836-e945-413a-a849-741769f44bc7","system_id":"levelo_inurba_marseille","lat":43.302784,"lon":5.377158,"is_reserved":false,"is_disabled":false,"rental_uris":{"android":"levelo://app?vid=69599836-e945-413a-a849-741769f44bc7","ios":"levelo://app?vid=69599836-e945-413a-a849-741769f44bc7"},"vehicle_type_id":"4","last_reported":1703286424,"current_range_meters":16800,"station_id":"ce4bguh2rcd13ifvqcj0","pricing_plan_id":"free"},{"bike_id":"84ff0b10-c257-4323-b98a-de8b16b89652","system_id":"levelo_inurba_marseille","lat":43.302784,"lon":5.377158,"is_reserved":false,"is_disabled":false,"rental_uris":{"android":"levelo://app?vid=84ff0b10-c257-4323-b98a-de8b16b89652","ios":"levelo://app?vid=84ff0b10-c257-4323-b98a-de8b16b89652"},"vehicle_type_id":"4","last_reported":1703286424,"current_range_meters":6000,"station_id":"ce4bguh2rcd13ifvqcj0","pricing_plan_id":"free"},{"bike_id":"c616a760-5d15-46bb-9d75-552ebc124cb7","system_id":"levelo_inurba_marseille","lat":43.3199,"lon":5.38146,"is_reserved":false,"is_disabled":false,"rental_uris":{"android":"levelo://app?vid=c616a760-5d15-46bb-9d75-552ebc124cb7","ios":"levelo://app?vid=c616a760-5d15-46bb-9d75-552ebc124cb7"},"vehicle_type_id":"4","last_reported":1703286424,"current_range_meters":18800,"station_id":"ce4bhr12rcd13ifvqhpg","pricing_plan_id":"free"},{"bike_id":"9c231161-337f-4eba-87d3-44d75eaa84aa","system_id":"levelo_inurba_marseille","lat":43.319935,"lon":5.381699,"is_reserved":false,"is_disabled":false,"rental_uris":{"android":"levelo://app?vid=9c231161-337f-4eba-87d3-44d75eaa84aa","ios":"levelo://app?vid=9c231161-337f-4eba-87d3-44d75eaa84aa"},"vehicle_type_id":"4","last_reported":1703286424,"current_range_meters":30000,"station_id":"ce4bhr12rcd13ifvqhpg","pricing_plan_id":"free"},{"bike_id":"82b7c1aa-506b-4cff-953c-bb835d7847c3","system_id":"levelo_inurba_marseille","lat":43.319935,"lon":5.381699,"is_reserved":false,"is_disabled":false,"rental_uris":{"android":"levelo://app?vid=82b7c1aa-506b-4cff-953c-bb835d7847c3","ios":"levelo://app?vid=82b7c1aa-506b-4cff-953c-bb835d7847c3"},"vehicle_type_id":"4","last_reported":1703286424,"current_range_meters":13600,"station_id":"ce4bhr12rcd13ifvqhpg","pricing_plan_id":"free"},{"bike_id":"dc0f6af5-c02c-4610-baea-e5c6ca16f530","system_id":"levelo_inurba_marseille","lat":43.319942,"lon":5.38152,"is_reserved":false,"is_disabled":false,"rental_uris":{"android":"levelo://app?vid=dc0f6af5-c02c-4610-baea-e5c6ca16f530","ios":"levelo://app?vid=dc0f6af5-c02c-4610-baea-e5c6ca16f530"},"vehicle_type_id":"4","last_reported":1703286424,"current_range_meters":27600,"station_id":"ce4bhr12rcd13ifvqhpg","pricing_plan_id":"free"},{"bike_id":"a4d91f4c-0227-4bc9-a904-969806ef4ac5","system_id":"levelo_inurba_marseille","lat":43.319935,"lon":5.381699,"is_reserved":false,"is_disabled":false,"rental_uris":{"android":"levelo://app?vid=a4d91f4c-0227-4bc9-a904-969806ef4ac5","ios":"levelo://app?vid=a4d91f4c-0227-4bc9-a904-969806ef4ac5"},"vehicle_type_id":"4","last_reported":1703286424,"current_range_meters":21200,"station_id":"ce4bhr12rcd13ifvqhpg","pricing_plan_id":"free"},{"bike_id":"0660b770-dd60-4e90-8802-23f4be821afa","system_id":"levelo_inurba_marseille","lat":43.319935,"lon":5.381699,"is_reserved":false,"is_disabled":false,"rental_uris":{"android":"levelo://app?vid=0660b770-dd60-4e90-8802-23f4be821afa","ios":"levelo://app?vid=0660b770-dd60-4e90-8802-23f4be821afa"},"vehicle_type_id":"4","last_reported":1703286424,"current_range_meters":5200,"station_id":"ce4bhr12rcd13ifvqhpg","pricing_plan_id":"free"},{"bike_id":"7f17d550-d32d-4490-8e9d-12fbd3d7571d","system_id":"levelo_inurba_marseille","lat":43.319935,"lon":5.381699,"is_reserved":false,"is_disabled":false,"rental_uris":{"android":"levelo://app?vid=7f17d550-d32d-4490-8e9d-12fbd3d7571d","ios":"levelo://app?vid=7f17d550-d32d-4490-8e9d-12fbd3d7571d"},"vehicle_type_id":"4","last_reported":1703286424,"current_range_meters":21600,"station_id":"ce4bhr12rcd13ifvqhpg","pricing_plan_id":"free"},{"bike_id":"965cf9c4-61d5-49c2-b8b1-76508d620af4","system_id":"levelo_inurba_marseille","lat":43.319935,"lon":5.381699,"is_reserved":false,"is_disabled":false,"rental_uris":{"android":"levelo://app?vid=965cf9c4-61d5-49c2-b8b1-76508d620af4","ios":"levelo://app?vid=965cf9c4-61d5-49c2-b8b1-76508d620af4"},"vehicle_type_id":"4","last_reported":1703286424,"current_range_meters":19200,"station_id":"ce4bhr12rcd13ifvqhpg","pricing_plan_id":"free"},{"bike_id":"aa45a0f2-bcac-49ac-839d-139aefb29921","system_id":"levelo_inurba_marseille","lat":43.313571,"lon":5.384829,"is_reserved":false,"is_disabled":false,"rental_uris":{"android":"levelo://app?vid=aa45a0f2-bcac-49ac-839d-139aefb29921","ios":"levelo://app?vid=aa45a0f2-bcac-49ac-839d-139aefb29921"},"vehicle_type_id":"4","last_reported":1703286424,"current_range_meters":24800,"station_id":"ce4bgt92rcd13ifvqcf0","pricing_plan_id":"free"},{"bike_id":"7de863cb-e036-4b0a-a7b5-446280d190d0","system_id":"levelo_inurba_marseille","lat":43.299222,"lon":5.365554,"is_reserved":false,"is_disabled":false,"rental_uris":{"android":"levelo://app?vid=7de863cb-e036-4b0a-a7b5-446280d190d0","ios":"levelo://app?vid=7de863cb-e036-4b0a-a7b5-446280d190d0"},"vehicle_type_id":"4","last_reported":1703286424,"current_range_meters":10400,"station_id":"ce4bgm92rcd13ifvqbr0","pricing_plan_id":"free"},{"bike_id":"7aa62a10-49b5-4c5e-8fe5-164c0def78bb","system_id":"levelo_inurba_marseille","lat":43.305364,"lon":5.384119,"is_reserved":false,"is_disabled":false,"rental_uris":{"android":"levelo://app?vid=7aa62a10-49b5-4c5e-8fe5-164c0def78bb","ios":"levelo://app?vid=7aa62a10-49b5-4c5e-8fe5-164c0def78bb"},"vehicle_type_id":"4","last_reported":1703286424,"current_range_meters":12400,"station_id":"ce4bgg92rcd13ifvqb30","pricing_plan_id":"free"},{"bike_id":"8e793923-fa4c-438b-978b-8708cbf0b182","system_id":"levelo_inurba_marseille","lat":43.311722,"lon":5.387247,"is_reserved":false,"is_disabled":false,"rental_uris":{"android":"levelo://app?vid=8e793923-fa4c-438b-978b-8708cbf0b182","ios":"levelo://app?vid=8e793923-fa4c-438b-978b-8708cbf0b182"},"vehicle_type_id":"4","last_reported":1703286424,"current_range_meters":16000,"station_id":"ce4bgv12rcd13ifvqcp0","pricing_plan_id":"free"},{"bike_id":"11260b99-74b4-4059-bf60-e31b9d3e6c5b","system_id":"levelo_inurba_marseille","lat":43.311722,"lon":5.387247,"is_reserved":false,"is_disabled":false,"rental_uris":{"android":"levelo://app?vid=11260b99-74b4-4059-bf60-e31b9d3e6c5b","ios":"levelo://app?vid=11260b99-74b4-4059-bf60-e31b9d3e6c5b"},"vehicle_type_id":"4","last_reported":1703286424,"current_range_meters":18400,"station_id":"ce4bgv12rcd13ifvqcp0","pricing_plan_id":"free"},{"bike_id":"39f0daf9-5d2a-4157-a9bf-21ba28fbcf18","system_id":"levelo_inurba_marseille","lat":43.311722,"lon":5.387247,"is_reserved":false,"is_disabled":false,"rental_uris":{"android":"levelo://app?vid=39f0daf9-5d2a-4157-a9bf-21ba28fbcf18","ios":"levelo://app?vid=39f0daf9-5d2a-4157-a9bf-21ba28fbcf18"},"vehicle_type_id":"4","last_reported":1703286424,"current_range_meters":29200,"station_id":"ce4bgv12rcd13ifvqcp0","pricing_plan_id":"free"},{"bike_id":"f5987233-1d3e-4901-8b4d-56e1ca83344b","system_id":"levelo_inurba_marseille","lat":43.322872,"lon":5.382756,"is_reserved":false,"is_disabled":false,"rental_uris":{"android":"levelo://app?vid=f5987233-1d3e-4901-8b4d-56e1ca83344b","ios":"levelo://app?vid=f5987233-1d3e-4901-8b4d-56e1ca83344b"},"vehicle_type_id":"4","last_reported":1703286424,"current_range_meters":31200,"station_id":"ce4bhr12rcd13ifvqhqg","pricing_plan_id":"free"},{"bike_id":"6ef56fd5-1a7c-4c71-8bf8-33afeff899ef","system_id":"levelo_inurba_marseille","lat":43.322872,"lon":5.382756,"is_reserved":false,"is_disabled":false,"rental_uris":{"android":"levelo://app?vid=6ef56fd5-1a7c-4c71-8bf8-33afeff899ef","ios":"levelo://app?vid=6ef56fd5-1a7c-4c71-8bf8-33afeff899ef"},"vehicle_type_id":"4","last_reported":1703286424,"current_range_meters":19200,"station_id":"ce4bhr12rcd13ifvqhqg","pricing_plan_id":"free"},{"bike_id":"e4cf6f6e-7d8c-4b7e-ab01-7de3c446c970","system_id":"levelo_inurba_marseille","lat":43.322872,"lon":5.382756,"is_reserved":false,"is_disabled":false,"rental_uris":{"android":"levelo://app?vid=e4cf6f6e-7d8c-4b7e-ab01-7de3c446c970","ios":"levelo://app?vid=e4cf6f6e-7d8c-4b7e-ab01-7de3c446c970"},"vehicle_type_id":"4","last_reported":1703286424,"current_range_meters":31200,"station_id":"ce4bhr12rcd13ifvqhqg","pricing_plan_id":"free"},{"bike_id":"62a0e181-56c1-4aad-a05b-240ecf27baec","system_id":"levelo_inurba_marseille","lat":43.322872,"lon":5.382756,"is_reserved":false,"is_disabled":false,"rental_uris":{"android":"levelo://app?vid=62a0e181-56c1-4aad-a05b-240ecf27baec","ios":"levelo://app?vid=62a0e181-56c1-4aad-a05b-240ecf27baec"},"vehicle_type_id":"4","last_reported":1703286424,"current_range_meters":31200,"station_id":"ce4bhr12rcd13ifvqhqg","pricing_plan_id":"free"},{"bike_id":"d728a8b4-bece-4be0-a14a-8abb6b425cd7","system_id":"levelo_inurba_marseille","lat":43.328371,"lon":5.366909,"is_reserved":false,"is_disabled":false,"rental_uris":{"android":"levelo://app?vid=d728a8b4-bece-4be0-a14a-8abb6b425cd7","ios":"levelo://app?vid=d728a8b4-bece-4be0-a14a-8abb6b425cd7"},"vehicle_type_id":"4","last_reported":1703286424,"current_range_meters":15600,"station_id":"ce4bhs92rcd13ifvqi0g","pricing_plan_id":"free"},{"bike_id":"aa3fb6e4-1c03-44e5-96a0-f8edc6b5e34f","system_id":"levelo_inurba_marseille","lat":43.328371,"lon":5.366909,"is_reserved":false,"is_disabled":false,"rental_uris":{"android":"levelo://app?vid=aa3fb6e4-1c03-44e5-96a0-f8edc6b5e34f","ios":"levelo://app?vid=aa3fb6e4-1c03-44e5-96a0-f8edc6b5e34f"},"vehicle_type_id":"4","last_reported":1703286424,"current_range_meters":400,"station_id":"ce4bhs92rcd13ifvqi0g","pricing_plan_id":"free"},{"bike_id":"6cba446c-9ee9-4546-8c3c-626825b73b1e","system_id":"levelo_inurba_marseille","lat":43.328371,"lon":5.366909,"is_reserved":false,"is_disabled":false,"rental_uris":{"android":"levelo://app?vid=6cba446c-9ee9-4546-8c3c-626825b73b1e","ios":"levelo://app?vid=6cba446c-9ee9-4546-8c3c-626825b73b1e"},"vehicle_type_id":"4","last_reported":1703286424,"current_range_meters":6000,"station_id":"ce4bhs92rcd13ifvqi0g","pricing_plan_id":"free"},{"bike_id":"d2be49f4-d512-450f-80de-370a6da97420","system_id":"levelo_inurba_marseille","lat":43.328371,"lon":5.366909,"is_reserved":false,"is_disabled":false,"rental_uris":{"android":"levelo://app?vid=d2be49f4-d512-450f-80de-370a6da97420","ios":"levelo://app?vid=d2be49f4-d512-450f-80de-370a6da97420"},"vehicle_type_id":"4","last_reported":1703286424,"current_range_meters":3600,"station_id":"ce4bhs92rcd13ifvqi0g","pricing_plan_id":"free"},{"bike_id":"525f6ec1-c089-48ad-8216-d8e073aa768d","system_id":"levelo_inurba_marseille","lat":43.328505,"lon":5.36691,"is_reserved":false,"is_disabled":false,"rental_uris":{"android":"levelo://app?vid=525f6ec1-c089-48ad-8216-d8e073aa768d","ios":"levelo://app?vid=525f6ec1-c089-48ad-8216-d8e073aa768d"},"vehicle_type_id":"4","last_reported":1703286424,"current_range_meters":4000,"station_id":"ce4bhs92rcd13ifvqi0g","pricing_plan_id":"free"},{"bike_id":"156d9ead-45a7-434b-a21c-e340221d8806","system_id":"levelo_inurba_marseille","lat":43.2968,"lon":5.37291,"is_reserved":false,"is_disabled":false,"rental_uris":{"android":"levelo://app?vid=156d9ead-45a7-434b-a21c-e340221d8806","ios":"levelo://app?vid=156d9ead-45a7-434b-a21c-e340221d8806"},"vehicle_type_id":"4","last_reported":1703286424,"current_range_meters":22000,"station_id":"ce4bgk12rcd13ifvqbj0","pricing_plan_id":"free"},{"bike_id":"f5f48672-2c8e-4cb3-beef-288577373a8d","system_id":"levelo_inurba_marseille","lat":43.2968,"lon":5.37291,"is_reserved":false,"is_disabled":false,"rental_uris":{"android":"levelo://app?vid=f5f48672-2c8e-4cb3-beef-288577373a8d","ios":"levelo://app?vid=f5f48672-2c8e-4cb3-beef-288577373a8d"},"vehicle_type_id":"4","last_reported":1703286424,"current_range_meters":20000,"station_id":"ce4bgk12rcd13ifvqbj0","pricing_plan_id":"free"},{"bike_id":"558ec63f-134c-4e7a-9858-e5ff95d1d8fa","system_id":"levelo_inurba_marseille","lat":43.296022,"lon":5.367832,"is_reserved":false,"is_disabled":false,"rental_uris":{"android":"levelo://app?vid=558ec63f-134c-4e7a-9858-e5ff95d1d8fa","ios":"levelo://app?vid=558ec63f-134c-4e7a-9858-e5ff95d1d8fa"},"vehicle_type_id":"4","last_reported":1703286424,"current_range_meters":12800,"station_id":"","pricing_plan_id":"free"},{"bike_id":"6e7c668c-6a14-4afc-be5a-87a32b65b643","system_id":"levelo_inurba_marseille","lat":43.296129,"lon":5.370777,"is_reserved":false,"is_disabled":false,"rental_uris":{"android":"levelo://app?vid=6e7c668c-6a14-4afc-be5a-87a32b65b643","ios":"levelo://app?vid=6e7c668c-6a14-4afc-be5a-87a32b65b643"},"vehicle_type_id":"4","last_reported":1703286424,"current_range_meters":5600,"station_id":"ce4bgnh2rcd13ifvqc0g","pricing_plan_id":"free"},{"bike_id":"8620d5d1-a605-48f1-911d-1e6c2fe32288","system_id":"levelo_inurba_marseille","lat":43.309589,"lon":5.390258,"is_reserved":false,"is_disabled":false,"rental_uris":{"android":"levelo://app?vid=8620d5d1-a605-48f1-911d-1e6c2fe32288","ios":"levelo://app?vid=8620d5d1-a605-48f1-911d-1e6c2fe32288"},"vehicle_type_id":"4","last_reported":1703286424,"current_range_meters":27200,"station_id":"ce4bgup2rcd13ifvqco0","pricing_plan_id":"free"},{"bike_id":"978bd87e-148d-4d12-929b-ed562b80b796","system_id":"levelo_inurba_marseille","lat":43.309589,"lon":5.390258,"is_reserved":false,"is_disabled":false,"rental_uris":{"android":"levelo://app?vid=978bd87e-148d-4d12-929b-ed562b80b796","ios":"levelo://app?vid=978bd87e-148d-4d12-929b-ed562b80b796"},"vehicle_type_id":"4","last_reported":1703286424,"current_range_meters":12800,"station_id":"ce4bgup2rcd13ifvqco0","pricing_plan_id":"free"},{"bike_id":"064ba6eb-7aa4-440c-88cc-23893acb7197","system_id":"levelo_inurba_marseille","lat":43.299028,"lon":5.381509,"is_reserved":false,"is_disabled":false,"rental_uris":{"android":"levelo://app?vid=064ba6eb-7aa4-440c-88cc-23893acb7197","ios":"levelo://app?vid=064ba6eb-7aa4-440c-88cc-23893acb7197"},"vehicle_type_id":"4","last_reported":1703286424,"current_range_meters":15200,"station_id":"ce4bgj12rcd13ifvqbc0","pricing_plan_id":"free"},{"bike_id":"b9c8fefe-fcf2-4e1c-95c9-c0ffed42221d","system_id":"levelo_inurba_marseille","lat":43.317557,"lon":5.390173,"is_reserved":false,"is_disabled":false,"rental_uris":{"android":"levelo://app?vid=b9c8fefe-fcf2-4e1c-95c9-c0ffed42221d","ios":"levelo://app?vid=b9c8fefe-fcf2-4e1c-95c9-c0ffed42221d"},"vehicle_type_id":"4","last_reported":1703286424,"current_range_meters":24800,"station_id":"ce4bhqp2rcd13ifvqhng","pricing_plan_id":"free"},{"bike_id":"62e22e3e-8174-4ec7-90f7-4445322daa77","system_id":"levelo_inurba_marseille","lat":43.317557,"lon":5.390173,"is_reserved":false,"is_disabled":false,"rental_uris":{"android":"levelo://app?vid=62e22e3e-8174-4ec7-90f7-4445322daa77","ios":"levelo://app?vid=62e22e3e-8174-4ec7-90f7-4445322daa77"},"vehicle_type_id":"4","last_reported":1703286424,"current_range_meters":25600,"station_id":"ce4bhqp2rcd13ifvqhng","pricing_plan_id":"free"},{"bike_id":"7eada8fb-8c59-41ea-ae15-1164bd9fc1af","system_id":"levelo_inurba_marseille","lat":43.32176,"lon":5.38767,"is_reserved":false,"is_disabled":false,"rental_uris":{"android":"levelo://app?vid=7eada8fb-8c59-41ea-ae15-1164bd9fc1af","ios":"levelo://app?vid=7eada8fb-8c59-41ea-ae15-1164bd9fc1af"},"vehicle_type_id":"4","last_reported":1703286424,"current_range_meters":29200,"station_id":"","pricing_plan_id":"free"},{"bike_id":"d39682ea-d8f1-45a4-b2b8-5a732fb091bc","system_id":"levelo_inurba_marseille","lat":43.317557,"lon":5.390173,"is_reserved":false,"is_disabled":false,"rental_uris":{"android":"levelo://app?vid=d39682ea-d8f1-45a4-b2b8-5a732fb091bc","ios":"levelo://app?vid=d39682ea-d8f1-45a4-b2b8-5a732fb091bc"},"vehicle_type_id":"4","last_reported":1703286424,"current_range_meters":31200,"station_id":"ce4bhqp2rcd13ifvqhng","pricing_plan_id":"free"},{"bike_id":"b3e69c1d-7e5a-4757-bef8-3569af454ae7","system_id":"levelo_inurba_marseille","lat":43.31757,"lon":5.39019,"is_reserved":false,"is_disabled":false,"rental_uris":{"android":"levelo://app?vid=b3e69c1d-7e5a-4757-bef8-3569af454ae7","ios":"levelo://app?vid=b3e69c1d-7e5a-4757-bef8-3569af454ae7"},"vehicle_type_id":"4","last_reported":1703286424,"current_range_meters":18400,"station_id":"ce4bhqp2rcd13ifvqhng","pricing_plan_id":"free"},{"bike_id":"43855516-4c02-494d-aefa-3c215dbc6b85","system_id":"levelo_inurba_marseille","lat":43.317557,"lon":5.390173,"is_reserved":false,"is_disabled":false,"rental_uris":{"android":"levelo://app?vid=43855516-4c02-494d-aefa-3c215dbc6b85","ios":"levelo://app?vid=43855516-4c02-494d-aefa-3c215dbc6b85"},"vehicle_type_id":"4","last_reported":1703286424,"current_range_meters":400,"station_id":"ce4bhqp2rcd13ifvqhng","pricing_plan_id":"free"},{"bike_id":"cdb3d701-5381-4219-9cdd-c446bf2fa9ab","system_id":"levelo_inurba_marseille","lat":43.295337,"lon":5.361197,"is_reserved":false,"is_disabled":false,"rental_uris":{"android":"levelo://app?vid=cdb3d701-5381-4219-9cdd-c446bf2fa9ab","ios":"levelo://app?vid=cdb3d701-5381-4219-9cdd-c446bf2fa9ab"},"vehicle_type_id":"4","last_reported":1703286424,"current_range_meters":6800,"station_id":"","pricing_plan_id":"free"},{"bike_id":"ed9e0dce-523c-4fb1-af64-ee02f111f9d9","system_id":"levelo_inurba_marseille","lat":43.298037,"lon":5.381066,"is_reserved":false,"is_disabled":false,"rental_uris":{"android":"levelo://app?vid=ed9e0dce-523c-4fb1-af64-ee02f111f9d9","ios":"levelo://app?vid=ed9e0dce-523c-4fb1-af64-ee02f111f9d9"},"vehicle_type_id":"4","last_reported":1703286424,"current_range_meters":12800,"station_id":"ce4bgip2rcd13ifvqbb0","pricing_plan_id":"free"},{"bike_id":"b38a2a7c-0426-46ed-bf36-002fafc95283","system_id":"levelo_inurba_marseille","lat":43.298037,"lon":5.381066,"is_reserved":false,"is_disabled":false,"rental_uris":{"android":"levelo://app?vid=b38a2a7c-0426-46ed-bf36-002fafc95283","ios":"levelo://app?vid=b38a2a7c-0426-46ed-bf36-002fafc95283"},"vehicle_type_id":"4","last_reported":1703286424,"current_range_meters":14400,"station_id":"ce4bgip2rcd13ifvqbb0","pricing_plan_id":"free"},{"bike_id":"5b4badf8-8a69-4e0f-997d-009deaf009c9","system_id":"levelo_inurba_marseille","lat":43.304274,"lon":5.388873,"is_reserved":false,"is_disabled":false,"rental_uris":{"android":"levelo://app?vid=5b4badf8-8a69-4e0f-997d-009deaf009c9","ios":"levelo://app?vid=5b4badf8-8a69-4e0f-997d-009deaf009c9"},"vehicle_type_id":"4","last_reported":1703286424,"current_range_meters":26000,"station_id":"ce4bgk12rcd13ifvqbi0","pricing_plan_id":"free"},{"bike_id":"751abed5-dd5a-4e93-af76-564fc4c5a6ce","system_id":"levelo_inurba_marseille","lat":43.295748,"lon":5.37522,"is_reserved":false,"is_disabled":false,"rental_uris":{"android":"levelo://app?vid=751abed5-dd5a-4e93-af76-564fc4c5a6ce","ios":"levelo://app?vid=751abed5-dd5a-4e93-af76-564fc4c5a6ce"},"vehicle_type_id":"4","last_reported":1703286424,"current_range_meters":18000,"station_id":"ce4bgh92rcd13ifvqb50","pricing_plan_id":"free"},{"bike_id":"cb3c09e0-78d0-48e1-8658-7efc663da800","system_id":"levelo_inurba_marseille","lat":43.304278,"lon":5.388868,"is_reserved":false,"is_disabled":false,"rental_uris":{"android":"levelo://app?vid=cb3c09e0-78d0-48e1-8658-7efc663da800","ios":"levelo://app?vid=cb3c09e0-78d0-48e1-8658-7efc663da800"},"vehicle_type_id":"4","last_reported":1703286424,"current_range_meters":5600,"station_id":"ce4bgk12rcd13ifvqbi0","pricing_plan_id":"free"},{"bike_id":"7cf44cd9-c4a9-4e4e-82e3-17d1300da03b","system_id":"levelo_inurba_marseille","lat":43.304278,"lon":5.388868,"is_reserved":false,"is_disabled":false,"rental_uris":{"android":"levelo://app?vid=7cf44cd9-c4a9-4e4e-82e3-17d1300da03b","ios":"levelo://app?vid=7cf44cd9-c4a9-4e4e-82e3-17d1300da03b"},"vehicle_type_id":"4","last_reported":1703286424,"current_range_meters":8000,"station_id":"ce4bgk12rcd13ifvqbi0","pricing_plan_id":"free"},{"bike_id":"68ee01aa-6671-4b5e-9942-7a9e635480ea","system_id":"levelo_inurba_marseille","lat":43.304274,"lon":5.388873,"is_reserved":false,"is_disabled":false,"rental_uris":{"android":"levelo://app?vid=68ee01aa-6671-4b5e-9942-7a9e635480ea","ios":"levelo://app?vid=68ee01aa-6671-4b5e-9942-7a9e635480ea"},"vehicle_type_id":"4","last_reported":1703286424,"current_range_meters":6000,"station_id":"ce4bgk12rcd13ifvqbi0","pricing_plan_id":"free"},{"bike_id":"476ab6f7-9133-4ba3-8490-d8e96b8cf3d3","system_id":"levelo_inurba_marseille","lat":43.295748,"lon":5.37522,"is_reserved":false,"is_disabled":false,"rental_uris":{"android":"levelo://app?vid=476ab6f7-9133-4ba3-8490-d8e96b8cf3d3","ios":"levelo://app?vid=476ab6f7-9133-4ba3-8490-d8e96b8cf3d3"},"vehicle_type_id":"4","last_reported":1703286424,"current_range_meters":0,"station_id":"ce4bgh92rcd13ifvqb50","pricing_plan_id":"free"},{"bike_id":"6fb36e62-51db-4a18-ba5d-84a9249d38b4","system_id":"levelo_inurba_marseille","lat":43.304274,"lon":5.388873,"is_reserved":false,"is_disabled":false,"rental_uris":{"android":"levelo://app?vid=6fb36e62-51db-4a18-ba5d-84a9249d38b4","ios":"levelo://app?vid=6fb36e62-51db-4a18-ba5d-84a9249d38b4"},"vehicle_type_id":"4","last_reported":1703286424,"current_range_meters":21600,"station_id":"ce4bgk12rcd13ifvqbi0","pricing_plan_id":"free"},{"bike_id":"625e99a2-012b-4c0c-9d5b-c9c2f7c6f0cc","system_id":"levelo_inurba_marseille","lat":43.29782,"lon":5.38101,"is_reserved":false,"is_disabled":false,"rental_uris":{"android":"levelo://app?vid=625e99a2-012b-4c0c-9d5b-c9c2f7c6f0cc","ios":"levelo://app?vid=625e99a2-012b-4c0c-9d5b-c9c2f7c6f0cc"},"vehicle_type_id":"4","last_reported":1703286424,"current_range_meters":4000,"station_id":"ce4bgip2rcd13ifvqbb0","pricing_plan_id":"free"},{"bike_id":"1378810b-812d-44e5-847a-1b7aeb90e4c4","system_id":"levelo_inurba_marseille","lat":43.299,"lon":5.38357,"is_reserved":false,"is_disabled":false,"rental_uris":{"android":"levelo://app?vid=1378810b-812d-44e5-847a-1b7aeb90e4c4","ios":"levelo://app?vid=1378810b-812d-44e5-847a-1b7aeb90e4c4"},"vehicle_type_id":"4","last_reported":1703286424,"current_range_meters":0,"station_id":"","pricing_plan_id":"free"},{"bike_id":"af9499c7-8902-4195-acb2-149e7ab366df","system_id":"levelo_inurba_marseille","lat":43.295279,"lon":5.375048,"is_reserved":false,"is_disabled":false,"rental_uris":{"android":"levelo://app?vid=af9499c7-8902-4195-acb2-149e7ab366df","ios":"levelo://app?vid=af9499c7-8902-4195-acb2-149e7ab366df"},"vehicle_type_id":"4","last_reported":1703286424,"current_range_meters":31200,"station_id":"ce4bgkp2rcd13ifvqbmg","pricing_plan_id":"free"},{"bike_id":"80bda835-1a54-4498-aa05-c858905f235e","system_id":"levelo_inurba_marseille","lat":43.295279,"lon":5.375048,"is_reserved":false,"is_disabled":false,"rental_uris":{"android":"levelo://app?vid=80bda835-1a54-4498-aa05-c858905f235e","ios":"levelo://app?vid=80bda835-1a54-4498-aa05-c858905f235e"},"vehicle_type_id":"4","last_reported":1703286424,"current_range_meters":14400,"station_id":"ce4bgkp2rcd13ifvqbmg","pricing_plan_id":"free"},{"bike_id":"02447724-3fb3-4a6c-bcad-21b3b67b0abe","system_id":"levelo_inurba_marseille","lat":43.299028,"lon":5.381509,"is_reserved":false,"is_disabled":false,"rental_uris":{"android":"levelo://app?vid=02447724-3fb3-4a6c-bcad-21b3b67b0abe","ios":"levelo://app?vid=02447724-3fb3-4a6c-bcad-21b3b67b0abe"},"vehicle_type_id":"4","last_reported":1703286424,"current_range_meters":25600,"station_id":"ce4bgj12rcd13ifvqbc0","pricing_plan_id":"free"},{"bike_id":"dc576f31-c21e-42d2-97a4-815b145b7f58","system_id":"levelo_inurba_marseille","lat":43.32367,"lon":5.388836,"is_reserved":false,"is_disabled":false,"rental_uris":{"android":"levelo://app?vid=dc576f31-c21e-42d2-97a4-815b145b7f58","ios":"levelo://app?vid=dc576f31-c21e-42d2-97a4-815b145b7f58"},"vehicle_type_id":"4","last_reported":1703286424,"current_range_meters":1600,"station_id":"ce4bhqp2rcd13ifvqhog","pricing_plan_id":"free"},{"bike_id":"035ba96c-8560-4c70-973e-f7eb3e99c40c","system_id":"levelo_inurba_marseille","lat":43.32367,"lon":5.388836,"is_reserved":false,"is_disabled":false,"rental_uris":{"android":"levelo://app?vid=035ba96c-8560-4c70-973e-f7eb3e99c40c","ios":"levelo://app?vid=035ba96c-8560-4c70-973e-f7eb3e99c40c"},"vehicle_type_id":"4","last_reported":1703286424,"current_range_meters":19600,"station_id":"ce4bhqp2rcd13ifvqhog","pricing_plan_id":"free"},{"bike_id":"44617d6c-b273-4bcc-9a68-c0cbb801183a","system_id":"levelo_inurba_marseille","lat":43.293009,"lon":5.374584,"is_reserved":false,"is_disabled":false,"rental_uris":{"android":"levelo://app?vid=44617d6c-b273-4bcc-9a68-c0cbb801183a","ios":"levelo://app?vid=44617d6c-b273-4bcc-9a68-c0cbb801183a"},"vehicle_type_id":"4","last_reported":1703286424,"current_range_meters":6400,"station_id":"ce4bgi12rcd13ifvqb70","pricing_plan_id":"free"},{"bike_id":"67405c33-9074-421b-9de7-9c3115fb5e52","system_id":"levelo_inurba_marseille","lat":43.302992,"lon":5.392136,"is_reserved":false,"is_disabled":false,"rental_uris":{"android":"levelo://app?vid=67405c33-9074-421b-9de7-9c3115fb5e52","ios":"levelo://app?vid=67405c33-9074-421b-9de7-9c3115fb5e52"},"vehicle_type_id":"4","last_reported":1703286424,"current_range_meters":28800,"station_id":"ce4bgkh2rcd13ifvqbk0","pricing_plan_id":"free"},{"bike_id":"557000a1-02d5-45c6-b20c-951b70bf4f82","system_id":"levelo_inurba_marseille","lat":43.30098,"lon":5.390873,"is_reserved":false,"is_disabled":false,"rental_uris":{"android":"levelo://app?vid=557000a1-02d5-45c6-b20c-951b70bf4f82","ios":"levelo://app?vid=557000a1-02d5-45c6-b20c-951b70bf4f82"},"vehicle_type_id":"4","last_reported":1703286424,"current_range_meters":0,"station_id":"","pricing_plan_id":"free"},{"bike_id":"787a319f-9a79-4164-8fbf-55115fc93c14","system_id":"levelo_inurba_marseille","lat":43.292005,"lon":5.357875,"is_reserved":false,"is_disabled":false,"rental_uris":{"android":"levelo://app?vid=787a319f-9a79-4164-8fbf-55115fc93c14","ios":"levelo://app?vid=787a319f-9a79-4164-8fbf-55115fc93c14"},"vehicle_type_id":"4","last_reported":1703286424,"current_range_meters":1200,"station_id":"ce4bhb12rcd13ifvqel0","pricing_plan_id":"free"},{"bike_id":"d3cc02c2-2b0a-46f6-962c-8d5cf9b92e1d","system_id":"levelo_inurba_marseille","lat":43.313291,"lon":5.396838,"is_reserved":false,"is_disabled":false,"rental_uris":{"android":"levelo://app?vid=d3cc02c2-2b0a-46f6-962c-8d5cf9b92e1d","ios":"levelo://app?vid=d3cc02c2-2b0a-46f6-962c-8d5cf9b92e1d"},"vehicle_type_id":"4","last_reported":1703286424,"current_range_meters":13600,"station_id":"ce4bgvp2rcd13ifvqcu0","pricing_plan_id":"free"},{"bike_id":"6b18bf16-2713-445d-a871-514ed4097ac6","system_id":"levelo_inurba_marseille","lat":43.30882,"lon":5.3964,"is_reserved":false,"is_disabled":false,"rental_uris":{"android":"levelo://app?vid=6b18bf16-2713-445d-a871-514ed4097ac6","ios":"levelo://app?vid=6b18bf16-2713-445d-a871-514ed4097ac6"},"vehicle_type_id":"4","last_reported":1703286424,"current_range_meters":0,"station_id":"ce4bh012rcd13ifvqcv0","pricing_plan_id":"free"},{"bike_id":"155c9fe9-c508-4cda-9841-f95a11134658","system_id":"levelo_inurba_marseille","lat":43.30884,"lon":5.39641,"is_reserved":false,"is_disabled":false,"rental_uris":{"android":"levelo://app?vid=155c9fe9-c508-4cda-9841-f95a11134658","ios":"levelo://app?vid=155c9fe9-c508-4cda-9841-f95a11134658"},"vehicle_type_id":"4","last_reported":1703286424,"current_range_meters":22000,"station_id":"ce4bh012rcd13ifvqcv0","pricing_plan_id":"free"},{"bike_id":"9c4bd2fc-3d5e-46d7-a52e-17b1c35c085b","system_id":"levelo_inurba_marseille","lat":43.313291,"lon":5.396838,"is_reserved":false,"is_disabled":false,"rental_uris":{"android":"levelo://app?vid=9c4bd2fc-3d5e-46d7-a52e-17b1c35c085b","ios":"levelo://app?vid=9c4bd2fc-3d5e-46d7-a52e-17b1c35c085b"},"vehicle_type_id":"4","last_reported":1703286424,"current_range_meters":14800,"station_id":"ce4bgvp2rcd13ifvqcu0","pricing_plan_id":"free"},{"bike_id":"745b3ffa-fd0e-427a-8fc0-7f4276899b6e","system_id":"levelo_inurba_marseille","lat":43.30884,"lon":5.39643,"is_reserved":false,"is_disabled":false,"rental_uris":{"android":"levelo://app?vid=745b3ffa-fd0e-427a-8fc0-7f4276899b6e","ios":"levelo://app?vid=745b3ffa-fd0e-427a-8fc0-7f4276899b6e"},"vehicle_type_id":"4","last_reported":1703286424,"current_range_meters":7200,"station_id":"ce4bh012rcd13ifvqcv0","pricing_plan_id":"free"},{"bike_id":"af4eb44c-b6c6-4ffb-9294-38dd5d5dc4b6","system_id":"levelo_inurba_marseille","lat":43.313291,"lon":5.396838,"is_reserved":false,"is_disabled":false,"rental_uris":{"android":"levelo://app?vid=af4eb44c-b6c6-4ffb-9294-38dd5d5dc4b6","ios":"levelo://app?vid=af4eb44c-b6c6-4ffb-9294-38dd5d5dc4b6"},"vehicle_type_id":"4","last_reported":1703286424,"current_range_meters":27600,"station_id":"ce4bgvp2rcd13ifvqcu0","pricing_plan_id":"free"},{"bike_id":"38d8ffb9-ac7c-4e14-9721-daaee9d23c1a","system_id":"levelo_inurba_marseille","lat":43.313291,"lon":5.396838,"is_reserved":false,"is_disabled":false,"rental_uris":{"android":"levelo://app?vid=38d8ffb9-ac7c-4e14-9721-daaee9d23c1a","ios":"levelo://app?vid=38d8ffb9-ac7c-4e14-9721-daaee9d23c1a"},"vehicle_type_id":"4","last_reported":1703286424,"current_range_meters":31200,"station_id":"ce4bgvp2rcd13ifvqcu0","pricing_plan_id":"free"},{"bike_id":"a90b8b83-e596-4fc1-8b62-b201f740b064","system_id":"levelo_inurba_marseille","lat":43.313291,"lon":5.396838,"is_reserved":false,"is_disabled":false,"rental_uris":{"android":"levelo://app?vid=a90b8b83-e596-4fc1-8b62-b201f740b064","ios":"levelo://app?vid=a90b8b83-e596-4fc1-8b62-b201f740b064"},"vehicle_type_id":"4","last_reported":1703286424,"current_range_meters":29600,"station_id":"ce4bgvp2rcd13ifvqcu0","pricing_plan_id":"free"},{"bike_id":"f933215d-6626-4c32-b02f-641c93ecbb55","system_id":"levelo_inurba_marseille","lat":43.309038,"lon":5.396546,"is_reserved":false,"is_disabled":false,"rental_uris":{"android":"levelo://app?vid=f933215d-6626-4c32-b02f-641c93ecbb55","ios":"levelo://app?vid=f933215d-6626-4c32-b02f-641c93ecbb55"},"vehicle_type_id":"4","last_reported":1703286424,"current_range_meters":12400,"station_id":"ce4bh012rcd13ifvqcv0","pricing_plan_id":"free"},{"bike_id":"cbc62839-3c9d-4d9e-963f-bbabfe928114","system_id":"levelo_inurba_marseille","lat":43.313291,"lon":5.396838,"is_reserved":false,"is_disabled":false,"rental_uris":{"android":"levelo://app?vid=cbc62839-3c9d-4d9e-963f-bbabfe928114","ios":"levelo://app?vid=cbc62839-3c9d-4d9e-963f-bbabfe928114"},"vehicle_type_id":"4","last_reported":1703286424,"current_range_meters":27200,"station_id":"ce4bgvp2rcd13ifvqcu0","pricing_plan_id":"free"},{"bike_id":"fa38fcc7-ca87-4463-a289-03c7cd4e6723","system_id":"levelo_inurba_marseille","lat":43.313291,"lon":5.396838,"is_reserved":false,"is_disabled":false,"rental_uris":{"android":"levelo://app?vid=fa38fcc7-ca87-4463-a289-03c7cd4e6723","ios":"levelo://app?vid=fa38fcc7-ca87-4463-a289-03c7cd4e6723"},"vehicle_type_id":"4","last_reported":1703286424,"current_range_meters":31200,"station_id":"ce4bgvp2rcd13ifvqcu0","pricing_plan_id":"free"},{"bike_id":"365351fb-9dc0-4763-85db-886ebe3b10db","system_id":"levelo_inurba_marseille","lat":43.313291,"lon":5.396838,"is_reserved":false,"is_disabled":false,"rental_uris":{"android":"levelo://app?vid=365351fb-9dc0-4763-85db-886ebe3b10db","ios":"levelo://app?vid=365351fb-9dc0-4763-85db-886ebe3b10db"},"vehicle_type_id":"4","last_reported":1703286424,"current_range_meters":7200,"station_id":"ce4bgvp2rcd13ifvqcu0","pricing_plan_id":"free"},{"bike_id":"c4b5c253-f844-42fd-82a6-50cb9b8a64cd","system_id":"levelo_inurba_marseille","lat":43.313291,"lon":5.396838,"is_reserved":false,"is_disabled":false,"rental_uris":{"android":"levelo://app?vid=c4b5c253-f844-42fd-82a6-50cb9b8a64cd","ios":"levelo://app?vid=c4b5c253-f844-42fd-82a6-50cb9b8a64cd"},"vehicle_type_id":"4","last_reported":1703286424,"current_range_meters":31200,"station_id":"ce4bgvp2rcd13ifvqcu0","pricing_plan_id":"free"},{"bike_id":"eceb5307-053e-422d-bbd0-9af032e873b8","system_id":"levelo_inurba_marseille","lat":43.313291,"lon":5.396838,"is_reserved":false,"is_disabled":false,"rental_uris":{"android":"levelo://app?vid=eceb5307-053e-422d-bbd0-9af032e873b8","ios":"levelo://app?vid=eceb5307-053e-422d-bbd0-9af032e873b8"},"vehicle_type_id":"4","last_reported":1703286424,"current_range_meters":30800,"station_id":"ce4bgvp2rcd13ifvqcu0","pricing_plan_id":"free"},{"bike_id":"a3f899e3-7023-44e7-9080-b8249dcf4b23","system_id":"levelo_inurba_marseille","lat":43.30882,"lon":5.39656,"is_reserved":false,"is_disabled":false,"rental_uris":{"android":"levelo://app?vid=a3f899e3-7023-44e7-9080-b8249dcf4b23","ios":"levelo://app?vid=a3f899e3-7023-44e7-9080-b8249dcf4b23"},"vehicle_type_id":"4","last_reported":1703286424,"current_range_meters":22000,"station_id":"ce4bh012rcd13ifvqcv0","pricing_plan_id":"free"},{"bike_id":"dd007d71-4a6c-403a-a1a0-ea0c10c811f9","system_id":"levelo_inurba_marseille","lat":43.290624,"lon":5.359245,"is_reserved":false,"is_disabled":false,"rental_uris":{"android":"levelo://app?vid=dd007d71-4a6c-403a-a1a0-ea0c10c811f9","ios":"levelo://app?vid=dd007d71-4a6c-403a-a1a0-ea0c10c811f9"},"vehicle_type_id":"4","last_reported":1703286424,"current_range_meters":26000,"station_id":"ce4bha92rcd13ifvqeg0","pricing_plan_id":"free"},{"bike_id":"14c14df6-3d79-4e82-b696-58ac6d869466","system_id":"levelo_inurba_marseille","lat":43.290624,"lon":5.359245,"is_reserved":false,"is_disabled":false,"rental_uris":{"android":"levelo://app?vid=14c14df6-3d79-4e82-b696-58ac6d869466","ios":"levelo://app?vid=14c14df6-3d79-4e82-b696-58ac6d869466"},"vehicle_type_id":"4","last_reported":1703286424,"current_range_meters":3600,"station_id":"ce4bha92rcd13ifvqeg0","pricing_plan_id":"free"},{"bike_id":"81ecd235-69e4-434d-8b01-82b37874aab3","system_id":"levelo_inurba_marseille","lat":43.290631,"lon":5.359244,"is_reserved":false,"is_disabled":false,"rental_uris":{"android":"levelo://app?vid=81ecd235-69e4-434d-8b01-82b37874aab3","ios":"levelo://app?vid=81ecd235-69e4-434d-8b01-82b37874aab3"},"vehicle_type_id":"4","last_reported":1703286424,"current_range_meters":31200,"station_id":"ce4bha92rcd13ifvqeg0","pricing_plan_id":"free"},{"bike_id":"05a91304-c3de-4da2-834e-5964d898eaca","system_id":"levelo_inurba_marseille","lat":43.290631,"lon":5.359244,"is_reserved":false,"is_disabled":false,"rental_uris":{"android":"levelo://app?vid=05a91304-c3de-4da2-834e-5964d898eaca","ios":"levelo://app?vid=05a91304-c3de-4da2-834e-5964d898eaca"},"vehicle_type_id":"4","last_reported":1703286424,"current_range_meters":30400,"station_id":"ce4bha92rcd13ifvqeg0","pricing_plan_id":"free"},{"bike_id":"91d5f192-570c-47b6-8665-7a749fc4e55f","system_id":"levelo_inurba_marseille","lat":43.292717,"lon":5.384567,"is_reserved":false,"is_disabled":false,"rental_uris":{"android":"levelo://app?vid=91d5f192-570c-47b6-8665-7a749fc4e55f","ios":"levelo://app?vid=91d5f192-570c-47b6-8665-7a749fc4e55f"},"vehicle_type_id":"4","last_reported":1703286424,"current_range_meters":20400,"station_id":"ce4bh692rcd13ifvqea0","pricing_plan_id":"free"},{"bike_id":"7790ff89-fdfe-452d-9d36-d8b1d5cc781d","system_id":"levelo_inurba_marseille","lat":43.290104,"lon":5.356111,"is_reserved":false,"is_disabled":false,"rental_uris":{"android":"levelo://app?vid=7790ff89-fdfe-452d-9d36-d8b1d5cc781d","ios":"levelo://app?vid=7790ff89-fdfe-452d-9d36-d8b1d5cc781d"},"vehicle_type_id":"4","last_reported":1703286424,"current_range_meters":14400,"station_id":"ce4bhb92rcd13ifvqen0","pricing_plan_id":"free"},{"bike_id":"5d493969-578d-4ecd-9d25-2d165dc669df","system_id":"levelo_inurba_marseille","lat":43.303311,"lon":5.397683,"is_reserved":false,"is_disabled":false,"rental_uris":{"android":"levelo://app?vid=5d493969-578d-4ecd-9d25-2d165dc669df","ios":"levelo://app?vid=5d493969-578d-4ecd-9d25-2d165dc669df"},"vehicle_type_id":"4","last_reported":1703286424,"current_range_meters":0,"station_id":"","pricing_plan_id":"free"},{"bike_id":"d3456a4e-a9e0-4fc7-b3df-0515be5ca2a6","system_id":"levelo_inurba_marseille","lat":43.297868,"lon":5.39335,"is_reserved":false,"is_disabled":false,"rental_uris":{"android":"levelo://app?vid=d3456a4e-a9e0-4fc7-b3df-0515be5ca2a6","ios":"levelo://app?vid=d3456a4e-a9e0-4fc7-b3df-0515be5ca2a6"},"vehicle_type_id":"4","last_reported":1703286424,"current_range_meters":0,"station_id":"chh1huq6cuj3fo74tm60","pricing_plan_id":"free"},{"bike_id":"28bd0799-2d1f-44f9-bb5d-3b37f12e8dd4","system_id":"levelo_inurba_marseille","lat":43.297847,"lon":5.393333,"is_reserved":false,"is_disabled":false,"rental_uris":{"android":"levelo://app?vid=28bd0799-2d1f-44f9-bb5d-3b37f12e8dd4","ios":"levelo://app?vid=28bd0799-2d1f-44f9-bb5d-3b37f12e8dd4"},"vehicle_type_id":"4","last_reported":1703286424,"current_range_meters":4000,"station_id":"chh1huq6cuj3fo74tm60","pricing_plan_id":"free"},{"bike_id":"f98faf19-403e-4ee7-8939-68cda535204c","system_id":"levelo_inurba_marseille","lat":43.295169,"lon":5.390426,"is_reserved":false,"is_disabled":false,"rental_uris":{"android":"levelo://app?vid=f98faf19-403e-4ee7-8939-68cda535204c","ios":"levelo://app?vid=f98faf19-403e-4ee7-8939-68cda535204c"},"vehicle_type_id":"4","last_reported":1703286424,"current_range_meters":27600,"station_id":"ce4bh3p2rcd13ifvqdp0","pricing_plan_id":"free"},{"bike_id":"e12972cc-6790-49f6-b985-6bd97f171776","system_id":"levelo_inurba_marseille","lat":43.289741,"lon":5.378306,"is_reserved":false,"is_disabled":false,"rental_uris":{"android":"levelo://app?vid=e12972cc-6790-49f6-b985-6bd97f171776","ios":"levelo://app?vid=e12972cc-6790-49f6-b985-6bd97f171776"},"vehicle_type_id":"4","last_reported":1703286424,"current_range_meters":23600,"station_id":"ce4bh9p2rcd13ifvqed0","pricing_plan_id":"free"},{"bike_id":"7a10f6f1-be2d-4520-8d9f-4e55d833f45a","system_id":"levelo_inurba_marseille","lat":43.28856,"lon":5.358371,"is_reserved":false,"is_disabled":false,"rental_uris":{"android":"levelo://app?vid=7a10f6f1-be2d-4520-8d9f-4e55d833f45a","ios":"levelo://app?vid=7a10f6f1-be2d-4520-8d9f-4e55d833f45a"},"vehicle_type_id":"4","last_reported":1703286424,"current_range_meters":17200,"station_id":"ce4bhb12rcd13ifvqem0","pricing_plan_id":"free"},{"bike_id":"8ef0b422-19f6-411f-94a3-e522ab90585c","system_id":"levelo_inurba_marseille","lat":43.28856,"lon":5.358371,"is_reserved":false,"is_disabled":false,"rental_uris":{"android":"levelo://app?vid=8ef0b422-19f6-411f-94a3-e522ab90585c","ios":"levelo://app?vid=8ef0b422-19f6-411f-94a3-e522ab90585c"},"vehicle_type_id":"4","last_reported":1703286424,"current_range_meters":1200,"station_id":"ce4bhb12rcd13ifvqem0","pricing_plan_id":"free"},{"bike_id":"fb80af67-0bd9-41bb-9332-628b36cf4a3e","system_id":"levelo_inurba_marseille","lat":43.309371,"lon":5.401449,"is_reserved":false,"is_disabled":false,"rental_uris":{"android":"levelo://app?vid=fb80af67-0bd9-41bb-9332-628b36cf4a3e","ios":"levelo://app?vid=fb80af67-0bd9-41bb-9332-628b36cf4a3e"},"vehicle_type_id":"4","last_reported":1703286424,"current_range_meters":22400,"station_id":"ce4bgvp2rcd13ifvqct0","pricing_plan_id":"free"},{"bike_id":"5ead1464-77c6-4df9-9688-a6faea1fbd31","system_id":"levelo_inurba_marseille","lat":43.30642,"lon":5.401031,"is_reserved":false,"is_disabled":false,"rental_uris":{"android":"levelo://app?vid=5ead1464-77c6-4df9-9688-a6faea1fbd31","ios":"levelo://app?vid=5ead1464-77c6-4df9-9688-a6faea1fbd31"},"vehicle_type_id":"4","last_reported":1703286424,"current_range_meters":8000,"station_id":"ce4bh112rcd13ifvqda0","pricing_plan_id":"free"},{"bike_id":"9bee3a0c-136c-441f-b810-f0830a58602e","system_id":"levelo_inurba_marseille","lat":43.28727,"lon":5.36078,"is_reserved":false,"is_disabled":false,"rental_uris":{"android":"levelo://app?vid=9bee3a0c-136c-441f-b810-f0830a58602e","ios":"levelo://app?vid=9bee3a0c-136c-441f-b810-f0830a58602e"},"vehicle_type_id":"4","last_reported":1703286424,"current_range_meters":18400,"station_id":"cki0cbj6b192h4jlfktg","pricing_plan_id":"free"},{"bike_id":"75b18967-7f89-4897-8d40-bd05fffa6136","system_id":"levelo_inurba_marseille","lat":43.301117,"lon":5.398795,"is_reserved":false,"is_disabled":false,"rental_uris":{"android":"levelo://app?vid=75b18967-7f89-4897-8d40-bd05fffa6136","ios":"levelo://app?vid=75b18967-7f89-4897-8d40-bd05fffa6136"},"vehicle_type_id":"4","last_reported":1703286424,"current_range_meters":28400,"station_id":"ce4bh0h2rcd13ifvqd40","pricing_plan_id":"free"},{"bike_id":"0033355c-48e3-487f-83f1-2a6ccbb3045c","system_id":"levelo_inurba_marseille","lat":43.28727,"lon":5.36078,"is_reserved":false,"is_disabled":false,"rental_uris":{"android":"levelo://app?vid=0033355c-48e3-487f-83f1-2a6ccbb3045c","ios":"levelo://app?vid=0033355c-48e3-487f-83f1-2a6ccbb3045c"},"vehicle_type_id":"4","last_reported":1703286424,"current_range_meters":31200,"station_id":"cki0cbj6b192h4jlfktg","pricing_plan_id":"free"},{"bike_id":"a6efb37b-2ef6-49dc-872c-d915832fefb8","system_id":"levelo_inurba_marseille","lat":43.286961,"lon":5.373785,"is_reserved":false,"is_disabled":false,"rental_uris":{"android":"levelo://app?vid=a6efb37b-2ef6-49dc-872c-d915832fefb8","ios":"levelo://app?vid=a6efb37b-2ef6-49dc-872c-d915832fefb8"},"vehicle_type_id":"4","last_reported":1703286424,"current_range_meters":29200,"station_id":"ce4bh3p2rcd13ifvqdq0","pricing_plan_id":"free"},{"bike_id":"fa8c2c98-2af2-40db-a88e-8493c221877c","system_id":"levelo_inurba_marseille","lat":43.298681,"lon":5.397225,"is_reserved":false,"is_disabled":false,"rental_uris":{"android":"levelo://app?vid=fa8c2c98-2af2-40db-a88e-8493c221877c","ios":"levelo://app?vid=fa8c2c98-2af2-40db-a88e-8493c221877c"},"vehicle_type_id":"4","last_reported":1703286424,"current_range_meters":22400,"station_id":"ce4bh0h2rcd13ifvqd50","pricing_plan_id":"free"},{"bike_id":"98e48ef2-398c-425e-851f-0b6ac0708f0c","system_id":"levelo_inurba_marseille","lat":43.286961,"lon":5.373785,"is_reserved":false,"is_disabled":false,"rental_uris":{"android":"levelo://app?vid=98e48ef2-398c-425e-851f-0b6ac0708f0c","ios":"levelo://app?vid=98e48ef2-398c-425e-851f-0b6ac0708f0c"},"vehicle_type_id":"4","last_reported":1703286424,"current_range_meters":25600,"station_id":"ce4bh3p2rcd13ifvqdq0","pricing_plan_id":"free"},{"bike_id":"2df63102-614c-4e27-9993-a913697f522f","system_id":"levelo_inurba_marseille","lat":43.286961,"lon":5.373785,"is_reserved":false,"is_disabled":false,"rental_uris":{"android":"levelo://app?vid=2df63102-614c-4e27-9993-a913697f522f","ios":"levelo://app?vid=2df63102-614c-4e27-9993-a913697f522f"},"vehicle_type_id":"4","last_reported":1703286424,"current_range_meters":13200,"station_id":"ce4bh3p2rcd13ifvqdq0","pricing_plan_id":"free"},{"bike_id":"7796e7a0-765a-4796-89af-c7b907a9cf86","system_id":"levelo_inurba_marseille","lat":43.298681,"lon":5.397225,"is_reserved":false,"is_disabled":false,"rental_uris":{"android":"levelo://app?vid=7796e7a0-765a-4796-89af-c7b907a9cf86","ios":"levelo://app?vid=7796e7a0-765a-4796-89af-c7b907a9cf86"},"vehicle_type_id":"4","last_reported":1703286424,"current_range_meters":18800,"station_id":"ce4bh0h2rcd13ifvqd50","pricing_plan_id":"free"},{"bike_id":"180aabb0-70d8-4d51-9c1b-29d82762c3c9","system_id":"levelo_inurba_marseille","lat":43.286963,"lon":5.373947,"is_reserved":false,"is_disabled":false,"rental_uris":{"android":"levelo://app?vid=180aabb0-70d8-4d51-9c1b-29d82762c3c9","ios":"levelo://app?vid=180aabb0-70d8-4d51-9c1b-29d82762c3c9"},"vehicle_type_id":"4","last_reported":1703286424,"current_range_meters":11200,"station_id":"ce4bh3p2rcd13ifvqdq0","pricing_plan_id":"free"},{"bike_id":"fb9f57c8-299a-47ac-9b16-6025705f3c26","system_id":"levelo_inurba_marseille","lat":43.295196,"lon":5.39397,"is_reserved":false,"is_disabled":false,"rental_uris":{"android":"levelo://app?vid=fb9f57c8-299a-47ac-9b16-6025705f3c26","ios":"levelo://app?vid=fb9f57c8-299a-47ac-9b16-6025705f3c26"},"vehicle_type_id":"4","last_reported":1703286424,"current_range_meters":16000,"station_id":"ce4bh292rcd13ifvqdf0","pricing_plan_id":"free"},{"bike_id":"baa99744-c241-4434-b1f3-82817ff7d8b2","system_id":"levelo_inurba_marseille","lat":43.286961,"lon":5.373785,"is_reserved":false,"is_disabled":false,"rental_uris":{"android":"levelo://app?vid=baa99744-c241-4434-b1f3-82817ff7d8b2","ios":"levelo://app?vid=baa99744-c241-4434-b1f3-82817ff7d8b2"},"vehicle_type_id":"4","last_reported":1703286424,"current_range_meters":13200,"station_id":"ce4bh3p2rcd13ifvqdq0","pricing_plan_id":"free"},{"bike_id":"7a645867-3b52-4547-8870-d59fa9a29cce","system_id":"levelo_inurba_marseille","lat":43.295196,"lon":5.39397,"is_reserved":false,"is_disabled":false,"rental_uris":{"android":"levelo://app?vid=7a645867-3b52-4547-8870-d59fa9a29cce","ios":"levelo://app?vid=7a645867-3b52-4547-8870-d59fa9a29cce"},"vehicle_type_id":"4","last_reported":1703286424,"current_range_meters":29600,"station_id":"ce4bh292rcd13ifvqdf0","pricing_plan_id":"free"},{"bike_id":"02f087f4-6ee7-4f58-8190-cfee4bd7f1c4","system_id":"levelo_inurba_marseille","lat":43.290336,"lon":5.386425,"is_reserved":false,"is_disabled":false,"rental_uris":{"android":"levelo://app?vid=02f087f4-6ee7-4f58-8190-cfee4bd7f1c4","ios":"levelo://app?vid=02f087f4-6ee7-4f58-8190-cfee4bd7f1c4"},"vehicle_type_id":"4","last_reported":1703286424,"current_range_meters":24400,"station_id":"ce4bh4p2rcd13ifvqe0g","pricing_plan_id":"free"},{"bike_id":"128efa03-4166-4506-a699-835c18168f6c","system_id":"levelo_inurba_marseille","lat":43.289307,"lon":5.38406,"is_reserved":false,"is_disabled":false,"rental_uris":{"android":"levelo://app?vid=128efa03-4166-4506-a699-835c18168f6c","ios":"levelo://app?vid=128efa03-4166-4506-a699-835c18168f6c"},"vehicle_type_id":"4","last_reported":1703286424,"current_range_meters":25600,"station_id":"ce4bh612rcd13ifvqe6g","pricing_plan_id":"free"},{"bike_id":"eb502274-37ff-4ca4-bbe7-4ad04d1501c1","system_id":"levelo_inurba_marseille","lat":43.290336,"lon":5.386425,"is_reserved":false,"is_disabled":false,"rental_uris":{"android":"levelo://app?vid=eb502274-37ff-4ca4-bbe7-4ad04d1501c1","ios":"levelo://app?vid=eb502274-37ff-4ca4-bbe7-4ad04d1501c1"},"vehicle_type_id":"4","last_reported":1703286424,"current_range_meters":12800,"station_id":"ce4bh4p2rcd13ifvqe0g","pricing_plan_id":"free"},{"bike_id":"b269c749-19b3-457a-9f11-021ccc443c55","system_id":"levelo_inurba_marseille","lat":43.286039,"lon":5.370679,"is_reserved":false,"is_disabled":false,"rental_uris":{"android":"levelo://app?vid=b269c749-19b3-457a-9f11-021ccc443c55","ios":"levelo://app?vid=b269c749-19b3-457a-9f11-021ccc443c55"},"vehicle_type_id":"4","last_reported":1703286424,"current_range_meters":18000,"station_id":"ce4bht12rcd13ifvqi60","pricing_plan_id":"free"},{"bike_id":"0a2e800b-fa74-4150-afbb-edb394aedf99","system_id":"levelo_inurba_marseille","lat":43.291994,"lon":5.392907,"is_reserved":false,"is_disabled":false,"rental_uris":{"android":"levelo://app?vid=0a2e800b-fa74-4150-afbb-edb394aedf99","ios":"levelo://app?vid=0a2e800b-fa74-4150-afbb-edb394aedf99"},"vehicle_type_id":"4","last_reported":1703286424,"current_range_meters":16800,"station_id":"ce4bh192rcd13ifvqdd0","pricing_plan_id":"free"},{"bike_id":"6ace1402-69fb-457d-ba4c-03b3c25e66e2","system_id":"levelo_inurba_marseille","lat":43.291994,"lon":5.392907,"is_reserved":false,"is_disabled":false,"rental_uris":{"android":"levelo://app?vid=6ace1402-69fb-457d-ba4c-03b3c25e66e2","ios":"levelo://app?vid=6ace1402-69fb-457d-ba4c-03b3c25e66e2"},"vehicle_type_id":"4","last_reported":1703286424,"current_range_meters":1600,"station_id":"ce4bh192rcd13ifvqdd0","pricing_plan_id":"free"},{"bike_id":"e2adfa7c-882e-48a1-9ee4-b36e6186ebbf","system_id":"levelo_inurba_marseille","lat":43.330912,"lon":5.396935,"is_reserved":false,"is_disabled":false,"rental_uris":{"android":"levelo://app?vid=e2adfa7c-882e-48a1-9ee4-b36e6186ebbf","ios":"levelo://app?vid=e2adfa7c-882e-48a1-9ee4-b36e6186ebbf"},"vehicle_type_id":"4","last_reported":1703286424,"current_range_meters":16800,"station_id":"","pricing_plan_id":"free"},{"bike_id":"ce83a5c5-1b59-4268-ba3a-86cabe0b3ae5","system_id":"levelo_inurba_marseille","lat":43.284538,"lon":5.358657,"is_reserved":false,"is_disabled":false,"rental_uris":{"android":"levelo://app?vid=ce83a5c5-1b59-4268-ba3a-86cabe0b3ae5","ios":"levelo://app?vid=ce83a5c5-1b59-4268-ba3a-86cabe0b3ae5"},"vehicle_type_id":"4","last_reported":1703286424,"current_range_meters":2800,"station_id":"ce4bhah2rcd13ifvqei0","pricing_plan_id":"free"},{"bike_id":"6681f091-8cae-40db-82be-2afedc79afec","system_id":"levelo_inurba_marseille","lat":43.297915,"lon":5.400749,"is_reserved":false,"is_disabled":false,"rental_uris":{"android":"levelo://app?vid=6681f091-8cae-40db-82be-2afedc79afec","ios":"levelo://app?vid=6681f091-8cae-40db-82be-2afedc79afec"},"vehicle_type_id":"4","last_reported":1703286424,"current_range_meters":4400,"station_id":"","pricing_plan_id":"free"},{"bike_id":"51dd8f50-e7b1-4e0f-be55-6d854daa0745","system_id":"levelo_inurba_marseille","lat":43.294314,"lon":5.397498,"is_reserved":false,"is_disabled":false,"rental_uris":{"android":"levelo://app?vid=51dd8f50-e7b1-4e0f-be55-6d854daa0745","ios":"levelo://app?vid=51dd8f50-e7b1-4e0f-be55-6d854daa0745"},"vehicle_type_id":"4","last_reported":1703286424,"current_range_meters":11200,"station_id":"ce4bh3h2rcd13ifvqdo0","pricing_plan_id":"free"},{"bike_id":"5be14da4-4e9b-4368-8d32-be9f61fbce48","system_id":"levelo_inurba_marseille","lat":43.295713,"lon":5.399639,"is_reserved":false,"is_disabled":false,"rental_uris":{"android":"levelo://app?vid=5be14da4-4e9b-4368-8d32-be9f61fbce48","ios":"levelo://app?vid=5be14da4-4e9b-4368-8d32-be9f61fbce48"},"vehicle_type_id":"4","last_reported":1703286424,"current_range_meters":24000,"station_id":"ce4bh312rcd13ifvqdj0","pricing_plan_id":"free"},{"bike_id":"b44111f6-06d5-40eb-bee9-06caa0550dd1","system_id":"levelo_inurba_marseille","lat":43.286595,"lon":5.386795,"is_reserved":false,"is_disabled":false,"rental_uris":{"android":"levelo://app?vid=b44111f6-06d5-40eb-bee9-06caa0550dd1","ios":"levelo://app?vid=b44111f6-06d5-40eb-bee9-06caa0550dd1"},"vehicle_type_id":"4","last_reported":1703286424,"current_range_meters":3600,"station_id":"ce4bh492rcd13ifvqdug","pricing_plan_id":"free"},{"bike_id":"b306bef3-61ce-4097-b249-eebc7da08ee6","system_id":"levelo_inurba_marseille","lat":43.323464,"lon":5.406297,"is_reserved":false,"is_disabled":false,"rental_uris":{"android":"levelo://app?vid=b306bef3-61ce-4097-b249-eebc7da08ee6","ios":"levelo://app?vid=b306bef3-61ce-4097-b249-eebc7da08ee6"},"vehicle_type_id":"4","last_reported":1703286424,"current_range_meters":27200,"station_id":"ce4bhq92rcd13ifvqhjg","pricing_plan_id":"free"},{"bike_id":"3b7e3ec0-988e-4aeb-bcf3-3017c628b5d3","system_id":"levelo_inurba_marseille","lat":43.33717,"lon":5.391857,"is_reserved":false,"is_disabled":false,"rental_uris":{"android":"levelo://app?vid=3b7e3ec0-988e-4aeb-bcf3-3017c628b5d3","ios":"levelo://app?vid=3b7e3ec0-988e-4aeb-bcf3-3017c628b5d3"},"vehicle_type_id":"4","last_reported":1703286424,"current_range_meters":30400,"station_id":"ce4bhr92rcd13ifvqhsg","pricing_plan_id":"free"},{"bike_id":"69a23a1c-70a2-4aea-9058-ccf2c18c7b58","system_id":"levelo_inurba_marseille","lat":43.33717,"lon":5.391857,"is_reserved":false,"is_disabled":false,"rental_uris":{"android":"levelo://app?vid=69a23a1c-70a2-4aea-9058-ccf2c18c7b58","ios":"levelo://app?vid=69a23a1c-70a2-4aea-9058-ccf2c18c7b58"},"vehicle_type_id":"4","last_reported":1703286424,"current_range_meters":26800,"station_id":"ce4bhr92rcd13ifvqhsg","pricing_plan_id":"free"},{"bike_id":"b7c71217-6fce-490c-9bd4-073ff8143718","system_id":"levelo_inurba_marseille","lat":43.33717,"lon":5.391857,"is_reserved":false,"is_disabled":false,"rental_uris":{"android":"levelo://app?vid=b7c71217-6fce-490c-9bd4-073ff8143718","ios":"levelo://app?vid=b7c71217-6fce-490c-9bd4-073ff8143718"},"vehicle_type_id":"4","last_reported":1703286424,"current_range_meters":31200,"station_id":"ce4bhr92rcd13ifvqhsg","pricing_plan_id":"free"},{"bike_id":"233eb238-e400-46e7-9601-45e4ec2edf9e","system_id":"levelo_inurba_marseille","lat":43.337168,"lon":5.391825,"is_reserved":false,"is_disabled":false,"rental_uris":{"android":"levelo://app?vid=233eb238-e400-46e7-9601-45e4ec2edf9e","ios":"levelo://app?vid=233eb238-e400-46e7-9601-45e4ec2edf9e"},"vehicle_type_id":"4","last_reported":1703286424,"current_range_meters":9600,"station_id":"ce4bhr92rcd13ifvqhsg","pricing_plan_id":"free"},{"bike_id":"21dfe4ee-e0d8-43dc-a445-17834023ca68","system_id":"levelo_inurba_marseille","lat":43.28485,"lon":5.3843,"is_reserved":false,"is_disabled":false,"rental_uris":{"android":"levelo://app?vid=21dfe4ee-e0d8-43dc-a445-17834023ca68","ios":"levelo://app?vid=21dfe4ee-e0d8-43dc-a445-17834023ca68"},"vehicle_type_id":"4","last_reported":1703286424,"current_range_meters":0,"station_id":"ce4bh512rcd13ifvqe3g","pricing_plan_id":"free"},{"bike_id":"9c74e045-1af2-4aa6-a56d-7c5bb9df5880","system_id":"levelo_inurba_marseille","lat":43.284793,"lon":5.384119,"is_reserved":false,"is_disabled":false,"rental_uris":{"android":"levelo://app?vid=9c74e045-1af2-4aa6-a56d-7c5bb9df5880","ios":"levelo://app?vid=9c74e045-1af2-4aa6-a56d-7c5bb9df5880"},"vehicle_type_id":"4","last_reported":1703286424,"current_range_meters":2000,"station_id":"ce4bh512rcd13ifvqe3g","pricing_plan_id":"free"},{"bike_id":"65021249-c0c2-4b0f-bb1e-ecd3d7ce2832","system_id":"levelo_inurba_marseille","lat":43.28472,"lon":5.38405,"is_reserved":false,"is_disabled":false,"rental_uris":{"android":"levelo://app?vid=65021249-c0c2-4b0f-bb1e-ecd3d7ce2832","ios":"levelo://app?vid=65021249-c0c2-4b0f-bb1e-ecd3d7ce2832"},"vehicle_type_id":"4","last_reported":1703286424,"current_range_meters":0,"station_id":"ce4bh512rcd13ifvqe3g","pricing_plan_id":"free"},{"bike_id":"1c4380f8-61ca-4ab3-b7bb-8795085c5212","system_id":"levelo_inurba_marseille","lat":43.297946,"lon":5.404063,"is_reserved":false,"is_disabled":false,"rental_uris":{"android":"levelo://app?vid=1c4380f8-61ca-4ab3-b7bb-8795085c5212","ios":"levelo://app?vid=1c4380f8-61ca-4ab3-b7bb-8795085c5212"},"vehicle_type_id":"4","last_reported":1703286424,"current_range_meters":24800,"station_id":"ce4bh112rcd13ifvqd90","pricing_plan_id":"free"},{"bike_id":"fba410cf-6f4b-46f3-836a-d523869ce15d","system_id":"levelo_inurba_marseille","lat":43.29795,"lon":5.404086,"is_reserved":false,"is_disabled":false,"rental_uris":{"android":"levelo://app?vid=fba410cf-6f4b-46f3-836a-d523869ce15d","ios":"levelo://app?vid=fba410cf-6f4b-46f3-836a-d523869ce15d"},"vehicle_type_id":"4","last_reported":1703286424,"current_range_meters":30000,"station_id":"ce4bh112rcd13ifvqd90","pricing_plan_id":"free"},{"bike_id":"dd2c3ceb-e73c-4214-a147-8ddf55655284","system_id":"levelo_inurba_marseille","lat":43.288501,"lon":5.393087,"is_reserved":false,"is_disabled":false,"rental_uris":{"android":"levelo://app?vid=dd2c3ceb-e73c-4214-a147-8ddf55655284","ios":"levelo://app?vid=dd2c3ceb-e73c-4214-a147-8ddf55655284"},"vehicle_type_id":"4","last_reported":1703286424,"current_range_meters":29600,"station_id":"ce4bh2p2rcd13ifvqdi0","pricing_plan_id":"free"},{"bike_id":"fa40f7a2-303b-4b77-a87d-826443c43c28","system_id":"levelo_inurba_marseille","lat":43.288501,"lon":5.393087,"is_reserved":false,"is_disabled":false,"rental_uris":{"android":"levelo://app?vid=fa40f7a2-303b-4b77-a87d-826443c43c28","ios":"levelo://app?vid=fa40f7a2-303b-4b77-a87d-826443c43c28"},"vehicle_type_id":"4","last_reported":1703286424,"current_range_meters":20800,"station_id":"ce4bh2p2rcd13ifvqdi0","pricing_plan_id":"free"},{"bike_id":"fd6583fe-bfb4-4eec-9c48-29450c69b4e5","system_id":"levelo_inurba_marseille","lat":43.283494,"lon":5.380945,"is_reserved":false,"is_disabled":false,"rental_uris":{"android":"levelo://app?vid=fd6583fe-bfb4-4eec-9c48-29450c69b4e5","ios":"levelo://app?vid=fd6583fe-bfb4-4eec-9c48-29450c69b4e5"},"vehicle_type_id":"4","last_reported":1703286424,"current_range_meters":24400,"station_id":"ce4bh412rcd13ifvqdr0","pricing_plan_id":"free"},{"bike_id":"9d529b75-68bf-461d-a200-5fe479ed1362","system_id":"levelo_inurba_marseille","lat":43.283494,"lon":5.380945,"is_reserved":false,"is_disabled":false,"rental_uris":{"android":"levelo://app?vid=9d529b75-68bf-461d-a200-5fe479ed1362","ios":"levelo://app?vid=9d529b75-68bf-461d-a200-5fe479ed1362"},"vehicle_type_id":"4","last_reported":1703286424,"current_range_meters":6800,"station_id":"ce4bh412rcd13ifvqdr0","pricing_plan_id":"free"},{"bike_id":"b1150a08-14b8-4d87-8b9a-5658fda0c676","system_id":"levelo_inurba_marseille","lat":43.283494,"lon":5.380945,"is_reserved":false,"is_disabled":false,"rental_uris":{"android":"levelo://app?vid=b1150a08-14b8-4d87-8b9a-5658fda0c676","ios":"levelo://app?vid=b1150a08-14b8-4d87-8b9a-5658fda0c676"},"vehicle_type_id":"4","last_reported":1703286424,"current_range_meters":23600,"station_id":"ce4bh412rcd13ifvqdr0","pricing_plan_id":"free"},{"bike_id":"979baece-f55e-46ef-a495-b9ecb9b19866","system_id":"levelo_inurba_marseille","lat":43.283498,"lon":5.380948,"is_reserved":false,"is_disabled":false,"rental_uris":{"android":"levelo://app?vid=979baece-f55e-46ef-a495-b9ecb9b19866","ios":"levelo://app?vid=979baece-f55e-46ef-a495-b9ecb9b19866"},"vehicle_type_id":"4","last_reported":1703286424,"current_range_meters":800,"station_id":"ce4bh412rcd13ifvqdr0","pricing_plan_id":"free"},{"bike_id":"3836b981-ce8c-4134-a5b7-097c6433e054","system_id":"levelo_inurba_marseille","lat":43.283498,"lon":5.380948,"is_reserved":false,"is_disabled":false,"rental_uris":{"android":"levelo://app?vid=3836b981-ce8c-4134-a5b7-097c6433e054","ios":"levelo://app?vid=3836b981-ce8c-4134-a5b7-097c6433e054"},"vehicle_type_id":"4","last_reported":1703286424,"current_range_meters":26000,"station_id":"ce4bh412rcd13ifvqdr0","pricing_plan_id":"free"},{"bike_id":"b02feee7-8174-41b3-95be-62f87df2ecbb","system_id":"levelo_inurba_marseille","lat":43.283494,"lon":5.380945,"is_reserved":false,"is_disabled":false,"rental_uris":{"android":"levelo://app?vid=b02feee7-8174-41b3-95be-62f87df2ecbb","ios":"levelo://app?vid=b02feee7-8174-41b3-95be-62f87df2ecbb"},"vehicle_type_id":"4","last_reported":1703286424,"current_range_meters":14000,"station_id":"ce4bh412rcd13ifvqdr0","pricing_plan_id":"free"},{"bike_id":"b6f1f3de-4488-4b2c-932e-085734e4f1f1","system_id":"levelo_inurba_marseille","lat":43.284217,"lon":5.349697,"is_reserved":false,"is_disabled":false,"rental_uris":{"android":"levelo://app?vid=b6f1f3de-4488-4b2c-932e-085734e4f1f1","ios":"levelo://app?vid=b6f1f3de-4488-4b2c-932e-085734e4f1f1"},"vehicle_type_id":"4","last_reported":1703286424,"current_range_meters":25200,"station_id":"ce4bhbh2rcd13ifvqepg","pricing_plan_id":"free"},{"bike_id":"e05e32f5-da1c-4867-b59d-08f9c7c0b28e","system_id":"levelo_inurba_marseille","lat":43.29282,"lon":5.40113,"is_reserved":false,"is_disabled":false,"rental_uris":{"android":"levelo://app?vid=e05e32f5-da1c-4867-b59d-08f9c7c0b28e","ios":"levelo://app?vid=e05e32f5-da1c-4867-b59d-08f9c7c0b28e"},"vehicle_type_id":"4","last_reported":1703286424,"current_range_meters":0,"station_id":"ce4bh312rcd13ifvqdk0","pricing_plan_id":"free"},{"bike_id":"d8ca7455-ec88-4250-8ec0-3fc21f92c74f","system_id":"levelo_inurba_marseille","lat":43.292724,"lon":5.401131,"is_reserved":false,"is_disabled":false,"rental_uris":{"android":"levelo://app?vid=d8ca7455-ec88-4250-8ec0-3fc21f92c74f","ios":"levelo://app?vid=d8ca7455-ec88-4250-8ec0-3fc21f92c74f"},"vehicle_type_id":"4","last_reported":1703286424,"current_range_meters":0,"station_id":"ce4bh312rcd13ifvqdk0","pricing_plan_id":"free"},{"bike_id":"0c07039d-f042-4577-ad3b-2eb17b5732ec","system_id":"levelo_inurba_marseille","lat":43.282691,"lon":5.350738,"is_reserved":false,"is_disabled":false,"rental_uris":{"android":"levelo://app?vid=0c07039d-f042-4577-ad3b-2eb17b5732ec","ios":"levelo://app?vid=0c07039d-f042-4577-ad3b-2eb17b5732ec"},"vehicle_type_id":"4","last_reported":1703286424,"current_range_meters":10000,"station_id":"ce4bhbp2rcd13ifvqerg","pricing_plan_id":"free"},{"bike_id":"8c390459-bc7b-427a-9b73-2c1c9e96a676","system_id":"levelo_inurba_marseille","lat":43.282744,"lon":5.350533,"is_reserved":false,"is_disabled":false,"rental_uris":{"android":"levelo://app?vid=8c390459-bc7b-427a-9b73-2c1c9e96a676","ios":"levelo://app?vid=8c390459-bc7b-427a-9b73-2c1c9e96a676"},"vehicle_type_id":"4","last_reported":1703286424,"current_range_meters":30000,"station_id":"ce4bhbp2rcd13ifvqerg","pricing_plan_id":"free"},{"bike_id":"5dfbda82-9999-48e9-9779-7781fbf040e2","system_id":"levelo_inurba_marseille","lat":43.28265,"lon":5.35081,"is_reserved":false,"is_disabled":false,"rental_uris":{"android":"levelo://app?vid=5dfbda82-9999-48e9-9779-7781fbf040e2","ios":"levelo://app?vid=5dfbda82-9999-48e9-9779-7781fbf040e2"},"vehicle_type_id":"4","last_reported":1703286424,"current_range_meters":29600,"station_id":"ce4bhbp2rcd13ifvqerg","pricing_plan_id":"free"},{"bike_id":"2e8c9024-a2a8-4be1-9626-8227e6c03fe9","system_id":"levelo_inurba_marseille","lat":43.282744,"lon":5.350533,"is_reserved":false,"is_disabled":false,"rental_uris":{"android":"levelo://app?vid=2e8c9024-a2a8-4be1-9626-8227e6c03fe9","ios":"levelo://app?vid=2e8c9024-a2a8-4be1-9626-8227e6c03fe9"},"vehicle_type_id":"4","last_reported":1703286424,"current_range_meters":23600,"station_id":"ce4bhbp2rcd13ifvqerg","pricing_plan_id":"free"},{"bike_id":"0bb11488-f524-43ac-b0ef-26d7b8df5763","system_id":"levelo_inurba_marseille","lat":43.282642,"lon":5.350588,"is_reserved":false,"is_disabled":false,"rental_uris":{"android":"levelo://app?vid=0bb11488-f524-43ac-b0ef-26d7b8df5763","ios":"levelo://app?vid=0bb11488-f524-43ac-b0ef-26d7b8df5763"},"vehicle_type_id":"4","last_reported":1703286424,"current_range_meters":11200,"station_id":"ce4bhbp2rcd13ifvqerg","pricing_plan_id":"free"},{"bike_id":"084a68a6-31fa-4c68-9c25-1a38349bdae3","system_id":"levelo_inurba_marseille","lat":43.283502,"lon":5.386471,"is_reserved":false,"is_disabled":false,"rental_uris":{"android":"levelo://app?vid=084a68a6-31fa-4c68-9c25-1a38349bdae3","ios":"levelo://app?vid=084a68a6-31fa-4c68-9c25-1a38349bdae3"},"vehicle_type_id":"4","last_reported":1703286424,"current_range_meters":8400,"station_id":"ce4bh492rcd13ifvqdvg","pricing_plan_id":"free"},{"bike_id":"9ffafec3-6611-4556-9571-530e1d819b18","system_id":"levelo_inurba_marseille","lat":43.280382,"lon":5.369291,"is_reserved":false,"is_disabled":false,"rental_uris":{"android":"levelo://app?vid=9ffafec3-6611-4556-9571-530e1d819b18","ios":"levelo://app?vid=9ffafec3-6611-4556-9571-530e1d819b18"},"vehicle_type_id":"4","last_reported":1703286424,"current_range_meters":17200,"station_id":"ce4bha12rcd13ifvqef0","pricing_plan_id":"free"},{"bike_id":"289d2076-0005-417e-aaf4-5a60e1989df9","system_id":"levelo_inurba_marseille","lat":43.28039,"lon":5.369297,"is_reserved":false,"is_disabled":false,"rental_uris":{"android":"levelo://app?vid=289d2076-0005-417e-aaf4-5a60e1989df9","ios":"levelo://app?vid=289d2076-0005-417e-aaf4-5a60e1989df9"},"vehicle_type_id":"4","last_reported":1703286424,"current_range_meters":13200,"station_id":"ce4bha12rcd13ifvqef0","pricing_plan_id":"free"},{"bike_id":"06197de1-47f7-4cb7-9a62-a0f13e3be420","system_id":"levelo_inurba_marseille","lat":43.280382,"lon":5.369291,"is_reserved":false,"is_disabled":false,"rental_uris":{"android":"levelo://app?vid=06197de1-47f7-4cb7-9a62-a0f13e3be420","ios":"levelo://app?vid=06197de1-47f7-4cb7-9a62-a0f13e3be420"},"vehicle_type_id":"4","last_reported":1703286424,"current_range_meters":23200,"station_id":"ce4bha12rcd13ifvqef0","pricing_plan_id":"free"},{"bike_id":"2024a61b-7173-4785-8359-84679011d211","system_id":"levelo_inurba_marseille","lat":43.280382,"lon":5.369291,"is_reserved":false,"is_disabled":false,"rental_uris":{"android":"levelo://app?vid=2024a61b-7173-4785-8359-84679011d211","ios":"levelo://app?vid=2024a61b-7173-4785-8359-84679011d211"},"vehicle_type_id":"4","last_reported":1703286424,"current_range_meters":15200,"station_id":"ce4bha12rcd13ifvqef0","pricing_plan_id":"free"},{"bike_id":"cc33105d-ea37-44a9-8a6f-7d5ba44c6e9a","system_id":"levelo_inurba_marseille","lat":43.28034,"lon":5.36948,"is_reserved":false,"is_disabled":false,"rental_uris":{"android":"levelo://app?vid=cc33105d-ea37-44a9-8a6f-7d5ba44c6e9a","ios":"levelo://app?vid=cc33105d-ea37-44a9-8a6f-7d5ba44c6e9a"},"vehicle_type_id":"4","last_reported":1703286424,"current_range_meters":28400,"station_id":"ce4bha12rcd13ifvqef0","pricing_plan_id":"free"},{"bike_id":"8d954b9b-7cc9-4db6-b465-bf95f174b85f","system_id":"levelo_inurba_marseille","lat":43.28031,"lon":5.3694,"is_reserved":false,"is_disabled":false,"rental_uris":{"android":"levelo://app?vid=8d954b9b-7cc9-4db6-b465-bf95f174b85f","ios":"levelo://app?vid=8d954b9b-7cc9-4db6-b465-bf95f174b85f"},"vehicle_type_id":"4","last_reported":1703286424,"current_range_meters":4000,"station_id":"ce4bha12rcd13ifvqef0","pricing_plan_id":"free"},{"bike_id":"8379dd3c-9b88-4dae-95f2-cf66f3df6a33","system_id":"levelo_inurba_marseille","lat":43.281044,"lon":5.378308,"is_reserved":false,"is_disabled":false,"rental_uris":{"android":"levelo://app?vid=8379dd3c-9b88-4dae-95f2-cf66f3df6a33","ios":"levelo://app?vid=8379dd3c-9b88-4dae-95f2-cf66f3df6a33"},"vehicle_type_id":"4","last_reported":1703286424,"current_range_meters":22800,"station_id":"ce4bha12rcd13ifvqee0","pricing_plan_id":"free"},{"bike_id":"4a7194a6-bdc2-4d67-a274-476a5cbc95aa","system_id":"levelo_inurba_marseille","lat":43.281044,"lon":5.378308,"is_reserved":false,"is_disabled":false,"rental_uris":{"android":"levelo://app?vid=4a7194a6-bdc2-4d67-a274-476a5cbc95aa","ios":"levelo://app?vid=4a7194a6-bdc2-4d67-a274-476a5cbc95aa"},"vehicle_type_id":"4","last_reported":1703286424,"current_range_meters":26000,"station_id":"ce4bha12rcd13ifvqee0","pricing_plan_id":"free"},{"bike_id":"e6a5e825-30b0-4fed-bcb1-74026e27e09e","system_id":"levelo_inurba_marseille","lat":43.284462,"lon":5.392121,"is_reserved":false,"is_disabled":false,"rental_uris":{"android":"levelo://app?vid=e6a5e825-30b0-4fed-bcb1-74026e27e09e","ios":"levelo://app?vid=e6a5e825-30b0-4fed-bcb1-74026e27e09e"},"vehicle_type_id":"4","last_reported":1703286424,"current_range_meters":1600,"station_id":"ce4bhoh2rcd13ifvqh5g","pricing_plan_id":"free"},{"bike_id":"4c43b076-ecab-4426-a7e6-d095a83b2ead","system_id":"levelo_inurba_marseille","lat":43.284462,"lon":5.392121,"is_reserved":false,"is_disabled":false,"rental_uris":{"android":"levelo://app?vid=4c43b076-ecab-4426-a7e6-d095a83b2ead","ios":"levelo://app?vid=4c43b076-ecab-4426-a7e6-d095a83b2ead"},"vehicle_type_id":"4","last_reported":1703286424,"current_range_meters":31200,"station_id":"ce4bhoh2rcd13ifvqh5g","pricing_plan_id":"free"},{"bike_id":"93977c28-f149-4300-b72c-952ea3e7c49d","system_id":"levelo_inurba_marseille","lat":43.284462,"lon":5.392121,"is_reserved":false,"is_disabled":false,"rental_uris":{"android":"levelo://app?vid=93977c28-f149-4300-b72c-952ea3e7c49d","ios":"levelo://app?vid=93977c28-f149-4300-b72c-952ea3e7c49d"},"vehicle_type_id":"4","last_reported":1703286424,"current_range_meters":6000,"station_id":"ce4bhoh2rcd13ifvqh5g","pricing_plan_id":"free"},{"bike_id":"921b424d-ad0d-4c7a-9d74-66e3a49bfa19","system_id":"levelo_inurba_marseille","lat":43.326605,"lon":5.409903,"is_reserved":false,"is_disabled":false,"rental_uris":{"android":"levelo://app?vid=921b424d-ad0d-4c7a-9d74-66e3a49bfa19","ios":"levelo://app?vid=921b424d-ad0d-4c7a-9d74-66e3a49bfa19"},"vehicle_type_id":"4","last_reported":1703286424,"current_range_meters":28000,"station_id":"ce4bhpp2rcd13ifvqhgg","pricing_plan_id":"free"},{"bike_id":"49d73e02-e5c2-4882-b44f-d8c5e2af2b78","system_id":"levelo_inurba_marseille","lat":43.326605,"lon":5.409903,"is_reserved":false,"is_disabled":false,"rental_uris":{"android":"levelo://app?vid=49d73e02-e5c2-4882-b44f-d8c5e2af2b78","ios":"levelo://app?vid=49d73e02-e5c2-4882-b44f-d8c5e2af2b78"},"vehicle_type_id":"4","last_reported":1703286424,"current_range_meters":27600,"station_id":"ce4bhpp2rcd13ifvqhgg","pricing_plan_id":"free"},{"bike_id":"2dce41b4-f1e9-4565-979b-d206af37124f","system_id":"levelo_inurba_marseille","lat":43.326605,"lon":5.409903,"is_reserved":false,"is_disabled":false,"rental_uris":{"android":"levelo://app?vid=2dce41b4-f1e9-4565-979b-d206af37124f","ios":"levelo://app?vid=2dce41b4-f1e9-4565-979b-d206af37124f"},"vehicle_type_id":"4","last_reported":1703286424,"current_range_meters":31200,"station_id":"ce4bhpp2rcd13ifvqhgg","pricing_plan_id":"free"},{"bike_id":"aefe02c5-00b4-4187-895f-8ef3edfdb806","system_id":"levelo_inurba_marseille","lat":43.3042,"lon":5.41277,"is_reserved":false,"is_disabled":false,"rental_uris":{"android":"levelo://app?vid=aefe02c5-00b4-4187-895f-8ef3edfdb806","ios":"levelo://app?vid=aefe02c5-00b4-4187-895f-8ef3edfdb806"},"vehicle_type_id":"4","last_reported":1703286424,"current_range_meters":30400,"station_id":"ce4bhop2rcd13ifvqh8g","pricing_plan_id":"free"},{"bike_id":"3facbe4d-388c-40d0-82e4-59c677c06a34","system_id":"levelo_inurba_marseille","lat":43.30422,"lon":5.4128,"is_reserved":false,"is_disabled":false,"rental_uris":{"android":"levelo://app?vid=3facbe4d-388c-40d0-82e4-59c677c06a34","ios":"levelo://app?vid=3facbe4d-388c-40d0-82e4-59c677c06a34"},"vehicle_type_id":"4","last_reported":1703286424,"current_range_meters":4000,"station_id":"ce4bhop2rcd13ifvqh8g","pricing_plan_id":"free"},{"bike_id":"2994219f-f282-434d-a4a5-dcac2f9151e5","system_id":"levelo_inurba_marseille","lat":43.30417,"lon":5.41279,"is_reserved":false,"is_disabled":false,"rental_uris":{"android":"levelo://app?vid=2994219f-f282-434d-a4a5-dcac2f9151e5","ios":"levelo://app?vid=2994219f-f282-434d-a4a5-dcac2f9151e5"},"vehicle_type_id":"4","last_reported":1703286424,"current_range_meters":13600,"station_id":"ce4bhop2rcd13ifvqh8g","pricing_plan_id":"free"},{"bike_id":"f2a735b9-b183-4b03-acbe-8b823bd40b24","system_id":"levelo_inurba_marseille","lat":43.30412,"lon":5.41285,"is_reserved":false,"is_disabled":false,"rental_uris":{"android":"levelo://app?vid=f2a735b9-b183-4b03-acbe-8b823bd40b24","ios":"levelo://app?vid=f2a735b9-b183-4b03-acbe-8b823bd40b24"},"vehicle_type_id":"4","last_reported":1703286424,"current_range_meters":31200,"station_id":"ce4bhop2rcd13ifvqh8g","pricing_plan_id":"free"},{"bike_id":"7f89473b-4ee2-4ba8-86bf-bc53e18d4702","system_id":"levelo_inurba_marseille","lat":43.304187,"lon":5.412895,"is_reserved":false,"is_disabled":false,"rental_uris":{"android":"levelo://app?vid=7f89473b-4ee2-4ba8-86bf-bc53e18d4702","ios":"levelo://app?vid=7f89473b-4ee2-4ba8-86bf-bc53e18d4702"},"vehicle_type_id":"4","last_reported":1703286424,"current_range_meters":2800,"station_id":"ce4bhop2rcd13ifvqh8g","pricing_plan_id":"free"},{"bike_id":"03a8f128-97e5-40ae-9081-744f8ce83749","system_id":"levelo_inurba_marseille","lat":43.279087,"lon":5.380114,"is_reserved":false,"is_disabled":false,"rental_uris":{"android":"levelo://app?vid=03a8f128-97e5-40ae-9081-744f8ce83749","ios":"levelo://app?vid=03a8f128-97e5-40ae-9081-744f8ce83749"},"vehicle_type_id":"4","last_reported":1703286424,"current_range_meters":30000,"station_id":"ce4bhf92rcd13ifvqf50","pricing_plan_id":"free"},{"bike_id":"0607fcfe-033a-447c-9428-df4bb5a0f943","system_id":"levelo_inurba_marseille","lat":43.287154,"lon":5.399979,"is_reserved":false,"is_disabled":false,"rental_uris":{"android":"levelo://app?vid=0607fcfe-033a-447c-9428-df4bb5a0f943","ios":"levelo://app?vid=0607fcfe-033a-447c-9428-df4bb5a0f943"},"vehicle_type_id":"4","last_reported":1703286424,"current_range_meters":12000,"station_id":"ce4bho92rcd13ifvqh3g","pricing_plan_id":"free"},{"bike_id":"3abf6371-b3c9-4f2e-92be-ad71562b6a11","system_id":"levelo_inurba_marseille","lat":43.287133,"lon":5.39997,"is_reserved":false,"is_disabled":false,"rental_uris":{"android":"levelo://app?vid=3abf6371-b3c9-4f2e-92be-ad71562b6a11","ios":"levelo://app?vid=3abf6371-b3c9-4f2e-92be-ad71562b6a11"},"vehicle_type_id":"4","last_reported":1703286424,"current_range_meters":7600,"station_id":"ce4bho92rcd13ifvqh3g","pricing_plan_id":"free"},{"bike_id":"1db55c21-5b1c-4276-b8ff-c0616eb64739","system_id":"levelo_inurba_marseille","lat":43.287154,"lon":5.399979,"is_reserved":false,"is_disabled":false,"rental_uris":{"android":"levelo://app?vid=1db55c21-5b1c-4276-b8ff-c0616eb64739","ios":"levelo://app?vid=1db55c21-5b1c-4276-b8ff-c0616eb64739"},"vehicle_type_id":"4","last_reported":1703286424,"current_range_meters":28400,"station_id":"ce4bho92rcd13ifvqh3g","pricing_plan_id":"free"},{"bike_id":"4e8e6023-ce65-468d-93fa-ea027a64e38b","system_id":"levelo_inurba_marseille","lat":43.287154,"lon":5.399979,"is_reserved":false,"is_disabled":false,"rental_uris":{"android":"levelo://app?vid=4e8e6023-ce65-468d-93fa-ea027a64e38b","ios":"levelo://app?vid=4e8e6023-ce65-468d-93fa-ea027a64e38b"},"vehicle_type_id":"4","last_reported":1703286424,"current_range_meters":16400,"station_id":"ce4bho92rcd13ifvqh3g","pricing_plan_id":"free"},{"bike_id":"9a1e58b2-5874-42c8-9f84-d3f37c76e1ba","system_id":"levelo_inurba_marseille","lat":43.279742,"lon":5.38744,"is_reserved":false,"is_disabled":false,"rental_uris":{"android":"levelo://app?vid=9a1e58b2-5874-42c8-9f84-d3f37c76e1ba","ios":"levelo://app?vid=9a1e58b2-5874-42c8-9f84-d3f37c76e1ba"},"vehicle_type_id":"4","last_reported":1703286424,"current_range_meters":3200,"station_id":"ce4bhg12rcd13ifvqf80","pricing_plan_id":"free"},{"bike_id":"3c990e90-1eed-4343-9b72-6fb2ce5c8fda","system_id":"levelo_inurba_marseille","lat":43.27618,"lon":5.3612,"is_reserved":false,"is_disabled":false,"rental_uris":{"android":"levelo://app?vid=3c990e90-1eed-4343-9b72-6fb2ce5c8fda","ios":"levelo://app?vid=3c990e90-1eed-4343-9b72-6fb2ce5c8fda"},"vehicle_type_id":"4","last_reported":1703286424,"current_range_meters":2800,"station_id":"ce4bgj92rcd13ifvqbe0","pricing_plan_id":"free"},{"bike_id":"db2046b0-697a-4d2e-8814-6af0aeab90a8","system_id":"levelo_inurba_marseille","lat":43.276179,"lon":5.361009,"is_reserved":false,"is_disabled":false,"rental_uris":{"android":"levelo://app?vid=db2046b0-697a-4d2e-8814-6af0aeab90a8","ios":"levelo://app?vid=db2046b0-697a-4d2e-8814-6af0aeab90a8"},"vehicle_type_id":"4","last_reported":1703286424,"current_range_meters":5600,"station_id":"ce4bgj92rcd13ifvqbe0","pricing_plan_id":"free"},{"bike_id":"f6a29d14-aee7-4b91-a8c6-8625046948d6","system_id":"levelo_inurba_marseille","lat":43.27849,"lon":5.39203,"is_reserved":false,"is_disabled":false,"rental_uris":{"android":"levelo://app?vid=f6a29d14-aee7-4b91-a8c6-8625046948d6","ios":"levelo://app?vid=f6a29d14-aee7-4b91-a8c6-8625046948d6"},"vehicle_type_id":"4","last_reported":1703286424,"current_range_meters":9200,"station_id":"ce4bhjp2rcd13ifvqga0","pricing_plan_id":"free"},{"bike_id":"92652a21-0cc0-4a5f-8e5f-31ffc502ba29","system_id":"levelo_inurba_marseille","lat":43.303837,"lon":5.418724,"is_reserved":false,"is_disabled":false,"rental_uris":{"android":"levelo://app?vid=92652a21-0cc0-4a5f-8e5f-31ffc502ba29","ios":"levelo://app?vid=92652a21-0cc0-4a5f-8e5f-31ffc502ba29"},"vehicle_type_id":"4","last_reported":1703286424,"current_range_meters":30000,"station_id":"ce4bhop2rcd13ifvqh7g","pricing_plan_id":"free"},{"bike_id":"03b14f24-ad2a-40bf-a8a4-d789d50cd69a","system_id":"levelo_inurba_marseille","lat":43.303837,"lon":5.418724,"is_reserved":false,"is_disabled":false,"rental_uris":{"android":"levelo://app?vid=03b14f24-ad2a-40bf-a8a4-d789d50cd69a","ios":"levelo://app?vid=03b14f24-ad2a-40bf-a8a4-d789d50cd69a"},"vehicle_type_id":"4","last_reported":1703286424,"current_range_meters":30400,"station_id":"ce4bhop2rcd13ifvqh7g","pricing_plan_id":"free"},{"bike_id":"85140b79-1d5c-4c1f-b734-02a48fa0e504","system_id":"levelo_inurba_marseille","lat":43.278401,"lon":5.392152,"is_reserved":false,"is_disabled":false,"rental_uris":{"android":"levelo://app?vid=85140b79-1d5c-4c1f-b734-02a48fa0e504","ios":"levelo://app?vid=85140b79-1d5c-4c1f-b734-02a48fa0e504"},"vehicle_type_id":"4","last_reported":1703286424,"current_range_meters":16000,"station_id":"ce4bhjp2rcd13ifvqga0","pricing_plan_id":"free"},{"bike_id":"1cf773da-d503-4f1b-8437-4a6b465d5f1a","system_id":"levelo_inurba_marseille","lat":43.27831,"lon":5.39208,"is_reserved":false,"is_disabled":false,"rental_uris":{"android":"levelo://app?vid=1cf773da-d503-4f1b-8437-4a6b465d5f1a","ios":"levelo://app?vid=1cf773da-d503-4f1b-8437-4a6b465d5f1a"},"vehicle_type_id":"4","last_reported":1703286424,"current_range_meters":800,"station_id":"ce4bhjp2rcd13ifvqga0","pricing_plan_id":"free"},{"bike_id":"48cb72d6-5769-46dd-a4f2-54dfd0bfb283","system_id":"levelo_inurba_marseille","lat":43.273613,"lon":5.362705,"is_reserved":false,"is_disabled":false,"rental_uris":{"android":"levelo://app?vid=48cb72d6-5769-46dd-a4f2-54dfd0bfb283","ios":"levelo://app?vid=48cb72d6-5769-46dd-a4f2-54dfd0bfb283"},"vehicle_type_id":"4","last_reported":1703286424,"current_range_meters":28800,"station_id":"ce4bhbh2rcd13ifvqeo0","pricing_plan_id":"free"},{"bike_id":"843de36b-095c-4afd-830d-de0e9d07ea09","system_id":"levelo_inurba_marseille","lat":43.273613,"lon":5.362705,"is_reserved":false,"is_disabled":false,"rental_uris":{"android":"levelo://app?vid=843de36b-095c-4afd-830d-de0e9d07ea09","ios":"levelo://app?vid=843de36b-095c-4afd-830d-de0e9d07ea09"},"vehicle_type_id":"4","last_reported":1703286424,"current_range_meters":30800,"station_id":"ce4bhbh2rcd13ifvqeo0","pricing_plan_id":"free"},{"bike_id":"e09a6d18-e62b-45bc-ba72-f8db6df2fcf5","system_id":"levelo_inurba_marseille","lat":43.273609,"lon":5.362708,"is_reserved":false,"is_disabled":false,"rental_uris":{"android":"levelo://app?vid=e09a6d18-e62b-45bc-ba72-f8db6df2fcf5","ios":"levelo://app?vid=e09a6d18-e62b-45bc-ba72-f8db6df2fcf5"},"vehicle_type_id":"4","last_reported":1703286424,"current_range_meters":30000,"station_id":"ce4bhbh2rcd13ifvqeo0","pricing_plan_id":"free"},{"bike_id":"d25de747-3cec-4576-99a5-27d47914b475","system_id":"levelo_inurba_marseille","lat":43.33604,"lon":5.41028,"is_reserved":false,"is_disabled":false,"rental_uris":{"android":"levelo://app?vid=d25de747-3cec-4576-99a5-27d47914b475","ios":"levelo://app?vid=d25de747-3cec-4576-99a5-27d47914b475"},"vehicle_type_id":"4","last_reported":1703286424,"current_range_meters":9200,"station_id":"ce4bhqh2rcd13ifvqhmg","pricing_plan_id":"free"},{"bike_id":"bba24c96-cb49-4b49-8b92-d47436e8f5c0","system_id":"levelo_inurba_marseille","lat":43.275625,"lon":5.384392,"is_reserved":false,"is_disabled":false,"rental_uris":{"android":"levelo://app?vid=bba24c96-cb49-4b49-8b92-d47436e8f5c0","ios":"levelo://app?vid=bba24c96-cb49-4b49-8b92-d47436e8f5c0"},"vehicle_type_id":"4","last_reported":1703286424,"current_range_meters":23600,"station_id":"ce4bhh92rcd13ifvqfi0","pricing_plan_id":"free"},{"bike_id":"97c507dd-7a15-4107-9c1d-de28161d4f7f","system_id":"levelo_inurba_marseille","lat":43.275625,"lon":5.384392,"is_reserved":false,"is_disabled":false,"rental_uris":{"android":"levelo://app?vid=97c507dd-7a15-4107-9c1d-de28161d4f7f","ios":"levelo://app?vid=97c507dd-7a15-4107-9c1d-de28161d4f7f"},"vehicle_type_id":"4","last_reported":1703286424,"current_range_meters":16800,"station_id":"ce4bhh92rcd13ifvqfi0","pricing_plan_id":"free"},{"bike_id":"358230c6-2f53-4c94-bd58-3ab03d16e35d","system_id":"levelo_inurba_marseille","lat":43.296277,"lon":5.377108,"is_reserved":false,"is_disabled":false,"rental_uris":{"android":"levelo://app?vid=358230c6-2f53-4c94-bd58-3ab03d16e35d","ios":"levelo://app?vid=358230c6-2f53-4c94-bd58-3ab03d16e35d"},"vehicle_type_id":"4","last_reported":1703286424,"current_range_meters":21200,"station_id":"ce4bgi92rcd13ifvqb90","pricing_plan_id":"free"},{"bike_id":"9d8a300c-7356-461f-8e60-7c138328974e","system_id":"levelo_inurba_marseille","lat":43.317121,"lon":5.423936,"is_reserved":false,"is_disabled":false,"rental_uris":{"android":"levelo://app?vid=9d8a300c-7356-461f-8e60-7c138328974e","ios":"levelo://app?vid=9d8a300c-7356-461f-8e60-7c138328974e"},"vehicle_type_id":"4","last_reported":1703286424,"current_range_meters":29200,"station_id":"ce4bhp92rcd13ifvqhbg","pricing_plan_id":"free"},{"bike_id":"7c92ac06-9f8b-4771-8927-7d3efcae43ac","system_id":"levelo_inurba_marseille","lat":43.310785,"lon":5.424305,"is_reserved":false,"is_disabled":false,"rental_uris":{"android":"levelo://app?vid=7c92ac06-9f8b-4771-8927-7d3efcae43ac","ios":"levelo://app?vid=7c92ac06-9f8b-4771-8927-7d3efcae43ac"},"vehicle_type_id":"4","last_reported":1703286424,"current_range_meters":19200,"station_id":"ce4bhp92rcd13ifvqhag","pricing_plan_id":"free"},{"bike_id":"12245dbc-a0af-447e-bc90-735052f4c4cb","system_id":"levelo_inurba_marseille","lat":43.304096,"lon":5.425385,"is_reserved":false,"is_disabled":false,"rental_uris":{"android":"levelo://app?vid=12245dbc-a0af-447e-bc90-735052f4c4cb","ios":"levelo://app?vid=12245dbc-a0af-447e-bc90-735052f4c4cb"},"vehicle_type_id":"4","last_reported":1703286424,"current_range_meters":2000,"station_id":"ce4bhoh2rcd13ifvqh6g","pricing_plan_id":"free"},{"bike_id":"60087331-640f-4d78-8fd0-101ce8ae2e0f","system_id":"levelo_inurba_marseille","lat":43.304096,"lon":5.425385,"is_reserved":false,"is_disabled":false,"rental_uris":{"android":"levelo://app?vid=60087331-640f-4d78-8fd0-101ce8ae2e0f","ios":"levelo://app?vid=60087331-640f-4d78-8fd0-101ce8ae2e0f"},"vehicle_type_id":"4","last_reported":1703286424,"current_range_meters":23600,"station_id":"ce4bhoh2rcd13ifvqh6g","pricing_plan_id":"free"},{"bike_id":"b2bae555-70b7-4476-bc50-e1d2a40076e2","system_id":"levelo_inurba_marseille","lat":43.295511,"lon":5.422926,"is_reserved":false,"is_disabled":false,"rental_uris":{"android":"levelo://app?vid=b2bae555-70b7-4476-bc50-e1d2a40076e2","ios":"levelo://app?vid=b2bae555-70b7-4476-bc50-e1d2a40076e2"},"vehicle_type_id":"4","last_reported":1703286424,"current_range_meters":25200,"station_id":"ce4bhph2rcd13ifvqhdg","pricing_plan_id":"free"},{"bike_id":"3c86252e-38e1-4524-80ab-11f9efbb08d7","system_id":"levelo_inurba_marseille","lat":43.2721,"lon":5.39181,"is_reserved":false,"is_disabled":false,"rental_uris":{"android":"levelo://app?vid=3c86252e-38e1-4524-80ab-11f9efbb08d7","ios":"levelo://app?vid=3c86252e-38e1-4524-80ab-11f9efbb08d7"},"vehicle_type_id":"4","last_reported":1703286424,"current_range_meters":0,"station_id":"ce4bhhp2rcd13ifvqfm0","pricing_plan_id":"free"},{"bike_id":"47c3210a-9bdf-4b50-a52e-5994dcc84599","system_id":"levelo_inurba_marseille","lat":43.272116,"lon":5.391763,"is_reserved":false,"is_disabled":false,"rental_uris":{"android":"levelo://app?vid=47c3210a-9bdf-4b50-a52e-5994dcc84599","ios":"levelo://app?vid=47c3210a-9bdf-4b50-a52e-5994dcc84599"},"vehicle_type_id":"4","last_reported":1703286424,"current_range_meters":3600,"station_id":"ce4bhhp2rcd13ifvqfm0","pricing_plan_id":"free"},{"bike_id":"56b2f296-40a4-4e9a-8d95-abcba2994b23","system_id":"levelo_inurba_marseille","lat":43.278128,"lon":5.407195,"is_reserved":false,"is_disabled":false,"rental_uris":{"android":"levelo://app?vid=56b2f296-40a4-4e9a-8d95-abcba2994b23","ios":"levelo://app?vid=56b2f296-40a4-4e9a-8d95-abcba2994b23"},"vehicle_type_id":"4","last_reported":1703286424,"current_range_meters":16000,"station_id":"ce4bhnh2rcd13ifvqgtg","pricing_plan_id":"free"},{"bike_id":"8b6c6e5d-efb8-449f-902b-2f6033ff09f0","system_id":"levelo_inurba_marseille","lat":43.278128,"lon":5.407195,"is_reserved":false,"is_disabled":false,"rental_uris":{"android":"levelo://app?vid=8b6c6e5d-efb8-449f-902b-2f6033ff09f0","ios":"levelo://app?vid=8b6c6e5d-efb8-449f-902b-2f6033ff09f0"},"vehicle_type_id":"4","last_reported":1703286424,"current_range_meters":20400,"station_id":"ce4bhnh2rcd13ifvqgtg","pricing_plan_id":"free"},{"bike_id":"17477f7e-7e27-47f1-99a4-9717c464e350","system_id":"levelo_inurba_marseille","lat":43.278128,"lon":5.407195,"is_reserved":false,"is_disabled":false,"rental_uris":{"android":"levelo://app?vid=17477f7e-7e27-47f1-99a4-9717c464e350","ios":"levelo://app?vid=17477f7e-7e27-47f1-99a4-9717c464e350"},"vehicle_type_id":"4","last_reported":1703286424,"current_range_meters":27200,"station_id":"ce4bhnh2rcd13ifvqgtg","pricing_plan_id":"free"},{"bike_id":"9f64aafd-c841-405b-aa4d-882e9d32084c","system_id":"levelo_inurba_marseille","lat":43.26552,"lon":5.37287,"is_reserved":false,"is_disabled":false,"rental_uris":{"android":"levelo://app?vid=9f64aafd-c841-405b-aa4d-882e9d32084c","ios":"levelo://app?vid=9f64aafd-c841-405b-aa4d-882e9d32084c"},"vehicle_type_id":"4","last_reported":1703286424,"current_range_meters":21200,"station_id":"ce4bhg12rcd13ifvqf70","pricing_plan_id":"free"},{"bike_id":"77d6b6a7-2334-4441-9fd8-24c12d6a66ac","system_id":"levelo_inurba_marseille","lat":43.267966,"lon":5.393976,"is_reserved":false,"is_disabled":false,"rental_uris":{"android":"levelo://app?vid=77d6b6a7-2334-4441-9fd8-24c12d6a66ac","ios":"levelo://app?vid=77d6b6a7-2334-4441-9fd8-24c12d6a66ac"},"vehicle_type_id":"4","last_reported":1703286424,"current_range_meters":3600,"station_id":"ce4bhh12rcd13ifvqfg0","pricing_plan_id":"free"},{"bike_id":"8a8118d2-1be5-4451-b2d9-0ba1321b8f2d","system_id":"levelo_inurba_marseille","lat":43.28004,"lon":5.41653,"is_reserved":false,"is_disabled":false,"rental_uris":{"android":"levelo://app?vid=8a8118d2-1be5-4451-b2d9-0ba1321b8f2d","ios":"levelo://app?vid=8a8118d2-1be5-4451-b2d9-0ba1321b8f2d"},"vehicle_type_id":"4","last_reported":1703286424,"current_range_meters":12400,"station_id":"ce4bho12rcd13ifvqh1g","pricing_plan_id":"free"},{"bike_id":"c58e1262-f8e5-4cce-9f1b-ca3654f61e11","system_id":"levelo_inurba_marseille","lat":43.26949,"lon":5.40262,"is_reserved":false,"is_disabled":false,"rental_uris":{"android":"levelo://app?vid=c58e1262-f8e5-4cce-9f1b-ca3654f61e11","ios":"levelo://app?vid=c58e1262-f8e5-4cce-9f1b-ca3654f61e11"},"vehicle_type_id":"4","last_reported":1703286424,"current_range_meters":11600,"station_id":"cjm6bp8fraef2m0cb0m0","pricing_plan_id":"free"},{"bike_id":"a36e5938-cfe7-4a1e-b899-9e1c72d03485","system_id":"levelo_inurba_marseille","lat":43.317104,"lon":5.436818,"is_reserved":false,"is_disabled":false,"rental_uris":{"android":"levelo://app?vid=a36e5938-cfe7-4a1e-b899-9e1c72d03485","ios":"levelo://app?vid=a36e5938-cfe7-4a1e-b899-9e1c72d03485"},"vehicle_type_id":"4","last_reported":1703286424,"current_range_meters":7200,"station_id":"ce4bhp92rcd13ifvqhcg","pricing_plan_id":"free"},{"bike_id":"7fbe02a0-b05d-40e2-885a-21861b971e54","system_id":"levelo_inurba_marseille","lat":43.317104,"lon":5.436818,"is_reserved":false,"is_disabled":false,"rental_uris":{"android":"levelo://app?vid=7fbe02a0-b05d-40e2-885a-21861b971e54","ios":"levelo://app?vid=7fbe02a0-b05d-40e2-885a-21861b971e54"},"vehicle_type_id":"4","last_reported":1703286424,"current_range_meters":10400,"station_id":"ce4bhp92rcd13ifvqhcg","pricing_plan_id":"free"},{"bike_id":"9a22b759-cb02-4a9f-b32d-4de2997c4531","system_id":"levelo_inurba_marseille","lat":43.317104,"lon":5.436818,"is_reserved":false,"is_disabled":false,"rental_uris":{"android":"levelo://app?vid=9a22b759-cb02-4a9f-b32d-4de2997c4531","ios":"levelo://app?vid=9a22b759-cb02-4a9f-b32d-4de2997c4531"},"vehicle_type_id":"4","last_reported":1703286424,"current_range_meters":1600,"station_id":"ce4bhp92rcd13ifvqhcg","pricing_plan_id":"free"},{"bike_id":"3c97a8a7-622c-4d01-a316-783cde5fc7f9","system_id":"levelo_inurba_marseille","lat":43.317104,"lon":5.436818,"is_reserved":false,"is_disabled":false,"rental_uris":{"android":"levelo://app?vid=3c97a8a7-622c-4d01-a316-783cde5fc7f9","ios":"levelo://app?vid=3c97a8a7-622c-4d01-a316-783cde5fc7f9"},"vehicle_type_id":"4","last_reported":1703286424,"current_range_meters":25200,"station_id":"ce4bhp92rcd13ifvqhcg","pricing_plan_id":"free"},{"bike_id":"cb3bedef-14c4-4d98-84e3-b4d224805958","system_id":"levelo_inurba_marseille","lat":43.271368,"lon":5.40928,"is_reserved":false,"is_disabled":false,"rental_uris":{"android":"levelo://app?vid=cb3bedef-14c4-4d98-84e3-b4d224805958","ios":"levelo://app?vid=cb3bedef-14c4-4d98-84e3-b4d224805958"},"vehicle_type_id":"4","last_reported":1703286424,"current_range_meters":25200,"station_id":"ce4bhl12rcd13ifvqgf0","pricing_plan_id":"free"},{"bike_id":"ecded0b1-26e9-4178-868a-0ff40f1e2ee0","system_id":"levelo_inurba_marseille","lat":43.271388,"lon":5.409269,"is_reserved":false,"is_disabled":false,"rental_uris":{"android":"levelo://app?vid=ecded0b1-26e9-4178-868a-0ff40f1e2ee0","ios":"levelo://app?vid=ecded0b1-26e9-4178-868a-0ff40f1e2ee0"},"vehicle_type_id":"4","last_reported":1703286424,"current_range_meters":30000,"station_id":"ce4bhl12rcd13ifvqgf0","pricing_plan_id":"free"},{"bike_id":"e8fa3cc4-24c5-46cd-837e-b47808dfd25b","system_id":"levelo_inurba_marseille","lat":43.267959,"lon":5.402685,"is_reserved":false,"is_disabled":false,"rental_uris":{"android":"levelo://app?vid=e8fa3cc4-24c5-46cd-837e-b47808dfd25b","ios":"levelo://app?vid=e8fa3cc4-24c5-46cd-837e-b47808dfd25b"},"vehicle_type_id":"4","last_reported":1703286424,"current_range_meters":27600,"station_id":"ce501612rcd8frsf0b60","pricing_plan_id":"free"},{"bike_id":"b266dc45-379e-44a7-93b3-516166020790","system_id":"levelo_inurba_marseille","lat":43.267959,"lon":5.402687,"is_reserved":false,"is_disabled":false,"rental_uris":{"android":"levelo://app?vid=b266dc45-379e-44a7-93b3-516166020790","ios":"levelo://app?vid=b266dc45-379e-44a7-93b3-516166020790"},"vehicle_type_id":"4","last_reported":1703286424,"current_range_meters":13200,"station_id":"ce501612rcd8frsf0b60","pricing_plan_id":"free"},{"bike_id":"0131924d-5605-48f3-988f-22a5f29a2c50","system_id":"levelo_inurba_marseille","lat":43.298768,"lon":5.43643,"is_reserved":false,"is_disabled":false,"rental_uris":{"android":"levelo://app?vid=0131924d-5605-48f3-988f-22a5f29a2c50","ios":"levelo://app?vid=0131924d-5605-48f3-988f-22a5f29a2c50"},"vehicle_type_id":"4","last_reported":1703286424,"current_range_meters":26400,"station_id":"ce4bhpp2rcd13ifvqhfg","pricing_plan_id":"free"},{"bike_id":"68bf5348-716b-4b6e-aaf3-3e6f5e38c2c0","system_id":"levelo_inurba_marseille","lat":43.260219,"lon":5.37546,"is_reserved":false,"is_disabled":false,"rental_uris":{"android":"levelo://app?vid=68bf5348-716b-4b6e-aaf3-3e6f5e38c2c0","ios":"levelo://app?vid=68bf5348-716b-4b6e-aaf3-3e6f5e38c2c0"},"vehicle_type_id":"4","last_reported":1703286424,"current_range_meters":23600,"station_id":"ce4bhgh2rcd13ifvqfa0","pricing_plan_id":"free"},{"bike_id":"2356bd4e-8dfc-4a3d-b08d-ff792ae24204","system_id":"levelo_inurba_marseille","lat":43.281548,"lon":5.42643,"is_reserved":false,"is_disabled":false,"rental_uris":{"android":"levelo://app?vid=2356bd4e-8dfc-4a3d-b08d-ff792ae24204","ios":"levelo://app?vid=2356bd4e-8dfc-4a3d-b08d-ff792ae24204"},"vehicle_type_id":"4","last_reported":1703286424,"current_range_meters":22000,"station_id":"ce4bhnh2rcd13ifvqgug","pricing_plan_id":"free"},{"bike_id":"ee1c3abf-dc1a-4b06-a71a-194c5d1609bc","system_id":"levelo_inurba_marseille","lat":43.281548,"lon":5.42643,"is_reserved":false,"is_disabled":false,"rental_uris":{"android":"levelo://app?vid=ee1c3abf-dc1a-4b06-a71a-194c5d1609bc","ios":"levelo://app?vid=ee1c3abf-dc1a-4b06-a71a-194c5d1609bc"},"vehicle_type_id":"4","last_reported":1703286424,"current_range_meters":28800,"station_id":"ce4bhnh2rcd13ifvqgug","pricing_plan_id":"free"},{"bike_id":"cc8dc53a-61c6-4347-a11f-ba658526a813","system_id":"levelo_inurba_marseille","lat":43.258224,"lon":5.394369,"is_reserved":false,"is_disabled":false,"rental_uris":{"android":"levelo://app?vid=cc8dc53a-61c6-4347-a11f-ba658526a813","ios":"levelo://app?vid=cc8dc53a-61c6-4347-a11f-ba658526a813"},"vehicle_type_id":"4","last_reported":1703286424,"current_range_meters":22800,"station_id":"ce4bhip2rcd13ifvqft0","pricing_plan_id":"free"},{"bike_id":"9e31705f-4f0a-4cb9-b231-21e465b6e902","system_id":"levelo_inurba_marseille","lat":43.25579,"lon":5.38235,"is_reserved":false,"is_disabled":false,"rental_uris":{"android":"levelo://app?vid=9e31705f-4f0a-4cb9-b231-21e465b6e902","ios":"levelo://app?vid=9e31705f-4f0a-4cb9-b231-21e465b6e902"},"vehicle_type_id":"4","last_reported":1703286424,"current_range_meters":20000,"station_id":"ce4bhih2rcd13ifvqfs0","pricing_plan_id":"free"},{"bike_id":"8cf99fad-2807-4e32-8919-6e0625ab5b56","system_id":"levelo_inurba_marseille","lat":43.25578,"lon":5.38234,"is_reserved":false,"is_disabled":false,"rental_uris":{"android":"levelo://app?vid=8cf99fad-2807-4e32-8919-6e0625ab5b56","ios":"levelo://app?vid=8cf99fad-2807-4e32-8919-6e0625ab5b56"},"vehicle_type_id":"4","last_reported":1703286424,"current_range_meters":30000,"station_id":"ce4bhih2rcd13ifvqfs0","pricing_plan_id":"free"},{"bike_id":"eae03a50-eb69-44d1-9e0d-87ded49bf8ce","system_id":"levelo_inurba_marseille","lat":43.254947,"lon":5.376454,"is_reserved":false,"is_disabled":false,"rental_uris":{"android":"levelo://app?vid=eae03a50-eb69-44d1-9e0d-87ded49bf8ce","ios":"levelo://app?vid=eae03a50-eb69-44d1-9e0d-87ded49bf8ce"},"vehicle_type_id":"4","last_reported":1703286424,"current_range_meters":30400,"station_id":"ce4bhh12rcd13ifvqff0","pricing_plan_id":"free"},