{"last_updated":1773743979,"ttl":60,"version":"2.2","data":{"bikes":[{"bike_id":"6f1681e6-745f-4763-a26a-a8cfdac1adae","system_id":"levelo_inurba_marseille","lat":43.30305,"lon":5.36906,"is_reserved":false,"is_disabled":true,"rental_uris":{"android":"levelo://app?vid=6f1681e6-745f-4763-a26a-a8cfdac1adae","ios":"levelo://app?vid=6f1681e6-745f-4763-a26a-a8cfdac1adae"},"vehicle_type_id":"4","last_reported":1773743980,"current_range_meters":2800,"station_id":"ce4bgqh2rcd13ifvqc5g","pricing_plan_id":"cebpf4jnsgd1na2vs0mg"},{"bike_id":"bd86e710-8eb7-4f12-b984-e53925b3abf9","system_id":"levelo_inurba_marseille","lat":43.26781,"lon":5.39423,"is_reserved":false,"is_disabled":false,"rental_uris":{"android":"levelo://app?vid=bd86e710-8eb7-4f12-b984-e53925b3abf9","ios":"levelo://app?vid=bd86e710-8eb7-4f12-b984-e53925b3abf9"},"vehicle_type_id":"4","last_reported":1773743980,"current_range_meters":2800,"station_id":"ce4bhh12rcd13ifvqfg0","pricing_plan_id":"cebpf4jnsgd1na2vs0mg"},{"bike_id":"6684ef43-aed7-4c02-8193-b5dcc2905571","system_id":"levelo_inurba_marseille","lat":43.25335,"lon":5.42169,"is_reserved":false,"is_disabled":false,"rental_uris":{"android":"levelo://app?vid=6684ef43-aed7-4c02-8193-b5dcc2905571","ios":"levelo://app?vid=6684ef43-aed7-4c02-8193-b5dcc2905571"},"vehicle_type_id":"4","last_reported":1773743980,"current_range_meters":2800,"station_id":"st_d2m65c5bi1j21697t3ng","pricing_plan_id":"cebpf4jnsgd1na2vs0mg"},{"bike_id":"4b338ce8-5a1d-45ae-98e5-89395f01eed6","system_id":"levelo_inurba_marseille","lat":43.28419,"lon":5.37314,"is_reserved":false,"is_disabled":true,"rental_uris":{"android":"levelo://app?vid=4b338ce8-5a1d-45ae-98e5-89395f01eed6","ios":"levelo://app?vid=4b338ce8-5a1d-45ae-98e5-89395f01eed6"},"vehicle_type_id":"4","last_reported":1773743980,"current_range_meters":2800,"station_id":"ce4bh412rcd13ifvqds0","pricing_plan_id":"cebpf4jnsgd1na2vs0mg"},{"bike_id":"2956b546-d1a3-4ed4-a2a6-fb17e06ddf94","system_id":"levelo_inurba_marseille","lat":43.242,"lon":5.39743,"is_reserved":false,"is_disabled":false,"rental_uris":{"android":"levelo://app?vid=2956b546-d1a3-4ed4-a2a6-fb17e06ddf94","ios":"levelo://app?vid=2956b546-d1a3-4ed4-a2a6-fb17e06ddf94"},"vehicle_type_id":"4","last_reported":1773743980,"current_range_meters":2800,"station_id":"ce4bhn12rcd13ifvqgpg","pricing_plan_id":"cebpf4jnsgd1na2vs0mg"},{"bike_id":"73806190-d7df-4322-93c0-d6bee78abccb","system_id":"levelo_inurba_marseille","lat":43.27464,"lon":5.39043,"is_reserved":false,"is_disabled":false,"rental_uris":{"android":"levelo://app?vid=73806190-d7df-4322-93c0-d6bee78abccb","ios":"levelo://app?vid=73806190-d7df-4322-93c0-d6bee78abccb"},"vehicle_type_id":"4","last_reported":1773743980,"current_range_meters":2800,"station_id":"","pricing_plan_id":"cebpf4jnsgd1na2vs0mg"},{"bike_id":"3e81bfce-b3a9-4949-b4fd-31d723d45b58","system_id":"levelo_inurba_marseille","lat":43.28045,"lon":5.36944,"is_reserved":false,"is_disabled":false,"rental_uris":{"android":"levelo://app?vid=3e81bfce-b3a9-4949-b4fd-31d723d45b58","ios":"levelo://app?vid=3e81bfce-b3a9-4949-b4fd-31d723d45b58"},"vehicle_type_id":"4","last_reported":1773743980,"current_range_meters":2800,"station_id":"ce4bha12rcd13ifvqef0","pricing_plan_id":"cebpf4jnsgd1na2vs0mg"},{"bike_id":"4fb702b1-5215-4524-9260-909a50753239","system_id":"levelo_inurba_marseille","lat":43.21743,"lon":5.34576,"is_reserved":false,"is_disabled":false,"rental_uris":{"android":"levelo://app?vid=4fb702b1-5215-4524-9260-909a50753239","ios":"levelo://app?vid=4fb702b1-5215-4524-9260-909a50753239"},"vehicle_type_id":"4","last_reported":1773743980,"current_range_meters":2800,"station_id":"st_cvj6r9ubvosntc0bgbag","pricing_plan_id":"cebpf4jnsgd1na2vs0mg"},{"bike_id":"8981a264-bb51-4ae3-ad85-aacf4ed53951","system_id":"levelo_inurba_marseille","lat":43.24964,"lon":5.40502,"is_reserved":false,"is_disabled":false,"rental_uris":{"android":"levelo://app?vid=8981a264-bb51-4ae3-ad85-aacf4ed53951","ios":"levelo://app?vid=8981a264-bb51-4ae3-ad85-aacf4ed53951"},"vehicle_type_id":"4","last_reported":1773743980,"current_range_meters":2800,"station_id":"st_d2ngiaodas8pm72gd1h0","pricing_plan_id":"cebpf4jnsgd1na2vs0mg"},{"bike_id":"3f3c687a-ede3-4922-aa44-35e13b446497","system_id":"levelo_inurba_marseille","lat":43.26557,"lon":5.39008,"is_reserved":false,"is_disabled":false,"rental_uris":{"android":"levelo://app?vid=3f3c687a-ede3-4922-aa44-35e13b446497","ios":"levelo://app?vid=3f3c687a-ede3-4922-aa44-35e13b446497"},"vehicle_type_id":"4","last_reported":1773743980,"current_range_meters":2800,"station_id":"ce4bhe12rcd13ifvqf30","pricing_plan_id":"cebpf4jnsgd1na2vs0mg"},{"bike_id":"4b66d87f-df59-44c5-bb47-d7e0503e1b42","system_id":"levelo_inurba_marseille","lat":43.21737,"lon":5.34597,"is_reserved":false,"is_disabled":false,"rental_uris":{"android":"levelo://app?vid=4b66d87f-df59-44c5-bb47-d7e0503e1b42","ios":"levelo://app?vid=4b66d87f-df59-44c5-bb47-d7e0503e1b42"},"vehicle_type_id":"4","last_reported":1773743980,"current_range_meters":2800,"station_id":"st_cvj6r9ubvosntc0bgbag","pricing_plan_id":"cebpf4jnsgd1na2vs0mg"},{"bike_id":"11809b0a-813e-423a-a613-252792f9918c","system_id":"levelo_inurba_marseille","lat":43.29228,"lon":5.36049,"is_reserved":false,"is_disabled":true,"rental_uris":{"android":"levelo://app?vid=11809b0a-813e-423a-a613-252792f9918c","ios":"levelo://app?vid=11809b0a-813e-423a-a613-252792f9918c"},"vehicle_type_id":"4","last_reported":1773743980,"current_range_meters":2800,"station_id":"ce4bhbh2rcd13ifvqeqg","pricing_plan_id":"cebpf4jnsgd1na2vs0mg"},{"bike_id":"48b828da-8c5a-43a0-9e84-6efafa2228c9","system_id":"levelo_inurba_marseille","lat":43.29628,"lon":5.37165,"is_reserved":false,"is_disabled":false,"rental_uris":{"android":"levelo://app?vid=48b828da-8c5a-43a0-9e84-6efafa2228c9","ios":"levelo://app?vid=48b828da-8c5a-43a0-9e84-6efafa2228c9"},"vehicle_type_id":"4","last_reported":1773743980,"current_range_meters":2800,"station_id":"ce4bgnh2rcd13ifvqc0g","pricing_plan_id":"cebpf4jnsgd1na2vs0mg"},{"bike_id":"7d102226-e6aa-4b5f-84fd-2b13c84b7ea3","system_id":"levelo_inurba_marseille","lat":43.31709,"lon":5.3776,"is_reserved":false,"is_disabled":false,"rental_uris":{"android":"levelo://app?vid=7d102226-e6aa-4b5f-84fd-2b13c84b7ea3","ios":"levelo://app?vid=7d102226-e6aa-4b5f-84fd-2b13c84b7ea3"},"vehicle_type_id":"4","last_reported":1773743980,"current_range_meters":2800,"station_id":"ce4bgth2rcd13ifvqch0","pricing_plan_id":"cebpf4jnsgd1na2vs0mg"},{"bike_id":"2778616b-557d-4bc9-baa4-30bd01142988","system_id":"levelo_inurba_marseille","lat":43.24072,"lon":5.37759,"is_reserved":false,"is_disabled":false,"rental_uris":{"android":"levelo://app?vid=2778616b-557d-4bc9-baa4-30bd01142988","ios":"levelo://app?vid=2778616b-557d-4bc9-baa4-30bd01142988"},"vehicle_type_id":"4","last_reported":1773743980,"current_range_meters":3200,"station_id":"ce4bhnp2rcd13ifvqgvg","pricing_plan_id":"cebpf4jnsgd1na2vs0mg"},{"bike_id":"9f96e3e5-0df4-4f85-8707-d098d0747392","system_id":"levelo_inurba_marseille","lat":43.25344,"lon":5.42173,"is_reserved":false,"is_disabled":false,"rental_uris":{"android":"levelo://app?vid=9f96e3e5-0df4-4f85-8707-d098d0747392","ios":"levelo://app?vid=9f96e3e5-0df4-4f85-8707-d098d0747392"},"vehicle_type_id":"4","last_reported":1773743980,"current_range_meters":3200,"station_id":"st_d2m65c5bi1j21697t3ng","pricing_plan_id":"cebpf4jnsgd1na2vs0mg"},{"bike_id":"edc00b3c-c00b-4310-bd30-5c9391f86fcc","system_id":"levelo_inurba_marseille","lat":43.31223,"lon":5.36828,"is_reserved":false,"is_disabled":false,"rental_uris":{"android":"levelo://app?vid=edc00b3c-c00b-4310-bd30-5c9391f86fcc","ios":"levelo://app?vid=edc00b3c-c00b-4310-bd30-5c9391f86fcc"},"vehicle_type_id":"4","last_reported":1773743980,"current_range_meters":3200,"station_id":"ce4bgl92rcd13ifvqbq0","pricing_plan_id":"cebpf4jnsgd1na2vs0mg"},{"bike_id":"e4f8d2c8-e298-4ac1-b407-8cac33e3412b","system_id":"levelo_inurba_marseille","lat":43.30956,"lon":5.39025,"is_reserved":false,"is_disabled":false,"rental_uris":{"android":"levelo://app?vid=e4f8d2c8-e298-4ac1-b407-8cac33e3412b","ios":"levelo://app?vid=e4f8d2c8-e298-4ac1-b407-8cac33e3412b"},"vehicle_type_id":"4","last_reported":1773743980,"current_range_meters":3200,"station_id":"ce4bgup2rcd13ifvqco0","pricing_plan_id":"cebpf4jnsgd1na2vs0mg"},{"bike_id":"8431c0ae-c291-4e69-8c30-9ab81ad19a14","system_id":"levelo_inurba_marseille","lat":43.26562,"lon":5.37268,"is_reserved":false,"is_disabled":false,"rental_uris":{"android":"levelo://app?vid=8431c0ae-c291-4e69-8c30-9ab81ad19a14","ios":"levelo://app?vid=8431c0ae-c291-4e69-8c30-9ab81ad19a14"},"vehicle_type_id":"4","last_reported":1773743980,"current_range_meters":3200,"station_id":"ce4bhg12rcd13ifvqf70","pricing_plan_id":"cebpf4jnsgd1na2vs0mg"},{"bike_id":"d4b5048e-20dc-4034-b8ef-ae6b0d7e5f6f","system_id":"levelo_inurba_marseille","lat":43.26921,"lon":5.38908,"is_reserved":false,"is_disabled":false,"rental_uris":{"android":"levelo://app?vid=d4b5048e-20dc-4034-b8ef-ae6b0d7e5f6f","ios":"levelo://app?vid=d4b5048e-20dc-4034-b8ef-ae6b0d7e5f6f"},"vehicle_type_id":"4","last_reported":1773743980,"current_range_meters":3200,"station_id":"ce4bhhh2rcd13ifvqfl0","pricing_plan_id":"cebpf4jnsgd1na2vs0mg"},{"bike_id":"d84d3eae-9af6-4922-822b-81dddf9bc7e4","system_id":"levelo_inurba_marseille","lat":43.29788,"lon":5.37099,"is_reserved":false,"is_disabled":false,"rental_uris":{"android":"levelo://app?vid=d84d3eae-9af6-4922-822b-81dddf9bc7e4","ios":"levelo://app?vid=d84d3eae-9af6-4922-822b-81dddf9bc7e4"},"vehicle_type_id":"4","last_reported":1773743980,"current_range_meters":3200,"station_id":"ce4bgop2rcd13ifvqc1g","pricing_plan_id":"cebpf4jnsgd1na2vs0mg"},{"bike_id":"ff6903f8-7d6d-4329-9980-dd36491025a5","system_id":"levelo_inurba_marseille","lat":43.28479,"lon":5.48407,"is_reserved":false,"is_disabled":false,"rental_uris":{"android":"levelo://app?vid=ff6903f8-7d6d-4329-9980-dd36491025a5","ios":"levelo://app?vid=ff6903f8-7d6d-4329-9980-dd36491025a5"},"vehicle_type_id":"4","last_reported":1773743980,"current_range_meters":3200,"station_id":"st_d3svhcjqgbts73a3dn0g","pricing_plan_id":"cebpf4jnsgd1na2vs0mg"},{"bike_id":"c8431d5e-fe62-4c51-a67e-06bd269df984","system_id":"levelo_inurba_marseille","lat":43.33634,"lon":5.3745,"is_reserved":false,"is_disabled":false,"rental_uris":{"android":"levelo://app?vid=c8431d5e-fe62-4c51-a67e-06bd269df984","ios":"levelo://app?vid=c8431d5e-fe62-4c51-a67e-06bd269df984"},"vehicle_type_id":"4","last_reported":1773743980,"current_range_meters":3200,"station_id":"","pricing_plan_id":"cebpf4jnsgd1na2vs0mg"},{"bike_id":"367d1ebd-1fe7-4381-bb25-dac6bfe4a266","system_id":"levelo_inurba_marseille","lat":43.25329,"lon":5.42177,"is_reserved":false,"is_disabled":false,"rental_uris":{"android":"levelo://app?vid=367d1ebd-1fe7-4381-bb25-dac6bfe4a266","ios":"levelo://app?vid=367d1ebd-1fe7-4381-bb25-dac6bfe4a266"},"vehicle_type_id":"4","last_reported":1773743980,"current_range_meters":3200,"station_id":"st_d2m65c5bi1j21697t3ng","pricing_plan_id":"cebpf4jnsgd1na2vs0mg"},{"bike_id":"f1c3ecdc-1aa2-4c04-8f2f-daca8c8261fb","system_id":"levelo_inurba_marseille","lat":43.29633,"lon":5.37184,"is_reserved":false,"is_disabled":false,"rental_uris":{"android":"levelo://app?vid=f1c3ecdc-1aa2-4c04-8f2f-daca8c8261fb","ios":"levelo://app?vid=f1c3ecdc-1aa2-4c04-8f2f-daca8c8261fb"},"vehicle_type_id":"4","last_reported":1773743980,"current_range_meters":3200,"station_id":"ce4bgnh2rcd13ifvqc0g","pricing_plan_id":"cebpf4jnsgd1na2vs0mg"},{"bike_id":"ef275710-a738-4425-a373-87c195840051","system_id":"levelo_inurba_marseille","lat":43.30736,"lon":5.42426,"is_reserved":false,"is_disabled":false,"rental_uris":{"android":"levelo://app?vid=ef275710-a738-4425-a373-87c195840051","ios":"levelo://app?vid=ef275710-a738-4425-a373-87c195840051"},"vehicle_type_id":"4","last_reported":1773743980,"current_range_meters":3200,"station_id":"st_cvj6ca6bvosntc0bfgr0","pricing_plan_id":"cebpf4jnsgd1na2vs0mg"},{"bike_id":"f241c30b-2b1a-4f86-a532-796da72b8ac2","system_id":"levelo_inurba_marseille","lat":43.21202,"lon":5.35055,"is_reserved":false,"is_disabled":false,"rental_uris":{"android":"levelo://app?vid=f241c30b-2b1a-4f86-a532-796da72b8ac2","ios":"levelo://app?vid=f241c30b-2b1a-4f86-a532-796da72b8ac2"},"vehicle_type_id":"4","last_reported":1773743980,"current_range_meters":3200,"station_id":"st_cvj6sg6p6f1abm77japg","pricing_plan_id":"cebpf4jnsgd1na2vs0mg"},{"bike_id":"585fef78-c7cb-48e0-ba66-24aeb2bffec5","system_id":"levelo_inurba_marseille","lat":43.26694,"lon":5.38294,"is_reserved":false,"is_disabled":false,"rental_uris":{"android":"levelo://app?vid=585fef78-c7cb-48e0-ba66-24aeb2bffec5","ios":"levelo://app?vid=585fef78-c7cb-48e0-ba66-24aeb2bffec5"},"vehicle_type_id":"4","last_reported":1773743980,"current_range_meters":3200,"station_id":"ce4bhg92rcd13ifvqf90","pricing_plan_id":"cebpf4jnsgd1na2vs0mg"},{"bike_id":"bb16aae8-6e92-476a-8466-22984fcc8951","system_id":"levelo_inurba_marseille","lat":43.24018,"lon":5.37753,"is_reserved":false,"is_disabled":false,"rental_uris":{"android":"levelo://app?vid=bb16aae8-6e92-476a-8466-22984fcc8951","ios":"levelo://app?vid=bb16aae8-6e92-476a-8466-22984fcc8951"},"vehicle_type_id":"4","last_reported":1773743980,"current_range_meters":3200,"station_id":"ce4bhnp2rcd13ifvqgvg","pricing_plan_id":"cebpf4jnsgd1na2vs0mg"},{"bike_id":"41a475e8-8f60-49e5-932c-2037737c2411","system_id":"levelo_inurba_marseille","lat":43.33554,"lon":5.3746,"is_reserved":false,"is_disabled":false,"rental_uris":{"android":"levelo://app?vid=41a475e8-8f60-49e5-932c-2037737c2411","ios":"levelo://app?vid=41a475e8-8f60-49e5-932c-2037737c2411"},"vehicle_type_id":"4","last_reported":1773743980,"current_range_meters":3200,"station_id":"st_d46tts09ee8s73dlu43g","pricing_plan_id":"cebpf4jnsgd1na2vs0mg"},{"bike_id":"ca5af02f-49f7-48db-a0c5-85c6fd8e11c9","system_id":"levelo_inurba_marseille","lat":43.25018,"lon":5.38889,"is_reserved":false,"is_disabled":true,"rental_uris":{"android":"levelo://app?vid=ca5af02f-49f7-48db-a0c5-85c6fd8e11c9","ios":"levelo://app?vid=ca5af02f-49f7-48db-a0c5-85c6fd8e11c9"},"vehicle_type_id":"4","last_reported":1773743980,"current_range_meters":3200,"station_id":"ce4bhgp2rcd13ifvqfd0","pricing_plan_id":"cebpf4jnsgd1na2vs0mg"},{"bike_id":"c9af8554-fed4-4024-9d57-0ddcddacc047","system_id":"levelo_inurba_marseille","lat":43.32483,"lon":5.38255,"is_reserved":false,"is_disabled":false,"rental_uris":{"android":"levelo://app?vid=c9af8554-fed4-4024-9d57-0ddcddacc047","ios":"levelo://app?vid=c9af8554-fed4-4024-9d57-0ddcddacc047"},"vehicle_type_id":"4","last_reported":1773743980,"current_range_meters":3200,"station_id":"st_d4asgbiv49dc73anf9m0","pricing_plan_id":"cebpf4jnsgd1na2vs0mg"},{"bike_id":"c6d69b4d-4c87-44fe-a02d-92b1370b69aa","system_id":"levelo_inurba_marseille","lat":43.22554,"lon":5.41611,"is_reserved":false,"is_disabled":false,"rental_uris":{"android":"levelo://app?vid=c6d69b4d-4c87-44fe-a02d-92b1370b69aa","ios":"levelo://app?vid=c6d69b4d-4c87-44fe-a02d-92b1370b69aa"},"vehicle_type_id":"4","last_reported":1773743980,"current_range_meters":3600,"station_id":"st_d2o4gvlbi1j2169b742g","pricing_plan_id":"cebpf4jnsgd1na2vs0mg"},{"bike_id":"a3eb6664-f79f-4fcc-a176-332c8301346f","system_id":"levelo_inurba_marseille","lat":43.28398,"lon":5.34954,"is_reserved":false,"is_disabled":true,"rental_uris":{"android":"levelo://app?vid=a3eb6664-f79f-4fcc-a176-332c8301346f","ios":"levelo://app?vid=a3eb6664-f79f-4fcc-a176-332c8301346f"},"vehicle_type_id":"4","last_reported":1773743980,"current_range_meters":3600,"station_id":"ce4bhbh2rcd13ifvqepg","pricing_plan_id":"cebpf4jnsgd1na2vs0mg"},{"bike_id":"688ef283-2fd6-4a66-8ae0-5e83790858d3","system_id":"levelo_inurba_marseille","lat":43.32378,"lon":5.36739,"is_reserved":false,"is_disabled":false,"rental_uris":{"android":"levelo://app?vid=688ef283-2fd6-4a66-8ae0-5e83790858d3","ios":"levelo://app?vid=688ef283-2fd6-4a66-8ae0-5e83790858d3"},"vehicle_type_id":"4","last_reported":1773743980,"current_range_meters":3600,"station_id":"ce4bhsh2rcd13ifvqi2g","pricing_plan_id":"cebpf4jnsgd1na2vs0mg"},{"bike_id":"7e4878ae-c376-48c8-ad77-0c9152653552","system_id":"levelo_inurba_marseille","lat":43.27515,"lon":5.4159,"is_reserved":false,"is_disabled":false,"rental_uris":{"android":"levelo://app?vid=7e4878ae-c376-48c8-ad77-0c9152653552","ios":"levelo://app?vid=7e4878ae-c376-48c8-ad77-0c9152653552"},"vehicle_type_id":"4","last_reported":1773743980,"current_range_meters":3600,"station_id":"st_d6im8g6chgec73a5pndg","pricing_plan_id":"cebpf4jnsgd1na2vs0mg"},{"bike_id":"a8261f75-c49a-4d8a-8d78-59cefb23f437","system_id":"levelo_inurba_marseille","lat":43.2985,"lon":5.36293,"is_reserved":false,"is_disabled":false,"rental_uris":{"android":"levelo://app?vid=a8261f75-c49a-4d8a-8d78-59cefb23f437","ios":"levelo://app?vid=a8261f75-c49a-4d8a-8d78-59cefb23f437"},"vehicle_type_id":"4","last_reported":1773743980,"current_range_meters":3600,"station_id":"ce4bgpp2rcd13ifvqc3g","pricing_plan_id":"cebpf4jnsgd1na2vs0mg"},{"bike_id":"e7d20ce8-61ee-4df3-9ba4-585a7648c721","system_id":"levelo_inurba_marseille","lat":43.24647,"lon":5.43157,"is_reserved":false,"is_disabled":false,"rental_uris":{"android":"levelo://app?vid=e7d20ce8-61ee-4df3-9ba4-585a7648c721","ios":"levelo://app?vid=e7d20ce8-61ee-4df3-9ba4-585a7648c721"},"vehicle_type_id":"4","last_reported":1773743980,"current_range_meters":3600,"station_id":"","pricing_plan_id":"cebpf4jnsgd1na2vs0mg"},{"bike_id":"7077099d-bec4-45e6-9cb2-740f7185bcfe","system_id":"levelo_inurba_marseille","lat":43.31048,"lon":5.37175,"is_reserved":false,"is_disabled":false,"rental_uris":{"android":"levelo://app?vid=7077099d-bec4-45e6-9cb2-740f7185bcfe","ios":"levelo://app?vid=7077099d-bec4-45e6-9cb2-740f7185bcfe"},"vehicle_type_id":"4","last_reported":1773743980,"current_range_meters":3600,"station_id":"st_d4kl2rp97mjs73e7tdfg","pricing_plan_id":"cebpf4jnsgd1na2vs0mg"},{"bike_id":"879a873f-004f-4af1-a55c-41f0a4bec7bc","system_id":"levelo_inurba_marseille","lat":43.21193,"lon":5.35076,"is_reserved":false,"is_disabled":false,"rental_uris":{"android":"levelo://app?vid=879a873f-004f-4af1-a55c-41f0a4bec7bc","ios":"levelo://app?vid=879a873f-004f-4af1-a55c-41f0a4bec7bc"},"vehicle_type_id":"4","last_reported":1773743980,"current_range_meters":3600,"station_id":"st_cvj6sg6p6f1abm77japg","pricing_plan_id":"cebpf4jnsgd1na2vs0mg"},{"bike_id":"91f440a2-b37f-4186-bada-b6ca9b83b739","system_id":"levelo_inurba_marseille","lat":43.23899,"lon":5.37473,"is_reserved":false,"is_disabled":false,"rental_uris":{"android":"levelo://app?vid=91f440a2-b37f-4186-bada-b6ca9b83b739","ios":"levelo://app?vid=91f440a2-b37f-4186-bada-b6ca9b83b739"},"vehicle_type_id":"4","last_reported":1773743980,"current_range_meters":3600,"station_id":"","pricing_plan_id":"cebpf4jnsgd1na2vs0mg"},{"bike_id":"7d5e5488-b062-4979-8056-f7926cc5db5b","system_id":"levelo_inurba_marseille","lat":43.28492,"lon":5.48384,"is_reserved":false,"is_disabled":false,"rental_uris":{"android":"levelo://app?vid=7d5e5488-b062-4979-8056-f7926cc5db5b","ios":"levelo://app?vid=7d5e5488-b062-4979-8056-f7926cc5db5b"},"vehicle_type_id":"4","last_reported":1773743980,"current_range_meters":3600,"station_id":"","pricing_plan_id":"cebpf4jnsgd1na2vs0mg"},{"bike_id":"6dcf64ca-88e3-4dec-bf7c-fa3b38653a60","system_id":"levelo_inurba_marseille","lat":43.23152,"lon":5.43712,"is_reserved":false,"is_disabled":false,"rental_uris":{"android":"levelo://app?vid=6dcf64ca-88e3-4dec-bf7c-fa3b38653a60","ios":"levelo://app?vid=6dcf64ca-88e3-4dec-bf7c-fa3b38653a60"},"vehicle_type_id":"4","last_reported":1773743980,"current_range_meters":4000,"station_id":"ce4bhmp2rcd13ifvqgog","pricing_plan_id":"cebpf4jnsgd1na2vs0mg"},{"bike_id":"20dd7d86-c4dc-4d33-83b0-519cc08235a3","system_id":"levelo_inurba_marseille","lat":43.26215,"lon":5.37457,"is_reserved":false,"is_disabled":false,"rental_uris":{"android":"levelo://app?vid=20dd7d86-c4dc-4d33-83b0-519cc08235a3","ios":"levelo://app?vid=20dd7d86-c4dc-4d33-83b0-519cc08235a3"},"vehicle_type_id":"4","last_reported":1773743980,"current_range_meters":4000,"station_id":"ce4bhgp2rcd13ifvqfc0","pricing_plan_id":"cebpf4jnsgd1na2vs0mg"},{"bike_id":"b3fb0cd9-0d50-4402-b1d7-e0ca7cbbf02f","system_id":"levelo_inurba_marseille","lat":43.22566,"lon":5.41634,"is_reserved":false,"is_disabled":false,"rental_uris":{"android":"levelo://app?vid=b3fb0cd9-0d50-4402-b1d7-e0ca7cbbf02f","ios":"levelo://app?vid=b3fb0cd9-0d50-4402-b1d7-e0ca7cbbf02f"},"vehicle_type_id":"4","last_reported":1773743980,"current_range_meters":4000,"station_id":"st_d2o4gvlbi1j2169b742g","pricing_plan_id":"cebpf4jnsgd1na2vs0mg"},{"bike_id":"e62a4e4c-9fb8-4fb9-88a5-4bc5e03b636b","system_id":"levelo_inurba_marseille","lat":43.31363,"lon":5.36719,"is_reserved":false,"is_disabled":false,"rental_uris":{"android":"levelo://app?vid=e62a4e4c-9fb8-4fb9-88a5-4bc5e03b636b","ios":"levelo://app?vid=e62a4e4c-9fb8-4fb9-88a5-4bc5e03b636b"},"vehicle_type_id":"4","last_reported":1773743980,"current_range_meters":4000,"station_id":"ce4bgr92rcd13ifvqc6g","pricing_plan_id":"cebpf4jnsgd1na2vs0mg"},{"bike_id":"6f8a7525-0308-4e69-9d36-204c8fd81f95","system_id":"levelo_inurba_marseille","lat":43.29022,"lon":5.3866,"is_reserved":false,"is_disabled":false,"rental_uris":{"android":"levelo://app?vid=6f8a7525-0308-4e69-9d36-204c8fd81f95","ios":"levelo://app?vid=6f8a7525-0308-4e69-9d36-204c8fd81f95"},"vehicle_type_id":"4","last_reported":1773743980,"current_range_meters":4000,"station_id":"ce4bh4p2rcd13ifvqe0g","pricing_plan_id":"cebpf4jnsgd1na2vs0mg"},{"bike_id":"5dd5243e-8554-49c7-9505-e41947edb65d","system_id":"levelo_inurba_marseille","lat":43.27212,"lon":5.39184,"is_reserved":false,"is_disabled":false,"rental_uris":{"android":"levelo://app?vid=5dd5243e-8554-49c7-9505-e41947edb65d","ios":"levelo://app?vid=5dd5243e-8554-49c7-9505-e41947edb65d"},"vehicle_type_id":"4","last_reported":1773743980,"current_range_meters":4000,"station_id":"ce4bhhp2rcd13ifvqfm0","pricing_plan_id":"cebpf4jnsgd1na2vs0mg"},{"bike_id":"20d965c2-9356-4a2d-b2d1-b586da5c97e8","system_id":"levelo_inurba_marseille","lat":43.2812,"lon":5.40616,"is_reserved":false,"is_disabled":true,"rental_uris":{"android":"levelo://app?vid=20d965c2-9356-4a2d-b2d1-b586da5c97e8","ios":"levelo://app?vid=20d965c2-9356-4a2d-b2d1-b586da5c97e8"},"vehicle_type_id":"4","last_reported":1773743980,"current_range_meters":4400,"station_id":"","pricing_plan_id":"cebpf4jnsgd1na2vs0mg"},{"bike_id":"87cf2c9e-dd79-479c-9e15-2f0aaae6b8ee","system_id":"levelo_inurba_marseille","lat":43.31445,"lon":5.37315,"is_reserved":false,"is_disabled":false,"rental_uris":{"android":"levelo://app?vid=87cf2c9e-dd79-479c-9e15-2f0aaae6b8ee","ios":"levelo://app?vid=87cf2c9e-dd79-479c-9e15-2f0aaae6b8ee"},"vehicle_type_id":"4","last_reported":1773743980,"current_range_meters":4400,"station_id":"ce4bgt12rcd13ifvqcd0","pricing_plan_id":"cebpf4jnsgd1na2vs0mg"},{"bike_id":"5ceea874-16bc-4dc6-9858-1b3ce34dfda6","system_id":"levelo_inurba_marseille","lat":43.28478,"lon":5.48371,"is_reserved":false,"is_disabled":false,"rental_uris":{"android":"levelo://app?vid=5ceea874-16bc-4dc6-9858-1b3ce34dfda6","ios":"levelo://app?vid=5ceea874-16bc-4dc6-9858-1b3ce34dfda6"},"vehicle_type_id":"4","last_reported":1773743980,"current_range_meters":4400,"station_id":"st_d3svhcjqgbts73a3dn0g","pricing_plan_id":"cebpf4jnsgd1na2vs0mg"},{"bike_id":"5c13d3bc-3946-4016-b223-a96c424763ee","system_id":"levelo_inurba_marseille","lat":43.24164,"lon":5.36389,"is_reserved":false,"is_disabled":false,"rental_uris":{"android":"levelo://app?vid=5c13d3bc-3946-4016-b223-a96c424763ee","ios":"levelo://app?vid=5c13d3bc-3946-4016-b223-a96c424763ee"},"vehicle_type_id":"4","last_reported":1773743980,"current_range_meters":4400,"station_id":"cpo36qri1sfpv3e86is0","pricing_plan_id":"cebpf4jnsgd1na2vs0mg"},{"bike_id":"c1bf3ef1-963d-4207-8611-d7e29cc6c1d1","system_id":"levelo_inurba_marseille","lat":43.28149,"lon":5.42638,"is_reserved":false,"is_disabled":false,"rental_uris":{"android":"levelo://app?vid=c1bf3ef1-963d-4207-8611-d7e29cc6c1d1","ios":"levelo://app?vid=c1bf3ef1-963d-4207-8611-d7e29cc6c1d1"},"vehicle_type_id":"4","last_reported":1773743980,"current_range_meters":4400,"station_id":"ce4bhnh2rcd13ifvqgug","pricing_plan_id":"cebpf4jnsgd1na2vs0mg"},{"bike_id":"26202659-445f-404d-b446-d181a4a7df71","system_id":"levelo_inurba_marseille","lat":43.33541,"lon":5.37459,"is_reserved":false,"is_disabled":false,"rental_uris":{"android":"levelo://app?vid=26202659-445f-404d-b446-d181a4a7df71","ios":"levelo://app?vid=26202659-445f-404d-b446-d181a4a7df71"},"vehicle_type_id":"4","last_reported":1773743980,"current_range_meters":4400,"station_id":"st_d46tts09ee8s73dlu43g","pricing_plan_id":"cebpf4jnsgd1na2vs0mg"},{"bike_id":"d06b1804-70fd-40ad-8edd-a00949173812","system_id":"levelo_inurba_marseille","lat":43.23195,"lon":5.40004,"is_reserved":false,"is_disabled":false,"rental_uris":{"android":"levelo://app?vid=d06b1804-70fd-40ad-8edd-a00949173812","ios":"levelo://app?vid=d06b1804-70fd-40ad-8edd-a00949173812"},"vehicle_type_id":"4","last_reported":1773743980,"current_range_meters":4400,"station_id":"ce4bhn12rcd13ifvqgqg","pricing_plan_id":"cebpf4jnsgd1na2vs0mg"},{"bike_id":"d89134ff-a044-45c7-94db-9ed2eccb039f","system_id":"levelo_inurba_marseille","lat":43.3135,"lon":5.38497,"is_reserved":false,"is_disabled":true,"rental_uris":{"android":"levelo://app?vid=d89134ff-a044-45c7-94db-9ed2eccb039f","ios":"levelo://app?vid=d89134ff-a044-45c7-94db-9ed2eccb039f"},"vehicle_type_id":"4","last_reported":1773743980,"current_range_meters":4400,"station_id":"ce4bgt92rcd13ifvqcf0","pricing_plan_id":"cebpf4jnsgd1na2vs0mg"},{"bike_id":"5247c951-a74f-455c-8348-09a4b4062d01","system_id":"levelo_inurba_marseille","lat":43.21765,"lon":5.34583,"is_reserved":false,"is_disabled":false,"rental_uris":{"android":"levelo://app?vid=5247c951-a74f-455c-8348-09a4b4062d01","ios":"levelo://app?vid=5247c951-a74f-455c-8348-09a4b4062d01"},"vehicle_type_id":"4","last_reported":1773743980,"current_range_meters":4400,"station_id":"st_cvj6r9ubvosntc0bgbag","pricing_plan_id":"cebpf4jnsgd1na2vs0mg"},{"bike_id":"890c613a-e9be-4323-9388-08af8a305acb","system_id":"levelo_inurba_marseille","lat":43.31342,"lon":5.36727,"is_reserved":false,"is_disabled":false,"rental_uris":{"android":"levelo://app?vid=890c613a-e9be-4323-9388-08af8a305acb","ios":"levelo://app?vid=890c613a-e9be-4323-9388-08af8a305acb"},"vehicle_type_id":"4","last_reported":1773743980,"current_range_meters":4800,"station_id":"ce4bgr92rcd13ifvqc6g","pricing_plan_id":"cebpf4jnsgd1na2vs0mg"},{"bike_id":"2d475c7c-0764-4ac9-8950-41d5059b573b","system_id":"levelo_inurba_marseille","lat":43.28485,"lon":5.4841,"is_reserved":false,"is_disabled":false,"rental_uris":{"android":"levelo://app?vid=2d475c7c-0764-4ac9-8950-41d5059b573b","ios":"levelo://app?vid=2d475c7c-0764-4ac9-8950-41d5059b573b"},"vehicle_type_id":"4","last_reported":1773743980,"current_range_meters":4800,"station_id":"","pricing_plan_id":"cebpf4jnsgd1na2vs0mg"},{"bike_id":"796ed888-5e80-4248-a7be-20570706635d","system_id":"levelo_inurba_marseille","lat":43.23775,"lon":5.36621,"is_reserved":false,"is_disabled":false,"rental_uris":{"android":"levelo://app?vid=796ed888-5e80-4248-a7be-20570706635d","ios":"levelo://app?vid=796ed888-5e80-4248-a7be-20570706635d"},"vehicle_type_id":"4","last_reported":1773743980,"current_range_meters":4800,"station_id":"st_d3nk18o9ro0c73en2l3g","pricing_plan_id":"cebpf4jnsgd1na2vs0mg"},{"bike_id":"0f53d472-bee4-40de-8ab2-7656a789b4f7","system_id":"levelo_inurba_marseille","lat":43.22459,"lon":5.34904,"is_reserved":false,"is_disabled":false,"rental_uris":{"android":"levelo://app?vid=0f53d472-bee4-40de-8ab2-7656a789b4f7","ios":"levelo://app?vid=0f53d472-bee4-40de-8ab2-7656a789b4f7"},"vehicle_type_id":"4","last_reported":1773743980,"current_range_meters":4800,"station_id":"","pricing_plan_id":"cebpf4jnsgd1na2vs0mg"},{"bike_id":"1fd451bf-9010-4e73-b63a-57dbe2bf1316","system_id":"levelo_inurba_marseille","lat":43.30541,"lon":5.38433,"is_reserved":false,"is_disabled":false,"rental_uris":{"android":"levelo://app?vid=1fd451bf-9010-4e73-b63a-57dbe2bf1316","ios":"levelo://app?vid=1fd451bf-9010-4e73-b63a-57dbe2bf1316"},"vehicle_type_id":"4","last_reported":1773743980,"current_range_meters":4800,"station_id":"ce4bgg92rcd13ifvqb30","pricing_plan_id":"cebpf4jnsgd1na2vs0mg"},{"bike_id":"a434d732-170c-45b6-a24e-93ea961fe2ae","system_id":"levelo_inurba_marseille","lat":43.29977,"lon":5.37186,"is_reserved":false,"is_disabled":false,"rental_uris":{"android":"levelo://app?vid=a434d732-170c-45b6-a24e-93ea961fe2ae","ios":"levelo://app?vid=a434d732-170c-45b6-a24e-93ea961fe2ae"},"vehicle_type_id":"4","last_reported":1773743980,"current_range_meters":4800,"station_id":"ce4bgr92rcd13ifvqc7g","pricing_plan_id":"cebpf4jnsgd1na2vs0mg"},{"bike_id":"5c26df43-1e37-4b56-b0df-ea8817bbb052","system_id":"levelo_inurba_marseille","lat":43.24073,"lon":5.3776,"is_reserved":false,"is_disabled":false,"rental_uris":{"android":"levelo://app?vid=5c26df43-1e37-4b56-b0df-ea8817bbb052","ios":"levelo://app?vid=5c26df43-1e37-4b56-b0df-ea8817bbb052"},"vehicle_type_id":"4","last_reported":1773743980,"current_range_meters":4800,"station_id":"ce4bhnp2rcd13ifvqgvg","pricing_plan_id":"cebpf4jnsgd1na2vs0mg"},{"bike_id":"cf7e06e7-174f-44ce-bebf-7de04dbdbc0d","system_id":"levelo_inurba_marseille","lat":43.30307,"lon":5.36915,"is_reserved":false,"is_disabled":true,"rental_uris":{"android":"levelo://app?vid=cf7e06e7-174f-44ce-bebf-7de04dbdbc0d","ios":"levelo://app?vid=cf7e06e7-174f-44ce-bebf-7de04dbdbc0d"},"vehicle_type_id":"4","last_reported":1773743980,"current_range_meters":5600,"station_id":"ce4bgqh2rcd13ifvqc5g","pricing_plan_id":"cebpf4jnsgd1na2vs0mg"},{"bike_id":"1db236a2-b268-4ffd-b681-cc3ae28fdddf","system_id":"levelo_inurba_marseille","lat":43.28619,"lon":5.35103,"is_reserved":false,"is_disabled":false,"rental_uris":{"android":"levelo://app?vid=1db236a2-b268-4ffd-b681-cc3ae28fdddf","ios":"levelo://app?vid=1db236a2-b268-4ffd-b681-cc3ae28fdddf"},"vehicle_type_id":"4","last_reported":1773743980,"current_range_meters":5600,"station_id":"ce4bhch2rcd13ifvqeug","pricing_plan_id":"cebpf4jnsgd1na2vs0mg"},{"bike_id":"15c6f95a-b983-4283-9be7-875f500d7490","system_id":"levelo_inurba_marseille","lat":43.2733,"lon":5.39089,"is_reserved":false,"is_disabled":false,"rental_uris":{"android":"levelo://app?vid=15c6f95a-b983-4283-9be7-875f500d7490","ios":"levelo://app?vid=15c6f95a-b983-4283-9be7-875f500d7490"},"vehicle_type_id":"4","last_reported":1773743980,"current_range_meters":5600,"station_id":"ce4bhgp2rcd13ifvqfe0","pricing_plan_id":"cebpf4jnsgd1na2vs0mg"},{"bike_id":"04ded61b-4df6-4cf9-a244-145e54ca2cfd","system_id":"levelo_inurba_marseille","lat":43.27212,"lon":5.39191,"is_reserved":false,"is_disabled":false,"rental_uris":{"android":"levelo://app?vid=04ded61b-4df6-4cf9-a244-145e54ca2cfd","ios":"levelo://app?vid=04ded61b-4df6-4cf9-a244-145e54ca2cfd"},"vehicle_type_id":"4","last_reported":1773743980,"current_range_meters":5600,"station_id":"ce4bhhp2rcd13ifvqfm0","pricing_plan_id":"cebpf4jnsgd1na2vs0mg"},{"bike_id":"bf558c1c-6c3a-4c80-9304-a91c94006d40","system_id":"levelo_inurba_marseille","lat":43.2316,"lon":5.43715,"is_reserved":false,"is_disabled":false,"rental_uris":{"android":"levelo://app?vid=bf558c1c-6c3a-4c80-9304-a91c94006d40","ios":"levelo://app?vid=bf558c1c-6c3a-4c80-9304-a91c94006d40"},"vehicle_type_id":"4","last_reported":1773743980,"current_range_meters":5600,"station_id":"ce4bhmp2rcd13ifvqgog","pricing_plan_id":"cebpf4jnsgd1na2vs0mg"},{"bike_id":"4ca2074d-5be8-4f09-a2f9-0200664389f9","system_id":"levelo_inurba_marseille","lat":43.30733,"lon":5.42437,"is_reserved":false,"is_disabled":false,"rental_uris":{"android":"levelo://app?vid=4ca2074d-5be8-4f09-a2f9-0200664389f9","ios":"levelo://app?vid=4ca2074d-5be8-4f09-a2f9-0200664389f9"},"vehicle_type_id":"4","last_reported":1773743980,"current_range_meters":5600,"station_id":"st_cvj6ca6bvosntc0bfgr0","pricing_plan_id":"cebpf4jnsgd1na2vs0mg"},{"bike_id":"7fbc82da-1717-40f5-8e22-a284df5edd5a","system_id":"levelo_inurba_marseille","lat":43.24649,"lon":5.43157,"is_reserved":false,"is_disabled":false,"rental_uris":{"android":"levelo://app?vid=7fbc82da-1717-40f5-8e22-a284df5edd5a","ios":"levelo://app?vid=7fbc82da-1717-40f5-8e22-a284df5edd5a"},"vehicle_type_id":"4","last_reported":1773743980,"current_range_meters":5600,"station_id":"","pricing_plan_id":"cebpf4jnsgd1na2vs0mg"},{"bike_id":"fcc16676-bdcc-453d-943e-a6082336e83f","system_id":"levelo_inurba_marseille","lat":43.29865,"lon":5.44003,"is_reserved":false,"is_disabled":false,"rental_uris":{"android":"levelo://app?vid=fcc16676-bdcc-453d-943e-a6082336e83f","ios":"levelo://app?vid=fcc16676-bdcc-453d-943e-a6082336e83f"},"vehicle_type_id":"4","last_reported":1773743980,"current_range_meters":6000,"station_id":"st_d3jp68qikq2c7381ktn0","pricing_plan_id":"cebpf4jnsgd1na2vs0mg"},{"bike_id":"b5a6141d-ba50-4acc-8bdc-bdaeedf60276","system_id":"levelo_inurba_marseille","lat":43.29572,"lon":5.37501,"is_reserved":false,"is_disabled":true,"rental_uris":{"android":"levelo://app?vid=b5a6141d-ba50-4acc-8bdc-bdaeedf60276","ios":"levelo://app?vid=b5a6141d-ba50-4acc-8bdc-bdaeedf60276"},"vehicle_type_id":"4","last_reported":1773743980,"current_range_meters":6000,"station_id":"ce4bgh92rcd13ifvqb50","pricing_plan_id":"cebpf4jnsgd1na2vs0mg"},{"bike_id":"4c3d3553-54d0-46a3-acda-d420768e23c3","system_id":"levelo_inurba_marseille","lat":43.27371,"lon":5.36232,"is_reserved":false,"is_disabled":false,"rental_uris":{"android":"levelo://app?vid=4c3d3553-54d0-46a3-acda-d420768e23c3","ios":"levelo://app?vid=4c3d3553-54d0-46a3-acda-d420768e23c3"},"vehicle_type_id":"4","last_reported":1773743980,"current_range_meters":6000,"station_id":"ce4bhbh2rcd13ifvqeo0","pricing_plan_id":"cebpf4jnsgd1na2vs0mg"},{"bike_id":"69d2e5d2-aab9-4fc9-a42e-b520c7e8b4f1","system_id":"levelo_inurba_marseille","lat":43.23055,"lon":5.35499,"is_reserved":false,"is_disabled":false,"rental_uris":{"android":"levelo://app?vid=69d2e5d2-aab9-4fc9-a42e-b520c7e8b4f1","ios":"levelo://app?vid=69d2e5d2-aab9-4fc9-a42e-b520c7e8b4f1"},"vehicle_type_id":"4","last_reported":1773743980,"current_range_meters":6000,"station_id":"cpo3342slgdg3j2ifvpg","pricing_plan_id":"cebpf4jnsgd1na2vs0mg"},{"bike_id":"54e1430e-f603-4f12-94e1-97898e39d9f4","system_id":"levelo_inurba_marseille","lat":43.31043,"lon":5.37161,"is_reserved":false,"is_disabled":false,"rental_uris":{"android":"levelo://app?vid=54e1430e-f603-4f12-94e1-97898e39d9f4","ios":"levelo://app?vid=54e1430e-f603-4f12-94e1-97898e39d9f4"},"vehicle_type_id":"4","last_reported":1773743980,"current_range_meters":6000,"station_id":"st_d4kl2rp97mjs73e7tdfg","pricing_plan_id":"cebpf4jnsgd1na2vs0mg"},{"bike_id":"41807876-7928-4082-bc41-5962e2059cd2","system_id":"levelo_inurba_marseille","lat":43.28625,"lon":5.35104,"is_reserved":false,"is_disabled":false,"rental_uris":{"android":"levelo://app?vid=41807876-7928-4082-bc41-5962e2059cd2","ios":"levelo://app?vid=41807876-7928-4082-bc41-5962e2059cd2"},"vehicle_type_id":"4","last_reported":1773743980,"current_range_meters":6000,"station_id":"ce4bhch2rcd13ifvqeug","pricing_plan_id":"cebpf4jnsgd1na2vs0mg"},{"bike_id":"55ad6576-3c79-4a6b-881b-323a7e8b70a1","system_id":"levelo_inurba_marseille","lat":43.25001,"lon":5.38943,"is_reserved":false,"is_disabled":false,"rental_uris":{"android":"levelo://app?vid=55ad6576-3c79-4a6b-881b-323a7e8b70a1","ios":"levelo://app?vid=55ad6576-3c79-4a6b-881b-323a7e8b70a1"},"vehicle_type_id":"4","last_reported":1773743980,"current_range_meters":6400,"station_id":"ce4bhgp2rcd13ifvqfd0","pricing_plan_id":"cebpf4jnsgd1na2vs0mg"},{"bike_id":"1c80d65f-5a5b-4286-b809-cfa0b084b10b","system_id":"levelo_inurba_marseille","lat":43.25932,"lon":5.40908,"is_reserved":false,"is_disabled":false,"rental_uris":{"android":"levelo://app?vid=1c80d65f-5a5b-4286-b809-cfa0b084b10b","ios":"levelo://app?vid=1c80d65f-5a5b-4286-b809-cfa0b084b10b"},"vehicle_type_id":"4","last_reported":1773743980,"current_range_meters":6400,"station_id":"ce4bhm92rcd13ifvqglg","pricing_plan_id":"cebpf4jnsgd1na2vs0mg"},{"bike_id":"88858f89-fe21-45f8-acbb-9ce67472ddb3","system_id":"levelo_inurba_marseille","lat":43.2293,"lon":5.35378,"is_reserved":false,"is_disabled":false,"rental_uris":{"android":"levelo://app?vid=88858f89-fe21-45f8-acbb-9ce67472ddb3","ios":"levelo://app?vid=88858f89-fe21-45f8-acbb-9ce67472ddb3"},"vehicle_type_id":"4","last_reported":1773743980,"current_range_meters":6400,"station_id":"cpo3532slgdg3j2ikp40","pricing_plan_id":"cebpf4jnsgd1na2vs0mg"},{"bike_id":"b3e3399c-3837-42b8-afac-39674642005e","system_id":"levelo_inurba_marseille","lat":43.29825,"lon":5.42726,"is_reserved":false,"is_disabled":false,"rental_uris":{"android":"levelo://app?vid=b3e3399c-3837-42b8-afac-39674642005e","ios":"levelo://app?vid=b3e3399c-3837-42b8-afac-39674642005e"},"vehicle_type_id":"4","last_reported":1773743980,"current_range_meters":6400,"station_id":"","pricing_plan_id":"cebpf4jnsgd1na2vs0mg"},{"bike_id":"99b3399f-a7f1-46ba-9d8d-17a6644bc2b4","system_id":"levelo_inurba_marseille","lat":43.21739,"lon":5.34597,"is_reserved":false,"is_disabled":false,"rental_uris":{"android":"levelo://app?vid=99b3399f-a7f1-46ba-9d8d-17a6644bc2b4","ios":"levelo://app?vid=99b3399f-a7f1-46ba-9d8d-17a6644bc2b4"},"vehicle_type_id":"4","last_reported":1773743980,"current_range_meters":6400,"station_id":"st_cvj6r9ubvosntc0bgbag","pricing_plan_id":"cebpf4jnsgd1na2vs0mg"},{"bike_id":"5546bd0f-7ced-4964-ba48-a430fa2adf47","system_id":"levelo_inurba_marseille","lat":43.21756,"lon":5.34626,"is_reserved":false,"is_disabled":false,"rental_uris":{"android":"levelo://app?vid=5546bd0f-7ced-4964-ba48-a430fa2adf47","ios":"levelo://app?vid=5546bd0f-7ced-4964-ba48-a430fa2adf47"},"vehicle_type_id":"4","last_reported":1773743980,"current_range_meters":6800,"station_id":"st_cvj6r9ubvosntc0bgbag","pricing_plan_id":"cebpf4jnsgd1na2vs0mg"},{"bike_id":"feaf2e83-6bc7-46d3-b8dc-e52b9fc8cf3e","system_id":"levelo_inurba_marseille","lat":43.2257,"lon":5.41624,"is_reserved":false,"is_disabled":false,"rental_uris":{"android":"levelo://app?vid=feaf2e83-6bc7-46d3-b8dc-e52b9fc8cf3e","ios":"levelo://app?vid=feaf2e83-6bc7-46d3-b8dc-e52b9fc8cf3e"},"vehicle_type_id":"4","last_reported":1773743980,"current_range_meters":6800,"station_id":"st_d2o4gvlbi1j2169b742g","pricing_plan_id":"cebpf4jnsgd1na2vs0mg"},{"bike_id":"08889860-c3d9-415f-ada2-b4f20b226c04","system_id":"levelo_inurba_marseille","lat":43.27334,"lon":5.39095,"is_reserved":false,"is_disabled":false,"rental_uris":{"android":"levelo://app?vid=08889860-c3d9-415f-ada2-b4f20b226c04","ios":"levelo://app?vid=08889860-c3d9-415f-ada2-b4f20b226c04"},"vehicle_type_id":"4","last_reported":1773743980,"current_range_meters":6800,"station_id":"ce4bhgp2rcd13ifvqfe0","pricing_plan_id":"cebpf4jnsgd1na2vs0mg"},{"bike_id":"a8dc046f-990c-49a1-9464-672c405d7beb","system_id":"levelo_inurba_marseille","lat":43.30559,"lon":5.36542,"is_reserved":false,"is_disabled":false,"rental_uris":{"android":"levelo://app?vid=a8dc046f-990c-49a1-9464-672c405d7beb","ios":"levelo://app?vid=a8dc046f-990c-49a1-9464-672c405d7beb"},"vehicle_type_id":"4","last_reported":1773743980,"current_range_meters":6800,"station_id":"ce4bgs12rcd13ifvqcag","pricing_plan_id":"cebpf4jnsgd1na2vs0mg"},{"bike_id":"c0ddb57f-e5f5-4ce0-b6c4-75fd2010b9ba","system_id":"levelo_inurba_marseille","lat":43.27471,"lon":5.41663,"is_reserved":false,"is_disabled":false,"rental_uris":{"android":"levelo://app?vid=c0ddb57f-e5f5-4ce0-b6c4-75fd2010b9ba","ios":"levelo://app?vid=c0ddb57f-e5f5-4ce0-b6c4-75fd2010b9ba"},"vehicle_type_id":"4","last_reported":1773743980,"current_range_meters":6800,"station_id":"st_d6im8g6chgec73a5pndg","pricing_plan_id":"cebpf4jnsgd1na2vs0mg"},{"bike_id":"37968066-0b78-49a9-89f8-964d9774907e","system_id":"levelo_inurba_marseille","lat":43.26535,"lon":5.37296,"is_reserved":false,"is_disabled":false,"rental_uris":{"android":"levelo://app?vid=37968066-0b78-49a9-89f8-964d9774907e","ios":"levelo://app?vid=37968066-0b78-49a9-89f8-964d9774907e"},"vehicle_type_id":"4","last_reported":1773743980,"current_range_meters":6800,"station_id":"ce4bhg12rcd13ifvqf70","pricing_plan_id":"cebpf4jnsgd1na2vs0mg"},{"bike_id":"fce74411-25ed-4a93-bb6a-e1365aa727bf","system_id":"levelo_inurba_marseille","lat":43.32492,"lon":5.36552,"is_reserved":false,"is_disabled":false,"rental_uris":{"android":"levelo://app?vid=fce74411-25ed-4a93-bb6a-e1365aa727bf","ios":"levelo://app?vid=fce74411-25ed-4a93-bb6a-e1365aa727bf"},"vehicle_type_id":"4","last_reported":1773743980,"current_range_meters":6800,"station_id":"ce4bhs12rcd13ifvqhvg","pricing_plan_id":"cebpf4jnsgd1na2vs0mg"},{"bike_id":"7c219ccd-6e10-4e9e-8603-48a3c030d1ec","system_id":"levelo_inurba_marseille","lat":43.23157,"lon":5.43706,"is_reserved":false,"is_disabled":false,"rental_uris":{"android":"levelo://app?vid=7c219ccd-6e10-4e9e-8603-48a3c030d1ec","ios":"levelo://app?vid=7c219ccd-6e10-4e9e-8603-48a3c030d1ec"},"vehicle_type_id":"4","last_reported":1773743980,"current_range_meters":6800,"station_id":"ce4bhmp2rcd13ifvqgog","pricing_plan_id":"cebpf4jnsgd1na2vs0mg"},{"bike_id":"4edc1e69-f919-4c2f-a6b8-66257e87a54f","system_id":"levelo_inurba_marseille","lat":43.28494,"lon":5.48382,"is_reserved":false,"is_disabled":false,"rental_uris":{"android":"levelo://app?vid=4edc1e69-f919-4c2f-a6b8-66257e87a54f","ios":"levelo://app?vid=4edc1e69-f919-4c2f-a6b8-66257e87a54f"},"vehicle_type_id":"4","last_reported":1773743980,"current_range_meters":6800,"station_id":"","pricing_plan_id":"cebpf4jnsgd1na2vs0mg"},{"bike_id":"e2e30a9f-c391-4f7f-a537-0960123dfc91","system_id":"levelo_inurba_marseille","lat":43.2376,"lon":5.36624,"is_reserved":false,"is_disabled":false,"rental_uris":{"android":"levelo://app?vid=e2e30a9f-c391-4f7f-a537-0960123dfc91","ios":"levelo://app?vid=e2e30a9f-c391-4f7f-a537-0960123dfc91"},"vehicle_type_id":"4","last_reported":1773743980,"current_range_meters":6800,"station_id":"st_d3nk18o9ro0c73en2l3g","pricing_plan_id":"cebpf4jnsgd1na2vs0mg"},{"bike_id":"e4b515b3-5a64-4f24-8a63-3407e3500a15","system_id":"levelo_inurba_marseille","lat":43.24324,"lon":5.40225,"is_reserved":false,"is_disabled":false,"rental_uris":{"android":"levelo://app?vid=e4b515b3-5a64-4f24-8a63-3407e3500a15","ios":"levelo://app?vid=e4b515b3-5a64-4f24-8a63-3407e3500a15"},"vehicle_type_id":"4","last_reported":1773743980,"current_range_meters":6800,"station_id":"","pricing_plan_id":"cebpf4jnsgd1na2vs0mg"},{"bike_id":"8ef6f302-50c3-4ed6-bcfe-0ffe84e10b9a","system_id":"levelo_inurba_marseille","lat":43.2708,"lon":5.42282,"is_reserved":false,"is_disabled":false,"rental_uris":{"android":"levelo://app?vid=8ef6f302-50c3-4ed6-bcfe-0ffe84e10b9a","ios":"levelo://app?vid=8ef6f302-50c3-4ed6-bcfe-0ffe84e10b9a"},"vehicle_type_id":"4","last_reported":1773743980,"current_range_meters":6800,"station_id":"ce4bhk92rcd13ifvqgb0","pricing_plan_id":"cebpf4jnsgd1na2vs0mg"},{"bike_id":"03812eec-b185-465c-8c48-7984e651c3d0","system_id":"levelo_inurba_marseille","lat":43.33034,"lon":5.39033,"is_reserved":false,"is_disabled":false,"rental_uris":{"android":"levelo://app?vid=03812eec-b185-465c-8c48-7984e651c3d0","ios":"levelo://app?vid=03812eec-b185-465c-8c48-7984e651c3d0"},"vehicle_type_id":"4","last_reported":1773743980,"current_range_meters":7200,"station_id":"ce4bhr92rcd13ifvqhrg","pricing_plan_id":"cebpf4jnsgd1na2vs0mg"},{"bike_id":"57f59ea7-9661-484b-ab62-8930e39b76a3","system_id":"levelo_inurba_marseille","lat":43.23785,"lon":5.36627,"is_reserved":false,"is_disabled":false,"rental_uris":{"android":"levelo://app?vid=57f59ea7-9661-484b-ab62-8930e39b76a3","ios":"levelo://app?vid=57f59ea7-9661-484b-ab62-8930e39b76a3"},"vehicle_type_id":"4","last_reported":1773743980,"current_range_meters":7200,"station_id":"st_d3nk18o9ro0c73en2l3g","pricing_plan_id":"cebpf4jnsgd1na2vs0mg"},{"bike_id":"9ffcd30b-650f-4436-9b49-3da9737f924f","system_id":"levelo_inurba_marseille","lat":43.31046,"lon":5.3718,"is_reserved":false,"is_disabled":false,"rental_uris":{"android":"levelo://app?vid=9ffcd30b-650f-4436-9b49-3da9737f924f","ios":"levelo://app?vid=9ffcd30b-650f-4436-9b49-3da9737f924f"},"vehicle_type_id":"4","last_reported":1773743980,"current_range_meters":7200,"station_id":"st_d4kl2rp97mjs73e7tdfg","pricing_plan_id":"cebpf4jnsgd1na2vs0mg"},{"bike_id":"c84865df-58a0-485a-b466-02fb26eb4ff0","system_id":"levelo_inurba_marseille","lat":43.232034,"lon":5.355366,"is_reserved":false,"is_disabled":false,"rental_uris":{"android":"levelo://app?vid=c84865df-58a0-485a-b466-02fb26eb4ff0","ios":"levelo://app?vid=c84865df-58a0-485a-b466-02fb26eb4ff0"},"vehicle_type_id":"4","last_reported":1773743980,"current_range_meters":7200,"station_id":"ce4bhu92rcd13ifvqi70","pricing_plan_id":"cebpf4jnsgd1na2vs0mg"},{"bike_id":"6f83eb31-b48e-41cc-86f8-dc0cead3d767","system_id":"levelo_inurba_marseille","lat":43.21192,"lon":5.35072,"is_reserved":false,"is_disabled":false,"rental_uris":{"android":"levelo://app?vid=6f83eb31-b48e-41cc-86f8-dc0cead3d767","ios":"levelo://app?vid=6f83eb31-b48e-41cc-86f8-dc0cead3d767"},"vehicle_type_id":"4","last_reported":1773743980,"current_range_meters":7200,"station_id":"st_cvj6sg6p6f1abm77japg","pricing_plan_id":"cebpf4jnsgd1na2vs0mg"},{"bike_id":"9b44eabc-9473-4aeb-8589-934e8f4a2c0e","system_id":"levelo_inurba_marseille","lat":43.22939,"lon":5.35386,"is_reserved":false,"is_disabled":false,"rental_uris":{"android":"levelo://app?vid=9b44eabc-9473-4aeb-8589-934e8f4a2c0e","ios":"levelo://app?vid=9b44eabc-9473-4aeb-8589-934e8f4a2c0e"},"vehicle_type_id":"4","last_reported":1773743980,"current_range_meters":7200,"station_id":"cpo3532slgdg3j2ikp40","pricing_plan_id":"cebpf4jnsgd1na2vs0mg"},{"bike_id":"3dad20a7-e396-4101-adc6-30f4c7f64d56","system_id":"levelo_inurba_marseille","lat":43.24997,"lon":5.38939,"is_reserved":false,"is_disabled":false,"rental_uris":{"android":"levelo://app?vid=3dad20a7-e396-4101-adc6-30f4c7f64d56","ios":"levelo://app?vid=3dad20a7-e396-4101-adc6-30f4c7f64d56"},"vehicle_type_id":"4","last_reported":1773743980,"current_range_meters":7200,"station_id":"ce4bhgp2rcd13ifvqfd0","pricing_plan_id":"cebpf4jnsgd1na2vs0mg"},{"bike_id":"5659f69c-387b-47b8-a86b-d39ca9361635","system_id":"levelo_inurba_marseille","lat":43.26229,"lon":5.40455,"is_reserved":false,"is_disabled":false,"rental_uris":{"android":"levelo://app?vid=5659f69c-387b-47b8-a86b-d39ca9361635","ios":"levelo://app?vid=5659f69c-387b-47b8-a86b-d39ca9361635"},"vehicle_type_id":"4","last_reported":1773743980,"current_range_meters":7200,"station_id":"ce4bhmh2rcd13ifvqgmg","pricing_plan_id":"cebpf4jnsgd1na2vs0mg"},{"bike_id":"a650f10d-9ab2-42e1-a1ec-b23d66310508","system_id":"levelo_inurba_marseille","lat":43.27348,"lon":5.42378,"is_reserved":false,"is_disabled":true,"rental_uris":{"android":"levelo://app?vid=a650f10d-9ab2-42e1-a1ec-b23d66310508","ios":"levelo://app?vid=a650f10d-9ab2-42e1-a1ec-b23d66310508"},"vehicle_type_id":"4","last_reported":1773743980,"current_range_meters":7200,"station_id":"","pricing_plan_id":"cebpf4jnsgd1na2vs0mg"},{"bike_id":"d6f4fcc9-529e-44c9-8ab1-66a46ec0a2d7","system_id":"levelo_inurba_marseille","lat":43.29658,"lon":5.37461,"is_reserved":false,"is_disabled":false,"rental_uris":{"android":"levelo://app?vid=d6f4fcc9-529e-44c9-8ab1-66a46ec0a2d7","ios":"levelo://app?vid=d6f4fcc9-529e-44c9-8ab1-66a46ec0a2d7"},"vehicle_type_id":"4","last_reported":1773743980,"current_range_meters":7200,"station_id":"","pricing_plan_id":"cebpf4jnsgd1na2vs0mg"},{"bike_id":"69f9e7d0-9e6e-48d9-8402-311a294217e6","system_id":"levelo_inurba_marseille","lat":43.29376,"lon":5.37852,"is_reserved":false,"is_disabled":true,"rental_uris":{"android":"levelo://app?vid=69f9e7d0-9e6e-48d9-8402-311a294217e6","ios":"levelo://app?vid=69f9e7d0-9e6e-48d9-8402-311a294217e6"},"vehicle_type_id":"4","last_reported":1773743980,"current_range_meters":7200,"station_id":"ce4bgjh2rcd13ifvqbf0","pricing_plan_id":"cebpf4jnsgd1na2vs0mg"},{"bike_id":"75056a4b-7dce-4842-b5f6-e3da4f22a752","system_id":"levelo_inurba_marseille","lat":43.21736,"lon":5.34616,"is_reserved":false,"is_disabled":false,"rental_uris":{"android":"levelo://app?vid=75056a4b-7dce-4842-b5f6-e3da4f22a752","ios":"levelo://app?vid=75056a4b-7dce-4842-b5f6-e3da4f22a752"},"vehicle_type_id":"4","last_reported":1773743980,"current_range_meters":7200,"station_id":"st_cvj6r9ubvosntc0bgbag","pricing_plan_id":"cebpf4jnsgd1na2vs0mg"},{"bike_id":"3a2c16fa-f087-430f-a626-5009aeb4e722","system_id":"levelo_inurba_marseille","lat":43.27492,"lon":5.41609,"is_reserved":false,"is_disabled":true,"rental_uris":{"android":"levelo://app?vid=3a2c16fa-f087-430f-a626-5009aeb4e722","ios":"levelo://app?vid=3a2c16fa-f087-430f-a626-5009aeb4e722"},"vehicle_type_id":"4","last_reported":1773743980,"current_range_meters":7200,"station_id":"st_d6im8g6chgec73a5pndg","pricing_plan_id":"cebpf4jnsgd1na2vs0mg"},{"bike_id":"7d5b3664-02ce-4451-b3f2-afda1ab3ce3d","system_id":"levelo_inurba_marseille","lat":43.33556,"lon":5.37459,"is_reserved":false,"is_disabled":false,"rental_uris":{"android":"levelo://app?vid=7d5b3664-02ce-4451-b3f2-afda1ab3ce3d","ios":"levelo://app?vid=7d5b3664-02ce-4451-b3f2-afda1ab3ce3d"},"vehicle_type_id":"4","last_reported":1773743980,"current_range_meters":7200,"station_id":"st_d46tts09ee8s73dlu43g","pricing_plan_id":"cebpf4jnsgd1na2vs0mg"},{"bike_id":"c1905719-37f2-4f4d-b2fd-028519e9516a","system_id":"levelo_inurba_marseille","lat":43.29006,"lon":5.35608,"is_reserved":false,"is_disabled":false,"rental_uris":{"android":"levelo://app?vid=c1905719-37f2-4f4d-b2fd-028519e9516a","ios":"levelo://app?vid=c1905719-37f2-4f4d-b2fd-028519e9516a"},"vehicle_type_id":"4","last_reported":1773743980,"current_range_meters":7200,"station_id":"ce4bhb92rcd13ifvqen0","pricing_plan_id":"cebpf4jnsgd1na2vs0mg"},{"bike_id":"70fdc065-93d6-4dd2-977b-71ec2a296371","system_id":"levelo_inurba_marseille","lat":43.21741,"lon":5.34618,"is_reserved":false,"is_disabled":false,"rental_uris":{"android":"levelo://app?vid=70fdc065-93d6-4dd2-977b-71ec2a296371","ios":"levelo://app?vid=70fdc065-93d6-4dd2-977b-71ec2a296371"},"vehicle_type_id":"4","last_reported":1773743980,"current_range_meters":8000,"station_id":"st_cvj6r9ubvosntc0bgbag","pricing_plan_id":"cebpf4jnsgd1na2vs0mg"},{"bike_id":"f6c860f4-9c2e-4a13-b509-50fb1709859b","system_id":"levelo_inurba_marseille","lat":43.21192,"lon":5.35073,"is_reserved":false,"is_disabled":false,"rental_uris":{"android":"levelo://app?vid=f6c860f4-9c2e-4a13-b509-50fb1709859b","ios":"levelo://app?vid=f6c860f4-9c2e-4a13-b509-50fb1709859b"},"vehicle_type_id":"4","last_reported":1773743980,"current_range_meters":8000,"station_id":"st_cvj6sg6p6f1abm77japg","pricing_plan_id":"cebpf4jnsgd1na2vs0mg"},{"bike_id":"86f3c3e6-1877-45e4-95fe-47aa36990f39","system_id":"levelo_inurba_marseille","lat":43.31049,"lon":5.37166,"is_reserved":false,"is_disabled":false,"rental_uris":{"android":"levelo://app?vid=86f3c3e6-1877-45e4-95fe-47aa36990f39","ios":"levelo://app?vid=86f3c3e6-1877-45e4-95fe-47aa36990f39"},"vehicle_type_id":"4","last_reported":1773743980,"current_range_meters":8000,"station_id":"st_d4kl2rp97mjs73e7tdfg","pricing_plan_id":"cebpf4jnsgd1na2vs0mg"},{"bike_id":"4eeecf6d-6108-42a0-b77f-fc0c0b55b73c","system_id":"levelo_inurba_marseille","lat":43.299,"lon":5.37443,"is_reserved":false,"is_disabled":true,"rental_uris":{"android":"levelo://app?vid=4eeecf6d-6108-42a0-b77f-fc0c0b55b73c","ios":"levelo://app?vid=4eeecf6d-6108-42a0-b77f-fc0c0b55b73c"},"vehicle_type_id":"4","last_reported":1773743980,"current_range_meters":8000,"station_id":"ce4bgjh2rcd13ifvqbg0","pricing_plan_id":"cebpf4jnsgd1na2vs0mg"},{"bike_id":"b5b8b144-cfaf-4287-9933-5469d18ff1ca","system_id":"levelo_inurba_marseille","lat":43.28714,"lon":5.37923,"is_reserved":false,"is_disabled":true,"rental_uris":{"android":"levelo://app?vid=b5b8b144-cfaf-4287-9933-5469d18ff1ca","ios":"levelo://app?vid=b5b8b144-cfaf-4287-9933-5469d18ff1ca"},"vehicle_type_id":"4","last_reported":1773743980,"current_range_meters":8000,"station_id":"ce4bh9p2rcd13ifvqec0","pricing_plan_id":"cebpf4jnsgd1na2vs0mg"},{"bike_id":"b21e3be4-c7ed-41ef-8b12-6d82d73722e2","system_id":"levelo_inurba_marseille","lat":43.24807,"lon":5.37489,"is_reserved":false,"is_disabled":false,"rental_uris":{"android":"levelo://app?vid=b21e3be4-c7ed-41ef-8b12-6d82d73722e2","ios":"levelo://app?vid=b21e3be4-c7ed-41ef-8b12-6d82d73722e2"},"vehicle_type_id":"4","last_reported":1773743980,"current_range_meters":8000,"station_id":"ce4bhgh2rcd13ifvqfb0","pricing_plan_id":"cebpf4jnsgd1na2vs0mg"},{"bike_id":"53336338-5141-44ec-bb59-6df2460b79a8","system_id":"levelo_inurba_marseille","lat":43.30208,"lon":5.39458,"is_reserved":false,"is_disabled":true,"rental_uris":{"android":"levelo://app?vid=53336338-5141-44ec-bb59-6df2460b79a8","ios":"levelo://app?vid=53336338-5141-44ec-bb59-6df2460b79a8"},"vehicle_type_id":"4","last_reported":1773743980,"current_range_meters":8000,"station_id":"ce4bh0p2rcd13ifvqd70","pricing_plan_id":"cebpf4jnsgd1na2vs0mg"},{"bike_id":"94cc2d3f-4d25-4f4c-851a-fdc8f513cd52","system_id":"levelo_inurba_marseille","lat":43.24074,"lon":5.37776,"is_reserved":false,"is_disabled":false,"rental_uris":{"android":"levelo://app?vid=94cc2d3f-4d25-4f4c-851a-fdc8f513cd52","ios":"levelo://app?vid=94cc2d3f-4d25-4f4c-851a-fdc8f513cd52"},"vehicle_type_id":"4","last_reported":1773743980,"current_range_meters":8000,"station_id":"ce4bhnp2rcd13ifvqgvg","pricing_plan_id":"cebpf4jnsgd1na2vs0mg"},{"bike_id":"fea3358b-abc0-4f17-856a-4131c4d369d6","system_id":"levelo_inurba_marseille","lat":43.26224,"lon":5.40455,"is_reserved":false,"is_disabled":false,"rental_uris":{"android":"levelo://app?vid=fea3358b-abc0-4f17-856a-4131c4d369d6","ios":"levelo://app?vid=fea3358b-abc0-4f17-856a-4131c4d369d6"},"vehicle_type_id":"4","last_reported":1773743980,"current_range_meters":8000,"station_id":"ce4bhmh2rcd13ifvqgmg","pricing_plan_id":"cebpf4jnsgd1na2vs0mg"},{"bike_id":"be47a9f2-05c1-4195-9b42-dbba1a529d20","system_id":"levelo_inurba_marseille","lat":43.2666,"lon":5.38283,"is_reserved":false,"is_disabled":false,"rental_uris":{"android":"levelo://app?vid=be47a9f2-05c1-4195-9b42-dbba1a529d20","ios":"levelo://app?vid=be47a9f2-05c1-4195-9b42-dbba1a529d20"},"vehicle_type_id":"4","last_reported":1773743980,"current_range_meters":8000,"station_id":"ce4bhg92rcd13ifvqf90","pricing_plan_id":"cebpf4jnsgd1na2vs0mg"},{"bike_id":"99ba46b4-4c6f-44d5-9c27-ad82efd84c9b","system_id":"levelo_inurba_marseille","lat":43.2119,"lon":5.3506,"is_reserved":false,"is_disabled":false,"rental_uris":{"android":"levelo://app?vid=99ba46b4-4c6f-44d5-9c27-ad82efd84c9b","ios":"levelo://app?vid=99ba46b4-4c6f-44d5-9c27-ad82efd84c9b"},"vehicle_type_id":"4","last_reported":1773743980,"current_range_meters":8000,"station_id":"st_cvj6sg6p6f1abm77japg","pricing_plan_id":"cebpf4jnsgd1na2vs0mg"},{"bike_id":"1f5bfe55-41d9-43f3-a84f-b130fbed01d6","system_id":"levelo_inurba_marseille","lat":43.21191,"lon":5.35064,"is_reserved":false,"is_disabled":false,"rental_uris":{"android":"levelo://app?vid=1f5bfe55-41d9-43f3-a84f-b130fbed01d6","ios":"levelo://app?vid=1f5bfe55-41d9-43f3-a84f-b130fbed01d6"},"vehicle_type_id":"4","last_reported":1773743980,"current_range_meters":8000,"station_id":"st_cvj6sg6p6f1abm77japg","pricing_plan_id":"cebpf4jnsgd1na2vs0mg"},{"bike_id":"947e1acd-8816-4ff5-9c35-e02eb3948228","system_id":"levelo_inurba_marseille","lat":43.29888,"lon":5.43629,"is_reserved":false,"is_disabled":false,"rental_uris":{"android":"levelo://app?vid=947e1acd-8816-4ff5-9c35-e02eb3948228","ios":"levelo://app?vid=947e1acd-8816-4ff5-9c35-e02eb3948228"},"vehicle_type_id":"4","last_reported":1773743980,"current_range_meters":8000,"station_id":"ce4bhpp2rcd13ifvqhfg","pricing_plan_id":"cebpf4jnsgd1na2vs0mg"},{"bike_id":"5cbb218e-fedd-4937-b186-707dd986712f","system_id":"levelo_inurba_marseille","lat":43.25347,"lon":5.42165,"is_reserved":false,"is_disabled":false,"rental_uris":{"android":"levelo://app?vid=5cbb218e-fedd-4937-b186-707dd986712f","ios":"levelo://app?vid=5cbb218e-fedd-4937-b186-707dd986712f"},"vehicle_type_id":"4","last_reported":1773743980,"current_range_meters":8000,"station_id":"st_d2m65c5bi1j21697t3ng","pricing_plan_id":"cebpf4jnsgd1na2vs0mg"},{"bike_id":"36bcefea-1744-478b-a4f4-a282d99e8251","system_id":"levelo_inurba_marseille","lat":43.24552,"lon":5.3953,"is_reserved":false,"is_disabled":true,"rental_uris":{"android":"levelo://app?vid=36bcefea-1744-478b-a4f4-a282d99e8251","ios":"levelo://app?vid=36bcefea-1744-478b-a4f4-a282d99e8251"},"vehicle_type_id":"4","last_reported":1773743980,"current_range_meters":8000,"station_id":"ce4bhlp2rcd13ifvqgjg","pricing_plan_id":"cebpf4jnsgd1na2vs0mg"},{"bike_id":"6c7da26a-6e3c-4915-81a4-435886bc144f","system_id":"levelo_inurba_marseille","lat":43.232,"lon":5.35553,"is_reserved":false,"is_disabled":false,"rental_uris":{"android":"levelo://app?vid=6c7da26a-6e3c-4915-81a4-435886bc144f","ios":"levelo://app?vid=6c7da26a-6e3c-4915-81a4-435886bc144f"},"vehicle_type_id":"4","last_reported":1773743980,"current_range_meters":8000,"station_id":"ce4bhu92rcd13ifvqi70","pricing_plan_id":"cebpf4jnsgd1na2vs0mg"},{"bike_id":"7133a18c-f340-4092-8367-a9ecf78230dc","system_id":"levelo_inurba_marseille","lat":43.2974,"lon":5.37668,"is_reserved":false,"is_disabled":false,"rental_uris":{"android":"levelo://app?vid=7133a18c-f340-4092-8367-a9ecf78230dc","ios":"levelo://app?vid=7133a18c-f340-4092-8367-a9ecf78230dc"},"vehicle_type_id":"4","last_reported":1773743980,"current_range_meters":8400,"station_id":"ce4bgkh2rcd13ifvqbl0","pricing_plan_id":"cebpf4jnsgd1na2vs0mg"},{"bike_id":"458f604b-e062-47bf-ac14-a001a31d10d8","system_id":"levelo_inurba_marseille","lat":43.28479,"lon":5.48392,"is_reserved":false,"is_disabled":false,"rental_uris":{"android":"levelo://app?vid=458f604b-e062-47bf-ac14-a001a31d10d8","ios":"levelo://app?vid=458f604b-e062-47bf-ac14-a001a31d10d8"},"vehicle_type_id":"4","last_reported":1773743980,"current_range_meters":8400,"station_id":"","pricing_plan_id":"cebpf4jnsgd1na2vs0mg"},{"bike_id":"708d658e-489b-49c8-bc4b-3585f2bda206","system_id":"levelo_inurba_marseille","lat":43.2894,"lon":5.39618,"is_reserved":false,"is_disabled":false,"rental_uris":{"android":"levelo://app?vid=708d658e-489b-49c8-bc4b-3585f2bda206","ios":"levelo://app?vid=708d658e-489b-49c8-bc4b-3585f2bda206"},"vehicle_type_id":"4","last_reported":1773743980,"current_range_meters":8400,"station_id":"ce4bh3h2rcd13ifvqdn0","pricing_plan_id":"cebpf4jnsgd1na2vs0mg"},{"bike_id":"a198b19a-147f-4fb3-822c-608a1d587cb8","system_id":"levelo_inurba_marseille","lat":43.21772,"lon":5.34566,"is_reserved":false,"is_disabled":false,"rental_uris":{"android":"levelo://app?vid=a198b19a-147f-4fb3-822c-608a1d587cb8","ios":"levelo://app?vid=a198b19a-147f-4fb3-822c-608a1d587cb8"},"vehicle_type_id":"4","last_reported":1773743980,"current_range_meters":8400,"station_id":"st_cvj6r9ubvosntc0bgbag","pricing_plan_id":"cebpf4jnsgd1na2vs0mg"},{"bike_id":"a172fb4c-0d89-4238-b899-c9d8e15b8540","system_id":"levelo_inurba_marseille","lat":43.21738,"lon":5.34577,"is_reserved":false,"is_disabled":false,"rental_uris":{"android":"levelo://app?vid=a172fb4c-0d89-4238-b899-c9d8e15b8540","ios":"levelo://app?vid=a172fb4c-0d89-4238-b899-c9d8e15b8540"},"vehicle_type_id":"4","last_reported":1773743980,"current_range_meters":8400,"station_id":"st_cvj6r9ubvosntc0bgbag","pricing_plan_id":"cebpf4jnsgd1na2vs0mg"},{"bike_id":"a18b068d-ee72-4ec9-8811-6eb4a904a5af","system_id":"levelo_inurba_marseille","lat":43.27379,"lon":5.36263,"is_reserved":false,"is_disabled":false,"rental_uris":{"android":"levelo://app?vid=a18b068d-ee72-4ec9-8811-6eb4a904a5af","ios":"levelo://app?vid=a18b068d-ee72-4ec9-8811-6eb4a904a5af"},"vehicle_type_id":"4","last_reported":1773743980,"current_range_meters":8400,"station_id":"ce4bhbh2rcd13ifvqeo0","pricing_plan_id":"cebpf4jnsgd1na2vs0mg"},{"bike_id":"f81f1665-a019-493b-9554-908b8a5debc4","system_id":"levelo_inurba_marseille","lat":43.30311,"lon":5.36898,"is_reserved":false,"is_disabled":false,"rental_uris":{"android":"levelo://app?vid=f81f1665-a019-493b-9554-908b8a5debc4","ios":"levelo://app?vid=f81f1665-a019-493b-9554-908b8a5debc4"},"vehicle_type_id":"4","last_reported":1773743980,"current_range_meters":8400,"station_id":"ce4bgqh2rcd13ifvqc5g","pricing_plan_id":"cebpf4jnsgd1na2vs0mg"},{"bike_id":"9985140f-fed1-4163-9957-5fc76200bd08","system_id":"levelo_inurba_marseille","lat":43.30159,"lon":5.38079,"is_reserved":false,"is_disabled":false,"rental_uris":{"android":"levelo://app?vid=9985140f-fed1-4163-9957-5fc76200bd08","ios":"levelo://app?vid=9985140f-fed1-4163-9957-5fc76200bd08"},"vehicle_type_id":"4","last_reported":1773743980,"current_range_meters":8400,"station_id":"ce4bgjp2rcd13ifvqbh0","pricing_plan_id":"cebpf4jnsgd1na2vs0mg"},{"bike_id":"fd55924b-6f26-4e97-8624-add7f9c19849","system_id":"levelo_inurba_marseille","lat":43.22938,"lon":5.35381,"is_reserved":false,"is_disabled":false,"rental_uris":{"android":"levelo://app?vid=fd55924b-6f26-4e97-8624-add7f9c19849","ios":"levelo://app?vid=fd55924b-6f26-4e97-8624-add7f9c19849"},"vehicle_type_id":"4","last_reported":1773743980,"current_range_meters":8400,"station_id":"cpo3532slgdg3j2ikp40","pricing_plan_id":"cebpf4jnsgd1na2vs0mg"},{"bike_id":"019469e2-77a8-4d0c-9467-93ec69d40b64","system_id":"levelo_inurba_marseille","lat":43.33601,"lon":5.40986,"is_reserved":false,"is_disabled":false,"rental_uris":{"android":"levelo://app?vid=019469e2-77a8-4d0c-9467-93ec69d40b64","ios":"levelo://app?vid=019469e2-77a8-4d0c-9467-93ec69d40b64"},"vehicle_type_id":"4","last_reported":1773743980,"current_range_meters":8400,"station_id":"ce4bhqh2rcd13ifvqhmg","pricing_plan_id":"cebpf4jnsgd1na2vs0mg"},{"bike_id":"b9ef10fd-0204-4e5f-bc92-673f50a6fcb4","system_id":"levelo_inurba_marseille","lat":43.21186,"lon":5.3507,"is_reserved":false,"is_disabled":false,"rental_uris":{"android":"levelo://app?vid=b9ef10fd-0204-4e5f-bc92-673f50a6fcb4","ios":"levelo://app?vid=b9ef10fd-0204-4e5f-bc92-673f50a6fcb4"},"vehicle_type_id":"4","last_reported":1773743980,"current_range_meters":8400,"station_id":"","pricing_plan_id":"cebpf4jnsgd1na2vs0mg"},{"bike_id":"79b4ca63-8f66-406b-afa0-4b593053abe9","system_id":"levelo_inurba_marseille","lat":43.27217,"lon":5.39181,"is_reserved":false,"is_disabled":false,"rental_uris":{"android":"levelo://app?vid=79b4ca63-8f66-406b-afa0-4b593053abe9","ios":"levelo://app?vid=79b4ca63-8f66-406b-afa0-4b593053abe9"},"vehicle_type_id":"4","last_reported":1773743980,"current_range_meters":8400,"station_id":"ce4bhhp2rcd13ifvqfm0","pricing_plan_id":"cebpf4jnsgd1na2vs0mg"},{"bike_id":"caf2acf5-e04b-4323-bdbb-72fd6015a9d1","system_id":"levelo_inurba_marseille","lat":43.25338,"lon":5.42172,"is_reserved":false,"is_disabled":false,"rental_uris":{"android":"levelo://app?vid=caf2acf5-e04b-4323-bdbb-72fd6015a9d1","ios":"levelo://app?vid=caf2acf5-e04b-4323-bdbb-72fd6015a9d1"},"vehicle_type_id":"4","last_reported":1773743980,"current_range_meters":8400,"station_id":"st_d2m65c5bi1j21697t3ng","pricing_plan_id":"cebpf4jnsgd1na2vs0mg"},{"bike_id":"fedd208b-765e-4da1-9fcc-65999b120e19","system_id":"levelo_inurba_marseille","lat":43.24387,"lon":5.37053,"is_reserved":false,"is_disabled":false,"rental_uris":{"android":"levelo://app?vid=fedd208b-765e-4da1-9fcc-65999b120e19","ios":"levelo://app?vid=fedd208b-765e-4da1-9fcc-65999b120e19"},"vehicle_type_id":"4","last_reported":1773743980,"current_range_meters":8400,"station_id":"ce4bhhh2rcd13ifvqfk0","pricing_plan_id":"cebpf4jnsgd1na2vs0mg"},{"bike_id":"c35776a3-1ecf-486f-b6de-0c7c3e2f2dd1","system_id":"levelo_inurba_marseille","lat":43.30722,"lon":5.4243,"is_reserved":false,"is_disabled":false,"rental_uris":{"android":"levelo://app?vid=c35776a3-1ecf-486f-b6de-0c7c3e2f2dd1","ios":"levelo://app?vid=c35776a3-1ecf-486f-b6de-0c7c3e2f2dd1"},"vehicle_type_id":"4","last_reported":1773743980,"current_range_meters":8400,"station_id":"st_cvj6ca6bvosntc0bfgr0","pricing_plan_id":"cebpf4jnsgd1na2vs0mg"},{"bike_id":"46ed3cc8-d11c-49a0-9c82-923c31a442de","system_id":"levelo_inurba_marseille","lat":43.28719,"lon":5.37388,"is_reserved":false,"is_disabled":false,"rental_uris":{"android":"levelo://app?vid=46ed3cc8-d11c-49a0-9c82-923c31a442de","ios":"levelo://app?vid=46ed3cc8-d11c-49a0-9c82-923c31a442de"},"vehicle_type_id":"4","last_reported":1773743980,"current_range_meters":8400,"station_id":"ce4bh3p2rcd13ifvqdq0","pricing_plan_id":"cebpf4jnsgd1na2vs0mg"},{"bike_id":"f740cb29-e33e-448a-8ce5-5886eb74e940","system_id":"levelo_inurba_marseille","lat":43.2622,"lon":5.37483,"is_reserved":false,"is_disabled":false,"rental_uris":{"android":"levelo://app?vid=f740cb29-e33e-448a-8ce5-5886eb74e940","ios":"levelo://app?vid=f740cb29-e33e-448a-8ce5-5886eb74e940"},"vehicle_type_id":"4","last_reported":1773743980,"current_range_meters":8400,"station_id":"","pricing_plan_id":"cebpf4jnsgd1na2vs0mg"},{"bike_id":"a2cdbaf8-da8c-4ca1-8f7a-3609363ed87c","system_id":"levelo_inurba_marseille","lat":43.3013,"lon":5.37422,"is_reserved":false,"is_disabled":false,"rental_uris":{"android":"levelo://app?vid=a2cdbaf8-da8c-4ca1-8f7a-3609363ed87c","ios":"levelo://app?vid=a2cdbaf8-da8c-4ca1-8f7a-3609363ed87c"},"vehicle_type_id":"4","last_reported":1773743980,"current_range_meters":8400,"station_id":"ce4bgs92rcd13ifvqcc0","pricing_plan_id":"cebpf4jnsgd1na2vs0mg"},{"bike_id":"5efbfe77-f336-4734-90ae-6b59653d3d20","system_id":"levelo_inurba_marseille","lat":43.26573,"lon":5.39013,"is_reserved":false,"is_disabled":true,"rental_uris":{"android":"levelo://app?vid=5efbfe77-f336-4734-90ae-6b59653d3d20","ios":"levelo://app?vid=5efbfe77-f336-4734-90ae-6b59653d3d20"},"vehicle_type_id":"4","last_reported":1773743980,"current_range_meters":8400,"station_id":"ce4bhe12rcd13ifvqf30","pricing_plan_id":"cebpf4jnsgd1na2vs0mg"},{"bike_id":"811cb60e-c2e0-4eff-a720-ab1d90d9f80a","system_id":"levelo_inurba_marseille","lat":43.23387,"lon":5.41211,"is_reserved":false,"is_disabled":false,"rental_uris":{"android":"levelo://app?vid=811cb60e-c2e0-4eff-a720-ab1d90d9f80a","ios":"levelo://app?vid=811cb60e-c2e0-4eff-a720-ab1d90d9f80a"},"vehicle_type_id":"4","last_reported":1773743980,"current_range_meters":8400,"station_id":"","pricing_plan_id":"cebpf4jnsgd1na2vs0mg"},{"bike_id":"c2c7c530-5d90-493e-bc68-4654d00e1dc7","system_id":"levelo_inurba_marseille","lat":43.25176,"lon":5.40619,"is_reserved":false,"is_disabled":false,"rental_uris":{"android":"levelo://app?vid=c2c7c530-5d90-493e-bc68-4654d00e1dc7","ios":"levelo://app?vid=c2c7c530-5d90-493e-bc68-4654d00e1dc7"},"vehicle_type_id":"4","last_reported":1773743980,"current_range_meters":8400,"station_id":"","pricing_plan_id":"cebpf4jnsgd1na2vs0mg"},{"bike_id":"dab15ef2-5b78-42d4-82bf-2a9f86d55d07","system_id":"levelo_inurba_marseille","lat":43.31222,"lon":5.36847,"is_reserved":false,"is_disabled":false,"rental_uris":{"android":"levelo://app?vid=dab15ef2-5b78-42d4-82bf-2a9f86d55d07","ios":"levelo://app?vid=dab15ef2-5b78-42d4-82bf-2a9f86d55d07"},"vehicle_type_id":"4","last_reported":1773743980,"current_range_meters":8800,"station_id":"ce4bgl92rcd13ifvqbq0","pricing_plan_id":"cebpf4jnsgd1na2vs0mg"},{"bike_id":"7ada2641-316b-4e07-8cf0-f1c79c755356","system_id":"levelo_inurba_marseille","lat":43.24952,"lon":5.40496,"is_reserved":false,"is_disabled":false,"rental_uris":{"android":"levelo://app?vid=7ada2641-316b-4e07-8cf0-f1c79c755356","ios":"levelo://app?vid=7ada2641-316b-4e07-8cf0-f1c79c755356"},"vehicle_type_id":"4","last_reported":1773743980,"current_range_meters":8800,"station_id":"st_d2ngiaodas8pm72gd1h0","pricing_plan_id":"cebpf4jnsgd1na2vs0mg"},{"bike_id":"5b850e72-3067-4acb-9f55-9862cd5907ed","system_id":"levelo_inurba_marseille","lat":43.24413,"lon":5.3706,"is_reserved":false,"is_disabled":false,"rental_uris":{"android":"levelo://app?vid=5b850e72-3067-4acb-9f55-9862cd5907ed","ios":"levelo://app?vid=5b850e72-3067-4acb-9f55-9862cd5907ed"},"vehicle_type_id":"4","last_reported":1773743980,"current_range_meters":8800,"station_id":"ce4bhhh2rcd13ifvqfk0","pricing_plan_id":"cebpf4jnsgd1na2vs0mg"},{"bike_id":"7786c34f-602b-4e9d-a8ca-1802c760d6b9","system_id":"levelo_inurba_marseille","lat":43.27206,"lon":5.39192,"is_reserved":false,"is_disabled":false,"rental_uris":{"android":"levelo://app?vid=7786c34f-602b-4e9d-a8ca-1802c760d6b9","ios":"levelo://app?vid=7786c34f-602b-4e9d-a8ca-1802c760d6b9"},"vehicle_type_id":"4","last_reported":1773743980,"current_range_meters":8800,"station_id":"ce4bhhp2rcd13ifvqfm0","pricing_plan_id":"cebpf4jnsgd1na2vs0mg"},{"bike_id":"baf7c1f5-4a85-47f3-9367-3f6d536f083f","system_id":"levelo_inurba_marseille","lat":43.27992,"lon":5.40039,"is_reserved":false,"is_disabled":true,"rental_uris":{"android":"levelo://app?vid=baf7c1f5-4a85-47f3-9367-3f6d536f083f","ios":"levelo://app?vid=baf7c1f5-4a85-47f3-9367-3f6d536f083f"},"vehicle_type_id":"4","last_reported":1773743980,"current_range_meters":8800,"station_id":"ce4bho92rcd13ifvqh4g","pricing_plan_id":"cebpf4jnsgd1na2vs0mg"},{"bike_id":"e19bbcec-af9d-483d-ac29-18df3b9c0ab9","system_id":"levelo_inurba_marseille","lat":43.28489,"lon":5.48381,"is_reserved":false,"is_disabled":false,"rental_uris":{"android":"levelo://app?vid=e19bbcec-af9d-483d-ac29-18df3b9c0ab9","ios":"levelo://app?vid=e19bbcec-af9d-483d-ac29-18df3b9c0ab9"},"vehicle_type_id":"4","last_reported":1773743980,"current_range_meters":8800,"station_id":"st_d3svhcjqgbts73a3dn0g","pricing_plan_id":"cebpf4jnsgd1na2vs0mg"},{"bike_id":"3a9bfa46-8ac9-44e1-bc55-99c4bde65c1d","system_id":"levelo_inurba_marseille","lat":43.27072,"lon":5.42267,"is_reserved":false,"is_disabled":false,"rental_uris":{"android":"levelo://app?vid=3a9bfa46-8ac9-44e1-bc55-99c4bde65c1d","ios":"levelo://app?vid=3a9bfa46-8ac9-44e1-bc55-99c4bde65c1d"},"vehicle_type_id":"4","last_reported":1773743980,"current_range_meters":8800,"station_id":"ce4bhk92rcd13ifvqgb0","pricing_plan_id":"cebpf4jnsgd1na2vs0mg"},{"bike_id":"7e372e61-a4a4-4320-b78e-0115edf72ed5","system_id":"levelo_inurba_marseille","lat":43.24166,"lon":5.36413,"is_reserved":false,"is_disabled":true,"rental_uris":{"android":"levelo://app?vid=7e372e61-a4a4-4320-b78e-0115edf72ed5","ios":"levelo://app?vid=7e372e61-a4a4-4320-b78e-0115edf72ed5"},"vehicle_type_id":"4","last_reported":1773743980,"current_range_meters":8800,"station_id":"cpo36qri1sfpv3e86is0","pricing_plan_id":"cebpf4jnsgd1na2vs0mg"},{"bike_id":"2d7915d0-03f5-46d1-9167-08e575a93916","system_id":"levelo_inurba_marseille","lat":43.25924,"lon":5.4091,"is_reserved":false,"is_disabled":false,"rental_uris":{"android":"levelo://app?vid=2d7915d0-03f5-46d1-9167-08e575a93916","ios":"levelo://app?vid=2d7915d0-03f5-46d1-9167-08e575a93916"},"vehicle_type_id":"4","last_reported":1773743980,"current_range_meters":8800,"station_id":"ce4bhm92rcd13ifvqglg","pricing_plan_id":"cebpf4jnsgd1na2vs0mg"},{"bike_id":"f7cad0dd-4929-454b-8848-7575c69435e1","system_id":"levelo_inurba_marseille","lat":43.25854,"lon":5.39924,"is_reserved":false,"is_disabled":true,"rental_uris":{"android":"levelo://app?vid=f7cad0dd-4929-454b-8848-7575c69435e1","ios":"levelo://app?vid=f7cad0dd-4929-454b-8848-7575c69435e1"},"vehicle_type_id":"4","last_reported":1773743980,"current_range_meters":8800,"station_id":"ce4bhl92rcd13ifvqghg","pricing_plan_id":"cebpf4jnsgd1na2vs0mg"},{"bike_id":"cc5fc361-e677-4693-8a3b-54577a2e489f","system_id":"levelo_inurba_marseille","lat":43.30553,"lon":5.3651,"is_reserved":false,"is_disabled":false,"rental_uris":{"android":"levelo://app?vid=cc5fc361-e677-4693-8a3b-54577a2e489f","ios":"levelo://app?vid=cc5fc361-e677-4693-8a3b-54577a2e489f"},"vehicle_type_id":"4","last_reported":1773743980,"current_range_meters":8800,"station_id":"ce4bgs12rcd13ifvqcag","pricing_plan_id":"cebpf4jnsgd1na2vs0mg"},{"bike_id":"d6134452-175b-4fbd-a098-a4203d039d6a","system_id":"levelo_inurba_marseille","lat":43.25487,"lon":5.37676,"is_reserved":false,"is_disabled":false,"rental_uris":{"android":"levelo://app?vid=d6134452-175b-4fbd-a098-a4203d039d6a","ios":"levelo://app?vid=d6134452-175b-4fbd-a098-a4203d039d6a"},"vehicle_type_id":"4","last_reported":1773743980,"current_range_meters":8800,"station_id":"ce4bhh12rcd13ifvqff0","pricing_plan_id":"cebpf4jnsgd1na2vs0mg"},{"bike_id":"77c6e61f-d9f3-469d-b918-ce8a6e142321","system_id":"levelo_inurba_marseille","lat":43.28985,"lon":5.3784,"is_reserved":false,"is_disabled":false,"rental_uris":{"android":"levelo://app?vid=77c6e61f-d9f3-469d-b918-ce8a6e142321","ios":"levelo://app?vid=77c6e61f-d9f3-469d-b918-ce8a6e142321"},"vehicle_type_id":"4","last_reported":1773743980,"current_range_meters":8800,"station_id":"ce4bh9p2rcd13ifvqed0","pricing_plan_id":"cebpf4jnsgd1na2vs0mg"},{"bike_id":"5c905397-02bb-4489-bc2a-606670e3b8c3","system_id":"levelo_inurba_marseille","lat":43.27174,"lon":5.40999,"is_reserved":false,"is_disabled":false,"rental_uris":{"android":"levelo://app?vid=5c905397-02bb-4489-bc2a-606670e3b8c3","ios":"levelo://app?vid=5c905397-02bb-4489-bc2a-606670e3b8c3"},"vehicle_type_id":"4","last_reported":1773743980,"current_range_meters":8800,"station_id":"ce4bhl12rcd13ifvqgf0","pricing_plan_id":"cebpf4jnsgd1na2vs0mg"},{"bike_id":"d028e4a4-7e69-4ca0-b42c-3a8774b6d06c","system_id":"levelo_inurba_marseille","lat":43.28713,"lon":5.37936,"is_reserved":false,"is_disabled":false,"rental_uris":{"android":"levelo://app?vid=d028e4a4-7e69-4ca0-b42c-3a8774b6d06c","ios":"levelo://app?vid=d028e4a4-7e69-4ca0-b42c-3a8774b6d06c"},"vehicle_type_id":"4","last_reported":1773743980,"current_range_meters":8800,"station_id":"ce4bh9p2rcd13ifvqec0","pricing_plan_id":"cebpf4jnsgd1na2vs0mg"},{"bike_id":"6aa823cd-4931-4f3f-9262-0dcb3ae7b7e9","system_id":"levelo_inurba_marseille","lat":43.24803,"lon":5.37446,"is_reserved":false,"is_disabled":false,"rental_uris":{"android":"levelo://app?vid=6aa823cd-4931-4f3f-9262-0dcb3ae7b7e9","ios":"levelo://app?vid=6aa823cd-4931-4f3f-9262-0dcb3ae7b7e9"},"vehicle_type_id":"4","last_reported":1773743980,"current_range_meters":8800,"station_id":"ce4bhgh2rcd13ifvqfb0","pricing_plan_id":"cebpf4jnsgd1na2vs0mg"},{"bike_id":"80db3609-75ad-4c89-b2ce-16c9992dcab3","system_id":"levelo_inurba_marseille","lat":43.22938,"lon":5.35375,"is_reserved":false,"is_disabled":false,"rental_uris":{"android":"levelo://app?vid=80db3609-75ad-4c89-b2ce-16c9992dcab3","ios":"levelo://app?vid=80db3609-75ad-4c89-b2ce-16c9992dcab3"},"vehicle_type_id":"4","last_reported":1773743980,"current_range_meters":8800,"station_id":"cpo3532slgdg3j2ikp40","pricing_plan_id":"cebpf4jnsgd1na2vs0mg"},{"bike_id":"8a8d4a1e-15c6-4949-bffe-3fd6397d7d83","system_id":"levelo_inurba_marseille","lat":43.32846,"lon":5.40488,"is_reserved":false,"is_disabled":false,"rental_uris":{"android":"levelo://app?vid=8a8d4a1e-15c6-4949-bffe-3fd6397d7d83","ios":"levelo://app?vid=8a8d4a1e-15c6-4949-bffe-3fd6397d7d83"},"vehicle_type_id":"4","last_reported":1773743980,"current_range_meters":8800,"station_id":"","pricing_plan_id":"cebpf4jnsgd1na2vs0mg"},{"bike_id":"8a4a129c-900f-4987-8e43-faa3977d59f0","system_id":"levelo_inurba_marseille","lat":43.26552,"lon":5.37287,"is_reserved":false,"is_disabled":false,"rental_uris":{"android":"levelo://app?vid=8a4a129c-900f-4987-8e43-faa3977d59f0","ios":"levelo://app?vid=8a4a129c-900f-4987-8e43-faa3977d59f0"},"vehicle_type_id":"4","last_reported":1773743980,"current_range_meters":8800,"station_id":"ce4bhg12rcd13ifvqf70","pricing_plan_id":"cebpf4jnsgd1na2vs0mg"},{"bike_id":"f8a00c49-c93d-41ce-9f11-d81257ca6394","system_id":"levelo_inurba_marseille","lat":43.22928,"lon":5.35377,"is_reserved":false,"is_disabled":false,"rental_uris":{"android":"levelo://app?vid=f8a00c49-c93d-41ce-9f11-d81257ca6394","ios":"levelo://app?vid=f8a00c49-c93d-41ce-9f11-d81257ca6394"},"vehicle_type_id":"4","last_reported":1773743980,"current_range_meters":8800,"station_id":"cpo3532slgdg3j2ikp40","pricing_plan_id":"cebpf4jnsgd1na2vs0mg"},{"bike_id":"0922850f-97f4-4d5f-9c96-79b1b2616092","system_id":"levelo_inurba_marseille","lat":43.29584,"lon":5.37524,"is_reserved":false,"is_disabled":false,"rental_uris":{"android":"levelo://app?vid=0922850f-97f4-4d5f-9c96-79b1b2616092","ios":"levelo://app?vid=0922850f-97f4-4d5f-9c96-79b1b2616092"},"vehicle_type_id":"4","last_reported":1773743980,"current_range_meters":8800,"station_id":"ce4bgh92rcd13ifvqb50","pricing_plan_id":"cebpf4jnsgd1na2vs0mg"},{"bike_id":"b9f2e5d5-d6ac-4c0d-86f2-4fe1a54ef3b3","system_id":"levelo_inurba_marseille","lat":43.32103,"lon":5.36762,"is_reserved":false,"is_disabled":false,"rental_uris":{"android":"levelo://app?vid=b9f2e5d5-d6ac-4c0d-86f2-4fe1a54ef3b3","ios":"levelo://app?vid=b9f2e5d5-d6ac-4c0d-86f2-4fe1a54ef3b3"},"vehicle_type_id":"4","last_reported":1773743980,"current_range_meters":8800,"station_id":"ce4bhrh2rcd13ifvqhug","pricing_plan_id":"cebpf4jnsgd1na2vs0mg"},{"bike_id":"f55fe1d9-0aef-493f-92d5-2a04f6436c76","system_id":"levelo_inurba_marseille","lat":43.28718,"lon":5.37386,"is_reserved":false,"is_disabled":false,"rental_uris":{"android":"levelo://app?vid=f55fe1d9-0aef-493f-92d5-2a04f6436c76","ios":"levelo://app?vid=f55fe1d9-0aef-493f-92d5-2a04f6436c76"},"vehicle_type_id":"4","last_reported":1773743980,"current_range_meters":8800,"station_id":"ce4bh3p2rcd13ifvqdq0","pricing_plan_id":"cebpf4jnsgd1na2vs0mg"},{"bike_id":"8611a375-7312-462c-a106-d1da01d8cd25","system_id":"levelo_inurba_marseille","lat":43.30175,"lon":5.38085,"is_reserved":false,"is_disabled":false,"rental_uris":{"android":"levelo://app?vid=8611a375-7312-462c-a106-d1da01d8cd25","ios":"levelo://app?vid=8611a375-7312-462c-a106-d1da01d8cd25"},"vehicle_type_id":"4","last_reported":1773743980,"current_range_meters":9200,"station_id":"ce4bgjp2rcd13ifvqbh0","pricing_plan_id":"cebpf4jnsgd1na2vs0mg"},{"bike_id":"aa6f4e96-56c6-4b54-bc20-c8d81fa34529","system_id":"levelo_inurba_marseille","lat":43.30129,"lon":5.43088,"is_reserved":false,"is_disabled":false,"rental_uris":{"android":"levelo://app?vid=aa6f4e96-56c6-4b54-bc20-c8d81fa34529","ios":"levelo://app?vid=aa6f4e96-56c6-4b54-bc20-c8d81fa34529"},"vehicle_type_id":"4","last_reported":1773743980,"current_range_meters":9200,"station_id":"st_d3js3co5814s73ftftug","pricing_plan_id":"cebpf4jnsgd1na2vs0mg"},{"bike_id":"8db965e7-51b6-419b-a2fc-615dc14bbde5","system_id":"levelo_inurba_marseille","lat":43.28287,"lon":5.35074,"is_reserved":false,"is_disabled":false,"rental_uris":{"android":"levelo://app?vid=8db965e7-51b6-419b-a2fc-615dc14bbde5","ios":"levelo://app?vid=8db965e7-51b6-419b-a2fc-615dc14bbde5"},"vehicle_type_id":"4","last_reported":1773743980,"current_range_meters":9200,"station_id":"ce4bhbp2rcd13ifvqerg","pricing_plan_id":"cebpf4jnsgd1na2vs0mg"},{"bike_id":"aa55bf61-2ca7-41e3-8bb2-254e014eceaa","system_id":"levelo_inurba_marseille","lat":43.24387,"lon":5.37047,"is_reserved":false,"is_disabled":false,"rental_uris":{"android":"levelo://app?vid=aa55bf61-2ca7-41e3-8bb2-254e014eceaa","ios":"levelo://app?vid=aa55bf61-2ca7-41e3-8bb2-254e014eceaa"},"vehicle_type_id":"4","last_reported":1773743980,"current_range_meters":9200,"station_id":"ce4bhhh2rcd13ifvqfk0","pricing_plan_id":"cebpf4jnsgd1na2vs0mg"},{"bike_id":"73f59619-b8fb-4247-8fd5-e2dcc21c22ed","system_id":"levelo_inurba_marseille","lat":43.30541,"lon":5.36534,"is_reserved":false,"is_disabled":false,"rental_uris":{"android":"levelo://app?vid=73f59619-b8fb-4247-8fd5-e2dcc21c22ed","ios":"levelo://app?vid=73f59619-b8fb-4247-8fd5-e2dcc21c22ed"},"vehicle_type_id":"4","last_reported":1773743980,"current_range_meters":9200,"station_id":"ce4bgs12rcd13ifvqcag","pricing_plan_id":"cebpf4jnsgd1na2vs0mg"},{"bike_id":"e563383a-8a89-4304-b11f-18268886193e","system_id":"levelo_inurba_marseille","lat":43.2558,"lon":5.38227,"is_reserved":false,"is_disabled":false,"rental_uris":{"android":"levelo://app?vid=e563383a-8a89-4304-b11f-18268886193e","ios":"levelo://app?vid=e563383a-8a89-4304-b11f-18268886193e"},"vehicle_type_id":"4","last_reported":1773743980,"current_range_meters":9200,"station_id":"ce4bhih2rcd13ifvqfs0","pricing_plan_id":"cebpf4jnsgd1na2vs0mg"},{"bike_id":"cc897b25-9ddc-4b12-bd8a-bfb7db8696bd","system_id":"levelo_inurba_marseille","lat":43.24553,"lon":5.39538,"is_reserved":false,"is_disabled":false,"rental_uris":{"android":"levelo://app?vid=cc897b25-9ddc-4b12-bd8a-bfb7db8696bd","ios":"levelo://app?vid=cc897b25-9ddc-4b12-bd8a-bfb7db8696bd"},"vehicle_type_id":"4","last_reported":1773743980,"current_range_meters":9200,"station_id":"ce4bhlp2rcd13ifvqgjg","pricing_plan_id":"cebpf4jnsgd1na2vs0mg"},{"bike_id":"f0a5fedf-bcef-42eb-a048-e260fe29ba5c","system_id":"levelo_inurba_marseille","lat":43.29949,"lon":5.38521,"is_reserved":false,"is_disabled":false,"rental_uris":{"android":"levelo://app?vid=f0a5fedf-bcef-42eb-a048-e260fe29ba5c","ios":"levelo://app?vid=f0a5fedf-bcef-42eb-a048-e260fe29ba5c"},"vehicle_type_id":"4","last_reported":1773743980,"current_range_meters":9200,"station_id":"ce4bgj92rcd13ifvqbd0","pricing_plan_id":"cebpf4jnsgd1na2vs0mg"},{"bike_id":"415744e2-3d23-4a24-9ecb-c86bceed8775","system_id":"levelo_inurba_marseille","lat":43.30889,"lon":5.36848,"is_reserved":false,"is_disabled":false,"rental_uris":{"android":"levelo://app?vid=415744e2-3d23-4a24-9ecb-c86bceed8775","ios":"levelo://app?vid=415744e2-3d23-4a24-9ecb-c86bceed8775"},"vehicle_type_id":"4","last_reported":1773743980,"current_range_meters":9200,"station_id":"ce4bgn92rcd13ifvqbvg","pricing_plan_id":"cebpf4jnsgd1na2vs0mg"},{"bike_id":"a6f19a37-9329-4bf9-92ee-9819dc70cf13","system_id":"levelo_inurba_marseille","lat":43.24188,"lon":5.39734,"is_reserved":false,"is_disabled":false,"rental_uris":{"android":"levelo://app?vid=a6f19a37-9329-4bf9-92ee-9819dc70cf13","ios":"levelo://app?vid=a6f19a37-9329-4bf9-92ee-9819dc70cf13"},"vehicle_type_id":"4","last_reported":1773743980,"current_range_meters":9200,"station_id":"ce4bhn12rcd13ifvqgpg","pricing_plan_id":"cebpf4jnsgd1na2vs0mg"},{"bike_id":"0bacd49d-1e82-47d0-b9c4-534513f8cc81","system_id":"levelo_inurba_marseille","lat":43.3097,"lon":5.39063,"is_reserved":false,"is_disabled":true,"rental_uris":{"android":"levelo://app?vid=0bacd49d-1e82-47d0-b9c4-534513f8cc81","ios":"levelo://app?vid=0bacd49d-1e82-47d0-b9c4-534513f8cc81"},"vehicle_type_id":"4","last_reported":1773743980,"current_range_meters":9200,"station_id":"ce4bgup2rcd13ifvqco0","pricing_plan_id":"cebpf4jnsgd1na2vs0mg"},{"bike_id":"e4279bf3-49d9-4ff4-9d9d-ce4672d67b33","system_id":"levelo_inurba_marseille","lat":43.23787,"lon":5.36628,"is_reserved":false,"is_disabled":false,"rental_uris":{"android":"levelo://app?vid=e4279bf3-49d9-4ff4-9d9d-ce4672d67b33","ios":"levelo://app?vid=e4279bf3-49d9-4ff4-9d9d-ce4672d67b33"},"vehicle_type_id":"4","last_reported":1773743980,"current_range_meters":9200,"station_id":"st_d3nk18o9ro0c73en2l3g","pricing_plan_id":"cebpf4jnsgd1na2vs0mg"},{"bike_id":"164f3b35-65e9-419a-ac36-734502d71416","system_id":"levelo_inurba_marseille","lat":43.29785,"lon":5.37109,"is_reserved":false,"is_disabled":false,"rental_uris":{"android":"levelo://app?vid=164f3b35-65e9-419a-ac36-734502d71416","ios":"levelo://app?vid=164f3b35-65e9-419a-ac36-734502d71416"},"vehicle_type_id":"4","last_reported":1773743980,"current_range_meters":9200,"station_id":"ce4bgop2rcd13ifvqc1g","pricing_plan_id":"cebpf4jnsgd1na2vs0mg"},{"bike_id":"8eae37c1-96a5-4841-b933-c36e1e80169a","system_id":"levelo_inurba_marseille","lat":43.25127,"lon":5.40317,"is_reserved":false,"is_disabled":false,"rental_uris":{"android":"levelo://app?vid=8eae37c1-96a5-4841-b933-c36e1e80169a","ios":"levelo://app?vid=8eae37c1-96a5-4841-b933-c36e1e80169a"},"vehicle_type_id":"4","last_reported":1773743980,"current_range_meters":9200,"station_id":"ce4bhlh2rcd13ifvqgig","pricing_plan_id":"cebpf4jnsgd1na2vs0mg"},{"bike_id":"0ebe125c-0403-4c11-9dc0-82c2407d44ea","system_id":"levelo_inurba_marseille","lat":43.24077,"lon":5.37783,"is_reserved":false,"is_disabled":false,"rental_uris":{"android":"levelo://app?vid=0ebe125c-0403-4c11-9dc0-82c2407d44ea","ios":"levelo://app?vid=0ebe125c-0403-4c11-9dc0-82c2407d44ea"},"vehicle_type_id":"4","last_reported":1773743980,"current_range_meters":9200,"station_id":"ce4bhnp2rcd13ifvqgvg","pricing_plan_id":"cebpf4jnsgd1na2vs0mg"},{"bike_id":"838396bf-87b9-4c01-a097-e1f8af9e49fd","system_id":"levelo_inurba_marseille","lat":43.34141,"lon":5.40909,"is_reserved":false,"is_disabled":false,"rental_uris":{"android":"levelo://app?vid=838396bf-87b9-4c01-a097-e1f8af9e49fd","ios":"levelo://app?vid=838396bf-87b9-4c01-a097-e1f8af9e49fd"},"vehicle_type_id":"4","last_reported":1773743980,"current_range_meters":9200,"station_id":"ce4bhqh2rcd13ifvqhlg","pricing_plan_id":"cebpf4jnsgd1na2vs0mg"},{"bike_id":"782c800d-d317-4441-ad4b-531163641a8a","system_id":"levelo_inurba_marseille","lat":43.26676,"lon":5.38264,"is_reserved":false,"is_disabled":false,"rental_uris":{"android":"levelo://app?vid=782c800d-d317-4441-ad4b-531163641a8a","ios":"levelo://app?vid=782c800d-d317-4441-ad4b-531163641a8a"},"vehicle_type_id":"4","last_reported":1773743980,"current_range_meters":9600,"station_id":"ce4bhg92rcd13ifvqf90","pricing_plan_id":"cebpf4jnsgd1na2vs0mg"},{"bike_id":"abeed13c-c51b-4739-8fd2-4f8ab70d4f2c","system_id":"levelo_inurba_marseille","lat":43.31718,"lon":5.42397,"is_reserved":false,"is_disabled":false,"rental_uris":{"android":"levelo://app?vid=abeed13c-c51b-4739-8fd2-4f8ab70d4f2c","ios":"levelo://app?vid=abeed13c-c51b-4739-8fd2-4f8ab70d4f2c"},"vehicle_type_id":"4","last_reported":1773743980,"current_range_meters":9600,"station_id":"ce4bhp92rcd13ifvqhbg","pricing_plan_id":"cebpf4jnsgd1na2vs0mg"},{"bike_id":"e9a095ec-646a-47ef-b9a1-632c444faa7c","system_id":"levelo_inurba_marseille","lat":43.26432,"lon":5.4102,"is_reserved":false,"is_disabled":false,"rental_uris":{"android":"levelo://app?vid=e9a095ec-646a-47ef-b9a1-632c444faa7c","ios":"levelo://app?vid=e9a095ec-646a-47ef-b9a1-632c444faa7c"},"vehicle_type_id":"4","last_reported":1773743980,"current_range_meters":9600,"station_id":"","pricing_plan_id":"cebpf4jnsgd1na2vs0mg"},{"bike_id":"3b6e0c3e-cbaa-4171-b477-05e2254d111c","system_id":"levelo_inurba_marseille","lat":43.26685,"lon":5.3827,"is_reserved":false,"is_disabled":false,"rental_uris":{"android":"levelo://app?vid=3b6e0c3e-cbaa-4171-b477-05e2254d111c","ios":"levelo://app?vid=3b6e0c3e-cbaa-4171-b477-05e2254d111c"},"vehicle_type_id":"4","last_reported":1773743980,"current_range_meters":9600,"station_id":"ce4bhg92rcd13ifvqf90","pricing_plan_id":"cebpf4jnsgd1na2vs0mg"},{"bike_id":"6ac9fba9-cbd8-4e41-8d10-8d9aa767f584","system_id":"levelo_inurba_marseille","lat":43.27677,"lon":5.38905,"is_reserved":false,"is_disabled":true,"rental_uris":{"android":"levelo://app?vid=6ac9fba9-cbd8-4e41-8d10-8d9aa767f584","ios":"levelo://app?vid=6ac9fba9-cbd8-4e41-8d10-8d9aa767f584"},"vehicle_type_id":"4","last_reported":1773743980,"current_range_meters":9600,"station_id":"ce4bhi12rcd13ifvqfo0","pricing_plan_id":"cebpf4jnsgd1na2vs0mg"},{"bike_id":"145cf909-0a6f-49d8-9ad7-e55b549465ae","system_id":"levelo_inurba_marseille","lat":43.25643,"lon":5.38542,"is_reserved":false,"is_disabled":false,"rental_uris":{"android":"levelo://app?vid=145cf909-0a6f-49d8-9ad7-e55b549465ae","ios":"levelo://app?vid=145cf909-0a6f-49d8-9ad7-e55b549465ae"},"vehicle_type_id":"4","last_reported":1773743980,"current_range_meters":9600,"station_id":"","pricing_plan_id":"cebpf4jnsgd1na2vs0mg"},{"bike_id":"bf249f81-2ef0-45f9-a595-8436dd14fe0c","system_id":"levelo_inurba_marseille","lat":43.32098,"lon":5.36768,"is_reserved":false,"is_disabled":false,"rental_uris":{"android":"levelo://app?vid=bf249f81-2ef0-45f9-a595-8436dd14fe0c","ios":"levelo://app?vid=bf249f81-2ef0-45f9-a595-8436dd14fe0c"},"vehicle_type_id":"4","last_reported":1773743980,"current_range_meters":9600,"station_id":"ce4bhrh2rcd13ifvqhug","pricing_plan_id":"cebpf4jnsgd1na2vs0mg"},{"bike_id":"70f98469-d2c0-43f4-9102-c6ad6fb97bca","system_id":"levelo_inurba_marseille","lat":43.21741,"lon":5.34592,"is_reserved":false,"is_disabled":false,"rental_uris":{"android":"levelo://app?vid=70f98469-d2c0-43f4-9102-c6ad6fb97bca","ios":"levelo://app?vid=70f98469-d2c0-43f4-9102-c6ad6fb97bca"},"vehicle_type_id":"4","last_reported":1773743980,"current_range_meters":9600,"station_id":"st_cvj6r9ubvosntc0bgbag","pricing_plan_id":"cebpf4jnsgd1na2vs0mg"},{"bike_id":"af76a918-434d-4373-8fdd-16d8b75e35a1","system_id":"levelo_inurba_marseille","lat":43.21744,"lon":5.3454,"is_reserved":false,"is_disabled":false,"rental_uris":{"android":"levelo://app?vid=af76a918-434d-4373-8fdd-16d8b75e35a1","ios":"levelo://app?vid=af76a918-434d-4373-8fdd-16d8b75e35a1"},"vehicle_type_id":"4","last_reported":1773743980,"current_range_meters":9600,"station_id":"st_cvj6r9ubvosntc0bgbag","pricing_plan_id":"cebpf4jnsgd1na2vs0mg"},{"bike_id":"ff47d2eb-adc7-4bf9-935f-0a6af0342e62","system_id":"levelo_inurba_marseille","lat":43.25864,"lon":5.39921,"is_reserved":false,"is_disabled":false,"rental_uris":{"android":"levelo://app?vid=ff47d2eb-adc7-4bf9-935f-0a6af0342e62","ios":"levelo://app?vid=ff47d2eb-adc7-4bf9-935f-0a6af0342e62"},"vehicle_type_id":"4","last_reported":1773743980,"current_range_meters":9600,"station_id":"ce4bhl92rcd13ifvqghg","pricing_plan_id":"cebpf4jnsgd1na2vs0mg"},{"bike_id":"e2fe6092-c974-4375-be57-a6817a974001","system_id":"levelo_inurba_marseille","lat":43.29919,"lon":5.38545,"is_reserved":false,"is_disabled":false,"rental_uris":{"android":"levelo://app?vid=e2fe6092-c974-4375-be57-a6817a974001","ios":"levelo://app?vid=e2fe6092-c974-4375-be57-a6817a974001"},"vehicle_type_id":"4","last_reported":1773743980,"current_range_meters":9600,"station_id":"","pricing_plan_id":"cebpf4jnsgd1na2vs0mg"},{"bike_id":"ea3c54d1-5815-4c69-bb20-9e5341681cce","system_id":"levelo_inurba_marseille","lat":43.29744,"lon":5.38038,"is_reserved":false,"is_disabled":true,"rental_uris":{"android":"levelo://app?vid=ea3c54d1-5815-4c69-bb20-9e5341681cce","ios":"levelo://app?vid=ea3c54d1-5815-4c69-bb20-9e5341681cce"},"vehicle_type_id":"4","last_reported":1773743980,"current_range_meters":9600,"station_id":"","pricing_plan_id":"cebpf4jnsgd1na2vs0mg"},{"bike_id":"7fefc9b6-5fbf-4935-8bdf-082e7ba9286a","system_id":"levelo_inurba_marseille","lat":43.25966,"lon":5.40809,"is_reserved":false,"is_disabled":false,"rental_uris":{"android":"levelo://app?vid=7fefc9b6-5fbf-4935-8bdf-082e7ba9286a","ios":"levelo://app?vid=7fefc9b6-5fbf-4935-8bdf-082e7ba9286a"},"vehicle_type_id":"4","last_reported":1773743980,"current_range_meters":9600,"station_id":"","pricing_plan_id":"cebpf4jnsgd1na2vs0mg"},{"bike_id":"8af0a38f-153c-4dcf-a261-e40583133eb1","system_id":"levelo_inurba_marseille","lat":43.23783,"lon":5.36635,"is_reserved":false,"is_disabled":false,"rental_uris":{"android":"levelo://app?vid=8af0a38f-153c-4dcf-a261-e40583133eb1","ios":"levelo://app?vid=8af0a38f-153c-4dcf-a261-e40583133eb1"},"vehicle_type_id":"4","last_reported":1773743980,"current_range_meters":10000,"station_id":"st_d3nk18o9ro0c73en2l3g","pricing_plan_id":"cebpf4jnsgd1na2vs0mg"},{"bike_id":"90e3905b-57e6-4282-a1f5-50b7eafc8592","system_id":"levelo_inurba_marseille","lat":43.22559,"lon":5.41609,"is_reserved":false,"is_disabled":false,"rental_uris":{"android":"levelo://app?vid=90e3905b-57e6-4282-a1f5-50b7eafc8592","ios":"levelo://app?vid=90e3905b-57e6-4282-a1f5-50b7eafc8592"},"vehicle_type_id":"4","last_reported":1773743980,"current_range_meters":10000,"station_id":"st_d2o4gvlbi1j2169b742g","pricing_plan_id":"cebpf4jnsgd1na2vs0mg"},{"bike_id":"f77d8ba9-0aa6-4584-bbea-10af3fde7148","system_id":"levelo_inurba_marseille","lat":43.24959,"lon":5.40497,"is_reserved":false,"is_disabled":false,"rental_uris":{"android":"levelo://app?vid=f77d8ba9-0aa6-4584-bbea-10af3fde7148","ios":"levelo://app?vid=f77d8ba9-0aa6-4584-bbea-10af3fde7148"},"vehicle_type_id":"4","last_reported":1773743980,"current_range_meters":10000,"station_id":"st_d2ngiaodas8pm72gd1h0","pricing_plan_id":"cebpf4jnsgd1na2vs0mg"},{"bike_id":"374e9e14-c800-46ed-83bb-74dfd10456fd","system_id":"levelo_inurba_marseille","lat":43.31473,"lon":5.373,"is_reserved":false,"is_disabled":false,"rental_uris":{"android":"levelo://app?vid=374e9e14-c800-46ed-83bb-74dfd10456fd","ios":"levelo://app?vid=374e9e14-c800-46ed-83bb-74dfd10456fd"},"vehicle_type_id":"4","last_reported":1773743980,"current_range_meters":10000,"station_id":"ce4bgt12rcd13ifvqcd0","pricing_plan_id":"cebpf4jnsgd1na2vs0mg"},{"bike_id":"b2d32596-5bca-4b9e-ac0d-9f0f2f521e45","system_id":"levelo_inurba_marseille","lat":43.32976,"lon":5.36013,"is_reserved":false,"is_disabled":false,"rental_uris":{"android":"levelo://app?vid=b2d32596-5bca-4b9e-ac0d-9f0f2f521e45","ios":"levelo://app?vid=b2d32596-5bca-4b9e-ac0d-9f0f2f521e45"},"vehicle_type_id":"4","last_reported":1773743980,"current_range_meters":10000,"station_id":"","pricing_plan_id":"cebpf4jnsgd1na2vs0mg"},{"bike_id":"870fa157-dc85-4545-826f-036b4c691b26","system_id":"levelo_inurba_marseille","lat":43.30962,"lon":5.39042,"is_reserved":false,"is_disabled":false,"rental_uris":{"android":"levelo://app?vid=870fa157-dc85-4545-826f-036b4c691b26","ios":"levelo://app?vid=870fa157-dc85-4545-826f-036b4c691b26"},"vehicle_type_id":"4","last_reported":1773743980,"current_range_meters":10000,"station_id":"ce4bgup2rcd13ifvqco0","pricing_plan_id":"cebpf4jnsgd1na2vs0mg"},{"bike_id":"9cc251ca-bbe0-4c21-8f97-024982103954","system_id":"levelo_inurba_marseille","lat":43.24076,"lon":5.3774,"is_reserved":false,"is_disabled":false,"rental_uris":{"android":"levelo://app?vid=9cc251ca-bbe0-4c21-8f97-024982103954","ios":"levelo://app?vid=9cc251ca-bbe0-4c21-8f97-024982103954"},"vehicle_type_id":"4","last_reported":1773743980,"current_range_meters":10000,"station_id":"ce4bhnp2rcd13ifvqgvg","pricing_plan_id":"cebpf4jnsgd1na2vs0mg"},{"bike_id":"8cf4e5e9-a298-4d00-a19b-7e581f56a6bd","system_id":"levelo_inurba_marseille","lat":43.30831,"lon":5.38161,"is_reserved":false,"is_disabled":false,"rental_uris":{"android":"levelo://app?vid=8cf4e5e9-a298-4d00-a19b-7e581f56a6bd","ios":"levelo://app?vid=8cf4e5e9-a298-4d00-a19b-7e581f56a6bd"},"vehicle_type_id":"4","last_reported":1773743980,"current_range_meters":10000,"station_id":"ce4bgt12rcd13ifvqce0","pricing_plan_id":"cebpf4jnsgd1na2vs0mg"},{"bike_id":"b9664ffb-1617-4a0b-817e-4335957e5ad2","system_id":"levelo_inurba_marseille","lat":43.27496,"lon":5.41579,"is_reserved":false,"is_disabled":false,"rental_uris":{"android":"levelo://app?vid=b9664ffb-1617-4a0b-817e-4335957e5ad2","ios":"levelo://app?vid=b9664ffb-1617-4a0b-817e-4335957e5ad2"},"vehicle_type_id":"4","last_reported":1773743980,"current_range_meters":10000,"station_id":"st_d6im8g6chgec73a5pndg","pricing_plan_id":"cebpf4jnsgd1na2vs0mg"},{"bike_id":"6d37c527-9581-4465-863a-1310a73e6cc4","system_id":"levelo_inurba_marseille","lat":43.30914,"lon":5.36839,"is_reserved":false,"is_disabled":false,"rental_uris":{"android":"levelo://app?vid=6d37c527-9581-4465-863a-1310a73e6cc4","ios":"levelo://app?vid=6d37c527-9581-4465-863a-1310a73e6cc4"},"vehicle_type_id":"4","last_reported":1773743980,"current_range_meters":10000,"station_id":"ce4bgn92rcd13ifvqbvg","pricing_plan_id":"cebpf4jnsgd1na2vs0mg"},{"bike_id":"3cf0a467-01c5-4c75-99d2-3eec9c832a3d","system_id":"levelo_inurba_marseille","lat":43.30376,"lon":5.42515,"is_reserved":false,"is_disabled":false,"rental_uris":{"android":"levelo://app?vid=3cf0a467-01c5-4c75-99d2-3eec9c832a3d","ios":"levelo://app?vid=3cf0a467-01c5-4c75-99d2-3eec9c832a3d"},"vehicle_type_id":"4","last_reported":1773743980,"current_range_meters":10000,"station_id":"ce4bhoh2rcd13ifvqh6g","pricing_plan_id":"cebpf4jnsgd1na2vs0mg"},{"bike_id":"3feb4c73-6e63-47f9-927f-446525b49f72","system_id":"levelo_inurba_marseille","lat":43.319,"lon":5.36792,"is_reserved":false,"is_disabled":false,"rental_uris":{"android":"levelo://app?vid=3feb4c73-6e63-47f9-927f-446525b49f72","ios":"levelo://app?vid=3feb4c73-6e63-47f9-927f-446525b49f72"},"vehicle_type_id":"4","last_reported":1773743980,"current_range_meters":10000,"station_id":"","pricing_plan_id":"cebpf4jnsgd1na2vs0mg"},{"bike_id":"6b8af907-009c-47fd-b4e4-4039e24cdd78","system_id":"levelo_inurba_marseille","lat":43.25099,"lon":5.39487,"is_reserved":false,"is_disabled":false,"rental_uris":{"android":"levelo://app?vid=6b8af907-009c-47fd-b4e4-4039e24cdd78","ios":"levelo://app?vid=6b8af907-009c-47fd-b4e4-4039e24cdd78"},"vehicle_type_id":"4","last_reported":1773743980,"current_range_meters":10000,"station_id":"ce4bhm12rcd13ifvqgkg","pricing_plan_id":"cebpf4jnsgd1na2vs0mg"},{"bike_id":"babdd864-8742-41fd-a7e3-70bfe96ff8ef","system_id":"levelo_inurba_marseille","lat":43.24383,"lon":5.37071,"is_reserved":false,"is_disabled":false,"rental_uris":{"android":"levelo://app?vid=babdd864-8742-41fd-a7e3-70bfe96ff8ef","ios":"levelo://app?vid=babdd864-8742-41fd-a7e3-70bfe96ff8ef"},"vehicle_type_id":"4","last_reported":1773743980,"current_range_meters":10000,"station_id":"ce4bhhh2rcd13ifvqfk0","pricing_plan_id":"cebpf4jnsgd1na2vs0mg"},{"bike_id":"e4538ef6-dee1-4f21-8524-df61a8536512","system_id":"levelo_inurba_marseille","lat":43.29592,"lon":5.38084,"is_reserved":false,"is_disabled":true,"rental_uris":{"android":"levelo://app?vid=e4538ef6-dee1-4f21-8524-df61a8536512","ios":"levelo://app?vid=e4538ef6-dee1-4f21-8524-df61a8536512"},"vehicle_type_id":"4","last_reported":1773743980,"current_range_meters":10000,"station_id":"ce4bgl12rcd13ifvqbo0","pricing_plan_id":"cebpf4jnsgd1na2vs0mg"},{"bike_id":"779b8a3c-1846-46b5-9cab-bf0ec2b1118f","system_id":"levelo_inurba_marseille","lat":43.2849,"lon":5.48398,"is_reserved":false,"is_disabled":false,"rental_uris":{"android":"levelo://app?vid=779b8a3c-1846-46b5-9cab-bf0ec2b1118f","ios":"levelo://app?vid=779b8a3c-1846-46b5-9cab-bf0ec2b1118f"},"vehicle_type_id":"4","last_reported":1773743980,"current_range_meters":10000,"station_id":"st_d3svhcjqgbts73a3dn0g","pricing_plan_id":"cebpf4jnsgd1na2vs0mg"},{"bike_id":"f7149018-82ef-4598-a861-51a45f2db631","system_id":"levelo_inurba_marseille","lat":43.25923,"lon":5.40841,"is_reserved":false,"is_disabled":false,"rental_uris":{"android":"levelo://app?vid=f7149018-82ef-4598-a861-51a45f2db631","ios":"levelo://app?vid=f7149018-82ef-4598-a861-51a45f2db631"},"vehicle_type_id":"4","last_reported":1773743980,"current_range_meters":10000,"station_id":"ce4bhm92rcd13ifvqglg","pricing_plan_id":"cebpf4jnsgd1na2vs0mg"},{"bike_id":"82dcdf4f-8f8d-49c8-bf8f-175264f4f3bd","system_id":"levelo_inurba_marseille","lat":43.22539,"lon":5.34826,"is_reserved":false,"is_disabled":false,"rental_uris":{"android":"levelo://app?vid=82dcdf4f-8f8d-49c8-bf8f-175264f4f3bd","ios":"levelo://app?vid=82dcdf4f-8f8d-49c8-bf8f-175264f4f3bd"},"vehicle_type_id":"4","last_reported":1773743980,"current_range_meters":10800,"station_id":"st_cvj5dfep6f1abm77gieg","pricing_plan_id":"cebpf4jnsgd1na2vs0mg"},{"bike_id":"047af0a5-14e2-479e-aa98-65733b038f29","system_id":"levelo_inurba_marseille","lat":43.337444,"lon":5.374475,"is_reserved":false,"is_disabled":true,"rental_uris":{"android":"levelo://app?vid=047af0a5-14e2-479e-aa98-65733b038f29","ios":"levelo://app?vid=047af0a5-14e2-479e-aa98-65733b038f29"},"vehicle_type_id":"4","last_reported":1773743980,"current_range_meters":10800,"station_id":"ce4bgip2rcd13ifvqbb0","pricing_plan_id":"cebpf4jnsgd1na2vs0mg"},{"bike_id":"d0b1f448-6af4-4ef1-a755-e03baf4488aa","system_id":"levelo_inurba_marseille","lat":43.29242,"lon":5.35735,"is_reserved":false,"is_disabled":false,"rental_uris":{"android":"levelo://app?vid=d0b1f448-6af4-4ef1-a755-e03baf4488aa","ios":"levelo://app?vid=d0b1f448-6af4-4ef1-a755-e03baf4488aa"},"vehicle_type_id":"4","last_reported":1773743980,"current_range_meters":10800,"station_id":"","pricing_plan_id":"cebpf4jnsgd1na2vs0mg"},{"bike_id":"f54bd02b-8bfd-413b-a9a2-36775fe7ddf7","system_id":"levelo_inurba_marseille","lat":43.30118,"lon":5.40185,"is_reserved":false,"is_disabled":false,"rental_uris":{"android":"levelo://app?vid=f54bd02b-8bfd-413b-a9a2-36775fe7ddf7","ios":"levelo://app?vid=f54bd02b-8bfd-413b-a9a2-36775fe7ddf7"},"vehicle_type_id":"4","last_reported":1773743980,"current_range_meters":10800,"station_id":"","pricing_plan_id":"cebpf4jnsgd1na2vs0mg"},{"bike_id":"a8f457a5-c81c-4f17-a55c-8d092093476d","system_id":"levelo_inurba_marseille","lat":43.25941,"lon":5.40914,"is_reserved":false,"is_disabled":false,"rental_uris":{"android":"levelo://app?vid=a8f457a5-c81c-4f17-a55c-8d092093476d","ios":"levelo://app?vid=a8f457a5-c81c-4f17-a55c-8d092093476d"},"vehicle_type_id":"4","last_reported":1773743980,"current_range_meters":10800,"station_id":"ce4bhm92rcd13ifvqglg","pricing_plan_id":"cebpf4jnsgd1na2vs0mg"},