{"last_updated":1777235247,"ttl":60,"version":"2.2","data":{"bikes":[{"bike_id":"171fbedf-da21-45ce-a9e5-d5a8f8060afc","system_id":"levelo_inurba_marseille","lat":43.25081,"lon":5.39697,"is_reserved":false,"is_disabled":false,"rental_uris":{"android":"levelo://app?vid=171fbedf-da21-45ce-a9e5-d5a8f8060afc","ios":"levelo://app?vid=171fbedf-da21-45ce-a9e5-d5a8f8060afc"},"vehicle_type_id":"4","last_reported":1777235248,"current_range_meters":2800,"station_id":"","pricing_plan_id":"cebpf4jnsgd1na2vs0mg"},{"bike_id":"e8cd2437-3f9b-4da9-bdbf-7b63999095ea","system_id":"levelo_inurba_marseille","lat":43.23058,"lon":5.35487,"is_reserved":false,"is_disabled":false,"rental_uris":{"android":"levelo://app?vid=e8cd2437-3f9b-4da9-bdbf-7b63999095ea","ios":"levelo://app?vid=e8cd2437-3f9b-4da9-bdbf-7b63999095ea"},"vehicle_type_id":"4","last_reported":1777235248,"current_range_meters":2800,"station_id":"cpo3342slgdg3j2ifvpg","pricing_plan_id":"cebpf4jnsgd1na2vs0mg"},{"bike_id":"2cf24fbf-c3e0-425a-91b5-21f2d9a5b934","system_id":"levelo_inurba_marseille","lat":43.30028,"lon":5.40139,"is_reserved":false,"is_disabled":false,"rental_uris":{"android":"levelo://app?vid=2cf24fbf-c3e0-425a-91b5-21f2d9a5b934","ios":"levelo://app?vid=2cf24fbf-c3e0-425a-91b5-21f2d9a5b934"},"vehicle_type_id":"4","last_reported":1777235248,"current_range_meters":2800,"station_id":"","pricing_plan_id":"cebpf4jnsgd1na2vs0mg"},{"bike_id":"40d69b45-a292-4d7d-b8e6-837b8b5a9d0c","system_id":"levelo_inurba_marseille","lat":43.28473,"lon":5.48404,"is_reserved":false,"is_disabled":false,"rental_uris":{"android":"levelo://app?vid=40d69b45-a292-4d7d-b8e6-837b8b5a9d0c","ios":"levelo://app?vid=40d69b45-a292-4d7d-b8e6-837b8b5a9d0c"},"vehicle_type_id":"4","last_reported":1777235248,"current_range_meters":2800,"station_id":"","pricing_plan_id":"cebpf4jnsgd1na2vs0mg"},{"bike_id":"43d3cf1b-5036-4627-96c8-389834bd0a15","system_id":"levelo_inurba_marseille","lat":43.24637,"lon":5.38908,"is_reserved":false,"is_disabled":false,"rental_uris":{"android":"levelo://app?vid=43d3cf1b-5036-4627-96c8-389834bd0a15","ios":"levelo://app?vid=43d3cf1b-5036-4627-96c8-389834bd0a15"},"vehicle_type_id":"4","last_reported":1777235248,"current_range_meters":2800,"station_id":"ce4bhg12rcd13ifvqf60","pricing_plan_id":"cebpf4jnsgd1na2vs0mg"},{"bike_id":"90fac789-06e9-4c33-94b9-e82543e03c21","system_id":"levelo_inurba_marseille","lat":43.22563,"lon":5.41635,"is_reserved":false,"is_disabled":true,"rental_uris":{"android":"levelo://app?vid=90fac789-06e9-4c33-94b9-e82543e03c21","ios":"levelo://app?vid=90fac789-06e9-4c33-94b9-e82543e03c21"},"vehicle_type_id":"4","last_reported":1777235248,"current_range_meters":2800,"station_id":"st_d2o4gvlbi1j2169b742g","pricing_plan_id":"cebpf4jnsgd1na2vs0mg"},{"bike_id":"0cd2fd7c-6402-466e-aa1b-fa186d7a7ed3","system_id":"levelo_inurba_marseille","lat":43.33194,"lon":5.37792,"is_reserved":false,"is_disabled":false,"rental_uris":{"android":"levelo://app?vid=0cd2fd7c-6402-466e-aa1b-fa186d7a7ed3","ios":"levelo://app?vid=0cd2fd7c-6402-466e-aa1b-fa186d7a7ed3"},"vehicle_type_id":"4","last_reported":1777235248,"current_range_meters":3200,"station_id":"","pricing_plan_id":"cebpf4jnsgd1na2vs0mg"},{"bike_id":"afba83de-cb7e-4bef-be8c-cd4a644bfbc2","system_id":"levelo_inurba_marseille","lat":43.27676,"lon":5.38928,"is_reserved":false,"is_disabled":false,"rental_uris":{"android":"levelo://app?vid=afba83de-cb7e-4bef-be8c-cd4a644bfbc2","ios":"levelo://app?vid=afba83de-cb7e-4bef-be8c-cd4a644bfbc2"},"vehicle_type_id":"4","last_reported":1777235248,"current_range_meters":3200,"station_id":"ce4bhi12rcd13ifvqfo0","pricing_plan_id":"cebpf4jnsgd1na2vs0mg"},{"bike_id":"17fe3f56-b486-40dd-ac6a-710ede14c97d","system_id":"levelo_inurba_marseille","lat":43.314869,"lon":5.373029,"is_reserved":false,"is_disabled":false,"rental_uris":{"android":"levelo://app?vid=17fe3f56-b486-40dd-ac6a-710ede14c97d","ios":"levelo://app?vid=17fe3f56-b486-40dd-ac6a-710ede14c97d"},"vehicle_type_id":"4","last_reported":1777235248,"current_range_meters":3200,"station_id":"","pricing_plan_id":"cebpf4jnsgd1na2vs0mg"},{"bike_id":"bd628df7-a66c-4da1-b9bc-a5d008afb57d","system_id":"levelo_inurba_marseille","lat":43.28397,"lon":5.38609,"is_reserved":false,"is_disabled":false,"rental_uris":{"android":"levelo://app?vid=bd628df7-a66c-4da1-b9bc-a5d008afb57d","ios":"levelo://app?vid=bd628df7-a66c-4da1-b9bc-a5d008afb57d"},"vehicle_type_id":"4","last_reported":1777235248,"current_range_meters":3200,"station_id":"","pricing_plan_id":"cebpf4jnsgd1na2vs0mg"},{"bike_id":"43e51afa-0171-4a80-a007-f3bf7402b3e5","system_id":"levelo_inurba_marseille","lat":43.31719,"lon":5.40442,"is_reserved":false,"is_disabled":false,"rental_uris":{"android":"levelo://app?vid=43e51afa-0171-4a80-a007-f3bf7402b3e5","ios":"levelo://app?vid=43e51afa-0171-4a80-a007-f3bf7402b3e5"},"vehicle_type_id":"4","last_reported":1777235248,"current_range_meters":3200,"station_id":"ce4bh012rcd13ifvqd00","pricing_plan_id":"cebpf4jnsgd1na2vs0mg"},{"bike_id":"899778b6-8798-4236-be5d-8afb8505853a","system_id":"levelo_inurba_marseille","lat":43.21742,"lon":5.34606,"is_reserved":false,"is_disabled":false,"rental_uris":{"android":"levelo://app?vid=899778b6-8798-4236-be5d-8afb8505853a","ios":"levelo://app?vid=899778b6-8798-4236-be5d-8afb8505853a"},"vehicle_type_id":"4","last_reported":1777235248,"current_range_meters":3200,"station_id":"st_cvj6r9ubvosntc0bgbag","pricing_plan_id":"cebpf4jnsgd1na2vs0mg"},{"bike_id":"a1fa8530-65b9-4008-96f3-a6831b1af9e3","system_id":"levelo_inurba_marseille","lat":43.3356,"lon":5.37457,"is_reserved":false,"is_disabled":true,"rental_uris":{"android":"levelo://app?vid=a1fa8530-65b9-4008-96f3-a6831b1af9e3","ios":"levelo://app?vid=a1fa8530-65b9-4008-96f3-a6831b1af9e3"},"vehicle_type_id":"4","last_reported":1777235248,"current_range_meters":3200,"station_id":"st_d46tts09ee8s73dlu43g","pricing_plan_id":"cebpf4jnsgd1na2vs0mg"},{"bike_id":"e4b64922-51ee-4b84-98d5-fb04a914ed50","system_id":"levelo_inurba_marseille","lat":43.27665,"lon":5.38883,"is_reserved":false,"is_disabled":false,"rental_uris":{"android":"levelo://app?vid=e4b64922-51ee-4b84-98d5-fb04a914ed50","ios":"levelo://app?vid=e4b64922-51ee-4b84-98d5-fb04a914ed50"},"vehicle_type_id":"4","last_reported":1777235248,"current_range_meters":3200,"station_id":"ce4bhi12rcd13ifvqfo0","pricing_plan_id":"cebpf4jnsgd1na2vs0mg"},{"bike_id":"d7005da5-ec6d-46e8-be0c-03c07aedc15c","system_id":"levelo_inurba_marseille","lat":43.29782,"lon":5.39336,"is_reserved":false,"is_disabled":false,"rental_uris":{"android":"levelo://app?vid=d7005da5-ec6d-46e8-be0c-03c07aedc15c","ios":"levelo://app?vid=d7005da5-ec6d-46e8-be0c-03c07aedc15c"},"vehicle_type_id":"4","last_reported":1777235248,"current_range_meters":3600,"station_id":"chh1huq6cuj3fo74tm60","pricing_plan_id":"cebpf4jnsgd1na2vs0mg"},{"bike_id":"c0126e79-e455-4033-aa6f-9cd2537e8b04","system_id":"levelo_inurba_marseille","lat":43.28708,"lon":5.46685,"is_reserved":false,"is_disabled":false,"rental_uris":{"android":"levelo://app?vid=c0126e79-e455-4033-aa6f-9cd2537e8b04","ios":"levelo://app?vid=c0126e79-e455-4033-aa6f-9cd2537e8b04"},"vehicle_type_id":"4","last_reported":1777235248,"current_range_meters":3600,"station_id":"st_d6tc3vkotcvc738tfjhg","pricing_plan_id":"cebpf4jnsgd1na2vs0mg"},{"bike_id":"a03ce919-3949-4c06-bbb8-c0f13ba943b2","system_id":"levelo_inurba_marseille","lat":43.25519,"lon":5.37649,"is_reserved":false,"is_disabled":true,"rental_uris":{"android":"levelo://app?vid=a03ce919-3949-4c06-bbb8-c0f13ba943b2","ios":"levelo://app?vid=a03ce919-3949-4c06-bbb8-c0f13ba943b2"},"vehicle_type_id":"4","last_reported":1777235248,"current_range_meters":3600,"station_id":"ce4bhh12rcd13ifvqff0","pricing_plan_id":"cebpf4jnsgd1na2vs0mg"},{"bike_id":"ace34436-51fe-4536-a1f6-cfa009f56977","system_id":"levelo_inurba_marseille","lat":43.3354,"lon":5.37469,"is_reserved":false,"is_disabled":false,"rental_uris":{"android":"levelo://app?vid=ace34436-51fe-4536-a1f6-cfa009f56977","ios":"levelo://app?vid=ace34436-51fe-4536-a1f6-cfa009f56977"},"vehicle_type_id":"4","last_reported":1777235248,"current_range_meters":3600,"station_id":"st_d46tts09ee8s73dlu43g","pricing_plan_id":"cebpf4jnsgd1na2vs0mg"},{"bike_id":"e9caee44-b787-4c36-a632-4bd6c1ec7cfa","system_id":"levelo_inurba_marseille","lat":43.28475,"lon":5.48405,"is_reserved":false,"is_disabled":false,"rental_uris":{"android":"levelo://app?vid=e9caee44-b787-4c36-a632-4bd6c1ec7cfa","ios":"levelo://app?vid=e9caee44-b787-4c36-a632-4bd6c1ec7cfa"},"vehicle_type_id":"4","last_reported":1777235248,"current_range_meters":3600,"station_id":"st_d3svhcjqgbts73a3dn0g","pricing_plan_id":"cebpf4jnsgd1na2vs0mg"},{"bike_id":"a2e1d243-2a44-4f19-9b71-8c6ff6eb2224","system_id":"levelo_inurba_marseille","lat":43.231357,"lon":5.436442,"is_reserved":false,"is_disabled":false,"rental_uris":{"android":"levelo://app?vid=a2e1d243-2a44-4f19-9b71-8c6ff6eb2224","ios":"levelo://app?vid=a2e1d243-2a44-4f19-9b71-8c6ff6eb2224"},"vehicle_type_id":"4","last_reported":1777235248,"current_range_meters":3600,"station_id":"ce4bhmp2rcd13ifvqgog","pricing_plan_id":"cebpf4jnsgd1na2vs0mg"},{"bike_id":"2f28de82-d128-4012-a269-46272e7ea8b8","system_id":"levelo_inurba_marseille","lat":43.27219,"lon":5.39171,"is_reserved":false,"is_disabled":false,"rental_uris":{"android":"levelo://app?vid=2f28de82-d128-4012-a269-46272e7ea8b8","ios":"levelo://app?vid=2f28de82-d128-4012-a269-46272e7ea8b8"},"vehicle_type_id":"4","last_reported":1777235248,"current_range_meters":3600,"station_id":"ce4bhhp2rcd13ifvqfm0","pricing_plan_id":"cebpf4jnsgd1na2vs0mg"},{"bike_id":"b465b832-41ca-4c8a-b678-132228b145ba","system_id":"levelo_inurba_marseille","lat":43.30429,"lon":5.3971,"is_reserved":false,"is_disabled":true,"rental_uris":{"android":"levelo://app?vid=b465b832-41ca-4c8a-b678-132228b145ba","ios":"levelo://app?vid=b465b832-41ca-4c8a-b678-132228b145ba"},"vehicle_type_id":"4","last_reported":1777235248,"current_range_meters":3600,"station_id":"ce4bh092rcd13ifvqd20","pricing_plan_id":"cebpf4jnsgd1na2vs0mg"},{"bike_id":"0f126928-5121-4469-a9c9-6740d8de1e82","system_id":"levelo_inurba_marseille","lat":43.24428,"lon":5.37421,"is_reserved":false,"is_disabled":false,"rental_uris":{"android":"levelo://app?vid=0f126928-5121-4469-a9c9-6740d8de1e82","ios":"levelo://app?vid=0f126928-5121-4469-a9c9-6740d8de1e82"},"vehicle_type_id":"4","last_reported":1777235248,"current_range_meters":3600,"station_id":"","pricing_plan_id":"cebpf4jnsgd1na2vs0mg"},{"bike_id":"05a33fd5-e436-4ad0-a907-865e546c41d5","system_id":"levelo_inurba_marseille","lat":43.22554,"lon":5.41613,"is_reserved":false,"is_disabled":true,"rental_uris":{"android":"levelo://app?vid=05a33fd5-e436-4ad0-a907-865e546c41d5","ios":"levelo://app?vid=05a33fd5-e436-4ad0-a907-865e546c41d5"},"vehicle_type_id":"4","last_reported":1777235248,"current_range_meters":3600,"station_id":"","pricing_plan_id":"cebpf4jnsgd1na2vs0mg"},{"bike_id":"b93d307e-6b48-4c68-b2cb-b25f77149e82","system_id":"levelo_inurba_marseille","lat":43.28871,"lon":5.42512,"is_reserved":false,"is_disabled":false,"rental_uris":{"android":"levelo://app?vid=b93d307e-6b48-4c68-b2cb-b25f77149e82","ios":"levelo://app?vid=b93d307e-6b48-4c68-b2cb-b25f77149e82"},"vehicle_type_id":"4","last_reported":1777235248,"current_range_meters":3600,"station_id":"st_d3b462108ojc7389ooeg","pricing_plan_id":"cebpf4jnsgd1na2vs0mg"},{"bike_id":"7abd70a9-dcbd-47c7-af45-1be719af15f8","system_id":"levelo_inurba_marseille","lat":43.25101,"lon":5.4033,"is_reserved":false,"is_disabled":true,"rental_uris":{"android":"levelo://app?vid=7abd70a9-dcbd-47c7-af45-1be719af15f8","ios":"levelo://app?vid=7abd70a9-dcbd-47c7-af45-1be719af15f8"},"vehicle_type_id":"4","last_reported":1777235248,"current_range_meters":4000,"station_id":"ce4bhlh2rcd13ifvqgig","pricing_plan_id":"cebpf4jnsgd1na2vs0mg"},{"bike_id":"70578acc-b935-4f77-be23-bcde1db99b26","system_id":"levelo_inurba_marseille","lat":43.29794,"lon":5.38155,"is_reserved":false,"is_disabled":false,"rental_uris":{"android":"levelo://app?vid=70578acc-b935-4f77-be23-bcde1db99b26","ios":"levelo://app?vid=70578acc-b935-4f77-be23-bcde1db99b26"},"vehicle_type_id":"4","last_reported":1777235248,"current_range_meters":4000,"station_id":"ce4bgip2rcd13ifvqbb0","pricing_plan_id":"cebpf4jnsgd1na2vs0mg"},{"bike_id":"7c10b491-62a6-4c75-af03-ae98058a0893","system_id":"levelo_inurba_marseille","lat":43.2509,"lon":5.39517,"is_reserved":false,"is_disabled":false,"rental_uris":{"android":"levelo://app?vid=7c10b491-62a6-4c75-af03-ae98058a0893","ios":"levelo://app?vid=7c10b491-62a6-4c75-af03-ae98058a0893"},"vehicle_type_id":"4","last_reported":1777235248,"current_range_meters":4000,"station_id":"ce4bhm12rcd13ifvqgkg","pricing_plan_id":"cebpf4jnsgd1na2vs0mg"},{"bike_id":"8a885835-e31d-408b-90f7-4ea42e668384","system_id":"levelo_inurba_marseille","lat":43.24812,"lon":5.37458,"is_reserved":false,"is_disabled":false,"rental_uris":{"android":"levelo://app?vid=8a885835-e31d-408b-90f7-4ea42e668384","ios":"levelo://app?vid=8a885835-e31d-408b-90f7-4ea42e668384"},"vehicle_type_id":"4","last_reported":1777235248,"current_range_meters":4000,"station_id":"ce4bhgh2rcd13ifvqfb0","pricing_plan_id":"cebpf4jnsgd1na2vs0mg"},{"bike_id":"d125b630-98c5-42c6-a860-2108eb676758","system_id":"levelo_inurba_marseille","lat":43.27503,"lon":5.42431,"is_reserved":false,"is_disabled":false,"rental_uris":{"android":"levelo://app?vid=d125b630-98c5-42c6-a860-2108eb676758","ios":"levelo://app?vid=d125b630-98c5-42c6-a860-2108eb676758"},"vehicle_type_id":"4","last_reported":1777235248,"current_range_meters":4000,"station_id":"ce4bhn92rcd13ifvqgrg","pricing_plan_id":"cebpf4jnsgd1na2vs0mg"},{"bike_id":"fea5a28c-0167-4a62-9062-e629ed9b3e8f","system_id":"levelo_inurba_marseille","lat":43.28472,"lon":5.48391,"is_reserved":false,"is_disabled":false,"rental_uris":{"android":"levelo://app?vid=fea5a28c-0167-4a62-9062-e629ed9b3e8f","ios":"levelo://app?vid=fea5a28c-0167-4a62-9062-e629ed9b3e8f"},"vehicle_type_id":"4","last_reported":1777235248,"current_range_meters":4000,"station_id":"st_d3svhcjqgbts73a3dn0g","pricing_plan_id":"cebpf4jnsgd1na2vs0mg"},{"bike_id":"5ede4240-13c7-4507-b400-b68b2e479d49","system_id":"levelo_inurba_marseille","lat":43.248,"lon":5.37463,"is_reserved":false,"is_disabled":false,"rental_uris":{"android":"levelo://app?vid=5ede4240-13c7-4507-b400-b68b2e479d49","ios":"levelo://app?vid=5ede4240-13c7-4507-b400-b68b2e479d49"},"vehicle_type_id":"4","last_reported":1777235248,"current_range_meters":4000,"station_id":"ce4bhgh2rcd13ifvqfb0","pricing_plan_id":"cebpf4jnsgd1na2vs0mg"},{"bike_id":"e79bde01-2f2e-4687-9114-2908a926683e","system_id":"levelo_inurba_marseille","lat":43.33495,"lon":5.37409,"is_reserved":false,"is_disabled":false,"rental_uris":{"android":"levelo://app?vid=e79bde01-2f2e-4687-9114-2908a926683e","ios":"levelo://app?vid=e79bde01-2f2e-4687-9114-2908a926683e"},"vehicle_type_id":"4","last_reported":1777235248,"current_range_meters":4000,"station_id":"st_d46tts09ee8s73dlu43g","pricing_plan_id":"cebpf4jnsgd1na2vs0mg"},{"bike_id":"1ccfe6f4-e5d4-4b33-812d-52bd4f628f2d","system_id":"levelo_inurba_marseille","lat":43.24842,"lon":5.37433,"is_reserved":false,"is_disabled":false,"rental_uris":{"android":"levelo://app?vid=1ccfe6f4-e5d4-4b33-812d-52bd4f628f2d","ios":"levelo://app?vid=1ccfe6f4-e5d4-4b33-812d-52bd4f628f2d"},"vehicle_type_id":"4","last_reported":1777235248,"current_range_meters":4000,"station_id":"","pricing_plan_id":"cebpf4jnsgd1na2vs0mg"},{"bike_id":"833d7be3-421b-4c5f-bc44-1a51dc01aed7","system_id":"levelo_inurba_marseille","lat":43.29696,"lon":5.37268,"is_reserved":false,"is_disabled":true,"rental_uris":{"android":"levelo://app?vid=833d7be3-421b-4c5f-bc44-1a51dc01aed7","ios":"levelo://app?vid=833d7be3-421b-4c5f-bc44-1a51dc01aed7"},"vehicle_type_id":"4","last_reported":1777235248,"current_range_meters":4000,"station_id":"ce4bgk12rcd13ifvqbj0","pricing_plan_id":"cebpf4jnsgd1na2vs0mg"},{"bike_id":"6161ede7-aa25-46de-a043-cdaf0b87397b","system_id":"levelo_inurba_marseille","lat":43.28797,"lon":5.38546,"is_reserved":false,"is_disabled":false,"rental_uris":{"android":"levelo://app?vid=6161ede7-aa25-46de-a043-cdaf0b87397b","ios":"levelo://app?vid=6161ede7-aa25-46de-a043-cdaf0b87397b"},"vehicle_type_id":"4","last_reported":1777235248,"current_range_meters":4000,"station_id":"","pricing_plan_id":"cebpf4jnsgd1na2vs0mg"},{"bike_id":"e3ba57d1-ceb8-4ff0-87c4-709556b98584","system_id":"levelo_inurba_marseille","lat":43.25874,"lon":5.39895,"is_reserved":false,"is_disabled":false,"rental_uris":{"android":"levelo://app?vid=e3ba57d1-ceb8-4ff0-87c4-709556b98584","ios":"levelo://app?vid=e3ba57d1-ceb8-4ff0-87c4-709556b98584"},"vehicle_type_id":"4","last_reported":1777235248,"current_range_meters":4000,"station_id":"ce4bhl92rcd13ifvqghg","pricing_plan_id":"cebpf4jnsgd1na2vs0mg"},{"bike_id":"d9913dbb-4dff-4544-8f9f-31189a1466e7","system_id":"levelo_inurba_marseille","lat":43.27069,"lon":5.42282,"is_reserved":false,"is_disabled":false,"rental_uris":{"android":"levelo://app?vid=d9913dbb-4dff-4544-8f9f-31189a1466e7","ios":"levelo://app?vid=d9913dbb-4dff-4544-8f9f-31189a1466e7"},"vehicle_type_id":"4","last_reported":1777235248,"current_range_meters":4000,"station_id":"ce4bhk92rcd13ifvqgb0","pricing_plan_id":"cebpf4jnsgd1na2vs0mg"},{"bike_id":"27cd71a7-0940-4415-a67f-21597fbf1cd9","system_id":"levelo_inurba_marseille","lat":43.34478,"lon":5.37816,"is_reserved":false,"is_disabled":false,"rental_uris":{"android":"levelo://app?vid=27cd71a7-0940-4415-a67f-21597fbf1cd9","ios":"levelo://app?vid=27cd71a7-0940-4415-a67f-21597fbf1cd9"},"vehicle_type_id":"4","last_reported":1777235248,"current_range_meters":4400,"station_id":"","pricing_plan_id":"cebpf4jnsgd1na2vs0mg"},{"bike_id":"a741ff1a-484b-4d8a-9c06-c4887c117baa","system_id":"levelo_inurba_marseille","lat":43.22532,"lon":5.34823,"is_reserved":false,"is_disabled":false,"rental_uris":{"android":"levelo://app?vid=a741ff1a-484b-4d8a-9c06-c4887c117baa","ios":"levelo://app?vid=a741ff1a-484b-4d8a-9c06-c4887c117baa"},"vehicle_type_id":"4","last_reported":1777235248,"current_range_meters":4400,"station_id":"st_cvj5dfep6f1abm77gieg","pricing_plan_id":"cebpf4jnsgd1na2vs0mg"},{"bike_id":"280e44ba-a3e7-47fe-bebd-5fa21fbb1c2f","system_id":"levelo_inurba_marseille","lat":43.298096,"lon":5.380895,"is_reserved":false,"is_disabled":false,"rental_uris":{"android":"levelo://app?vid=280e44ba-a3e7-47fe-bebd-5fa21fbb1c2f","ios":"levelo://app?vid=280e44ba-a3e7-47fe-bebd-5fa21fbb1c2f"},"vehicle_type_id":"4","last_reported":1777235248,"current_range_meters":4400,"station_id":"ce4bgip2rcd13ifvqbb0","pricing_plan_id":"cebpf4jnsgd1na2vs0mg"},{"bike_id":"26d26955-b302-4311-88a8-057f7b19117a","system_id":"levelo_inurba_marseille","lat":43.29652,"lon":5.36063,"is_reserved":false,"is_disabled":false,"rental_uris":{"android":"levelo://app?vid=26d26955-b302-4311-88a8-057f7b19117a","ios":"levelo://app?vid=26d26955-b302-4311-88a8-057f7b19117a"},"vehicle_type_id":"4","last_reported":1777235248,"current_range_meters":4400,"station_id":"","pricing_plan_id":"cebpf4jnsgd1na2vs0mg"},{"bike_id":"6e1201a5-31bc-4f83-9969-bb80b9621989","system_id":"levelo_inurba_marseille","lat":43.21748,"lon":5.34603,"is_reserved":false,"is_disabled":false,"rental_uris":{"android":"levelo://app?vid=6e1201a5-31bc-4f83-9969-bb80b9621989","ios":"levelo://app?vid=6e1201a5-31bc-4f83-9969-bb80b9621989"},"vehicle_type_id":"4","last_reported":1777235248,"current_range_meters":4400,"station_id":"st_cvj6r9ubvosntc0bgbag","pricing_plan_id":"cebpf4jnsgd1na2vs0mg"},{"bike_id":"e6b43fea-3eb0-4713-a471-ab15385659d6","system_id":"levelo_inurba_marseille","lat":43.23157,"lon":5.43724,"is_reserved":false,"is_disabled":false,"rental_uris":{"android":"levelo://app?vid=e6b43fea-3eb0-4713-a471-ab15385659d6","ios":"levelo://app?vid=e6b43fea-3eb0-4713-a471-ab15385659d6"},"vehicle_type_id":"4","last_reported":1777235248,"current_range_meters":4400,"station_id":"ce4bhmp2rcd13ifvqgog","pricing_plan_id":"cebpf4jnsgd1na2vs0mg"},{"bike_id":"237b1cc3-bd61-4d4b-988d-ffeec82480b9","system_id":"levelo_inurba_marseille","lat":43.27209,"lon":5.39177,"is_reserved":false,"is_disabled":false,"rental_uris":{"android":"levelo://app?vid=237b1cc3-bd61-4d4b-988d-ffeec82480b9","ios":"levelo://app?vid=237b1cc3-bd61-4d4b-988d-ffeec82480b9"},"vehicle_type_id":"4","last_reported":1777235248,"current_range_meters":4400,"station_id":"ce4bhhp2rcd13ifvqfm0","pricing_plan_id":"cebpf4jnsgd1na2vs0mg"},{"bike_id":"525cc68d-1699-4873-9530-66d1b5e6b837","system_id":"levelo_inurba_marseille","lat":43.29574,"lon":5.3998,"is_reserved":false,"is_disabled":false,"rental_uris":{"android":"levelo://app?vid=525cc68d-1699-4873-9530-66d1b5e6b837","ios":"levelo://app?vid=525cc68d-1699-4873-9530-66d1b5e6b837"},"vehicle_type_id":"4","last_reported":1777235248,"current_range_meters":4400,"station_id":"ce4bh312rcd13ifvqdj0","pricing_plan_id":"cebpf4jnsgd1na2vs0mg"},{"bike_id":"3a1dde76-eca1-4259-a733-fe668960caa8","system_id":"levelo_inurba_marseille","lat":43.24435,"lon":5.39111,"is_reserved":false,"is_disabled":false,"rental_uris":{"android":"levelo://app?vid=3a1dde76-eca1-4259-a733-fe668960caa8","ios":"levelo://app?vid=3a1dde76-eca1-4259-a733-fe668960caa8"},"vehicle_type_id":"4","last_reported":1777235248,"current_range_meters":4400,"station_id":"","pricing_plan_id":"cebpf4jnsgd1na2vs0mg"},{"bike_id":"e1892244-cebb-4a81-857c-58fcdc37537e","system_id":"levelo_inurba_marseille","lat":43.26802,"lon":5.40263,"is_reserved":false,"is_disabled":false,"rental_uris":{"android":"levelo://app?vid=e1892244-cebb-4a81-857c-58fcdc37537e","ios":"levelo://app?vid=e1892244-cebb-4a81-857c-58fcdc37537e"},"vehicle_type_id":"4","last_reported":1777235248,"current_range_meters":4400,"station_id":"ce501612rcd8frsf0b60","pricing_plan_id":"cebpf4jnsgd1na2vs0mg"},{"bike_id":"f33c6c9d-346a-4c73-9b31-f3ca6fe92254","system_id":"levelo_inurba_marseille","lat":43.29619,"lon":5.37709,"is_reserved":false,"is_disabled":true,"rental_uris":{"android":"levelo://app?vid=f33c6c9d-346a-4c73-9b31-f3ca6fe92254","ios":"levelo://app?vid=f33c6c9d-346a-4c73-9b31-f3ca6fe92254"},"vehicle_type_id":"4","last_reported":1777235248,"current_range_meters":4400,"station_id":"ce4bgi92rcd13ifvqb90","pricing_plan_id":"cebpf4jnsgd1na2vs0mg"},{"bike_id":"59b86623-ec45-4fb5-b9ba-bb71c4182853","system_id":"levelo_inurba_marseille","lat":43.27944,"lon":5.4104,"is_reserved":false,"is_disabled":false,"rental_uris":{"android":"levelo://app?vid=59b86623-ec45-4fb5-b9ba-bb71c4182853","ios":"levelo://app?vid=59b86623-ec45-4fb5-b9ba-bb71c4182853"},"vehicle_type_id":"4","last_reported":1777235248,"current_range_meters":4400,"station_id":"ce4bhnp2rcd13ifvqh0g","pricing_plan_id":"cebpf4jnsgd1na2vs0mg"},{"bike_id":"da4b3d62-d036-4c38-8338-4519c2b8d0ed","system_id":"levelo_inurba_marseille","lat":43.29261,"lon":5.38444,"is_reserved":false,"is_disabled":false,"rental_uris":{"android":"levelo://app?vid=da4b3d62-d036-4c38-8338-4519c2b8d0ed","ios":"levelo://app?vid=da4b3d62-d036-4c38-8338-4519c2b8d0ed"},"vehicle_type_id":"4","last_reported":1777235248,"current_range_meters":4800,"station_id":"ce4bh692rcd13ifvqea0","pricing_plan_id":"cebpf4jnsgd1na2vs0mg"},{"bike_id":"9a7c39d8-ef30-4694-b180-b6fe0a089530","system_id":"levelo_inurba_marseille","lat":43.30131,"lon":5.43107,"is_reserved":false,"is_disabled":false,"rental_uris":{"android":"levelo://app?vid=9a7c39d8-ef30-4694-b180-b6fe0a089530","ios":"levelo://app?vid=9a7c39d8-ef30-4694-b180-b6fe0a089530"},"vehicle_type_id":"4","last_reported":1777235248,"current_range_meters":4800,"station_id":"st_d3js3co5814s73ftftug","pricing_plan_id":"cebpf4jnsgd1na2vs0mg"},{"bike_id":"9762113e-a054-458e-a16d-f34215941270","system_id":"levelo_inurba_marseille","lat":43.29227,"lon":5.36072,"is_reserved":false,"is_disabled":true,"rental_uris":{"android":"levelo://app?vid=9762113e-a054-458e-a16d-f34215941270","ios":"levelo://app?vid=9762113e-a054-458e-a16d-f34215941270"},"vehicle_type_id":"4","last_reported":1777235248,"current_range_meters":4800,"station_id":"ce4bhbh2rcd13ifvqeqg","pricing_plan_id":"cebpf4jnsgd1na2vs0mg"},{"bike_id":"47be216e-98eb-430d-8e29-9078f3bbe9d8","system_id":"levelo_inurba_marseille","lat":43.27233,"lon":5.39202,"is_reserved":false,"is_disabled":false,"rental_uris":{"android":"levelo://app?vid=47be216e-98eb-430d-8e29-9078f3bbe9d8","ios":"levelo://app?vid=47be216e-98eb-430d-8e29-9078f3bbe9d8"},"vehicle_type_id":"4","last_reported":1777235248,"current_range_meters":4800,"station_id":"ce4bhhp2rcd13ifvqfm0","pricing_plan_id":"cebpf4jnsgd1na2vs0mg"},{"bike_id":"2732d384-73b3-4e71-8aef-9fc53fa974c1","system_id":"levelo_inurba_marseille","lat":43.27204,"lon":5.39181,"is_reserved":false,"is_disabled":false,"rental_uris":{"android":"levelo://app?vid=2732d384-73b3-4e71-8aef-9fc53fa974c1","ios":"levelo://app?vid=2732d384-73b3-4e71-8aef-9fc53fa974c1"},"vehicle_type_id":"4","last_reported":1777235248,"current_range_meters":4800,"station_id":"ce4bhhp2rcd13ifvqfm0","pricing_plan_id":"cebpf4jnsgd1na2vs0mg"},{"bike_id":"adfeb2f2-21a5-4adf-a92e-a60a7bb66934","system_id":"levelo_inurba_marseille","lat":43.29007,"lon":5.35607,"is_reserved":false,"is_disabled":true,"rental_uris":{"android":"levelo://app?vid=adfeb2f2-21a5-4adf-a92e-a60a7bb66934","ios":"levelo://app?vid=adfeb2f2-21a5-4adf-a92e-a60a7bb66934"},"vehicle_type_id":"4","last_reported":1777235248,"current_range_meters":4800,"station_id":"ce4bhb92rcd13ifvqen0","pricing_plan_id":"cebpf4jnsgd1na2vs0mg"},{"bike_id":"149148b8-a9d7-4a2f-af8f-79caef5c80f4","system_id":"levelo_inurba_marseille","lat":43.24546,"lon":5.39536,"is_reserved":false,"is_disabled":false,"rental_uris":{"android":"levelo://app?vid=149148b8-a9d7-4a2f-af8f-79caef5c80f4","ios":"levelo://app?vid=149148b8-a9d7-4a2f-af8f-79caef5c80f4"},"vehicle_type_id":"4","last_reported":1777235248,"current_range_meters":4800,"station_id":"ce4bhlp2rcd13ifvqgjg","pricing_plan_id":"cebpf4jnsgd1na2vs0mg"},{"bike_id":"724d0869-017c-4e7e-9911-705be0df09b1","system_id":"levelo_inurba_marseille","lat":43.31463,"lon":5.3738,"is_reserved":false,"is_disabled":false,"rental_uris":{"android":"levelo://app?vid=724d0869-017c-4e7e-9911-705be0df09b1","ios":"levelo://app?vid=724d0869-017c-4e7e-9911-705be0df09b1"},"vehicle_type_id":"4","last_reported":1777235248,"current_range_meters":4800,"station_id":"","pricing_plan_id":"cebpf4jnsgd1na2vs0mg"},{"bike_id":"10438bd8-d775-4916-ade5-76c224d1b136","system_id":"levelo_inurba_marseille","lat":43.30632,"lon":5.43639,"is_reserved":false,"is_disabled":false,"rental_uris":{"android":"levelo://app?vid=10438bd8-d775-4916-ade5-76c224d1b136","ios":"levelo://app?vid=10438bd8-d775-4916-ade5-76c224d1b136"},"vehicle_type_id":"4","last_reported":1777235248,"current_range_meters":4800,"station_id":"","pricing_plan_id":"cebpf4jnsgd1na2vs0mg"},{"bike_id":"8050b833-adef-43e8-8f24-94a8d1b4458b","system_id":"levelo_inurba_marseille","lat":43.27491,"lon":5.42448,"is_reserved":false,"is_disabled":true,"rental_uris":{"android":"levelo://app?vid=8050b833-adef-43e8-8f24-94a8d1b4458b","ios":"levelo://app?vid=8050b833-adef-43e8-8f24-94a8d1b4458b"},"vehicle_type_id":"4","last_reported":1777235248,"current_range_meters":4800,"station_id":"ce4bhn92rcd13ifvqgrg","pricing_plan_id":"cebpf4jnsgd1na2vs0mg"},{"bike_id":"e458cf0a-2d99-4a7e-863f-1966634292f9","system_id":"levelo_inurba_marseille","lat":43.3032,"lon":5.38927,"is_reserved":false,"is_disabled":false,"rental_uris":{"android":"levelo://app?vid=e458cf0a-2d99-4a7e-863f-1966634292f9","ios":"levelo://app?vid=e458cf0a-2d99-4a7e-863f-1966634292f9"},"vehicle_type_id":"4","last_reported":1777235248,"current_range_meters":4800,"station_id":"","pricing_plan_id":"cebpf4jnsgd1na2vs0mg"},{"bike_id":"609bdf4a-3601-4570-b4fa-c37eacc0db38","system_id":"levelo_inurba_marseille","lat":43.27186,"lon":5.40996,"is_reserved":false,"is_disabled":false,"rental_uris":{"android":"levelo://app?vid=609bdf4a-3601-4570-b4fa-c37eacc0db38","ios":"levelo://app?vid=609bdf4a-3601-4570-b4fa-c37eacc0db38"},"vehicle_type_id":"4","last_reported":1777235248,"current_range_meters":4800,"station_id":"ce4bhl12rcd13ifvqgf0","pricing_plan_id":"cebpf4jnsgd1na2vs0mg"},{"bike_id":"d69ab212-ffb8-4a8b-90ee-17b557a02c96","system_id":"levelo_inurba_marseille","lat":43.29072,"lon":5.37138,"is_reserved":false,"is_disabled":false,"rental_uris":{"android":"levelo://app?vid=d69ab212-ffb8-4a8b-90ee-17b557a02c96","ios":"levelo://app?vid=d69ab212-ffb8-4a8b-90ee-17b557a02c96"},"vehicle_type_id":"4","last_reported":1777235248,"current_range_meters":4800,"station_id":"ce4bh5p2rcd13ifvqe4g","pricing_plan_id":"cebpf4jnsgd1na2vs0mg"},{"bike_id":"35c7ecbe-2b6e-4d53-86f9-2f7937eb4999","system_id":"levelo_inurba_marseille","lat":43.31252,"lon":5.36872,"is_reserved":false,"is_disabled":false,"rental_uris":{"android":"levelo://app?vid=35c7ecbe-2b6e-4d53-86f9-2f7937eb4999","ios":"levelo://app?vid=35c7ecbe-2b6e-4d53-86f9-2f7937eb4999"},"vehicle_type_id":"4","last_reported":1777235248,"current_range_meters":5600,"station_id":"ce4bgl92rcd13ifvqbq0","pricing_plan_id":"cebpf4jnsgd1na2vs0mg"},{"bike_id":"4d4d7b81-0959-47e3-8042-317edf1ea1fb","system_id":"levelo_inurba_marseille","lat":43.30881,"lon":5.39579,"is_reserved":false,"is_disabled":false,"rental_uris":{"android":"levelo://app?vid=4d4d7b81-0959-47e3-8042-317edf1ea1fb","ios":"levelo://app?vid=4d4d7b81-0959-47e3-8042-317edf1ea1fb"},"vehicle_type_id":"4","last_reported":1777235248,"current_range_meters":5600,"station_id":"","pricing_plan_id":"cebpf4jnsgd1na2vs0mg"},{"bike_id":"8072cacb-a3e8-46da-82ae-1b43a1fd8ce5","system_id":"levelo_inurba_marseille","lat":43.27831,"lon":5.40711,"is_reserved":false,"is_disabled":false,"rental_uris":{"android":"levelo://app?vid=8072cacb-a3e8-46da-82ae-1b43a1fd8ce5","ios":"levelo://app?vid=8072cacb-a3e8-46da-82ae-1b43a1fd8ce5"},"vehicle_type_id":"4","last_reported":1777235248,"current_range_meters":5600,"station_id":"ce4bhnh2rcd13ifvqgtg","pricing_plan_id":"cebpf4jnsgd1na2vs0mg"},{"bike_id":"6f5fe14d-f920-4085-b2c7-9be3a39a1eca","system_id":"levelo_inurba_marseille","lat":43.30355,"lon":5.41872,"is_reserved":false,"is_disabled":false,"rental_uris":{"android":"levelo://app?vid=6f5fe14d-f920-4085-b2c7-9be3a39a1eca","ios":"levelo://app?vid=6f5fe14d-f920-4085-b2c7-9be3a39a1eca"},"vehicle_type_id":"4","last_reported":1777235248,"current_range_meters":5600,"station_id":"ce4bhop2rcd13ifvqh7g","pricing_plan_id":"cebpf4jnsgd1na2vs0mg"},{"bike_id":"6b60b3c8-da35-492c-9411-418199a97ad7","system_id":"levelo_inurba_marseille","lat":43.28479,"lon":5.48385,"is_reserved":false,"is_disabled":false,"rental_uris":{"android":"levelo://app?vid=6b60b3c8-da35-492c-9411-418199a97ad7","ios":"levelo://app?vid=6b60b3c8-da35-492c-9411-418199a97ad7"},"vehicle_type_id":"4","last_reported":1777235248,"current_range_meters":5600,"station_id":"","pricing_plan_id":"cebpf4jnsgd1na2vs0mg"},{"bike_id":"085eefc3-42b6-4e5f-8fa3-5e096f60ac23","system_id":"levelo_inurba_marseille","lat":43.21787,"lon":5.34596,"is_reserved":false,"is_disabled":true,"rental_uris":{"android":"levelo://app?vid=085eefc3-42b6-4e5f-8fa3-5e096f60ac23","ios":"levelo://app?vid=085eefc3-42b6-4e5f-8fa3-5e096f60ac23"},"vehicle_type_id":"4","last_reported":1777235248,"current_range_meters":5600,"station_id":"","pricing_plan_id":"cebpf4jnsgd1na2vs0mg"},{"bike_id":"100567fc-916a-43d9-a696-e8a8e9bad664","system_id":"levelo_inurba_marseille","lat":43.29534,"lon":5.38539,"is_reserved":false,"is_disabled":false,"rental_uris":{"android":"levelo://app?vid=100567fc-916a-43d9-a696-e8a8e9bad664","ios":"levelo://app?vid=100567fc-916a-43d9-a696-e8a8e9bad664"},"vehicle_type_id":"4","last_reported":1777235248,"current_range_meters":5600,"station_id":"ce4bgih2rcd13ifvqba0","pricing_plan_id":"cebpf4jnsgd1na2vs0mg"},{"bike_id":"e6e0181d-d51b-42d7-93b1-7e8f4d00629c","system_id":"levelo_inurba_marseille","lat":43.2984,"lon":5.42015,"is_reserved":false,"is_disabled":true,"rental_uris":{"android":"levelo://app?vid=e6e0181d-d51b-42d7-93b1-7e8f4d00629c","ios":"levelo://app?vid=e6e0181d-d51b-42d7-93b1-7e8f4d00629c"},"vehicle_type_id":"4","last_reported":1777235248,"current_range_meters":5600,"station_id":"","pricing_plan_id":"cebpf4jnsgd1na2vs0mg"},{"bike_id":"e005198e-4e32-4e98-ade1-015e3f596d9d","system_id":"levelo_inurba_marseille","lat":43.29216,"lon":5.36043,"is_reserved":false,"is_disabled":true,"rental_uris":{"android":"levelo://app?vid=e005198e-4e32-4e98-ade1-015e3f596d9d","ios":"levelo://app?vid=e005198e-4e32-4e98-ade1-015e3f596d9d"},"vehicle_type_id":"4","last_reported":1777235248,"current_range_meters":5600,"station_id":"ce4bhbh2rcd13ifvqeqg","pricing_plan_id":"cebpf4jnsgd1na2vs0mg"},{"bike_id":"a2a7b74e-a52b-423a-b523-a917655e77fa","system_id":"levelo_inurba_marseille","lat":43.2838,"lon":5.38629,"is_reserved":false,"is_disabled":false,"rental_uris":{"android":"levelo://app?vid=a2a7b74e-a52b-423a-b523-a917655e77fa","ios":"levelo://app?vid=a2a7b74e-a52b-423a-b523-a917655e77fa"},"vehicle_type_id":"4","last_reported":1777235248,"current_range_meters":5600,"station_id":"ce4bh492rcd13ifvqdvg","pricing_plan_id":"cebpf4jnsgd1na2vs0mg"},{"bike_id":"fda983b3-301e-40f3-bb07-e5c67ab620e4","system_id":"levelo_inurba_marseille","lat":43.25054,"lon":5.40443,"is_reserved":false,"is_disabled":false,"rental_uris":{"android":"levelo://app?vid=fda983b3-301e-40f3-bb07-e5c67ab620e4","ios":"levelo://app?vid=fda983b3-301e-40f3-bb07-e5c67ab620e4"},"vehicle_type_id":"4","last_reported":1777235248,"current_range_meters":5600,"station_id":"","pricing_plan_id":"cebpf4jnsgd1na2vs0mg"},{"bike_id":"d054276e-6372-4793-ae37-6281dafb78f8","system_id":"levelo_inurba_marseille","lat":43.3376,"lon":5.37435,"is_reserved":false,"is_disabled":false,"rental_uris":{"android":"levelo://app?vid=d054276e-6372-4793-ae37-6281dafb78f8","ios":"levelo://app?vid=d054276e-6372-4793-ae37-6281dafb78f8"},"vehicle_type_id":"4","last_reported":1777235248,"current_range_meters":5600,"station_id":"","pricing_plan_id":"cebpf4jnsgd1na2vs0mg"},{"bike_id":"aa94e2ef-cd2f-4664-9f81-83382acd3bb1","system_id":"levelo_inurba_marseille","lat":43.29034,"lon":5.38106,"is_reserved":false,"is_disabled":false,"rental_uris":{"android":"levelo://app?vid=aa94e2ef-cd2f-4664-9f81-83382acd3bb1","ios":"levelo://app?vid=aa94e2ef-cd2f-4664-9f81-83382acd3bb1"},"vehicle_type_id":"4","last_reported":1777235248,"current_range_meters":6000,"station_id":"ce4bh4p2rcd13ifvqe1g","pricing_plan_id":"cebpf4jnsgd1na2vs0mg"},{"bike_id":"5fdff1d7-b2d7-4e39-ad7f-00ed09411d1d","system_id":"levelo_inurba_marseille","lat":43.28456,"lon":5.48401,"is_reserved":false,"is_disabled":false,"rental_uris":{"android":"levelo://app?vid=5fdff1d7-b2d7-4e39-ad7f-00ed09411d1d","ios":"levelo://app?vid=5fdff1d7-b2d7-4e39-ad7f-00ed09411d1d"},"vehicle_type_id":"4","last_reported":1777235248,"current_range_meters":6000,"station_id":"st_d3svhcjqgbts73a3dn0g","pricing_plan_id":"cebpf4jnsgd1na2vs0mg"},{"bike_id":"757fdfcb-45d7-4c45-8e18-f9ab346e8260","system_id":"levelo_inurba_marseille","lat":43.24657,"lon":5.39808,"is_reserved":false,"is_disabled":false,"rental_uris":{"android":"levelo://app?vid=757fdfcb-45d7-4c45-8e18-f9ab346e8260","ios":"levelo://app?vid=757fdfcb-45d7-4c45-8e18-f9ab346e8260"},"vehicle_type_id":"4","last_reported":1777235248,"current_range_meters":6000,"station_id":"","pricing_plan_id":"cebpf4jnsgd1na2vs0mg"},{"bike_id":"01837e88-2797-49da-92ba-849f618f5203","system_id":"levelo_inurba_marseille","lat":43.29966,"lon":5.37185,"is_reserved":false,"is_disabled":false,"rental_uris":{"android":"levelo://app?vid=01837e88-2797-49da-92ba-849f618f5203","ios":"levelo://app?vid=01837e88-2797-49da-92ba-849f618f5203"},"vehicle_type_id":"4","last_reported":1777235248,"current_range_meters":6000,"station_id":"ce4bgr92rcd13ifvqc7g","pricing_plan_id":"cebpf4jnsgd1na2vs0mg"},{"bike_id":"b62d7568-dc51-42cc-a6fe-2f91dbbabb67","system_id":"levelo_inurba_marseille","lat":43.28691,"lon":5.37403,"is_reserved":false,"is_disabled":false,"rental_uris":{"android":"levelo://app?vid=b62d7568-dc51-42cc-a6fe-2f91dbbabb67","ios":"levelo://app?vid=b62d7568-dc51-42cc-a6fe-2f91dbbabb67"},"vehicle_type_id":"4","last_reported":1777235248,"current_range_meters":6000,"station_id":"ce4bh3p2rcd13ifvqdq0","pricing_plan_id":"cebpf4jnsgd1na2vs0mg"},{"bike_id":"cca7f69c-b52c-4ab4-a550-bce4482b5936","system_id":"levelo_inurba_marseille","lat":43.27211,"lon":5.3919,"is_reserved":false,"is_disabled":false,"rental_uris":{"android":"levelo://app?vid=cca7f69c-b52c-4ab4-a550-bce4482b5936","ios":"levelo://app?vid=cca7f69c-b52c-4ab4-a550-bce4482b5936"},"vehicle_type_id":"4","last_reported":1777235248,"current_range_meters":6000,"station_id":"ce4bhhp2rcd13ifvqfm0","pricing_plan_id":"cebpf4jnsgd1na2vs0mg"},{"bike_id":"6cf3a600-b22f-4888-b1ea-a099526102d1","system_id":"levelo_inurba_marseille","lat":43.24657,"lon":5.38156,"is_reserved":false,"is_disabled":false,"rental_uris":{"android":"levelo://app?vid=6cf3a600-b22f-4888-b1ea-a099526102d1","ios":"levelo://app?vid=6cf3a600-b22f-4888-b1ea-a099526102d1"},"vehicle_type_id":"4","last_reported":1777235248,"current_range_meters":6000,"station_id":"ce4bhih2rcd13ifvqfr0","pricing_plan_id":"cebpf4jnsgd1na2vs0mg"},{"bike_id":"8df08dde-c99b-4a06-bad4-b5da5d18e29f","system_id":"levelo_inurba_marseille","lat":43.23893,"lon":5.37462,"is_reserved":false,"is_disabled":false,"rental_uris":{"android":"levelo://app?vid=8df08dde-c99b-4a06-bad4-b5da5d18e29f","ios":"levelo://app?vid=8df08dde-c99b-4a06-bad4-b5da5d18e29f"},"vehicle_type_id":"4","last_reported":1777235248,"current_range_meters":6000,"station_id":"st_d6sm7csbq4hs73f8fpjg","pricing_plan_id":"cebpf4jnsgd1na2vs0mg"},{"bike_id":"be3dbaca-317c-43ef-8335-8f03df566046","system_id":"levelo_inurba_marseille","lat":43.28475,"lon":5.48394,"is_reserved":false,"is_disabled":true,"rental_uris":{"android":"levelo://app?vid=be3dbaca-317c-43ef-8335-8f03df566046","ios":"levelo://app?vid=be3dbaca-317c-43ef-8335-8f03df566046"},"vehicle_type_id":"4","last_reported":1777235248,"current_range_meters":6000,"station_id":"st_d3svhcjqgbts73a3dn0g","pricing_plan_id":"cebpf4jnsgd1na2vs0mg"},{"bike_id":"bcf63076-a1dc-4e68-b80f-d2f74e0a4ebe","system_id":"levelo_inurba_marseille","lat":43.2481,"lon":5.37459,"is_reserved":false,"is_disabled":false,"rental_uris":{"android":"levelo://app?vid=bcf63076-a1dc-4e68-b80f-d2f74e0a4ebe","ios":"levelo://app?vid=bcf63076-a1dc-4e68-b80f-d2f74e0a4ebe"},"vehicle_type_id":"4","last_reported":1777235248,"current_range_meters":6000,"station_id":"ce4bhgh2rcd13ifvqfb0","pricing_plan_id":"cebpf4jnsgd1na2vs0mg"},{"bike_id":"4f0afdcb-c407-47bc-8d34-61dbe93fa031","system_id":"levelo_inurba_marseille","lat":43.27064,"lon":5.40259,"is_reserved":false,"is_disabled":false,"rental_uris":{"android":"levelo://app?vid=4f0afdcb-c407-47bc-8d34-61dbe93fa031","ios":"levelo://app?vid=4f0afdcb-c407-47bc-8d34-61dbe93fa031"},"vehicle_type_id":"4","last_reported":1777235248,"current_range_meters":6000,"station_id":"ce4bhk92rcd13ifvqgc0","pricing_plan_id":"cebpf4jnsgd1na2vs0mg"},{"bike_id":"39c6c4d6-7555-4b53-ad56-337ccc229a3f","system_id":"levelo_inurba_marseille","lat":43.30747,"lon":5.42457,"is_reserved":false,"is_disabled":false,"rental_uris":{"android":"levelo://app?vid=39c6c4d6-7555-4b53-ad56-337ccc229a3f","ios":"levelo://app?vid=39c6c4d6-7555-4b53-ad56-337ccc229a3f"},"vehicle_type_id":"4","last_reported":1777235248,"current_range_meters":6000,"station_id":"st_cvj6ca6bvosntc0bfgr0","pricing_plan_id":"cebpf4jnsgd1na2vs0mg"},{"bike_id":"0bba0381-6f31-4bcb-a371-7437780e58eb","system_id":"levelo_inurba_marseille","lat":43.26809,"lon":5.40275,"is_reserved":false,"is_disabled":false,"rental_uris":{"android":"levelo://app?vid=0bba0381-6f31-4bcb-a371-7437780e58eb","ios":"levelo://app?vid=0bba0381-6f31-4bcb-a371-7437780e58eb"},"vehicle_type_id":"4","last_reported":1777235248,"current_range_meters":6000,"station_id":"ce501612rcd8frsf0b60","pricing_plan_id":"cebpf4jnsgd1na2vs0mg"},{"bike_id":"b7166d00-058e-4f8a-ac08-8d7664362d9a","system_id":"levelo_inurba_marseille","lat":43.26541,"lon":5.37278,"is_reserved":false,"is_disabled":true,"rental_uris":{"android":"levelo://app?vid=b7166d00-058e-4f8a-ac08-8d7664362d9a","ios":"levelo://app?vid=b7166d00-058e-4f8a-ac08-8d7664362d9a"},"vehicle_type_id":"4","last_reported":1777235248,"current_range_meters":6000,"station_id":"ce4bhg12rcd13ifvqf70","pricing_plan_id":"cebpf4jnsgd1na2vs0mg"},{"bike_id":"d7ab8b3a-9cb6-4a2f-bbf2-9e4c05faf2f9","system_id":"levelo_inurba_marseille","lat":43.29199,"lon":5.39346,"is_reserved":false,"is_disabled":false,"rental_uris":{"android":"levelo://app?vid=d7ab8b3a-9cb6-4a2f-bbf2-9e4c05faf2f9","ios":"levelo://app?vid=d7ab8b3a-9cb6-4a2f-bbf2-9e4c05faf2f9"},"vehicle_type_id":"4","last_reported":1777235248,"current_range_meters":6000,"station_id":"ce4bh192rcd13ifvqdd0","pricing_plan_id":"cebpf4jnsgd1na2vs0mg"},{"bike_id":"e4ee3a40-01da-43d7-a40b-2b1b6473b843","system_id":"levelo_inurba_marseille","lat":43.27701,"lon":5.38879,"is_reserved":false,"is_disabled":false,"rental_uris":{"android":"levelo://app?vid=e4ee3a40-01da-43d7-a40b-2b1b6473b843","ios":"levelo://app?vid=e4ee3a40-01da-43d7-a40b-2b1b6473b843"},"vehicle_type_id":"4","last_reported":1777235248,"current_range_meters":6000,"station_id":"ce4bhi12rcd13ifvqfo0","pricing_plan_id":"cebpf4jnsgd1na2vs0mg"},{"bike_id":"4b32f071-0100-42f3-86a6-75183edbe4cf","system_id":"levelo_inurba_marseille","lat":43.26938,"lon":5.4025,"is_reserved":false,"is_disabled":false,"rental_uris":{"android":"levelo://app?vid=4b32f071-0100-42f3-86a6-75183edbe4cf","ios":"levelo://app?vid=4b32f071-0100-42f3-86a6-75183edbe4cf"},"vehicle_type_id":"4","last_reported":1777235248,"current_range_meters":6000,"station_id":"cjm6bp8fraef2m0cb0m0","pricing_plan_id":"cebpf4jnsgd1na2vs0mg"},{"bike_id":"76e100a0-77f6-48f6-b3d7-3eb9a98d4d51","system_id":"levelo_inurba_marseille","lat":43.29183,"lon":5.39325,"is_reserved":false,"is_disabled":false,"rental_uris":{"android":"levelo://app?vid=76e100a0-77f6-48f6-b3d7-3eb9a98d4d51","ios":"levelo://app?vid=76e100a0-77f6-48f6-b3d7-3eb9a98d4d51"},"vehicle_type_id":"4","last_reported":1777235248,"current_range_meters":6000,"station_id":"ce4bh192rcd13ifvqdd0","pricing_plan_id":"cebpf4jnsgd1na2vs0mg"},{"bike_id":"a04ab4c7-ba98-45c6-b83e-a919e77931f8","system_id":"levelo_inurba_marseille","lat":43.24667,"lon":5.38157,"is_reserved":false,"is_disabled":false,"rental_uris":{"android":"levelo://app?vid=a04ab4c7-ba98-45c6-b83e-a919e77931f8","ios":"levelo://app?vid=a04ab4c7-ba98-45c6-b83e-a919e77931f8"},"vehicle_type_id":"4","last_reported":1777235248,"current_range_meters":6000,"station_id":"ce4bhih2rcd13ifvqfr0","pricing_plan_id":"cebpf4jnsgd1na2vs0mg"},{"bike_id":"3d10e103-a0fc-426b-8d1f-1e274ab613f1","system_id":"levelo_inurba_marseille","lat":43.27677,"lon":5.38925,"is_reserved":false,"is_disabled":false,"rental_uris":{"android":"levelo://app?vid=3d10e103-a0fc-426b-8d1f-1e274ab613f1","ios":"levelo://app?vid=3d10e103-a0fc-426b-8d1f-1e274ab613f1"},"vehicle_type_id":"4","last_reported":1777235248,"current_range_meters":6000,"station_id":"ce4bhi12rcd13ifvqfo0","pricing_plan_id":"cebpf4jnsgd1na2vs0mg"},{"bike_id":"4260f12f-7785-4ae6-848f-7e5a2687171e","system_id":"levelo_inurba_marseille","lat":43.29719,"lon":5.37686,"is_reserved":false,"is_disabled":true,"rental_uris":{"android":"levelo://app?vid=4260f12f-7785-4ae6-848f-7e5a2687171e","ios":"levelo://app?vid=4260f12f-7785-4ae6-848f-7e5a2687171e"},"vehicle_type_id":"4","last_reported":1777235248,"current_range_meters":6000,"station_id":"ce4bgkh2rcd13ifvqbl0","pricing_plan_id":"cebpf4jnsgd1na2vs0mg"},{"bike_id":"6cd61416-dc97-4a30-89cd-d3e20ec9e3b5","system_id":"levelo_inurba_marseille","lat":43.28698,"lon":5.37944,"is_reserved":false,"is_disabled":false,"rental_uris":{"android":"levelo://app?vid=6cd61416-dc97-4a30-89cd-d3e20ec9e3b5","ios":"levelo://app?vid=6cd61416-dc97-4a30-89cd-d3e20ec9e3b5"},"vehicle_type_id":"4","last_reported":1777235248,"current_range_meters":6400,"station_id":"ce4bh9p2rcd13ifvqec0","pricing_plan_id":"cebpf4jnsgd1na2vs0mg"},{"bike_id":"5367fafd-42a5-4c52-bd35-5d85953af91c","system_id":"levelo_inurba_marseille","lat":43.30759,"lon":5.37142,"is_reserved":false,"is_disabled":true,"rental_uris":{"android":"levelo://app?vid=5367fafd-42a5-4c52-bd35-5d85953af91c","ios":"levelo://app?vid=5367fafd-42a5-4c52-bd35-5d85953af91c"},"vehicle_type_id":"4","last_reported":1777235248,"current_range_meters":6400,"station_id":"","pricing_plan_id":"cebpf4jnsgd1na2vs0mg"},{"bike_id":"494fd0fc-3b39-4504-a26b-321afbf22977","system_id":"levelo_inurba_marseille","lat":43.23843,"lon":5.3858,"is_reserved":false,"is_disabled":false,"rental_uris":{"android":"levelo://app?vid=494fd0fc-3b39-4504-a26b-321afbf22977","ios":"levelo://app?vid=494fd0fc-3b39-4504-a26b-321afbf22977"},"vehicle_type_id":"4","last_reported":1777235248,"current_range_meters":6400,"station_id":"","pricing_plan_id":"cebpf4jnsgd1na2vs0mg"},{"bike_id":"1fa7c290-baf4-43ed-aa99-7181dabef99e","system_id":"levelo_inurba_marseille","lat":43.33549,"lon":5.37464,"is_reserved":false,"is_disabled":false,"rental_uris":{"android":"levelo://app?vid=1fa7c290-baf4-43ed-aa99-7181dabef99e","ios":"levelo://app?vid=1fa7c290-baf4-43ed-aa99-7181dabef99e"},"vehicle_type_id":"4","last_reported":1777235248,"current_range_meters":6400,"station_id":"st_d46tts09ee8s73dlu43g","pricing_plan_id":"cebpf4jnsgd1na2vs0mg"},{"bike_id":"01919094-b3d3-4c5b-8fe4-d05c602331a9","system_id":"levelo_inurba_marseille","lat":43.29101,"lon":5.38113,"is_reserved":false,"is_disabled":false,"rental_uris":{"android":"levelo://app?vid=01919094-b3d3-4c5b-8fe4-d05c602331a9","ios":"levelo://app?vid=01919094-b3d3-4c5b-8fe4-d05c602331a9"},"vehicle_type_id":"4","last_reported":1777235248,"current_range_meters":6400,"station_id":"ce4bh512rcd13ifvqe2g","pricing_plan_id":"cebpf4jnsgd1na2vs0mg"},{"bike_id":"eaacdb91-1c5b-4303-af36-dd942656ca09","system_id":"levelo_inurba_marseille","lat":43.25833,"lon":5.39418,"is_reserved":false,"is_disabled":false,"rental_uris":{"android":"levelo://app?vid=eaacdb91-1c5b-4303-af36-dd942656ca09","ios":"levelo://app?vid=eaacdb91-1c5b-4303-af36-dd942656ca09"},"vehicle_type_id":"4","last_reported":1777235248,"current_range_meters":6400,"station_id":"ce4bhip2rcd13ifvqft0","pricing_plan_id":"cebpf4jnsgd1na2vs0mg"},{"bike_id":"8e2981d0-7056-481f-8585-5b3ecb4b783a","system_id":"levelo_inurba_marseille","lat":43.2175,"lon":5.34598,"is_reserved":false,"is_disabled":false,"rental_uris":{"android":"levelo://app?vid=8e2981d0-7056-481f-8585-5b3ecb4b783a","ios":"levelo://app?vid=8e2981d0-7056-481f-8585-5b3ecb4b783a"},"vehicle_type_id":"4","last_reported":1777235248,"current_range_meters":6400,"station_id":"st_cvj6r9ubvosntc0bgbag","pricing_plan_id":"cebpf4jnsgd1na2vs0mg"},{"bike_id":"10e1513f-1fcb-4ca7-b25d-8619fcf793cb","system_id":"levelo_inurba_marseille","lat":43.26945,"lon":5.38632,"is_reserved":false,"is_disabled":false,"rental_uris":{"android":"levelo://app?vid=10e1513f-1fcb-4ca7-b25d-8619fcf793cb","ios":"levelo://app?vid=10e1513f-1fcb-4ca7-b25d-8619fcf793cb"},"vehicle_type_id":"4","last_reported":1777235248,"current_range_meters":6400,"station_id":"ce4bhh92rcd13ifvqfh0","pricing_plan_id":"cebpf4jnsgd1na2vs0mg"},{"bike_id":"5c63a3a7-16b2-4ef9-bea3-2e7ad948ae2e","system_id":"levelo_inurba_marseille","lat":43.29189,"lon":5.39334,"is_reserved":false,"is_disabled":false,"rental_uris":{"android":"levelo://app?vid=5c63a3a7-16b2-4ef9-bea3-2e7ad948ae2e","ios":"levelo://app?vid=5c63a3a7-16b2-4ef9-bea3-2e7ad948ae2e"},"vehicle_type_id":"4","last_reported":1777235248,"current_range_meters":6400,"station_id":"ce4bh192rcd13ifvqdd0","pricing_plan_id":"cebpf4jnsgd1na2vs0mg"},{"bike_id":"a7de89e0-f425-497e-abb6-9d629f7ff9c8","system_id":"levelo_inurba_marseille","lat":43.31522,"lon":5.37288,"is_reserved":false,"is_disabled":false,"rental_uris":{"android":"levelo://app?vid=a7de89e0-f425-497e-abb6-9d629f7ff9c8","ios":"levelo://app?vid=a7de89e0-f425-497e-abb6-9d629f7ff9c8"},"vehicle_type_id":"4","last_reported":1777235248,"current_range_meters":6400,"station_id":"ce4bgt12rcd13ifvqcd0","pricing_plan_id":"cebpf4jnsgd1na2vs0mg"},{"bike_id":"07dd1776-73df-417c-87ab-2ed61da40beb","system_id":"levelo_inurba_marseille","lat":43.28352,"lon":5.38121,"is_reserved":false,"is_disabled":false,"rental_uris":{"android":"levelo://app?vid=07dd1776-73df-417c-87ab-2ed61da40beb","ios":"levelo://app?vid=07dd1776-73df-417c-87ab-2ed61da40beb"},"vehicle_type_id":"4","last_reported":1777235248,"current_range_meters":6400,"station_id":"ce4bh412rcd13ifvqdr0","pricing_plan_id":"cebpf4jnsgd1na2vs0mg"},{"bike_id":"26a62a61-8e4f-40f3-95ea-efd724fad07c","system_id":"levelo_inurba_marseille","lat":43.26927,"lon":5.4025,"is_reserved":false,"is_disabled":false,"rental_uris":{"android":"levelo://app?vid=26a62a61-8e4f-40f3-95ea-efd724fad07c","ios":"levelo://app?vid=26a62a61-8e4f-40f3-95ea-efd724fad07c"},"vehicle_type_id":"4","last_reported":1777235248,"current_range_meters":6400,"station_id":"cjm6bp8fraef2m0cb0m0","pricing_plan_id":"cebpf4jnsgd1na2vs0mg"},{"bike_id":"4b43a537-0025-4181-b3f0-3f1fa031f295","system_id":"levelo_inurba_marseille","lat":43.24402,"lon":5.37086,"is_reserved":false,"is_disabled":false,"rental_uris":{"android":"levelo://app?vid=4b43a537-0025-4181-b3f0-3f1fa031f295","ios":"levelo://app?vid=4b43a537-0025-4181-b3f0-3f1fa031f295"},"vehicle_type_id":"4","last_reported":1777235248,"current_range_meters":6800,"station_id":"ce4bhhh2rcd13ifvqfk0","pricing_plan_id":"cebpf4jnsgd1na2vs0mg"},{"bike_id":"274b41c4-8b16-47b0-9c85-d9e012646b67","system_id":"levelo_inurba_marseille","lat":43.2293,"lon":5.35371,"is_reserved":false,"is_disabled":true,"rental_uris":{"android":"levelo://app?vid=274b41c4-8b16-47b0-9c85-d9e012646b67","ios":"levelo://app?vid=274b41c4-8b16-47b0-9c85-d9e012646b67"},"vehicle_type_id":"4","last_reported":1777235248,"current_range_meters":6800,"station_id":"cpo3532slgdg3j2ikp40","pricing_plan_id":"cebpf4jnsgd1na2vs0mg"},{"bike_id":"5c180de8-9c17-4b87-a3cf-6c2cc4bfc770","system_id":"levelo_inurba_marseille","lat":43.28387,"lon":5.37508,"is_reserved":false,"is_disabled":false,"rental_uris":{"android":"levelo://app?vid=5c180de8-9c17-4b87-a3cf-6c2cc4bfc770","ios":"levelo://app?vid=5c180de8-9c17-4b87-a3cf-6c2cc4bfc770"},"vehicle_type_id":"4","last_reported":1777235248,"current_range_meters":6800,"station_id":"ce4bh412rcd13ifvqds0","pricing_plan_id":"cebpf4jnsgd1na2vs0mg"},{"bike_id":"562bd47d-ef94-4d9d-a6bd-dee5a03b4ec0","system_id":"levelo_inurba_marseille","lat":43.2694,"lon":5.4024,"is_reserved":false,"is_disabled":false,"rental_uris":{"android":"levelo://app?vid=562bd47d-ef94-4d9d-a6bd-dee5a03b4ec0","ios":"levelo://app?vid=562bd47d-ef94-4d9d-a6bd-dee5a03b4ec0"},"vehicle_type_id":"4","last_reported":1777235248,"current_range_meters":6800,"station_id":"cjm6bp8fraef2m0cb0m0","pricing_plan_id":"cebpf4jnsgd1na2vs0mg"},{"bike_id":"e2f51600-33fe-431c-98e3-4eec6b43618f","system_id":"levelo_inurba_marseille","lat":43.2848,"lon":5.38424,"is_reserved":false,"is_disabled":false,"rental_uris":{"android":"levelo://app?vid=e2f51600-33fe-431c-98e3-4eec6b43618f","ios":"levelo://app?vid=e2f51600-33fe-431c-98e3-4eec6b43618f"},"vehicle_type_id":"4","last_reported":1777235248,"current_range_meters":6800,"station_id":"ce4bh512rcd13ifvqe3g","pricing_plan_id":"cebpf4jnsgd1na2vs0mg"},{"bike_id":"fb350924-3b39-4197-a891-8208914eef37","system_id":"levelo_inurba_marseille","lat":43.24783,"lon":5.37485,"is_reserved":false,"is_disabled":false,"rental_uris":{"android":"levelo://app?vid=fb350924-3b39-4197-a891-8208914eef37","ios":"levelo://app?vid=fb350924-3b39-4197-a891-8208914eef37"},"vehicle_type_id":"4","last_reported":1777235248,"current_range_meters":6800,"station_id":"ce4bhgh2rcd13ifvqfb0","pricing_plan_id":"cebpf4jnsgd1na2vs0mg"},{"bike_id":"9cdea387-54f4-417b-b722-e8da65e5d7d7","system_id":"levelo_inurba_marseille","lat":43.26944,"lon":5.38633,"is_reserved":false,"is_disabled":false,"rental_uris":{"android":"levelo://app?vid=9cdea387-54f4-417b-b722-e8da65e5d7d7","ios":"levelo://app?vid=9cdea387-54f4-417b-b722-e8da65e5d7d7"},"vehicle_type_id":"4","last_reported":1777235248,"current_range_meters":6800,"station_id":"ce4bhh92rcd13ifvqfh0","pricing_plan_id":"cebpf4jnsgd1na2vs0mg"},{"bike_id":"a5d1c5f8-e551-41de-b7f3-a52119a1050b","system_id":"levelo_inurba_marseille","lat":43.27813,"lon":5.37451,"is_reserved":false,"is_disabled":false,"rental_uris":{"android":"levelo://app?vid=a5d1c5f8-e551-41de-b7f3-a52119a1050b","ios":"levelo://app?vid=a5d1c5f8-e551-41de-b7f3-a52119a1050b"},"vehicle_type_id":"4","last_reported":1777235248,"current_range_meters":6800,"station_id":"","pricing_plan_id":"cebpf4jnsgd1na2vs0mg"},{"bike_id":"70e51990-c17c-4581-8a87-488170c74fa1","system_id":"levelo_inurba_marseille","lat":43.29783,"lon":5.39358,"is_reserved":false,"is_disabled":false,"rental_uris":{"android":"levelo://app?vid=70e51990-c17c-4581-8a87-488170c74fa1","ios":"levelo://app?vid=70e51990-c17c-4581-8a87-488170c74fa1"},"vehicle_type_id":"4","last_reported":1777235248,"current_range_meters":6800,"station_id":"chh1huq6cuj3fo74tm60","pricing_plan_id":"cebpf4jnsgd1na2vs0mg"},{"bike_id":"c6941364-0b3e-415d-827c-e48038694e60","system_id":"levelo_inurba_marseille","lat":43.30749,"lon":5.43546,"is_reserved":false,"is_disabled":false,"rental_uris":{"android":"levelo://app?vid=c6941364-0b3e-415d-827c-e48038694e60","ios":"levelo://app?vid=c6941364-0b3e-415d-827c-e48038694e60"},"vehicle_type_id":"4","last_reported":1777235248,"current_range_meters":6800,"station_id":"","pricing_plan_id":"cebpf4jnsgd1na2vs0mg"},{"bike_id":"020db429-7c6a-4786-a59b-3eb7a60f4963","system_id":"levelo_inurba_marseille","lat":43.23199,"lon":5.35551,"is_reserved":false,"is_disabled":false,"rental_uris":{"android":"levelo://app?vid=020db429-7c6a-4786-a59b-3eb7a60f4963","ios":"levelo://app?vid=020db429-7c6a-4786-a59b-3eb7a60f4963"},"vehicle_type_id":"4","last_reported":1777235248,"current_range_meters":6800,"station_id":"ce4bhu92rcd13ifvqi70","pricing_plan_id":"cebpf4jnsgd1na2vs0mg"},{"bike_id":"2ecb7814-e231-4e51-a3ee-b3315f0bc596","system_id":"levelo_inurba_marseille","lat":43.25587,"lon":5.38208,"is_reserved":false,"is_disabled":false,"rental_uris":{"android":"levelo://app?vid=2ecb7814-e231-4e51-a3ee-b3315f0bc596","ios":"levelo://app?vid=2ecb7814-e231-4e51-a3ee-b3315f0bc596"},"vehicle_type_id":"4","last_reported":1777235248,"current_range_meters":6800,"station_id":"ce4bhih2rcd13ifvqfs0","pricing_plan_id":"cebpf4jnsgd1na2vs0mg"},{"bike_id":"f7716b3d-5dc6-4c1f-94ea-dd8b69d23a22","system_id":"levelo_inurba_marseille","lat":43.27498,"lon":5.43503,"is_reserved":false,"is_disabled":false,"rental_uris":{"android":"levelo://app?vid=f7716b3d-5dc6-4c1f-94ea-dd8b69d23a22","ios":"levelo://app?vid=f7716b3d-5dc6-4c1f-94ea-dd8b69d23a22"},"vehicle_type_id":"4","last_reported":1777235248,"current_range_meters":6800,"station_id":"","pricing_plan_id":"cebpf4jnsgd1na2vs0mg"},{"bike_id":"cea31a32-5e3a-46c4-9d32-5011edfbb303","system_id":"levelo_inurba_marseille","lat":43.337444,"lon":5.374475,"is_reserved":false,"is_disabled":true,"rental_uris":{"android":"levelo://app?vid=cea31a32-5e3a-46c4-9d32-5011edfbb303","ios":"levelo://app?vid=cea31a32-5e3a-46c4-9d32-5011edfbb303"},"vehicle_type_id":"4","last_reported":1777235248,"current_range_meters":7200,"station_id":"","pricing_plan_id":"cebpf4jnsgd1na2vs0mg"},{"bike_id":"df75676a-7c3f-4d29-80c0-260795f2c62d","system_id":"levelo_inurba_marseille","lat":43.27956,"lon":5.40804,"is_reserved":false,"is_disabled":false,"rental_uris":{"android":"levelo://app?vid=df75676a-7c3f-4d29-80c0-260795f2c62d","ios":"levelo://app?vid=df75676a-7c3f-4d29-80c0-260795f2c62d"},"vehicle_type_id":"4","last_reported":1777235248,"current_range_meters":7200,"station_id":"","pricing_plan_id":"cebpf4jnsgd1na2vs0mg"},{"bike_id":"73ba8919-326f-4d88-92ea-75f41c911292","system_id":"levelo_inurba_marseille","lat":43.29036,"lon":5.38642,"is_reserved":false,"is_disabled":false,"rental_uris":{"android":"levelo://app?vid=73ba8919-326f-4d88-92ea-75f41c911292","ios":"levelo://app?vid=73ba8919-326f-4d88-92ea-75f41c911292"},"vehicle_type_id":"4","last_reported":1777235248,"current_range_meters":7200,"station_id":"ce4bh4p2rcd13ifvqe0g","pricing_plan_id":"cebpf4jnsgd1na2vs0mg"},{"bike_id":"d84dad1f-3355-427c-a81e-a3f872caa973","system_id":"levelo_inurba_marseille","lat":43.28706,"lon":5.46675,"is_reserved":false,"is_disabled":false,"rental_uris":{"android":"levelo://app?vid=d84dad1f-3355-427c-a81e-a3f872caa973","ios":"levelo://app?vid=d84dad1f-3355-427c-a81e-a3f872caa973"},"vehicle_type_id":"4","last_reported":1777235248,"current_range_meters":7200,"station_id":"st_d6tc3vkotcvc738tfjhg","pricing_plan_id":"cebpf4jnsgd1na2vs0mg"},{"bike_id":"e71479ac-2c75-4920-9d3c-08826be0b2df","system_id":"levelo_inurba_marseille","lat":43.28868,"lon":5.42515,"is_reserved":false,"is_disabled":false,"rental_uris":{"android":"levelo://app?vid=e71479ac-2c75-4920-9d3c-08826be0b2df","ios":"levelo://app?vid=e71479ac-2c75-4920-9d3c-08826be0b2df"},"vehicle_type_id":"4","last_reported":1777235248,"current_range_meters":7200,"station_id":"st_d3b462108ojc7389ooeg","pricing_plan_id":"cebpf4jnsgd1na2vs0mg"},{"bike_id":"6c03a756-6268-4631-a1f0-4d7b6ab3b005","system_id":"levelo_inurba_marseille","lat":43.26087,"lon":5.39384,"is_reserved":false,"is_disabled":false,"rental_uris":{"android":"levelo://app?vid=6c03a756-6268-4631-a1f0-4d7b6ab3b005","ios":"levelo://app?vid=6c03a756-6268-4631-a1f0-4d7b6ab3b005"},"vehicle_type_id":"4","last_reported":1777235248,"current_range_meters":7200,"station_id":"ce4bhh92rcd13ifvqfj0","pricing_plan_id":"cebpf4jnsgd1na2vs0mg"},{"bike_id":"93a04976-2fd3-4aa9-a66c-5b365b3e19d4","system_id":"levelo_inurba_marseille","lat":43.28034,"lon":5.36954,"is_reserved":false,"is_disabled":false,"rental_uris":{"android":"levelo://app?vid=93a04976-2fd3-4aa9-a66c-5b365b3e19d4","ios":"levelo://app?vid=93a04976-2fd3-4aa9-a66c-5b365b3e19d4"},"vehicle_type_id":"4","last_reported":1777235248,"current_range_meters":7200,"station_id":"ce4bha12rcd13ifvqef0","pricing_plan_id":"cebpf4jnsgd1na2vs0mg"},{"bike_id":"10469253-b173-4145-92d2-201d7a14c54a","system_id":"levelo_inurba_marseille","lat":43.31483,"lon":5.37294,"is_reserved":false,"is_disabled":false,"rental_uris":{"android":"levelo://app?vid=10469253-b173-4145-92d2-201d7a14c54a","ios":"levelo://app?vid=10469253-b173-4145-92d2-201d7a14c54a"},"vehicle_type_id":"4","last_reported":1777235248,"current_range_meters":7200,"station_id":"ce4bgt12rcd13ifvqcd0","pricing_plan_id":"cebpf4jnsgd1na2vs0mg"},{"bike_id":"2d56d665-60d6-4515-b646-2119a523b260","system_id":"levelo_inurba_marseille","lat":43.31385,"lon":5.41498,"is_reserved":false,"is_disabled":false,"rental_uris":{"android":"levelo://app?vid=2d56d665-60d6-4515-b646-2119a523b260","ios":"levelo://app?vid=2d56d665-60d6-4515-b646-2119a523b260"},"vehicle_type_id":"4","last_reported":1777235248,"current_range_meters":7200,"station_id":"","pricing_plan_id":"cebpf4jnsgd1na2vs0mg"},{"bike_id":"bdfad204-2f8f-46f8-a6cd-1783687df625","system_id":"levelo_inurba_marseille","lat":43.28364,"lon":5.38629,"is_reserved":false,"is_disabled":false,"rental_uris":{"android":"levelo://app?vid=bdfad204-2f8f-46f8-a6cd-1783687df625","ios":"levelo://app?vid=bdfad204-2f8f-46f8-a6cd-1783687df625"},"vehicle_type_id":"4","last_reported":1777235248,"current_range_meters":7200,"station_id":"ce4bh492rcd13ifvqdvg","pricing_plan_id":"cebpf4jnsgd1na2vs0mg"},{"bike_id":"7917a9d5-4ac9-40bd-8834-5d3047c76c9d","system_id":"levelo_inurba_marseille","lat":43.32497,"lon":5.40755,"is_reserved":false,"is_disabled":false,"rental_uris":{"android":"levelo://app?vid=7917a9d5-4ac9-40bd-8834-5d3047c76c9d","ios":"levelo://app?vid=7917a9d5-4ac9-40bd-8834-5d3047c76c9d"},"vehicle_type_id":"4","last_reported":1777235248,"current_range_meters":7200,"station_id":"","pricing_plan_id":"cebpf4jnsgd1na2vs0mg"},{"bike_id":"14f18819-5f8e-493d-8122-9d96b019cf5b","system_id":"levelo_inurba_marseille","lat":43.31348,"lon":5.41608,"is_reserved":false,"is_disabled":false,"rental_uris":{"android":"levelo://app?vid=14f18819-5f8e-493d-8122-9d96b019cf5b","ios":"levelo://app?vid=14f18819-5f8e-493d-8122-9d96b019cf5b"},"vehicle_type_id":"4","last_reported":1777235248,"current_range_meters":7200,"station_id":"","pricing_plan_id":"cebpf4jnsgd1na2vs0mg"},{"bike_id":"1d104469-b8b2-40cd-a1a9-4fe28f3e9285","system_id":"levelo_inurba_marseille","lat":43.25451,"lon":5.415,"is_reserved":false,"is_disabled":false,"rental_uris":{"android":"levelo://app?vid=1d104469-b8b2-40cd-a1a9-4fe28f3e9285","ios":"levelo://app?vid=1d104469-b8b2-40cd-a1a9-4fe28f3e9285"},"vehicle_type_id":"4","last_reported":1777235248,"current_range_meters":7200,"station_id":"","pricing_plan_id":"cebpf4jnsgd1na2vs0mg"},{"bike_id":"bf0b484e-75a3-4e4f-a9f6-293f83e718ae","system_id":"levelo_inurba_marseille","lat":43.28612,"lon":5.39887,"is_reserved":false,"is_disabled":false,"rental_uris":{"android":"levelo://app?vid=bf0b484e-75a3-4e4f-a9f6-293f83e718ae","ios":"levelo://app?vid=bf0b484e-75a3-4e4f-a9f6-293f83e718ae"},"vehicle_type_id":"4","last_reported":1777235248,"current_range_meters":7200,"station_id":"st_d4a7ka997mjs738ck50g","pricing_plan_id":"cebpf4jnsgd1na2vs0mg"},{"bike_id":"d66ee898-4db4-4ab1-b381-7922e6c7a4fe","system_id":"levelo_inurba_marseille","lat":43.28453,"lon":5.35886,"is_reserved":false,"is_disabled":false,"rental_uris":{"android":"levelo://app?vid=d66ee898-4db4-4ab1-b381-7922e6c7a4fe","ios":"levelo://app?vid=d66ee898-4db4-4ab1-b381-7922e6c7a4fe"},"vehicle_type_id":"4","last_reported":1777235248,"current_range_meters":7200,"station_id":"ce4bhah2rcd13ifvqei0","pricing_plan_id":"cebpf4jnsgd1na2vs0mg"},{"bike_id":"b0ccfe3c-f9fb-44e6-8016-c8ec8f83f909","system_id":"levelo_inurba_marseille","lat":43.30294,"lon":5.40456,"is_reserved":false,"is_disabled":false,"rental_uris":{"android":"levelo://app?vid=b0ccfe3c-f9fb-44e6-8016-c8ec8f83f909","ios":"levelo://app?vid=b0ccfe3c-f9fb-44e6-8016-c8ec8f83f909"},"vehicle_type_id":"4","last_reported":1777235248,"current_range_meters":8000,"station_id":"ce4bh012rcd13ifvqd10","pricing_plan_id":"cebpf4jnsgd1na2vs0mg"},{"bike_id":"5354cf07-79ed-432a-b193-14addfafc2f9","system_id":"levelo_inurba_marseille","lat":43.24399,"lon":5.37035,"is_reserved":false,"is_disabled":false,"rental_uris":{"android":"levelo://app?vid=5354cf07-79ed-432a-b193-14addfafc2f9","ios":"levelo://app?vid=5354cf07-79ed-432a-b193-14addfafc2f9"},"vehicle_type_id":"4","last_reported":1777235248,"current_range_meters":8000,"station_id":"ce4bhhh2rcd13ifvqfk0","pricing_plan_id":"cebpf4jnsgd1na2vs0mg"},{"bike_id":"75fca0dc-5761-4fec-87ea-4daa596836c5","system_id":"levelo_inurba_marseille","lat":43.28661,"lon":5.36353,"is_reserved":false,"is_disabled":false,"rental_uris":{"android":"levelo://app?vid=75fca0dc-5761-4fec-87ea-4daa596836c5","ios":"levelo://app?vid=75fca0dc-5761-4fec-87ea-4daa596836c5"},"vehicle_type_id":"4","last_reported":1777235248,"current_range_meters":8000,"station_id":"ce4bhah2rcd13ifvqej0","pricing_plan_id":"cebpf4jnsgd1na2vs0mg"},{"bike_id":"5676b1df-3102-49f0-94ea-6bd037dc90c9","system_id":"levelo_inurba_marseille","lat":43.31125,"lon":5.38049,"is_reserved":false,"is_disabled":false,"rental_uris":{"android":"levelo://app?vid=5676b1df-3102-49f0-94ea-6bd037dc90c9","ios":"levelo://app?vid=5676b1df-3102-49f0-94ea-6bd037dc90c9"},"vehicle_type_id":"4","last_reported":1777235248,"current_range_meters":8000,"station_id":"","pricing_plan_id":"cebpf4jnsgd1na2vs0mg"},{"bike_id":"8e41c180-eea9-4988-8ead-9087dde64a48","system_id":"levelo_inurba_marseille","lat":43.25821,"lon":5.39447,"is_reserved":false,"is_disabled":false,"rental_uris":{"android":"levelo://app?vid=8e41c180-eea9-4988-8ead-9087dde64a48","ios":"levelo://app?vid=8e41c180-eea9-4988-8ead-9087dde64a48"},"vehicle_type_id":"4","last_reported":1777235248,"current_range_meters":8000,"station_id":"ce4bhip2rcd13ifvqft0","pricing_plan_id":"cebpf4jnsgd1na2vs0mg"},{"bike_id":"bfcc0be9-c3ed-4be9-9d60-e73b6e63f2c6","system_id":"levelo_inurba_marseille","lat":43.27206,"lon":5.39194,"is_reserved":false,"is_disabled":false,"rental_uris":{"android":"levelo://app?vid=bfcc0be9-c3ed-4be9-9d60-e73b6e63f2c6","ios":"levelo://app?vid=bfcc0be9-c3ed-4be9-9d60-e73b6e63f2c6"},"vehicle_type_id":"4","last_reported":1777235248,"current_range_meters":8000,"station_id":"ce4bhhp2rcd13ifvqfm0","pricing_plan_id":"cebpf4jnsgd1na2vs0mg"},{"bike_id":"91a1314b-562e-48f5-a468-bd1bafc3881f","system_id":"levelo_inurba_marseille","lat":43.28442,"lon":5.39201,"is_reserved":false,"is_disabled":false,"rental_uris":{"android":"levelo://app?vid=91a1314b-562e-48f5-a468-bd1bafc3881f","ios":"levelo://app?vid=91a1314b-562e-48f5-a468-bd1bafc3881f"},"vehicle_type_id":"4","last_reported":1777235248,"current_range_meters":8000,"station_id":"ce4bhoh2rcd13ifvqh5g","pricing_plan_id":"cebpf4jnsgd1na2vs0mg"},{"bike_id":"d1063a8e-a667-4f9b-9166-4b2ea1244e5f","system_id":"levelo_inurba_marseille","lat":43.24801,"lon":5.37451,"is_reserved":false,"is_disabled":false,"rental_uris":{"android":"levelo://app?vid=d1063a8e-a667-4f9b-9166-4b2ea1244e5f","ios":"levelo://app?vid=d1063a8e-a667-4f9b-9166-4b2ea1244e5f"},"vehicle_type_id":"4","last_reported":1777235248,"current_range_meters":8000,"station_id":"ce4bhgh2rcd13ifvqfb0","pricing_plan_id":"cebpf4jnsgd1na2vs0mg"},{"bike_id":"0abb523f-836b-47ec-90b1-3359b1b477f0","system_id":"levelo_inurba_marseille","lat":43.28247,"lon":5.39072,"is_reserved":false,"is_disabled":false,"rental_uris":{"android":"levelo://app?vid=0abb523f-836b-47ec-90b1-3359b1b477f0","ios":"levelo://app?vid=0abb523f-836b-47ec-90b1-3359b1b477f0"},"vehicle_type_id":"4","last_reported":1777235248,"current_range_meters":8000,"station_id":"ce4bhn92rcd13ifvqgsg","pricing_plan_id":"cebpf4jnsgd1na2vs0mg"},{"bike_id":"c1ab0bca-a020-4ac6-a445-199504031f35","system_id":"levelo_inurba_marseille","lat":43.30891,"lon":5.3684,"is_reserved":false,"is_disabled":false,"rental_uris":{"android":"levelo://app?vid=c1ab0bca-a020-4ac6-a445-199504031f35","ios":"levelo://app?vid=c1ab0bca-a020-4ac6-a445-199504031f35"},"vehicle_type_id":"4","last_reported":1777235248,"current_range_meters":8000,"station_id":"ce4bgn92rcd13ifvqbvg","pricing_plan_id":"cebpf4jnsgd1na2vs0mg"},{"bike_id":"b21748b2-fb24-4ee6-8e6a-c7c61264faec","system_id":"levelo_inurba_marseille","lat":43.2739,"lon":5.42225,"is_reserved":false,"is_disabled":false,"rental_uris":{"android":"levelo://app?vid=b21748b2-fb24-4ee6-8e6a-c7c61264faec","ios":"levelo://app?vid=b21748b2-fb24-4ee6-8e6a-c7c61264faec"},"vehicle_type_id":"4","last_reported":1777235248,"current_range_meters":8000,"station_id":"","pricing_plan_id":"cebpf4jnsgd1na2vs0mg"},{"bike_id":"1f13452b-ac27-48ca-bbd2-1255b0865067","system_id":"levelo_inurba_marseille","lat":43.2783,"lon":5.37946,"is_reserved":false,"is_disabled":false,"rental_uris":{"android":"levelo://app?vid=1f13452b-ac27-48ca-bbd2-1255b0865067","ios":"levelo://app?vid=1f13452b-ac27-48ca-bbd2-1255b0865067"},"vehicle_type_id":"4","last_reported":1777235248,"current_range_meters":8000,"station_id":"","pricing_plan_id":"cebpf4jnsgd1na2vs0mg"},{"bike_id":"ed2c95d5-7a19-465f-bfc9-1b8379a50807","system_id":"levelo_inurba_marseille","lat":43.27055,"lon":5.40259,"is_reserved":false,"is_disabled":false,"rental_uris":{"android":"levelo://app?vid=ed2c95d5-7a19-465f-bfc9-1b8379a50807","ios":"levelo://app?vid=ed2c95d5-7a19-465f-bfc9-1b8379a50807"},"vehicle_type_id":"4","last_reported":1777235248,"current_range_meters":8000,"station_id":"ce4bhk92rcd13ifvqgc0","pricing_plan_id":"cebpf4jnsgd1na2vs0mg"},{"bike_id":"6fab8256-fd92-4502-a683-8e857c80f247","system_id":"levelo_inurba_marseille","lat":43.27505,"lon":5.42419,"is_reserved":false,"is_disabled":false,"rental_uris":{"android":"levelo://app?vid=6fab8256-fd92-4502-a683-8e857c80f247","ios":"levelo://app?vid=6fab8256-fd92-4502-a683-8e857c80f247"},"vehicle_type_id":"4","last_reported":1777235248,"current_range_meters":8000,"station_id":"ce4bhn92rcd13ifvqgrg","pricing_plan_id":"cebpf4jnsgd1na2vs0mg"},{"bike_id":"11560fe7-fea0-4469-a766-85729ac61a00","system_id":"levelo_inurba_marseille","lat":43.24646,"lon":5.43139,"is_reserved":false,"is_disabled":false,"rental_uris":{"android":"levelo://app?vid=11560fe7-fea0-4469-a766-85729ac61a00","ios":"levelo://app?vid=11560fe7-fea0-4469-a766-85729ac61a00"},"vehicle_type_id":"4","last_reported":1777235248,"current_range_meters":8000,"station_id":"st_d2m6c4gdas8pm72e190g","pricing_plan_id":"cebpf4jnsgd1na2vs0mg"},{"bike_id":"0ac6fe75-176f-47ca-97df-dc3691075e50","system_id":"levelo_inurba_marseille","lat":43.24808,"lon":5.37474,"is_reserved":false,"is_disabled":false,"rental_uris":{"android":"levelo://app?vid=0ac6fe75-176f-47ca-97df-dc3691075e50","ios":"levelo://app?vid=0ac6fe75-176f-47ca-97df-dc3691075e50"},"vehicle_type_id":"4","last_reported":1777235248,"current_range_meters":8000,"station_id":"ce4bhgh2rcd13ifvqfb0","pricing_plan_id":"cebpf4jnsgd1na2vs0mg"},{"bike_id":"2c7eb658-56be-4bb0-a636-8bca8812996a","system_id":"levelo_inurba_marseille","lat":43.30807,"lon":5.38141,"is_reserved":false,"is_disabled":false,"rental_uris":{"android":"levelo://app?vid=2c7eb658-56be-4bb0-a636-8bca8812996a","ios":"levelo://app?vid=2c7eb658-56be-4bb0-a636-8bca8812996a"},"vehicle_type_id":"4","last_reported":1777235248,"current_range_meters":8000,"station_id":"ce4bgt12rcd13ifvqce0","pricing_plan_id":"cebpf4jnsgd1na2vs0mg"},{"bike_id":"867e4efb-03e8-466f-a027-d873140a375d","system_id":"levelo_inurba_marseille","lat":43.24812,"lon":5.37444,"is_reserved":false,"is_disabled":false,"rental_uris":{"android":"levelo://app?vid=867e4efb-03e8-466f-a027-d873140a375d","ios":"levelo://app?vid=867e4efb-03e8-466f-a027-d873140a375d"},"vehicle_type_id":"4","last_reported":1777235248,"current_range_meters":8000,"station_id":"ce4bhgh2rcd13ifvqfb0","pricing_plan_id":"cebpf4jnsgd1na2vs0mg"},{"bike_id":"50fcb081-4b05-4355-adf3-07f022c0399c","system_id":"levelo_inurba_marseille","lat":43.30993,"lon":5.37913,"is_reserved":false,"is_disabled":false,"rental_uris":{"android":"levelo://app?vid=50fcb081-4b05-4355-adf3-07f022c0399c","ios":"levelo://app?vid=50fcb081-4b05-4355-adf3-07f022c0399c"},"vehicle_type_id":"4","last_reported":1777235248,"current_range_meters":8000,"station_id":"","pricing_plan_id":"cebpf4jnsgd1na2vs0mg"},{"bike_id":"a8e9c11c-6dd6-4dd3-8b50-b4c0156065be","system_id":"levelo_inurba_marseille","lat":43.30102,"lon":5.3906,"is_reserved":false,"is_disabled":false,"rental_uris":{"android":"levelo://app?vid=a8e9c11c-6dd6-4dd3-8b50-b4c0156065be","ios":"levelo://app?vid=a8e9c11c-6dd6-4dd3-8b50-b4c0156065be"},"vehicle_type_id":"4","last_reported":1777235248,"current_range_meters":8000,"station_id":"","pricing_plan_id":"cebpf4jnsgd1na2vs0mg"},{"bike_id":"62ad1c8b-e25a-42d1-84b5-ecb60eb3c49b","system_id":"levelo_inurba_marseille","lat":43.29517,"lon":5.39029,"is_reserved":false,"is_disabled":false,"rental_uris":{"android":"levelo://app?vid=62ad1c8b-e25a-42d1-84b5-ecb60eb3c49b","ios":"levelo://app?vid=62ad1c8b-e25a-42d1-84b5-ecb60eb3c49b"},"vehicle_type_id":"4","last_reported":1777235248,"current_range_meters":8400,"station_id":"ce4bh3p2rcd13ifvqdp0","pricing_plan_id":"cebpf4jnsgd1na2vs0mg"},{"bike_id":"1fb0d201-1f56-4523-b307-08a30b23c19f","system_id":"levelo_inurba_marseille","lat":43.26811,"lon":5.40284,"is_reserved":false,"is_disabled":false,"rental_uris":{"android":"levelo://app?vid=1fb0d201-1f56-4523-b307-08a30b23c19f","ios":"levelo://app?vid=1fb0d201-1f56-4523-b307-08a30b23c19f"},"vehicle_type_id":"4","last_reported":1777235248,"current_range_meters":8400,"station_id":"ce501612rcd8frsf0b60","pricing_plan_id":"cebpf4jnsgd1na2vs0mg"},{"bike_id":"1dbbb389-5931-4d64-b29b-02449b2d67dc","system_id":"levelo_inurba_marseille","lat":43.24471,"lon":5.42543,"is_reserved":false,"is_disabled":false,"rental_uris":{"android":"levelo://app?vid=1dbbb389-5931-4d64-b29b-02449b2d67dc","ios":"levelo://app?vid=1dbbb389-5931-4d64-b29b-02449b2d67dc"},"vehicle_type_id":"4","last_reported":1777235248,"current_range_meters":8400,"station_id":"st_d4a3vfp97mjs738cd8kg","pricing_plan_id":"cebpf4jnsgd1na2vs0mg"},{"bike_id":"17f5223a-84d1-46d9-b55d-6a7e95a08bd7","system_id":"levelo_inurba_marseille","lat":43.24814,"lon":5.37451,"is_reserved":false,"is_disabled":false,"rental_uris":{"android":"levelo://app?vid=17f5223a-84d1-46d9-b55d-6a7e95a08bd7","ios":"levelo://app?vid=17f5223a-84d1-46d9-b55d-6a7e95a08bd7"},"vehicle_type_id":"4","last_reported":1777235248,"current_range_meters":8400,"station_id":"ce4bhgh2rcd13ifvqfb0","pricing_plan_id":"cebpf4jnsgd1na2vs0mg"},{"bike_id":"c0f5f883-626c-43d0-ae77-4136fc8c4248","system_id":"levelo_inurba_marseille","lat":43.29043,"lon":5.37549,"is_reserved":false,"is_disabled":true,"rental_uris":{"android":"levelo://app?vid=c0f5f883-626c-43d0-ae77-4136fc8c4248","ios":"levelo://app?vid=c0f5f883-626c-43d0-ae77-4136fc8c4248"},"vehicle_type_id":"4","last_reported":1777235248,"current_range_meters":8400,"station_id":"ce4bh692rcd13ifvqe90","pricing_plan_id":"cebpf4jnsgd1na2vs0mg"},{"bike_id":"3ef59291-4a20-4def-9a1d-d46bb2f5a32e","system_id":"levelo_inurba_marseille","lat":43.27212,"lon":5.39168,"is_reserved":false,"is_disabled":false,"rental_uris":{"android":"levelo://app?vid=3ef59291-4a20-4def-9a1d-d46bb2f5a32e","ios":"levelo://app?vid=3ef59291-4a20-4def-9a1d-d46bb2f5a32e"},"vehicle_type_id":"4","last_reported":1777235248,"current_range_meters":8400,"station_id":"ce4bhhp2rcd13ifvqfm0","pricing_plan_id":"cebpf4jnsgd1na2vs0mg"},{"bike_id":"11effbb2-3489-4e85-aec9-0e018fcdcc03","system_id":"levelo_inurba_marseille","lat":43.23202,"lon":5.35534,"is_reserved":false,"is_disabled":false,"rental_uris":{"android":"levelo://app?vid=11effbb2-3489-4e85-aec9-0e018fcdcc03","ios":"levelo://app?vid=11effbb2-3489-4e85-aec9-0e018fcdcc03"},"vehicle_type_id":"4","last_reported":1777235248,"current_range_meters":8400,"station_id":"ce4bhu92rcd13ifvqi70","pricing_plan_id":"cebpf4jnsgd1na2vs0mg"},{"bike_id":"268de6f2-c12a-4043-b090-594ef8b78911","system_id":"levelo_inurba_marseille","lat":43.297111,"lon":5.377005,"is_reserved":false,"is_disabled":false,"rental_uris":{"android":"levelo://app?vid=268de6f2-c12a-4043-b090-594ef8b78911","ios":"levelo://app?vid=268de6f2-c12a-4043-b090-594ef8b78911"},"vehicle_type_id":"4","last_reported":1777235248,"current_range_meters":8400,"station_id":"ce4bgkh2rcd13ifvqbl0","pricing_plan_id":"cebpf4jnsgd1na2vs0mg"},{"bike_id":"c11d1808-32dc-4683-bc6f-c818ed8e14de","system_id":"levelo_inurba_marseille","lat":43.27508,"lon":5.42433,"is_reserved":false,"is_disabled":true,"rental_uris":{"android":"levelo://app?vid=c11d1808-32dc-4683-bc6f-c818ed8e14de","ios":"levelo://app?vid=c11d1808-32dc-4683-bc6f-c818ed8e14de"},"vehicle_type_id":"4","last_reported":1777235248,"current_range_meters":8400,"station_id":"ce4bhn92rcd13ifvqgrg","pricing_plan_id":"cebpf4jnsgd1na2vs0mg"},{"bike_id":"a9335f62-4c73-44b2-8914-e3f52e6941ca","system_id":"levelo_inurba_marseille","lat":43.32116,"lon":5.36781,"is_reserved":false,"is_disabled":false,"rental_uris":{"android":"levelo://app?vid=a9335f62-4c73-44b2-8914-e3f52e6941ca","ios":"levelo://app?vid=a9335f62-4c73-44b2-8914-e3f52e6941ca"},"vehicle_type_id":"4","last_reported":1777235248,"current_range_meters":8400,"station_id":"ce4bhrh2rcd13ifvqhug","pricing_plan_id":"cebpf4jnsgd1na2vs0mg"},{"bike_id":"93378c7e-8a33-4e07-ab2a-fc9cc927fe7a","system_id":"levelo_inurba_marseille","lat":43.28872,"lon":5.39323,"is_reserved":false,"is_disabled":true,"rental_uris":{"android":"levelo://app?vid=93378c7e-8a33-4e07-ab2a-fc9cc927fe7a","ios":"levelo://app?vid=93378c7e-8a33-4e07-ab2a-fc9cc927fe7a"},"vehicle_type_id":"4","last_reported":1777235248,"current_range_meters":8400,"station_id":"ce4bh2p2rcd13ifvqdi0","pricing_plan_id":"cebpf4jnsgd1na2vs0mg"},{"bike_id":"52379064-5810-48e5-b91e-0dd94ec9a8b0","system_id":"levelo_inurba_marseille","lat":43.30103,"lon":5.39079,"is_reserved":false,"is_disabled":false,"rental_uris":{"android":"levelo://app?vid=52379064-5810-48e5-b91e-0dd94ec9a8b0","ios":"levelo://app?vid=52379064-5810-48e5-b91e-0dd94ec9a8b0"},"vehicle_type_id":"4","last_reported":1777235248,"current_range_meters":8400,"station_id":"ce4bh192rcd13ifvqdb0","pricing_plan_id":"cebpf4jnsgd1na2vs0mg"},{"bike_id":"cadfa63b-4f9a-4fdd-9cfc-eea769369763","system_id":"levelo_inurba_marseille","lat":43.27342,"lon":5.39086,"is_reserved":false,"is_disabled":false,"rental_uris":{"android":"levelo://app?vid=cadfa63b-4f9a-4fdd-9cfc-eea769369763","ios":"levelo://app?vid=cadfa63b-4f9a-4fdd-9cfc-eea769369763"},"vehicle_type_id":"4","last_reported":1777235248,"current_range_meters":8400,"station_id":"ce4bhgp2rcd13ifvqfe0","pricing_plan_id":"cebpf4jnsgd1na2vs0mg"},{"bike_id":"537a0c86-de79-4642-80d5-2fb344444285","system_id":"levelo_inurba_marseille","lat":43.29779,"lon":5.3935,"is_reserved":false,"is_disabled":false,"rental_uris":{"android":"levelo://app?vid=537a0c86-de79-4642-80d5-2fb344444285","ios":"levelo://app?vid=537a0c86-de79-4642-80d5-2fb344444285"},"vehicle_type_id":"4","last_reported":1777235248,"current_range_meters":8400,"station_id":"chh1huq6cuj3fo74tm60","pricing_plan_id":"cebpf4jnsgd1na2vs0mg"},{"bike_id":"e4946e49-98b0-4f2d-be30-0b4bdb9bcf3b","system_id":"levelo_inurba_marseille","lat":43.27205,"lon":5.39193,"is_reserved":false,"is_disabled":false,"rental_uris":{"android":"levelo://app?vid=e4946e49-98b0-4f2d-be30-0b4bdb9bcf3b","ios":"levelo://app?vid=e4946e49-98b0-4f2d-be30-0b4bdb9bcf3b"},"vehicle_type_id":"4","last_reported":1777235248,"current_range_meters":8400,"station_id":"ce4bhhp2rcd13ifvqfm0","pricing_plan_id":"cebpf4jnsgd1na2vs0mg"},{"bike_id":"82f2a31b-bde8-4d22-bb34-86f62811a0c5","system_id":"levelo_inurba_marseille","lat":43.26681,"lon":5.38271,"is_reserved":false,"is_disabled":false,"rental_uris":{"android":"levelo://app?vid=82f2a31b-bde8-4d22-bb34-86f62811a0c5","ios":"levelo://app?vid=82f2a31b-bde8-4d22-bb34-86f62811a0c5"},"vehicle_type_id":"4","last_reported":1777235248,"current_range_meters":8400,"station_id":"ce4bhg92rcd13ifvqf90","pricing_plan_id":"cebpf4jnsgd1na2vs0mg"},{"bike_id":"fd583349-9e7d-4e5b-8155-1da1a7a44b99","system_id":"levelo_inurba_marseille","lat":43.27951,"lon":5.41044,"is_reserved":false,"is_disabled":false,"rental_uris":{"android":"levelo://app?vid=fd583349-9e7d-4e5b-8155-1da1a7a44b99","ios":"levelo://app?vid=fd583349-9e7d-4e5b-8155-1da1a7a44b99"},"vehicle_type_id":"4","last_reported":1777235248,"current_range_meters":8400,"station_id":"ce4bhnp2rcd13ifvqh0g","pricing_plan_id":"cebpf4jnsgd1na2vs0mg"},{"bike_id":"2e734499-6f00-499b-90dc-b3f3e3caf0ee","system_id":"levelo_inurba_marseille","lat":43.28926,"lon":5.38408,"is_reserved":false,"is_disabled":true,"rental_uris":{"android":"levelo://app?vid=2e734499-6f00-499b-90dc-b3f3e3caf0ee","ios":"levelo://app?vid=2e734499-6f00-499b-90dc-b3f3e3caf0ee"},"vehicle_type_id":"4","last_reported":1777235248,"current_range_meters":8400,"station_id":"ce4bh612rcd13ifvqe6g","pricing_plan_id":"cebpf4jnsgd1na2vs0mg"},{"bike_id":"28a1643e-53e4-4616-be49-c9188067889b","system_id":"levelo_inurba_marseille","lat":43.30952,"lon":5.39034,"is_reserved":false,"is_disabled":false,"rental_uris":{"android":"levelo://app?vid=28a1643e-53e4-4616-be49-c9188067889b","ios":"levelo://app?vid=28a1643e-53e4-4616-be49-c9188067889b"},"vehicle_type_id":"4","last_reported":1777235248,"current_range_meters":8400,"station_id":"ce4bgup2rcd13ifvqco0","pricing_plan_id":"cebpf4jnsgd1na2vs0mg"},{"bike_id":"12785565-6a92-4eda-8dba-85b2deb83bd4","system_id":"levelo_inurba_marseille","lat":43.29259,"lon":5.38452,"is_reserved":false,"is_disabled":false,"rental_uris":{"android":"levelo://app?vid=12785565-6a92-4eda-8dba-85b2deb83bd4","ios":"levelo://app?vid=12785565-6a92-4eda-8dba-85b2deb83bd4"},"vehicle_type_id":"4","last_reported":1777235248,"current_range_meters":8400,"station_id":"ce4bh692rcd13ifvqea0","pricing_plan_id":"cebpf4jnsgd1na2vs0mg"},{"bike_id":"5b5126ef-4e2e-462e-a5f8-a3703f5a77be","system_id":"levelo_inurba_marseille","lat":43.27223,"lon":5.39169,"is_reserved":false,"is_disabled":false,"rental_uris":{"android":"levelo://app?vid=5b5126ef-4e2e-462e-a5f8-a3703f5a77be","ios":"levelo://app?vid=5b5126ef-4e2e-462e-a5f8-a3703f5a77be"},"vehicle_type_id":"4","last_reported":1777235248,"current_range_meters":8400,"station_id":"ce4bhhp2rcd13ifvqfm0","pricing_plan_id":"cebpf4jnsgd1na2vs0mg"},{"bike_id":"706ecd89-bafe-46bb-8b99-a5d007005819","system_id":"levelo_inurba_marseille","lat":43.24808,"lon":5.37468,"is_reserved":false,"is_disabled":false,"rental_uris":{"android":"levelo://app?vid=706ecd89-bafe-46bb-8b99-a5d007005819","ios":"levelo://app?vid=706ecd89-bafe-46bb-8b99-a5d007005819"},"vehicle_type_id":"4","last_reported":1777235248,"current_range_meters":8800,"station_id":"ce4bhgh2rcd13ifvqfb0","pricing_plan_id":"cebpf4jnsgd1na2vs0mg"},{"bike_id":"c5e4557e-a579-4ba0-b540-76be6c2c51d2","system_id":"levelo_inurba_marseille","lat":43.26953,"lon":5.40264,"is_reserved":false,"is_disabled":true,"rental_uris":{"android":"levelo://app?vid=c5e4557e-a579-4ba0-b540-76be6c2c51d2","ios":"levelo://app?vid=c5e4557e-a579-4ba0-b540-76be6c2c51d2"},"vehicle_type_id":"4","last_reported":1777235248,"current_range_meters":8800,"station_id":"cjm6bp8fraef2m0cb0m0","pricing_plan_id":"cebpf4jnsgd1na2vs0mg"},{"bike_id":"fbf4882e-159d-4ca6-82a9-b10d0d0d148d","system_id":"levelo_inurba_marseille","lat":43.28614,"lon":5.3988,"is_reserved":false,"is_disabled":false,"rental_uris":{"android":"levelo://app?vid=fbf4882e-159d-4ca6-82a9-b10d0d0d148d","ios":"levelo://app?vid=fbf4882e-159d-4ca6-82a9-b10d0d0d148d"},"vehicle_type_id":"4","last_reported":1777235248,"current_range_meters":8800,"station_id":"st_d4a7ka997mjs738ck50g","pricing_plan_id":"cebpf4jnsgd1na2vs0mg"},{"bike_id":"45f5c63f-7cf8-42e6-8f85-3cf0002a697f","system_id":"levelo_inurba_marseille","lat":43.28729,"lon":5.37948,"is_reserved":false,"is_disabled":false,"rental_uris":{"android":"levelo://app?vid=45f5c63f-7cf8-42e6-8f85-3cf0002a697f","ios":"levelo://app?vid=45f5c63f-7cf8-42e6-8f85-3cf0002a697f"},"vehicle_type_id":"4","last_reported":1777235248,"current_range_meters":8800,"station_id":"ce4bh9p2rcd13ifvqec0","pricing_plan_id":"cebpf4jnsgd1na2vs0mg"},{"bike_id":"bd12f9e7-46e1-42c9-89db-d46f53a483b3","system_id":"levelo_inurba_marseille","lat":43.29533,"lon":5.38535,"is_reserved":false,"is_disabled":false,"rental_uris":{"android":"levelo://app?vid=bd12f9e7-46e1-42c9-89db-d46f53a483b3","ios":"levelo://app?vid=bd12f9e7-46e1-42c9-89db-d46f53a483b3"},"vehicle_type_id":"4","last_reported":1777235248,"current_range_meters":8800,"station_id":"ce4bgih2rcd13ifvqba0","pricing_plan_id":"cebpf4jnsgd1na2vs0mg"},{"bike_id":"417a2940-d5cc-4725-8ad5-b54f88817d2a","system_id":"levelo_inurba_marseille","lat":43.28607,"lon":5.39899,"is_reserved":false,"is_disabled":false,"rental_uris":{"android":"levelo://app?vid=417a2940-d5cc-4725-8ad5-b54f88817d2a","ios":"levelo://app?vid=417a2940-d5cc-4725-8ad5-b54f88817d2a"},"vehicle_type_id":"4","last_reported":1777235248,"current_range_meters":8800,"station_id":"st_d4a7ka997mjs738ck50g","pricing_plan_id":"cebpf4jnsgd1na2vs0mg"},{"bike_id":"32d8062d-b01e-46bc-92b9-65d5fbd8fc06","system_id":"levelo_inurba_marseille","lat":43.23963,"lon":5.36613,"is_reserved":false,"is_disabled":false,"rental_uris":{"android":"levelo://app?vid=32d8062d-b01e-46bc-92b9-65d5fbd8fc06","ios":"levelo://app?vid=32d8062d-b01e-46bc-92b9-65d5fbd8fc06"},"vehicle_type_id":"4","last_reported":1777235248,"current_range_meters":8800,"station_id":"ce4bhi12rcd13ifvqfp0","pricing_plan_id":"cebpf4jnsgd1na2vs0mg"},{"bike_id":"da9a40ff-7316-4897-bf86-976efc56a0e6","system_id":"levelo_inurba_marseille","lat":43.2481,"lon":5.37451,"is_reserved":false,"is_disabled":false,"rental_uris":{"android":"levelo://app?vid=da9a40ff-7316-4897-bf86-976efc56a0e6","ios":"levelo://app?vid=da9a40ff-7316-4897-bf86-976efc56a0e6"},"vehicle_type_id":"4","last_reported":1777235248,"current_range_meters":8800,"station_id":"ce4bhgh2rcd13ifvqfb0","pricing_plan_id":"cebpf4jnsgd1na2vs0mg"},{"bike_id":"1b7bb941-83c3-4ec7-8d56-88190ac17fc3","system_id":"levelo_inurba_marseille","lat":43.28156,"lon":5.39201,"is_reserved":false,"is_disabled":false,"rental_uris":{"android":"levelo://app?vid=1b7bb941-83c3-4ec7-8d56-88190ac17fc3","ios":"levelo://app?vid=1b7bb941-83c3-4ec7-8d56-88190ac17fc3"},"vehicle_type_id":"4","last_reported":1777235248,"current_range_meters":8800,"station_id":"","pricing_plan_id":"cebpf4jnsgd1na2vs0mg"},{"bike_id":"a17a356a-6340-4eae-b4d5-d59f3247dda3","system_id":"levelo_inurba_marseille","lat":43.25964,"lon":5.39231,"is_reserved":false,"is_disabled":false,"rental_uris":{"android":"levelo://app?vid=a17a356a-6340-4eae-b4d5-d59f3247dda3","ios":"levelo://app?vid=a17a356a-6340-4eae-b4d5-d59f3247dda3"},"vehicle_type_id":"4","last_reported":1777235248,"current_range_meters":8800,"station_id":"","pricing_plan_id":"cebpf4jnsgd1na2vs0mg"},{"bike_id":"d68cd392-a214-40e4-8e5f-e39fa567524a","system_id":"levelo_inurba_marseille","lat":43.30166,"lon":5.37437,"is_reserved":false,"is_disabled":true,"rental_uris":{"android":"levelo://app?vid=d68cd392-a214-40e4-8e5f-e39fa567524a","ios":"levelo://app?vid=d68cd392-a214-40e4-8e5f-e39fa567524a"},"vehicle_type_id":"4","last_reported":1777235248,"current_range_meters":8800,"station_id":"ce4bgs92rcd13ifvqcc0","pricing_plan_id":"cebpf4jnsgd1na2vs0mg"},{"bike_id":"6b5b9e45-67f3-4a64-a294-ead66e30dbef","system_id":"levelo_inurba_marseille","lat":43.24666,"lon":5.38154,"is_reserved":false,"is_disabled":false,"rental_uris":{"android":"levelo://app?vid=6b5b9e45-67f3-4a64-a294-ead66e30dbef","ios":"levelo://app?vid=6b5b9e45-67f3-4a64-a294-ead66e30dbef"},"vehicle_type_id":"4","last_reported":1777235248,"current_range_meters":8800,"station_id":"ce4bhih2rcd13ifvqfr0","pricing_plan_id":"cebpf4jnsgd1na2vs0mg"},{"bike_id":"0d8c3362-be20-49ce-8a46-7df1fa0c42ea","system_id":"levelo_inurba_marseille","lat":43.24822,"lon":5.37454,"is_reserved":false,"is_disabled":false,"rental_uris":{"android":"levelo://app?vid=0d8c3362-be20-49ce-8a46-7df1fa0c42ea","ios":"levelo://app?vid=0d8c3362-be20-49ce-8a46-7df1fa0c42ea"},"vehicle_type_id":"4","last_reported":1777235248,"current_range_meters":8800,"station_id":"ce4bhgh2rcd13ifvqfb0","pricing_plan_id":"cebpf4jnsgd1na2vs0mg"},{"bike_id":"50f8bdff-b169-44f8-8920-840c94d5e30a","system_id":"levelo_inurba_marseille","lat":43.28482,"lon":5.48388,"is_reserved":false,"is_disabled":true,"rental_uris":{"android":"levelo://app?vid=50f8bdff-b169-44f8-8920-840c94d5e30a","ios":"levelo://app?vid=50f8bdff-b169-44f8-8920-840c94d5e30a"},"vehicle_type_id":"4","last_reported":1777235248,"current_range_meters":8800,"station_id":"","pricing_plan_id":"cebpf4jnsgd1na2vs0mg"},{"bike_id":"8f2c7d49-3743-49aa-b44c-55bd34fc4914","system_id":"levelo_inurba_marseille","lat":43.27199,"lon":5.39179,"is_reserved":false,"is_disabled":false,"rental_uris":{"android":"levelo://app?vid=8f2c7d49-3743-49aa-b44c-55bd34fc4914","ios":"levelo://app?vid=8f2c7d49-3743-49aa-b44c-55bd34fc4914"},"vehicle_type_id":"4","last_reported":1777235248,"current_range_meters":8800,"station_id":"ce4bhhp2rcd13ifvqfm0","pricing_plan_id":"cebpf4jnsgd1na2vs0mg"},{"bike_id":"2725b0c0-a653-43ae-bc24-ce0141576499","system_id":"levelo_inurba_marseille","lat":43.3013,"lon":5.43118,"is_reserved":false,"is_disabled":false,"rental_uris":{"android":"levelo://app?vid=2725b0c0-a653-43ae-bc24-ce0141576499","ios":"levelo://app?vid=2725b0c0-a653-43ae-bc24-ce0141576499"},"vehicle_type_id":"4","last_reported":1777235248,"current_range_meters":8800,"station_id":"st_d3js3co5814s73ftftug","pricing_plan_id":"cebpf4jnsgd1na2vs0mg"},{"bike_id":"ec26a35a-8831-4ae7-8210-08cdd9bc6de1","system_id":"levelo_inurba_marseille","lat":43.2695,"lon":5.40253,"is_reserved":false,"is_disabled":false,"rental_uris":{"android":"levelo://app?vid=ec26a35a-8831-4ae7-8210-08cdd9bc6de1","ios":"levelo://app?vid=ec26a35a-8831-4ae7-8210-08cdd9bc6de1"},"vehicle_type_id":"4","last_reported":1777235248,"current_range_meters":8800,"station_id":"cjm6bp8fraef2m0cb0m0","pricing_plan_id":"cebpf4jnsgd1na2vs0mg"},{"bike_id":"89361049-3250-43c7-bc2b-1605a651a9a7","system_id":"levelo_inurba_marseille","lat":43.29218,"lon":5.36044,"is_reserved":false,"is_disabled":false,"rental_uris":{"android":"levelo://app?vid=89361049-3250-43c7-bc2b-1605a651a9a7","ios":"levelo://app?vid=89361049-3250-43c7-bc2b-1605a651a9a7"},"vehicle_type_id":"4","last_reported":1777235248,"current_range_meters":8800,"station_id":"ce4bhbh2rcd13ifvqeqg","pricing_plan_id":"cebpf4jnsgd1na2vs0mg"},{"bike_id":"6ff6d455-231e-432b-ac9e-a169f1a9676e","system_id":"levelo_inurba_marseille","lat":43.27959,"lon":5.3871,"is_reserved":false,"is_disabled":false,"rental_uris":{"android":"levelo://app?vid=6ff6d455-231e-432b-ac9e-a169f1a9676e","ios":"levelo://app?vid=6ff6d455-231e-432b-ac9e-a169f1a9676e"},"vehicle_type_id":"4","last_reported":1777235248,"current_range_meters":8800,"station_id":"ce4bhg12rcd13ifvqf80","pricing_plan_id":"cebpf4jnsgd1na2vs0mg"},{"bike_id":"778fed07-6d1a-4419-8399-5fee9af0e8a1","system_id":"levelo_inurba_marseille","lat":43.31155,"lon":5.3872,"is_reserved":false,"is_disabled":false,"rental_uris":{"android":"levelo://app?vid=778fed07-6d1a-4419-8399-5fee9af0e8a1","ios":"levelo://app?vid=778fed07-6d1a-4419-8399-5fee9af0e8a1"},"vehicle_type_id":"4","last_reported":1777235248,"current_range_meters":8800,"station_id":"ce4bgv12rcd13ifvqcp0","pricing_plan_id":"cebpf4jnsgd1na2vs0mg"},{"bike_id":"870e0d9e-4850-46bf-826b-bb575c104c95","system_id":"levelo_inurba_marseille","lat":43.24631,"lon":5.43154,"is_reserved":false,"is_disabled":false,"rental_uris":{"android":"levelo://app?vid=870e0d9e-4850-46bf-826b-bb575c104c95","ios":"levelo://app?vid=870e0d9e-4850-46bf-826b-bb575c104c95"},"vehicle_type_id":"4","last_reported":1777235248,"current_range_meters":8800,"station_id":"st_d2m6c4gdas8pm72e190g","pricing_plan_id":"cebpf4jnsgd1na2vs0mg"},{"bike_id":"4b49ab9b-eeca-4117-b1e9-4b53277a58b0","system_id":"levelo_inurba_marseille","lat":43.23203,"lon":5.35578,"is_reserved":false,"is_disabled":true,"rental_uris":{"android":"levelo://app?vid=4b49ab9b-eeca-4117-b1e9-4b53277a58b0","ios":"levelo://app?vid=4b49ab9b-eeca-4117-b1e9-4b53277a58b0"},"vehicle_type_id":"4","last_reported":1777235248,"current_range_meters":8800,"station_id":"ce4bhu92rcd13ifvqi70","pricing_plan_id":"cebpf4jnsgd1na2vs0mg"},{"bike_id":"f34d417f-55b3-4000-855c-b2add1843f10","system_id":"levelo_inurba_marseille","lat":43.25125,"lon":5.40304,"is_reserved":false,"is_disabled":false,"rental_uris":{"android":"levelo://app?vid=f34d417f-55b3-4000-855c-b2add1843f10","ios":"levelo://app?vid=f34d417f-55b3-4000-855c-b2add1843f10"},"vehicle_type_id":"4","last_reported":1777235248,"current_range_meters":8800,"station_id":"ce4bhlh2rcd13ifvqgig","pricing_plan_id":"cebpf4jnsgd1na2vs0mg"},{"bike_id":"f0651d51-57c7-4453-9127-952d88592eba","system_id":"levelo_inurba_marseille","lat":43.27492,"lon":5.42453,"is_reserved":false,"is_disabled":false,"rental_uris":{"android":"levelo://app?vid=f0651d51-57c7-4453-9127-952d88592eba","ios":"levelo://app?vid=f0651d51-57c7-4453-9127-952d88592eba"},"vehicle_type_id":"4","last_reported":1777235248,"current_range_meters":8800,"station_id":"ce4bhn92rcd13ifvqgrg","pricing_plan_id":"cebpf4jnsgd1na2vs0mg"},{"bike_id":"2768b254-100f-4f21-93b4-59c9565aaf35","system_id":"levelo_inurba_marseille","lat":43.30181,"lon":5.39178,"is_reserved":false,"is_disabled":false,"rental_uris":{"android":"levelo://app?vid=2768b254-100f-4f21-93b4-59c9565aaf35","ios":"levelo://app?vid=2768b254-100f-4f21-93b4-59c9565aaf35"},"vehicle_type_id":"4","last_reported":1777235248,"current_range_meters":8800,"station_id":"","pricing_plan_id":"cebpf4jnsgd1na2vs0mg"},{"bike_id":"0f724a0c-a1c1-401d-be4e-2de44ce9d14c","system_id":"levelo_inurba_marseille","lat":43.24124,"lon":5.39677,"is_reserved":false,"is_disabled":false,"rental_uris":{"android":"levelo://app?vid=0f724a0c-a1c1-401d-be4e-2de44ce9d14c","ios":"levelo://app?vid=0f724a0c-a1c1-401d-be4e-2de44ce9d14c"},"vehicle_type_id":"4","last_reported":1777235248,"current_range_meters":8800,"station_id":"","pricing_plan_id":"cebpf4jnsgd1na2vs0mg"},{"bike_id":"11fb6593-66e2-48c9-aba5-39748d98a792","system_id":"levelo_inurba_marseille","lat":43.281,"lon":5.37848,"is_reserved":false,"is_disabled":false,"rental_uris":{"android":"levelo://app?vid=11fb6593-66e2-48c9-aba5-39748d98a792","ios":"levelo://app?vid=11fb6593-66e2-48c9-aba5-39748d98a792"},"vehicle_type_id":"4","last_reported":1777235248,"current_range_meters":8800,"station_id":"ce4bha12rcd13ifvqee0","pricing_plan_id":"cebpf4jnsgd1na2vs0mg"},{"bike_id":"43ac443e-8ddb-408c-be36-7bf9ae10311e","system_id":"levelo_inurba_marseille","lat":43.27208,"lon":5.39206,"is_reserved":false,"is_disabled":false,"rental_uris":{"android":"levelo://app?vid=43ac443e-8ddb-408c-be36-7bf9ae10311e","ios":"levelo://app?vid=43ac443e-8ddb-408c-be36-7bf9ae10311e"},"vehicle_type_id":"4","last_reported":1777235248,"current_range_meters":8800,"station_id":"ce4bhhp2rcd13ifvqfm0","pricing_plan_id":"cebpf4jnsgd1na2vs0mg"},{"bike_id":"fa293d2c-79f9-4b16-9ef5-6b5f037705f2","system_id":"levelo_inurba_marseille","lat":43.28417,"lon":5.37502,"is_reserved":false,"is_disabled":false,"rental_uris":{"android":"levelo://app?vid=fa293d2c-79f9-4b16-9ef5-6b5f037705f2","ios":"levelo://app?vid=fa293d2c-79f9-4b16-9ef5-6b5f037705f2"},"vehicle_type_id":"4","last_reported":1777235248,"current_range_meters":8800,"station_id":"ce4bh412rcd13ifvqds0","pricing_plan_id":"cebpf4jnsgd1na2vs0mg"},{"bike_id":"47221ee4-9fe3-4588-b933-bdf75cf3f545","system_id":"levelo_inurba_marseille","lat":43.31051,"lon":5.37168,"is_reserved":false,"is_disabled":false,"rental_uris":{"android":"levelo://app?vid=47221ee4-9fe3-4588-b933-bdf75cf3f545","ios":"levelo://app?vid=47221ee4-9fe3-4588-b933-bdf75cf3f545"},"vehicle_type_id":"4","last_reported":1777235248,"current_range_meters":8800,"station_id":"st_d4kl2rp97mjs73e7tdfg","pricing_plan_id":"cebpf4jnsgd1na2vs0mg"},{"bike_id":"d385c7f6-ecb5-481c-9825-7d862bff6653","system_id":"levelo_inurba_marseille","lat":43.2861,"lon":5.39876,"is_reserved":false,"is_disabled":false,"rental_uris":{"android":"levelo://app?vid=d385c7f6-ecb5-481c-9825-7d862bff6653","ios":"levelo://app?vid=d385c7f6-ecb5-481c-9825-7d862bff6653"},"vehicle_type_id":"4","last_reported":1777235248,"current_range_meters":9200,"station_id":"st_d4a7ka997mjs738ck50g","pricing_plan_id":"cebpf4jnsgd1na2vs0mg"},{"bike_id":"58bc3e60-f18b-427c-b5e0-e156e759d6db","system_id":"levelo_inurba_marseille","lat":43.3134,"lon":5.3674,"is_reserved":false,"is_disabled":false,"rental_uris":{"android":"levelo://app?vid=58bc3e60-f18b-427c-b5e0-e156e759d6db","ios":"levelo://app?vid=58bc3e60-f18b-427c-b5e0-e156e759d6db"},"vehicle_type_id":"4","last_reported":1777235248,"current_range_meters":9200,"station_id":"ce4bgr92rcd13ifvqc6g","pricing_plan_id":"cebpf4jnsgd1na2vs0mg"},{"bike_id":"b283f812-8f72-4e36-9652-6e08f26289b1","system_id":"levelo_inurba_marseille","lat":43.28433,"lon":5.37515,"is_reserved":false,"is_disabled":false,"rental_uris":{"android":"levelo://app?vid=b283f812-8f72-4e36-9652-6e08f26289b1","ios":"levelo://app?vid=b283f812-8f72-4e36-9652-6e08f26289b1"},"vehicle_type_id":"4","last_reported":1777235248,"current_range_meters":9200,"station_id":"ce4bh412rcd13ifvqds0","pricing_plan_id":"cebpf4jnsgd1na2vs0mg"},{"bike_id":"5c6dbc22-6dc1-4a74-95d1-677c3ccf7a7b","system_id":"levelo_inurba_marseille","lat":43.29937,"lon":5.36511,"is_reserved":false,"is_disabled":true,"rental_uris":{"android":"levelo://app?vid=5c6dbc22-6dc1-4a74-95d1-677c3ccf7a7b","ios":"levelo://app?vid=5c6dbc22-6dc1-4a74-95d1-677c3ccf7a7b"},"vehicle_type_id":"4","last_reported":1777235248,"current_range_meters":9200,"station_id":"ce4bgm92rcd13ifvqbr0","pricing_plan_id":"cebpf4jnsgd1na2vs0mg"},{"bike_id":"ad06fbeb-2893-47bd-9310-693ccba410e9","system_id":"levelo_inurba_marseille","lat":43.28763,"lon":5.46823,"is_reserved":false,"is_disabled":false,"rental_uris":{"android":"levelo://app?vid=ad06fbeb-2893-47bd-9310-693ccba410e9","ios":"levelo://app?vid=ad06fbeb-2893-47bd-9310-693ccba410e9"},"vehicle_type_id":"4","last_reported":1777235248,"current_range_meters":9200,"station_id":"","pricing_plan_id":"cebpf4jnsgd1na2vs0mg"},{"bike_id":"11a5074f-be5e-43a9-8f56-2fea90effe08","system_id":"levelo_inurba_marseille","lat":43.24561,"lon":5.39517,"is_reserved":false,"is_disabled":false,"rental_uris":{"android":"levelo://app?vid=11a5074f-be5e-43a9-8f56-2fea90effe08","ios":"levelo://app?vid=11a5074f-be5e-43a9-8f56-2fea90effe08"},"vehicle_type_id":"4","last_reported":1777235248,"current_range_meters":9200,"station_id":"ce4bhlp2rcd13ifvqgjg","pricing_plan_id":"cebpf4jnsgd1na2vs0mg"},{"bike_id":"cf4537a9-051c-4080-9a3f-93f632ce0082","system_id":"levelo_inurba_marseille","lat":43.337444,"lon":5.374475,"is_reserved":false,"is_disabled":false,"rental_uris":{"android":"levelo://app?vid=cf4537a9-051c-4080-9a3f-93f632ce0082","ios":"levelo://app?vid=cf4537a9-051c-4080-9a3f-93f632ce0082"},"vehicle_type_id":"4","last_reported":1777235248,"current_range_meters":9200,"station_id":"","pricing_plan_id":"cebpf4jnsgd1na2vs0mg"},{"bike_id":"addff318-653f-45c2-bbb7-77b46b3919e4","system_id":"levelo_inurba_marseille","lat":43.21743,"lon":5.34604,"is_reserved":false,"is_disabled":false,"rental_uris":{"android":"levelo://app?vid=addff318-653f-45c2-bbb7-77b46b3919e4","ios":"levelo://app?vid=addff318-653f-45c2-bbb7-77b46b3919e4"},"vehicle_type_id":"4","last_reported":1777235248,"current_range_meters":9200,"station_id":"st_cvj6r9ubvosntc0bgbag","pricing_plan_id":"cebpf4jnsgd1na2vs0mg"},{"bike_id":"95de8394-db1e-40fc-b0cf-525b71cab227","system_id":"levelo_inurba_marseille","lat":43.29514,"lon":5.37522,"is_reserved":false,"is_disabled":true,"rental_uris":{"android":"levelo://app?vid=95de8394-db1e-40fc-b0cf-525b71cab227","ios":"levelo://app?vid=95de8394-db1e-40fc-b0cf-525b71cab227"},"vehicle_type_id":"4","last_reported":1777235248,"current_range_meters":9200,"station_id":"ce4bgkp2rcd13ifvqbmg","pricing_plan_id":"cebpf4jnsgd1na2vs0mg"},{"bike_id":"ed50bd1e-73df-4913-b070-8849116a1699","system_id":"levelo_inurba_marseille","lat":43.27049,"lon":5.40266,"is_reserved":false,"is_disabled":false,"rental_uris":{"android":"levelo://app?vid=ed50bd1e-73df-4913-b070-8849116a1699","ios":"levelo://app?vid=ed50bd1e-73df-4913-b070-8849116a1699"},"vehicle_type_id":"4","last_reported":1777235248,"current_range_meters":9200,"station_id":"ce4bhk92rcd13ifvqgc0","pricing_plan_id":"cebpf4jnsgd1na2vs0mg"},{"bike_id":"203ffeac-1ef3-4895-a77a-5421530ae43f","system_id":"levelo_inurba_marseille","lat":43.30303,"lon":5.39204,"is_reserved":false,"is_disabled":false,"rental_uris":{"android":"levelo://app?vid=203ffeac-1ef3-4895-a77a-5421530ae43f","ios":"levelo://app?vid=203ffeac-1ef3-4895-a77a-5421530ae43f"},"vehicle_type_id":"4","last_reported":1777235248,"current_range_meters":9200,"station_id":"ce4bgkh2rcd13ifvqbk0","pricing_plan_id":"cebpf4jnsgd1na2vs0mg"},{"bike_id":"18750a2f-a6c1-420e-8916-140266796909","system_id":"levelo_inurba_marseille","lat":43.30147,"lon":5.39873,"is_reserved":false,"is_disabled":false,"rental_uris":{"android":"levelo://app?vid=18750a2f-a6c1-420e-8916-140266796909","ios":"levelo://app?vid=18750a2f-a6c1-420e-8916-140266796909"},"vehicle_type_id":"4","last_reported":1777235248,"current_range_meters":9200,"station_id":"ce4bh0h2rcd13ifvqd40","pricing_plan_id":"cebpf4jnsgd1na2vs0mg"},{"bike_id":"6b8549bf-30d2-490f-8f61-d9ca43e4d06c","system_id":"levelo_inurba_marseille","lat":43.27043,"lon":5.40268,"is_reserved":false,"is_disabled":false,"rental_uris":{"android":"levelo://app?vid=6b8549bf-30d2-490f-8f61-d9ca43e4d06c","ios":"levelo://app?vid=6b8549bf-30d2-490f-8f61-d9ca43e4d06c"},"vehicle_type_id":"4","last_reported":1777235248,"current_range_meters":9200,"station_id":"ce4bhk92rcd13ifvqgc0","pricing_plan_id":"cebpf4jnsgd1na2vs0mg"},{"bike_id":"62a20b6e-e98d-4cc9-b298-e865d7184b00","system_id":"levelo_inurba_marseille","lat":43.25543,"lon":5.3761,"is_reserved":false,"is_disabled":false,"rental_uris":{"android":"levelo://app?vid=62a20b6e-e98d-4cc9-b298-e865d7184b00","ios":"levelo://app?vid=62a20b6e-e98d-4cc9-b298-e865d7184b00"},"vehicle_type_id":"4","last_reported":1777235248,"current_range_meters":9200,"station_id":"","pricing_plan_id":"cebpf4jnsgd1na2vs0mg"},