{"last_updated":1701374858,"ttl":30,"version":"2.2","data":{"bikes":[{"bike_id":"85ebfaaa-3017-45f3-906e-a6c2319c069c","system_id":"levelo_inurba_marseille","lat":43.30869,"lon":5.368615,"is_reserved":false,"is_disabled":false,"rental_uris":{"android":"levelo://app?vid=85ebfaaa-3017-45f3-906e-a6c2319c069c","ios":"levelo://app?vid=85ebfaaa-3017-45f3-906e-a6c2319c069c"},"vehicle_type_id":"4","last_reported":1701374859,"current_range_meters":14000,"station_id":"ce4bgn92rcd13ifvqbvg","pricing_plan_id":"free"},{"bike_id":"788dfae6-4fe0-4dea-8b13-81d68f186562","system_id":"levelo_inurba_marseille","lat":43.314811,"lon":5.373103,"is_reserved":false,"is_disabled":false,"rental_uris":{"android":"levelo://app?vid=788dfae6-4fe0-4dea-8b13-81d68f186562","ios":"levelo://app?vid=788dfae6-4fe0-4dea-8b13-81d68f186562"},"vehicle_type_id":"4","last_reported":1701374859,"current_range_meters":14000,"station_id":"ce4bgt12rcd13ifvqcd0","pricing_plan_id":"free"},{"bike_id":"2893e31b-5001-4bef-9b7c-3297f37de010","system_id":"levelo_inurba_marseille","lat":43.309039,"lon":5.371797,"is_reserved":false,"is_disabled":false,"rental_uris":{"android":"levelo://app?vid=2893e31b-5001-4bef-9b7c-3297f37de010","ios":"levelo://app?vid=2893e31b-5001-4bef-9b7c-3297f37de010"},"vehicle_type_id":"4","last_reported":1701374859,"current_range_meters":27600,"station_id":"ce4bguh2rcd13ifvqckg","pricing_plan_id":"free"},{"bike_id":"221e9aac-f63c-4942-bef9-ee936b943d3f","system_id":"levelo_inurba_marseille","lat":43.305368,"lon":5.367343,"is_reserved":false,"is_disabled":false,"rental_uris":{"android":"levelo://app?vid=221e9aac-f63c-4942-bef9-ee936b943d3f","ios":"levelo://app?vid=221e9aac-f63c-4942-bef9-ee936b943d3f"},"vehicle_type_id":"4","last_reported":1701374859,"current_range_meters":1600,"station_id":"ce4bgrp2rcd13ifvqc9g","pricing_plan_id":"free"},{"bike_id":"18f94b51-0045-4ced-b749-0c4009749f90","system_id":"levelo_inurba_marseille","lat":43.305989,"lon":5.37225,"is_reserved":false,"is_disabled":false,"rental_uris":{"android":"levelo://app?vid=18f94b51-0045-4ced-b749-0c4009749f90","ios":"levelo://app?vid=18f94b51-0045-4ced-b749-0c4009749f90"},"vehicle_type_id":"4","last_reported":1701374859,"current_range_meters":25200,"station_id":"ce4bgqh2rcd13ifvqc4g","pricing_plan_id":"free"},{"bike_id":"138975d6-9a77-4934-8f0b-217ecfa56156","system_id":"levelo_inurba_marseille","lat":43.311125,"lon":5.377624,"is_reserved":false,"is_disabled":false,"rental_uris":{"android":"levelo://app?vid=138975d6-9a77-4934-8f0b-217ecfa56156","ios":"levelo://app?vid=138975d6-9a77-4934-8f0b-217ecfa56156"},"vehicle_type_id":"4","last_reported":1701374859,"current_range_meters":29600,"station_id":"ce4bgt92rcd13ifvqcg0","pricing_plan_id":"free"},{"bike_id":"28b67163-d496-4d2f-a83c-ef6bda2c636e","system_id":"levelo_inurba_marseille","lat":43.30808,"lon":5.37641,"is_reserved":false,"is_disabled":false,"rental_uris":{"android":"levelo://app?vid=28b67163-d496-4d2f-a83c-ef6bda2c636e","ios":"levelo://app?vid=28b67163-d496-4d2f-a83c-ef6bda2c636e"},"vehicle_type_id":"4","last_reported":1701374859,"current_range_meters":4800,"station_id":"ce4bgv92rcd13ifvqcq0","pricing_plan_id":"free"},{"bike_id":"727d231a-d425-4d8f-ad3f-99b5a47572e8","system_id":"levelo_inurba_marseille","lat":43.30439,"lon":5.36753,"is_reserved":false,"is_disabled":false,"rental_uris":{"android":"levelo://app?vid=727d231a-d425-4d8f-ad3f-99b5a47572e8","ios":"levelo://app?vid=727d231a-d425-4d8f-ad3f-99b5a47572e8"},"vehicle_type_id":"4","last_reported":1701374859,"current_range_meters":30800,"station_id":"","pricing_plan_id":"free"},{"bike_id":"f427a2c3-6e4a-446b-ae2f-9be8aa7f4122","system_id":"levelo_inurba_marseille","lat":43.31719,"lon":5.376813,"is_reserved":false,"is_disabled":false,"rental_uris":{"android":"levelo://app?vid=f427a2c3-6e4a-446b-ae2f-9be8aa7f4122","ios":"levelo://app?vid=f427a2c3-6e4a-446b-ae2f-9be8aa7f4122"},"vehicle_type_id":"4","last_reported":1701374859,"current_range_meters":4400,"station_id":"ce4bgth2rcd13ifvqch0","pricing_plan_id":"free"},{"bike_id":"e913f328-1e31-4c22-bd87-f809ea246de4","system_id":"levelo_inurba_marseille","lat":43.317168,"lon":5.376883,"is_reserved":false,"is_disabled":false,"rental_uris":{"android":"levelo://app?vid=e913f328-1e31-4c22-bd87-f809ea246de4","ios":"levelo://app?vid=e913f328-1e31-4c22-bd87-f809ea246de4"},"vehicle_type_id":"4","last_reported":1701374859,"current_range_meters":6800,"station_id":"ce4bgth2rcd13ifvqch0","pricing_plan_id":"free"},{"bike_id":"bef3c888-e26e-4daf-a279-528d05d9f20b","system_id":"levelo_inurba_marseille","lat":43.30143,"lon":5.37413,"is_reserved":false,"is_disabled":false,"rental_uris":{"android":"levelo://app?vid=bef3c888-e26e-4daf-a279-528d05d9f20b","ios":"levelo://app?vid=bef3c888-e26e-4daf-a279-528d05d9f20b"},"vehicle_type_id":"4","last_reported":1701374859,"current_range_meters":20800,"station_id":"ce4bgs92rcd13ifvqcc0","pricing_plan_id":"free"},{"bike_id":"a353da53-2844-47b1-b7b8-563a86bb4f14","system_id":"levelo_inurba_marseille","lat":43.315293,"lon":5.380349,"is_reserved":false,"is_disabled":false,"rental_uris":{"android":"levelo://app?vid=a353da53-2844-47b1-b7b8-563a86bb4f14","ios":"levelo://app?vid=a353da53-2844-47b1-b7b8-563a86bb4f14"},"vehicle_type_id":"4","last_reported":1701374859,"current_range_meters":23600,"station_id":"ce4bhsp2rcd13ifvqi50","pricing_plan_id":"free"},{"bike_id":"fda18570-8561-48e4-9c60-b820488ac400","system_id":"levelo_inurba_marseille","lat":43.304606,"lon":5.379026,"is_reserved":false,"is_disabled":false,"rental_uris":{"android":"levelo://app?vid=fda18570-8561-48e4-9c60-b820488ac400","ios":"levelo://app?vid=fda18570-8561-48e4-9c60-b820488ac400"},"vehicle_type_id":"4","last_reported":1701374859,"current_range_meters":17200,"station_id":"ce4bgup2rcd13ifvqcn0","pricing_plan_id":"free"},{"bike_id":"301211ba-eced-4bb7-b047-78b877b913df","system_id":"levelo_inurba_marseille","lat":43.30794,"lon":5.38146,"is_reserved":false,"is_disabled":false,"rental_uris":{"android":"levelo://app?vid=301211ba-eced-4bb7-b047-78b877b913df","ios":"levelo://app?vid=301211ba-eced-4bb7-b047-78b877b913df"},"vehicle_type_id":"4","last_reported":1701374859,"current_range_meters":10000,"station_id":"ce4bgt12rcd13ifvqce0","pricing_plan_id":"free"},{"bike_id":"263ff703-9ccb-45fb-ada5-82f6d9baf8ac","system_id":"levelo_inurba_marseille","lat":43.308012,"lon":5.381511,"is_reserved":false,"is_disabled":false,"rental_uris":{"android":"levelo://app?vid=263ff703-9ccb-45fb-ada5-82f6d9baf8ac","ios":"levelo://app?vid=263ff703-9ccb-45fb-ada5-82f6d9baf8ac"},"vehicle_type_id":"4","last_reported":1701374859,"current_range_meters":20400,"station_id":"ce4bgt12rcd13ifvqce0","pricing_plan_id":"free"},{"bike_id":"d96e5d41-e2ed-4e9b-91e2-055fd92f6e0f","system_id":"levelo_inurba_marseille","lat":43.319886,"lon":5.381464,"is_reserved":false,"is_disabled":false,"rental_uris":{"android":"levelo://app?vid=d96e5d41-e2ed-4e9b-91e2-055fd92f6e0f","ios":"levelo://app?vid=d96e5d41-e2ed-4e9b-91e2-055fd92f6e0f"},"vehicle_type_id":"4","last_reported":1701374859,"current_range_meters":13600,"station_id":"ce4bhr12rcd13ifvqhpg","pricing_plan_id":"free"},{"bike_id":"a7ca3d4c-28e3-48b3-bafa-5cc2ba79900d","system_id":"levelo_inurba_marseille","lat":43.31996,"lon":5.38143,"is_reserved":false,"is_disabled":false,"rental_uris":{"android":"levelo://app?vid=a7ca3d4c-28e3-48b3-bafa-5cc2ba79900d","ios":"levelo://app?vid=a7ca3d4c-28e3-48b3-bafa-5cc2ba79900d"},"vehicle_type_id":"4","last_reported":1701374859,"current_range_meters":16800,"station_id":"ce4bhr12rcd13ifvqhpg","pricing_plan_id":"free"},{"bike_id":"9a8c326a-2956-42d0-9bce-9c1da7b272ea","system_id":"levelo_inurba_marseille","lat":43.319935,"lon":5.381699,"is_reserved":false,"is_disabled":false,"rental_uris":{"android":"levelo://app?vid=9a8c326a-2956-42d0-9bce-9c1da7b272ea","ios":"levelo://app?vid=9a8c326a-2956-42d0-9bce-9c1da7b272ea"},"vehicle_type_id":"4","last_reported":1701374859,"current_range_meters":21600,"station_id":"ce4bhr12rcd13ifvqhpg","pricing_plan_id":"free"},{"bike_id":"2275aca5-3158-4c2c-8022-ca5d2714bc86","system_id":"levelo_inurba_marseille","lat":43.319997,"lon":5.381594,"is_reserved":false,"is_disabled":false,"rental_uris":{"android":"levelo://app?vid=2275aca5-3158-4c2c-8022-ca5d2714bc86","ios":"levelo://app?vid=2275aca5-3158-4c2c-8022-ca5d2714bc86"},"vehicle_type_id":"4","last_reported":1701374859,"current_range_meters":22000,"station_id":"ce4bhr12rcd13ifvqhpg","pricing_plan_id":"free"},{"bike_id":"718ae525-2571-43d2-96e4-e90e60e9569f","system_id":"levelo_inurba_marseille","lat":43.31994,"lon":5.381648,"is_reserved":false,"is_disabled":false,"rental_uris":{"android":"levelo://app?vid=718ae525-2571-43d2-96e4-e90e60e9569f","ios":"levelo://app?vid=718ae525-2571-43d2-96e4-e90e60e9569f"},"vehicle_type_id":"4","last_reported":1701374859,"current_range_meters":0,"station_id":"ce4bhr12rcd13ifvqhpg","pricing_plan_id":"free"},{"bike_id":"b40aae6d-1d53-4127-bc75-b52e8caeeb3f","system_id":"levelo_inurba_marseille","lat":43.313571,"lon":5.384829,"is_reserved":false,"is_disabled":false,"rental_uris":{"android":"levelo://app?vid=b40aae6d-1d53-4127-bc75-b52e8caeeb3f","ios":"levelo://app?vid=b40aae6d-1d53-4127-bc75-b52e8caeeb3f"},"vehicle_type_id":"4","last_reported":1701374859,"current_range_meters":8400,"station_id":"ce4bgt92rcd13ifvqcf0","pricing_plan_id":"free"},{"bike_id":"2009f5a0-70a6-4c94-babd-2a20ad660788","system_id":"levelo_inurba_marseille","lat":43.313571,"lon":5.384829,"is_reserved":false,"is_disabled":false,"rental_uris":{"android":"levelo://app?vid=2009f5a0-70a6-4c94-babd-2a20ad660788","ios":"levelo://app?vid=2009f5a0-70a6-4c94-babd-2a20ad660788"},"vehicle_type_id":"4","last_reported":1701374859,"current_range_meters":29600,"station_id":"ce4bgt92rcd13ifvqcf0","pricing_plan_id":"free"},{"bike_id":"01d7d428-264d-44da-96d0-e7c7aec82074","system_id":"levelo_inurba_marseille","lat":43.313571,"lon":5.384829,"is_reserved":false,"is_disabled":false,"rental_uris":{"android":"levelo://app?vid=01d7d428-264d-44da-96d0-e7c7aec82074","ios":"levelo://app?vid=01d7d428-264d-44da-96d0-e7c7aec82074"},"vehicle_type_id":"4","last_reported":1701374859,"current_range_meters":18400,"station_id":"ce4bgt92rcd13ifvqcf0","pricing_plan_id":"free"},{"bike_id":"72dcacfb-91e1-4c51-81ed-e191326091e3","system_id":"levelo_inurba_marseille","lat":43.313775,"lon":5.384955,"is_reserved":false,"is_disabled":false,"rental_uris":{"android":"levelo://app?vid=72dcacfb-91e1-4c51-81ed-e191326091e3","ios":"levelo://app?vid=72dcacfb-91e1-4c51-81ed-e191326091e3"},"vehicle_type_id":"4","last_reported":1701374859,"current_range_meters":0,"station_id":"ce4bgt92rcd13ifvqcf0","pricing_plan_id":"free"},{"bike_id":"83ef92c7-feff-4808-92b7-a11365bf34b7","system_id":"levelo_inurba_marseille","lat":43.305364,"lon":5.384119,"is_reserved":false,"is_disabled":false,"rental_uris":{"android":"levelo://app?vid=83ef92c7-feff-4808-92b7-a11365bf34b7","ios":"levelo://app?vid=83ef92c7-feff-4808-92b7-a11365bf34b7"},"vehicle_type_id":"4","last_reported":1701374859,"current_range_meters":8000,"station_id":"ce4bgg92rcd13ifvqb30","pricing_plan_id":"free"},{"bike_id":"28cc15c0-d129-4ca6-80b1-1fa02f1322fa","system_id":"levelo_inurba_marseille","lat":43.299243,"lon":5.374807,"is_reserved":false,"is_disabled":false,"rental_uris":{"android":"levelo://app?vid=28cc15c0-d129-4ca6-80b1-1fa02f1322fa","ios":"levelo://app?vid=28cc15c0-d129-4ca6-80b1-1fa02f1322fa"},"vehicle_type_id":"4","last_reported":1701374859,"current_range_meters":9600,"station_id":"ce4bgjh2rcd13ifvqbg0","pricing_plan_id":"free"},{"bike_id":"c699a062-c468-4a26-a83b-b5d6336ec2eb","system_id":"levelo_inurba_marseille","lat":43.311722,"lon":5.387247,"is_reserved":false,"is_disabled":false,"rental_uris":{"android":"levelo://app?vid=c699a062-c468-4a26-a83b-b5d6336ec2eb","ios":"levelo://app?vid=c699a062-c468-4a26-a83b-b5d6336ec2eb"},"vehicle_type_id":"4","last_reported":1701374859,"current_range_meters":11600,"station_id":"ce4bgv12rcd13ifvqcp0","pricing_plan_id":"free"},{"bike_id":"aebb5f1f-3a1e-4323-a4f0-ae83e0b78d14","system_id":"levelo_inurba_marseille","lat":43.327603,"lon":5.36705,"is_reserved":false,"is_disabled":false,"rental_uris":{"android":"levelo://app?vid=aebb5f1f-3a1e-4323-a4f0-ae83e0b78d14","ios":"levelo://app?vid=aebb5f1f-3a1e-4323-a4f0-ae83e0b78d14"},"vehicle_type_id":"4","last_reported":1701374859,"current_range_meters":23600,"station_id":"","pricing_plan_id":"free"},{"bike_id":"579c0d6e-e344-4bb5-afcc-7fca48f6fadd","system_id":"levelo_inurba_marseille","lat":43.297794,"lon":5.370888,"is_reserved":false,"is_disabled":false,"rental_uris":{"android":"levelo://app?vid=579c0d6e-e344-4bb5-afcc-7fca48f6fadd","ios":"levelo://app?vid=579c0d6e-e344-4bb5-afcc-7fca48f6fadd"},"vehicle_type_id":"4","last_reported":1701374859,"current_range_meters":27200,"station_id":"ce4bgop2rcd13ifvqc1g","pricing_plan_id":"free"},{"bike_id":"a857c4c0-ebec-45a9-b9f5-ea7765299a80","system_id":"levelo_inurba_marseille","lat":43.322872,"lon":5.382756,"is_reserved":false,"is_disabled":false,"rental_uris":{"android":"levelo://app?vid=a857c4c0-ebec-45a9-b9f5-ea7765299a80","ios":"levelo://app?vid=a857c4c0-ebec-45a9-b9f5-ea7765299a80"},"vehicle_type_id":"4","last_reported":1701374859,"current_range_meters":3600,"station_id":"ce4bhr12rcd13ifvqhqg","pricing_plan_id":"free"},{"bike_id":"11fbc002-5b4d-4629-a038-bbbaf88697c2","system_id":"levelo_inurba_marseille","lat":43.322872,"lon":5.382756,"is_reserved":false,"is_disabled":false,"rental_uris":{"android":"levelo://app?vid=11fbc002-5b4d-4629-a038-bbbaf88697c2","ios":"levelo://app?vid=11fbc002-5b4d-4629-a038-bbbaf88697c2"},"vehicle_type_id":"4","last_reported":1701374859,"current_range_meters":30800,"station_id":"ce4bhr12rcd13ifvqhqg","pricing_plan_id":"free"},{"bike_id":"02b15dea-2fcc-4670-b2af-50f3f95ca4d8","system_id":"levelo_inurba_marseille","lat":43.29717,"lon":5.36609,"is_reserved":false,"is_disabled":false,"rental_uris":{"android":"levelo://app?vid=02b15dea-2fcc-4670-b2af-50f3f95ca4d8","ios":"levelo://app?vid=02b15dea-2fcc-4670-b2af-50f3f95ca4d8"},"vehicle_type_id":"4","last_reported":1701374859,"current_range_meters":10800,"station_id":"ce4bgn12rcd13ifvqbt0","pricing_plan_id":"free"},{"bike_id":"66f4fe63-7d83-4069-a77e-3d50b9f073a2","system_id":"levelo_inurba_marseille","lat":43.297163,"lon":5.365866,"is_reserved":false,"is_disabled":false,"rental_uris":{"android":"levelo://app?vid=66f4fe63-7d83-4069-a77e-3d50b9f073a2","ios":"levelo://app?vid=66f4fe63-7d83-4069-a77e-3d50b9f073a2"},"vehicle_type_id":"4","last_reported":1701374859,"current_range_meters":23600,"station_id":"ce4bgn12rcd13ifvqbt0","pricing_plan_id":"free"},{"bike_id":"d068864e-3768-4cb7-8f2c-e01febcf4d60","system_id":"levelo_inurba_marseille","lat":43.29623,"lon":5.36516,"is_reserved":false,"is_disabled":false,"rental_uris":{"android":"levelo://app?vid=d068864e-3768-4cb7-8f2c-e01febcf4d60","ios":"levelo://app?vid=d068864e-3768-4cb7-8f2c-e01febcf4d60"},"vehicle_type_id":"4","last_reported":1701374859,"current_range_meters":12000,"station_id":"","pricing_plan_id":"free"},{"bike_id":"2b24c94c-382b-4740-b254-81573f20bbed","system_id":"levelo_inurba_marseille","lat":43.295897,"lon":5.367953,"is_reserved":false,"is_disabled":false,"rental_uris":{"android":"levelo://app?vid=2b24c94c-382b-4740-b254-81573f20bbed","ios":"levelo://app?vid=2b24c94c-382b-4740-b254-81573f20bbed"},"vehicle_type_id":"4","last_reported":1701374859,"current_range_meters":7600,"station_id":"","pricing_plan_id":"free"},{"bike_id":"899ed52c-7780-4305-9908-bc82b6733ceb","system_id":"levelo_inurba_marseille","lat":43.309589,"lon":5.390258,"is_reserved":false,"is_disabled":false,"rental_uris":{"android":"levelo://app?vid=899ed52c-7780-4305-9908-bc82b6733ceb","ios":"levelo://app?vid=899ed52c-7780-4305-9908-bc82b6733ceb"},"vehicle_type_id":"4","last_reported":1701374859,"current_range_meters":6000,"station_id":"ce4bgup2rcd13ifvqco0","pricing_plan_id":"free"},{"bike_id":"8f66730c-9531-4440-8035-1361731a23cb","system_id":"levelo_inurba_marseille","lat":43.317557,"lon":5.390173,"is_reserved":false,"is_disabled":false,"rental_uris":{"android":"levelo://app?vid=8f66730c-9531-4440-8035-1361731a23cb","ios":"levelo://app?vid=8f66730c-9531-4440-8035-1361731a23cb"},"vehicle_type_id":"4","last_reported":1701374859,"current_range_meters":2400,"station_id":"ce4bhqp2rcd13ifvqhng","pricing_plan_id":"free"},{"bike_id":"b4c3ec95-c572-46e0-9cbd-a280b900a39a","system_id":"levelo_inurba_marseille","lat":43.317557,"lon":5.390173,"is_reserved":false,"is_disabled":false,"rental_uris":{"android":"levelo://app?vid=b4c3ec95-c572-46e0-9cbd-a280b900a39a","ios":"levelo://app?vid=b4c3ec95-c572-46e0-9cbd-a280b900a39a"},"vehicle_type_id":"4","last_reported":1701374859,"current_range_meters":0,"station_id":"ce4bhqp2rcd13ifvqhng","pricing_plan_id":"free"},{"bike_id":"62d6693c-ec2b-45d1-b37e-d2a35a93d478","system_id":"levelo_inurba_marseille","lat":43.317557,"lon":5.390173,"is_reserved":false,"is_disabled":false,"rental_uris":{"android":"levelo://app?vid=62d6693c-ec2b-45d1-b37e-d2a35a93d478","ios":"levelo://app?vid=62d6693c-ec2b-45d1-b37e-d2a35a93d478"},"vehicle_type_id":"4","last_reported":1701374859,"current_range_meters":28000,"station_id":"ce4bhqp2rcd13ifvqhng","pricing_plan_id":"free"},{"bike_id":"466938ea-1d09-4ac1-8658-95b6e9e80d55","system_id":"levelo_inurba_marseille","lat":43.317557,"lon":5.390173,"is_reserved":false,"is_disabled":false,"rental_uris":{"android":"levelo://app?vid=466938ea-1d09-4ac1-8658-95b6e9e80d55","ios":"levelo://app?vid=466938ea-1d09-4ac1-8658-95b6e9e80d55"},"vehicle_type_id":"4","last_reported":1701374859,"current_range_meters":31200,"station_id":"ce4bhqp2rcd13ifvqhng","pricing_plan_id":"free"},{"bike_id":"d2fdc27e-ec4b-4e9b-a5f1-7a7c785e4856","system_id":"levelo_inurba_marseille","lat":43.31753,"lon":5.39018,"is_reserved":false,"is_disabled":false,"rental_uris":{"android":"levelo://app?vid=d2fdc27e-ec4b-4e9b-a5f1-7a7c785e4856","ios":"levelo://app?vid=d2fdc27e-ec4b-4e9b-a5f1-7a7c785e4856"},"vehicle_type_id":"4","last_reported":1701374859,"current_range_meters":400,"station_id":"ce4bhqp2rcd13ifvqhng","pricing_plan_id":"free"},{"bike_id":"42ce8807-3268-416e-80f1-1c5e14416656","system_id":"levelo_inurba_marseille","lat":43.304278,"lon":5.388868,"is_reserved":false,"is_disabled":false,"rental_uris":{"android":"levelo://app?vid=42ce8807-3268-416e-80f1-1c5e14416656","ios":"levelo://app?vid=42ce8807-3268-416e-80f1-1c5e14416656"},"vehicle_type_id":"4","last_reported":1701374859,"current_range_meters":11200,"station_id":"ce4bgk12rcd13ifvqbi0","pricing_plan_id":"free"},{"bike_id":"b8591df7-4b42-4ed8-9f5f-d04abd3e5902","system_id":"levelo_inurba_marseille","lat":43.304278,"lon":5.388868,"is_reserved":false,"is_disabled":false,"rental_uris":{"android":"levelo://app?vid=b8591df7-4b42-4ed8-9f5f-d04abd3e5902","ios":"levelo://app?vid=b8591df7-4b42-4ed8-9f5f-d04abd3e5902"},"vehicle_type_id":"4","last_reported":1701374859,"current_range_meters":28000,"station_id":"ce4bgk12rcd13ifvqbi0","pricing_plan_id":"free"},{"bike_id":"5983625d-69f5-485f-a399-daec2999c965","system_id":"levelo_inurba_marseille","lat":43.3235,"lon":5.3873,"is_reserved":false,"is_disabled":false,"rental_uris":{"android":"levelo://app?vid=5983625d-69f5-485f-a399-daec2999c965","ios":"levelo://app?vid=5983625d-69f5-485f-a399-daec2999c965"},"vehicle_type_id":"4","last_reported":1701374859,"current_range_meters":8000,"station_id":"ce4bhqp2rcd13ifvqhog","pricing_plan_id":"free"},{"bike_id":"eaa0e7e7-2390-47fa-909b-7b240952cbef","system_id":"levelo_inurba_marseille","lat":43.31938,"lon":5.39207,"is_reserved":false,"is_disabled":false,"rental_uris":{"android":"levelo://app?vid=eaa0e7e7-2390-47fa-909b-7b240952cbef","ios":"levelo://app?vid=eaa0e7e7-2390-47fa-909b-7b240952cbef"},"vehicle_type_id":"4","last_reported":1701374859,"current_range_meters":21200,"station_id":"","pricing_plan_id":"free"},{"bike_id":"e5c2d5e4-4213-4340-90d6-ea24a640b638","system_id":"levelo_inurba_marseille","lat":43.29601,"lon":5.381084,"is_reserved":false,"is_disabled":false,"rental_uris":{"android":"levelo://app?vid=e5c2d5e4-4213-4340-90d6-ea24a640b638","ios":"levelo://app?vid=e5c2d5e4-4213-4340-90d6-ea24a640b638"},"vehicle_type_id":"4","last_reported":1701374859,"current_range_meters":26800,"station_id":"ce4bgl12rcd13ifvqbo0","pricing_plan_id":"free"},{"bike_id":"56763611-0b5d-46c6-80a0-ca3f5b394822","system_id":"levelo_inurba_marseille","lat":43.29601,"lon":5.381084,"is_reserved":false,"is_disabled":false,"rental_uris":{"android":"levelo://app?vid=56763611-0b5d-46c6-80a0-ca3f5b394822","ios":"levelo://app?vid=56763611-0b5d-46c6-80a0-ca3f5b394822"},"vehicle_type_id":"4","last_reported":1701374859,"current_range_meters":12800,"station_id":"ce4bgl12rcd13ifvqbo0","pricing_plan_id":"free"},{"bike_id":"c7ab0921-3bd9-4444-a5f2-0be01f7df44d","system_id":"levelo_inurba_marseille","lat":43.293009,"lon":5.374584,"is_reserved":false,"is_disabled":false,"rental_uris":{"android":"levelo://app?vid=c7ab0921-3bd9-4444-a5f2-0be01f7df44d","ios":"levelo://app?vid=c7ab0921-3bd9-4444-a5f2-0be01f7df44d"},"vehicle_type_id":"4","last_reported":1701374859,"current_range_meters":23200,"station_id":"ce4bgi12rcd13ifvqb70","pricing_plan_id":"free"},{"bike_id":"a84bb35b-024f-4e32-b080-d5082f0e964f","system_id":"levelo_inurba_marseille","lat":43.303002,"lon":5.392142,"is_reserved":false,"is_disabled":false,"rental_uris":{"android":"levelo://app?vid=a84bb35b-024f-4e32-b080-d5082f0e964f","ios":"levelo://app?vid=a84bb35b-024f-4e32-b080-d5082f0e964f"},"vehicle_type_id":"4","last_reported":1701374859,"current_range_meters":24000,"station_id":"ce4bgkh2rcd13ifvqbk0","pricing_plan_id":"free"},{"bike_id":"debc9436-a692-4148-9a09-03eb182027b1","system_id":"levelo_inurba_marseille","lat":43.30305,"lon":5.39212,"is_reserved":false,"is_disabled":false,"rental_uris":{"android":"levelo://app?vid=debc9436-a692-4148-9a09-03eb182027b1","ios":"levelo://app?vid=debc9436-a692-4148-9a09-03eb182027b1"},"vehicle_type_id":"4","last_reported":1701374859,"current_range_meters":17200,"station_id":"ce4bgkh2rcd13ifvqbk0","pricing_plan_id":"free"},{"bike_id":"d474ce90-453f-402b-ab94-5b6673d16885","system_id":"levelo_inurba_marseille","lat":43.292663,"lon":5.376394,"is_reserved":false,"is_disabled":false,"rental_uris":{"android":"levelo://app?vid=d474ce90-453f-402b-ab94-5b6673d16885","ios":"levelo://app?vid=d474ce90-453f-402b-ab94-5b6673d16885"},"vehicle_type_id":"4","last_reported":1701374859,"current_range_meters":26800,"station_id":"ce4bgi12rcd13ifvqb80","pricing_plan_id":"free"},{"bike_id":"ab9bdbd1-2d12-4029-bea2-0cb47fcd534a","system_id":"levelo_inurba_marseille","lat":43.291675,"lon":5.371583,"is_reserved":false,"is_disabled":false,"rental_uris":{"android":"levelo://app?vid=ab9bdbd1-2d12-4029-bea2-0cb47fcd534a","ios":"levelo://app?vid=ab9bdbd1-2d12-4029-bea2-0cb47fcd534a"},"vehicle_type_id":"4","last_reported":1701374859,"current_range_meters":2000,"station_id":"ce4bha92rcd13ifvqeh0","pricing_plan_id":"free"},{"bike_id":"44fee2e4-eb1a-43a4-a44f-5a3e0005db9e","system_id":"levelo_inurba_marseille","lat":43.291675,"lon":5.371583,"is_reserved":false,"is_disabled":false,"rental_uris":{"android":"levelo://app?vid=44fee2e4-eb1a-43a4-a44f-5a3e0005db9e","ios":"levelo://app?vid=44fee2e4-eb1a-43a4-a44f-5a3e0005db9e"},"vehicle_type_id":"4","last_reported":1701374859,"current_range_meters":6800,"station_id":"ce4bha92rcd13ifvqeh0","pricing_plan_id":"free"},{"bike_id":"00c593b5-1fda-4c8e-8b97-7a39e3388cfb","system_id":"levelo_inurba_marseille","lat":43.292663,"lon":5.376389,"is_reserved":false,"is_disabled":false,"rental_uris":{"android":"levelo://app?vid=00c593b5-1fda-4c8e-8b97-7a39e3388cfb","ios":"levelo://app?vid=00c593b5-1fda-4c8e-8b97-7a39e3388cfb"},"vehicle_type_id":"4","last_reported":1701374859,"current_range_meters":22000,"station_id":"ce4bgi12rcd13ifvqb80","pricing_plan_id":"free"},{"bike_id":"d6aedd51-8709-44c6-9d66-551d22219abb","system_id":"levelo_inurba_marseille","lat":43.291675,"lon":5.371583,"is_reserved":false,"is_disabled":false,"rental_uris":{"android":"levelo://app?vid=d6aedd51-8709-44c6-9d66-551d22219abb","ios":"levelo://app?vid=d6aedd51-8709-44c6-9d66-551d22219abb"},"vehicle_type_id":"4","last_reported":1701374859,"current_range_meters":22400,"station_id":"ce4bha92rcd13ifvqeh0","pricing_plan_id":"free"},{"bike_id":"131a0ac6-a44e-420b-a790-e2810edead5c","system_id":"levelo_inurba_marseille","lat":43.291675,"lon":5.371583,"is_reserved":false,"is_disabled":false,"rental_uris":{"android":"levelo://app?vid=131a0ac6-a44e-420b-a790-e2810edead5c","ios":"levelo://app?vid=131a0ac6-a44e-420b-a790-e2810edead5c"},"vehicle_type_id":"4","last_reported":1701374859,"current_range_meters":24000,"station_id":"ce4bha92rcd13ifvqeh0","pricing_plan_id":"free"},{"bike_id":"5fca806d-2318-4206-a1c7-429674f2421b","system_id":"levelo_inurba_marseille","lat":43.291675,"lon":5.371583,"is_reserved":false,"is_disabled":false,"rental_uris":{"android":"levelo://app?vid=5fca806d-2318-4206-a1c7-429674f2421b","ios":"levelo://app?vid=5fca806d-2318-4206-a1c7-429674f2421b"},"vehicle_type_id":"4","last_reported":1701374859,"current_range_meters":3200,"station_id":"ce4bha92rcd13ifvqeh0","pricing_plan_id":"free"},{"bike_id":"7d2eb4b9-f7c5-4e11-bf75-82de53347b6b","system_id":"levelo_inurba_marseille","lat":43.308797,"lon":5.39627,"is_reserved":false,"is_disabled":false,"rental_uris":{"android":"levelo://app?vid=7d2eb4b9-f7c5-4e11-bf75-82de53347b6b","ios":"levelo://app?vid=7d2eb4b9-f7c5-4e11-bf75-82de53347b6b"},"vehicle_type_id":"4","last_reported":1701374859,"current_range_meters":29200,"station_id":"ce4bh012rcd13ifvqcv0","pricing_plan_id":"free"},{"bike_id":"ad6747bc-7e81-4ebd-a967-42a8fc9e9805","system_id":"levelo_inurba_marseille","lat":43.30892,"lon":5.39636,"is_reserved":false,"is_disabled":false,"rental_uris":{"android":"levelo://app?vid=ad6747bc-7e81-4ebd-a967-42a8fc9e9805","ios":"levelo://app?vid=ad6747bc-7e81-4ebd-a967-42a8fc9e9805"},"vehicle_type_id":"4","last_reported":1701374859,"current_range_meters":10800,"station_id":"ce4bh012rcd13ifvqcv0","pricing_plan_id":"free"},{"bike_id":"d2b03b0d-786f-4d22-b158-288c6e8985fc","system_id":"levelo_inurba_marseille","lat":43.31325,"lon":5.39684,"is_reserved":false,"is_disabled":false,"rental_uris":{"android":"levelo://app?vid=d2b03b0d-786f-4d22-b158-288c6e8985fc","ios":"levelo://app?vid=d2b03b0d-786f-4d22-b158-288c6e8985fc"},"vehicle_type_id":"4","last_reported":1701374859,"current_range_meters":4400,"station_id":"ce4bgvp2rcd13ifvqcu0","pricing_plan_id":"free"},{"bike_id":"003e3848-9a2d-4a03-b685-53c7efbce624","system_id":"levelo_inurba_marseille","lat":43.313334,"lon":5.396934,"is_reserved":false,"is_disabled":false,"rental_uris":{"android":"levelo://app?vid=003e3848-9a2d-4a03-b685-53c7efbce624","ios":"levelo://app?vid=003e3848-9a2d-4a03-b685-53c7efbce624"},"vehicle_type_id":"4","last_reported":1701374859,"current_range_meters":30000,"station_id":"ce4bgvp2rcd13ifvqcu0","pricing_plan_id":"free"},{"bike_id":"e4640747-17b8-4b10-9bf0-8dbc490e496f","system_id":"levelo_inurba_marseille","lat":43.313243,"lon":5.396947,"is_reserved":false,"is_disabled":false,"rental_uris":{"android":"levelo://app?vid=e4640747-17b8-4b10-9bf0-8dbc490e496f","ios":"levelo://app?vid=e4640747-17b8-4b10-9bf0-8dbc490e496f"},"vehicle_type_id":"4","last_reported":1701374859,"current_range_meters":9200,"station_id":"ce4bgvp2rcd13ifvqcu0","pricing_plan_id":"free"},{"bike_id":"ba9a1ccf-e91c-4631-932f-3b7838547489","system_id":"levelo_inurba_marseille","lat":43.290779,"lon":5.371482,"is_reserved":false,"is_disabled":false,"rental_uris":{"android":"levelo://app?vid=ba9a1ccf-e91c-4631-932f-3b7838547489","ios":"levelo://app?vid=ba9a1ccf-e91c-4631-932f-3b7838547489"},"vehicle_type_id":"4","last_reported":1701374859,"current_range_meters":28000,"station_id":"ce4bh5p2rcd13ifvqe4g","pricing_plan_id":"free"},{"bike_id":"6bead857-72f8-466c-8640-ff2cec348048","system_id":"levelo_inurba_marseille","lat":43.29007,"lon":5.3676,"is_reserved":false,"is_disabled":false,"rental_uris":{"android":"levelo://app?vid=6bead857-72f8-466c-8640-ff2cec348048","ios":"levelo://app?vid=6bead857-72f8-466c-8640-ff2cec348048"},"vehicle_type_id":"4","last_reported":1701374859,"current_range_meters":14000,"station_id":"","pricing_plan_id":"free"},{"bike_id":"97b5edcd-d8db-4f4c-8b93-3ed5492905d1","system_id":"levelo_inurba_marseille","lat":43.290327,"lon":5.375711,"is_reserved":false,"is_disabled":false,"rental_uris":{"android":"levelo://app?vid=97b5edcd-d8db-4f4c-8b93-3ed5492905d1","ios":"levelo://app?vid=97b5edcd-d8db-4f4c-8b93-3ed5492905d1"},"vehicle_type_id":"4","last_reported":1701374859,"current_range_meters":18400,"station_id":"ce4bh692rcd13ifvqe90","pricing_plan_id":"free"},{"bike_id":"0ca96f16-9faa-471d-96ab-1a252e079548","system_id":"levelo_inurba_marseille","lat":43.290327,"lon":5.375711,"is_reserved":false,"is_disabled":false,"rental_uris":{"android":"levelo://app?vid=0ca96f16-9faa-471d-96ab-1a252e079548","ios":"levelo://app?vid=0ca96f16-9faa-471d-96ab-1a252e079548"},"vehicle_type_id":"4","last_reported":1701374859,"current_range_meters":4000,"station_id":"ce4bh692rcd13ifvqe90","pricing_plan_id":"free"},{"bike_id":"d3f52b4d-d81d-4081-8cf3-6a45189945d5","system_id":"levelo_inurba_marseille","lat":43.294162,"lon":5.386292,"is_reserved":false,"is_disabled":false,"rental_uris":{"android":"levelo://app?vid=d3f52b4d-d81d-4081-8cf3-6a45189945d5","ios":"levelo://app?vid=d3f52b4d-d81d-4081-8cf3-6a45189945d5"},"vehicle_type_id":"4","last_reported":1701374859,"current_range_meters":5200,"station_id":"ce4bh2h2rcd13ifvqdh0","pricing_plan_id":"free"},{"bike_id":"1d28aaff-46f7-44ee-8087-859491e5f7b7","system_id":"levelo_inurba_marseille","lat":43.294153,"lon":5.386305,"is_reserved":false,"is_disabled":false,"rental_uris":{"android":"levelo://app?vid=1d28aaff-46f7-44ee-8087-859491e5f7b7","ios":"levelo://app?vid=1d28aaff-46f7-44ee-8087-859491e5f7b7"},"vehicle_type_id":"4","last_reported":1701374859,"current_range_meters":10000,"station_id":"ce4bh2h2rcd13ifvqdh0","pricing_plan_id":"free"},{"bike_id":"6c54580e-f4a5-4b3a-95df-23a70977e890","system_id":"levelo_inurba_marseille","lat":43.294162,"lon":5.386292,"is_reserved":false,"is_disabled":false,"rental_uris":{"android":"levelo://app?vid=6c54580e-f4a5-4b3a-95df-23a70977e890","ios":"levelo://app?vid=6c54580e-f4a5-4b3a-95df-23a70977e890"},"vehicle_type_id":"4","last_reported":1701374859,"current_range_meters":19200,"station_id":"ce4bh2h2rcd13ifvqdh0","pricing_plan_id":"free"},{"bike_id":"e6cf6b97-7205-4cf2-9ad3-3823e10650dc","system_id":"levelo_inurba_marseille","lat":43.289445,"lon":5.36408,"is_reserved":false,"is_disabled":false,"rental_uris":{"android":"levelo://app?vid=e6cf6b97-7205-4cf2-9ad3-3823e10650dc","ios":"levelo://app?vid=e6cf6b97-7205-4cf2-9ad3-3823e10650dc"},"vehicle_type_id":"4","last_reported":1701374859,"current_range_meters":29600,"station_id":"ce4bhc92rcd13ifvqetg","pricing_plan_id":"free"},{"bike_id":"0c5a980f-9e98-40a9-b452-966ae7a6dc4d","system_id":"levelo_inurba_marseille","lat":43.289184,"lon":5.366408,"is_reserved":false,"is_disabled":false,"rental_uris":{"android":"levelo://app?vid=0c5a980f-9e98-40a9-b452-966ae7a6dc4d","ios":"levelo://app?vid=0c5a980f-9e98-40a9-b452-966ae7a6dc4d"},"vehicle_type_id":"4","last_reported":1701374859,"current_range_meters":12000,"station_id":"ce4bhap2rcd13ifvqek0","pricing_plan_id":"free"},{"bike_id":"1c7c3cdc-719b-4175-addd-cf4c2ea1cdd2","system_id":"levelo_inurba_marseille","lat":43.289184,"lon":5.366408,"is_reserved":false,"is_disabled":false,"rental_uris":{"android":"levelo://app?vid=1c7c3cdc-719b-4175-addd-cf4c2ea1cdd2","ios":"levelo://app?vid=1c7c3cdc-719b-4175-addd-cf4c2ea1cdd2"},"vehicle_type_id":"4","last_reported":1701374859,"current_range_meters":6800,"station_id":"ce4bhap2rcd13ifvqek0","pricing_plan_id":"free"},{"bike_id":"8e1f2bc9-8773-461b-b259-213fc065274f","system_id":"levelo_inurba_marseille","lat":43.28941,"lon":5.36401,"is_reserved":false,"is_disabled":false,"rental_uris":{"android":"levelo://app?vid=8e1f2bc9-8773-461b-b259-213fc065274f","ios":"levelo://app?vid=8e1f2bc9-8773-461b-b259-213fc065274f"},"vehicle_type_id":"4","last_reported":1701374859,"current_range_meters":24400,"station_id":"ce4bhc92rcd13ifvqetg","pricing_plan_id":"free"},{"bike_id":"a56e72c7-103a-4cb6-9686-c84edfb49613","system_id":"levelo_inurba_marseille","lat":43.289468,"lon":5.363719,"is_reserved":false,"is_disabled":false,"rental_uris":{"android":"levelo://app?vid=a56e72c7-103a-4cb6-9686-c84edfb49613","ios":"levelo://app?vid=a56e72c7-103a-4cb6-9686-c84edfb49613"},"vehicle_type_id":"4","last_reported":1701374859,"current_range_meters":27600,"station_id":"ce4bhc92rcd13ifvqetg","pricing_plan_id":"free"},{"bike_id":"ac61eb52-1ee6-49bd-a17d-bf2a1a3588d3","system_id":"levelo_inurba_marseille","lat":43.289468,"lon":5.363719,"is_reserved":false,"is_disabled":false,"rental_uris":{"android":"levelo://app?vid=ac61eb52-1ee6-49bd-a17d-bf2a1a3588d3","ios":"levelo://app?vid=ac61eb52-1ee6-49bd-a17d-bf2a1a3588d3"},"vehicle_type_id":"4","last_reported":1701374859,"current_range_meters":16400,"station_id":"ce4bhc92rcd13ifvqetg","pricing_plan_id":"free"},{"bike_id":"b0001738-67fc-4cc6-94ca-b466884dcb20","system_id":"levelo_inurba_marseille","lat":43.28916,"lon":5.36473,"is_reserved":false,"is_disabled":false,"rental_uris":{"android":"levelo://app?vid=b0001738-67fc-4cc6-94ca-b466884dcb20","ios":"levelo://app?vid=b0001738-67fc-4cc6-94ca-b466884dcb20"},"vehicle_type_id":"4","last_reported":1701374859,"current_range_meters":21200,"station_id":"","pricing_plan_id":"free"},{"bike_id":"5b3f15c9-ac27-490a-b6d9-88c329eca675","system_id":"levelo_inurba_marseille","lat":43.292642,"lon":5.384254,"is_reserved":false,"is_disabled":false,"rental_uris":{"android":"levelo://app?vid=5b3f15c9-ac27-490a-b6d9-88c329eca675","ios":"levelo://app?vid=5b3f15c9-ac27-490a-b6d9-88c329eca675"},"vehicle_type_id":"4","last_reported":1701374859,"current_range_meters":1200,"station_id":"ce4bh692rcd13ifvqea0","pricing_plan_id":"free"},{"bike_id":"b8b7836b-5e84-48a1-89d0-4d3796f258c8","system_id":"levelo_inurba_marseille","lat":43.290104,"lon":5.356111,"is_reserved":false,"is_disabled":false,"rental_uris":{"android":"levelo://app?vid=b8b7836b-5e84-48a1-89d0-4d3796f258c8","ios":"levelo://app?vid=b8b7836b-5e84-48a1-89d0-4d3796f258c8"},"vehicle_type_id":"4","last_reported":1701374859,"current_range_meters":6800,"station_id":"ce4bhb92rcd13ifvqen0","pricing_plan_id":"free"},{"bike_id":"433c11ae-8306-4bbf-850d-086e9b9b8b2e","system_id":"levelo_inurba_marseille","lat":43.2909,"lon":5.381212,"is_reserved":false,"is_disabled":false,"rental_uris":{"android":"levelo://app?vid=433c11ae-8306-4bbf-850d-086e9b9b8b2e","ios":"levelo://app?vid=433c11ae-8306-4bbf-850d-086e9b9b8b2e"},"vehicle_type_id":"4","last_reported":1701374859,"current_range_meters":18400,"station_id":"ce4bh512rcd13ifvqe2g","pricing_plan_id":"free"},{"bike_id":"e3992958-57f4-4daa-b707-fecb73953014","system_id":"levelo_inurba_marseille","lat":43.29791,"lon":5.39343,"is_reserved":false,"is_disabled":false,"rental_uris":{"android":"levelo://app?vid=e3992958-57f4-4daa-b707-fecb73953014","ios":"levelo://app?vid=e3992958-57f4-4daa-b707-fecb73953014"},"vehicle_type_id":"4","last_reported":1701374859,"current_range_meters":19600,"station_id":"chh1huq6cuj3fo74tm60","pricing_plan_id":"free"},{"bike_id":"c585b56c-118f-4e2e-b47f-5a0edc06138d","system_id":"levelo_inurba_marseille","lat":43.29783,"lon":5.393393,"is_reserved":false,"is_disabled":false,"rental_uris":{"android":"levelo://app?vid=c585b56c-118f-4e2e-b47f-5a0edc06138d","ios":"levelo://app?vid=c585b56c-118f-4e2e-b47f-5a0edc06138d"},"vehicle_type_id":"4","last_reported":1701374859,"current_range_meters":16400,"station_id":"chh1huq6cuj3fo74tm60","pricing_plan_id":"free"},{"bike_id":"197fb9dc-c331-44ce-8548-d5d0c7edd024","system_id":"levelo_inurba_marseille","lat":43.2901,"lon":5.381269,"is_reserved":false,"is_disabled":false,"rental_uris":{"android":"levelo://app?vid=197fb9dc-c331-44ce-8548-d5d0c7edd024","ios":"levelo://app?vid=197fb9dc-c331-44ce-8548-d5d0c7edd024"},"vehicle_type_id":"4","last_reported":1701374859,"current_range_meters":22400,"station_id":"ce4bh4p2rcd13ifvqe1g","pricing_plan_id":"free"},{"bike_id":"e8716f4b-4cf2-49a3-a4e7-cacaf36bc332","system_id":"levelo_inurba_marseille","lat":43.28856,"lon":5.358371,"is_reserved":false,"is_disabled":false,"rental_uris":{"android":"levelo://app?vid=e8716f4b-4cf2-49a3-a4e7-cacaf36bc332","ios":"levelo://app?vid=e8716f4b-4cf2-49a3-a4e7-cacaf36bc332"},"vehicle_type_id":"4","last_reported":1701374859,"current_range_meters":0,"station_id":"ce4bhb12rcd13ifvqem0","pricing_plan_id":"free"},{"bike_id":"8d2ed18d-703b-4679-a508-9c91faf70cac","system_id":"levelo_inurba_marseille","lat":43.28856,"lon":5.358371,"is_reserved":false,"is_disabled":false,"rental_uris":{"android":"levelo://app?vid=8d2ed18d-703b-4679-a508-9c91faf70cac","ios":"levelo://app?vid=8d2ed18d-703b-4679-a508-9c91faf70cac"},"vehicle_type_id":"4","last_reported":1701374859,"current_range_meters":22400,"station_id":"ce4bhb12rcd13ifvqem0","pricing_plan_id":"free"},{"bike_id":"49c2e106-446b-4943-8b2a-78e542a87aa5","system_id":"levelo_inurba_marseille","lat":43.28856,"lon":5.358371,"is_reserved":false,"is_disabled":false,"rental_uris":{"android":"levelo://app?vid=49c2e106-446b-4943-8b2a-78e542a87aa5","ios":"levelo://app?vid=49c2e106-446b-4943-8b2a-78e542a87aa5"},"vehicle_type_id":"4","last_reported":1701374859,"current_range_meters":12400,"station_id":"ce4bhb12rcd13ifvqem0","pricing_plan_id":"free"},{"bike_id":"472c676a-1063-4a37-aa9f-17d862102a0b","system_id":"levelo_inurba_marseille","lat":43.30925,"lon":5.40135,"is_reserved":false,"is_disabled":false,"rental_uris":{"android":"levelo://app?vid=472c676a-1063-4a37-aa9f-17d862102a0b","ios":"levelo://app?vid=472c676a-1063-4a37-aa9f-17d862102a0b"},"vehicle_type_id":"4","last_reported":1701374859,"current_range_meters":19200,"station_id":"ce4bgvp2rcd13ifvqct0","pricing_plan_id":"free"},{"bike_id":"a2c112a6-58e1-4e8b-8be8-80d2c9d8d3d7","system_id":"levelo_inurba_marseille","lat":43.31265,"lon":5.401699,"is_reserved":false,"is_disabled":false,"rental_uris":{"android":"levelo://app?vid=a2c112a6-58e1-4e8b-8be8-80d2c9d8d3d7","ios":"levelo://app?vid=a2c112a6-58e1-4e8b-8be8-80d2c9d8d3d7"},"vehicle_type_id":"4","last_reported":1701374859,"current_range_meters":17200,"station_id":"","pricing_plan_id":"free"},{"bike_id":"4a8cc3bd-2771-4300-879c-a3018715ac91","system_id":"levelo_inurba_marseille","lat":43.30932,"lon":5.40146,"is_reserved":false,"is_disabled":false,"rental_uris":{"android":"levelo://app?vid=4a8cc3bd-2771-4300-879c-a3018715ac91","ios":"levelo://app?vid=4a8cc3bd-2771-4300-879c-a3018715ac91"},"vehicle_type_id":"4","last_reported":1701374859,"current_range_meters":1600,"station_id":"ce4bgvp2rcd13ifvqct0","pricing_plan_id":"free"},{"bike_id":"7535eaed-f428-4465-83a1-90fbb47ae0ae","system_id":"levelo_inurba_marseille","lat":43.30915,"lon":5.40144,"is_reserved":false,"is_disabled":false,"rental_uris":{"android":"levelo://app?vid=7535eaed-f428-4465-83a1-90fbb47ae0ae","ios":"levelo://app?vid=7535eaed-f428-4465-83a1-90fbb47ae0ae"},"vehicle_type_id":"4","last_reported":1701374859,"current_range_meters":12800,"station_id":"ce4bgvp2rcd13ifvqct0","pricing_plan_id":"free"},{"bike_id":"2ae93018-1f66-4407-8727-ce3bd016a9f6","system_id":"levelo_inurba_marseille","lat":43.3376,"lon":5.37445,"is_reserved":false,"is_disabled":false,"rental_uris":{"android":"levelo://app?vid=2ae93018-1f66-4407-8727-ce3bd016a9f6","ios":"levelo://app?vid=2ae93018-1f66-4407-8727-ce3bd016a9f6"},"vehicle_type_id":"4","last_reported":1701374859,"current_range_meters":17600,"station_id":"","pricing_plan_id":"free"},{"bike_id":"1b9ac009-cff0-486d-a1ea-a93c08923e80","system_id":"levelo_inurba_marseille","lat":43.33767,"lon":5.37448,"is_reserved":false,"is_disabled":false,"rental_uris":{"android":"levelo://app?vid=1b9ac009-cff0-486d-a1ea-a93c08923e80","ios":"levelo://app?vid=1b9ac009-cff0-486d-a1ea-a93c08923e80"},"vehicle_type_id":"4","last_reported":1701374859,"current_range_meters":29600,"station_id":"","pricing_plan_id":"free"},{"bike_id":"de117050-8bd5-4e62-8beb-ea605b189848","system_id":"levelo_inurba_marseille","lat":43.30642,"lon":5.401031,"is_reserved":false,"is_disabled":false,"rental_uris":{"android":"levelo://app?vid=de117050-8bd5-4e62-8beb-ea605b189848","ios":"levelo://app?vid=de117050-8bd5-4e62-8beb-ea605b189848"},"vehicle_type_id":"4","last_reported":1701374859,"current_range_meters":11600,"station_id":"ce4bh112rcd13ifvqda0","pricing_plan_id":"free"},{"bike_id":"88de979b-1386-4e7b-86ac-24ff8c9bf9f4","system_id":"levelo_inurba_marseille","lat":43.30648,"lon":5.40099,"is_reserved":false,"is_disabled":false,"rental_uris":{"android":"levelo://app?vid=88de979b-1386-4e7b-86ac-24ff8c9bf9f4","ios":"levelo://app?vid=88de979b-1386-4e7b-86ac-24ff8c9bf9f4"},"vehicle_type_id":"4","last_reported":1701374859,"current_range_meters":26800,"station_id":"ce4bh112rcd13ifvqda0","pricing_plan_id":"free"},{"bike_id":"82680280-7b74-4512-b5a1-81450efdcb7f","system_id":"levelo_inurba_marseille","lat":43.301117,"lon":5.398795,"is_reserved":false,"is_disabled":false,"rental_uris":{"android":"levelo://app?vid=82680280-7b74-4512-b5a1-81450efdcb7f","ios":"levelo://app?vid=82680280-7b74-4512-b5a1-81450efdcb7f"},"vehicle_type_id":"4","last_reported":1701374859,"current_range_meters":5600,"station_id":"ce4bh0h2rcd13ifvqd40","pricing_plan_id":"free"},{"bike_id":"009872ec-941a-42f0-8e32-a107950ff6ff","system_id":"levelo_inurba_marseille","lat":43.30642,"lon":5.401031,"is_reserved":false,"is_disabled":false,"rental_uris":{"android":"levelo://app?vid=009872ec-941a-42f0-8e32-a107950ff6ff","ios":"levelo://app?vid=009872ec-941a-42f0-8e32-a107950ff6ff"},"vehicle_type_id":"4","last_reported":1701374859,"current_range_meters":0,"station_id":"ce4bh112rcd13ifvqda0","pricing_plan_id":"free"},{"bike_id":"b930dc4e-3488-4b4b-b52b-1874865c3274","system_id":"levelo_inurba_marseille","lat":43.305235,"lon":5.400852,"is_reserved":false,"is_disabled":false,"rental_uris":{"android":"levelo://app?vid=b930dc4e-3488-4b4b-b52b-1874865c3274","ios":"levelo://app?vid=b930dc4e-3488-4b4b-b52b-1874865c3274"},"vehicle_type_id":"4","last_reported":1701374859,"current_range_meters":26000,"station_id":"","pricing_plan_id":"free"},{"bike_id":"f0b62317-80a8-4e72-a32b-c493ad8bd6c3","system_id":"levelo_inurba_marseille","lat":43.28727,"lon":5.36078,"is_reserved":false,"is_disabled":false,"rental_uris":{"android":"levelo://app?vid=f0b62317-80a8-4e72-a32b-c493ad8bd6c3","ios":"levelo://app?vid=f0b62317-80a8-4e72-a32b-c493ad8bd6c3"},"vehicle_type_id":"4","last_reported":1701374859,"current_range_meters":14800,"station_id":"cki0cbj6b192h4jlfktg","pricing_plan_id":"free"},{"bike_id":"0fadd555-920b-4d63-be4f-83750afd505c","system_id":"levelo_inurba_marseille","lat":43.286591,"lon":5.363346,"is_reserved":false,"is_disabled":false,"rental_uris":{"android":"levelo://app?vid=0fadd555-920b-4d63-be4f-83750afd505c","ios":"levelo://app?vid=0fadd555-920b-4d63-be4f-83750afd505c"},"vehicle_type_id":"4","last_reported":1701374859,"current_range_meters":4000,"station_id":"ce4bhah2rcd13ifvqej0","pricing_plan_id":"free"},{"bike_id":"61dcd101-cd8f-41e4-b8fe-5ba448293a38","system_id":"levelo_inurba_marseille","lat":43.298681,"lon":5.397225,"is_reserved":false,"is_disabled":false,"rental_uris":{"android":"levelo://app?vid=61dcd101-cd8f-41e4-b8fe-5ba448293a38","ios":"levelo://app?vid=61dcd101-cd8f-41e4-b8fe-5ba448293a38"},"vehicle_type_id":"4","last_reported":1701374859,"current_range_meters":4400,"station_id":"ce4bh0h2rcd13ifvqd50","pricing_plan_id":"free"},{"bike_id":"2ab88e44-eb99-4e65-b98d-270d0f59333f","system_id":"levelo_inurba_marseille","lat":43.286591,"lon":5.363346,"is_reserved":false,"is_disabled":false,"rental_uris":{"android":"levelo://app?vid=2ab88e44-eb99-4e65-b98d-270d0f59333f","ios":"levelo://app?vid=2ab88e44-eb99-4e65-b98d-270d0f59333f"},"vehicle_type_id":"4","last_reported":1701374859,"current_range_meters":24000,"station_id":"ce4bhah2rcd13ifvqej0","pricing_plan_id":"free"},{"bike_id":"38f13f2d-7abb-4df6-90e0-eca7fe63c8d7","system_id":"levelo_inurba_marseille","lat":43.286591,"lon":5.363346,"is_reserved":false,"is_disabled":false,"rental_uris":{"android":"levelo://app?vid=38f13f2d-7abb-4df6-90e0-eca7fe63c8d7","ios":"levelo://app?vid=38f13f2d-7abb-4df6-90e0-eca7fe63c8d7"},"vehicle_type_id":"4","last_reported":1701374859,"current_range_meters":4800,"station_id":"ce4bhah2rcd13ifvqej0","pricing_plan_id":"free"},{"bike_id":"efc028e5-4a7e-4fec-bec3-4183e508bbb9","system_id":"levelo_inurba_marseille","lat":43.298681,"lon":5.397225,"is_reserved":false,"is_disabled":false,"rental_uris":{"android":"levelo://app?vid=efc028e5-4a7e-4fec-bec3-4183e508bbb9","ios":"levelo://app?vid=efc028e5-4a7e-4fec-bec3-4183e508bbb9"},"vehicle_type_id":"4","last_reported":1701374859,"current_range_meters":23600,"station_id":"ce4bh0h2rcd13ifvqd50","pricing_plan_id":"free"},{"bike_id":"31b33355-e3c4-4a58-ab90-f8bcda501ddb","system_id":"levelo_inurba_marseille","lat":43.289307,"lon":5.38406,"is_reserved":false,"is_disabled":false,"rental_uris":{"android":"levelo://app?vid=31b33355-e3c4-4a58-ab90-f8bcda501ddb","ios":"levelo://app?vid=31b33355-e3c4-4a58-ab90-f8bcda501ddb"},"vehicle_type_id":"4","last_reported":1701374859,"current_range_meters":6400,"station_id":"ce4bh612rcd13ifvqe6g","pricing_plan_id":"free"},{"bike_id":"a20364e8-823f-4444-844b-0eb26dd15f79","system_id":"levelo_inurba_marseille","lat":43.29033,"lon":5.38638,"is_reserved":false,"is_disabled":false,"rental_uris":{"android":"levelo://app?vid=a20364e8-823f-4444-844b-0eb26dd15f79","ios":"levelo://app?vid=a20364e8-823f-4444-844b-0eb26dd15f79"},"vehicle_type_id":"4","last_reported":1701374859,"current_range_meters":5200,"station_id":"ce4bh4p2rcd13ifvqe0g","pricing_plan_id":"free"},{"bike_id":"6f69836b-596d-443e-b51b-9b92e4277e09","system_id":"levelo_inurba_marseille","lat":43.289307,"lon":5.38406,"is_reserved":false,"is_disabled":false,"rental_uris":{"android":"levelo://app?vid=6f69836b-596d-443e-b51b-9b92e4277e09","ios":"levelo://app?vid=6f69836b-596d-443e-b51b-9b92e4277e09"},"vehicle_type_id":"4","last_reported":1701374859,"current_range_meters":8000,"station_id":"ce4bh612rcd13ifvqe6g","pricing_plan_id":"free"},{"bike_id":"6f3bf512-1b44-487d-b93a-0cc93ab23fc8","system_id":"levelo_inurba_marseille","lat":43.289307,"lon":5.38406,"is_reserved":false,"is_disabled":false,"rental_uris":{"android":"levelo://app?vid=6f3bf512-1b44-487d-b93a-0cc93ab23fc8","ios":"levelo://app?vid=6f3bf512-1b44-487d-b93a-0cc93ab23fc8"},"vehicle_type_id":"4","last_reported":1701374859,"current_range_meters":29200,"station_id":"ce4bh612rcd13ifvqe6g","pricing_plan_id":"free"},{"bike_id":"59478bbb-454c-47ef-b624-0be37854a9e4","system_id":"levelo_inurba_marseille","lat":43.307623,"lon":5.402774,"is_reserved":false,"is_disabled":false,"rental_uris":{"android":"levelo://app?vid=59478bbb-454c-47ef-b624-0be37854a9e4","ios":"levelo://app?vid=59478bbb-454c-47ef-b624-0be37854a9e4"},"vehicle_type_id":"4","last_reported":1701374859,"current_range_meters":20400,"station_id":"ce4bgvp2rcd13ifvqct0","pricing_plan_id":"free"},{"bike_id":"6dfecbb7-9d77-4940-a1c2-b3660f9d87e2","system_id":"levelo_inurba_marseille","lat":43.289307,"lon":5.38406,"is_reserved":false,"is_disabled":false,"rental_uris":{"android":"levelo://app?vid=6dfecbb7-9d77-4940-a1c2-b3660f9d87e2","ios":"levelo://app?vid=6dfecbb7-9d77-4940-a1c2-b3660f9d87e2"},"vehicle_type_id":"4","last_reported":1701374859,"current_range_meters":8400,"station_id":"ce4bh612rcd13ifvqe6g","pricing_plan_id":"free"},{"bike_id":"d58f543b-23e0-4934-98e3-4adc38f36873","system_id":"levelo_inurba_marseille","lat":43.289307,"lon":5.38406,"is_reserved":false,"is_disabled":false,"rental_uris":{"android":"levelo://app?vid=d58f543b-23e0-4934-98e3-4adc38f36873","ios":"levelo://app?vid=d58f543b-23e0-4934-98e3-4adc38f36873"},"vehicle_type_id":"4","last_reported":1701374859,"current_range_meters":26800,"station_id":"ce4bh612rcd13ifvqe6g","pricing_plan_id":"free"},{"bike_id":"3b9eb502-a4b0-4696-82dd-048ee0da762b","system_id":"levelo_inurba_marseille","lat":43.286039,"lon":5.370679,"is_reserved":false,"is_disabled":false,"rental_uris":{"android":"levelo://app?vid=3b9eb502-a4b0-4696-82dd-048ee0da762b","ios":"levelo://app?vid=3b9eb502-a4b0-4696-82dd-048ee0da762b"},"vehicle_type_id":"4","last_reported":1701374859,"current_range_meters":25600,"station_id":"ce4bht12rcd13ifvqi60","pricing_plan_id":"free"},{"bike_id":"6b7e4a74-2347-4fb0-9062-f6d668062bb9","system_id":"levelo_inurba_marseille","lat":43.287184,"lon":5.37937,"is_reserved":false,"is_disabled":false,"rental_uris":{"android":"levelo://app?vid=6b7e4a74-2347-4fb0-9062-f6d668062bb9","ios":"levelo://app?vid=6b7e4a74-2347-4fb0-9062-f6d668062bb9"},"vehicle_type_id":"4","last_reported":1701374859,"current_range_meters":28400,"station_id":"ce4bh9p2rcd13ifvqec0","pricing_plan_id":"free"},{"bike_id":"cf129061-09f8-450f-94a6-21296a74574a","system_id":"levelo_inurba_marseille","lat":43.287185,"lon":5.379373,"is_reserved":false,"is_disabled":false,"rental_uris":{"android":"levelo://app?vid=cf129061-09f8-450f-94a6-21296a74574a","ios":"levelo://app?vid=cf129061-09f8-450f-94a6-21296a74574a"},"vehicle_type_id":"4","last_reported":1701374859,"current_range_meters":8800,"station_id":"ce4bh9p2rcd13ifvqec0","pricing_plan_id":"free"},{"bike_id":"d8afdaf7-a980-4e89-9d7e-e47dccdeb5f1","system_id":"levelo_inurba_marseille","lat":43.284538,"lon":5.358657,"is_reserved":false,"is_disabled":false,"rental_uris":{"android":"levelo://app?vid=d8afdaf7-a980-4e89-9d7e-e47dccdeb5f1","ios":"levelo://app?vid=d8afdaf7-a980-4e89-9d7e-e47dccdeb5f1"},"vehicle_type_id":"4","last_reported":1701374859,"current_range_meters":5600,"station_id":"ce4bhah2rcd13ifvqei0","pricing_plan_id":"free"},{"bike_id":"5c87cf06-4c64-4efb-8afb-62373056f0dc","system_id":"levelo_inurba_marseille","lat":43.31649,"lon":5.40438,"is_reserved":false,"is_disabled":false,"rental_uris":{"android":"levelo://app?vid=5c87cf06-4c64-4efb-8afb-62373056f0dc","ios":"levelo://app?vid=5c87cf06-4c64-4efb-8afb-62373056f0dc"},"vehicle_type_id":"4","last_reported":1701374859,"current_range_meters":0,"station_id":"ce4bh012rcd13ifvqd00","pricing_plan_id":"free"},{"bike_id":"55fb18d1-3a66-44a9-a318-d960e4cd31be","system_id":"levelo_inurba_marseille","lat":43.286718,"lon":5.379509,"is_reserved":false,"is_disabled":false,"rental_uris":{"android":"levelo://app?vid=55fb18d1-3a66-44a9-a318-d960e4cd31be","ios":"levelo://app?vid=55fb18d1-3a66-44a9-a318-d960e4cd31be"},"vehicle_type_id":"4","last_reported":1701374859,"current_range_meters":29600,"station_id":"","pricing_plan_id":"free"},{"bike_id":"21169003-7cd8-4dcc-90d2-c0b535fa7f98","system_id":"levelo_inurba_marseille","lat":43.284538,"lon":5.358657,"is_reserved":false,"is_disabled":false,"rental_uris":{"android":"levelo://app?vid=21169003-7cd8-4dcc-90d2-c0b535fa7f98","ios":"levelo://app?vid=21169003-7cd8-4dcc-90d2-c0b535fa7f98"},"vehicle_type_id":"4","last_reported":1701374859,"current_range_meters":7600,"station_id":"ce4bhah2rcd13ifvqei0","pricing_plan_id":"free"},{"bike_id":"d27c3822-c0f8-4b95-a49f-2375387b9290","system_id":"levelo_inurba_marseille","lat":43.284618,"lon":5.358939,"is_reserved":false,"is_disabled":false,"rental_uris":{"android":"levelo://app?vid=d27c3822-c0f8-4b95-a49f-2375387b9290","ios":"levelo://app?vid=d27c3822-c0f8-4b95-a49f-2375387b9290"},"vehicle_type_id":"4","last_reported":1701374859,"current_range_meters":18400,"station_id":"ce4bhah2rcd13ifvqei0","pricing_plan_id":"free"},{"bike_id":"7519f6f5-4f81-45ad-bb31-2197b77890f5","system_id":"levelo_inurba_marseille","lat":43.285848,"lon":5.350787,"is_reserved":false,"is_disabled":false,"rental_uris":{"android":"levelo://app?vid=7519f6f5-4f81-45ad-bb31-2197b77890f5","ios":"levelo://app?vid=7519f6f5-4f81-45ad-bb31-2197b77890f5"},"vehicle_type_id":"4","last_reported":1701374859,"current_range_meters":8000,"station_id":"ce4bhch2rcd13ifvqeug","pricing_plan_id":"free"},{"bike_id":"f9d4ec91-e3e8-4990-8594-b4e4e610432a","system_id":"levelo_inurba_marseille","lat":43.283998,"lon":5.375062,"is_reserved":false,"is_disabled":false,"rental_uris":{"android":"levelo://app?vid=f9d4ec91-e3e8-4990-8594-b4e4e610432a","ios":"levelo://app?vid=f9d4ec91-e3e8-4990-8594-b4e4e610432a"},"vehicle_type_id":"4","last_reported":1701374859,"current_range_meters":1600,"station_id":"ce4bh412rcd13ifvqds0","pricing_plan_id":"free"},{"bike_id":"a7c47b1e-f040-495c-9c9e-ce101361571b","system_id":"levelo_inurba_marseille","lat":43.295713,"lon":5.399639,"is_reserved":false,"is_disabled":false,"rental_uris":{"android":"levelo://app?vid=a7c47b1e-f040-495c-9c9e-ce101361571b","ios":"levelo://app?vid=a7c47b1e-f040-495c-9c9e-ce101361571b"},"vehicle_type_id":"4","last_reported":1701374859,"current_range_meters":7200,"station_id":"ce4bh312rcd13ifvqdj0","pricing_plan_id":"free"},{"bike_id":"1c6b3c96-027e-4218-8291-1fa0801ba4ad","system_id":"levelo_inurba_marseille","lat":43.295713,"lon":5.399639,"is_reserved":false,"is_disabled":false,"rental_uris":{"android":"levelo://app?vid=1c6b3c96-027e-4218-8291-1fa0801ba4ad","ios":"levelo://app?vid=1c6b3c96-027e-4218-8291-1fa0801ba4ad"},"vehicle_type_id":"4","last_reported":1701374859,"current_range_meters":18000,"station_id":"ce4bh312rcd13ifvqdj0","pricing_plan_id":"free"},{"bike_id":"d147e0d7-0e39-41c3-9168-806b6269bef3","system_id":"levelo_inurba_marseille","lat":43.319179,"lon":5.407725,"is_reserved":false,"is_disabled":false,"rental_uris":{"android":"levelo://app?vid=d147e0d7-0e39-41c3-9168-806b6269bef3","ios":"levelo://app?vid=d147e0d7-0e39-41c3-9168-806b6269bef3"},"vehicle_type_id":"4","last_reported":1701374859,"current_range_meters":12800,"station_id":"ce4bhq12rcd13ifvqhig","pricing_plan_id":"free"},{"bike_id":"7b9f75f2-7836-4e39-9f0a-33f097f8d0c7","system_id":"levelo_inurba_marseille","lat":43.323464,"lon":5.406297,"is_reserved":false,"is_disabled":false,"rental_uris":{"android":"levelo://app?vid=7b9f75f2-7836-4e39-9f0a-33f097f8d0c7","ios":"levelo://app?vid=7b9f75f2-7836-4e39-9f0a-33f097f8d0c7"},"vehicle_type_id":"4","last_reported":1701374859,"current_range_meters":12800,"station_id":"ce4bhq92rcd13ifvqhjg","pricing_plan_id":"free"},{"bike_id":"662fa6f8-2032-43e0-bf37-8abb696cda1d","system_id":"levelo_inurba_marseille","lat":43.33717,"lon":5.391857,"is_reserved":false,"is_disabled":false,"rental_uris":{"android":"levelo://app?vid=662fa6f8-2032-43e0-bf37-8abb696cda1d","ios":"levelo://app?vid=662fa6f8-2032-43e0-bf37-8abb696cda1d"},"vehicle_type_id":"4","last_reported":1701374859,"current_range_meters":28000,"station_id":"ce4bhr92rcd13ifvqhsg","pricing_plan_id":"free"},{"bike_id":"92c18025-d9fd-4a1d-8a0e-cc4c7e60f52a","system_id":"levelo_inurba_marseille","lat":43.319179,"lon":5.407725,"is_reserved":false,"is_disabled":false,"rental_uris":{"android":"levelo://app?vid=92c18025-d9fd-4a1d-8a0e-cc4c7e60f52a","ios":"levelo://app?vid=92c18025-d9fd-4a1d-8a0e-cc4c7e60f52a"},"vehicle_type_id":"4","last_reported":1701374859,"current_range_meters":25200,"station_id":"ce4bhq12rcd13ifvqhig","pricing_plan_id":"free"},{"bike_id":"90ceae4b-8b2f-4674-91e3-3d861417dfe3","system_id":"levelo_inurba_marseille","lat":43.293259,"lon":5.371586,"is_reserved":false,"is_disabled":false,"rental_uris":{"android":"levelo://app?vid=90ceae4b-8b2f-4674-91e3-3d861417dfe3","ios":"levelo://app?vid=90ceae4b-8b2f-4674-91e3-3d861417dfe3"},"vehicle_type_id":"4","last_reported":1701374859,"current_range_meters":17200,"station_id":"ce4bgh92rcd13ifvqb40","pricing_plan_id":"free"},{"bike_id":"894ce7c3-db46-40d3-bf6d-182461f24f4e","system_id":"levelo_inurba_marseille","lat":43.288501,"lon":5.393087,"is_reserved":false,"is_disabled":false,"rental_uris":{"android":"levelo://app?vid=894ce7c3-db46-40d3-bf6d-182461f24f4e","ios":"levelo://app?vid=894ce7c3-db46-40d3-bf6d-182461f24f4e"},"vehicle_type_id":"4","last_reported":1701374859,"current_range_meters":7200,"station_id":"ce4bh2p2rcd13ifvqdi0","pricing_plan_id":"free"},{"bike_id":"707b509e-9ec2-4b78-bd30-9d2f6251df79","system_id":"levelo_inurba_marseille","lat":43.283494,"lon":5.380945,"is_reserved":false,"is_disabled":false,"rental_uris":{"android":"levelo://app?vid=707b509e-9ec2-4b78-bd30-9d2f6251df79","ios":"levelo://app?vid=707b509e-9ec2-4b78-bd30-9d2f6251df79"},"vehicle_type_id":"4","last_reported":1701374859,"current_range_meters":28400,"station_id":"ce4bh412rcd13ifvqdr0","pricing_plan_id":"free"},{"bike_id":"aca33337-8473-4b32-95e9-05a782cda663","system_id":"levelo_inurba_marseille","lat":43.282722,"lon":5.350736,"is_reserved":false,"is_disabled":false,"rental_uris":{"android":"levelo://app?vid=aca33337-8473-4b32-95e9-05a782cda663","ios":"levelo://app?vid=aca33337-8473-4b32-95e9-05a782cda663"},"vehicle_type_id":"4","last_reported":1701374859,"current_range_meters":27600,"station_id":"ce4bhbp2rcd13ifvqerg","pricing_plan_id":"free"},{"bike_id":"377a5e02-210c-44b1-b033-1c45596d94a3","system_id":"levelo_inurba_marseille","lat":43.282754,"lon":5.350519,"is_reserved":false,"is_disabled":false,"rental_uris":{"android":"levelo://app?vid=377a5e02-210c-44b1-b033-1c45596d94a3","ios":"levelo://app?vid=377a5e02-210c-44b1-b033-1c45596d94a3"},"vehicle_type_id":"4","last_reported":1701374859,"current_range_meters":24800,"station_id":"ce4bhbp2rcd13ifvqerg","pricing_plan_id":"free"},{"bike_id":"cbb6a846-2d9c-4c06-bc81-28eb9a40f7da","system_id":"levelo_inurba_marseille","lat":43.282628,"lon":5.35056,"is_reserved":false,"is_disabled":false,"rental_uris":{"android":"levelo://app?vid=cbb6a846-2d9c-4c06-bc81-28eb9a40f7da","ios":"levelo://app?vid=cbb6a846-2d9c-4c06-bc81-28eb9a40f7da"},"vehicle_type_id":"4","last_reported":1701374859,"current_range_meters":9200,"station_id":"ce4bhbp2rcd13ifvqerg","pricing_plan_id":"free"},{"bike_id":"4fe08664-95ea-4e98-a9b8-f77aef53e6e1","system_id":"levelo_inurba_marseille","lat":43.282594,"lon":5.35059,"is_reserved":false,"is_disabled":false,"rental_uris":{"android":"levelo://app?vid=4fe08664-95ea-4e98-a9b8-f77aef53e6e1","ios":"levelo://app?vid=4fe08664-95ea-4e98-a9b8-f77aef53e6e1"},"vehicle_type_id":"4","last_reported":1701374859,"current_range_meters":30800,"station_id":"ce4bhbp2rcd13ifvqerg","pricing_plan_id":"free"},{"bike_id":"97b2aa8f-6261-44d4-bce3-cd3d07431379","system_id":"levelo_inurba_marseille","lat":43.28039,"lon":5.369297,"is_reserved":false,"is_disabled":false,"rental_uris":{"android":"levelo://app?vid=97b2aa8f-6261-44d4-bce3-cd3d07431379","ios":"levelo://app?vid=97b2aa8f-6261-44d4-bce3-cd3d07431379"},"vehicle_type_id":"4","last_reported":1701374859,"current_range_meters":31200,"station_id":"ce4bha12rcd13ifvqef0","pricing_plan_id":"free"},{"bike_id":"e0bbb5ed-1ba2-4c63-a86a-aea776e7dcf1","system_id":"levelo_inurba_marseille","lat":43.281044,"lon":5.378308,"is_reserved":false,"is_disabled":false,"rental_uris":{"android":"levelo://app?vid=e0bbb5ed-1ba2-4c63-a86a-aea776e7dcf1","ios":"levelo://app?vid=e0bbb5ed-1ba2-4c63-a86a-aea776e7dcf1"},"vehicle_type_id":"4","last_reported":1701374859,"current_range_meters":8000,"station_id":"ce4bha12rcd13ifvqee0","pricing_plan_id":"free"},{"bike_id":"c5c42056-e9e3-433b-91b7-ac30da3400f8","system_id":"levelo_inurba_marseille","lat":43.284317,"lon":5.391844,"is_reserved":false,"is_disabled":false,"rental_uris":{"android":"levelo://app?vid=c5c42056-e9e3-433b-91b7-ac30da3400f8","ios":"levelo://app?vid=c5c42056-e9e3-433b-91b7-ac30da3400f8"},"vehicle_type_id":"4","last_reported":1701374859,"current_range_meters":2400,"station_id":"ce4bhoh2rcd13ifvqh5g","pricing_plan_id":"free"},{"bike_id":"6b7ef417-6657-4c19-98d8-e150659d83c2","system_id":"levelo_inurba_marseille","lat":43.304188,"lon":5.412904,"is_reserved":false,"is_disabled":false,"rental_uris":{"android":"levelo://app?vid=6b7ef417-6657-4c19-98d8-e150659d83c2","ios":"levelo://app?vid=6b7ef417-6657-4c19-98d8-e150659d83c2"},"vehicle_type_id":"4","last_reported":1701374859,"current_range_meters":27600,"station_id":"ce4bhop2rcd13ifvqh8g","pricing_plan_id":"free"},{"bike_id":"fec28234-0489-4de0-be51-e04a7766ea70","system_id":"levelo_inurba_marseille","lat":43.279087,"lon":5.380114,"is_reserved":false,"is_disabled":false,"rental_uris":{"android":"levelo://app?vid=fec28234-0489-4de0-be51-e04a7766ea70","ios":"levelo://app?vid=fec28234-0489-4de0-be51-e04a7766ea70"},"vehicle_type_id":"4","last_reported":1701374859,"current_range_meters":20400,"station_id":"ce4bhf92rcd13ifvqf50","pricing_plan_id":"free"},{"bike_id":"ac7b3080-9053-426c-9a5b-a0854bbf383a","system_id":"levelo_inurba_marseille","lat":43.287154,"lon":5.399979,"is_reserved":false,"is_disabled":false,"rental_uris":{"android":"levelo://app?vid=ac7b3080-9053-426c-9a5b-a0854bbf383a","ios":"levelo://app?vid=ac7b3080-9053-426c-9a5b-a0854bbf383a"},"vehicle_type_id":"4","last_reported":1701374859,"current_range_meters":5200,"station_id":"ce4bho92rcd13ifvqh3g","pricing_plan_id":"free"},{"bike_id":"02ef7f67-d980-4088-97bd-5ff836e281d4","system_id":"levelo_inurba_marseille","lat":43.299579,"lon":5.413255,"is_reserved":false,"is_disabled":false,"rental_uris":{"android":"levelo://app?vid=02ef7f67-d980-4088-97bd-5ff836e281d4","ios":"levelo://app?vid=02ef7f67-d980-4088-97bd-5ff836e281d4"},"vehicle_type_id":"4","last_reported":1701374859,"current_range_meters":26400,"station_id":"ce4bhp12rcd13ifvqh9g","pricing_plan_id":"free"},{"bike_id":"499c773b-5c74-4caf-81f7-b297dbd15498","system_id":"levelo_inurba_marseille","lat":43.279742,"lon":5.38744,"is_reserved":false,"is_disabled":false,"rental_uris":{"android":"levelo://app?vid=499c773b-5c74-4caf-81f7-b297dbd15498","ios":"levelo://app?vid=499c773b-5c74-4caf-81f7-b297dbd15498"},"vehicle_type_id":"4","last_reported":1701374859,"current_range_meters":2000,"station_id":"ce4bhg12rcd13ifvqf80","pricing_plan_id":"free"},{"bike_id":"0499de58-2863-44c4-8de6-9f43162d0881","system_id":"levelo_inurba_marseille","lat":43.27963,"lon":5.38724,"is_reserved":false,"is_disabled":false,"rental_uris":{"android":"levelo://app?vid=0499de58-2863-44c4-8de6-9f43162d0881","ios":"levelo://app?vid=0499de58-2863-44c4-8de6-9f43162d0881"},"vehicle_type_id":"4","last_reported":1701374859,"current_range_meters":0,"station_id":"ce4bhg12rcd13ifvqf80","pricing_plan_id":"free"},{"bike_id":"37ca921a-856b-4e53-8c5d-c38278e10a7a","system_id":"levelo_inurba_marseille","lat":43.292569,"lon":5.409107,"is_reserved":false,"is_disabled":false,"rental_uris":{"android":"levelo://app?vid=37ca921a-856b-4e53-8c5d-c38278e10a7a","ios":"levelo://app?vid=37ca921a-856b-4e53-8c5d-c38278e10a7a"},"vehicle_type_id":"4","last_reported":1701374859,"current_range_meters":19200,"station_id":"ce4bh192rcd13ifvqdc0","pricing_plan_id":"free"},{"bike_id":"910abfe8-0967-43e6-afce-da438d6748fc","system_id":"levelo_inurba_marseille","lat":43.303503,"lon":5.4187,"is_reserved":false,"is_disabled":false,"rental_uris":{"android":"levelo://app?vid=910abfe8-0967-43e6-afce-da438d6748fc","ios":"levelo://app?vid=910abfe8-0967-43e6-afce-da438d6748fc"},"vehicle_type_id":"4","last_reported":1701374859,"current_range_meters":22000,"station_id":"ce4bhop2rcd13ifvqh7g","pricing_plan_id":"free"},{"bike_id":"883e7e01-6f11-439b-8156-4d04cdeae9c0","system_id":"levelo_inurba_marseille","lat":43.278399,"lon":5.392139,"is_reserved":false,"is_disabled":false,"rental_uris":{"android":"levelo://app?vid=883e7e01-6f11-439b-8156-4d04cdeae9c0","ios":"levelo://app?vid=883e7e01-6f11-439b-8156-4d04cdeae9c0"},"vehicle_type_id":"4","last_reported":1701374859,"current_range_meters":22000,"station_id":"ce4bhjp2rcd13ifvqga0","pricing_plan_id":"free"},{"bike_id":"90ab5f6d-4208-4ac4-b0bc-f5315bd34e74","system_id":"levelo_inurba_marseille","lat":43.273609,"lon":5.362708,"is_reserved":false,"is_disabled":false,"rental_uris":{"android":"levelo://app?vid=90ab5f6d-4208-4ac4-b0bc-f5315bd34e74","ios":"levelo://app?vid=90ab5f6d-4208-4ac4-b0bc-f5315bd34e74"},"vehicle_type_id":"4","last_reported":1701374859,"current_range_meters":17200,"station_id":"ce4bhbh2rcd13ifvqeo0","pricing_plan_id":"free"},{"bike_id":"4329a490-0000-4027-8d78-b27b030e97f7","system_id":"levelo_inurba_marseille","lat":43.279952,"lon":5.400085,"is_reserved":false,"is_disabled":false,"rental_uris":{"android":"levelo://app?vid=4329a490-0000-4027-8d78-b27b030e97f7","ios":"levelo://app?vid=4329a490-0000-4027-8d78-b27b030e97f7"},"vehicle_type_id":"4","last_reported":1701374859,"current_range_meters":22800,"station_id":"ce4bho92rcd13ifvqh4g","pricing_plan_id":"free"},{"bike_id":"78e090e3-e349-4d75-b3f2-4d776196d800","system_id":"levelo_inurba_marseille","lat":43.279975,"lon":5.40009,"is_reserved":false,"is_disabled":false,"rental_uris":{"android":"levelo://app?vid=78e090e3-e349-4d75-b3f2-4d776196d800","ios":"levelo://app?vid=78e090e3-e349-4d75-b3f2-4d776196d800"},"vehicle_type_id":"4","last_reported":1701374859,"current_range_meters":0,"station_id":"ce4bho92rcd13ifvqh4g","pricing_plan_id":"free"},{"bike_id":"d6cd08ef-c934-44a0-a330-510b886d15f8","system_id":"levelo_inurba_marseille","lat":43.310785,"lon":5.424305,"is_reserved":false,"is_disabled":false,"rental_uris":{"android":"levelo://app?vid=d6cd08ef-c934-44a0-a330-510b886d15f8","ios":"levelo://app?vid=d6cd08ef-c934-44a0-a330-510b886d15f8"},"vehicle_type_id":"4","last_reported":1701374859,"current_range_meters":31200,"station_id":"ce4bhp92rcd13ifvqhag","pricing_plan_id":"free"},{"bike_id":"5ff60725-a852-454a-9bc0-b7a086efbe8a","system_id":"levelo_inurba_marseille","lat":43.310785,"lon":5.424305,"is_reserved":false,"is_disabled":false,"rental_uris":{"android":"levelo://app?vid=5ff60725-a852-454a-9bc0-b7a086efbe8a","ios":"levelo://app?vid=5ff60725-a852-454a-9bc0-b7a086efbe8a"},"vehicle_type_id":"4","last_reported":1701374859,"current_range_meters":25200,"station_id":"ce4bhp92rcd13ifvqhag","pricing_plan_id":"free"},{"bike_id":"ec437b53-12f7-4895-a5fb-94c6845381b6","system_id":"levelo_inurba_marseille","lat":43.341442,"lon":5.40911,"is_reserved":false,"is_disabled":false,"rental_uris":{"android":"levelo://app?vid=ec437b53-12f7-4895-a5fb-94c6845381b6","ios":"levelo://app?vid=ec437b53-12f7-4895-a5fb-94c6845381b6"},"vehicle_type_id":"4","last_reported":1701374859,"current_range_meters":2000,"station_id":"","pricing_plan_id":"free"},{"bike_id":"6e820e21-0c9b-4127-b76c-c839633edf93","system_id":"levelo_inurba_marseille","lat":43.273129,"lon":5.390725,"is_reserved":false,"is_disabled":false,"rental_uris":{"android":"levelo://app?vid=6e820e21-0c9b-4127-b76c-c839633edf93","ios":"levelo://app?vid=6e820e21-0c9b-4127-b76c-c839633edf93"},"vehicle_type_id":"4","last_reported":1701374859,"current_range_meters":5600,"station_id":"ce4bhgp2rcd13ifvqfe0","pricing_plan_id":"free"},{"bike_id":"467d95da-2636-474a-9939-df0ffa2be767","system_id":"levelo_inurba_marseille","lat":43.27425,"lon":5.39412,"is_reserved":false,"is_disabled":false,"rental_uris":{"android":"levelo://app?vid=467d95da-2636-474a-9939-df0ffa2be767","ios":"levelo://app?vid=467d95da-2636-474a-9939-df0ffa2be767"},"vehicle_type_id":"4","last_reported":1701374859,"current_range_meters":9600,"station_id":"ce4bhdp2rcd13ifvqf20","pricing_plan_id":"free"},{"bike_id":"be3b1926-75e0-448e-b454-3cca01f33057","system_id":"levelo_inurba_marseille","lat":43.274103,"lon":5.394016,"is_reserved":false,"is_disabled":false,"rental_uris":{"android":"levelo://app?vid=be3b1926-75e0-448e-b454-3cca01f33057","ios":"levelo://app?vid=be3b1926-75e0-448e-b454-3cca01f33057"},"vehicle_type_id":"4","last_reported":1701374859,"current_range_meters":7200,"station_id":"ce4bhdp2rcd13ifvqf20","pricing_plan_id":"free"},{"bike_id":"7335a393-cc37-4e1d-b729-82d3cd0e69fb","system_id":"levelo_inurba_marseille","lat":43.29523,"lon":5.42257,"is_reserved":false,"is_disabled":false,"rental_uris":{"android":"levelo://app?vid=7335a393-cc37-4e1d-b729-82d3cd0e69fb","ios":"levelo://app?vid=7335a393-cc37-4e1d-b729-82d3cd0e69fb"},"vehicle_type_id":"4","last_reported":1701374859,"current_range_meters":19200,"station_id":"ce4bhph2rcd13ifvqhdg","pricing_plan_id":"free"},{"bike_id":"f6d38aff-a5fe-4ea8-b323-a05c3a6bb4a7","system_id":"levelo_inurba_marseille","lat":43.295511,"lon":5.422926,"is_reserved":false,"is_disabled":false,"rental_uris":{"android":"levelo://app?vid=f6d38aff-a5fe-4ea8-b323-a05c3a6bb4a7","ios":"levelo://app?vid=f6d38aff-a5fe-4ea8-b323-a05c3a6bb4a7"},"vehicle_type_id":"4","last_reported":1701374859,"current_range_meters":18000,"station_id":"ce4bhph2rcd13ifvqhdg","pricing_plan_id":"free"},{"bike_id":"66f9662d-0942-4fb8-a96e-d90765f9ee0e","system_id":"levelo_inurba_marseille","lat":43.295523,"lon":5.422926,"is_reserved":false,"is_disabled":false,"rental_uris":{"android":"levelo://app?vid=66f9662d-0942-4fb8-a96e-d90765f9ee0e","ios":"levelo://app?vid=66f9662d-0942-4fb8-a96e-d90765f9ee0e"},"vehicle_type_id":"4","last_reported":1701374859,"current_range_meters":8800,"station_id":"ce4bhph2rcd13ifvqhdg","pricing_plan_id":"free"},{"bike_id":"cede9268-4117-4ffb-87d6-e57ada87c3b3","system_id":"levelo_inurba_marseille","lat":43.272124,"lon":5.391768,"is_reserved":false,"is_disabled":false,"rental_uris":{"android":"levelo://app?vid=cede9268-4117-4ffb-87d6-e57ada87c3b3","ios":"levelo://app?vid=cede9268-4117-4ffb-87d6-e57ada87c3b3"},"vehicle_type_id":"4","last_reported":1701374859,"current_range_meters":16400,"station_id":"ce4bhhp2rcd13ifvqfm0","pricing_plan_id":"free"},{"bike_id":"8218c95b-881e-400c-b2fe-4dc3103bf685","system_id":"levelo_inurba_marseille","lat":43.272118,"lon":5.391758,"is_reserved":false,"is_disabled":false,"rental_uris":{"android":"levelo://app?vid=8218c95b-881e-400c-b2fe-4dc3103bf685","ios":"levelo://app?vid=8218c95b-881e-400c-b2fe-4dc3103bf685"},"vehicle_type_id":"4","last_reported":1701374859,"current_range_meters":3600,"station_id":"ce4bhhp2rcd13ifvqfm0","pricing_plan_id":"free"},{"bike_id":"ea4b494b-54a0-4de8-874f-21aa4ccfd082","system_id":"levelo_inurba_marseille","lat":43.272116,"lon":5.391747,"is_reserved":false,"is_disabled":false,"rental_uris":{"android":"levelo://app?vid=ea4b494b-54a0-4de8-874f-21aa4ccfd082","ios":"levelo://app?vid=ea4b494b-54a0-4de8-874f-21aa4ccfd082"},"vehicle_type_id":"4","last_reported":1701374859,"current_range_meters":5200,"station_id":"ce4bhhp2rcd13ifvqfm0","pricing_plan_id":"free"},{"bike_id":"735b5cd4-6eb2-4725-9cb7-adb3cad7c77b","system_id":"levelo_inurba_marseille","lat":43.27037,"lon":5.38817,"is_reserved":false,"is_disabled":false,"rental_uris":{"android":"levelo://app?vid=735b5cd4-6eb2-4725-9cb7-adb3cad7c77b","ios":"levelo://app?vid=735b5cd4-6eb2-4725-9cb7-adb3cad7c77b"},"vehicle_type_id":"4","last_reported":1701374859,"current_range_meters":0,"station_id":"","pricing_plan_id":"free"},{"bike_id":"ac30eb29-0c57-44c0-8e57-5eec2d829f17","system_id":"levelo_inurba_marseille","lat":43.278128,"lon":5.407195,"is_reserved":false,"is_disabled":false,"rental_uris":{"android":"levelo://app?vid=ac30eb29-0c57-44c0-8e57-5eec2d829f17","ios":"levelo://app?vid=ac30eb29-0c57-44c0-8e57-5eec2d829f17"},"vehicle_type_id":"4","last_reported":1701374859,"current_range_meters":15600,"station_id":"ce4bhnh2rcd13ifvqgtg","pricing_plan_id":"free"},{"bike_id":"0432509f-ee74-483e-a680-def05a23f00e","system_id":"levelo_inurba_marseille","lat":43.278128,"lon":5.407195,"is_reserved":false,"is_disabled":false,"rental_uris":{"android":"levelo://app?vid=0432509f-ee74-483e-a680-def05a23f00e","ios":"levelo://app?vid=0432509f-ee74-483e-a680-def05a23f00e"},"vehicle_type_id":"4","last_reported":1701374859,"current_range_meters":3200,"station_id":"ce4bhnh2rcd13ifvqgtg","pricing_plan_id":"free"},{"bike_id":"be941d13-8a67-4d59-a48f-907ba1abd823","system_id":"levelo_inurba_marseille","lat":43.278128,"lon":5.407195,"is_reserved":false,"is_disabled":false,"rental_uris":{"android":"levelo://app?vid=be941d13-8a67-4d59-a48f-907ba1abd823","ios":"levelo://app?vid=be941d13-8a67-4d59-a48f-907ba1abd823"},"vehicle_type_id":"4","last_reported":1701374859,"current_range_meters":14800,"station_id":"ce4bhnh2rcd13ifvqgtg","pricing_plan_id":"free"},{"bike_id":"b05919f8-5525-46e8-b458-b9805bc57469","system_id":"levelo_inurba_marseille","lat":43.27941,"lon":5.41048,"is_reserved":false,"is_disabled":false,"rental_uris":{"android":"levelo://app?vid=b05919f8-5525-46e8-b458-b9805bc57469","ios":"levelo://app?vid=b05919f8-5525-46e8-b458-b9805bc57469"},"vehicle_type_id":"4","last_reported":1701374859,"current_range_meters":6000,"station_id":"ce4bhnp2rcd13ifvqh0g","pricing_plan_id":"free"},{"bike_id":"69963683-2ea3-4273-8974-fb63b2ce372d","system_id":"levelo_inurba_marseille","lat":43.269319,"lon":5.389397,"is_reserved":false,"is_disabled":false,"rental_uris":{"android":"levelo://app?vid=69963683-2ea3-4273-8974-fb63b2ce372d","ios":"levelo://app?vid=69963683-2ea3-4273-8974-fb63b2ce372d"},"vehicle_type_id":"4","last_reported":1701374859,"current_range_meters":22000,"station_id":"ce4bhhh2rcd13ifvqfl0","pricing_plan_id":"free"},{"bike_id":"c98a5a7a-296c-4e80-91ee-589d1a39b877","system_id":"levelo_inurba_marseille","lat":43.269706,"lon":5.391584,"is_reserved":false,"is_disabled":false,"rental_uris":{"android":"levelo://app?vid=c98a5a7a-296c-4e80-91ee-589d1a39b877","ios":"levelo://app?vid=c98a5a7a-296c-4e80-91ee-589d1a39b877"},"vehicle_type_id":"4","last_reported":1701374859,"current_range_meters":28000,"station_id":"","pricing_plan_id":"free"},{"bike_id":"de66c3aa-2b65-41bc-93c4-3485c41268fc","system_id":"levelo_inurba_marseille","lat":43.27893,"lon":5.41216,"is_reserved":false,"is_disabled":false,"rental_uris":{"android":"levelo://app?vid=de66c3aa-2b65-41bc-93c4-3485c41268fc","ios":"levelo://app?vid=de66c3aa-2b65-41bc-93c4-3485c41268fc"},"vehicle_type_id":"4","last_reported":1701374859,"current_range_meters":2400,"station_id":"","pricing_plan_id":"free"},{"bike_id":"17a31886-6e78-481f-b9ca-1e7667c1b109","system_id":"levelo_inurba_marseille","lat":43.26681,"lon":5.382694,"is_reserved":false,"is_disabled":false,"rental_uris":{"android":"levelo://app?vid=17a31886-6e78-481f-b9ca-1e7667c1b109","ios":"levelo://app?vid=17a31886-6e78-481f-b9ca-1e7667c1b109"},"vehicle_type_id":"4","last_reported":1701374859,"current_range_meters":28000,"station_id":"ce4bhg92rcd13ifvqf90","pricing_plan_id":"free"},{"bike_id":"328d21c0-a0b1-4982-9d62-2cd26c6ce009","system_id":"levelo_inurba_marseille","lat":43.26554,"lon":5.37282,"is_reserved":false,"is_disabled":false,"rental_uris":{"android":"levelo://app?vid=328d21c0-a0b1-4982-9d62-2cd26c6ce009","ios":"levelo://app?vid=328d21c0-a0b1-4982-9d62-2cd26c6ce009"},"vehicle_type_id":"4","last_reported":1701374859,"current_range_meters":0,"station_id":"ce4bhg12rcd13ifvqf70","pricing_plan_id":"free"},{"bike_id":"10c539a4-a499-4586-9718-9fd3d3f6ea17","system_id":"levelo_inurba_marseille","lat":43.262012,"lon":5.379307,"is_reserved":false,"is_disabled":false,"rental_uris":{"android":"levelo://app?vid=10c539a4-a499-4586-9718-9fd3d3f6ea17","ios":"levelo://app?vid=10c539a4-a499-4586-9718-9fd3d3f6ea17"},"vehicle_type_id":"4","last_reported":1701374859,"current_range_meters":28000,"station_id":"ce4bhjp2rcd13ifvqg90","pricing_plan_id":"free"},{"bike_id":"c2b27acb-0e0a-48d2-8438-13e657c0153d","system_id":"levelo_inurba_marseille","lat":43.27545,"lon":5.40909,"is_reserved":false,"is_disabled":false,"rental_uris":{"android":"levelo://app?vid=c2b27acb-0e0a-48d2-8438-13e657c0153d","ios":"levelo://app?vid=c2b27acb-0e0a-48d2-8438-13e657c0153d"},"vehicle_type_id":"4","last_reported":1701374859,"current_range_meters":0,"station_id":"","pricing_plan_id":"free"},{"bike_id":"aa01e258-1091-43d5-8b89-fd25fa8df4dc","system_id":"levelo_inurba_marseille","lat":43.27544,"lon":5.409087,"is_reserved":false,"is_disabled":false,"rental_uris":{"android":"levelo://app?vid=aa01e258-1091-43d5-8b89-fd25fa8df4dc","ios":"levelo://app?vid=aa01e258-1091-43d5-8b89-fd25fa8df4dc"},"vehicle_type_id":"4","last_reported":1701374859,"current_range_meters":0,"station_id":"","pricing_plan_id":"free"},{"bike_id":"a81bd971-51be-488a-bb78-fed725389e80","system_id":"levelo_inurba_marseille","lat":43.265714,"lon":5.372891,"is_reserved":false,"is_disabled":false,"rental_uris":{"android":"levelo://app?vid=a81bd971-51be-488a-bb78-fed725389e80","ios":"levelo://app?vid=a81bd971-51be-488a-bb78-fed725389e80"},"vehicle_type_id":"4","last_reported":1701374859,"current_range_meters":24800,"station_id":"ce4bhg12rcd13ifvqf70","pricing_plan_id":"free"},{"bike_id":"9a1f2c00-987a-4a0d-8c8f-bb7a926b14e9","system_id":"levelo_inurba_marseille","lat":43.265714,"lon":5.372891,"is_reserved":false,"is_disabled":false,"rental_uris":{"android":"levelo://app?vid=9a1f2c00-987a-4a0d-8c8f-bb7a926b14e9","ios":"levelo://app?vid=9a1f2c00-987a-4a0d-8c8f-bb7a926b14e9"},"vehicle_type_id":"4","last_reported":1701374859,"current_range_meters":5200,"station_id":"ce4bhg12rcd13ifvqf70","pricing_plan_id":"free"},{"bike_id":"1dbaf171-8216-425f-9ee6-d002ebfa9ae1","system_id":"levelo_inurba_marseille","lat":43.267966,"lon":5.393976,"is_reserved":false,"is_disabled":false,"rental_uris":{"android":"levelo://app?vid=1dbaf171-8216-425f-9ee6-d002ebfa9ae1","ios":"levelo://app?vid=1dbaf171-8216-425f-9ee6-d002ebfa9ae1"},"vehicle_type_id":"4","last_reported":1701374859,"current_range_meters":15600,"station_id":"ce4bhh12rcd13ifvqfg0","pricing_plan_id":"free"},{"bike_id":"8364068e-ddc3-41eb-9f1c-ee83a0ed208d","system_id":"levelo_inurba_marseille","lat":43.26783,"lon":5.39416,"is_reserved":false,"is_disabled":false,"rental_uris":{"android":"levelo://app?vid=8364068e-ddc3-41eb-9f1c-ee83a0ed208d","ios":"levelo://app?vid=8364068e-ddc3-41eb-9f1c-ee83a0ed208d"},"vehicle_type_id":"4","last_reported":1701374859,"current_range_meters":14000,"station_id":"ce4bhh12rcd13ifvqfg0","pricing_plan_id":"free"},{"bike_id":"3276c39f-9e34-481d-af6b-43afbb461085","system_id":"levelo_inurba_marseille","lat":43.26778,"lon":5.39425,"is_reserved":false,"is_disabled":false,"rental_uris":{"android":"levelo://app?vid=3276c39f-9e34-481d-af6b-43afbb461085","ios":"levelo://app?vid=3276c39f-9e34-481d-af6b-43afbb461085"},"vehicle_type_id":"4","last_reported":1701374859,"current_range_meters":26000,"station_id":"ce4bhh12rcd13ifvqfg0","pricing_plan_id":"free"},{"bike_id":"1ec741e5-451b-4aaf-b467-e986a6e8693f","system_id":"levelo_inurba_marseille","lat":43.26775,"lon":5.39416,"is_reserved":false,"is_disabled":false,"rental_uris":{"android":"levelo://app?vid=1ec741e5-451b-4aaf-b467-e986a6e8693f","ios":"levelo://app?vid=1ec741e5-451b-4aaf-b467-e986a6e8693f"},"vehicle_type_id":"4","last_reported":1701374859,"current_range_meters":16000,"station_id":"ce4bhh12rcd13ifvqfg0","pricing_plan_id":"free"},{"bike_id":"84d99abe-0b2c-4fa8-95ef-c96081a29bf7","system_id":"levelo_inurba_marseille","lat":43.26775,"lon":5.39422,"is_reserved":false,"is_disabled":false,"rental_uris":{"android":"levelo://app?vid=84d99abe-0b2c-4fa8-95ef-c96081a29bf7","ios":"levelo://app?vid=84d99abe-0b2c-4fa8-95ef-c96081a29bf7"},"vehicle_type_id":"4","last_reported":1701374859,"current_range_meters":26000,"station_id":"ce4bhh12rcd13ifvqfg0","pricing_plan_id":"free"},{"bike_id":"8bb4fa45-f818-4140-b1ae-5c6f69f8f94c","system_id":"levelo_inurba_marseille","lat":43.26773,"lon":5.3942,"is_reserved":false,"is_disabled":false,"rental_uris":{"android":"levelo://app?vid=8bb4fa45-f818-4140-b1ae-5c6f69f8f94c","ios":"levelo://app?vid=8bb4fa45-f818-4140-b1ae-5c6f69f8f94c"},"vehicle_type_id":"4","last_reported":1701374859,"current_range_meters":9600,"station_id":"ce4bhh12rcd13ifvqfg0","pricing_plan_id":"free"},{"bike_id":"8e8d349d-09ef-483a-8322-0fd5fbd7b38e","system_id":"levelo_inurba_marseille","lat":43.308051,"lon":5.43527,"is_reserved":false,"is_disabled":false,"rental_uris":{"android":"levelo://app?vid=8e8d349d-09ef-483a-8322-0fd5fbd7b38e","ios":"levelo://app?vid=8e8d349d-09ef-483a-8322-0fd5fbd7b38e"},"vehicle_type_id":"4","last_reported":1701374859,"current_range_meters":30400,"station_id":"ce4bhph2rcd13ifvqheg","pricing_plan_id":"free"},{"bike_id":"deab3550-3ed4-4c29-b804-ac3e50bc32e3","system_id":"levelo_inurba_marseille","lat":43.308051,"lon":5.43527,"is_reserved":false,"is_disabled":false,"rental_uris":{"android":"levelo://app?vid=deab3550-3ed4-4c29-b804-ac3e50bc32e3","ios":"levelo://app?vid=deab3550-3ed4-4c29-b804-ac3e50bc32e3"},"vehicle_type_id":"4","last_reported":1701374859,"current_range_meters":31200,"station_id":"ce4bhph2rcd13ifvqheg","pricing_plan_id":"free"},{"bike_id":"7ab63241-0bea-4919-80fc-6d8eef69395f","system_id":"levelo_inurba_marseille","lat":43.308051,"lon":5.43527,"is_reserved":false,"is_disabled":false,"rental_uris":{"android":"levelo://app?vid=7ab63241-0bea-4919-80fc-6d8eef69395f","ios":"levelo://app?vid=7ab63241-0bea-4919-80fc-6d8eef69395f"},"vehicle_type_id":"4","last_reported":1701374859,"current_range_meters":31200,"station_id":"ce4bhph2rcd13ifvqheg","pricing_plan_id":"free"},{"bike_id":"719c02bd-1790-4f94-90e8-fa4f1f270e9b","system_id":"levelo_inurba_marseille","lat":43.26946,"lon":5.40243,"is_reserved":false,"is_disabled":false,"rental_uris":{"android":"levelo://app?vid=719c02bd-1790-4f94-90e8-fa4f1f270e9b","ios":"levelo://app?vid=719c02bd-1790-4f94-90e8-fa4f1f270e9b"},"vehicle_type_id":"4","last_reported":1701374859,"current_range_meters":20400,"station_id":"cjm6bp8fraef2m0cb0m0","pricing_plan_id":"free"},{"bike_id":"4f5bed5d-2cfc-49f8-8650-d5793fd39545","system_id":"levelo_inurba_marseille","lat":43.269403,"lon":5.402427,"is_reserved":false,"is_disabled":false,"rental_uris":{"android":"levelo://app?vid=4f5bed5d-2cfc-49f8-8650-d5793fd39545","ios":"levelo://app?vid=4f5bed5d-2cfc-49f8-8650-d5793fd39545"},"vehicle_type_id":"4","last_reported":1701374859,"current_range_meters":0,"station_id":"cjm6bp8fraef2m0cb0m0","pricing_plan_id":"free"},{"bike_id":"5ebb2d7b-ba2b-495c-a2d9-41697a4d0463","system_id":"levelo_inurba_marseille","lat":43.2694,"lon":5.40247,"is_reserved":false,"is_disabled":false,"rental_uris":{"android":"levelo://app?vid=5ebb2d7b-ba2b-495c-a2d9-41697a4d0463","ios":"levelo://app?vid=5ebb2d7b-ba2b-495c-a2d9-41697a4d0463"},"vehicle_type_id":"4","last_reported":1701374859,"current_range_meters":17200,"station_id":"cjm6bp8fraef2m0cb0m0","pricing_plan_id":"free"},{"bike_id":"c9d149ae-c08b-4e5e-b8a5-1e5fe2e69bd7","system_id":"levelo_inurba_marseille","lat":43.26941,"lon":5.4025,"is_reserved":false,"is_disabled":false,"rental_uris":{"android":"levelo://app?vid=c9d149ae-c08b-4e5e-b8a5-1e5fe2e69bd7","ios":"levelo://app?vid=c9d149ae-c08b-4e5e-b8a5-1e5fe2e69bd7"},"vehicle_type_id":"4","last_reported":1701374859,"current_range_meters":8000,"station_id":"cjm6bp8fraef2m0cb0m0","pricing_plan_id":"free"},{"bike_id":"1a8e0a3e-dcd5-4d14-9f86-3c42398a9123","system_id":"levelo_inurba_marseille","lat":43.2694,"lon":5.40256,"is_reserved":false,"is_disabled":false,"rental_uris":{"android":"levelo://app?vid=1a8e0a3e-dcd5-4d14-9f86-3c42398a9123","ios":"levelo://app?vid=1a8e0a3e-dcd5-4d14-9f86-3c42398a9123"},"vehicle_type_id":"4","last_reported":1701374859,"current_range_meters":6400,"station_id":"cjm6bp8fraef2m0cb0m0","pricing_plan_id":"free"},{"bike_id":"486fbf4f-78ad-4c87-b2b2-adbed136e127","system_id":"levelo_inurba_marseille","lat":43.26939,"lon":5.40254,"is_reserved":false,"is_disabled":false,"rental_uris":{"android":"levelo://app?vid=486fbf4f-78ad-4c87-b2b2-adbed136e127","ios":"levelo://app?vid=486fbf4f-78ad-4c87-b2b2-adbed136e127"},"vehicle_type_id":"4","last_reported":1701374859,"current_range_meters":24800,"station_id":"cjm6bp8fraef2m0cb0m0","pricing_plan_id":"free"},{"bike_id":"747f7303-f46a-4d4c-90bd-2b25a42c54ab","system_id":"levelo_inurba_marseille","lat":43.269363,"lon":5.402493,"is_reserved":false,"is_disabled":false,"rental_uris":{"android":"levelo://app?vid=747f7303-f46a-4d4c-90bd-2b25a42c54ab","ios":"levelo://app?vid=747f7303-f46a-4d4c-90bd-2b25a42c54ab"},"vehicle_type_id":"4","last_reported":1701374859,"current_range_meters":0,"station_id":"cjm6bp8fraef2m0cb0m0","pricing_plan_id":"free"},{"bike_id":"e7d5495c-6fc5-41ea-a37d-b62d2b40a526","system_id":"levelo_inurba_marseille","lat":43.26949,"lon":5.40262,"is_reserved":false,"is_disabled":false,"rental_uris":{"android":"levelo://app?vid=e7d5495c-6fc5-41ea-a37d-b62d2b40a526","ios":"levelo://app?vid=e7d5495c-6fc5-41ea-a37d-b62d2b40a526"},"vehicle_type_id":"4","last_reported":1701374859,"current_range_meters":1600,"station_id":"cjm6bp8fraef2m0cb0m0","pricing_plan_id":"free"},{"bike_id":"3319c67f-102f-4eb4-84ca-dc64d010af16","system_id":"levelo_inurba_marseille","lat":43.26935,"lon":5.40249,"is_reserved":false,"is_disabled":false,"rental_uris":{"android":"levelo://app?vid=3319c67f-102f-4eb4-84ca-dc64d010af16","ios":"levelo://app?vid=3319c67f-102f-4eb4-84ca-dc64d010af16"},"vehicle_type_id":"4","last_reported":1701374859,"current_range_meters":2000,"station_id":"cjm6bp8fraef2m0cb0m0","pricing_plan_id":"free"},{"bike_id":"3293b13e-0e31-4992-8c4d-d0b69a339f17","system_id":"levelo_inurba_marseille","lat":43.269357,"lon":5.402573,"is_reserved":false,"is_disabled":false,"rental_uris":{"android":"levelo://app?vid=3293b13e-0e31-4992-8c4d-d0b69a339f17","ios":"levelo://app?vid=3293b13e-0e31-4992-8c4d-d0b69a339f17"},"vehicle_type_id":"4","last_reported":1701374859,"current_range_meters":6400,"station_id":"cjm6bp8fraef2m0cb0m0","pricing_plan_id":"free"},{"bike_id":"af0dffa1-59a0-4aa6-b6dd-c377bbb313e3","system_id":"levelo_inurba_marseille","lat":43.26949,"lon":5.40262,"is_reserved":false,"is_disabled":false,"rental_uris":{"android":"levelo://app?vid=af0dffa1-59a0-4aa6-b6dd-c377bbb313e3","ios":"levelo://app?vid=af0dffa1-59a0-4aa6-b6dd-c377bbb313e3"},"vehicle_type_id":"4","last_reported":1701374859,"current_range_meters":11600,"station_id":"cjm6bp8fraef2m0cb0m0","pricing_plan_id":"free"},{"bike_id":"44d51874-045e-4906-a2f9-909193d67e63","system_id":"levelo_inurba_marseille","lat":43.317104,"lon":5.436818,"is_reserved":false,"is_disabled":false,"rental_uris":{"android":"levelo://app?vid=44d51874-045e-4906-a2f9-909193d67e63","ios":"levelo://app?vid=44d51874-045e-4906-a2f9-909193d67e63"},"vehicle_type_id":"4","last_reported":1701374859,"current_range_meters":27200,"station_id":"ce4bhp92rcd13ifvqhcg","pricing_plan_id":"free"},{"bike_id":"7fe6820a-06e6-42d8-9e38-8e0428267591","system_id":"levelo_inurba_marseille","lat":43.317104,"lon":5.436818,"is_reserved":false,"is_disabled":false,"rental_uris":{"android":"levelo://app?vid=7fe6820a-06e6-42d8-9e38-8e0428267591","ios":"levelo://app?vid=7fe6820a-06e6-42d8-9e38-8e0428267591"},"vehicle_type_id":"4","last_reported":1701374859,"current_range_meters":28000,"station_id":"ce4bhp92rcd13ifvqhcg","pricing_plan_id":"free"},{"bike_id":"6d50931a-5553-495d-be31-bbcf7bdad9de","system_id":"levelo_inurba_marseille","lat":43.317104,"lon":5.436818,"is_reserved":false,"is_disabled":false,"rental_uris":{"android":"levelo://app?vid=6d50931a-5553-495d-be31-bbcf7bdad9de","ios":"levelo://app?vid=6d50931a-5553-495d-be31-bbcf7bdad9de"},"vehicle_type_id":"4","last_reported":1701374859,"current_range_meters":31200,"station_id":"ce4bhp92rcd13ifvqhcg","pricing_plan_id":"free"},{"bike_id":"7273224c-d24c-46bb-960b-6a215f54e2fc","system_id":"levelo_inurba_marseille","lat":43.271388,"lon":5.409269,"is_reserved":false,"is_disabled":false,"rental_uris":{"android":"levelo://app?vid=7273224c-d24c-46bb-960b-6a215f54e2fc","ios":"levelo://app?vid=7273224c-d24c-46bb-960b-6a215f54e2fc"},"vehicle_type_id":"4","last_reported":1701374859,"current_range_meters":28000,"station_id":"ce4bhl12rcd13ifvqgf0","pricing_plan_id":"free"},{"bike_id":"4fd558eb-d800-40cb-8081-2ca2f860245c","system_id":"levelo_inurba_marseille","lat":43.267959,"lon":5.402687,"is_reserved":false,"is_disabled":false,"rental_uris":{"android":"levelo://app?vid=4fd558eb-d800-40cb-8081-2ca2f860245c","ios":"levelo://app?vid=4fd558eb-d800-40cb-8081-2ca2f860245c"},"vehicle_type_id":"4","last_reported":1701374859,"current_range_meters":19600,"station_id":"ce501612rcd8frsf0b60","pricing_plan_id":"free"},{"bike_id":"6e178954-be33-4260-89e5-9907a5d205b9","system_id":"levelo_inurba_marseille","lat":43.267959,"lon":5.402685,"is_reserved":false,"is_disabled":false,"rental_uris":{"android":"levelo://app?vid=6e178954-be33-4260-89e5-9907a5d205b9","ios":"levelo://app?vid=6e178954-be33-4260-89e5-9907a5d205b9"},"vehicle_type_id":"4","last_reported":1701374859,"current_range_meters":4000,"station_id":"ce501612rcd8frsf0b60","pricing_plan_id":"free"},{"bike_id":"6e705c4d-9fe3-4f02-bf5f-f05b8a0820b4","system_id":"levelo_inurba_marseille","lat":43.267959,"lon":5.402687,"is_reserved":false,"is_disabled":false,"rental_uris":{"android":"levelo://app?vid=6e705c4d-9fe3-4f02-bf5f-f05b8a0820b4","ios":"levelo://app?vid=6e705c4d-9fe3-4f02-bf5f-f05b8a0820b4"},"vehicle_type_id":"4","last_reported":1701374859,"current_range_meters":4800,"station_id":"ce501612rcd8frsf0b60","pricing_plan_id":"free"},{"bike_id":"5212b522-476a-4042-b3fe-83d642e086ed","system_id":"levelo_inurba_marseille","lat":43.267959,"lon":5.402687,"is_reserved":false,"is_disabled":false,"rental_uris":{"android":"levelo://app?vid=5212b522-476a-4042-b3fe-83d642e086ed","ios":"levelo://app?vid=5212b522-476a-4042-b3fe-83d642e086ed"},"vehicle_type_id":"4","last_reported":1701374859,"current_range_meters":7200,"station_id":"ce501612rcd8frsf0b60","pricing_plan_id":"free"},{"bike_id":"8ca0c6ca-a7ce-4aa5-b688-877a71635599","system_id":"levelo_inurba_marseille","lat":43.267959,"lon":5.402685,"is_reserved":false,"is_disabled":false,"rental_uris":{"android":"levelo://app?vid=8ca0c6ca-a7ce-4aa5-b688-877a71635599","ios":"levelo://app?vid=8ca0c6ca-a7ce-4aa5-b688-877a71635599"},"vehicle_type_id":"4","last_reported":1701374859,"current_range_meters":0,"station_id":"ce501612rcd8frsf0b60","pricing_plan_id":"free"},{"bike_id":"1422fe54-c05d-40d5-8926-a4d3109d3181","system_id":"levelo_inurba_marseille","lat":43.267959,"lon":5.402685,"is_reserved":false,"is_disabled":false,"rental_uris":{"android":"levelo://app?vid=1422fe54-c05d-40d5-8926-a4d3109d3181","ios":"levelo://app?vid=1422fe54-c05d-40d5-8926-a4d3109d3181"},"vehicle_type_id":"4","last_reported":1701374859,"current_range_meters":4800,"station_id":"ce501612rcd8frsf0b60","pricing_plan_id":"free"},{"bike_id":"67a84057-c975-45a1-8bfb-a936a4c9b8f5","system_id":"levelo_inurba_marseille","lat":43.267959,"lon":5.402687,"is_reserved":false,"is_disabled":false,"rental_uris":{"android":"levelo://app?vid=67a84057-c975-45a1-8bfb-a936a4c9b8f5","ios":"levelo://app?vid=67a84057-c975-45a1-8bfb-a936a4c9b8f5"},"vehicle_type_id":"4","last_reported":1701374859,"current_range_meters":20800,"station_id":"ce501612rcd8frsf0b60","pricing_plan_id":"free"},{"bike_id":"b3f948c3-e841-4379-aca6-4cd3803a6a11","system_id":"levelo_inurba_marseille","lat":43.267959,"lon":5.402685,"is_reserved":false,"is_disabled":false,"rental_uris":{"android":"levelo://app?vid=b3f948c3-e841-4379-aca6-4cd3803a6a11","ios":"levelo://app?vid=b3f948c3-e841-4379-aca6-4cd3803a6a11"},"vehicle_type_id":"4","last_reported":1701374859,"current_range_meters":16800,"station_id":"ce501612rcd8frsf0b60","pricing_plan_id":"free"},{"bike_id":"8c0144d4-3ae3-46c6-91f5-f89e3a65f9c5","system_id":"levelo_inurba_marseille","lat":43.267959,"lon":5.402687,"is_reserved":false,"is_disabled":false,"rental_uris":{"android":"levelo://app?vid=8c0144d4-3ae3-46c6-91f5-f89e3a65f9c5","ios":"levelo://app?vid=8c0144d4-3ae3-46c6-91f5-f89e3a65f9c5"},"vehicle_type_id":"4","last_reported":1701374859,"current_range_meters":24000,"station_id":"ce501612rcd8frsf0b60","pricing_plan_id":"free"},{"bike_id":"fff46b81-ef8b-48f4-9de2-456578708b2c","system_id":"levelo_inurba_marseille","lat":43.267959,"lon":5.402685,"is_reserved":false,"is_disabled":false,"rental_uris":{"android":"levelo://app?vid=fff46b81-ef8b-48f4-9de2-456578708b2c","ios":"levelo://app?vid=fff46b81-ef8b-48f4-9de2-456578708b2c"},"vehicle_type_id":"4","last_reported":1701374859,"current_range_meters":23200,"station_id":"ce501612rcd8frsf0b60","pricing_plan_id":"free"},{"bike_id":"4e3d13ae-3f43-4865-af20-3ed4394d391d","system_id":"levelo_inurba_marseille","lat":43.298768,"lon":5.43643,"is_reserved":false,"is_disabled":false,"rental_uris":{"android":"levelo://app?vid=4e3d13ae-3f43-4865-af20-3ed4394d391d","ios":"levelo://app?vid=4e3d13ae-3f43-4865-af20-3ed4394d391d"},"vehicle_type_id":"4","last_reported":1701374859,"current_range_meters":26800,"station_id":"ce4bhpp2rcd13ifvqhfg","pricing_plan_id":"free"},{"bike_id":"3f2b1989-5b73-4cd5-aa40-2053eed33222","system_id":"levelo_inurba_marseille","lat":43.281548,"lon":5.42643,"is_reserved":false,"is_disabled":false,"rental_uris":{"android":"levelo://app?vid=3f2b1989-5b73-4cd5-aa40-2053eed33222","ios":"levelo://app?vid=3f2b1989-5b73-4cd5-aa40-2053eed33222"},"vehicle_type_id":"4","last_reported":1701374859,"current_range_meters":10000,"station_id":"ce4bhnh2rcd13ifvqgug","pricing_plan_id":"free"},{"bike_id":"3532a786-7312-4db1-88be-2e5e8a274941","system_id":"levelo_inurba_marseille","lat":43.281548,"lon":5.42643,"is_reserved":false,"is_disabled":false,"rental_uris":{"android":"levelo://app?vid=3532a786-7312-4db1-88be-2e5e8a274941","ios":"levelo://app?vid=3532a786-7312-4db1-88be-2e5e8a274941"},"vehicle_type_id":"4","last_reported":1701374859,"current_range_meters":4000,"station_id":"ce4bhnh2rcd13ifvqgug","pricing_plan_id":"free"},{"bike_id":"3e4fb47e-33e8-4ee2-bfc1-1bd948cfa529","system_id":"levelo_inurba_marseille","lat":43.281548,"lon":5.42643,"is_reserved":false,"is_disabled":false,"rental_uris":{"android":"levelo://app?vid=3e4fb47e-33e8-4ee2-bfc1-1bd948cfa529","ios":"levelo://app?vid=3e4fb47e-33e8-4ee2-bfc1-1bd948cfa529"},"vehicle_type_id":"4","last_reported":1701374859,"current_range_meters":25600,"station_id":"ce4bhnh2rcd13ifvqgug","pricing_plan_id":"free"},{"bike_id":"c31d6f97-d623-4262-9b94-0580c155f5d1","system_id":"levelo_inurba_marseille","lat":43.26807,"lon":5.41009,"is_reserved":false,"is_disabled":false,"rental_uris":{"android":"levelo://app?vid=c31d6f97-d623-4262-9b94-0580c155f5d1","ios":"levelo://app?vid=c31d6f97-d623-4262-9b94-0580c155f5d1"},"vehicle_type_id":"4","last_reported":1701374859,"current_range_meters":11600,"station_id":"","pricing_plan_id":"free"},{"bike_id":"38acf6c5-fb33-475a-a2d5-fcd03259aa1e","system_id":"levelo_inurba_marseille","lat":43.2607,"lon":5.393983,"is_reserved":false,"is_disabled":false,"rental_uris":{"android":"levelo://app?vid=38acf6c5-fb33-475a-a2d5-fcd03259aa1e","ios":"levelo://app?vid=38acf6c5-fb33-475a-a2d5-fcd03259aa1e"},"vehicle_type_id":"4","last_reported":1701374859,"current_range_meters":5200,"station_id":"ce4bhh92rcd13ifvqfj0","pricing_plan_id":"free"},{"bike_id":"2a7f9177-2c00-4509-8367-618d8a187208","system_id":"levelo_inurba_marseille","lat":43.2607,"lon":5.393983,"is_reserved":false,"is_disabled":false,"rental_uris":{"android":"levelo://app?vid=2a7f9177-2c00-4509-8367-618d8a187208","ios":"levelo://app?vid=2a7f9177-2c00-4509-8367-618d8a187208"},"vehicle_type_id":"4","last_reported":1701374859,"current_range_meters":26400,"station_id":"ce4bhh92rcd13ifvqfj0","pricing_plan_id":"free"},{"bike_id":"c3be5e57-b7df-4b6f-84f6-e0b7439e5774","system_id":"levelo_inurba_marseille","lat":43.274973,"lon":5.424373,"is_reserved":false,"is_disabled":false,"rental_uris":{"android":"levelo://app?vid=c3be5e57-b7df-4b6f-84f6-e0b7439e5774","ios":"levelo://app?vid=c3be5e57-b7df-4b6f-84f6-e0b7439e5774"},"vehicle_type_id":"4","last_reported":1701374859,"current_range_meters":29600,"station_id":"ce4bhn92rcd13ifvqgrg","pricing_plan_id":"free"},{"bike_id":"7f61297d-7a4f-47f0-8088-db137e8d9d24","system_id":"levelo_inurba_marseille","lat":43.275028,"lon":5.424534,"is_reserved":false,"is_disabled":false,"rental_uris":{"android":"levelo://app?vid=7f61297d-7a4f-47f0-8088-db137e8d9d24","ios":"levelo://app?vid=7f61297d-7a4f-47f0-8088-db137e8d9d24"},"vehicle_type_id":"4","last_reported":1701374859,"current_range_meters":14400,"station_id":"ce4bhn92rcd13ifvqgrg","pricing_plan_id":"free"},{"bike_id":"fac0e422-c37f-421d-8e1b-a25ffb37ce17","system_id":"levelo_inurba_marseille","lat":43.270721,"lon":5.422764,"is_reserved":false,"is_disabled":false,"rental_uris":{"android":"levelo://app?vid=fac0e422-c37f-421d-8e1b-a25ffb37ce17","ios":"levelo://app?vid=fac0e422-c37f-421d-8e1b-a25ffb37ce17"},"vehicle_type_id":"4","last_reported":1701374859,"current_range_meters":25600,"station_id":"ce4bhk92rcd13ifvqgb0","pricing_plan_id":"free"},{"bike_id":"39a41fc6-fb12-4304-b9bd-c12fd73ba948","system_id":"levelo_inurba_marseille","lat":43.270721,"lon":5.422764,"is_reserved":false,"is_disabled":false,"rental_uris":{"android":"levelo://app?vid=39a41fc6-fb12-4304-b9bd-c12fd73ba948","ios":"levelo://app?vid=39a41fc6-fb12-4304-b9bd-c12fd73ba948"},"vehicle_type_id":"4","last_reported":1701374859,"current_range_meters":29600,"station_id":"ce4bhk92rcd13ifvqgb0","pricing_plan_id":"free"},{"bike_id":"d28c2101-138c-4829-a4d2-de1aa91912ed","system_id":"levelo_inurba_marseille","lat":43.270721,"lon":5.422764,"is_reserved":false,"is_disabled":false,"rental_uris":{"android":"levelo://app?vid=d28c2101-138c-4829-a4d2-de1aa91912ed","ios":"levelo://app?vid=d28c2101-138c-4829-a4d2-de1aa91912ed"},"vehicle_type_id":"4","last_reported":1701374859,"current_range_meters":12800,"station_id":"ce4bhk92rcd13ifvqgb0","pricing_plan_id":"free"},{"bike_id":"2c794cda-e1ba-4030-acff-649085b058d6","system_id":"levelo_inurba_marseille","lat":43.270721,"lon":5.422764,"is_reserved":false,"is_disabled":false,"rental_uris":{"android":"levelo://app?vid=2c794cda-e1ba-4030-acff-649085b058d6","ios":"levelo://app?vid=2c794cda-e1ba-4030-acff-649085b058d6"},"vehicle_type_id":"4","last_reported":1701374859,"current_range_meters":20400,"station_id":"ce4bhk92rcd13ifvqgb0","pricing_plan_id":"free"},{"bike_id":"3e791518-6a1f-48bd-85bd-5577087a2ba1","system_id":"levelo_inurba_marseille","lat":43.258658,"lon":5.398935,"is_reserved":false,"is_disabled":false,"rental_uris":{"android":"levelo://app?vid=3e791518-6a1f-48bd-85bd-5577087a2ba1","ios":"levelo://app?vid=3e791518-6a1f-48bd-85bd-5577087a2ba1"},"vehicle_type_id":"4","last_reported":1701374859,"current_range_meters":6000,"station_id":"ce4bhl92rcd13ifvqghg","pricing_plan_id":"free"},{"bike_id":"cb0999ac-8ab2-44a1-8dbe-18c580402568","system_id":"levelo_inurba_marseille","lat":43.258658,"lon":5.398935,"is_reserved":false,"is_disabled":false,"rental_uris":{"android":"levelo://app?vid=cb0999ac-8ab2-44a1-8dbe-18c580402568","ios":"levelo://app?vid=cb0999ac-8ab2-44a1-8dbe-18c580402568"},"vehicle_type_id":"4","last_reported":1701374859,"current_range_meters":26800,"station_id":"ce4bhl92rcd13ifvqghg","pricing_plan_id":"free"},{"bike_id":"88e62de7-5a9b-449b-b14d-7bff7e29086b","system_id":"levelo_inurba_marseille","lat":43.258658,"lon":5.398935,"is_reserved":false,"is_disabled":false,"rental_uris":{"android":"levelo://app?vid=88e62de7-5a9b-449b-b14d-7bff7e29086b","ios":"levelo://app?vid=88e62de7-5a9b-449b-b14d-7bff7e29086b"},"vehicle_type_id":"4","last_reported":1701374859,"current_range_meters":17600,"station_id":"ce4bhl92rcd13ifvqghg","pricing_plan_id":"free"},{"bike_id":"9a98f69b-0661-4a9f-a960-364046df64c8","system_id":"levelo_inurba_marseille","lat":43.258658,"lon":5.398935,"is_reserved":false,"is_disabled":false,"rental_uris":{"android":"levelo://app?vid=9a98f69b-0661-4a9f-a960-364046df64c8","ios":"levelo://app?vid=9a98f69b-0661-4a9f-a960-364046df64c8"},"vehicle_type_id":"4","last_reported":1701374859,"current_range_meters":31200,"station_id":"ce4bhl92rcd13ifvqghg","pricing_plan_id":"free"},{"bike_id":"6e725561-fb5c-47c5-a23a-c7ba259de05e","system_id":"levelo_inurba_marseille","lat":43.259286,"lon":5.40912,"is_reserved":false,"is_disabled":false,"rental_uris":{"android":"levelo://app?vid=6e725561-fb5c-47c5-a23a-c7ba259de05e","ios":"levelo://app?vid=6e725561-fb5c-47c5-a23a-c7ba259de05e"},"vehicle_type_id":"4","last_reported":1701374859,"current_range_meters":5600,"station_id":"ce4bhm92rcd13ifvqglg","pricing_plan_id":"free"},{"bike_id":"2803d510-c937-4d3e-8827-ebf9df44d558","system_id":"levelo_inurba_marseille","lat":43.257079,"lon":5.411051,"is_reserved":false,"is_disabled":false,"rental_uris":{"android":"levelo://app?vid=2803d510-c937-4d3e-8827-ebf9df44d558","ios":"levelo://app?vid=2803d510-c937-4d3e-8827-ebf9df44d558"},"vehicle_type_id":"4","last_reported":1701374859,"current_range_meters":30800,"station_id":"ce4bhkp2rcd13ifvqgd0","pricing_plan_id":"free"},