{"last_updated":1727017673,"ttl":30,"version":"2.2","data":{"bikes":[{"bike_id":"fd84f170-c075-4570-a556-c5e617e29406","system_id":"levelo_inurba_marseille","lat":43.28332,"lon":5.40887,"is_reserved":false,"is_disabled":false,"rental_uris":{"android":"levelo://app?vid=fd84f170-c075-4570-a556-c5e617e29406","ios":"levelo://app?vid=fd84f170-c075-4570-a556-c5e617e29406"},"vehicle_type_id":"4","last_reported":1727017673,"current_range_meters":18800,"station_id":"","pricing_plan_id":"cebpf4jnsgd1na2vs0mg"},{"bike_id":"0f4bd5ad-8a1a-4214-94a9-f7a00a32a067","system_id":"levelo_inurba_marseille","lat":43.32052,"lon":5.41542,"is_reserved":false,"is_disabled":false,"rental_uris":{"android":"levelo://app?vid=0f4bd5ad-8a1a-4214-94a9-f7a00a32a067","ios":"levelo://app?vid=0f4bd5ad-8a1a-4214-94a9-f7a00a32a067"},"vehicle_type_id":"4","last_reported":1727017673,"current_range_meters":27200,"station_id":"ce4bhq92rcd13ifvqhkg","pricing_plan_id":"cebpf4jnsgd1na2vs0mg"},{"bike_id":"c604313a-a9d7-49cc-b38b-d0010159cea5","system_id":"levelo_inurba_marseille","lat":43.32483,"lon":5.36564,"is_reserved":false,"is_disabled":false,"rental_uris":{"android":"levelo://app?vid=c604313a-a9d7-49cc-b38b-d0010159cea5","ios":"levelo://app?vid=c604313a-a9d7-49cc-b38b-d0010159cea5"},"vehicle_type_id":"4","last_reported":1727017673,"current_range_meters":20400,"station_id":"ce4bhs12rcd13ifvqhvg","pricing_plan_id":"cebpf4jnsgd1na2vs0mg"},{"bike_id":"db529281-4349-4a78-9ee2-db3b2ca32a66","system_id":"levelo_inurba_marseille","lat":43.30539,"lon":5.36518,"is_reserved":false,"is_disabled":false,"rental_uris":{"android":"levelo://app?vid=db529281-4349-4a78-9ee2-db3b2ca32a66","ios":"levelo://app?vid=db529281-4349-4a78-9ee2-db3b2ca32a66"},"vehicle_type_id":"4","last_reported":1727017673,"current_range_meters":24400,"station_id":"ce4bgs12rcd13ifvqcag","pricing_plan_id":"cebpf4jnsgd1na2vs0mg"},{"bike_id":"aeef1ab3-2115-4e8a-965a-acddcc1e3815","system_id":"levelo_inurba_marseille","lat":43.29621,"lon":5.37714,"is_reserved":false,"is_disabled":false,"rental_uris":{"android":"levelo://app?vid=aeef1ab3-2115-4e8a-965a-acddcc1e3815","ios":"levelo://app?vid=aeef1ab3-2115-4e8a-965a-acddcc1e3815"},"vehicle_type_id":"4","last_reported":1727017673,"current_range_meters":7200,"station_id":"ce4bgi92rcd13ifvqb90","pricing_plan_id":"cebpf4jnsgd1na2vs0mg"},{"bike_id":"2375269c-1ee0-4177-a574-bcc26e16eb27","system_id":"levelo_inurba_marseille","lat":43.31711,"lon":5.43706,"is_reserved":false,"is_disabled":false,"rental_uris":{"android":"levelo://app?vid=2375269c-1ee0-4177-a574-bcc26e16eb27","ios":"levelo://app?vid=2375269c-1ee0-4177-a574-bcc26e16eb27"},"vehicle_type_id":"4","last_reported":1727017673,"current_range_meters":20000,"station_id":"ce4bhp92rcd13ifvqhcg","pricing_plan_id":"cebpf4jnsgd1na2vs0mg"},{"bike_id":"dceec558-8b20-432c-8752-32c16e6081dd","system_id":"levelo_inurba_marseille","lat":43.25581,"lon":5.38229,"is_reserved":false,"is_disabled":false,"rental_uris":{"android":"levelo://app?vid=dceec558-8b20-432c-8752-32c16e6081dd","ios":"levelo://app?vid=dceec558-8b20-432c-8752-32c16e6081dd"},"vehicle_type_id":"4","last_reported":1727017673,"current_range_meters":27600,"station_id":"ce4bhih2rcd13ifvqfs0","pricing_plan_id":"cebpf4jnsgd1na2vs0mg"},{"bike_id":"e32f7f94-5b2d-4403-8f0c-33040436563b","system_id":"levelo_inurba_marseille","lat":43.3135,"lon":5.36713,"is_reserved":false,"is_disabled":false,"rental_uris":{"android":"levelo://app?vid=e32f7f94-5b2d-4403-8f0c-33040436563b","ios":"levelo://app?vid=e32f7f94-5b2d-4403-8f0c-33040436563b"},"vehicle_type_id":"4","last_reported":1727017673,"current_range_meters":28800,"station_id":"ce4bgr92rcd13ifvqc6g","pricing_plan_id":"cebpf4jnsgd1na2vs0mg"},{"bike_id":"bc6a1d9b-916f-469a-a1d4-2dbe91fab3c5","system_id":"levelo_inurba_marseille","lat":43.33033,"lon":5.39025,"is_reserved":false,"is_disabled":false,"rental_uris":{"android":"levelo://app?vid=bc6a1d9b-916f-469a-a1d4-2dbe91fab3c5","ios":"levelo://app?vid=bc6a1d9b-916f-469a-a1d4-2dbe91fab3c5"},"vehicle_type_id":"4","last_reported":1727017673,"current_range_meters":22800,"station_id":"ce4bhr92rcd13ifvqhrg","pricing_plan_id":"cebpf4jnsgd1na2vs0mg"},{"bike_id":"d8286558-ab0b-465f-922a-121e00410cea","system_id":"levelo_inurba_marseille","lat":43.29227,"lon":5.36073,"is_reserved":false,"is_disabled":false,"rental_uris":{"android":"levelo://app?vid=d8286558-ab0b-465f-922a-121e00410cea","ios":"levelo://app?vid=d8286558-ab0b-465f-922a-121e00410cea"},"vehicle_type_id":"4","last_reported":1727017673,"current_range_meters":24000,"station_id":"ce4bhbh2rcd13ifvqeqg","pricing_plan_id":"cebpf4jnsgd1na2vs0mg"},{"bike_id":"b916b727-e423-4d3e-beba-144c1c53929b","system_id":"levelo_inurba_marseille","lat":43.25496,"lon":5.37651,"is_reserved":false,"is_disabled":false,"rental_uris":{"android":"levelo://app?vid=b916b727-e423-4d3e-beba-144c1c53929b","ios":"levelo://app?vid=b916b727-e423-4d3e-beba-144c1c53929b"},"vehicle_type_id":"4","last_reported":1727017673,"current_range_meters":17200,"station_id":"ce4bhh12rcd13ifvqff0","pricing_plan_id":"cebpf4jnsgd1na2vs0mg"},{"bike_id":"8d854546-86ee-4785-ba6a-92c93379317d","system_id":"levelo_inurba_marseille","lat":43.246643,"lon":5.381866,"is_reserved":false,"is_disabled":false,"rental_uris":{"android":"levelo://app?vid=8d854546-86ee-4785-ba6a-92c93379317d","ios":"levelo://app?vid=8d854546-86ee-4785-ba6a-92c93379317d"},"vehicle_type_id":"4","last_reported":1727017673,"current_range_meters":2800,"station_id":"ce4bhgh2rcd13ifvqfa0","pricing_plan_id":"cebpf4jnsgd1na2vs0mg"},{"bike_id":"71321681-8498-4b64-9f27-e969b2986f86","system_id":"levelo_inurba_marseille","lat":43.30886,"lon":5.37179,"is_reserved":false,"is_disabled":false,"rental_uris":{"android":"levelo://app?vid=71321681-8498-4b64-9f27-e969b2986f86","ios":"levelo://app?vid=71321681-8498-4b64-9f27-e969b2986f86"},"vehicle_type_id":"4","last_reported":1727017673,"current_range_meters":8800,"station_id":"ce4bguh2rcd13ifvqckg","pricing_plan_id":"cebpf4jnsgd1na2vs0mg"},{"bike_id":"20a042f1-81aa-4cde-8548-4f002e395336","system_id":"levelo_inurba_marseille","lat":43.30181,"lon":5.39859,"is_reserved":false,"is_disabled":false,"rental_uris":{"android":"levelo://app?vid=20a042f1-81aa-4cde-8548-4f002e395336","ios":"levelo://app?vid=20a042f1-81aa-4cde-8548-4f002e395336"},"vehicle_type_id":"4","last_reported":1727017673,"current_range_meters":36800,"station_id":"ce4bgvp2rcd13ifvqct0","pricing_plan_id":"cebpf4jnsgd1na2vs0mg"},{"bike_id":"3b856dfb-1b5e-4709-93aa-ec7d747bd7cf","system_id":"levelo_inurba_marseille","lat":43.31084,"lon":5.42437,"is_reserved":false,"is_disabled":false,"rental_uris":{"android":"levelo://app?vid=3b856dfb-1b5e-4709-93aa-ec7d747bd7cf","ios":"levelo://app?vid=3b856dfb-1b5e-4709-93aa-ec7d747bd7cf"},"vehicle_type_id":"4","last_reported":1727017673,"current_range_meters":9200,"station_id":"ce4bhp92rcd13ifvqhag","pricing_plan_id":"cebpf4jnsgd1na2vs0mg"},{"bike_id":"ac390ab1-f540-47ca-8788-510116250151","system_id":"levelo_inurba_marseille","lat":43.2455,"lon":5.39531,"is_reserved":false,"is_disabled":false,"rental_uris":{"android":"levelo://app?vid=ac390ab1-f540-47ca-8788-510116250151","ios":"levelo://app?vid=ac390ab1-f540-47ca-8788-510116250151"},"vehicle_type_id":"4","last_reported":1727017673,"current_range_meters":37600,"station_id":"ce4bhlp2rcd13ifvqgjg","pricing_plan_id":"cebpf4jnsgd1na2vs0mg"},{"bike_id":"b950bf68-4553-4ff9-97a4-a2ff7e375945","system_id":"levelo_inurba_marseille","lat":43.299297,"lon":5.374682,"is_reserved":false,"is_disabled":false,"rental_uris":{"android":"levelo://app?vid=b950bf68-4553-4ff9-97a4-a2ff7e375945","ios":"levelo://app?vid=b950bf68-4553-4ff9-97a4-a2ff7e375945"},"vehicle_type_id":"4","last_reported":1727017673,"current_range_meters":37600,"station_id":"ce4bgjh2rcd13ifvqbg0","pricing_plan_id":"cebpf4jnsgd1na2vs0mg"},{"bike_id":"6910b948-e84c-4130-a881-34aa4d39e7f7","system_id":"levelo_inurba_marseille","lat":43.292725,"lon":5.368407,"is_reserved":false,"is_disabled":false,"rental_uris":{"android":"levelo://app?vid=6910b948-e84c-4130-a881-34aa4d39e7f7","ios":"levelo://app?vid=6910b948-e84c-4130-a881-34aa4d39e7f7"},"vehicle_type_id":"4","last_reported":1727017673,"current_range_meters":36800,"station_id":"ce4bhbp2rcd13ifvqesg","pricing_plan_id":"cebpf4jnsgd1na2vs0mg"},{"bike_id":"ddef2735-203a-4460-8fe2-32d0d088e5d5","system_id":"levelo_inurba_marseille","lat":43.31244,"lon":5.37982,"is_reserved":false,"is_disabled":false,"rental_uris":{"android":"levelo://app?vid=ddef2735-203a-4460-8fe2-32d0d088e5d5","ios":"levelo://app?vid=ddef2735-203a-4460-8fe2-32d0d088e5d5"},"vehicle_type_id":"4","last_reported":1727017673,"current_range_meters":5600,"station_id":"","pricing_plan_id":"cebpf4jnsgd1na2vs0mg"},{"bike_id":"bf92cc73-747c-4694-afbf-5a6e4a2fb87d","system_id":"levelo_inurba_marseille","lat":43.30428,"lon":5.3889,"is_reserved":false,"is_disabled":false,"rental_uris":{"android":"levelo://app?vid=bf92cc73-747c-4694-afbf-5a6e4a2fb87d","ios":"levelo://app?vid=bf92cc73-747c-4694-afbf-5a6e4a2fb87d"},"vehicle_type_id":"4","last_reported":1727017673,"current_range_meters":7200,"station_id":"ce4bgk12rcd13ifvqbi0","pricing_plan_id":"cebpf4jnsgd1na2vs0mg"},{"bike_id":"baa9e3ba-a317-4c5a-937b-63c24c256bd8","system_id":"levelo_inurba_marseille","lat":43.32676,"lon":5.40928,"is_reserved":false,"is_disabled":false,"rental_uris":{"android":"levelo://app?vid=baa9e3ba-a317-4c5a-937b-63c24c256bd8","ios":"levelo://app?vid=baa9e3ba-a317-4c5a-937b-63c24c256bd8"},"vehicle_type_id":"4","last_reported":1727017673,"current_range_meters":38800,"station_id":"","pricing_plan_id":"cebpf4jnsgd1na2vs0mg"},{"bike_id":"27623cce-8696-45a0-8250-216753d40046","system_id":"levelo_inurba_marseille","lat":43.299709,"lon":5.384793,"is_reserved":false,"is_disabled":false,"rental_uris":{"android":"levelo://app?vid=27623cce-8696-45a0-8250-216753d40046","ios":"levelo://app?vid=27623cce-8696-45a0-8250-216753d40046"},"vehicle_type_id":"4","last_reported":1727017673,"current_range_meters":14400,"station_id":"ce4bgt12rcd13ifvqce0","pricing_plan_id":"cebpf4jnsgd1na2vs0mg"},{"bike_id":"9f1158a3-02fb-4445-94d8-45cd5f8de1f7","system_id":"levelo_inurba_marseille","lat":43.29962,"lon":5.41325,"is_reserved":false,"is_disabled":false,"rental_uris":{"android":"levelo://app?vid=9f1158a3-02fb-4445-94d8-45cd5f8de1f7","ios":"levelo://app?vid=9f1158a3-02fb-4445-94d8-45cd5f8de1f7"},"vehicle_type_id":"4","last_reported":1727017673,"current_range_meters":18800,"station_id":"ce4bhp12rcd13ifvqh9g","pricing_plan_id":"cebpf4jnsgd1na2vs0mg"},{"bike_id":"3d4e0bd3-7140-4a4d-ba5a-0e85567e3bc3","system_id":"levelo_inurba_marseille","lat":43.26569,"lon":5.39003,"is_reserved":false,"is_disabled":false,"rental_uris":{"android":"levelo://app?vid=3d4e0bd3-7140-4a4d-ba5a-0e85567e3bc3","ios":"levelo://app?vid=3d4e0bd3-7140-4a4d-ba5a-0e85567e3bc3"},"vehicle_type_id":"4","last_reported":1727017673,"current_range_meters":20800,"station_id":"ce4bhe12rcd13ifvqf30","pricing_plan_id":"cebpf4jnsgd1na2vs0mg"},{"bike_id":"edfb1ff5-b81b-4225-8da9-100a9115b1e3","system_id":"levelo_inurba_marseille","lat":43.29735,"lon":5.36561,"is_reserved":false,"is_disabled":false,"rental_uris":{"android":"levelo://app?vid=edfb1ff5-b81b-4225-8da9-100a9115b1e3","ios":"levelo://app?vid=edfb1ff5-b81b-4225-8da9-100a9115b1e3"},"vehicle_type_id":"4","last_reported":1727017673,"current_range_meters":3600,"station_id":"","pricing_plan_id":"cebpf4jnsgd1na2vs0mg"},{"bike_id":"d0c58b60-0f4c-4cc5-ae52-497d61719607","system_id":"levelo_inurba_marseille","lat":43.28096,"lon":5.37827,"is_reserved":false,"is_disabled":false,"rental_uris":{"android":"levelo://app?vid=d0c58b60-0f4c-4cc5-ae52-497d61719607","ios":"levelo://app?vid=d0c58b60-0f4c-4cc5-ae52-497d61719607"},"vehicle_type_id":"4","last_reported":1727017673,"current_range_meters":3200,"station_id":"ce4bha12rcd13ifvqee0","pricing_plan_id":"cebpf4jnsgd1na2vs0mg"},{"bike_id":"bf1b2103-b792-4830-9ce1-52d19f810b0b","system_id":"levelo_inurba_marseille","lat":43.30805,"lon":5.43525,"is_reserved":false,"is_disabled":false,"rental_uris":{"android":"levelo://app?vid=bf1b2103-b792-4830-9ce1-52d19f810b0b","ios":"levelo://app?vid=bf1b2103-b792-4830-9ce1-52d19f810b0b"},"vehicle_type_id":"4","last_reported":1727017673,"current_range_meters":9200,"station_id":"ce4bhph2rcd13ifvqheg","pricing_plan_id":"cebpf4jnsgd1na2vs0mg"},{"bike_id":"a952b2ff-d5f0-4ed7-820f-dd253eaea233","system_id":"levelo_inurba_marseille","lat":43.23189,"lon":5.39988,"is_reserved":false,"is_disabled":false,"rental_uris":{"android":"levelo://app?vid=a952b2ff-d5f0-4ed7-820f-dd253eaea233","ios":"levelo://app?vid=a952b2ff-d5f0-4ed7-820f-dd253eaea233"},"vehicle_type_id":"4","last_reported":1727017673,"current_range_meters":13600,"station_id":"ce4bhn12rcd13ifvqgqg","pricing_plan_id":"cebpf4jnsgd1na2vs0mg"},{"bike_id":"a78f62cd-230c-4feb-bd38-2d6734496e59","system_id":"levelo_inurba_marseille","lat":43.29845,"lon":5.36271,"is_reserved":false,"is_disabled":false,"rental_uris":{"android":"levelo://app?vid=a78f62cd-230c-4feb-bd38-2d6734496e59","ios":"levelo://app?vid=a78f62cd-230c-4feb-bd38-2d6734496e59"},"vehicle_type_id":"4","last_reported":1727017673,"current_range_meters":17600,"station_id":"ce4bgpp2rcd13ifvqc3g","pricing_plan_id":"cebpf4jnsgd1na2vs0mg"},{"bike_id":"08b1cc46-d4d8-4229-97f4-f397b605cbd2","system_id":"levelo_inurba_marseille","lat":43.28612,"lon":5.37058,"is_reserved":false,"is_disabled":false,"rental_uris":{"android":"levelo://app?vid=08b1cc46-d4d8-4229-97f4-f397b605cbd2","ios":"levelo://app?vid=08b1cc46-d4d8-4229-97f4-f397b605cbd2"},"vehicle_type_id":"4","last_reported":1727017673,"current_range_meters":4400,"station_id":"ce4bht12rcd13ifvqi60","pricing_plan_id":"cebpf4jnsgd1na2vs0mg"},{"bike_id":"13706a4f-1af3-42c4-a635-df6ffb6ffb2b","system_id":"levelo_inurba_marseille","lat":43.26195,"lon":5.37455,"is_reserved":false,"is_disabled":false,"rental_uris":{"android":"levelo://app?vid=13706a4f-1af3-42c4-a635-df6ffb6ffb2b","ios":"levelo://app?vid=13706a4f-1af3-42c4-a635-df6ffb6ffb2b"},"vehicle_type_id":"4","last_reported":1727017673,"current_range_meters":38800,"station_id":"ce4bhgp2rcd13ifvqfc0","pricing_plan_id":"cebpf4jnsgd1na2vs0mg"},{"bike_id":"55bebb5c-52e4-4d89-98be-f6a82338f516","system_id":"levelo_inurba_marseille","lat":43.28152,"lon":5.42642,"is_reserved":false,"is_disabled":false,"rental_uris":{"android":"levelo://app?vid=55bebb5c-52e4-4d89-98be-f6a82338f516","ios":"levelo://app?vid=55bebb5c-52e4-4d89-98be-f6a82338f516"},"vehicle_type_id":"4","last_reported":1727017673,"current_range_meters":19600,"station_id":"ce4bhnh2rcd13ifvqgug","pricing_plan_id":"cebpf4jnsgd1na2vs0mg"},{"bike_id":"d1851a9d-34a9-49ec-8ecd-75614db8dd33","system_id":"levelo_inurba_marseille","lat":43.29852,"lon":5.36286,"is_reserved":false,"is_disabled":false,"rental_uris":{"android":"levelo://app?vid=d1851a9d-34a9-49ec-8ecd-75614db8dd33","ios":"levelo://app?vid=d1851a9d-34a9-49ec-8ecd-75614db8dd33"},"vehicle_type_id":"4","last_reported":1727017673,"current_range_meters":30400,"station_id":"ce4bgpp2rcd13ifvqc3g","pricing_plan_id":"cebpf4jnsgd1na2vs0mg"},{"bike_id":"6e057da2-c61f-4bce-9b6e-4485081ad114","system_id":"levelo_inurba_marseille","lat":43.289295,"lon":5.396336,"is_reserved":false,"is_disabled":false,"rental_uris":{"android":"levelo://app?vid=6e057da2-c61f-4bce-9b6e-4485081ad114","ios":"levelo://app?vid=6e057da2-c61f-4bce-9b6e-4485081ad114"},"vehicle_type_id":"4","last_reported":1727017673,"current_range_meters":6800,"station_id":"ce4bh3h2rcd13ifvqdn0","pricing_plan_id":"cebpf4jnsgd1na2vs0mg"},{"bike_id":"5419b1bf-d37c-4076-a34c-52ede101758e","system_id":"levelo_inurba_marseille","lat":43.337444,"lon":5.374475,"is_reserved":false,"is_disabled":false,"rental_uris":{"android":"levelo://app?vid=5419b1bf-d37c-4076-a34c-52ede101758e","ios":"levelo://app?vid=5419b1bf-d37c-4076-a34c-52ede101758e"},"vehicle_type_id":"4","last_reported":1727017673,"current_range_meters":27600,"station_id":"","pricing_plan_id":"cebpf4jnsgd1na2vs0mg"},{"bike_id":"7d276048-2b0f-4f06-8837-f0c7350b22e6","system_id":"levelo_inurba_marseille","lat":43.26026,"lon":5.37547,"is_reserved":false,"is_disabled":false,"rental_uris":{"android":"levelo://app?vid=7d276048-2b0f-4f06-8837-f0c7350b22e6","ios":"levelo://app?vid=7d276048-2b0f-4f06-8837-f0c7350b22e6"},"vehicle_type_id":"4","last_reported":1727017673,"current_range_meters":17200,"station_id":"ce4bhgh2rcd13ifvqfa0","pricing_plan_id":"cebpf4jnsgd1na2vs0mg"},{"bike_id":"7d3b22a2-f025-4cca-b5cf-d0199375a14f","system_id":"levelo_inurba_marseille","lat":43.30594,"lon":5.39358,"is_reserved":false,"is_disabled":false,"rental_uris":{"android":"levelo://app?vid=7d3b22a2-f025-4cca-b5cf-d0199375a14f","ios":"levelo://app?vid=7d3b22a2-f025-4cca-b5cf-d0199375a14f"},"vehicle_type_id":"4","last_reported":1727017673,"current_range_meters":29600,"station_id":"ce4bh0p2rcd13ifvqd80","pricing_plan_id":"cebpf4jnsgd1na2vs0mg"},{"bike_id":"870a1f8b-9acd-4417-ad40-456726425e82","system_id":"levelo_inurba_marseille","lat":43.28148,"lon":5.42644,"is_reserved":false,"is_disabled":false,"rental_uris":{"android":"levelo://app?vid=870a1f8b-9acd-4417-ad40-456726425e82","ios":"levelo://app?vid=870a1f8b-9acd-4417-ad40-456726425e82"},"vehicle_type_id":"4","last_reported":1727017673,"current_range_meters":12400,"station_id":"ce4bhnh2rcd13ifvqgug","pricing_plan_id":"cebpf4jnsgd1na2vs0mg"},{"bike_id":"bc08d377-8934-49f9-a16b-d231e67a2261","system_id":"levelo_inurba_marseille","lat":43.2816,"lon":5.42642,"is_reserved":false,"is_disabled":false,"rental_uris":{"android":"levelo://app?vid=bc08d377-8934-49f9-a16b-d231e67a2261","ios":"levelo://app?vid=bc08d377-8934-49f9-a16b-d231e67a2261"},"vehicle_type_id":"4","last_reported":1727017673,"current_range_meters":10800,"station_id":"ce4bhnh2rcd13ifvqgug","pricing_plan_id":"cebpf4jnsgd1na2vs0mg"},{"bike_id":"4f801477-ea18-4ec4-9a8e-7cc278d6526b","system_id":"levelo_inurba_marseille","lat":43.29854,"lon":5.36283,"is_reserved":false,"is_disabled":false,"rental_uris":{"android":"levelo://app?vid=4f801477-ea18-4ec4-9a8e-7cc278d6526b","ios":"levelo://app?vid=4f801477-ea18-4ec4-9a8e-7cc278d6526b"},"vehicle_type_id":"4","last_reported":1727017673,"current_range_meters":38800,"station_id":"ce4bgpp2rcd13ifvqc3g","pricing_plan_id":"cebpf4jnsgd1na2vs0mg"},{"bike_id":"f72b4ee5-3b6a-4bba-8e4b-bc24bda6e341","system_id":"levelo_inurba_marseille","lat":43.28575,"lon":5.39492,"is_reserved":false,"is_disabled":false,"rental_uris":{"android":"levelo://app?vid=f72b4ee5-3b6a-4bba-8e4b-bc24bda6e341","ios":"levelo://app?vid=f72b4ee5-3b6a-4bba-8e4b-bc24bda6e341"},"vehicle_type_id":"4","last_reported":1727017673,"current_range_meters":28400,"station_id":"ce4bh292rcd13ifvqdg0","pricing_plan_id":"cebpf4jnsgd1na2vs0mg"},{"bike_id":"356bde28-cf21-4fb9-bf72-d49000ea5b09","system_id":"levelo_inurba_marseille","lat":43.31883,"lon":5.40733,"is_reserved":false,"is_disabled":false,"rental_uris":{"android":"levelo://app?vid=356bde28-cf21-4fb9-bf72-d49000ea5b09","ios":"levelo://app?vid=356bde28-cf21-4fb9-bf72-d49000ea5b09"},"vehicle_type_id":"4","last_reported":1727017673,"current_range_meters":25200,"station_id":"ce4bhq12rcd13ifvqhig","pricing_plan_id":"cebpf4jnsgd1na2vs0mg"},{"bike_id":"c689c7b1-0052-42a7-9fa5-7248830ecedc","system_id":"levelo_inurba_marseille","lat":43.28352,"lon":5.38088,"is_reserved":false,"is_disabled":false,"rental_uris":{"android":"levelo://app?vid=c689c7b1-0052-42a7-9fa5-7248830ecedc","ios":"levelo://app?vid=c689c7b1-0052-42a7-9fa5-7248830ecedc"},"vehicle_type_id":"4","last_reported":1727017673,"current_range_meters":18800,"station_id":"ce4bh412rcd13ifvqdr0","pricing_plan_id":"cebpf4jnsgd1na2vs0mg"},{"bike_id":"149779fc-bc45-458a-857f-33707eedaf6a","system_id":"levelo_inurba_marseille","lat":43.23197,"lon":5.35553,"is_reserved":false,"is_disabled":false,"rental_uris":{"android":"levelo://app?vid=149779fc-bc45-458a-857f-33707eedaf6a","ios":"levelo://app?vid=149779fc-bc45-458a-857f-33707eedaf6a"},"vehicle_type_id":"4","last_reported":1727017673,"current_range_meters":14800,"station_id":"ce4bhu92rcd13ifvqi70","pricing_plan_id":"cebpf4jnsgd1na2vs0mg"},{"bike_id":"c322ae46-ba5f-4483-a66e-2acc578ca897","system_id":"levelo_inurba_marseille","lat":43.29913,"lon":5.38142,"is_reserved":false,"is_disabled":false,"rental_uris":{"android":"levelo://app?vid=c322ae46-ba5f-4483-a66e-2acc578ca897","ios":"levelo://app?vid=c322ae46-ba5f-4483-a66e-2acc578ca897"},"vehicle_type_id":"4","last_reported":1727017673,"current_range_meters":38400,"station_id":"ce4bgj12rcd13ifvqbc0","pricing_plan_id":"cebpf4jnsgd1na2vs0mg"},{"bike_id":"a9baa544-21ec-4dab-8dcb-4836b1ce1aa9","system_id":"levelo_inurba_marseille","lat":43.29842,"lon":5.36264,"is_reserved":false,"is_disabled":false,"rental_uris":{"android":"levelo://app?vid=a9baa544-21ec-4dab-8dcb-4836b1ce1aa9","ios":"levelo://app?vid=a9baa544-21ec-4dab-8dcb-4836b1ce1aa9"},"vehicle_type_id":"4","last_reported":1727017673,"current_range_meters":31200,"station_id":"ce4bgpp2rcd13ifvqc3g","pricing_plan_id":"cebpf4jnsgd1na2vs0mg"},{"bike_id":"895a203b-c44e-45b5-8bb2-42a7c7839dd1","system_id":"levelo_inurba_marseille","lat":43.31171,"lon":5.38711,"is_reserved":false,"is_disabled":false,"rental_uris":{"android":"levelo://app?vid=895a203b-c44e-45b5-8bb2-42a7c7839dd1","ios":"levelo://app?vid=895a203b-c44e-45b5-8bb2-42a7c7839dd1"},"vehicle_type_id":"4","last_reported":1727017673,"current_range_meters":22800,"station_id":"ce4bgv12rcd13ifvqcp0","pricing_plan_id":"cebpf4jnsgd1na2vs0mg"},{"bike_id":"ff907aa8-3b80-46ad-ac32-01624db6b1c9","system_id":"levelo_inurba_marseille","lat":43.29248,"lon":5.40903,"is_reserved":false,"is_disabled":false,"rental_uris":{"android":"levelo://app?vid=ff907aa8-3b80-46ad-ac32-01624db6b1c9","ios":"levelo://app?vid=ff907aa8-3b80-46ad-ac32-01624db6b1c9"},"vehicle_type_id":"4","last_reported":1727017673,"current_range_meters":26800,"station_id":"ce4bh192rcd13ifvqdc0","pricing_plan_id":"cebpf4jnsgd1na2vs0mg"},{"bike_id":"9844bee0-f2e0-4d58-ab59-bda71b14e917","system_id":"levelo_inurba_marseille","lat":43.280324,"lon":5.37838,"is_reserved":false,"is_disabled":false,"rental_uris":{"android":"levelo://app?vid=9844bee0-f2e0-4d58-ab59-bda71b14e917","ios":"levelo://app?vid=9844bee0-f2e0-4d58-ab59-bda71b14e917"},"vehicle_type_id":"4","last_reported":1727017673,"current_range_meters":25200,"station_id":"ce4bha12rcd13ifvqee0","pricing_plan_id":"cebpf4jnsgd1na2vs0mg"},{"bike_id":"9bcf95c0-668c-44cd-97c5-3a9ba240909b","system_id":"levelo_inurba_marseille","lat":43.26939,"lon":5.40239,"is_reserved":false,"is_disabled":false,"rental_uris":{"android":"levelo://app?vid=9bcf95c0-668c-44cd-97c5-3a9ba240909b","ios":"levelo://app?vid=9bcf95c0-668c-44cd-97c5-3a9ba240909b"},"vehicle_type_id":"4","last_reported":1727017673,"current_range_meters":26800,"station_id":"cjm6bp8fraef2m0cb0m0","pricing_plan_id":"cebpf4jnsgd1na2vs0mg"},{"bike_id":"63a92d4e-90d8-42cd-b2a1-bc01668cfc29","system_id":"levelo_inurba_marseille","lat":43.26565,"lon":5.39008,"is_reserved":false,"is_disabled":false,"rental_uris":{"android":"levelo://app?vid=63a92d4e-90d8-42cd-b2a1-bc01668cfc29","ios":"levelo://app?vid=63a92d4e-90d8-42cd-b2a1-bc01668cfc29"},"vehicle_type_id":"4","last_reported":1727017673,"current_range_meters":28800,"station_id":"ce4bhe12rcd13ifvqf30","pricing_plan_id":"cebpf4jnsgd1na2vs0mg"},{"bike_id":"d4cd02a2-8196-45a0-ade7-083f2b1cddee","system_id":"levelo_inurba_marseille","lat":43.24184,"lon":5.39723,"is_reserved":false,"is_disabled":false,"rental_uris":{"android":"levelo://app?vid=d4cd02a2-8196-45a0-ade7-083f2b1cddee","ios":"levelo://app?vid=d4cd02a2-8196-45a0-ade7-083f2b1cddee"},"vehicle_type_id":"4","last_reported":1727017673,"current_range_meters":38400,"station_id":"ce4bhn12rcd13ifvqgpg","pricing_plan_id":"cebpf4jnsgd1na2vs0mg"},{"bike_id":"a8d42cf3-65fd-4e73-93d7-47142c435399","system_id":"levelo_inurba_marseille","lat":43.34398,"lon":5.40851,"is_reserved":false,"is_disabled":false,"rental_uris":{"android":"levelo://app?vid=a8d42cf3-65fd-4e73-93d7-47142c435399","ios":"levelo://app?vid=a8d42cf3-65fd-4e73-93d7-47142c435399"},"vehicle_type_id":"4","last_reported":1727017673,"current_range_meters":20800,"station_id":"","pricing_plan_id":"cebpf4jnsgd1na2vs0mg"},{"bike_id":"905663b9-104c-4bcf-b8dc-ec7c8a418584","system_id":"levelo_inurba_marseille","lat":43.28678,"lon":5.38651,"is_reserved":false,"is_disabled":false,"rental_uris":{"android":"levelo://app?vid=905663b9-104c-4bcf-b8dc-ec7c8a418584","ios":"levelo://app?vid=905663b9-104c-4bcf-b8dc-ec7c8a418584"},"vehicle_type_id":"4","last_reported":1727017673,"current_range_meters":2000,"station_id":"ce4bh492rcd13ifvqdug","pricing_plan_id":"cebpf4jnsgd1na2vs0mg"},{"bike_id":"1a7b2606-2b62-43b4-ba2b-7f7aa04f3370","system_id":"levelo_inurba_marseille","lat":43.28691,"lon":5.39986,"is_reserved":false,"is_disabled":false,"rental_uris":{"android":"levelo://app?vid=1a7b2606-2b62-43b4-ba2b-7f7aa04f3370","ios":"levelo://app?vid=1a7b2606-2b62-43b4-ba2b-7f7aa04f3370"},"vehicle_type_id":"4","last_reported":1727017673,"current_range_meters":30000,"station_id":"ce4bho92rcd13ifvqh3g","pricing_plan_id":"cebpf4jnsgd1na2vs0mg"},{"bike_id":"b3c7e835-df7a-4546-a2ee-e364ba535103","system_id":"levelo_inurba_marseille","lat":43.2549,"lon":5.37646,"is_reserved":false,"is_disabled":false,"rental_uris":{"android":"levelo://app?vid=b3c7e835-df7a-4546-a2ee-e364ba535103","ios":"levelo://app?vid=b3c7e835-df7a-4546-a2ee-e364ba535103"},"vehicle_type_id":"4","last_reported":1727017673,"current_range_meters":34800,"station_id":"ce4bhh12rcd13ifvqff0","pricing_plan_id":"cebpf4jnsgd1na2vs0mg"},{"bike_id":"d096b24f-a304-4847-bc10-80478fc5996a","system_id":"levelo_inurba_marseille","lat":43.2649,"lon":5.3955,"is_reserved":false,"is_disabled":false,"rental_uris":{"android":"levelo://app?vid=d096b24f-a304-4847-bc10-80478fc5996a","ios":"levelo://app?vid=d096b24f-a304-4847-bc10-80478fc5996a"},"vehicle_type_id":"4","last_reported":1727017673,"current_range_meters":37600,"station_id":"ce4bhi12rcd13ifvqfq0","pricing_plan_id":"cebpf4jnsgd1na2vs0mg"},{"bike_id":"aa614675-7de7-4c29-b3e6-792416858308","system_id":"levelo_inurba_marseille","lat":43.29623,"lon":5.3717,"is_reserved":false,"is_disabled":false,"rental_uris":{"android":"levelo://app?vid=aa614675-7de7-4c29-b3e6-792416858308","ios":"levelo://app?vid=aa614675-7de7-4c29-b3e6-792416858308"},"vehicle_type_id":"4","last_reported":1727017673,"current_range_meters":2800,"station_id":"ce4bgnh2rcd13ifvqc0g","pricing_plan_id":"cebpf4jnsgd1na2vs0mg"},{"bike_id":"6800a59b-a28f-4178-a0ba-7a1d9885f3fb","system_id":"levelo_inurba_marseille","lat":43.29842,"lon":5.36274,"is_reserved":false,"is_disabled":false,"rental_uris":{"android":"levelo://app?vid=6800a59b-a28f-4178-a0ba-7a1d9885f3fb","ios":"levelo://app?vid=6800a59b-a28f-4178-a0ba-7a1d9885f3fb"},"vehicle_type_id":"4","last_reported":1727017673,"current_range_meters":38800,"station_id":"ce4bgpp2rcd13ifvqc3g","pricing_plan_id":"cebpf4jnsgd1na2vs0mg"},{"bike_id":"a7a2630d-54d4-495a-8506-d0472b9b9a1a","system_id":"levelo_inurba_marseille","lat":43.2955,"lon":5.42308,"is_reserved":false,"is_disabled":false,"rental_uris":{"android":"levelo://app?vid=a7a2630d-54d4-495a-8506-d0472b9b9a1a","ios":"levelo://app?vid=a7a2630d-54d4-495a-8506-d0472b9b9a1a"},"vehicle_type_id":"4","last_reported":1727017673,"current_range_meters":38800,"station_id":"ce4bhph2rcd13ifvqhdg","pricing_plan_id":"cebpf4jnsgd1na2vs0mg"},{"bike_id":"155546d3-d8c4-439e-9145-f9b885c4965d","system_id":"levelo_inurba_marseille","lat":43.27571,"lon":5.3841,"is_reserved":false,"is_disabled":false,"rental_uris":{"android":"levelo://app?vid=155546d3-d8c4-439e-9145-f9b885c4965d","ios":"levelo://app?vid=155546d3-d8c4-439e-9145-f9b885c4965d"},"vehicle_type_id":"4","last_reported":1727017673,"current_range_meters":10000,"station_id":"ce4bhh92rcd13ifvqfi0","pricing_plan_id":"cebpf4jnsgd1na2vs0mg"},{"bike_id":"740956b4-1692-4bc2-aecd-68cbb22ee190","system_id":"levelo_inurba_marseille","lat":43.273696,"lon":5.362532,"is_reserved":false,"is_disabled":false,"rental_uris":{"android":"levelo://app?vid=740956b4-1692-4bc2-aecd-68cbb22ee190","ios":"levelo://app?vid=740956b4-1692-4bc2-aecd-68cbb22ee190"},"vehicle_type_id":"4","last_reported":1727017673,"current_range_meters":40000,"station_id":"ce4bhbh2rcd13ifvqeo0","pricing_plan_id":"cebpf4jnsgd1na2vs0mg"},{"bike_id":"bc58c05d-a214-4f17-94aa-ada27fe9de00","system_id":"levelo_inurba_marseille","lat":43.25581,"lon":5.38221,"is_reserved":false,"is_disabled":false,"rental_uris":{"android":"levelo://app?vid=bc58c05d-a214-4f17-94aa-ada27fe9de00","ios":"levelo://app?vid=bc58c05d-a214-4f17-94aa-ada27fe9de00"},"vehicle_type_id":"4","last_reported":1727017673,"current_range_meters":12400,"station_id":"ce4bhih2rcd13ifvqfs0","pricing_plan_id":"cebpf4jnsgd1na2vs0mg"},{"bike_id":"aaee234b-b343-4eb3-a96b-f2326982c939","system_id":"levelo_inurba_marseille","lat":43.323386,"lon":5.406254,"is_reserved":false,"is_disabled":false,"rental_uris":{"android":"levelo://app?vid=aaee234b-b343-4eb3-a96b-f2326982c939","ios":"levelo://app?vid=aaee234b-b343-4eb3-a96b-f2326982c939"},"vehicle_type_id":"4","last_reported":1727017673,"current_range_meters":27200,"station_id":"ce4bhq92rcd13ifvqhjg","pricing_plan_id":"cebpf4jnsgd1na2vs0mg"},{"bike_id":"71aa8592-ddf7-4343-aed4-c00d3433340f","system_id":"levelo_inurba_marseille","lat":43.337444,"lon":5.374475,"is_reserved":false,"is_disabled":false,"rental_uris":{"android":"levelo://app?vid=71aa8592-ddf7-4343-aed4-c00d3433340f","ios":"levelo://app?vid=71aa8592-ddf7-4343-aed4-c00d3433340f"},"vehicle_type_id":"4","last_reported":1727017673,"current_range_meters":30800,"station_id":"","pricing_plan_id":"cebpf4jnsgd1na2vs0mg"},{"bike_id":"3740c6df-06cd-419b-9ae6-b8d9e5eff548","system_id":"levelo_inurba_marseille","lat":43.2753,"lon":5.40935,"is_reserved":false,"is_disabled":false,"rental_uris":{"android":"levelo://app?vid=3740c6df-06cd-419b-9ae6-b8d9e5eff548","ios":"levelo://app?vid=3740c6df-06cd-419b-9ae6-b8d9e5eff548"},"vehicle_type_id":"4","last_reported":1727017673,"current_range_meters":12800,"station_id":"","pricing_plan_id":"cebpf4jnsgd1na2vs0mg"},{"bike_id":"62e82ba1-7c9c-4aa5-937a-8a274f4471d2","system_id":"levelo_inurba_marseille","lat":43.29265,"lon":5.38444,"is_reserved":false,"is_disabled":false,"rental_uris":{"android":"levelo://app?vid=62e82ba1-7c9c-4aa5-937a-8a274f4471d2","ios":"levelo://app?vid=62e82ba1-7c9c-4aa5-937a-8a274f4471d2"},"vehicle_type_id":"4","last_reported":1727017673,"current_range_meters":8800,"station_id":"ce4bh692rcd13ifvqea0","pricing_plan_id":"cebpf4jnsgd1na2vs0mg"},{"bike_id":"ff0a514a-b881-4116-8275-60659a10d97a","system_id":"levelo_inurba_marseille","lat":43.295807,"lon":5.378665,"is_reserved":false,"is_disabled":false,"rental_uris":{"android":"levelo://app?vid=ff0a514a-b881-4116-8275-60659a10d97a","ios":"levelo://app?vid=ff0a514a-b881-4116-8275-60659a10d97a"},"vehicle_type_id":"4","last_reported":1727017673,"current_range_meters":18000,"station_id":"ce4bgpp2rcd13ifvqc3g","pricing_plan_id":"cebpf4jnsgd1na2vs0mg"},{"bike_id":"587b7091-1fcd-4c6f-a820-801ebabc18cc","system_id":"levelo_inurba_marseille","lat":43.29838,"lon":5.36262,"is_reserved":false,"is_disabled":false,"rental_uris":{"android":"levelo://app?vid=587b7091-1fcd-4c6f-a820-801ebabc18cc","ios":"levelo://app?vid=587b7091-1fcd-4c6f-a820-801ebabc18cc"},"vehicle_type_id":"4","last_reported":1727017673,"current_range_meters":30400,"station_id":"ce4bgpp2rcd13ifvqc3g","pricing_plan_id":"cebpf4jnsgd1na2vs0mg"},{"bike_id":"df1ca689-a44b-4d7b-ae50-90ade339c4cf","system_id":"levelo_inurba_marseille","lat":43.29253,"lon":5.40906,"is_reserved":false,"is_disabled":false,"rental_uris":{"android":"levelo://app?vid=df1ca689-a44b-4d7b-ae50-90ade339c4cf","ios":"levelo://app?vid=df1ca689-a44b-4d7b-ae50-90ade339c4cf"},"vehicle_type_id":"4","last_reported":1727017673,"current_range_meters":5600,"station_id":"ce4bh192rcd13ifvqdc0","pricing_plan_id":"cebpf4jnsgd1na2vs0mg"},{"bike_id":"3fa0eb21-e166-4826-a8ea-95eed3baf966","system_id":"levelo_inurba_marseille","lat":43.31278,"lon":5.40166,"is_reserved":false,"is_disabled":false,"rental_uris":{"android":"levelo://app?vid=3fa0eb21-e166-4826-a8ea-95eed3baf966","ios":"levelo://app?vid=3fa0eb21-e166-4826-a8ea-95eed3baf966"},"vehicle_type_id":"4","last_reported":1727017673,"current_range_meters":38800,"station_id":"ce4bh092rcd13ifvqd30","pricing_plan_id":"cebpf4jnsgd1na2vs0mg"},{"bike_id":"0a533487-a6ec-4633-9f1c-0ce6ae6783a7","system_id":"levelo_inurba_marseille","lat":43.25008,"lon":5.38917,"is_reserved":false,"is_disabled":false,"rental_uris":{"android":"levelo://app?vid=0a533487-a6ec-4633-9f1c-0ce6ae6783a7","ios":"levelo://app?vid=0a533487-a6ec-4633-9f1c-0ce6ae6783a7"},"vehicle_type_id":"4","last_reported":1727017673,"current_range_meters":38000,"station_id":"ce4bhgp2rcd13ifvqfd0","pricing_plan_id":"cebpf4jnsgd1na2vs0mg"},{"bike_id":"ffb9e057-14d0-4bbd-8809-a5bce1c4ef49","system_id":"levelo_inurba_marseille","lat":43.286113,"lon":5.384532,"is_reserved":false,"is_disabled":false,"rental_uris":{"android":"levelo://app?vid=ffb9e057-14d0-4bbd-8809-a5bce1c4ef49","ios":"levelo://app?vid=ffb9e057-14d0-4bbd-8809-a5bce1c4ef49"},"vehicle_type_id":"4","last_reported":1727017673,"current_range_meters":20400,"station_id":"ce4bho92rcd13ifvqh3g","pricing_plan_id":"cebpf4jnsgd1na2vs0mg"},{"bike_id":"34bac9de-afcc-485f-a901-124a385dd441","system_id":"levelo_inurba_marseille","lat":43.24538,"lon":5.39515,"is_reserved":false,"is_disabled":false,"rental_uris":{"android":"levelo://app?vid=34bac9de-afcc-485f-a901-124a385dd441","ios":"levelo://app?vid=34bac9de-afcc-485f-a901-124a385dd441"},"vehicle_type_id":"4","last_reported":1727017673,"current_range_meters":38000,"station_id":"ce4bhlp2rcd13ifvqgjg","pricing_plan_id":"cebpf4jnsgd1na2vs0mg"},{"bike_id":"b5c72a96-618d-4262-af10-fb9e962868dd","system_id":"levelo_inurba_marseille","lat":43.284088,"lon":5.349666,"is_reserved":false,"is_disabled":false,"rental_uris":{"android":"levelo://app?vid=b5c72a96-618d-4262-af10-fb9e962868dd","ios":"levelo://app?vid=b5c72a96-618d-4262-af10-fb9e962868dd"},"vehicle_type_id":"4","last_reported":1727017673,"current_range_meters":33600,"station_id":"ce4bhbh2rcd13ifvqepg","pricing_plan_id":"cebpf4jnsgd1na2vs0mg"},{"bike_id":"1575e777-51f8-479e-bd95-714cef91a125","system_id":"levelo_inurba_marseille","lat":43.2418,"lon":5.39721,"is_reserved":false,"is_disabled":false,"rental_uris":{"android":"levelo://app?vid=1575e777-51f8-479e-bd95-714cef91a125","ios":"levelo://app?vid=1575e777-51f8-479e-bd95-714cef91a125"},"vehicle_type_id":"4","last_reported":1727017673,"current_range_meters":27200,"station_id":"ce4bhn12rcd13ifvqgpg","pricing_plan_id":"cebpf4jnsgd1na2vs0mg"},{"bike_id":"499f0186-49a9-4e89-9bdb-4e4250b9ca38","system_id":"levelo_inurba_marseille","lat":43.2984,"lon":5.36263,"is_reserved":false,"is_disabled":false,"rental_uris":{"android":"levelo://app?vid=499f0186-49a9-4e89-9bdb-4e4250b9ca38","ios":"levelo://app?vid=499f0186-49a9-4e89-9bdb-4e4250b9ca38"},"vehicle_type_id":"4","last_reported":1727017673,"current_range_meters":20000,"station_id":"ce4bgpp2rcd13ifvqc3g","pricing_plan_id":"cebpf4jnsgd1na2vs0mg"},{"bike_id":"fff5223e-4155-493e-8ca0-8ce52b4af246","system_id":"levelo_inurba_marseille","lat":43.23195,"lon":5.35552,"is_reserved":false,"is_disabled":false,"rental_uris":{"android":"levelo://app?vid=fff5223e-4155-493e-8ca0-8ce52b4af246","ios":"levelo://app?vid=fff5223e-4155-493e-8ca0-8ce52b4af246"},"vehicle_type_id":"4","last_reported":1727017673,"current_range_meters":27600,"station_id":"ce4bhu92rcd13ifvqi70","pricing_plan_id":"cebpf4jnsgd1na2vs0mg"},{"bike_id":"a5cf80ae-fd11-448d-88f0-2ca0c34a1064","system_id":"levelo_inurba_marseille","lat":43.30088,"lon":5.39073,"is_reserved":false,"is_disabled":false,"rental_uris":{"android":"levelo://app?vid=a5cf80ae-fd11-448d-88f0-2ca0c34a1064","ios":"levelo://app?vid=a5cf80ae-fd11-448d-88f0-2ca0c34a1064"},"vehicle_type_id":"4","last_reported":1727017673,"current_range_meters":35600,"station_id":"ce4bh192rcd13ifvqdb0","pricing_plan_id":"cebpf4jnsgd1na2vs0mg"},{"bike_id":"4c2224fa-42be-4586-a79b-030cf04169b8","system_id":"levelo_inurba_marseille","lat":43.26786,"lon":5.39406,"is_reserved":false,"is_disabled":false,"rental_uris":{"android":"levelo://app?vid=4c2224fa-42be-4586-a79b-030cf04169b8","ios":"levelo://app?vid=4c2224fa-42be-4586-a79b-030cf04169b8"},"vehicle_type_id":"4","last_reported":1727017673,"current_range_meters":36000,"station_id":"ce4bhh12rcd13ifvqfg0","pricing_plan_id":"cebpf4jnsgd1na2vs0mg"},{"bike_id":"e84012a2-9da3-416c-b94b-5f87f92077c2","system_id":"levelo_inurba_marseille","lat":43.312744,"lon":5.401767,"is_reserved":false,"is_disabled":false,"rental_uris":{"android":"levelo://app?vid=e84012a2-9da3-416c-b94b-5f87f92077c2","ios":"levelo://app?vid=e84012a2-9da3-416c-b94b-5f87f92077c2"},"vehicle_type_id":"4","last_reported":1727017673,"current_range_meters":11200,"station_id":"ce4bh092rcd13ifvqd30","pricing_plan_id":"cebpf4jnsgd1na2vs0mg"},{"bike_id":"7a46aff6-caf5-420f-b679-274913c535bc","system_id":"levelo_inurba_marseille","lat":43.24651,"lon":5.3889,"is_reserved":false,"is_disabled":false,"rental_uris":{"android":"levelo://app?vid=7a46aff6-caf5-420f-b679-274913c535bc","ios":"levelo://app?vid=7a46aff6-caf5-420f-b679-274913c535bc"},"vehicle_type_id":"4","last_reported":1727017673,"current_range_meters":17200,"station_id":"ce4bhg12rcd13ifvqf60","pricing_plan_id":"cebpf4jnsgd1na2vs0mg"},{"bike_id":"f0da683f-5033-49bb-9f74-499df8b3dac8","system_id":"levelo_inurba_marseille","lat":43.29203,"lon":5.39323,"is_reserved":false,"is_disabled":false,"rental_uris":{"android":"levelo://app?vid=f0da683f-5033-49bb-9f74-499df8b3dac8","ios":"levelo://app?vid=f0da683f-5033-49bb-9f74-499df8b3dac8"},"vehicle_type_id":"4","last_reported":1727017673,"current_range_meters":29600,"station_id":"ce4bh192rcd13ifvqdd0","pricing_plan_id":"cebpf4jnsgd1na2vs0mg"},{"bike_id":"feb42740-c719-4916-9efa-d99f861e0e6d","system_id":"levelo_inurba_marseille","lat":43.32481,"lon":5.36578,"is_reserved":false,"is_disabled":false,"rental_uris":{"android":"levelo://app?vid=feb42740-c719-4916-9efa-d99f861e0e6d","ios":"levelo://app?vid=feb42740-c719-4916-9efa-d99f861e0e6d"},"vehicle_type_id":"4","last_reported":1727017673,"current_range_meters":36000,"station_id":"ce4bhs12rcd13ifvqhvg","pricing_plan_id":"cebpf4jnsgd1na2vs0mg"},{"bike_id":"e2a5f9c2-fce7-4cff-884b-81c79afb2254","system_id":"levelo_inurba_marseille","lat":43.3021,"lon":5.39481,"is_reserved":false,"is_disabled":false,"rental_uris":{"android":"levelo://app?vid=e2a5f9c2-fce7-4cff-884b-81c79afb2254","ios":"levelo://app?vid=e2a5f9c2-fce7-4cff-884b-81c79afb2254"},"vehicle_type_id":"4","last_reported":1727017673,"current_range_meters":27200,"station_id":"ce4bh0p2rcd13ifvqd70","pricing_plan_id":"cebpf4jnsgd1na2vs0mg"},{"bike_id":"938e3973-5392-4a38-9312-79510f3b96c4","system_id":"levelo_inurba_marseille","lat":43.28941,"lon":5.39631,"is_reserved":false,"is_disabled":false,"rental_uris":{"android":"levelo://app?vid=938e3973-5392-4a38-9312-79510f3b96c4","ios":"levelo://app?vid=938e3973-5392-4a38-9312-79510f3b96c4"},"vehicle_type_id":"4","last_reported":1727017673,"current_range_meters":28400,"station_id":"ce4bh3h2rcd13ifvqdn0","pricing_plan_id":"cebpf4jnsgd1na2vs0mg"},{"bike_id":"fe1fe812-856d-4960-9bb0-68f67d84a67f","system_id":"levelo_inurba_marseille","lat":43.24085,"lon":5.37747,"is_reserved":false,"is_disabled":false,"rental_uris":{"android":"levelo://app?vid=fe1fe812-856d-4960-9bb0-68f67d84a67f","ios":"levelo://app?vid=fe1fe812-856d-4960-9bb0-68f67d84a67f"},"vehicle_type_id":"4","last_reported":1727017673,"current_range_meters":28800,"station_id":"ce4bhnp2rcd13ifvqgvg","pricing_plan_id":"cebpf4jnsgd1na2vs0mg"},{"bike_id":"4bf182d2-be2a-4b6c-92b4-aa2419d96e6a","system_id":"levelo_inurba_marseille","lat":43.29256,"lon":5.40908,"is_reserved":false,"is_disabled":false,"rental_uris":{"android":"levelo://app?vid=4bf182d2-be2a-4b6c-92b4-aa2419d96e6a","ios":"levelo://app?vid=4bf182d2-be2a-4b6c-92b4-aa2419d96e6a"},"vehicle_type_id":"4","last_reported":1727017673,"current_range_meters":8400,"station_id":"ce4bh192rcd13ifvqdc0","pricing_plan_id":"cebpf4jnsgd1na2vs0mg"},{"bike_id":"d83101f7-40f7-4b25-a9c7-aa7caf8f5da5","system_id":"levelo_inurba_marseille","lat":43.27378,"lon":5.36246,"is_reserved":false,"is_disabled":false,"rental_uris":{"android":"levelo://app?vid=d83101f7-40f7-4b25-a9c7-aa7caf8f5da5","ios":"levelo://app?vid=d83101f7-40f7-4b25-a9c7-aa7caf8f5da5"},"vehicle_type_id":"4","last_reported":1727017673,"current_range_meters":23200,"station_id":"ce4bhbh2rcd13ifvqeo0","pricing_plan_id":"cebpf4jnsgd1na2vs0mg"},{"bike_id":"fce734b4-6c36-4cb6-983c-c95238702258","system_id":"levelo_inurba_marseille","lat":43.31074,"lon":5.38112,"is_reserved":false,"is_disabled":false,"rental_uris":{"android":"levelo://app?vid=fce734b4-6c36-4cb6-983c-c95238702258","ios":"levelo://app?vid=fce734b4-6c36-4cb6-983c-c95238702258"},"vehicle_type_id":"4","last_reported":1727017673,"current_range_meters":12000,"station_id":"","pricing_plan_id":"cebpf4jnsgd1na2vs0mg"},{"bike_id":"d1657062-07f5-45f5-8049-248754237197","system_id":"levelo_inurba_marseille","lat":43.29894,"lon":5.43666,"is_reserved":false,"is_disabled":false,"rental_uris":{"android":"levelo://app?vid=d1657062-07f5-45f5-8049-248754237197","ios":"levelo://app?vid=d1657062-07f5-45f5-8049-248754237197"},"vehicle_type_id":"4","last_reported":1727017673,"current_range_meters":16000,"station_id":"ce4bhpp2rcd13ifvqhfg","pricing_plan_id":"cebpf4jnsgd1na2vs0mg"},{"bike_id":"2c51a36c-2681-43ce-b848-e4bbeb69ffbe","system_id":"levelo_inurba_marseille","lat":43.29849,"lon":5.36286,"is_reserved":false,"is_disabled":false,"rental_uris":{"android":"levelo://app?vid=2c51a36c-2681-43ce-b848-e4bbeb69ffbe","ios":"levelo://app?vid=2c51a36c-2681-43ce-b848-e4bbeb69ffbe"},"vehicle_type_id":"4","last_reported":1727017673,"current_range_meters":6400,"station_id":"ce4bgpp2rcd13ifvqc3g","pricing_plan_id":"cebpf4jnsgd1na2vs0mg"},{"bike_id":"b57c6606-a307-4359-88d5-adc3b4cc6f8e","system_id":"levelo_inurba_marseille","lat":43.28849,"lon":5.39318,"is_reserved":false,"is_disabled":false,"rental_uris":{"android":"levelo://app?vid=b57c6606-a307-4359-88d5-adc3b4cc6f8e","ios":"levelo://app?vid=b57c6606-a307-4359-88d5-adc3b4cc6f8e"},"vehicle_type_id":"4","last_reported":1727017673,"current_range_meters":9600,"station_id":"ce4bh2p2rcd13ifvqdi0","pricing_plan_id":"cebpf4jnsgd1na2vs0mg"},{"bike_id":"98ff6644-a370-4a2c-919e-ac01acfdf93a","system_id":"levelo_inurba_marseille","lat":43.29253,"lon":5.40914,"is_reserved":false,"is_disabled":false,"rental_uris":{"android":"levelo://app?vid=98ff6644-a370-4a2c-919e-ac01acfdf93a","ios":"levelo://app?vid=98ff6644-a370-4a2c-919e-ac01acfdf93a"},"vehicle_type_id":"4","last_reported":1727017673,"current_range_meters":25600,"station_id":"ce4bh192rcd13ifvqdc0","pricing_plan_id":"cebpf4jnsgd1na2vs0mg"},{"bike_id":"09dd01c1-5536-4324-befd-14615a98ffa1","system_id":"levelo_inurba_marseille","lat":43.30547,"lon":5.36527,"is_reserved":false,"is_disabled":false,"rental_uris":{"android":"levelo://app?vid=09dd01c1-5536-4324-befd-14615a98ffa1","ios":"levelo://app?vid=09dd01c1-5536-4324-befd-14615a98ffa1"},"vehicle_type_id":"4","last_reported":1727017673,"current_range_meters":38400,"station_id":"ce4bgs12rcd13ifvqcag","pricing_plan_id":"cebpf4jnsgd1na2vs0mg"},{"bike_id":"3e579fb9-e498-4174-b502-b6f4b258c487","system_id":"levelo_inurba_marseille","lat":43.29194,"lon":5.35791,"is_reserved":false,"is_disabled":false,"rental_uris":{"android":"levelo://app?vid=3e579fb9-e498-4174-b502-b6f4b258c487","ios":"levelo://app?vid=3e579fb9-e498-4174-b502-b6f4b258c487"},"vehicle_type_id":"4","last_reported":1727017673,"current_range_meters":38800,"station_id":"ce4bhb12rcd13ifvqel0","pricing_plan_id":"cebpf4jnsgd1na2vs0mg"},{"bike_id":"4476b9c4-f13e-4310-af55-0eed7165f87b","system_id":"levelo_inurba_marseille","lat":43.27073,"lon":5.42275,"is_reserved":false,"is_disabled":false,"rental_uris":{"android":"levelo://app?vid=4476b9c4-f13e-4310-af55-0eed7165f87b","ios":"levelo://app?vid=4476b9c4-f13e-4310-af55-0eed7165f87b"},"vehicle_type_id":"4","last_reported":1727017673,"current_range_meters":28800,"station_id":"ce4bhk92rcd13ifvqgb0","pricing_plan_id":"cebpf4jnsgd1na2vs0mg"},{"bike_id":"a865ebfe-83bc-4c44-bef5-62b9a703b70f","system_id":"levelo_inurba_marseille","lat":43.27496,"lon":5.42457,"is_reserved":false,"is_disabled":false,"rental_uris":{"android":"levelo://app?vid=a865ebfe-83bc-4c44-bef5-62b9a703b70f","ios":"levelo://app?vid=a865ebfe-83bc-4c44-bef5-62b9a703b70f"},"vehicle_type_id":"4","last_reported":1727017673,"current_range_meters":38800,"station_id":"ce4bhn92rcd13ifvqgrg","pricing_plan_id":"cebpf4jnsgd1na2vs0mg"},{"bike_id":"4adc1a0a-7d80-433a-b790-6600a2647090","system_id":"levelo_inurba_marseille","lat":43.274708,"lon":5.394576,"is_reserved":false,"is_disabled":false,"rental_uris":{"android":"levelo://app?vid=4adc1a0a-7d80-433a-b790-6600a2647090","ios":"levelo://app?vid=4adc1a0a-7d80-433a-b790-6600a2647090"},"vehicle_type_id":"4","last_reported":1727017673,"current_range_meters":3200,"station_id":"ce4bhdp2rcd13ifvqf20","pricing_plan_id":"cebpf4jnsgd1na2vs0mg"},{"bike_id":"393b53c8-9401-4f95-856b-14c7adf13721","system_id":"levelo_inurba_marseille","lat":43.28613,"lon":5.37048,"is_reserved":false,"is_disabled":false,"rental_uris":{"android":"levelo://app?vid=393b53c8-9401-4f95-856b-14c7adf13721","ios":"levelo://app?vid=393b53c8-9401-4f95-856b-14c7adf13721"},"vehicle_type_id":"4","last_reported":1727017673,"current_range_meters":10000,"station_id":"ce4bht12rcd13ifvqi60","pricing_plan_id":"cebpf4jnsgd1na2vs0mg"},{"bike_id":"87c30491-facc-4e8d-8692-9ace8439e002","system_id":"levelo_inurba_marseille","lat":43.29267,"lon":5.38439,"is_reserved":false,"is_disabled":false,"rental_uris":{"android":"levelo://app?vid=87c30491-facc-4e8d-8692-9ace8439e002","ios":"levelo://app?vid=87c30491-facc-4e8d-8692-9ace8439e002"},"vehicle_type_id":"4","last_reported":1727017673,"current_range_meters":35600,"station_id":"ce4bh692rcd13ifvqea0","pricing_plan_id":"cebpf4jnsgd1na2vs0mg"},{"bike_id":"f5dd0d5c-d1f3-4a28-8c61-6b1be2cabb7c","system_id":"levelo_inurba_marseille","lat":43.29258,"lon":5.40906,"is_reserved":false,"is_disabled":false,"rental_uris":{"android":"levelo://app?vid=f5dd0d5c-d1f3-4a28-8c61-6b1be2cabb7c","ios":"levelo://app?vid=f5dd0d5c-d1f3-4a28-8c61-6b1be2cabb7c"},"vehicle_type_id":"4","last_reported":1727017673,"current_range_meters":17200,"station_id":"ce4bh192rcd13ifvqdc0","pricing_plan_id":"cebpf4jnsgd1na2vs0mg"},{"bike_id":"b2ef5cac-291b-4c46-9e08-0351e471c896","system_id":"levelo_inurba_marseille","lat":43.30777,"lon":5.400768,"is_reserved":false,"is_disabled":false,"rental_uris":{"android":"levelo://app?vid=b2ef5cac-291b-4c46-9e08-0351e471c896","ios":"levelo://app?vid=b2ef5cac-291b-4c46-9e08-0351e471c896"},"vehicle_type_id":"4","last_reported":1727017673,"current_range_meters":8400,"station_id":"ce4bgvp2rcd13ifvqct0","pricing_plan_id":"cebpf4jnsgd1na2vs0mg"},{"bike_id":"fa690805-233a-4a70-a9f3-33f1b67cdb1f","system_id":"levelo_inurba_marseille","lat":43.32286,"lon":5.38244,"is_reserved":false,"is_disabled":false,"rental_uris":{"android":"levelo://app?vid=fa690805-233a-4a70-a9f3-33f1b67cdb1f","ios":"levelo://app?vid=fa690805-233a-4a70-a9f3-33f1b67cdb1f"},"vehicle_type_id":"4","last_reported":1727017673,"current_range_meters":7200,"station_id":"ce4bhr12rcd13ifvqhqg","pricing_plan_id":"cebpf4jnsgd1na2vs0mg"},{"bike_id":"57b9489f-926f-401e-beb7-ad1ce87e1c2c","system_id":"levelo_inurba_marseille","lat":43.28155,"lon":5.42643,"is_reserved":false,"is_disabled":false,"rental_uris":{"android":"levelo://app?vid=57b9489f-926f-401e-beb7-ad1ce87e1c2c","ios":"levelo://app?vid=57b9489f-926f-401e-beb7-ad1ce87e1c2c"},"vehicle_type_id":"4","last_reported":1727017673,"current_range_meters":27600,"station_id":"ce4bhnh2rcd13ifvqgug","pricing_plan_id":"cebpf4jnsgd1na2vs0mg"},{"bike_id":"6052766e-3ee7-4ddb-ad89-5619e2410f9d","system_id":"levelo_inurba_marseille","lat":43.29576,"lon":5.36735,"is_reserved":false,"is_disabled":false,"rental_uris":{"android":"levelo://app?vid=6052766e-3ee7-4ddb-ad89-5619e2410f9d","ios":"levelo://app?vid=6052766e-3ee7-4ddb-ad89-5619e2410f9d"},"vehicle_type_id":"4","last_reported":1727017673,"current_range_meters":34000,"station_id":"ce4bgph2rcd13ifvqc2g","pricing_plan_id":"cebpf4jnsgd1na2vs0mg"},{"bike_id":"0200dd7c-98aa-498a-bc7e-f8924685ba5e","system_id":"levelo_inurba_marseille","lat":43.24812,"lon":5.37458,"is_reserved":false,"is_disabled":false,"rental_uris":{"android":"levelo://app?vid=0200dd7c-98aa-498a-bc7e-f8924685ba5e","ios":"levelo://app?vid=0200dd7c-98aa-498a-bc7e-f8924685ba5e"},"vehicle_type_id":"4","last_reported":1727017673,"current_range_meters":27200,"station_id":"ce4bhgh2rcd13ifvqfb0","pricing_plan_id":"cebpf4jnsgd1na2vs0mg"},{"bike_id":"b2763354-ec6c-4733-8de6-6c4493759ae9","system_id":"levelo_inurba_marseille","lat":43.29033,"lon":5.40134,"is_reserved":false,"is_disabled":false,"rental_uris":{"android":"levelo://app?vid=b2763354-ec6c-4733-8de6-6c4493759ae9","ios":"levelo://app?vid=b2763354-ec6c-4733-8de6-6c4493759ae9"},"vehicle_type_id":"4","last_reported":1727017673,"current_range_meters":8400,"station_id":"","pricing_plan_id":"cebpf4jnsgd1na2vs0mg"},{"bike_id":"12fa2c3e-9969-420f-b38a-45357d5aee49","system_id":"levelo_inurba_marseille","lat":43.32034,"lon":5.41556,"is_reserved":false,"is_disabled":false,"rental_uris":{"android":"levelo://app?vid=12fa2c3e-9969-420f-b38a-45357d5aee49","ios":"levelo://app?vid=12fa2c3e-9969-420f-b38a-45357d5aee49"},"vehicle_type_id":"4","last_reported":1727017673,"current_range_meters":16000,"station_id":"ce4bhq92rcd13ifvqhkg","pricing_plan_id":"cebpf4jnsgd1na2vs0mg"},{"bike_id":"f9cbc0cc-0f3d-44d4-85b4-f7fd3442a6b2","system_id":"levelo_inurba_marseille","lat":43.301335,"lon":5.398708,"is_reserved":false,"is_disabled":false,"rental_uris":{"android":"levelo://app?vid=f9cbc0cc-0f3d-44d4-85b4-f7fd3442a6b2","ios":"levelo://app?vid=f9cbc0cc-0f3d-44d4-85b4-f7fd3442a6b2"},"vehicle_type_id":"4","last_reported":1727017673,"current_range_meters":38800,"station_id":"ce4bh0h2rcd13ifvqd40","pricing_plan_id":"cebpf4jnsgd1na2vs0mg"},{"bike_id":"e4ac22b5-f0d0-4746-8ef0-df1f0085b26d","system_id":"levelo_inurba_marseille","lat":43.289337,"lon":5.366461,"is_reserved":false,"is_disabled":false,"rental_uris":{"android":"levelo://app?vid=e4ac22b5-f0d0-4746-8ef0-df1f0085b26d","ios":"levelo://app?vid=e4ac22b5-f0d0-4746-8ef0-df1f0085b26d"},"vehicle_type_id":"4","last_reported":1727017673,"current_range_meters":15200,"station_id":"ce4bhap2rcd13ifvqek0","pricing_plan_id":"cebpf4jnsgd1na2vs0mg"},{"bike_id":"a848e96d-91df-451b-b036-4963112ebee0","system_id":"levelo_inurba_marseille","lat":43.23192,"lon":5.3555,"is_reserved":false,"is_disabled":false,"rental_uris":{"android":"levelo://app?vid=a848e96d-91df-451b-b036-4963112ebee0","ios":"levelo://app?vid=a848e96d-91df-451b-b036-4963112ebee0"},"vehicle_type_id":"4","last_reported":1727017673,"current_range_meters":34800,"station_id":"ce4bhu92rcd13ifvqi70","pricing_plan_id":"cebpf4jnsgd1na2vs0mg"},{"bike_id":"47c037ac-bde8-49f8-afa9-9c4e7e375df6","system_id":"levelo_inurba_marseille","lat":43.26945,"lon":5.40249,"is_reserved":false,"is_disabled":false,"rental_uris":{"android":"levelo://app?vid=47c037ac-bde8-49f8-afa9-9c4e7e375df6","ios":"levelo://app?vid=47c037ac-bde8-49f8-afa9-9c4e7e375df6"},"vehicle_type_id":"4","last_reported":1727017673,"current_range_meters":7200,"station_id":"cjm6bp8fraef2m0cb0m0","pricing_plan_id":"cebpf4jnsgd1na2vs0mg"},{"bike_id":"6e866676-6958-47a0-bba1-aad239c4e52e","system_id":"levelo_inurba_marseille","lat":43.3036,"lon":5.41889,"is_reserved":false,"is_disabled":false,"rental_uris":{"android":"levelo://app?vid=6e866676-6958-47a0-bba1-aad239c4e52e","ios":"levelo://app?vid=6e866676-6958-47a0-bba1-aad239c4e52e"},"vehicle_type_id":"4","last_reported":1727017673,"current_range_meters":20400,"station_id":"ce4bhop2rcd13ifvqh7g","pricing_plan_id":"cebpf4jnsgd1na2vs0mg"},{"bike_id":"d28ffa41-9d7e-41f1-8b70-1aa04f034503","system_id":"levelo_inurba_marseille","lat":43.29557,"lon":5.4228,"is_reserved":false,"is_disabled":false,"rental_uris":{"android":"levelo://app?vid=d28ffa41-9d7e-41f1-8b70-1aa04f034503","ios":"levelo://app?vid=d28ffa41-9d7e-41f1-8b70-1aa04f034503"},"vehicle_type_id":"4","last_reported":1727017673,"current_range_meters":3200,"station_id":"ce4bhph2rcd13ifvqhdg","pricing_plan_id":"cebpf4jnsgd1na2vs0mg"},{"bike_id":"9ef2f7df-e9fb-4da5-aa12-396d9c7c126d","system_id":"levelo_inurba_marseille","lat":43.31084,"lon":5.4243,"is_reserved":false,"is_disabled":false,"rental_uris":{"android":"levelo://app?vid=9ef2f7df-e9fb-4da5-aa12-396d9c7c126d","ios":"levelo://app?vid=9ef2f7df-e9fb-4da5-aa12-396d9c7c126d"},"vehicle_type_id":"4","last_reported":1727017673,"current_range_meters":32800,"station_id":"ce4bhp92rcd13ifvqhag","pricing_plan_id":"cebpf4jnsgd1na2vs0mg"},{"bike_id":"b802ea31-d5f5-4250-9a92-c9fdcdca3c78","system_id":"levelo_inurba_marseille","lat":43.262151,"lon":5.37442,"is_reserved":false,"is_disabled":false,"rental_uris":{"android":"levelo://app?vid=b802ea31-d5f5-4250-9a92-c9fdcdca3c78","ios":"levelo://app?vid=b802ea31-d5f5-4250-9a92-c9fdcdca3c78"},"vehicle_type_id":"4","last_reported":1727017673,"current_range_meters":18000,"station_id":"ce4bhgp2rcd13ifvqfc0","pricing_plan_id":"cebpf4jnsgd1na2vs0mg"},{"bike_id":"415481ba-eeaa-4abd-b844-5b9b53fabb3e","system_id":"levelo_inurba_marseille","lat":43.287231,"lon":5.360888,"is_reserved":false,"is_disabled":false,"rental_uris":{"android":"levelo://app?vid=415481ba-eeaa-4abd-b844-5b9b53fabb3e","ios":"levelo://app?vid=415481ba-eeaa-4abd-b844-5b9b53fabb3e"},"vehicle_type_id":"4","last_reported":1727017673,"current_range_meters":30800,"station_id":"cki0cbj6b192h4jlfktg","pricing_plan_id":"cebpf4jnsgd1na2vs0mg"},{"bike_id":"9f579a7a-7598-43fb-a90e-fc090198f1da","system_id":"levelo_inurba_marseille","lat":43.296372,"lon":5.372124,"is_reserved":false,"is_disabled":false,"rental_uris":{"android":"levelo://app?vid=9f579a7a-7598-43fb-a90e-fc090198f1da","ios":"levelo://app?vid=9f579a7a-7598-43fb-a90e-fc090198f1da"},"vehicle_type_id":"4","last_reported":1727017673,"current_range_meters":30800,"station_id":"ce4bgnh2rcd13ifvqc0g","pricing_plan_id":"cebpf4jnsgd1na2vs0mg"},{"bike_id":"a3944aaa-8747-4661-88af-003fc9aa4f69","system_id":"levelo_inurba_marseille","lat":43.30546,"lon":5.36527,"is_reserved":false,"is_disabled":false,"rental_uris":{"android":"levelo://app?vid=a3944aaa-8747-4661-88af-003fc9aa4f69","ios":"levelo://app?vid=a3944aaa-8747-4661-88af-003fc9aa4f69"},"vehicle_type_id":"4","last_reported":1727017673,"current_range_meters":26800,"station_id":"ce4bgs12rcd13ifvqcag","pricing_plan_id":"cebpf4jnsgd1na2vs0mg"},{"bike_id":"170aca2e-397c-4aaf-b2d4-b861350d3caa","system_id":"levelo_inurba_marseille","lat":43.28347,"lon":5.3811,"is_reserved":false,"is_disabled":false,"rental_uris":{"android":"levelo://app?vid=170aca2e-397c-4aaf-b2d4-b861350d3caa","ios":"levelo://app?vid=170aca2e-397c-4aaf-b2d4-b861350d3caa"},"vehicle_type_id":"4","last_reported":1727017673,"current_range_meters":17600,"station_id":"ce4bh412rcd13ifvqdr0","pricing_plan_id":"cebpf4jnsgd1na2vs0mg"},{"bike_id":"434b9f2c-92dc-4134-9ad3-db185bb2d5d1","system_id":"levelo_inurba_marseille","lat":43.308838,"lon":5.371872,"is_reserved":false,"is_disabled":false,"rental_uris":{"android":"levelo://app?vid=434b9f2c-92dc-4134-9ad3-db185bb2d5d1","ios":"levelo://app?vid=434b9f2c-92dc-4134-9ad3-db185bb2d5d1"},"vehicle_type_id":"4","last_reported":1727017673,"current_range_meters":36000,"station_id":"ce4bgl92rcd13ifvqbq0","pricing_plan_id":"cebpf4jnsgd1na2vs0mg"},{"bike_id":"2423cef5-9d27-4ed4-88c0-4dc85fbac7c7","system_id":"levelo_inurba_marseille","lat":43.31697,"lon":5.40482,"is_reserved":false,"is_disabled":false,"rental_uris":{"android":"levelo://app?vid=2423cef5-9d27-4ed4-88c0-4dc85fbac7c7","ios":"levelo://app?vid=2423cef5-9d27-4ed4-88c0-4dc85fbac7c7"},"vehicle_type_id":"4","last_reported":1727017673,"current_range_meters":25600,"station_id":"ce4bh012rcd13ifvqd00","pricing_plan_id":"cebpf4jnsgd1na2vs0mg"},{"bike_id":"5feb8f9d-df3e-4036-aaa2-6a9de2f6503a","system_id":"levelo_inurba_marseille","lat":43.29899,"lon":5.43662,"is_reserved":false,"is_disabled":false,"rental_uris":{"android":"levelo://app?vid=5feb8f9d-df3e-4036-aaa2-6a9de2f6503a","ios":"levelo://app?vid=5feb8f9d-df3e-4036-aaa2-6a9de2f6503a"},"vehicle_type_id":"4","last_reported":1727017673,"current_range_meters":36800,"station_id":"ce4bhpp2rcd13ifvqhfg","pricing_plan_id":"cebpf4jnsgd1na2vs0mg"},{"bike_id":"f8621f1b-e82b-45e7-8469-e2fdcfbdcca7","system_id":"levelo_inurba_marseille","lat":43.32049,"lon":5.41552,"is_reserved":false,"is_disabled":false,"rental_uris":{"android":"levelo://app?vid=f8621f1b-e82b-45e7-8469-e2fdcfbdcca7","ios":"levelo://app?vid=f8621f1b-e82b-45e7-8469-e2fdcfbdcca7"},"vehicle_type_id":"4","last_reported":1727017673,"current_range_meters":37600,"station_id":"ce4bhq92rcd13ifvqhkg","pricing_plan_id":"cebpf4jnsgd1na2vs0mg"},{"bike_id":"1ef71794-7145-4984-99da-4c71f479de5d","system_id":"levelo_inurba_marseille","lat":43.28606,"lon":5.37056,"is_reserved":false,"is_disabled":false,"rental_uris":{"android":"levelo://app?vid=1ef71794-7145-4984-99da-4c71f479de5d","ios":"levelo://app?vid=1ef71794-7145-4984-99da-4c71f479de5d"},"vehicle_type_id":"4","last_reported":1727017673,"current_range_meters":24000,"station_id":"ce4bht12rcd13ifvqi60","pricing_plan_id":"cebpf4jnsgd1na2vs0mg"},{"bike_id":"92ed882f-44fe-403c-8423-71094b2ecaef","system_id":"levelo_inurba_marseille","lat":43.28109,"lon":5.37822,"is_reserved":false,"is_disabled":false,"rental_uris":{"android":"levelo://app?vid=92ed882f-44fe-403c-8423-71094b2ecaef","ios":"levelo://app?vid=92ed882f-44fe-403c-8423-71094b2ecaef"},"vehicle_type_id":"4","last_reported":1727017673,"current_range_meters":20800,"station_id":"ce4bha12rcd13ifvqee0","pricing_plan_id":"cebpf4jnsgd1na2vs0mg"},{"bike_id":"aaafc473-d859-4269-a1a6-f97d90eec3a5","system_id":"levelo_inurba_marseille","lat":43.296997,"lon":5.381118,"is_reserved":false,"is_disabled":false,"rental_uris":{"android":"levelo://app?vid=aaafc473-d859-4269-a1a6-f97d90eec3a5","ios":"levelo://app?vid=aaafc473-d859-4269-a1a6-f97d90eec3a5"},"vehicle_type_id":"4","last_reported":1727017673,"current_range_meters":6800,"station_id":"ce4bgl12rcd13ifvqbo0","pricing_plan_id":"cebpf4jnsgd1na2vs0mg"},{"bike_id":"a3c9168c-fd2f-4c53-80da-88c7a2745714","system_id":"levelo_inurba_marseille","lat":43.2655,"lon":5.37283,"is_reserved":false,"is_disabled":false,"rental_uris":{"android":"levelo://app?vid=a3c9168c-fd2f-4c53-80da-88c7a2745714","ios":"levelo://app?vid=a3c9168c-fd2f-4c53-80da-88c7a2745714"},"vehicle_type_id":"4","last_reported":1727017673,"current_range_meters":38800,"station_id":"ce4bhg12rcd13ifvqf70","pricing_plan_id":"cebpf4jnsgd1na2vs0mg"},{"bike_id":"9f3ec0ef-ff0e-41e2-9f36-1d7ee69299f7","system_id":"levelo_inurba_marseille","lat":43.29856,"lon":5.36284,"is_reserved":false,"is_disabled":false,"rental_uris":{"android":"levelo://app?vid=9f3ec0ef-ff0e-41e2-9f36-1d7ee69299f7","ios":"levelo://app?vid=9f3ec0ef-ff0e-41e2-9f36-1d7ee69299f7"},"vehicle_type_id":"4","last_reported":1727017673,"current_range_meters":8800,"station_id":"ce4bgpp2rcd13ifvqc3g","pricing_plan_id":"cebpf4jnsgd1na2vs0mg"},{"bike_id":"1102eb3d-2dc8-4019-9e1d-c4670dad7e11","system_id":"levelo_inurba_marseille","lat":43.23956,"lon":5.36626,"is_reserved":false,"is_disabled":false,"rental_uris":{"android":"levelo://app?vid=1102eb3d-2dc8-4019-9e1d-c4670dad7e11","ios":"levelo://app?vid=1102eb3d-2dc8-4019-9e1d-c4670dad7e11"},"vehicle_type_id":"4","last_reported":1727017673,"current_range_meters":11200,"station_id":"ce4bhi12rcd13ifvqfp0","pricing_plan_id":"cebpf4jnsgd1na2vs0mg"},{"bike_id":"d323bc23-4105-4d98-87ab-fb3899c88f8a","system_id":"levelo_inurba_marseille","lat":43.23198,"lon":5.35556,"is_reserved":false,"is_disabled":false,"rental_uris":{"android":"levelo://app?vid=d323bc23-4105-4d98-87ab-fb3899c88f8a","ios":"levelo://app?vid=d323bc23-4105-4d98-87ab-fb3899c88f8a"},"vehicle_type_id":"4","last_reported":1727017673,"current_range_meters":31200,"station_id":"ce4bhu92rcd13ifvqi70","pricing_plan_id":"cebpf4jnsgd1na2vs0mg"},{"bike_id":"50b594a1-6b2a-411b-998e-bb1d2b7acfdf","system_id":"levelo_inurba_marseille","lat":43.26942,"lon":5.40253,"is_reserved":false,"is_disabled":false,"rental_uris":{"android":"levelo://app?vid=50b594a1-6b2a-411b-998e-bb1d2b7acfdf","ios":"levelo://app?vid=50b594a1-6b2a-411b-998e-bb1d2b7acfdf"},"vehicle_type_id":"4","last_reported":1727017673,"current_range_meters":6800,"station_id":"cjm6bp8fraef2m0cb0m0","pricing_plan_id":"cebpf4jnsgd1na2vs0mg"},{"bike_id":"8c95e4dd-dcfd-43d4-9a20-cea16208859d","system_id":"levelo_inurba_marseille","lat":43.25012,"lon":5.38913,"is_reserved":false,"is_disabled":false,"rental_uris":{"android":"levelo://app?vid=8c95e4dd-dcfd-43d4-9a20-cea16208859d","ios":"levelo://app?vid=8c95e4dd-dcfd-43d4-9a20-cea16208859d"},"vehicle_type_id":"4","last_reported":1727017673,"current_range_meters":25600,"station_id":"ce4bhgp2rcd13ifvqfd0","pricing_plan_id":"cebpf4jnsgd1na2vs0mg"},{"bike_id":"521c37a8-0596-428e-b619-ee19c57c62c0","system_id":"levelo_inurba_marseille","lat":43.31998,"lon":5.38164,"is_reserved":false,"is_disabled":false,"rental_uris":{"android":"levelo://app?vid=521c37a8-0596-428e-b619-ee19c57c62c0","ios":"levelo://app?vid=521c37a8-0596-428e-b619-ee19c57c62c0"},"vehicle_type_id":"4","last_reported":1727017673,"current_range_meters":16000,"station_id":"ce4bhr12rcd13ifvqhpg","pricing_plan_id":"cebpf4jnsgd1na2vs0mg"},{"bike_id":"3a58ae62-833c-4257-97c4-9717d3c58af0","system_id":"levelo_inurba_marseille","lat":43.28154,"lon":5.42652,"is_reserved":false,"is_disabled":false,"rental_uris":{"android":"levelo://app?vid=3a58ae62-833c-4257-97c4-9717d3c58af0","ios":"levelo://app?vid=3a58ae62-833c-4257-97c4-9717d3c58af0"},"vehicle_type_id":"4","last_reported":1727017673,"current_range_meters":8800,"station_id":"ce4bhnh2rcd13ifvqgug","pricing_plan_id":"cebpf4jnsgd1na2vs0mg"},{"bike_id":"7f1298ae-f066-4795-8674-c80d7c4845e9","system_id":"levelo_inurba_marseille","lat":43.27207,"lon":5.39174,"is_reserved":false,"is_disabled":false,"rental_uris":{"android":"levelo://app?vid=7f1298ae-f066-4795-8674-c80d7c4845e9","ios":"levelo://app?vid=7f1298ae-f066-4795-8674-c80d7c4845e9"},"vehicle_type_id":"4","last_reported":1727017673,"current_range_meters":24000,"station_id":"ce4bhhp2rcd13ifvqfm0","pricing_plan_id":"cebpf4jnsgd1na2vs0mg"},{"bike_id":"36dc71fe-bfc9-4a4d-b2ef-39ebb067c458","system_id":"levelo_inurba_marseille","lat":43.29554,"lon":5.42285,"is_reserved":false,"is_disabled":false,"rental_uris":{"android":"levelo://app?vid=36dc71fe-bfc9-4a4d-b2ef-39ebb067c458","ios":"levelo://app?vid=36dc71fe-bfc9-4a4d-b2ef-39ebb067c458"},"vehicle_type_id":"4","last_reported":1727017673,"current_range_meters":36800,"station_id":"ce4bhph2rcd13ifvqhdg","pricing_plan_id":"cebpf4jnsgd1na2vs0mg"},{"bike_id":"baad33e0-e11d-4e13-9910-d7ae58107e3b","system_id":"levelo_inurba_marseille","lat":43.32106,"lon":5.36772,"is_reserved":false,"is_disabled":false,"rental_uris":{"android":"levelo://app?vid=baad33e0-e11d-4e13-9910-d7ae58107e3b","ios":"levelo://app?vid=baad33e0-e11d-4e13-9910-d7ae58107e3b"},"vehicle_type_id":"4","last_reported":1727017673,"current_range_meters":36000,"station_id":"","pricing_plan_id":"cebpf4jnsgd1na2vs0mg"},{"bike_id":"bcbe6095-74c6-4e6a-9235-6041481bec8a","system_id":"levelo_inurba_marseille","lat":43.23184,"lon":5.39984,"is_reserved":false,"is_disabled":false,"rental_uris":{"android":"levelo://app?vid=bcbe6095-74c6-4e6a-9235-6041481bec8a","ios":"levelo://app?vid=bcbe6095-74c6-4e6a-9235-6041481bec8a"},"vehicle_type_id":"4","last_reported":1727017673,"current_range_meters":7200,"station_id":"ce4bhn12rcd13ifvqgqg","pricing_plan_id":"cebpf4jnsgd1na2vs0mg"},{"bike_id":"1437b30c-7d45-456f-be5f-6d19204997b1","system_id":"levelo_inurba_marseille","lat":43.32478,"lon":5.36556,"is_reserved":false,"is_disabled":false,"rental_uris":{"android":"levelo://app?vid=1437b30c-7d45-456f-be5f-6d19204997b1","ios":"levelo://app?vid=1437b30c-7d45-456f-be5f-6d19204997b1"},"vehicle_type_id":"4","last_reported":1727017673,"current_range_meters":26800,"station_id":"ce4bhs12rcd13ifvqhvg","pricing_plan_id":"cebpf4jnsgd1na2vs0mg"},{"bike_id":"128ca26e-1dbb-4422-993a-f439c409861c","system_id":"levelo_inurba_marseille","lat":43.26553,"lon":5.37284,"is_reserved":false,"is_disabled":false,"rental_uris":{"android":"levelo://app?vid=128ca26e-1dbb-4422-993a-f439c409861c","ios":"levelo://app?vid=128ca26e-1dbb-4422-993a-f439c409861c"},"vehicle_type_id":"4","last_reported":1727017673,"current_range_meters":21600,"station_id":"ce4bhg12rcd13ifvqf70","pricing_plan_id":"cebpf4jnsgd1na2vs0mg"},{"bike_id":"7ae379da-9440-4378-a690-86693789de4b","system_id":"levelo_inurba_marseille","lat":43.29555,"lon":5.42283,"is_reserved":false,"is_disabled":false,"rental_uris":{"android":"levelo://app?vid=7ae379da-9440-4378-a690-86693789de4b","ios":"levelo://app?vid=7ae379da-9440-4378-a690-86693789de4b"},"vehicle_type_id":"4","last_reported":1727017673,"current_range_meters":17200,"station_id":"ce4bhph2rcd13ifvqhdg","pricing_plan_id":"cebpf4jnsgd1na2vs0mg"},{"bike_id":"02552a84-93ac-4f47-9115-b594cbf16674","system_id":"levelo_inurba_marseille","lat":43.29553,"lon":5.42283,"is_reserved":false,"is_disabled":false,"rental_uris":{"android":"levelo://app?vid=02552a84-93ac-4f47-9115-b594cbf16674","ios":"levelo://app?vid=02552a84-93ac-4f47-9115-b594cbf16674"},"vehicle_type_id":"4","last_reported":1727017673,"current_range_meters":31200,"station_id":"ce4bhph2rcd13ifvqhdg","pricing_plan_id":"cebpf4jnsgd1na2vs0mg"},{"bike_id":"432fdd6f-4d62-44ab-9a4c-017109fa5234","system_id":"levelo_inurba_marseille","lat":43.29031,"lon":5.369042,"is_reserved":false,"is_disabled":false,"rental_uris":{"android":"levelo://app?vid=432fdd6f-4d62-44ab-9a4c-017109fa5234","ios":"levelo://app?vid=432fdd6f-4d62-44ab-9a4c-017109fa5234"},"vehicle_type_id":"4","last_reported":1727017673,"current_range_meters":31200,"station_id":"ce4bh5p2rcd13ifvqe4g","pricing_plan_id":"cebpf4jnsgd1na2vs0mg"},{"bike_id":"fb1cebb6-1d7d-47a4-bbb1-d23a7be9c2ed","system_id":"levelo_inurba_marseille","lat":43.297445,"lon":5.364186,"is_reserved":false,"is_disabled":false,"rental_uris":{"android":"levelo://app?vid=fb1cebb6-1d7d-47a4-bbb1-d23a7be9c2ed","ios":"levelo://app?vid=fb1cebb6-1d7d-47a4-bbb1-d23a7be9c2ed"},"vehicle_type_id":"4","last_reported":1727017673,"current_range_meters":22000,"station_id":"ce4bgpp2rcd13ifvqc3g","pricing_plan_id":"cebpf4jnsgd1na2vs0mg"},{"bike_id":"6e6f62bf-d7a1-4114-8267-6c7fb56f9821","system_id":"levelo_inurba_marseille","lat":43.29843,"lon":5.36268,"is_reserved":false,"is_disabled":false,"rental_uris":{"android":"levelo://app?vid=6e6f62bf-d7a1-4114-8267-6c7fb56f9821","ios":"levelo://app?vid=6e6f62bf-d7a1-4114-8267-6c7fb56f9821"},"vehicle_type_id":"4","last_reported":1727017673,"current_range_meters":33600,"station_id":"ce4bgpp2rcd13ifvqc3g","pricing_plan_id":"cebpf4jnsgd1na2vs0mg"},{"bike_id":"412b8f6e-fa6b-4130-8f6c-7b409991cf12","system_id":"levelo_inurba_marseille","lat":43.27614,"lon":5.36106,"is_reserved":false,"is_disabled":false,"rental_uris":{"android":"levelo://app?vid=412b8f6e-fa6b-4130-8f6c-7b409991cf12","ios":"levelo://app?vid=412b8f6e-fa6b-4130-8f6c-7b409991cf12"},"vehicle_type_id":"4","last_reported":1727017673,"current_range_meters":20000,"station_id":"ce4bgj92rcd13ifvqbe0","pricing_plan_id":"cebpf4jnsgd1na2vs0mg"},{"bike_id":"b49e8aa4-b4d7-4f9d-a437-8d1bbdfe618a","system_id":"levelo_inurba_marseille","lat":43.29557,"lon":5.42284,"is_reserved":false,"is_disabled":false,"rental_uris":{"android":"levelo://app?vid=b49e8aa4-b4d7-4f9d-a437-8d1bbdfe618a","ios":"levelo://app?vid=b49e8aa4-b4d7-4f9d-a437-8d1bbdfe618a"},"vehicle_type_id":"4","last_reported":1727017673,"current_range_meters":40000,"station_id":"ce4bhph2rcd13ifvqhdg","pricing_plan_id":"cebpf4jnsgd1na2vs0mg"},{"bike_id":"56ab3513-a625-4585-8e61-cedd1fe345ad","system_id":"levelo_inurba_marseille","lat":43.2894,"lon":5.36405,"is_reserved":false,"is_disabled":false,"rental_uris":{"android":"levelo://app?vid=56ab3513-a625-4585-8e61-cedd1fe345ad","ios":"levelo://app?vid=56ab3513-a625-4585-8e61-cedd1fe345ad"},"vehicle_type_id":"4","last_reported":1727017673,"current_range_meters":12400,"station_id":"ce4bhc92rcd13ifvqetg","pricing_plan_id":"cebpf4jnsgd1na2vs0mg"},{"bike_id":"6d84acf2-455a-425c-81c1-f7c28904c3ff","system_id":"levelo_inurba_marseille","lat":43.2781,"lon":5.40718,"is_reserved":false,"is_disabled":false,"rental_uris":{"android":"levelo://app?vid=6d84acf2-455a-425c-81c1-f7c28904c3ff","ios":"levelo://app?vid=6d84acf2-455a-425c-81c1-f7c28904c3ff"},"vehicle_type_id":"4","last_reported":1727017673,"current_range_meters":28400,"station_id":"ce4bhnh2rcd13ifvqgtg","pricing_plan_id":"cebpf4jnsgd1na2vs0mg"},{"bike_id":"b5dac5e1-0a40-4def-8c62-f68a67a7e0a5","system_id":"levelo_inurba_marseille","lat":43.32651,"lon":5.43822,"is_reserved":false,"is_disabled":false,"rental_uris":{"android":"levelo://app?vid=b5dac5e1-0a40-4def-8c62-f68a67a7e0a5","ios":"levelo://app?vid=b5dac5e1-0a40-4def-8c62-f68a67a7e0a5"},"vehicle_type_id":"4","last_reported":1727017673,"current_range_meters":18000,"station_id":"","pricing_plan_id":"cebpf4jnsgd1na2vs0mg"},{"bike_id":"79725833-569d-4b84-8b31-bcdcbc2f6df7","system_id":"levelo_inurba_marseille","lat":43.28941,"lon":5.36396,"is_reserved":false,"is_disabled":false,"rental_uris":{"android":"levelo://app?vid=79725833-569d-4b84-8b31-bcdcbc2f6df7","ios":"levelo://app?vid=79725833-569d-4b84-8b31-bcdcbc2f6df7"},"vehicle_type_id":"4","last_reported":1727017673,"current_range_meters":20800,"station_id":"ce4bhc92rcd13ifvqetg","pricing_plan_id":"cebpf4jnsgd1na2vs0mg"},{"bike_id":"71745df1-8511-42d1-b236-94ecb1109e61","system_id":"levelo_inurba_marseille","lat":43.31708,"lon":5.39615,"is_reserved":false,"is_disabled":false,"rental_uris":{"android":"levelo://app?vid=71745df1-8511-42d1-b236-94ecb1109e61","ios":"levelo://app?vid=71745df1-8511-42d1-b236-94ecb1109e61"},"vehicle_type_id":"4","last_reported":1727017673,"current_range_meters":8800,"station_id":"","pricing_plan_id":"cebpf4jnsgd1na2vs0mg"},{"bike_id":"5029d89a-d116-4bdf-9580-cb4df10a7565","system_id":"levelo_inurba_marseille","lat":43.33021,"lon":5.39037,"is_reserved":false,"is_disabled":false,"rental_uris":{"android":"levelo://app?vid=5029d89a-d116-4bdf-9580-cb4df10a7565","ios":"levelo://app?vid=5029d89a-d116-4bdf-9580-cb4df10a7565"},"vehicle_type_id":"4","last_reported":1727017673,"current_range_meters":16400,"station_id":"ce4bhr92rcd13ifvqhrg","pricing_plan_id":"cebpf4jnsgd1na2vs0mg"},{"bike_id":"3c42e052-6622-4625-bf38-ca40ad89c93b","system_id":"levelo_inurba_marseille","lat":43.29854,"lon":5.36289,"is_reserved":false,"is_disabled":false,"rental_uris":{"android":"levelo://app?vid=3c42e052-6622-4625-bf38-ca40ad89c93b","ios":"levelo://app?vid=3c42e052-6622-4625-bf38-ca40ad89c93b"},"vehicle_type_id":"4","last_reported":1727017673,"current_range_meters":18800,"station_id":"ce4bgpp2rcd13ifvqc3g","pricing_plan_id":"cebpf4jnsgd1na2vs0mg"},{"bike_id":"84d09b05-cbbe-46e0-a5d0-31c259b4cf6b","system_id":"levelo_inurba_marseille","lat":43.24386,"lon":5.37052,"is_reserved":false,"is_disabled":false,"rental_uris":{"android":"levelo://app?vid=84d09b05-cbbe-46e0-a5d0-31c259b4cf6b","ios":"levelo://app?vid=84d09b05-cbbe-46e0-a5d0-31c259b4cf6b"},"vehicle_type_id":"4","last_reported":1727017673,"current_range_meters":16400,"station_id":"ce4bhhh2rcd13ifvqfk0","pricing_plan_id":"cebpf4jnsgd1na2vs0mg"},{"bike_id":"d399b5a5-50ac-471e-9ce7-cb1b1b3a1724","system_id":"levelo_inurba_marseille","lat":43.33023,"lon":5.39039,"is_reserved":false,"is_disabled":false,"rental_uris":{"android":"levelo://app?vid=d399b5a5-50ac-471e-9ce7-cb1b1b3a1724","ios":"levelo://app?vid=d399b5a5-50ac-471e-9ce7-cb1b1b3a1724"},"vehicle_type_id":"4","last_reported":1727017673,"current_range_meters":37600,"station_id":"ce4bhr92rcd13ifvqhrg","pricing_plan_id":"cebpf4jnsgd1na2vs0mg"},{"bike_id":"22e4a15e-6041-4c71-b288-1c12c69d262d","system_id":"levelo_inurba_marseille","lat":43.33711,"lon":5.3917,"is_reserved":false,"is_disabled":false,"rental_uris":{"android":"levelo://app?vid=22e4a15e-6041-4c71-b288-1c12c69d262d","ios":"levelo://app?vid=22e4a15e-6041-4c71-b288-1c12c69d262d"},"vehicle_type_id":"4","last_reported":1727017673,"current_range_meters":8000,"station_id":"ce4bhr92rcd13ifvqhsg","pricing_plan_id":"cebpf4jnsgd1na2vs0mg"},{"bike_id":"e2b19855-27e1-4ecb-baad-016998751a64","system_id":"levelo_inurba_marseille","lat":43.25004,"lon":5.3891,"is_reserved":false,"is_disabled":false,"rental_uris":{"android":"levelo://app?vid=e2b19855-27e1-4ecb-baad-016998751a64","ios":"levelo://app?vid=e2b19855-27e1-4ecb-baad-016998751a64"},"vehicle_type_id":"4","last_reported":1727017673,"current_range_meters":24800,"station_id":"ce4bhgp2rcd13ifvqfd0","pricing_plan_id":"cebpf4jnsgd1na2vs0mg"},{"bike_id":"bdf447bc-cdc6-4349-ae20-f5aac79a003e","system_id":"levelo_inurba_marseille","lat":43.28469,"lon":5.38405,"is_reserved":false,"is_disabled":false,"rental_uris":{"android":"levelo://app?vid=bdf447bc-cdc6-4349-ae20-f5aac79a003e","ios":"levelo://app?vid=bdf447bc-cdc6-4349-ae20-f5aac79a003e"},"vehicle_type_id":"4","last_reported":1727017673,"current_range_meters":11600,"station_id":"ce4bh512rcd13ifvqe3g","pricing_plan_id":"cebpf4jnsgd1na2vs0mg"},{"bike_id":"e0a914d6-980f-4d25-8065-c3d12ea30f98","system_id":"levelo_inurba_marseille","lat":43.2902,"lon":5.38126,"is_reserved":false,"is_disabled":false,"rental_uris":{"android":"levelo://app?vid=e0a914d6-980f-4d25-8065-c3d12ea30f98","ios":"levelo://app?vid=e0a914d6-980f-4d25-8065-c3d12ea30f98"},"vehicle_type_id":"4","last_reported":1727017673,"current_range_meters":37600,"station_id":"ce4bh4p2rcd13ifvqe1g","pricing_plan_id":"cebpf4jnsgd1na2vs0mg"},{"bike_id":"ab9de632-0a34-4da5-8550-8ec2dcde3f4c","system_id":"levelo_inurba_marseille","lat":43.2319,"lon":5.39981,"is_reserved":false,"is_disabled":false,"rental_uris":{"android":"levelo://app?vid=ab9de632-0a34-4da5-8550-8ec2dcde3f4c","ios":"levelo://app?vid=ab9de632-0a34-4da5-8550-8ec2dcde3f4c"},"vehicle_type_id":"4","last_reported":1727017673,"current_range_meters":38800,"station_id":"ce4bhn12rcd13ifvqgqg","pricing_plan_id":"cebpf4jnsgd1na2vs0mg"},{"bike_id":"0a9f71bb-22d2-463b-8ee1-cc7e30f0387b","system_id":"levelo_inurba_marseille","lat":43.2655,"lon":5.37284,"is_reserved":false,"is_disabled":false,"rental_uris":{"android":"levelo://app?vid=0a9f71bb-22d2-463b-8ee1-cc7e30f0387b","ios":"levelo://app?vid=0a9f71bb-22d2-463b-8ee1-cc7e30f0387b"},"vehicle_type_id":"4","last_reported":1727017673,"current_range_meters":38800,"station_id":"ce4bhg12rcd13ifvqf70","pricing_plan_id":"cebpf4jnsgd1na2vs0mg"},{"bike_id":"fd892628-2ded-4e66-badb-53fa02b81d40","system_id":"levelo_inurba_marseille","lat":43.24179,"lon":5.39736,"is_reserved":false,"is_disabled":false,"rental_uris":{"android":"levelo://app?vid=fd892628-2ded-4e66-badb-53fa02b81d40","ios":"levelo://app?vid=fd892628-2ded-4e66-badb-53fa02b81d40"},"vehicle_type_id":"4","last_reported":1727017673,"current_range_meters":40000,"station_id":"ce4bhn12rcd13ifvqgpg","pricing_plan_id":"cebpf4jnsgd1na2vs0mg"},{"bike_id":"d17218e2-0191-4570-8ff9-ebd961e6d45b","system_id":"levelo_inurba_marseille","lat":43.28152,"lon":5.42636,"is_reserved":false,"is_disabled":false,"rental_uris":{"android":"levelo://app?vid=d17218e2-0191-4570-8ff9-ebd961e6d45b","ios":"levelo://app?vid=d17218e2-0191-4570-8ff9-ebd961e6d45b"},"vehicle_type_id":"4","last_reported":1727017673,"current_range_meters":38000,"station_id":"ce4bhnh2rcd13ifvqgug","pricing_plan_id":"cebpf4jnsgd1na2vs0mg"},{"bike_id":"a67b4287-da83-43eb-8e86-126974c9a016","system_id":"levelo_inurba_marseille","lat":43.29549,"lon":5.42282,"is_reserved":false,"is_disabled":false,"rental_uris":{"android":"levelo://app?vid=a67b4287-da83-43eb-8e86-126974c9a016","ios":"levelo://app?vid=a67b4287-da83-43eb-8e86-126974c9a016"},"vehicle_type_id":"4","last_reported":1727017673,"current_range_meters":28800,"station_id":"ce4bhph2rcd13ifvqhdg","pricing_plan_id":"cebpf4jnsgd1na2vs0mg"},{"bike_id":"231df590-15eb-4c0a-bdf6-dddd3cb861cb","system_id":"levelo_inurba_marseille","lat":43.337444,"lon":5.374475,"is_reserved":false,"is_disabled":false,"rental_uris":{"android":"levelo://app?vid=231df590-15eb-4c0a-bdf6-dddd3cb861cb","ios":"levelo://app?vid=231df590-15eb-4c0a-bdf6-dddd3cb861cb"},"vehicle_type_id":"4","last_reported":1727017673,"current_range_meters":26000,"station_id":"","pricing_plan_id":"cebpf4jnsgd1na2vs0mg"},{"bike_id":"30a9e31f-21a5-41ad-9cb5-a7c06f942a46","system_id":"levelo_inurba_marseille","lat":43.295746,"lon":5.374241,"is_reserved":false,"is_disabled":false,"rental_uris":{"android":"levelo://app?vid=30a9e31f-21a5-41ad-9cb5-a7c06f942a46","ios":"levelo://app?vid=30a9e31f-21a5-41ad-9cb5-a7c06f942a46"},"vehicle_type_id":"4","last_reported":1727017673,"current_range_meters":27200,"station_id":"ce4bhh92rcd13ifvqfh0","pricing_plan_id":"cebpf4jnsgd1na2vs0mg"},{"bike_id":"448f92db-eef2-46d1-9885-c2b2d5cc277a","system_id":"levelo_inurba_marseille","lat":43.29257,"lon":5.40911,"is_reserved":false,"is_disabled":false,"rental_uris":{"android":"levelo://app?vid=448f92db-eef2-46d1-9885-c2b2d5cc277a","ios":"levelo://app?vid=448f92db-eef2-46d1-9885-c2b2d5cc277a"},"vehicle_type_id":"4","last_reported":1727017673,"current_range_meters":15200,"station_id":"ce4bh192rcd13ifvqdc0","pricing_plan_id":"cebpf4jnsgd1na2vs0mg"},{"bike_id":"3b211465-5030-4ebd-b5e2-78bdfeebc435","system_id":"levelo_inurba_marseille","lat":43.33717,"lon":5.39177,"is_reserved":false,"is_disabled":false,"rental_uris":{"android":"levelo://app?vid=3b211465-5030-4ebd-b5e2-78bdfeebc435","ios":"levelo://app?vid=3b211465-5030-4ebd-b5e2-78bdfeebc435"},"vehicle_type_id":"4","last_reported":1727017673,"current_range_meters":27200,"station_id":"ce4bhr92rcd13ifvqhsg","pricing_plan_id":"cebpf4jnsgd1na2vs0mg"},{"bike_id":"eff0056d-5d0a-42fb-89b4-03587a07ff46","system_id":"levelo_inurba_marseille","lat":43.30791,"lon":5.37652,"is_reserved":false,"is_disabled":false,"rental_uris":{"android":"levelo://app?vid=eff0056d-5d0a-42fb-89b4-03587a07ff46","ios":"levelo://app?vid=eff0056d-5d0a-42fb-89b4-03587a07ff46"},"vehicle_type_id":"4","last_reported":1727017673,"current_range_meters":29600,"station_id":"ce4bgv92rcd13ifvqcq0","pricing_plan_id":"cebpf4jnsgd1na2vs0mg"},{"bike_id":"36ba1272-c12f-432c-a36d-913ffa93418f","system_id":"levelo_inurba_marseille","lat":43.29791,"lon":5.38102,"is_reserved":false,"is_disabled":false,"rental_uris":{"android":"levelo://app?vid=36ba1272-c12f-432c-a36d-913ffa93418f","ios":"levelo://app?vid=36ba1272-c12f-432c-a36d-913ffa93418f"},"vehicle_type_id":"4","last_reported":1727017673,"current_range_meters":8400,"station_id":"ce4bgip2rcd13ifvqbb0","pricing_plan_id":"cebpf4jnsgd1na2vs0mg"},{"bike_id":"d993d452-22b6-441f-a3fc-bf189768d438","system_id":"levelo_inurba_marseille","lat":43.2984,"lon":5.36264,"is_reserved":false,"is_disabled":false,"rental_uris":{"android":"levelo://app?vid=d993d452-22b6-441f-a3fc-bf189768d438","ios":"levelo://app?vid=d993d452-22b6-441f-a3fc-bf189768d438"},"vehicle_type_id":"4","last_reported":1727017673,"current_range_meters":24400,"station_id":"ce4bgpp2rcd13ifvqc3g","pricing_plan_id":"cebpf4jnsgd1na2vs0mg"},{"bike_id":"3e156987-96e3-48ad-8746-0582637bdaa1","system_id":"levelo_inurba_marseille","lat":43.29899,"lon":5.43669,"is_reserved":false,"is_disabled":false,"rental_uris":{"android":"levelo://app?vid=3e156987-96e3-48ad-8746-0582637bdaa1","ios":"levelo://app?vid=3e156987-96e3-48ad-8746-0582637bdaa1"},"vehicle_type_id":"4","last_reported":1727017673,"current_range_meters":23200,"station_id":"ce4bhpp2rcd13ifvqhfg","pricing_plan_id":"cebpf4jnsgd1na2vs0mg"},{"bike_id":"dff985e9-100f-4ef2-b192-5bb6162a5d59","system_id":"levelo_inurba_marseille","lat":43.276215,"lon":5.361086,"is_reserved":false,"is_disabled":false,"rental_uris":{"android":"levelo://app?vid=dff985e9-100f-4ef2-b192-5bb6162a5d59","ios":"levelo://app?vid=dff985e9-100f-4ef2-b192-5bb6162a5d59"},"vehicle_type_id":"4","last_reported":1727017673,"current_range_meters":35200,"station_id":"ce4bgj92rcd13ifvqbe0","pricing_plan_id":"cebpf4jnsgd1na2vs0mg"},{"bike_id":"ec0a14f9-e1a2-4bec-bd0e-adea5d7e819a","system_id":"levelo_inurba_marseille","lat":43.287144,"lon":5.37943,"is_reserved":false,"is_disabled":false,"rental_uris":{"android":"levelo://app?vid=ec0a14f9-e1a2-4bec-bd0e-adea5d7e819a","ios":"levelo://app?vid=ec0a14f9-e1a2-4bec-bd0e-adea5d7e819a"},"vehicle_type_id":"4","last_reported":1727017673,"current_range_meters":6000,"station_id":"ce4bh9p2rcd13ifvqec0","pricing_plan_id":"cebpf4jnsgd1na2vs0mg"},{"bike_id":"77d79ebe-82fb-4ffb-9df8-d3b7661573b1","system_id":"levelo_inurba_marseille","lat":43.29421,"lon":5.35556,"is_reserved":false,"is_disabled":false,"rental_uris":{"android":"levelo://app?vid=77d79ebe-82fb-4ffb-9df8-d3b7661573b1","ios":"levelo://app?vid=77d79ebe-82fb-4ffb-9df8-d3b7661573b1"},"vehicle_type_id":"4","last_reported":1727017673,"current_range_meters":12000,"station_id":"ce4bhbp2rcd13ifvqerg","pricing_plan_id":"cebpf4jnsgd1na2vs0mg"},{"bike_id":"abd17577-1f14-4c60-bcdc-5fac2350c969","system_id":"levelo_inurba_marseille","lat":43.24163,"lon":5.36387,"is_reserved":false,"is_disabled":false,"rental_uris":{"android":"levelo://app?vid=abd17577-1f14-4c60-bcdc-5fac2350c969","ios":"levelo://app?vid=abd17577-1f14-4c60-bcdc-5fac2350c969"},"vehicle_type_id":"4","last_reported":1727017673,"current_range_meters":9600,"station_id":"cpo36qri1sfpv3e86is0","pricing_plan_id":"cebpf4jnsgd1na2vs0mg"},{"bike_id":"c54db13b-858c-45f0-a3e5-fee219e6e7f3","system_id":"levelo_inurba_marseille","lat":43.28668,"lon":5.36358,"is_reserved":false,"is_disabled":false,"rental_uris":{"android":"levelo://app?vid=c54db13b-858c-45f0-a3e5-fee219e6e7f3","ios":"levelo://app?vid=c54db13b-858c-45f0-a3e5-fee219e6e7f3"},"vehicle_type_id":"4","last_reported":1727017673,"current_range_meters":2800,"station_id":"ce4bhah2rcd13ifvqej0","pricing_plan_id":"cebpf4jnsgd1na2vs0mg"},{"bike_id":"a1041eec-eb7a-4499-ba20-a56a8dd768ec","system_id":"levelo_inurba_marseille","lat":43.30356,"lon":5.41888,"is_reserved":false,"is_disabled":false,"rental_uris":{"android":"levelo://app?vid=a1041eec-eb7a-4499-ba20-a56a8dd768ec","ios":"levelo://app?vid=a1041eec-eb7a-4499-ba20-a56a8dd768ec"},"vehicle_type_id":"4","last_reported":1727017673,"current_range_meters":15200,"station_id":"ce4bhop2rcd13ifvqh7g","pricing_plan_id":"cebpf4jnsgd1na2vs0mg"},{"bike_id":"56cf3414-a2dc-42aa-8492-b3cd5954feff","system_id":"levelo_inurba_marseille","lat":43.28154,"lon":5.42641,"is_reserved":false,"is_disabled":false,"rental_uris":{"android":"levelo://app?vid=56cf3414-a2dc-42aa-8492-b3cd5954feff","ios":"levelo://app?vid=56cf3414-a2dc-42aa-8492-b3cd5954feff"},"vehicle_type_id":"4","last_reported":1727017673,"current_range_meters":37600,"station_id":"ce4bhnh2rcd13ifvqgug","pricing_plan_id":"cebpf4jnsgd1na2vs0mg"},{"bike_id":"69428265-8326-46aa-ab94-56749389a2b7","system_id":"levelo_inurba_marseille","lat":43.30413,"lon":5.41278,"is_reserved":false,"is_disabled":false,"rental_uris":{"android":"levelo://app?vid=69428265-8326-46aa-ab94-56749389a2b7","ios":"levelo://app?vid=69428265-8326-46aa-ab94-56749389a2b7"},"vehicle_type_id":"4","last_reported":1727017673,"current_range_meters":13600,"station_id":"ce4bhop2rcd13ifvqh8g","pricing_plan_id":"cebpf4jnsgd1na2vs0mg"},{"bike_id":"d0c02c60-ce40-4c1a-9b36-01e5ea4cca7d","system_id":"levelo_inurba_marseille","lat":43.29037,"lon":5.37568,"is_reserved":false,"is_disabled":false,"rental_uris":{"android":"levelo://app?vid=d0c02c60-ce40-4c1a-9b36-01e5ea4cca7d","ios":"levelo://app?vid=d0c02c60-ce40-4c1a-9b36-01e5ea4cca7d"},"vehicle_type_id":"4","last_reported":1727017673,"current_range_meters":25600,"station_id":"ce4bh692rcd13ifvqe90","pricing_plan_id":"cebpf4jnsgd1na2vs0mg"},{"bike_id":"3113b1eb-f7b7-4ac0-bd18-3aa32975f9e6","system_id":"levelo_inurba_marseille","lat":43.25238,"lon":5.38609,"is_reserved":false,"is_disabled":false,"rental_uris":{"android":"levelo://app?vid=3113b1eb-f7b7-4ac0-bd18-3aa32975f9e6","ios":"levelo://app?vid=3113b1eb-f7b7-4ac0-bd18-3aa32975f9e6"},"vehicle_type_id":"4","last_reported":1727017673,"current_range_meters":34800,"station_id":"","pricing_plan_id":"cebpf4jnsgd1na2vs0mg"},{"bike_id":"a6caf354-73be-4f92-abc1-8dc9107251be","system_id":"levelo_inurba_marseille","lat":43.2894,"lon":5.36397,"is_reserved":false,"is_disabled":false,"rental_uris":{"android":"levelo://app?vid=a6caf354-73be-4f92-abc1-8dc9107251be","ios":"levelo://app?vid=a6caf354-73be-4f92-abc1-8dc9107251be"},"vehicle_type_id":"4","last_reported":1727017673,"current_range_meters":8000,"station_id":"ce4bhc92rcd13ifvqetg","pricing_plan_id":"cebpf4jnsgd1na2vs0mg"},{"bike_id":"2347817f-e20e-4496-af0e-1f65e3ba6aef","system_id":"levelo_inurba_marseille","lat":43.32108,"lon":5.36777,"is_reserved":false,"is_disabled":false,"rental_uris":{"android":"levelo://app?vid=2347817f-e20e-4496-af0e-1f65e3ba6aef","ios":"levelo://app?vid=2347817f-e20e-4496-af0e-1f65e3ba6aef"},"vehicle_type_id":"4","last_reported":1727017673,"current_range_meters":37600,"station_id":"","pricing_plan_id":"cebpf4jnsgd1na2vs0mg"},{"bike_id":"e068eff7-e202-43d1-b6e0-cbf46a0a1832","system_id":"levelo_inurba_marseille","lat":43.25583,"lon":5.38229,"is_reserved":false,"is_disabled":false,"rental_uris":{"android":"levelo://app?vid=e068eff7-e202-43d1-b6e0-cbf46a0a1832","ios":"levelo://app?vid=e068eff7-e202-43d1-b6e0-cbf46a0a1832"},"vehicle_type_id":"4","last_reported":1727017673,"current_range_meters":12800,"station_id":"ce4bhih2rcd13ifvqfs0","pricing_plan_id":"cebpf4jnsgd1na2vs0mg"},{"bike_id":"2db69330-26c1-4a7a-b749-378b3ec252c4","system_id":"levelo_inurba_marseille","lat":43.24388,"lon":5.37051,"is_reserved":false,"is_disabled":false,"rental_uris":{"android":"levelo://app?vid=2db69330-26c1-4a7a-b749-378b3ec252c4","ios":"levelo://app?vid=2db69330-26c1-4a7a-b749-378b3ec252c4"},"vehicle_type_id":"4","last_reported":1727017673,"current_range_meters":38800,"station_id":"ce4bhhh2rcd13ifvqfk0","pricing_plan_id":"cebpf4jnsgd1na2vs0mg"},{"bike_id":"195b26cd-b72e-4196-a121-2b4d4f0e4ba6","system_id":"levelo_inurba_marseille","lat":43.23963,"lon":5.36627,"is_reserved":false,"is_disabled":false,"rental_uris":{"android":"levelo://app?vid=195b26cd-b72e-4196-a121-2b4d4f0e4ba6","ios":"levelo://app?vid=195b26cd-b72e-4196-a121-2b4d4f0e4ba6"},"vehicle_type_id":"4","last_reported":1727017673,"current_range_meters":9200,"station_id":"ce4bhi12rcd13ifvqfp0","pricing_plan_id":"cebpf4jnsgd1na2vs0mg"},{"bike_id":"84190f65-e2a6-47e8-9d29-6d2512919748","system_id":"levelo_inurba_marseille","lat":43.29255,"lon":5.40904,"is_reserved":false,"is_disabled":false,"rental_uris":{"android":"levelo://app?vid=84190f65-e2a6-47e8-9d29-6d2512919748","ios":"levelo://app?vid=84190f65-e2a6-47e8-9d29-6d2512919748"},"vehicle_type_id":"4","last_reported":1727017673,"current_range_meters":9600,"station_id":"ce4bh192rcd13ifvqdc0","pricing_plan_id":"cebpf4jnsgd1na2vs0mg"},{"bike_id":"5a5b3138-a3f0-4c29-ae65-d44214ec315c","system_id":"levelo_inurba_marseille","lat":43.295451,"lon":5.374468,"is_reserved":false,"is_disabled":false,"rental_uris":{"android":"levelo://app?vid=5a5b3138-a3f0-4c29-ae65-d44214ec315c","ios":"levelo://app?vid=5a5b3138-a3f0-4c29-ae65-d44214ec315c"},"vehicle_type_id":"4","last_reported":1727017673,"current_range_meters":2800,"station_id":"ce4bhlp2rcd13ifvqgjg","pricing_plan_id":"cebpf4jnsgd1na2vs0mg"},{"bike_id":"9b259c39-d6d2-4b4d-9323-f3c162cf931f","system_id":"levelo_inurba_marseille","lat":43.308939,"lon":5.396633,"is_reserved":false,"is_disabled":false,"rental_uris":{"android":"levelo://app?vid=9b259c39-d6d2-4b4d-9323-f3c162cf931f","ios":"levelo://app?vid=9b259c39-d6d2-4b4d-9323-f3c162cf931f"},"vehicle_type_id":"4","last_reported":1727017673,"current_range_meters":3600,"station_id":"ce4bh012rcd13ifvqcv0","pricing_plan_id":"cebpf4jnsgd1na2vs0mg"},{"bike_id":"c4bcf014-4437-41a6-9b29-08c16c0fc90d","system_id":"levelo_inurba_marseille","lat":43.281596,"lon":5.426438,"is_reserved":false,"is_disabled":false,"rental_uris":{"android":"levelo://app?vid=c4bcf014-4437-41a6-9b29-08c16c0fc90d","ios":"levelo://app?vid=c4bcf014-4437-41a6-9b29-08c16c0fc90d"},"vehicle_type_id":"4","last_reported":1727017673,"current_range_meters":37600,"station_id":"ce4bhnh2rcd13ifvqgug","pricing_plan_id":"cebpf4jnsgd1na2vs0mg"},{"bike_id":"86d5bda0-f6ff-4b2a-a73e-01368127581d","system_id":"levelo_inurba_marseille","lat":43.30086,"lon":5.39067,"is_reserved":false,"is_disabled":false,"rental_uris":{"android":"levelo://app?vid=86d5bda0-f6ff-4b2a-a73e-01368127581d","ios":"levelo://app?vid=86d5bda0-f6ff-4b2a-a73e-01368127581d"},"vehicle_type_id":"4","last_reported":1727017673,"current_range_meters":22800,"station_id":"ce4bh192rcd13ifvqdb0","pricing_plan_id":"cebpf4jnsgd1na2vs0mg"},{"bike_id":"c7749fc5-8e7e-4d58-b0aa-ab9b81bcc87f","system_id":"levelo_inurba_marseille","lat":43.28154,"lon":5.42637,"is_reserved":false,"is_disabled":false,"rental_uris":{"android":"levelo://app?vid=c7749fc5-8e7e-4d58-b0aa-ab9b81bcc87f","ios":"levelo://app?vid=c7749fc5-8e7e-4d58-b0aa-ab9b81bcc87f"},"vehicle_type_id":"4","last_reported":1727017673,"current_range_meters":13600,"station_id":"ce4bhnh2rcd13ifvqgug","pricing_plan_id":"cebpf4jnsgd1na2vs0mg"},{"bike_id":"dd3520b6-852f-424a-8818-a8880a52ef39","system_id":"levelo_inurba_marseille","lat":43.29219,"lon":5.37383,"is_reserved":false,"is_disabled":false,"rental_uris":{"android":"levelo://app?vid=dd3520b6-852f-424a-8818-a8880a52ef39","ios":"levelo://app?vid=dd3520b6-852f-424a-8818-a8880a52ef39"},"vehicle_type_id":"4","last_reported":1727017673,"current_range_meters":34000,"station_id":"","pricing_plan_id":"cebpf4jnsgd1na2vs0mg"},{"bike_id":"952fa600-8178-4dd7-b3d2-3df21493aa07","system_id":"levelo_inurba_marseille","lat":43.2756,"lon":5.3842,"is_reserved":false,"is_disabled":false,"rental_uris":{"android":"levelo://app?vid=952fa600-8178-4dd7-b3d2-3df21493aa07","ios":"levelo://app?vid=952fa600-8178-4dd7-b3d2-3df21493aa07"},"vehicle_type_id":"4","last_reported":1727017673,"current_range_meters":7200,"station_id":"ce4bhh92rcd13ifvqfi0","pricing_plan_id":"cebpf4jnsgd1na2vs0mg"},{"bike_id":"58963454-065c-449b-97c9-822cfade99d3","system_id":"levelo_inurba_marseille","lat":43.27499,"lon":5.42448,"is_reserved":false,"is_disabled":false,"rental_uris":{"android":"levelo://app?vid=58963454-065c-449b-97c9-822cfade99d3","ios":"levelo://app?vid=58963454-065c-449b-97c9-822cfade99d3"},"vehicle_type_id":"4","last_reported":1727017673,"current_range_meters":38800,"station_id":"ce4bhn92rcd13ifvqgrg","pricing_plan_id":"cebpf4jnsgd1na2vs0mg"},{"bike_id":"ad7a9849-6d03-4e0b-a41a-a4b8973b7704","system_id":"levelo_inurba_marseille","lat":43.2925,"lon":5.38343,"is_reserved":false,"is_disabled":false,"rental_uris":{"android":"levelo://app?vid=ad7a9849-6d03-4e0b-a41a-a4b8973b7704","ios":"levelo://app?vid=ad7a9849-6d03-4e0b-a41a-a4b8973b7704"},"vehicle_type_id":"4","last_reported":1727017673,"current_range_meters":16400,"station_id":"","pricing_plan_id":"cebpf4jnsgd1na2vs0mg"},{"bike_id":"eac0a18c-0b96-43ed-9556-44d25cceb72f","system_id":"levelo_inurba_marseille","lat":43.2827,"lon":5.37894,"is_reserved":false,"is_disabled":false,"rental_uris":{"android":"levelo://app?vid=eac0a18c-0b96-43ed-9556-44d25cceb72f","ios":"levelo://app?vid=eac0a18c-0b96-43ed-9556-44d25cceb72f"},"vehicle_type_id":"4","last_reported":1727017673,"current_range_meters":6000,"station_id":"ce4bhmp2rcd13ifvqgog","pricing_plan_id":"cebpf4jnsgd1na2vs0mg"},{"bike_id":"2bcd85d4-0b58-4368-be1f-fdbf76675a31","system_id":"levelo_inurba_marseille","lat":43.319,"lon":5.40531,"is_reserved":false,"is_disabled":false,"rental_uris":{"android":"levelo://app?vid=2bcd85d4-0b58-4368-be1f-fdbf76675a31","ios":"levelo://app?vid=2bcd85d4-0b58-4368-be1f-fdbf76675a31"},"vehicle_type_id":"4","last_reported":1727017673,"current_range_meters":31200,"station_id":"ce4bhq12rcd13ifvqhig","pricing_plan_id":"cebpf4jnsgd1na2vs0mg"},{"bike_id":"322a919d-239e-4028-a464-9e3d5851dbed","system_id":"levelo_inurba_marseille","lat":43.32368,"lon":5.38881,"is_reserved":false,"is_disabled":false,"rental_uris":{"android":"levelo://app?vid=322a919d-239e-4028-a464-9e3d5851dbed","ios":"levelo://app?vid=322a919d-239e-4028-a464-9e3d5851dbed"},"vehicle_type_id":"4","last_reported":1727017673,"current_range_meters":36800,"station_id":"ce4bhqp2rcd13ifvqhog","pricing_plan_id":"cebpf4jnsgd1na2vs0mg"},{"bike_id":"4772b107-2f18-495b-9190-24cad4cfb493","system_id":"levelo_inurba_marseille","lat":43.27732,"lon":5.41143,"is_reserved":false,"is_disabled":false,"rental_uris":{"android":"levelo://app?vid=4772b107-2f18-495b-9190-24cad4cfb493","ios":"levelo://app?vid=4772b107-2f18-495b-9190-24cad4cfb493"},"vehicle_type_id":"4","last_reported":1727017673,"current_range_meters":12000,"station_id":"","pricing_plan_id":"cebpf4jnsgd1na2vs0mg"},{"bike_id":"9d9e59c9-f739-42ee-86d1-07dff8d1c514","system_id":"levelo_inurba_marseille","lat":43.29811,"lon":5.40404,"is_reserved":false,"is_disabled":false,"rental_uris":{"android":"levelo://app?vid=9d9e59c9-f739-42ee-86d1-07dff8d1c514","ios":"levelo://app?vid=9d9e59c9-f739-42ee-86d1-07dff8d1c514"},"vehicle_type_id":"4","last_reported":1727017673,"current_range_meters":38800,"station_id":"ce4bh112rcd13ifvqd90","pricing_plan_id":"cebpf4jnsgd1na2vs0mg"},{"bike_id":"fb2cc9c7-f85e-4bd0-87bb-c1327768a04b","system_id":"levelo_inurba_marseille","lat":43.32554,"lon":5.41449,"is_reserved":false,"is_disabled":false,"rental_uris":{"android":"levelo://app?vid=fb2cc9c7-f85e-4bd0-87bb-c1327768a04b","ios":"levelo://app?vid=fb2cc9c7-f85e-4bd0-87bb-c1327768a04b"},"vehicle_type_id":"4","last_reported":1727017673,"current_range_meters":38800,"station_id":"ce4bhq92rcd13ifvqhkg","pricing_plan_id":"cebpf4jnsgd1na2vs0mg"},{"bike_id":"72510bef-b896-4a89-8864-16fa8c1ad575","system_id":"levelo_inurba_marseille","lat":43.34139,"lon":5.40903,"is_reserved":false,"is_disabled":false,"rental_uris":{"android":"levelo://app?vid=72510bef-b896-4a89-8864-16fa8c1ad575","ios":"levelo://app?vid=72510bef-b896-4a89-8864-16fa8c1ad575"},"vehicle_type_id":"4","last_reported":1727017673,"current_range_meters":24800,"station_id":"ce4bhqh2rcd13ifvqhlg","pricing_plan_id":"cebpf4jnsgd1na2vs0mg"},{"bike_id":"9ba96921-1e60-4420-b463-e7bc76deaa5b","system_id":"levelo_inurba_marseille","lat":43.32052,"lon":5.41557,"is_reserved":false,"is_disabled":false,"rental_uris":{"android":"levelo://app?vid=9ba96921-1e60-4420-b463-e7bc76deaa5b","ios":"levelo://app?vid=9ba96921-1e60-4420-b463-e7bc76deaa5b"},"vehicle_type_id":"4","last_reported":1727017673,"current_range_meters":8400,"station_id":"ce4bhq92rcd13ifvqhkg","pricing_plan_id":"cebpf4jnsgd1na2vs0mg"},{"bike_id":"cdf0418d-28a0-43e2-9a58-082340bc0607","system_id":"levelo_inurba_marseille","lat":43.27908,"lon":5.38007,"is_reserved":false,"is_disabled":false,"rental_uris":{"android":"levelo://app?vid=cdf0418d-28a0-43e2-9a58-082340bc0607","ios":"levelo://app?vid=cdf0418d-28a0-43e2-9a58-082340bc0607"},"vehicle_type_id":"4","last_reported":1727017673,"current_range_meters":27200,"station_id":"ce4bhf92rcd13ifvqf50","pricing_plan_id":"cebpf4jnsgd1na2vs0mg"},{"bike_id":"d2dba505-2fff-4622-8067-ccd92f090f76","system_id":"levelo_inurba_marseille","lat":43.28846,"lon":5.35851,"is_reserved":false,"is_disabled":false,"rental_uris":{"android":"levelo://app?vid=d2dba505-2fff-4622-8067-ccd92f090f76","ios":"levelo://app?vid=d2dba505-2fff-4622-8067-ccd92f090f76"},"vehicle_type_id":"4","last_reported":1727017673,"current_range_meters":38800,"station_id":"ce4bhb12rcd13ifvqem0","pricing_plan_id":"cebpf4jnsgd1na2vs0mg"},{"bike_id":"1520b651-f573-4a7b-943e-b3836bcb0180","system_id":"levelo_inurba_marseille","lat":43.295309,"lon":5.375081,"is_reserved":false,"is_disabled":false,"rental_uris":{"android":"levelo://app?vid=1520b651-f573-4a7b-943e-b3836bcb0180","ios":"levelo://app?vid=1520b651-f573-4a7b-943e-b3836bcb0180"},"vehicle_type_id":"4","last_reported":1727017673,"current_range_meters":28800,"station_id":"ce4bgkp2rcd13ifvqbmg","pricing_plan_id":"cebpf4jnsgd1na2vs0mg"},{"bike_id":"1ad204f0-6345-4595-bff6-7fd89e0b2a81","system_id":"levelo_inurba_marseille","lat":43.28252,"lon":5.35062,"is_reserved":false,"is_disabled":false,"rental_uris":{"android":"levelo://app?vid=1ad204f0-6345-4595-bff6-7fd89e0b2a81","ios":"levelo://app?vid=1ad204f0-6345-4595-bff6-7fd89e0b2a81"},"vehicle_type_id":"4","last_reported":1727017673,"current_range_meters":21600,"station_id":"","pricing_plan_id":"cebpf4jnsgd1na2vs0mg"},{"bike_id":"14f2dd79-b7db-4a9d-b094-76abfcb84b09","system_id":"levelo_inurba_marseille","lat":43.28154,"lon":5.4264,"is_reserved":false,"is_disabled":false,"rental_uris":{"android":"levelo://app?vid=14f2dd79-b7db-4a9d-b094-76abfcb84b09","ios":"levelo://app?vid=14f2dd79-b7db-4a9d-b094-76abfcb84b09"},"vehicle_type_id":"4","last_reported":1727017673,"current_range_meters":8400,"station_id":"ce4bhnh2rcd13ifvqgug","pricing_plan_id":"cebpf4jnsgd1na2vs0mg"},{"bike_id":"c7c696b0-3719-42bb-b9d6-988f7b83530b","system_id":"levelo_inurba_marseille","lat":43.28421,"lon":5.34971,"is_reserved":false,"is_disabled":false,"rental_uris":{"android":"levelo://app?vid=c7c696b0-3719-42bb-b9d6-988f7b83530b","ios":"levelo://app?vid=c7c696b0-3719-42bb-b9d6-988f7b83530b"},"vehicle_type_id":"4","last_reported":1727017673,"current_range_meters":28800,"station_id":"ce4bhbh2rcd13ifvqepg","pricing_plan_id":"cebpf4jnsgd1na2vs0mg"},{"bike_id":"6fc7574c-48ce-48b1-a3a7-9b2169a549bf","system_id":"levelo_inurba_marseille","lat":43.28259,"lon":5.35059,"is_reserved":false,"is_disabled":false,"rental_uris":{"android":"levelo://app?vid=6fc7574c-48ce-48b1-a3a7-9b2169a549bf","ios":"levelo://app?vid=6fc7574c-48ce-48b1-a3a7-9b2169a549bf"},"vehicle_type_id":"4","last_reported":1727017673,"current_range_meters":34800,"station_id":"ce4bhbp2rcd13ifvqerg","pricing_plan_id":"cebpf4jnsgd1na2vs0mg"},{"bike_id":"8a765b5b-ac1f-499e-a81e-b4b4a384ecff","system_id":"levelo_inurba_marseille","lat":43.27212,"lon":5.39179,"is_reserved":false,"is_disabled":false,"rental_uris":{"android":"levelo://app?vid=8a765b5b-ac1f-499e-a81e-b4b4a384ecff","ios":"levelo://app?vid=8a765b5b-ac1f-499e-a81e-b4b4a384ecff"},"vehicle_type_id":"4","last_reported":1727017673,"current_range_meters":38800,"station_id":"ce4bhhp2rcd13ifvqfm0","pricing_plan_id":"cebpf4jnsgd1na2vs0mg"},{"bike_id":"73587f42-7ef3-414b-93bf-1d592a50947d","system_id":"levelo_inurba_marseille","lat":43.33029,"lon":5.39044,"is_reserved":false,"is_disabled":false,"rental_uris":{"android":"levelo://app?vid=73587f42-7ef3-414b-93bf-1d592a50947d","ios":"levelo://app?vid=73587f42-7ef3-414b-93bf-1d592a50947d"},"vehicle_type_id":"4","last_reported":1727017673,"current_range_meters":28800,"station_id":"ce4bhr92rcd13ifvqhrg","pricing_plan_id":"cebpf4jnsgd1na2vs0mg"},{"bike_id":"e3ec9160-1b15-4ebc-b219-c8d171c5cc67","system_id":"levelo_inurba_marseille","lat":43.32476,"lon":5.36576,"is_reserved":false,"is_disabled":false,"rental_uris":{"android":"levelo://app?vid=e3ec9160-1b15-4ebc-b219-c8d171c5cc67","ios":"levelo://app?vid=e3ec9160-1b15-4ebc-b219-c8d171c5cc67"},"vehicle_type_id":"4","last_reported":1727017673,"current_range_meters":23200,"station_id":"ce4bhs12rcd13ifvqhvg","pricing_plan_id":"cebpf4jnsgd1na2vs0mg"},{"bike_id":"8c829806-ceda-40c6-b97e-5814875dcf20","system_id":"levelo_inurba_marseille","lat":43.32484,"lon":5.36567,"is_reserved":false,"is_disabled":false,"rental_uris":{"android":"levelo://app?vid=8c829806-ceda-40c6-b97e-5814875dcf20","ios":"levelo://app?vid=8c829806-ceda-40c6-b97e-5814875dcf20"},"vehicle_type_id":"4","last_reported":1727017673,"current_range_meters":39200,"station_id":"ce4bhs12rcd13ifvqhvg","pricing_plan_id":"cebpf4jnsgd1na2vs0mg"},