{"last_updated":1746824962,"ttl":60,"version":"2.2","data":{"bikes":[{"bike_id":"88a3726c-3269-4211-8311-1b0025b09269","system_id":"levelo_inurba_marseille","lat":43.29259,"lon":5.3832,"is_reserved":false,"is_disabled":false,"rental_uris":{"android":"levelo://app?vid=88a3726c-3269-4211-8311-1b0025b09269","ios":"levelo://app?vid=88a3726c-3269-4211-8311-1b0025b09269"},"vehicle_type_id":"4","last_reported":1746824962,"current_range_meters":3200,"station_id":"","pricing_plan_id":"cebpf4jnsgd1na2vs0mg"},{"bike_id":"25a96692-2520-4afa-9aa1-9349c25bb692","system_id":"levelo_inurba_marseille","lat":43.305478,"lon":5.365292,"is_reserved":false,"is_disabled":true,"rental_uris":{"android":"levelo://app?vid=25a96692-2520-4afa-9aa1-9349c25bb692","ios":"levelo://app?vid=25a96692-2520-4afa-9aa1-9349c25bb692"},"vehicle_type_id":"4","last_reported":1746824962,"current_range_meters":4000,"station_id":"ce4bgs12rcd13ifvqcag","pricing_plan_id":"cebpf4jnsgd1na2vs0mg"},{"bike_id":"3c6d0c37-471a-4ce7-b166-52edc6a87b8b","system_id":"levelo_inurba_marseille","lat":43.262287,"lon":5.40449,"is_reserved":false,"is_disabled":true,"rental_uris":{"android":"levelo://app?vid=3c6d0c37-471a-4ce7-b166-52edc6a87b8b","ios":"levelo://app?vid=3c6d0c37-471a-4ce7-b166-52edc6a87b8b"},"vehicle_type_id":"4","last_reported":1746824962,"current_range_meters":4400,"station_id":"ce4bhmh2rcd13ifvqgmg","pricing_plan_id":"cebpf4jnsgd1na2vs0mg"},{"bike_id":"09dc8841-dc77-4c49-b42b-cebc2cec6bcd","system_id":"levelo_inurba_marseille","lat":43.31715,"lon":5.43686,"is_reserved":false,"is_disabled":false,"rental_uris":{"android":"levelo://app?vid=09dc8841-dc77-4c49-b42b-cebc2cec6bcd","ios":"levelo://app?vid=09dc8841-dc77-4c49-b42b-cebc2cec6bcd"},"vehicle_type_id":"4","last_reported":1746824962,"current_range_meters":4800,"station_id":"ce4bhp92rcd13ifvqhcg","pricing_plan_id":"cebpf4jnsgd1na2vs0mg"},{"bike_id":"4b4dd204-61be-4776-a5f0-f057dae52dc7","system_id":"levelo_inurba_marseille","lat":43.304217,"lon":5.41294,"is_reserved":false,"is_disabled":false,"rental_uris":{"android":"levelo://app?vid=4b4dd204-61be-4776-a5f0-f057dae52dc7","ios":"levelo://app?vid=4b4dd204-61be-4776-a5f0-f057dae52dc7"},"vehicle_type_id":"4","last_reported":1746824962,"current_range_meters":5600,"station_id":"ce4bhop2rcd13ifvqh8g","pricing_plan_id":"cebpf4jnsgd1na2vs0mg"},{"bike_id":"5ef9c87e-d345-4f11-b0b5-68191ebd1ab6","system_id":"levelo_inurba_marseille","lat":43.24547,"lon":5.3952,"is_reserved":false,"is_disabled":false,"rental_uris":{"android":"levelo://app?vid=5ef9c87e-d345-4f11-b0b5-68191ebd1ab6","ios":"levelo://app?vid=5ef9c87e-d345-4f11-b0b5-68191ebd1ab6"},"vehicle_type_id":"4","last_reported":1746824962,"current_range_meters":5600,"station_id":"ce4bhlp2rcd13ifvqgjg","pricing_plan_id":"cebpf4jnsgd1na2vs0mg"},{"bike_id":"25f08cec-7c6f-4012-b0f9-6b498657e6de","system_id":"levelo_inurba_marseille","lat":43.30138,"lon":5.39843,"is_reserved":false,"is_disabled":false,"rental_uris":{"android":"levelo://app?vid=25f08cec-7c6f-4012-b0f9-6b498657e6de","ios":"levelo://app?vid=25f08cec-7c6f-4012-b0f9-6b498657e6de"},"vehicle_type_id":"4","last_reported":1746824962,"current_range_meters":4800,"station_id":"ce4bh0h2rcd13ifvqd40","pricing_plan_id":"cebpf4jnsgd1na2vs0mg"},{"bike_id":"a1e561dd-742e-4c9d-a75e-c7c54e5b667b","system_id":"levelo_inurba_marseille","lat":43.29892,"lon":5.38906,"is_reserved":false,"is_disabled":false,"rental_uris":{"android":"levelo://app?vid=a1e561dd-742e-4c9d-a75e-c7c54e5b667b","ios":"levelo://app?vid=a1e561dd-742e-4c9d-a75e-c7c54e5b667b"},"vehicle_type_id":"4","last_reported":1746824962,"current_range_meters":6000,"station_id":"ce4bh392rcd13ifvqdl0","pricing_plan_id":"cebpf4jnsgd1na2vs0mg"},{"bike_id":"dce24418-2aec-47dd-9bc8-5d7f1d3bf6af","system_id":"levelo_inurba_marseille","lat":43.24547,"lon":5.39531,"is_reserved":false,"is_disabled":false,"rental_uris":{"android":"levelo://app?vid=dce24418-2aec-47dd-9bc8-5d7f1d3bf6af","ios":"levelo://app?vid=dce24418-2aec-47dd-9bc8-5d7f1d3bf6af"},"vehicle_type_id":"4","last_reported":1746824962,"current_range_meters":6000,"station_id":"ce4bhlp2rcd13ifvqgjg","pricing_plan_id":"cebpf4jnsgd1na2vs0mg"},{"bike_id":"ce891d78-268d-4657-895e-e7d14c9c13da","system_id":"levelo_inurba_marseille","lat":43.25579,"lon":5.3824,"is_reserved":false,"is_disabled":false,"rental_uris":{"android":"levelo://app?vid=ce891d78-268d-4657-895e-e7d14c9c13da","ios":"levelo://app?vid=ce891d78-268d-4657-895e-e7d14c9c13da"},"vehicle_type_id":"4","last_reported":1746824962,"current_range_meters":6800,"station_id":"ce4bhih2rcd13ifvqfs0","pricing_plan_id":"cebpf4jnsgd1na2vs0mg"},{"bike_id":"f76d0e06-a922-41bb-9df5-d0a5c7d3f9fc","system_id":"levelo_inurba_marseille","lat":43.2893,"lon":5.3839,"is_reserved":false,"is_disabled":true,"rental_uris":{"android":"levelo://app?vid=f76d0e06-a922-41bb-9df5-d0a5c7d3f9fc","ios":"levelo://app?vid=f76d0e06-a922-41bb-9df5-d0a5c7d3f9fc"},"vehicle_type_id":"4","last_reported":1746824962,"current_range_meters":6800,"station_id":"ce4bh612rcd13ifvqe6g","pricing_plan_id":"cebpf4jnsgd1na2vs0mg"},{"bike_id":"f673a50d-776a-4d4f-8bc2-0f75017ffb52","system_id":"levelo_inurba_marseille","lat":43.284499,"lon":5.358347,"is_reserved":false,"is_disabled":false,"rental_uris":{"android":"levelo://app?vid=f673a50d-776a-4d4f-8bc2-0f75017ffb52","ios":"levelo://app?vid=f673a50d-776a-4d4f-8bc2-0f75017ffb52"},"vehicle_type_id":"4","last_reported":1746824962,"current_range_meters":6800,"station_id":"ce4bhah2rcd13ifvqei0","pricing_plan_id":"cebpf4jnsgd1na2vs0mg"},{"bike_id":"9edee753-d63e-4902-aff1-ef373b2aa6ac","system_id":"levelo_inurba_marseille","lat":43.30624,"lon":5.37221,"is_reserved":false,"is_disabled":false,"rental_uris":{"android":"levelo://app?vid=9edee753-d63e-4902-aff1-ef373b2aa6ac","ios":"levelo://app?vid=9edee753-d63e-4902-aff1-ef373b2aa6ac"},"vehicle_type_id":"4","last_reported":1746824962,"current_range_meters":6800,"station_id":"ce4bgqh2rcd13ifvqc4g","pricing_plan_id":"cebpf4jnsgd1na2vs0mg"},{"bike_id":"ce60d88c-00ee-498d-97b8-2e92858a1416","system_id":"levelo_inurba_marseille","lat":43.31713,"lon":5.43701,"is_reserved":false,"is_disabled":false,"rental_uris":{"android":"levelo://app?vid=ce60d88c-00ee-498d-97b8-2e92858a1416","ios":"levelo://app?vid=ce60d88c-00ee-498d-97b8-2e92858a1416"},"vehicle_type_id":"4","last_reported":1746824962,"current_range_meters":6800,"station_id":"ce4bhp92rcd13ifvqhcg","pricing_plan_id":"cebpf4jnsgd1na2vs0mg"},{"bike_id":"ba32ee3a-6a49-437c-90fb-7756461a61f4","system_id":"levelo_inurba_marseille","lat":43.24168,"lon":5.36397,"is_reserved":false,"is_disabled":false,"rental_uris":{"android":"levelo://app?vid=ba32ee3a-6a49-437c-90fb-7756461a61f4","ios":"levelo://app?vid=ba32ee3a-6a49-437c-90fb-7756461a61f4"},"vehicle_type_id":"4","last_reported":1746824962,"current_range_meters":7200,"station_id":"cpo36qri1sfpv3e86is0","pricing_plan_id":"cebpf4jnsgd1na2vs0mg"},{"bike_id":"283c096d-9775-40df-9ef5-3ff56b9146cb","system_id":"levelo_inurba_marseille","lat":43.22927,"lon":5.35369,"is_reserved":false,"is_disabled":true,"rental_uris":{"android":"levelo://app?vid=283c096d-9775-40df-9ef5-3ff56b9146cb","ios":"levelo://app?vid=283c096d-9775-40df-9ef5-3ff56b9146cb"},"vehicle_type_id":"4","last_reported":1746824962,"current_range_meters":7200,"station_id":"cpo3532slgdg3j2ikp40","pricing_plan_id":"cebpf4jnsgd1na2vs0mg"},{"bike_id":"eabf6de9-ac45-4b34-b2cd-1041883d4522","system_id":"levelo_inurba_marseille","lat":43.28153,"lon":5.426353,"is_reserved":false,"is_disabled":false,"rental_uris":{"android":"levelo://app?vid=eabf6de9-ac45-4b34-b2cd-1041883d4522","ios":"levelo://app?vid=eabf6de9-ac45-4b34-b2cd-1041883d4522"},"vehicle_type_id":"4","last_reported":1746824962,"current_range_meters":7200,"station_id":"ce4bhnh2rcd13ifvqgug","pricing_plan_id":"cebpf4jnsgd1na2vs0mg"},{"bike_id":"0f5ca589-0ef7-428d-94ec-f0fc8b76ceb4","system_id":"levelo_inurba_marseille","lat":43.28163,"lon":5.42637,"is_reserved":false,"is_disabled":false,"rental_uris":{"android":"levelo://app?vid=0f5ca589-0ef7-428d-94ec-f0fc8b76ceb4","ios":"levelo://app?vid=0f5ca589-0ef7-428d-94ec-f0fc8b76ceb4"},"vehicle_type_id":"4","last_reported":1746824962,"current_range_meters":8000,"station_id":"ce4bhnh2rcd13ifvqgug","pricing_plan_id":"cebpf4jnsgd1na2vs0mg"},{"bike_id":"caf9033d-5f00-49c3-b1ee-1328b62008dc","system_id":"levelo_inurba_marseille","lat":43.33609,"lon":5.42837,"is_reserved":false,"is_disabled":false,"rental_uris":{"android":"levelo://app?vid=caf9033d-5f00-49c3-b1ee-1328b62008dc","ios":"levelo://app?vid=caf9033d-5f00-49c3-b1ee-1328b62008dc"},"vehicle_type_id":"4","last_reported":1746824962,"current_range_meters":8000,"station_id":"","pricing_plan_id":"cebpf4jnsgd1na2vs0mg"},{"bike_id":"31a2d2c8-f240-4ce3-9c3c-76d38878780b","system_id":"levelo_inurba_marseille","lat":43.305,"lon":5.37278,"is_reserved":false,"is_disabled":false,"rental_uris":{"android":"levelo://app?vid=31a2d2c8-f240-4ce3-9c3c-76d38878780b","ios":"levelo://app?vid=31a2d2c8-f240-4ce3-9c3c-76d38878780b"},"vehicle_type_id":"4","last_reported":1746824962,"current_range_meters":8000,"station_id":"","pricing_plan_id":"cebpf4jnsgd1na2vs0mg"},{"bike_id":"f1b07d7d-b31a-4788-aefb-994afd600837","system_id":"levelo_inurba_marseille","lat":43.29368,"lon":5.37077,"is_reserved":false,"is_disabled":false,"rental_uris":{"android":"levelo://app?vid=f1b07d7d-b31a-4788-aefb-994afd600837","ios":"levelo://app?vid=f1b07d7d-b31a-4788-aefb-994afd600837"},"vehicle_type_id":"4","last_reported":1746824962,"current_range_meters":8000,"station_id":"","pricing_plan_id":"cebpf4jnsgd1na2vs0mg"},{"bike_id":"730113d7-e72b-4423-a22e-1832e56b04d0","system_id":"levelo_inurba_marseille","lat":43.29418,"lon":5.38701,"is_reserved":false,"is_disabled":true,"rental_uris":{"android":"levelo://app?vid=730113d7-e72b-4423-a22e-1832e56b04d0","ios":"levelo://app?vid=730113d7-e72b-4423-a22e-1832e56b04d0"},"vehicle_type_id":"4","last_reported":1746824962,"current_range_meters":8400,"station_id":"","pricing_plan_id":"cebpf4jnsgd1na2vs0mg"},{"bike_id":"41b1a32b-2cab-4ffc-b477-33d19a4dd033","system_id":"levelo_inurba_marseille","lat":43.24555,"lon":5.39527,"is_reserved":false,"is_disabled":false,"rental_uris":{"android":"levelo://app?vid=41b1a32b-2cab-4ffc-b477-33d19a4dd033","ios":"levelo://app?vid=41b1a32b-2cab-4ffc-b477-33d19a4dd033"},"vehicle_type_id":"4","last_reported":1746824962,"current_range_meters":8400,"station_id":"ce4bhlp2rcd13ifvqgjg","pricing_plan_id":"cebpf4jnsgd1na2vs0mg"},{"bike_id":"c885d7fb-f38c-4d2a-b65f-ee0dd56d91f3","system_id":"levelo_inurba_marseille","lat":43.3136,"lon":5.38499,"is_reserved":false,"is_disabled":false,"rental_uris":{"android":"levelo://app?vid=c885d7fb-f38c-4d2a-b65f-ee0dd56d91f3","ios":"levelo://app?vid=c885d7fb-f38c-4d2a-b65f-ee0dd56d91f3"},"vehicle_type_id":"4","last_reported":1746824962,"current_range_meters":8400,"station_id":"ce4bgt92rcd13ifvqcf0","pricing_plan_id":"cebpf4jnsgd1na2vs0mg"},{"bike_id":"57d211e1-4799-476c-bef1-16a74a9078be","system_id":"levelo_inurba_marseille","lat":43.21753,"lon":5.34601,"is_reserved":false,"is_disabled":false,"rental_uris":{"android":"levelo://app?vid=57d211e1-4799-476c-bef1-16a74a9078be","ios":"levelo://app?vid=57d211e1-4799-476c-bef1-16a74a9078be"},"vehicle_type_id":"4","last_reported":1746824962,"current_range_meters":8400,"station_id":"st_cvj6r9ubvosntc0bgbag","pricing_plan_id":"cebpf4jnsgd1na2vs0mg"},{"bike_id":"12981b10-b3cb-4811-9395-08d8c47c5b6a","system_id":"levelo_inurba_marseille","lat":43.26565,"lon":5.39017,"is_reserved":false,"is_disabled":false,"rental_uris":{"android":"levelo://app?vid=12981b10-b3cb-4811-9395-08d8c47c5b6a","ios":"levelo://app?vid=12981b10-b3cb-4811-9395-08d8c47c5b6a"},"vehicle_type_id":"4","last_reported":1746824962,"current_range_meters":8800,"station_id":"ce4bhe12rcd13ifvqf30","pricing_plan_id":"cebpf4jnsgd1na2vs0mg"},{"bike_id":"025297fa-319c-4b3c-bfc9-76013a2734fc","system_id":"levelo_inurba_marseille","lat":43.2559,"lon":5.38242,"is_reserved":false,"is_disabled":false,"rental_uris":{"android":"levelo://app?vid=025297fa-319c-4b3c-bfc9-76013a2734fc","ios":"levelo://app?vid=025297fa-319c-4b3c-bfc9-76013a2734fc"},"vehicle_type_id":"4","last_reported":1746824962,"current_range_meters":8800,"station_id":"ce4bhih2rcd13ifvqfs0","pricing_plan_id":"cebpf4jnsgd1na2vs0mg"},{"bike_id":"a5035683-e922-4659-b77f-9b07031bc84e","system_id":"levelo_inurba_marseille","lat":43.21754,"lon":5.34602,"is_reserved":false,"is_disabled":true,"rental_uris":{"android":"levelo://app?vid=a5035683-e922-4659-b77f-9b07031bc84e","ios":"levelo://app?vid=a5035683-e922-4659-b77f-9b07031bc84e"},"vehicle_type_id":"4","last_reported":1746824962,"current_range_meters":8800,"station_id":"st_cvj6r9ubvosntc0bgbag","pricing_plan_id":"cebpf4jnsgd1na2vs0mg"},{"bike_id":"7bbddab9-ce58-49c5-8696-be4254399f31","system_id":"levelo_inurba_marseille","lat":43.29272,"lon":5.36845,"is_reserved":false,"is_disabled":true,"rental_uris":{"android":"levelo://app?vid=7bbddab9-ce58-49c5-8696-be4254399f31","ios":"levelo://app?vid=7bbddab9-ce58-49c5-8696-be4254399f31"},"vehicle_type_id":"4","last_reported":1746824962,"current_range_meters":9200,"station_id":"ce4bhbp2rcd13ifvqesg","pricing_plan_id":"cebpf4jnsgd1na2vs0mg"},{"bike_id":"ce972654-4647-4640-9be3-f6d267f881ec","system_id":"levelo_inurba_marseille","lat":43.27621,"lon":5.36108,"is_reserved":false,"is_disabled":false,"rental_uris":{"android":"levelo://app?vid=ce972654-4647-4640-9be3-f6d267f881ec","ios":"levelo://app?vid=ce972654-4647-4640-9be3-f6d267f881ec"},"vehicle_type_id":"4","last_reported":1746824962,"current_range_meters":8800,"station_id":"ce4bgj92rcd13ifvqbe0","pricing_plan_id":"cebpf4jnsgd1na2vs0mg"},{"bike_id":"1771c0e2-1fe6-49ff-8a23-2166fe76f883","system_id":"levelo_inurba_marseille","lat":43.231872,"lon":5.399747,"is_reserved":false,"is_disabled":false,"rental_uris":{"android":"levelo://app?vid=1771c0e2-1fe6-49ff-8a23-2166fe76f883","ios":"levelo://app?vid=1771c0e2-1fe6-49ff-8a23-2166fe76f883"},"vehicle_type_id":"4","last_reported":1746824962,"current_range_meters":8800,"station_id":"ce4bhn12rcd13ifvqgqg","pricing_plan_id":"cebpf4jnsgd1na2vs0mg"},{"bike_id":"ac67dd66-7261-42fc-b194-79c9696c6e53","system_id":"levelo_inurba_marseille","lat":43.27909,"lon":5.39582,"is_reserved":false,"is_disabled":false,"rental_uris":{"android":"levelo://app?vid=ac67dd66-7261-42fc-b194-79c9696c6e53","ios":"levelo://app?vid=ac67dd66-7261-42fc-b194-79c9696c6e53"},"vehicle_type_id":"4","last_reported":1746824962,"current_range_meters":8800,"station_id":"ce4bhf92rcd13ifvqf40","pricing_plan_id":"cebpf4jnsgd1na2vs0mg"},{"bike_id":"b0c54ead-2c9a-4d45-904a-5e1b9abf7338","system_id":"levelo_inurba_marseille","lat":43.27919,"lon":5.44079,"is_reserved":false,"is_disabled":false,"rental_uris":{"android":"levelo://app?vid=b0c54ead-2c9a-4d45-904a-5e1b9abf7338","ios":"levelo://app?vid=b0c54ead-2c9a-4d45-904a-5e1b9abf7338"},"vehicle_type_id":"4","last_reported":1746824962,"current_range_meters":9200,"station_id":"","pricing_plan_id":"cebpf4jnsgd1na2vs0mg"},{"bike_id":"791cf852-cc2a-4381-a46c-d7afe4ceb6de","system_id":"levelo_inurba_marseille","lat":43.29003,"lon":5.35611,"is_reserved":false,"is_disabled":true,"rental_uris":{"android":"levelo://app?vid=791cf852-cc2a-4381-a46c-d7afe4ceb6de","ios":"levelo://app?vid=791cf852-cc2a-4381-a46c-d7afe4ceb6de"},"vehicle_type_id":"4","last_reported":1746824962,"current_range_meters":9200,"station_id":"ce4bhb92rcd13ifvqen0","pricing_plan_id":"cebpf4jnsgd1na2vs0mg"},{"bike_id":"cfb33b76-ff38-465f-96b4-8908aeb6f4a0","system_id":"levelo_inurba_marseille","lat":43.27374,"lon":5.36257,"is_reserved":false,"is_disabled":false,"rental_uris":{"android":"levelo://app?vid=cfb33b76-ff38-465f-96b4-8908aeb6f4a0","ios":"levelo://app?vid=cfb33b76-ff38-465f-96b4-8908aeb6f4a0"},"vehicle_type_id":"4","last_reported":1746824962,"current_range_meters":9200,"station_id":"ce4bhbh2rcd13ifvqeo0","pricing_plan_id":"cebpf4jnsgd1na2vs0mg"},{"bike_id":"6b02c14e-bdde-4cc9-8460-44fbe1ee127c","system_id":"levelo_inurba_marseille","lat":43.27068,"lon":5.42277,"is_reserved":false,"is_disabled":false,"rental_uris":{"android":"levelo://app?vid=6b02c14e-bdde-4cc9-8460-44fbe1ee127c","ios":"levelo://app?vid=6b02c14e-bdde-4cc9-8460-44fbe1ee127c"},"vehicle_type_id":"4","last_reported":1746824962,"current_range_meters":9200,"station_id":"ce4bhk92rcd13ifvqgb0","pricing_plan_id":"cebpf4jnsgd1na2vs0mg"},{"bike_id":"1fbc8e44-acc8-4621-b0e8-ade175557c3c","system_id":"levelo_inurba_marseille","lat":43.2439,"lon":5.37064,"is_reserved":false,"is_disabled":false,"rental_uris":{"android":"levelo://app?vid=1fbc8e44-acc8-4621-b0e8-ade175557c3c","ios":"levelo://app?vid=1fbc8e44-acc8-4621-b0e8-ade175557c3c"},"vehicle_type_id":"4","last_reported":1746824962,"current_range_meters":9600,"station_id":"ce4bhhh2rcd13ifvqfk0","pricing_plan_id":"cebpf4jnsgd1na2vs0mg"},{"bike_id":"3c7670ff-3628-42b4-8ea8-664d4fa357dd","system_id":"levelo_inurba_marseille","lat":43.27982,"lon":5.41673,"is_reserved":false,"is_disabled":false,"rental_uris":{"android":"levelo://app?vid=3c7670ff-3628-42b4-8ea8-664d4fa357dd","ios":"levelo://app?vid=3c7670ff-3628-42b4-8ea8-664d4fa357dd"},"vehicle_type_id":"4","last_reported":1746824962,"current_range_meters":9600,"station_id":"ce4bho12rcd13ifvqh1g","pricing_plan_id":"cebpf4jnsgd1na2vs0mg"},{"bike_id":"750853c3-5c7a-41ac-b4b9-21d83e878f6f","system_id":"levelo_inurba_marseille","lat":43.27694,"lon":5.4197,"is_reserved":false,"is_disabled":false,"rental_uris":{"android":"levelo://app?vid=750853c3-5c7a-41ac-b4b9-21d83e878f6f","ios":"levelo://app?vid=750853c3-5c7a-41ac-b4b9-21d83e878f6f"},"vehicle_type_id":"4","last_reported":1746824962,"current_range_meters":10000,"station_id":"","pricing_plan_id":"cebpf4jnsgd1na2vs0mg"},{"bike_id":"ea7dd22b-f0cf-4f8f-a49f-73a60cc00e17","system_id":"levelo_inurba_marseille","lat":43.30354,"lon":5.41881,"is_reserved":false,"is_disabled":false,"rental_uris":{"android":"levelo://app?vid=ea7dd22b-f0cf-4f8f-a49f-73a60cc00e17","ios":"levelo://app?vid=ea7dd22b-f0cf-4f8f-a49f-73a60cc00e17"},"vehicle_type_id":"4","last_reported":1746824962,"current_range_meters":10000,"station_id":"ce4bhop2rcd13ifvqh7g","pricing_plan_id":"cebpf4jnsgd1na2vs0mg"},{"bike_id":"f8bd5ba1-0844-4c6d-9b78-f958f1313745","system_id":"levelo_inurba_marseille","lat":43.29371,"lon":5.42848,"is_reserved":false,"is_disabled":false,"rental_uris":{"android":"levelo://app?vid=f8bd5ba1-0844-4c6d-9b78-f958f1313745","ios":"levelo://app?vid=f8bd5ba1-0844-4c6d-9b78-f958f1313745"},"vehicle_type_id":"4","last_reported":1746824962,"current_range_meters":10000,"station_id":"","pricing_plan_id":"cebpf4jnsgd1na2vs0mg"},{"bike_id":"64f6ff76-4e5f-4b7b-a3af-26f5103ce708","system_id":"levelo_inurba_marseille","lat":43.28602,"lon":5.37062,"is_reserved":false,"is_disabled":false,"rental_uris":{"android":"levelo://app?vid=64f6ff76-4e5f-4b7b-a3af-26f5103ce708","ios":"levelo://app?vid=64f6ff76-4e5f-4b7b-a3af-26f5103ce708"},"vehicle_type_id":"4","last_reported":1746824962,"current_range_meters":10000,"station_id":"ce4bht12rcd13ifvqi60","pricing_plan_id":"cebpf4jnsgd1na2vs0mg"},{"bike_id":"480eb84f-b70d-4099-9393-b28a1807439f","system_id":"levelo_inurba_marseille","lat":43.30529,"lon":5.38434,"is_reserved":false,"is_disabled":false,"rental_uris":{"android":"levelo://app?vid=480eb84f-b70d-4099-9393-b28a1807439f","ios":"levelo://app?vid=480eb84f-b70d-4099-9393-b28a1807439f"},"vehicle_type_id":"4","last_reported":1746824962,"current_range_meters":10000,"station_id":"ce4bgg92rcd13ifvqb30","pricing_plan_id":"cebpf4jnsgd1na2vs0mg"},{"bike_id":"06f708f0-b8aa-4274-b09f-88b716ca4430","system_id":"levelo_inurba_marseille","lat":43.29279,"lon":5.40119,"is_reserved":false,"is_disabled":false,"rental_uris":{"android":"levelo://app?vid=06f708f0-b8aa-4274-b09f-88b716ca4430","ios":"levelo://app?vid=06f708f0-b8aa-4274-b09f-88b716ca4430"},"vehicle_type_id":"4","last_reported":1746824962,"current_range_meters":10800,"station_id":"ce4bh312rcd13ifvqdk0","pricing_plan_id":"cebpf4jnsgd1na2vs0mg"},{"bike_id":"044478cb-8194-4092-b984-4fc9c042ef68","system_id":"levelo_inurba_marseille","lat":43.28782,"lon":5.46491,"is_reserved":false,"is_disabled":false,"rental_uris":{"android":"levelo://app?vid=044478cb-8194-4092-b984-4fc9c042ef68","ios":"levelo://app?vid=044478cb-8194-4092-b984-4fc9c042ef68"},"vehicle_type_id":"4","last_reported":1746824962,"current_range_meters":10800,"station_id":"","pricing_plan_id":"cebpf4jnsgd1na2vs0mg"},{"bike_id":"8cb987f9-049d-46ae-9b26-cc9ab0572bed","system_id":"levelo_inurba_marseille","lat":43.278,"lon":5.4072,"is_reserved":false,"is_disabled":true,"rental_uris":{"android":"levelo://app?vid=8cb987f9-049d-46ae-9b26-cc9ab0572bed","ios":"levelo://app?vid=8cb987f9-049d-46ae-9b26-cc9ab0572bed"},"vehicle_type_id":"4","last_reported":1746824962,"current_range_meters":10800,"station_id":"ce4bhnh2rcd13ifvqgtg","pricing_plan_id":"cebpf4jnsgd1na2vs0mg"},{"bike_id":"30c6726c-0599-4062-aafb-881e21633b5b","system_id":"levelo_inurba_marseille","lat":43.2439,"lon":5.37065,"is_reserved":false,"is_disabled":false,"rental_uris":{"android":"levelo://app?vid=30c6726c-0599-4062-aafb-881e21633b5b","ios":"levelo://app?vid=30c6726c-0599-4062-aafb-881e21633b5b"},"vehicle_type_id":"4","last_reported":1746824962,"current_range_meters":10800,"station_id":"ce4bhhh2rcd13ifvqfk0","pricing_plan_id":"cebpf4jnsgd1na2vs0mg"},{"bike_id":"c56343a3-89e7-4a27-83c7-e62fb2b33684","system_id":"levelo_inurba_marseille","lat":43.31184,"lon":5.38706,"is_reserved":false,"is_disabled":false,"rental_uris":{"android":"levelo://app?vid=c56343a3-89e7-4a27-83c7-e62fb2b33684","ios":"levelo://app?vid=c56343a3-89e7-4a27-83c7-e62fb2b33684"},"vehicle_type_id":"4","last_reported":1746824962,"current_range_meters":10800,"station_id":"ce4bgv12rcd13ifvqcp0","pricing_plan_id":"cebpf4jnsgd1na2vs0mg"},{"bike_id":"9cb56601-d547-4065-8776-c68a4c56cba5","system_id":"levelo_inurba_marseille","lat":43.29254,"lon":5.38449,"is_reserved":false,"is_disabled":false,"rental_uris":{"android":"levelo://app?vid=9cb56601-d547-4065-8776-c68a4c56cba5","ios":"levelo://app?vid=9cb56601-d547-4065-8776-c68a4c56cba5"},"vehicle_type_id":"4","last_reported":1746824962,"current_range_meters":11200,"station_id":"ce4bh692rcd13ifvqea0","pricing_plan_id":"cebpf4jnsgd1na2vs0mg"},{"bike_id":"0e94b3ba-a569-4656-b55b-62a2ed244ccf","system_id":"levelo_inurba_marseille","lat":43.30605,"lon":5.37227,"is_reserved":false,"is_disabled":false,"rental_uris":{"android":"levelo://app?vid=0e94b3ba-a569-4656-b55b-62a2ed244ccf","ios":"levelo://app?vid=0e94b3ba-a569-4656-b55b-62a2ed244ccf"},"vehicle_type_id":"4","last_reported":1746824962,"current_range_meters":11600,"station_id":"ce4bgqh2rcd13ifvqc4g","pricing_plan_id":"cebpf4jnsgd1na2vs0mg"},{"bike_id":"879897b7-0155-4680-af41-f86487d86945","system_id":"levelo_inurba_marseille","lat":43.30934,"lon":5.40144,"is_reserved":false,"is_disabled":false,"rental_uris":{"android":"levelo://app?vid=879897b7-0155-4680-af41-f86487d86945","ios":"levelo://app?vid=879897b7-0155-4680-af41-f86487d86945"},"vehicle_type_id":"4","last_reported":1746824962,"current_range_meters":11600,"station_id":"ce4bgvp2rcd13ifvqct0","pricing_plan_id":"cebpf4jnsgd1na2vs0mg"},{"bike_id":"c23795ea-7683-4dec-afd8-7fe5848041e3","system_id":"levelo_inurba_marseille","lat":43.24159,"lon":5.3973,"is_reserved":false,"is_disabled":false,"rental_uris":{"android":"levelo://app?vid=c23795ea-7683-4dec-afd8-7fe5848041e3","ios":"levelo://app?vid=c23795ea-7683-4dec-afd8-7fe5848041e3"},"vehicle_type_id":"4","last_reported":1746824962,"current_range_meters":11600,"station_id":"ce4bhn12rcd13ifvqgpg","pricing_plan_id":"cebpf4jnsgd1na2vs0mg"},{"bike_id":"2d9cf84f-80e6-4273-bdb7-a817d129565a","system_id":"levelo_inurba_marseille","lat":43.28076,"lon":5.39658,"is_reserved":false,"is_disabled":false,"rental_uris":{"android":"levelo://app?vid=2d9cf84f-80e6-4273-bdb7-a817d129565a","ios":"levelo://app?vid=2d9cf84f-80e6-4273-bdb7-a817d129565a"},"vehicle_type_id":"4","last_reported":1746824962,"current_range_meters":12000,"station_id":"ce4bho12rcd13ifvqh2g","pricing_plan_id":"cebpf4jnsgd1na2vs0mg"},{"bike_id":"79c8d684-a425-4aab-8ca4-59e521e72013","system_id":"levelo_inurba_marseille","lat":43.2484,"lon":5.37428,"is_reserved":false,"is_disabled":false,"rental_uris":{"android":"levelo://app?vid=79c8d684-a425-4aab-8ca4-59e521e72013","ios":"levelo://app?vid=79c8d684-a425-4aab-8ca4-59e521e72013"},"vehicle_type_id":"4","last_reported":1746824962,"current_range_meters":12000,"station_id":"","pricing_plan_id":"cebpf4jnsgd1na2vs0mg"},{"bike_id":"16b1f4de-6901-48aa-ac85-b06556d0739d","system_id":"levelo_inurba_marseille","lat":43.27663,"lon":5.38952,"is_reserved":false,"is_disabled":false,"rental_uris":{"android":"levelo://app?vid=16b1f4de-6901-48aa-ac85-b06556d0739d","ios":"levelo://app?vid=16b1f4de-6901-48aa-ac85-b06556d0739d"},"vehicle_type_id":"4","last_reported":1746824962,"current_range_meters":11600,"station_id":"ce4bhi12rcd13ifvqfo0","pricing_plan_id":"cebpf4jnsgd1na2vs0mg"},{"bike_id":"9319b99d-2325-4f39-8ac2-f7bd744620e2","system_id":"levelo_inurba_marseille","lat":43.27612,"lon":5.36108,"is_reserved":false,"is_disabled":false,"rental_uris":{"android":"levelo://app?vid=9319b99d-2325-4f39-8ac2-f7bd744620e2","ios":"levelo://app?vid=9319b99d-2325-4f39-8ac2-f7bd744620e2"},"vehicle_type_id":"4","last_reported":1746824962,"current_range_meters":12000,"station_id":"ce4bgj92rcd13ifvqbe0","pricing_plan_id":"cebpf4jnsgd1na2vs0mg"},{"bike_id":"79576561-3f76-4402-b698-49ef6fa48a3a","system_id":"levelo_inurba_marseille","lat":43.21746,"lon":5.34604,"is_reserved":false,"is_disabled":false,"rental_uris":{"android":"levelo://app?vid=79576561-3f76-4402-b698-49ef6fa48a3a","ios":"levelo://app?vid=79576561-3f76-4402-b698-49ef6fa48a3a"},"vehicle_type_id":"4","last_reported":1746824962,"current_range_meters":12000,"station_id":"st_cvj6r9ubvosntc0bgbag","pricing_plan_id":"cebpf4jnsgd1na2vs0mg"},{"bike_id":"a8c1ffe0-7651-4611-ad5c-fd98a111d67c","system_id":"levelo_inurba_marseille","lat":43.2849,"lon":5.38581,"is_reserved":false,"is_disabled":false,"rental_uris":{"android":"levelo://app?vid=a8c1ffe0-7651-4611-ad5c-fd98a111d67c","ios":"levelo://app?vid=a8c1ffe0-7651-4611-ad5c-fd98a111d67c"},"vehicle_type_id":"4","last_reported":1746824962,"current_range_meters":12400,"station_id":"ce4bh8p2rcd13ifvqeb0","pricing_plan_id":"cebpf4jnsgd1na2vs0mg"},{"bike_id":"c676892e-af1b-4c28-9bf3-d30ade3ae6b5","system_id":"levelo_inurba_marseille","lat":43.27073,"lon":5.42279,"is_reserved":false,"is_disabled":false,"rental_uris":{"android":"levelo://app?vid=c676892e-af1b-4c28-9bf3-d30ade3ae6b5","ios":"levelo://app?vid=c676892e-af1b-4c28-9bf3-d30ade3ae6b5"},"vehicle_type_id":"4","last_reported":1746824962,"current_range_meters":12400,"station_id":"ce4bhk92rcd13ifvqgb0","pricing_plan_id":"cebpf4jnsgd1na2vs0mg"},{"bike_id":"86b478b2-1cf2-4e07-8a5c-76710e912a41","system_id":"levelo_inurba_marseille","lat":43.291183,"lon":5.366983,"is_reserved":false,"is_disabled":false,"rental_uris":{"android":"levelo://app?vid=86b478b2-1cf2-4e07-8a5c-76710e912a41","ios":"levelo://app?vid=86b478b2-1cf2-4e07-8a5c-76710e912a41"},"vehicle_type_id":"4","last_reported":1746824962,"current_range_meters":12400,"station_id":"","pricing_plan_id":"cebpf4jnsgd1na2vs0mg"},{"bike_id":"aff681a2-6a80-4101-8eac-af942b2b94f5","system_id":"levelo_inurba_marseille","lat":43.29931,"lon":5.36543,"is_reserved":false,"is_disabled":false,"rental_uris":{"android":"levelo://app?vid=aff681a2-6a80-4101-8eac-af942b2b94f5","ios":"levelo://app?vid=aff681a2-6a80-4101-8eac-af942b2b94f5"},"vehicle_type_id":"4","last_reported":1746824962,"current_range_meters":12400,"station_id":"ce4bgm92rcd13ifvqbr0","pricing_plan_id":"cebpf4jnsgd1na2vs0mg"},{"bike_id":"597beefa-8311-4d68-b0f3-88cd0a14dd08","system_id":"levelo_inurba_marseille","lat":43.27567,"lon":5.39558,"is_reserved":false,"is_disabled":false,"rental_uris":{"android":"levelo://app?vid=597beefa-8311-4d68-b0f3-88cd0a14dd08","ios":"levelo://app?vid=597beefa-8311-4d68-b0f3-88cd0a14dd08"},"vehicle_type_id":"4","last_reported":1746824962,"current_range_meters":12400,"station_id":"","pricing_plan_id":"cebpf4jnsgd1na2vs0mg"},{"bike_id":"9ec01453-8e12-4a32-ba8a-b4be53eb13ff","system_id":"levelo_inurba_marseille","lat":43.292688,"lon":5.384378,"is_reserved":false,"is_disabled":false,"rental_uris":{"android":"levelo://app?vid=9ec01453-8e12-4a32-ba8a-b4be53eb13ff","ios":"levelo://app?vid=9ec01453-8e12-4a32-ba8a-b4be53eb13ff"},"vehicle_type_id":"4","last_reported":1746824962,"current_range_meters":12400,"station_id":"ce4bh692rcd13ifvqea0","pricing_plan_id":"cebpf4jnsgd1na2vs0mg"},{"bike_id":"5c4ab821-f0aa-4163-90c6-49f9b62101db","system_id":"levelo_inurba_marseille","lat":43.31225,"lon":5.36849,"is_reserved":false,"is_disabled":false,"rental_uris":{"android":"levelo://app?vid=5c4ab821-f0aa-4163-90c6-49f9b62101db","ios":"levelo://app?vid=5c4ab821-f0aa-4163-90c6-49f9b62101db"},"vehicle_type_id":"4","last_reported":1746824962,"current_range_meters":12800,"station_id":"ce4bgl92rcd13ifvqbq0","pricing_plan_id":"cebpf4jnsgd1na2vs0mg"},{"bike_id":"b59ae723-7cd7-4abf-a2ff-04175dd95524","system_id":"levelo_inurba_marseille","lat":43.25872,"lon":5.39889,"is_reserved":false,"is_disabled":false,"rental_uris":{"android":"levelo://app?vid=b59ae723-7cd7-4abf-a2ff-04175dd95524","ios":"levelo://app?vid=b59ae723-7cd7-4abf-a2ff-04175dd95524"},"vehicle_type_id":"4","last_reported":1746824962,"current_range_meters":12800,"station_id":"ce4bhl92rcd13ifvqghg","pricing_plan_id":"cebpf4jnsgd1na2vs0mg"},{"bike_id":"688d7c08-3b6e-415c-8990-b857e2498ae0","system_id":"levelo_inurba_marseille","lat":43.30374,"lon":5.42479,"is_reserved":false,"is_disabled":false,"rental_uris":{"android":"levelo://app?vid=688d7c08-3b6e-415c-8990-b857e2498ae0","ios":"levelo://app?vid=688d7c08-3b6e-415c-8990-b857e2498ae0"},"vehicle_type_id":"4","last_reported":1746824962,"current_range_meters":12800,"station_id":"ce4bhoh2rcd13ifvqh6g","pricing_plan_id":"cebpf4jnsgd1na2vs0mg"},{"bike_id":"d388abd5-c0e6-48dd-a7fc-1d6206199050","system_id":"levelo_inurba_marseille","lat":43.34106,"lon":5.36058,"is_reserved":false,"is_disabled":false,"rental_uris":{"android":"levelo://app?vid=d388abd5-c0e6-48dd-a7fc-1d6206199050","ios":"levelo://app?vid=d388abd5-c0e6-48dd-a7fc-1d6206199050"},"vehicle_type_id":"4","last_reported":1746824962,"current_range_meters":12800,"station_id":"","pricing_plan_id":"cebpf4jnsgd1na2vs0mg"},{"bike_id":"cc433f3a-1b0e-44cd-830d-0cbbff81b789","system_id":"levelo_inurba_marseille","lat":43.29033,"lon":5.38137,"is_reserved":false,"is_disabled":false,"rental_uris":{"android":"levelo://app?vid=cc433f3a-1b0e-44cd-830d-0cbbff81b789","ios":"levelo://app?vid=cc433f3a-1b0e-44cd-830d-0cbbff81b789"},"vehicle_type_id":"4","last_reported":1746824962,"current_range_meters":12800,"station_id":"ce4bh4p2rcd13ifvqe1g","pricing_plan_id":"cebpf4jnsgd1na2vs0mg"},{"bike_id":"95315af4-63b1-44b7-8aa7-3c0a9bd13771","system_id":"levelo_inurba_marseille","lat":43.24662,"lon":5.381685,"is_reserved":false,"is_disabled":false,"rental_uris":{"android":"levelo://app?vid=95315af4-63b1-44b7-8aa7-3c0a9bd13771","ios":"levelo://app?vid=95315af4-63b1-44b7-8aa7-3c0a9bd13771"},"vehicle_type_id":"4","last_reported":1746824962,"current_range_meters":12400,"station_id":"ce4bhih2rcd13ifvqfr0","pricing_plan_id":"cebpf4jnsgd1na2vs0mg"},{"bike_id":"5070bbf2-ec6f-43e9-a0b5-d1e484a904f0","system_id":"levelo_inurba_marseille","lat":43.26552,"lon":5.37301,"is_reserved":false,"is_disabled":true,"rental_uris":{"android":"levelo://app?vid=5070bbf2-ec6f-43e9-a0b5-d1e484a904f0","ios":"levelo://app?vid=5070bbf2-ec6f-43e9-a0b5-d1e484a904f0"},"vehicle_type_id":"4","last_reported":1746824962,"current_range_meters":12800,"station_id":"ce4bhg12rcd13ifvqf70","pricing_plan_id":"cebpf4jnsgd1na2vs0mg"},{"bike_id":"27b1f416-ff24-403f-9ef4-19ce6f0454b2","system_id":"levelo_inurba_marseille","lat":43.299522,"lon":5.385081,"is_reserved":false,"is_disabled":false,"rental_uris":{"android":"levelo://app?vid=27b1f416-ff24-403f-9ef4-19ce6f0454b2","ios":"levelo://app?vid=27b1f416-ff24-403f-9ef4-19ce6f0454b2"},"vehicle_type_id":"4","last_reported":1746824962,"current_range_meters":12800,"station_id":"ce4bgj92rcd13ifvqbd0","pricing_plan_id":"cebpf4jnsgd1na2vs0mg"},{"bike_id":"1745bdb6-c7db-49d1-af32-c80f487167fa","system_id":"levelo_inurba_marseille","lat":43.31387,"lon":5.38496,"is_reserved":false,"is_disabled":false,"rental_uris":{"android":"levelo://app?vid=1745bdb6-c7db-49d1-af32-c80f487167fa","ios":"levelo://app?vid=1745bdb6-c7db-49d1-af32-c80f487167fa"},"vehicle_type_id":"4","last_reported":1746824962,"current_range_meters":12800,"station_id":"ce4bgt92rcd13ifvqcf0","pricing_plan_id":"cebpf4jnsgd1na2vs0mg"},{"bike_id":"09e1dc14-26ac-446e-add0-27edb09cfb56","system_id":"levelo_inurba_marseille","lat":43.29277,"lon":5.36848,"is_reserved":false,"is_disabled":false,"rental_uris":{"android":"levelo://app?vid=09e1dc14-26ac-446e-add0-27edb09cfb56","ios":"levelo://app?vid=09e1dc14-26ac-446e-add0-27edb09cfb56"},"vehicle_type_id":"4","last_reported":1746824962,"current_range_meters":13600,"station_id":"","pricing_plan_id":"cebpf4jnsgd1na2vs0mg"},{"bike_id":"8dfe763f-2b56-4348-b766-788076babf15","system_id":"levelo_inurba_marseille","lat":43.30779,"lon":5.37645,"is_reserved":false,"is_disabled":false,"rental_uris":{"android":"levelo://app?vid=8dfe763f-2b56-4348-b766-788076babf15","ios":"levelo://app?vid=8dfe763f-2b56-4348-b766-788076babf15"},"vehicle_type_id":"4","last_reported":1746824962,"current_range_meters":14000,"station_id":"ce4bgv92rcd13ifvqcq0","pricing_plan_id":"cebpf4jnsgd1na2vs0mg"},{"bike_id":"2bcd659a-611c-43e2-89ef-f7e699246180","system_id":"levelo_inurba_marseille","lat":43.302462,"lon":5.400486,"is_reserved":false,"is_disabled":true,"rental_uris":{"android":"levelo://app?vid=2bcd659a-611c-43e2-89ef-f7e699246180","ios":"levelo://app?vid=2bcd659a-611c-43e2-89ef-f7e699246180"},"vehicle_type_id":"4","last_reported":1746824962,"current_range_meters":14000,"station_id":"ce4bgvh2rcd13ifvqcs0","pricing_plan_id":"cebpf4jnsgd1na2vs0mg"},{"bike_id":"4a8e30fc-5789-42ab-8bde-f9c49f2dc59c","system_id":"levelo_inurba_marseille","lat":43.30558,"lon":5.36532,"is_reserved":false,"is_disabled":false,"rental_uris":{"android":"levelo://app?vid=4a8e30fc-5789-42ab-8bde-f9c49f2dc59c","ios":"levelo://app?vid=4a8e30fc-5789-42ab-8bde-f9c49f2dc59c"},"vehicle_type_id":"4","last_reported":1746824962,"current_range_meters":14000,"station_id":"ce4bgs12rcd13ifvqcag","pricing_plan_id":"cebpf4jnsgd1na2vs0mg"},{"bike_id":"77b4c94f-dda1-4005-b9c8-77d1b0dfb484","system_id":"levelo_inurba_marseille","lat":43.29259,"lon":5.38443,"is_reserved":false,"is_disabled":false,"rental_uris":{"android":"levelo://app?vid=77b4c94f-dda1-4005-b9c8-77d1b0dfb484","ios":"levelo://app?vid=77b4c94f-dda1-4005-b9c8-77d1b0dfb484"},"vehicle_type_id":"4","last_reported":1746824962,"current_range_meters":14000,"station_id":"ce4bh692rcd13ifvqea0","pricing_plan_id":"cebpf4jnsgd1na2vs0mg"},{"bike_id":"3ceec9f0-828f-4751-9e8d-b9bbc7ea2a2d","system_id":"levelo_inurba_marseille","lat":43.27419,"lon":5.39407,"is_reserved":false,"is_disabled":false,"rental_uris":{"android":"levelo://app?vid=3ceec9f0-828f-4751-9e8d-b9bbc7ea2a2d","ios":"levelo://app?vid=3ceec9f0-828f-4751-9e8d-b9bbc7ea2a2d"},"vehicle_type_id":"4","last_reported":1746824962,"current_range_meters":14400,"station_id":"ce4bhdp2rcd13ifvqf20","pricing_plan_id":"cebpf4jnsgd1na2vs0mg"},{"bike_id":"29b99ee3-82b0-4cb0-a9d6-8993ba8fcb2f","system_id":"levelo_inurba_marseille","lat":43.24647,"lon":5.38902,"is_reserved":false,"is_disabled":false,"rental_uris":{"android":"levelo://app?vid=29b99ee3-82b0-4cb0-a9d6-8993ba8fcb2f","ios":"levelo://app?vid=29b99ee3-82b0-4cb0-a9d6-8993ba8fcb2f"},"vehicle_type_id":"4","last_reported":1746824962,"current_range_meters":14400,"station_id":"ce4bhg12rcd13ifvqf60","pricing_plan_id":"cebpf4jnsgd1na2vs0mg"},{"bike_id":"2041c8c3-296b-4092-ae28-e9a3c41c6994","system_id":"levelo_inurba_marseille","lat":43.30133,"lon":5.39868,"is_reserved":false,"is_disabled":false,"rental_uris":{"android":"levelo://app?vid=2041c8c3-296b-4092-ae28-e9a3c41c6994","ios":"levelo://app?vid=2041c8c3-296b-4092-ae28-e9a3c41c6994"},"vehicle_type_id":"4","last_reported":1746824962,"current_range_meters":14400,"station_id":"ce4bh0h2rcd13ifvqd40","pricing_plan_id":"cebpf4jnsgd1na2vs0mg"},{"bike_id":"f8d6cfe2-aa64-4533-bbac-6a99a526d709","system_id":"levelo_inurba_marseille","lat":43.29934,"lon":5.3655,"is_reserved":false,"is_disabled":false,"rental_uris":{"android":"levelo://app?vid=f8d6cfe2-aa64-4533-bbac-6a99a526d709","ios":"levelo://app?vid=f8d6cfe2-aa64-4533-bbac-6a99a526d709"},"vehicle_type_id":"4","last_reported":1746824962,"current_range_meters":14400,"station_id":"ce4bgm92rcd13ifvqbr0","pricing_plan_id":"cebpf4jnsgd1na2vs0mg"},{"bike_id":"425a71c2-3497-48ea-abb4-541b2f2a7c98","system_id":"levelo_inurba_marseille","lat":43.24679,"lon":5.38154,"is_reserved":false,"is_disabled":false,"rental_uris":{"android":"levelo://app?vid=425a71c2-3497-48ea-abb4-541b2f2a7c98","ios":"levelo://app?vid=425a71c2-3497-48ea-abb4-541b2f2a7c98"},"vehicle_type_id":"4","last_reported":1746824962,"current_range_meters":14400,"station_id":"ce4bhih2rcd13ifvqfr0","pricing_plan_id":"cebpf4jnsgd1na2vs0mg"},{"bike_id":"87fdb96d-b86f-4f00-8890-408bdc409c7b","system_id":"levelo_inurba_marseille","lat":43.282807,"lon":5.385332,"is_reserved":false,"is_disabled":false,"rental_uris":{"android":"levelo://app?vid=87fdb96d-b86f-4f00-8890-408bdc409c7b","ios":"levelo://app?vid=87fdb96d-b86f-4f00-8890-408bdc409c7b"},"vehicle_type_id":"4","last_reported":1746824962,"current_range_meters":14400,"station_id":"ce4bhi12rcd13ifvqfq0","pricing_plan_id":"cebpf4jnsgd1na2vs0mg"},{"bike_id":"22c00256-9290-40f9-92b3-b75af66e727e","system_id":"levelo_inurba_marseille","lat":43.30888,"lon":5.39642,"is_reserved":false,"is_disabled":false,"rental_uris":{"android":"levelo://app?vid=22c00256-9290-40f9-92b3-b75af66e727e","ios":"levelo://app?vid=22c00256-9290-40f9-92b3-b75af66e727e"},"vehicle_type_id":"4","last_reported":1746824962,"current_range_meters":14400,"station_id":"ce4bh012rcd13ifvqcv0","pricing_plan_id":"cebpf4jnsgd1na2vs0mg"},{"bike_id":"ead2ec5c-12e4-432d-be08-f92fe4e4390a","system_id":"levelo_inurba_marseille","lat":43.2925,"lon":5.38443,"is_reserved":false,"is_disabled":false,"rental_uris":{"android":"levelo://app?vid=ead2ec5c-12e4-432d-be08-f92fe4e4390a","ios":"levelo://app?vid=ead2ec5c-12e4-432d-be08-f92fe4e4390a"},"vehicle_type_id":"4","last_reported":1746824962,"current_range_meters":14800,"station_id":"ce4bh692rcd13ifvqea0","pricing_plan_id":"cebpf4jnsgd1na2vs0mg"},{"bike_id":"95429b73-38e8-4bc3-a087-09ba128e3a4a","system_id":"levelo_inurba_marseille","lat":43.29788,"lon":5.39337,"is_reserved":false,"is_disabled":false,"rental_uris":{"android":"levelo://app?vid=95429b73-38e8-4bc3-a087-09ba128e3a4a","ios":"levelo://app?vid=95429b73-38e8-4bc3-a087-09ba128e3a4a"},"vehicle_type_id":"4","last_reported":1746824962,"current_range_meters":14400,"station_id":"chh1huq6cuj3fo74tm60","pricing_plan_id":"cebpf4jnsgd1na2vs0mg"},{"bike_id":"b8ea2ad5-fdd3-4164-89a1-16dee4a82bf0","system_id":"levelo_inurba_marseille","lat":43.31716,"lon":5.37738,"is_reserved":false,"is_disabled":false,"rental_uris":{"android":"levelo://app?vid=b8ea2ad5-fdd3-4164-89a1-16dee4a82bf0","ios":"levelo://app?vid=b8ea2ad5-fdd3-4164-89a1-16dee4a82bf0"},"vehicle_type_id":"4","last_reported":1746824962,"current_range_meters":14800,"station_id":"ce4bgth2rcd13ifvqch0","pricing_plan_id":"cebpf4jnsgd1na2vs0mg"},{"bike_id":"35a8516b-240a-4df8-a3a1-35d4da354b60","system_id":"levelo_inurba_marseille","lat":43.23967,"lon":5.36628,"is_reserved":false,"is_disabled":false,"rental_uris":{"android":"levelo://app?vid=35a8516b-240a-4df8-a3a1-35d4da354b60","ios":"levelo://app?vid=35a8516b-240a-4df8-a3a1-35d4da354b60"},"vehicle_type_id":"4","last_reported":1746824962,"current_range_meters":14800,"station_id":"ce4bhi12rcd13ifvqfp0","pricing_plan_id":"cebpf4jnsgd1na2vs0mg"},{"bike_id":"f1c7a456-d705-477a-b1e6-88d53834d2f1","system_id":"levelo_inurba_marseille","lat":43.31723,"lon":5.437,"is_reserved":false,"is_disabled":true,"rental_uris":{"android":"levelo://app?vid=f1c7a456-d705-477a-b1e6-88d53834d2f1","ios":"levelo://app?vid=f1c7a456-d705-477a-b1e6-88d53834d2f1"},"vehicle_type_id":"4","last_reported":1746824962,"current_range_meters":15200,"station_id":"ce4bhp92rcd13ifvqhcg","pricing_plan_id":"cebpf4jnsgd1na2vs0mg"},{"bike_id":"8e9b878a-f9eb-4c55-9b28-d83e22a0f9bf","system_id":"levelo_inurba_marseille","lat":43.28356,"lon":5.38113,"is_reserved":false,"is_disabled":false,"rental_uris":{"android":"levelo://app?vid=8e9b878a-f9eb-4c55-9b28-d83e22a0f9bf","ios":"levelo://app?vid=8e9b878a-f9eb-4c55-9b28-d83e22a0f9bf"},"vehicle_type_id":"4","last_reported":1746824962,"current_range_meters":15200,"station_id":"ce4bh412rcd13ifvqdr0","pricing_plan_id":"cebpf4jnsgd1na2vs0mg"},{"bike_id":"817a70c1-e035-4c4b-b166-7b2a511d6f4e","system_id":"levelo_inurba_marseille","lat":43.25491,"lon":5.37645,"is_reserved":false,"is_disabled":false,"rental_uris":{"android":"levelo://app?vid=817a70c1-e035-4c4b-b166-7b2a511d6f4e","ios":"levelo://app?vid=817a70c1-e035-4c4b-b166-7b2a511d6f4e"},"vehicle_type_id":"4","last_reported":1746824962,"current_range_meters":15200,"station_id":"ce4bhh12rcd13ifvqff0","pricing_plan_id":"cebpf4jnsgd1na2vs0mg"},{"bike_id":"08c04ff9-e615-4d87-ba3e-6b0e2342cce5","system_id":"levelo_inurba_marseille","lat":43.29614,"lon":5.3675,"is_reserved":false,"is_disabled":true,"rental_uris":{"android":"levelo://app?vid=08c04ff9-e615-4d87-ba3e-6b0e2342cce5","ios":"levelo://app?vid=08c04ff9-e615-4d87-ba3e-6b0e2342cce5"},"vehicle_type_id":"4","last_reported":1746824962,"current_range_meters":15200,"station_id":"ce4bgph2rcd13ifvqc2g","pricing_plan_id":"cebpf4jnsgd1na2vs0mg"},{"bike_id":"105746f3-88e1-42a4-9e69-7ebb7a04724d","system_id":"levelo_inurba_marseille","lat":43.30087,"lon":5.39079,"is_reserved":false,"is_disabled":false,"rental_uris":{"android":"levelo://app?vid=105746f3-88e1-42a4-9e69-7ebb7a04724d","ios":"levelo://app?vid=105746f3-88e1-42a4-9e69-7ebb7a04724d"},"vehicle_type_id":"4","last_reported":1746824962,"current_range_meters":15200,"station_id":"ce4bh192rcd13ifvqdb0","pricing_plan_id":"cebpf4jnsgd1na2vs0mg"},{"bike_id":"db8c1879-26e2-4a00-9cbb-93ad67cd435c","system_id":"levelo_inurba_marseille","lat":43.2997,"lon":5.38495,"is_reserved":false,"is_disabled":false,"rental_uris":{"android":"levelo://app?vid=db8c1879-26e2-4a00-9cbb-93ad67cd435c","ios":"levelo://app?vid=db8c1879-26e2-4a00-9cbb-93ad67cd435c"},"vehicle_type_id":"4","last_reported":1746824962,"current_range_meters":16000,"station_id":"ce4bgj92rcd13ifvqbd0","pricing_plan_id":"cebpf4jnsgd1na2vs0mg"},{"bike_id":"6e24abe9-ff49-40a5-bfac-cd5aacf6ebea","system_id":"levelo_inurba_marseille","lat":43.22926,"lon":5.35382,"is_reserved":false,"is_disabled":false,"rental_uris":{"android":"levelo://app?vid=6e24abe9-ff49-40a5-bfac-cd5aacf6ebea","ios":"levelo://app?vid=6e24abe9-ff49-40a5-bfac-cd5aacf6ebea"},"vehicle_type_id":"4","last_reported":1746824962,"current_range_meters":16000,"station_id":"cpo3532slgdg3j2ikp40","pricing_plan_id":"cebpf4jnsgd1na2vs0mg"},{"bike_id":"a04abe7e-b462-4918-91dc-8fde571ab7c9","system_id":"levelo_inurba_marseille","lat":43.30594,"lon":5.37228,"is_reserved":false,"is_disabled":false,"rental_uris":{"android":"levelo://app?vid=a04abe7e-b462-4918-91dc-8fde571ab7c9","ios":"levelo://app?vid=a04abe7e-b462-4918-91dc-8fde571ab7c9"},"vehicle_type_id":"4","last_reported":1746824962,"current_range_meters":16000,"station_id":"ce4bgqh2rcd13ifvqc4g","pricing_plan_id":"cebpf4jnsgd1na2vs0mg"},{"bike_id":"cf6bc856-5840-4cc7-87f8-ebcb25a380e4","system_id":"levelo_inurba_marseille","lat":43.25585,"lon":5.38237,"is_reserved":false,"is_disabled":false,"rental_uris":{"android":"levelo://app?vid=cf6bc856-5840-4cc7-87f8-ebcb25a380e4","ios":"levelo://app?vid=cf6bc856-5840-4cc7-87f8-ebcb25a380e4"},"vehicle_type_id":"4","last_reported":1746824962,"current_range_meters":16000,"station_id":"ce4bhih2rcd13ifvqfs0","pricing_plan_id":"cebpf4jnsgd1na2vs0mg"},{"bike_id":"c5bf6457-7a00-4d62-9165-cd5ce63d9661","system_id":"levelo_inurba_marseille","lat":43.24392,"lon":5.37059,"is_reserved":false,"is_disabled":false,"rental_uris":{"android":"levelo://app?vid=c5bf6457-7a00-4d62-9165-cd5ce63d9661","ios":"levelo://app?vid=c5bf6457-7a00-4d62-9165-cd5ce63d9661"},"vehicle_type_id":"4","last_reported":1746824962,"current_range_meters":16000,"station_id":"ce4bhhh2rcd13ifvqfk0","pricing_plan_id":"cebpf4jnsgd1na2vs0mg"},{"bike_id":"d6c7cf98-1084-47e2-8e53-b505f7933f0e","system_id":"levelo_inurba_marseille","lat":43.2175,"lon":5.34603,"is_reserved":false,"is_disabled":false,"rental_uris":{"android":"levelo://app?vid=d6c7cf98-1084-47e2-8e53-b505f7933f0e","ios":"levelo://app?vid=d6c7cf98-1084-47e2-8e53-b505f7933f0e"},"vehicle_type_id":"4","last_reported":1746824962,"current_range_meters":16000,"station_id":"st_cvj6r9ubvosntc0bgbag","pricing_plan_id":"cebpf4jnsgd1na2vs0mg"},{"bike_id":"df88130e-2691-433e-9130-77224db4c915","system_id":"levelo_inurba_marseille","lat":43.30641,"lon":5.4009,"is_reserved":false,"is_disabled":false,"rental_uris":{"android":"levelo://app?vid=df88130e-2691-433e-9130-77224db4c915","ios":"levelo://app?vid=df88130e-2691-433e-9130-77224db4c915"},"vehicle_type_id":"4","last_reported":1746824962,"current_range_meters":15200,"station_id":"ce4bh112rcd13ifvqda0","pricing_plan_id":"cebpf4jnsgd1na2vs0mg"},{"bike_id":"4394d8dc-144c-4ff9-9bac-443ce52989f7","system_id":"levelo_inurba_marseille","lat":43.24812,"lon":5.37445,"is_reserved":false,"is_disabled":false,"rental_uris":{"android":"levelo://app?vid=4394d8dc-144c-4ff9-9bac-443ce52989f7","ios":"levelo://app?vid=4394d8dc-144c-4ff9-9bac-443ce52989f7"},"vehicle_type_id":"4","last_reported":1746824962,"current_range_meters":16000,"station_id":"ce4bhgh2rcd13ifvqfb0","pricing_plan_id":"cebpf4jnsgd1na2vs0mg"},{"bike_id":"234ab207-9973-470b-b5ad-183e262c04aa","system_id":"levelo_inurba_marseille","lat":43.28709,"lon":5.37943,"is_reserved":false,"is_disabled":false,"rental_uris":{"android":"levelo://app?vid=234ab207-9973-470b-b5ad-183e262c04aa","ios":"levelo://app?vid=234ab207-9973-470b-b5ad-183e262c04aa"},"vehicle_type_id":"4","last_reported":1746824962,"current_range_meters":16000,"station_id":"ce4bh9p2rcd13ifvqec0","pricing_plan_id":"cebpf4jnsgd1na2vs0mg"},{"bike_id":"aa49e83d-db7b-4153-aba6-ae78b16384dc","system_id":"levelo_inurba_marseille","lat":43.26565,"lon":5.3902,"is_reserved":false,"is_disabled":false,"rental_uris":{"android":"levelo://app?vid=aa49e83d-db7b-4153-aba6-ae78b16384dc","ios":"levelo://app?vid=aa49e83d-db7b-4153-aba6-ae78b16384dc"},"vehicle_type_id":"4","last_reported":1746824962,"current_range_meters":16400,"station_id":"ce4bhe12rcd13ifvqf30","pricing_plan_id":"cebpf4jnsgd1na2vs0mg"},{"bike_id":"26c4cd85-b375-4132-8f53-93656adb5365","system_id":"levelo_inurba_marseille","lat":43.2926,"lon":5.38436,"is_reserved":false,"is_disabled":true,"rental_uris":{"android":"levelo://app?vid=26c4cd85-b375-4132-8f53-93656adb5365","ios":"levelo://app?vid=26c4cd85-b375-4132-8f53-93656adb5365"},"vehicle_type_id":"4","last_reported":1746824962,"current_range_meters":16400,"station_id":"ce4bh692rcd13ifvqea0","pricing_plan_id":"cebpf4jnsgd1na2vs0mg"},{"bike_id":"abccbbda-6f4e-4274-8113-43d8186b2045","system_id":"levelo_inurba_marseille","lat":43.2175,"lon":5.34603,"is_reserved":false,"is_disabled":false,"rental_uris":{"android":"levelo://app?vid=abccbbda-6f4e-4274-8113-43d8186b2045","ios":"levelo://app?vid=abccbbda-6f4e-4274-8113-43d8186b2045"},"vehicle_type_id":"4","last_reported":1746824962,"current_range_meters":16400,"station_id":"st_cvj6r9ubvosntc0bgbag","pricing_plan_id":"cebpf4jnsgd1na2vs0mg"},{"bike_id":"9a919805-a5a4-497f-a929-c9e08814771d","system_id":"levelo_inurba_marseille","lat":43.27977,"lon":5.41664,"is_reserved":false,"is_disabled":true,"rental_uris":{"android":"levelo://app?vid=9a919805-a5a4-497f-a929-c9e08814771d","ios":"levelo://app?vid=9a919805-a5a4-497f-a929-c9e08814771d"},"vehicle_type_id":"4","last_reported":1746824962,"current_range_meters":16400,"station_id":"ce4bho12rcd13ifvqh1g","pricing_plan_id":"cebpf4jnsgd1na2vs0mg"},{"bike_id":"d58e2bca-9cc6-4497-82e6-997f2f8b2940","system_id":"levelo_inurba_marseille","lat":43.24659,"lon":5.38158,"is_reserved":false,"is_disabled":false,"rental_uris":{"android":"levelo://app?vid=d58e2bca-9cc6-4497-82e6-997f2f8b2940","ios":"levelo://app?vid=d58e2bca-9cc6-4497-82e6-997f2f8b2940"},"vehicle_type_id":"4","last_reported":1746824962,"current_range_meters":16400,"station_id":"ce4bhih2rcd13ifvqfr0","pricing_plan_id":"cebpf4jnsgd1na2vs0mg"},{"bike_id":"168f826e-1c62-47a9-a8b5-8c2228dbddb8","system_id":"levelo_inurba_marseille","lat":43.30272,"lon":5.38936,"is_reserved":false,"is_disabled":true,"rental_uris":{"android":"levelo://app?vid=168f826e-1c62-47a9-a8b5-8c2228dbddb8","ios":"levelo://app?vid=168f826e-1c62-47a9-a8b5-8c2228dbddb8"},"vehicle_type_id":"4","last_reported":1746824962,"current_range_meters":16400,"station_id":"","pricing_plan_id":"cebpf4jnsgd1na2vs0mg"},{"bike_id":"e5a43973-91f3-46ae-a29d-7f39d521a93d","system_id":"levelo_inurba_marseille","lat":43.29624,"lon":5.40592,"is_reserved":false,"is_disabled":false,"rental_uris":{"android":"levelo://app?vid=e5a43973-91f3-46ae-a29d-7f39d521a93d","ios":"levelo://app?vid=e5a43973-91f3-46ae-a29d-7f39d521a93d"},"vehicle_type_id":"4","last_reported":1746824962,"current_range_meters":16000,"station_id":"ce4bh0h2rcd13ifvqd60","pricing_plan_id":"cebpf4jnsgd1na2vs0mg"},{"bike_id":"336ce01c-9295-4699-af38-b6ec4f52b90a","system_id":"levelo_inurba_marseille","lat":43.24802,"lon":5.37455,"is_reserved":false,"is_disabled":false,"rental_uris":{"android":"levelo://app?vid=336ce01c-9295-4699-af38-b6ec4f52b90a","ios":"levelo://app?vid=336ce01c-9295-4699-af38-b6ec4f52b90a"},"vehicle_type_id":"4","last_reported":1746824962,"current_range_meters":16400,"station_id":"ce4bhgh2rcd13ifvqfb0","pricing_plan_id":"cebpf4jnsgd1na2vs0mg"},{"bike_id":"d9976382-1fce-4c25-8408-b45f488c59eb","system_id":"levelo_inurba_marseille","lat":43.31359,"lon":5.38495,"is_reserved":false,"is_disabled":false,"rental_uris":{"android":"levelo://app?vid=d9976382-1fce-4c25-8408-b45f488c59eb","ios":"levelo://app?vid=d9976382-1fce-4c25-8408-b45f488c59eb"},"vehicle_type_id":"4","last_reported":1746824962,"current_range_meters":16800,"station_id":"ce4bgt92rcd13ifvqcf0","pricing_plan_id":"cebpf4jnsgd1na2vs0mg"},{"bike_id":"bb9dd4d9-ef7c-411c-9ce2-6f0d8890189a","system_id":"levelo_inurba_marseille","lat":43.24163,"lon":5.36395,"is_reserved":false,"is_disabled":false,"rental_uris":{"android":"levelo://app?vid=bb9dd4d9-ef7c-411c-9ce2-6f0d8890189a","ios":"levelo://app?vid=bb9dd4d9-ef7c-411c-9ce2-6f0d8890189a"},"vehicle_type_id":"4","last_reported":1746824962,"current_range_meters":16800,"station_id":"cpo36qri1sfpv3e86is0","pricing_plan_id":"cebpf4jnsgd1na2vs0mg"},{"bike_id":"d3d2cdd4-88fd-4ed5-a08e-0a917504ec35","system_id":"levelo_inurba_marseille","lat":43.2906,"lon":5.37174,"is_reserved":false,"is_disabled":false,"rental_uris":{"android":"levelo://app?vid=d3d2cdd4-88fd-4ed5-a08e-0a917504ec35","ios":"levelo://app?vid=d3d2cdd4-88fd-4ed5-a08e-0a917504ec35"},"vehicle_type_id":"4","last_reported":1746824962,"current_range_meters":16800,"station_id":"ce4bh5p2rcd13ifvqe4g","pricing_plan_id":"cebpf4jnsgd1na2vs0mg"},{"bike_id":"93dc72ed-3eb9-4c7d-b7e9-95e6990c9bb8","system_id":"levelo_inurba_marseille","lat":43.294034,"lon":5.386317,"is_reserved":false,"is_disabled":false,"rental_uris":{"android":"levelo://app?vid=93dc72ed-3eb9-4c7d-b7e9-95e6990c9bb8","ios":"levelo://app?vid=93dc72ed-3eb9-4c7d-b7e9-95e6990c9bb8"},"vehicle_type_id":"4","last_reported":1746824962,"current_range_meters":16800,"station_id":"ce4bh2h2rcd13ifvqdh0","pricing_plan_id":"cebpf4jnsgd1na2vs0mg"},{"bike_id":"df6bcdcc-d329-4f8e-97a7-0e877d1316c9","system_id":"levelo_inurba_marseille","lat":43.2621,"lon":5.3744,"is_reserved":false,"is_disabled":false,"rental_uris":{"android":"levelo://app?vid=df6bcdcc-d329-4f8e-97a7-0e877d1316c9","ios":"levelo://app?vid=df6bcdcc-d329-4f8e-97a7-0e877d1316c9"},"vehicle_type_id":"4","last_reported":1746824962,"current_range_meters":16800,"station_id":"ce4bhgp2rcd13ifvqfc0","pricing_plan_id":"cebpf4jnsgd1na2vs0mg"},{"bike_id":"55fada9f-9015-4dd1-bfb4-be767a27b242","system_id":"levelo_inurba_marseille","lat":43.27928,"lon":5.39567,"is_reserved":false,"is_disabled":true,"rental_uris":{"android":"levelo://app?vid=55fada9f-9015-4dd1-bfb4-be767a27b242","ios":"levelo://app?vid=55fada9f-9015-4dd1-bfb4-be767a27b242"},"vehicle_type_id":"4","last_reported":1746824962,"current_range_meters":16800,"station_id":"ce4bhf92rcd13ifvqf40","pricing_plan_id":"cebpf4jnsgd1na2vs0mg"},{"bike_id":"d1da57ab-1976-4768-a940-f220ccc4351c","system_id":"levelo_inurba_marseille","lat":43.25577,"lon":5.38233,"is_reserved":false,"is_disabled":false,"rental_uris":{"android":"levelo://app?vid=d1da57ab-1976-4768-a940-f220ccc4351c","ios":"levelo://app?vid=d1da57ab-1976-4768-a940-f220ccc4351c"},"vehicle_type_id":"4","last_reported":1746824962,"current_range_meters":16800,"station_id":"ce4bhih2rcd13ifvqfs0","pricing_plan_id":"cebpf4jnsgd1na2vs0mg"},{"bike_id":"98cfe22b-40e2-47d9-9417-af992af33c88","system_id":"levelo_inurba_marseille","lat":43.28452,"lon":5.35893,"is_reserved":false,"is_disabled":true,"rental_uris":{"android":"levelo://app?vid=98cfe22b-40e2-47d9-9417-af992af33c88","ios":"levelo://app?vid=98cfe22b-40e2-47d9-9417-af992af33c88"},"vehicle_type_id":"4","last_reported":1746824962,"current_range_meters":17200,"station_id":"ce4bhah2rcd13ifvqei0","pricing_plan_id":"cebpf4jnsgd1na2vs0mg"},{"bike_id":"5bee1775-528f-49e6-9c3e-19f7744c053e","system_id":"levelo_inurba_marseille","lat":43.27978,"lon":5.41661,"is_reserved":false,"is_disabled":false,"rental_uris":{"android":"levelo://app?vid=5bee1775-528f-49e6-9c3e-19f7744c053e","ios":"levelo://app?vid=5bee1775-528f-49e6-9c3e-19f7744c053e"},"vehicle_type_id":"4","last_reported":1746824962,"current_range_meters":17200,"station_id":"ce4bho12rcd13ifvqh1g","pricing_plan_id":"cebpf4jnsgd1na2vs0mg"},{"bike_id":"8dcc72a9-bd05-44bf-91e7-1fb0ce96aeb5","system_id":"levelo_inurba_marseille","lat":43.29427,"lon":5.38625,"is_reserved":false,"is_disabled":false,"rental_uris":{"android":"levelo://app?vid=8dcc72a9-bd05-44bf-91e7-1fb0ce96aeb5","ios":"levelo://app?vid=8dcc72a9-bd05-44bf-91e7-1fb0ce96aeb5"},"vehicle_type_id":"4","last_reported":1746824962,"current_range_meters":17200,"station_id":"ce4bh2h2rcd13ifvqdh0","pricing_plan_id":"cebpf4jnsgd1na2vs0mg"},{"bike_id":"bc3bf4a5-5643-43d7-b747-535971cb56ca","system_id":"levelo_inurba_marseille","lat":43.30931,"lon":5.40137,"is_reserved":false,"is_disabled":false,"rental_uris":{"android":"levelo://app?vid=bc3bf4a5-5643-43d7-b747-535971cb56ca","ios":"levelo://app?vid=bc3bf4a5-5643-43d7-b747-535971cb56ca"},"vehicle_type_id":"4","last_reported":1746824962,"current_range_meters":16800,"station_id":"ce4bgvp2rcd13ifvqct0","pricing_plan_id":"cebpf4jnsgd1na2vs0mg"},{"bike_id":"e9b37b3c-0be9-46f6-9835-8af9f255ab70","system_id":"levelo_inurba_marseille","lat":43.29266,"lon":5.38437,"is_reserved":false,"is_disabled":false,"rental_uris":{"android":"levelo://app?vid=e9b37b3c-0be9-46f6-9835-8af9f255ab70","ios":"levelo://app?vid=e9b37b3c-0be9-46f6-9835-8af9f255ab70"},"vehicle_type_id":"4","last_reported":1746824962,"current_range_meters":17200,"station_id":"ce4bh692rcd13ifvqea0","pricing_plan_id":"cebpf4jnsgd1na2vs0mg"},{"bike_id":"fc2577e7-1497-425b-9d4f-ab8d7dc843c6","system_id":"levelo_inurba_marseille","lat":43.33771,"lon":5.37485,"is_reserved":false,"is_disabled":false,"rental_uris":{"android":"levelo://app?vid=fc2577e7-1497-425b-9d4f-ab8d7dc843c6","ios":"levelo://app?vid=fc2577e7-1497-425b-9d4f-ab8d7dc843c6"},"vehicle_type_id":"4","last_reported":1746824962,"current_range_meters":17600,"station_id":"","pricing_plan_id":"cebpf4jnsgd1na2vs0mg"},{"bike_id":"988217a7-40cc-4175-99a8-3abc98dd942c","system_id":"levelo_inurba_marseille","lat":43.24078,"lon":5.37758,"is_reserved":false,"is_disabled":false,"rental_uris":{"android":"levelo://app?vid=988217a7-40cc-4175-99a8-3abc98dd942c","ios":"levelo://app?vid=988217a7-40cc-4175-99a8-3abc98dd942c"},"vehicle_type_id":"4","last_reported":1746824962,"current_range_meters":17600,"station_id":"ce4bhnp2rcd13ifvqgvg","pricing_plan_id":"cebpf4jnsgd1na2vs0mg"},{"bike_id":"626ac643-d875-4f9a-891a-93e9930251b2","system_id":"levelo_inurba_marseille","lat":43.33025,"lon":5.39041,"is_reserved":false,"is_disabled":false,"rental_uris":{"android":"levelo://app?vid=626ac643-d875-4f9a-891a-93e9930251b2","ios":"levelo://app?vid=626ac643-d875-4f9a-891a-93e9930251b2"},"vehicle_type_id":"4","last_reported":1746824962,"current_range_meters":17600,"station_id":"ce4bhr92rcd13ifvqhrg","pricing_plan_id":"cebpf4jnsgd1na2vs0mg"},{"bike_id":"3124cc8f-0155-4b3e-b562-bc5ce6269fa2","system_id":"levelo_inurba_marseille","lat":43.29416,"lon":5.38624,"is_reserved":false,"is_disabled":false,"rental_uris":{"android":"levelo://app?vid=3124cc8f-0155-4b3e-b562-bc5ce6269fa2","ios":"levelo://app?vid=3124cc8f-0155-4b3e-b562-bc5ce6269fa2"},"vehicle_type_id":"4","last_reported":1746824962,"current_range_meters":17600,"station_id":"ce4bh2h2rcd13ifvqdh0","pricing_plan_id":"cebpf4jnsgd1na2vs0mg"},{"bike_id":"545e5687-b7df-4883-81be-75a8925d5f91","system_id":"levelo_inurba_marseille","lat":43.337444,"lon":5.374475,"is_reserved":false,"is_disabled":false,"rental_uris":{"android":"levelo://app?vid=545e5687-b7df-4883-81be-75a8925d5f91","ios":"levelo://app?vid=545e5687-b7df-4883-81be-75a8925d5f91"},"vehicle_type_id":"4","last_reported":1746824962,"current_range_meters":17600,"station_id":"","pricing_plan_id":"cebpf4jnsgd1na2vs0mg"},{"bike_id":"94cd8564-a06e-4cc5-88d9-996fbf8639fe","system_id":"levelo_inurba_marseille","lat":43.21753,"lon":5.34614,"is_reserved":false,"is_disabled":true,"rental_uris":{"android":"levelo://app?vid=94cd8564-a06e-4cc5-88d9-996fbf8639fe","ios":"levelo://app?vid=94cd8564-a06e-4cc5-88d9-996fbf8639fe"},"vehicle_type_id":"4","last_reported":1746824962,"current_range_meters":18000,"station_id":"st_cvj6r9ubvosntc0bgbag","pricing_plan_id":"cebpf4jnsgd1na2vs0mg"},{"bike_id":"52a73531-ef59-48cf-bca6-e4d72602054e","system_id":"levelo_inurba_marseille","lat":43.27675,"lon":5.38886,"is_reserved":false,"is_disabled":false,"rental_uris":{"android":"levelo://app?vid=52a73531-ef59-48cf-bca6-e4d72602054e","ios":"levelo://app?vid=52a73531-ef59-48cf-bca6-e4d72602054e"},"vehicle_type_id":"4","last_reported":1746824962,"current_range_meters":18000,"station_id":"ce4bhi12rcd13ifvqfo0","pricing_plan_id":"cebpf4jnsgd1na2vs0mg"},{"bike_id":"7662e932-40e5-4c41-8034-6dbbb77dfc78","system_id":"levelo_inurba_marseille","lat":43.28726,"lon":5.37937,"is_reserved":false,"is_disabled":false,"rental_uris":{"android":"levelo://app?vid=7662e932-40e5-4c41-8034-6dbbb77dfc78","ios":"levelo://app?vid=7662e932-40e5-4c41-8034-6dbbb77dfc78"},"vehicle_type_id":"4","last_reported":1746824962,"current_range_meters":18000,"station_id":"ce4bh9p2rcd13ifvqec0","pricing_plan_id":"cebpf4jnsgd1na2vs0mg"},{"bike_id":"0179f8ea-7051-4db2-83c5-d73944e41552","system_id":"levelo_inurba_marseille","lat":43.23963,"lon":5.3664,"is_reserved":false,"is_disabled":false,"rental_uris":{"android":"levelo://app?vid=0179f8ea-7051-4db2-83c5-d73944e41552","ios":"levelo://app?vid=0179f8ea-7051-4db2-83c5-d73944e41552"},"vehicle_type_id":"4","last_reported":1746824962,"current_range_meters":18000,"station_id":"ce4bhi12rcd13ifvqfp0","pricing_plan_id":"cebpf4jnsgd1na2vs0mg"},{"bike_id":"f7805aa3-49ec-49a9-9298-1c870a0e1a0a","system_id":"levelo_inurba_marseille","lat":43.28611,"lon":5.37063,"is_reserved":false,"is_disabled":false,"rental_uris":{"android":"levelo://app?vid=f7805aa3-49ec-49a9-9298-1c870a0e1a0a","ios":"levelo://app?vid=f7805aa3-49ec-49a9-9298-1c870a0e1a0a"},"vehicle_type_id":"4","last_reported":1746824962,"current_range_meters":18000,"station_id":"ce4bht12rcd13ifvqi60","pricing_plan_id":"cebpf4jnsgd1na2vs0mg"},{"bike_id":"25bd9db4-b151-496c-ba5d-8dcff47fadbf","system_id":"levelo_inurba_marseille","lat":43.31968,"lon":5.37086,"is_reserved":false,"is_disabled":false,"rental_uris":{"android":"levelo://app?vid=25bd9db4-b151-496c-ba5d-8dcff47fadbf","ios":"levelo://app?vid=25bd9db4-b151-496c-ba5d-8dcff47fadbf"},"vehicle_type_id":"4","last_reported":1746824962,"current_range_meters":18000,"station_id":"","pricing_plan_id":"cebpf4jnsgd1na2vs0mg"},{"bike_id":"82af2fe5-4084-4b3f-81bd-903817705fc5","system_id":"levelo_inurba_marseille","lat":43.29255,"lon":5.38481,"is_reserved":false,"is_disabled":false,"rental_uris":{"android":"levelo://app?vid=82af2fe5-4084-4b3f-81bd-903817705fc5","ios":"levelo://app?vid=82af2fe5-4084-4b3f-81bd-903817705fc5"},"vehicle_type_id":"4","last_reported":1746824962,"current_range_meters":18000,"station_id":"ce4bh692rcd13ifvqea0","pricing_plan_id":"cebpf4jnsgd1na2vs0mg"},{"bike_id":"8b922ca6-4c4c-4cce-b120-dfd10f864eda","system_id":"levelo_inurba_marseille","lat":43.29614,"lon":5.38095,"is_reserved":false,"is_disabled":true,"rental_uris":{"android":"levelo://app?vid=8b922ca6-4c4c-4cce-b120-dfd10f864eda","ios":"levelo://app?vid=8b922ca6-4c4c-4cce-b120-dfd10f864eda"},"vehicle_type_id":"4","last_reported":1746824962,"current_range_meters":18000,"station_id":"ce4bgl12rcd13ifvqbo0","pricing_plan_id":"cebpf4jnsgd1na2vs0mg"},{"bike_id":"66d39f5f-1aac-423b-9ea7-bf9c1b0e5079","system_id":"levelo_inurba_marseille","lat":43.275155,"lon":5.41131,"is_reserved":false,"is_disabled":false,"rental_uris":{"android":"levelo://app?vid=66d39f5f-1aac-423b-9ea7-bf9c1b0e5079","ios":"levelo://app?vid=66d39f5f-1aac-423b-9ea7-bf9c1b0e5079"},"vehicle_type_id":"4","last_reported":1746824962,"current_range_meters":18000,"station_id":"","pricing_plan_id":"cebpf4jnsgd1na2vs0mg"},{"bike_id":"14b71386-3c19-4513-8fbd-bce69f05d5fd","system_id":"levelo_inurba_marseille","lat":43.31359,"lon":5.38496,"is_reserved":false,"is_disabled":false,"rental_uris":{"android":"levelo://app?vid=14b71386-3c19-4513-8fbd-bce69f05d5fd","ios":"levelo://app?vid=14b71386-3c19-4513-8fbd-bce69f05d5fd"},"vehicle_type_id":"4","last_reported":1746824962,"current_range_meters":18800,"station_id":"ce4bgt92rcd13ifvqcf0","pricing_plan_id":"cebpf4jnsgd1na2vs0mg"},{"bike_id":"b9adf51f-6113-4e7a-9aab-e48b10640df4","system_id":"levelo_inurba_marseille","lat":43.24392,"lon":5.37064,"is_reserved":false,"is_disabled":false,"rental_uris":{"android":"levelo://app?vid=b9adf51f-6113-4e7a-9aab-e48b10640df4","ios":"levelo://app?vid=b9adf51f-6113-4e7a-9aab-e48b10640df4"},"vehicle_type_id":"4","last_reported":1746824962,"current_range_meters":18800,"station_id":"ce4bhhh2rcd13ifvqfk0","pricing_plan_id":"cebpf4jnsgd1na2vs0mg"},{"bike_id":"796ef36e-55a7-4cb9-844d-596a7e2f3fa6","system_id":"levelo_inurba_marseille","lat":43.28378,"lon":5.36469,"is_reserved":false,"is_disabled":false,"rental_uris":{"android":"levelo://app?vid=796ef36e-55a7-4cb9-844d-596a7e2f3fa6","ios":"levelo://app?vid=796ef36e-55a7-4cb9-844d-596a7e2f3fa6"},"vehicle_type_id":"4","last_reported":1746824962,"current_range_meters":18800,"station_id":"","pricing_plan_id":"cebpf4jnsgd1na2vs0mg"},{"bike_id":"2d99b521-f4b2-4bd7-b0c9-6ff327cb1a5a","system_id":"levelo_inurba_marseille","lat":43.31714,"lon":5.43697,"is_reserved":false,"is_disabled":false,"rental_uris":{"android":"levelo://app?vid=2d99b521-f4b2-4bd7-b0c9-6ff327cb1a5a","ios":"levelo://app?vid=2d99b521-f4b2-4bd7-b0c9-6ff327cb1a5a"},"vehicle_type_id":"4","last_reported":1746824962,"current_range_meters":18800,"station_id":"ce4bhp92rcd13ifvqhcg","pricing_plan_id":"cebpf4jnsgd1na2vs0mg"},{"bike_id":"8af4b88d-091f-4883-a950-3e14de86d879","system_id":"levelo_inurba_marseille","lat":43.31658,"lon":5.40463,"is_reserved":false,"is_disabled":false,"rental_uris":{"android":"levelo://app?vid=8af4b88d-091f-4883-a950-3e14de86d879","ios":"levelo://app?vid=8af4b88d-091f-4883-a950-3e14de86d879"},"vehicle_type_id":"4","last_reported":1746824962,"current_range_meters":18800,"station_id":"ce4bh012rcd13ifvqd00","pricing_plan_id":"cebpf4jnsgd1na2vs0mg"},{"bike_id":"611984cb-882a-46b7-8fab-e6350303c611","system_id":"levelo_inurba_marseille","lat":43.2416,"lon":5.36399,"is_reserved":false,"is_disabled":false,"rental_uris":{"android":"levelo://app?vid=611984cb-882a-46b7-8fab-e6350303c611","ios":"levelo://app?vid=611984cb-882a-46b7-8fab-e6350303c611"},"vehicle_type_id":"4","last_reported":1746824962,"current_range_meters":19200,"station_id":"cpo36qri1sfpv3e86is0","pricing_plan_id":"cebpf4jnsgd1na2vs0mg"},{"bike_id":"50f5e02d-7e3d-4bd6-8a5e-360e84f51370","system_id":"levelo_inurba_marseille","lat":43.25122,"lon":5.40316,"is_reserved":false,"is_disabled":false,"rental_uris":{"android":"levelo://app?vid=50f5e02d-7e3d-4bd6-8a5e-360e84f51370","ios":"levelo://app?vid=50f5e02d-7e3d-4bd6-8a5e-360e84f51370"},"vehicle_type_id":"4","last_reported":1746824962,"current_range_meters":19200,"station_id":"ce4bhlh2rcd13ifvqgig","pricing_plan_id":"cebpf4jnsgd1na2vs0mg"},{"bike_id":"b20b5c90-ef40-4d65-a889-8924e9aa8c78","system_id":"levelo_inurba_marseille","lat":43.28703,"lon":5.39981,"is_reserved":false,"is_disabled":false,"rental_uris":{"android":"levelo://app?vid=b20b5c90-ef40-4d65-a889-8924e9aa8c78","ios":"levelo://app?vid=b20b5c90-ef40-4d65-a889-8924e9aa8c78"},"vehicle_type_id":"4","last_reported":1746824962,"current_range_meters":18800,"station_id":"ce4bho92rcd13ifvqh3g","pricing_plan_id":"cebpf4jnsgd1na2vs0mg"},{"bike_id":"d1e806bf-9bec-4434-9590-f1b6c4743b07","system_id":"levelo_inurba_marseille","lat":43.28074,"lon":5.39661,"is_reserved":false,"is_disabled":false,"rental_uris":{"android":"levelo://app?vid=d1e806bf-9bec-4434-9590-f1b6c4743b07","ios":"levelo://app?vid=d1e806bf-9bec-4434-9590-f1b6c4743b07"},"vehicle_type_id":"4","last_reported":1746824962,"current_range_meters":19200,"station_id":"ce4bho12rcd13ifvqh2g","pricing_plan_id":"cebpf4jnsgd1na2vs0mg"},{"bike_id":"e72f1a1c-7420-4ee6-8586-2213229f10e5","system_id":"levelo_inurba_marseille","lat":43.24826,"lon":5.3745,"is_reserved":false,"is_disabled":false,"rental_uris":{"android":"levelo://app?vid=e72f1a1c-7420-4ee6-8586-2213229f10e5","ios":"levelo://app?vid=e72f1a1c-7420-4ee6-8586-2213229f10e5"},"vehicle_type_id":"4","last_reported":1746824962,"current_range_meters":19200,"station_id":"ce4bhgh2rcd13ifvqfb0","pricing_plan_id":"cebpf4jnsgd1na2vs0mg"},{"bike_id":"896cbcbc-d192-4c62-ace0-6382241f7aac","system_id":"levelo_inurba_marseille","lat":43.2954,"lon":5.3855,"is_reserved":false,"is_disabled":false,"rental_uris":{"android":"levelo://app?vid=896cbcbc-d192-4c62-ace0-6382241f7aac","ios":"levelo://app?vid=896cbcbc-d192-4c62-ace0-6382241f7aac"},"vehicle_type_id":"4","last_reported":1746824962,"current_range_meters":19200,"station_id":"ce4bgih2rcd13ifvqba0","pricing_plan_id":"cebpf4jnsgd1na2vs0mg"},{"bike_id":"25a3aa04-4387-4db3-9a12-f512a72f0fd5","system_id":"levelo_inurba_marseille","lat":43.30592,"lon":5.39356,"is_reserved":false,"is_disabled":false,"rental_uris":{"android":"levelo://app?vid=25a3aa04-4387-4db3-9a12-f512a72f0fd5","ios":"levelo://app?vid=25a3aa04-4387-4db3-9a12-f512a72f0fd5"},"vehicle_type_id":"4","last_reported":1746824962,"current_range_meters":19200,"station_id":"ce4bh0p2rcd13ifvqd80","pricing_plan_id":"cebpf4jnsgd1na2vs0mg"},{"bike_id":"5cab8d09-0439-4dcf-8b6c-b4bfbff12d0b","system_id":"levelo_inurba_marseille","lat":43.31994,"lon":5.38152,"is_reserved":false,"is_disabled":true,"rental_uris":{"android":"levelo://app?vid=5cab8d09-0439-4dcf-8b6c-b4bfbff12d0b","ios":"levelo://app?vid=5cab8d09-0439-4dcf-8b6c-b4bfbff12d0b"},"vehicle_type_id":"4","last_reported":1746824962,"current_range_meters":19600,"station_id":"ce4bhr12rcd13ifvqhpg","pricing_plan_id":"cebpf4jnsgd1na2vs0mg"},{"bike_id":"a1121b36-b5cd-4dda-96ef-13a3dfaa55e1","system_id":"levelo_inurba_marseille","lat":43.301401,"lon":5.387791,"is_reserved":false,"is_disabled":false,"rental_uris":{"android":"levelo://app?vid=a1121b36-b5cd-4dda-96ef-13a3dfaa55e1","ios":"levelo://app?vid=a1121b36-b5cd-4dda-96ef-13a3dfaa55e1"},"vehicle_type_id":"4","last_reported":1746824962,"current_range_meters":19600,"station_id":"","pricing_plan_id":"cebpf4jnsgd1na2vs0mg"},{"bike_id":"224573af-aa41-462b-962f-51710d956a97","system_id":"levelo_inurba_marseille","lat":43.25125,"lon":5.40337,"is_reserved":false,"is_disabled":false,"rental_uris":{"android":"levelo://app?vid=224573af-aa41-462b-962f-51710d956a97","ios":"levelo://app?vid=224573af-aa41-462b-962f-51710d956a97"},"vehicle_type_id":"4","last_reported":1746824962,"current_range_meters":19600,"station_id":"ce4bhlh2rcd13ifvqgig","pricing_plan_id":"cebpf4jnsgd1na2vs0mg"},{"bike_id":"462336e2-a4e8-4882-be35-4ed6969a7cd6","system_id":"levelo_inurba_marseille","lat":43.29936,"lon":5.38642,"is_reserved":false,"is_disabled":false,"rental_uris":{"android":"levelo://app?vid=462336e2-a4e8-4882-be35-4ed6969a7cd6","ios":"levelo://app?vid=462336e2-a4e8-4882-be35-4ed6969a7cd6"},"vehicle_type_id":"4","last_reported":1746824962,"current_range_meters":19600,"station_id":"","pricing_plan_id":"cebpf4jnsgd1na2vs0mg"},{"bike_id":"de819f27-6e1a-4942-9e5b-4feb7f1475bd","system_id":"levelo_inurba_marseille","lat":43.29244,"lon":5.38464,"is_reserved":false,"is_disabled":false,"rental_uris":{"android":"levelo://app?vid=de819f27-6e1a-4942-9e5b-4feb7f1475bd","ios":"levelo://app?vid=de819f27-6e1a-4942-9e5b-4feb7f1475bd"},"vehicle_type_id":"4","last_reported":1746824962,"current_range_meters":19600,"station_id":"ce4bh692rcd13ifvqea0","pricing_plan_id":"cebpf4jnsgd1na2vs0mg"},{"bike_id":"f34a79fb-9a2a-4d46-9bae-b3621d640434","system_id":"levelo_inurba_marseille","lat":43.31077,"lon":5.42429,"is_reserved":false,"is_disabled":true,"rental_uris":{"android":"levelo://app?vid=f34a79fb-9a2a-4d46-9bae-b3621d640434","ios":"levelo://app?vid=f34a79fb-9a2a-4d46-9bae-b3621d640434"},"vehicle_type_id":"4","last_reported":1746824962,"current_range_meters":19600,"station_id":"ce4bhp92rcd13ifvqhag","pricing_plan_id":"cebpf4jnsgd1na2vs0mg"},{"bike_id":"c2528238-7350-4ea7-b653-5931b64a705c","system_id":"levelo_inurba_marseille","lat":43.28452,"lon":5.35895,"is_reserved":false,"is_disabled":false,"rental_uris":{"android":"levelo://app?vid=c2528238-7350-4ea7-b653-5931b64a705c","ios":"levelo://app?vid=c2528238-7350-4ea7-b653-5931b64a705c"},"vehicle_type_id":"4","last_reported":1746824962,"current_range_meters":19600,"station_id":"ce4bhah2rcd13ifvqei0","pricing_plan_id":"cebpf4jnsgd1na2vs0mg"},{"bike_id":"01f28d5b-0efc-4229-a7d8-8319e352a916","system_id":"levelo_inurba_marseille","lat":43.29423,"lon":5.3862,"is_reserved":false,"is_disabled":false,"rental_uris":{"android":"levelo://app?vid=01f28d5b-0efc-4229-a7d8-8319e352a916","ios":"levelo://app?vid=01f28d5b-0efc-4229-a7d8-8319e352a916"},"vehicle_type_id":"4","last_reported":1746824962,"current_range_meters":19600,"station_id":"ce4bh2h2rcd13ifvqdh0","pricing_plan_id":"cebpf4jnsgd1na2vs0mg"},{"bike_id":"eb2ce52b-29be-4c82-b32c-90086c844fc1","system_id":"levelo_inurba_marseille","lat":43.3136,"lon":5.38487,"is_reserved":false,"is_disabled":false,"rental_uris":{"android":"levelo://app?vid=eb2ce52b-29be-4c82-b32c-90086c844fc1","ios":"levelo://app?vid=eb2ce52b-29be-4c82-b32c-90086c844fc1"},"vehicle_type_id":"4","last_reported":1746824962,"current_range_meters":19600,"station_id":"ce4bgt92rcd13ifvqcf0","pricing_plan_id":"cebpf4jnsgd1na2vs0mg"},{"bike_id":"0fb6b147-e9a8-4345-a220-93d47a47a517","system_id":"levelo_inurba_marseille","lat":43.22943,"lon":5.35368,"is_reserved":false,"is_disabled":false,"rental_uris":{"android":"levelo://app?vid=0fb6b147-e9a8-4345-a220-93d47a47a517","ios":"levelo://app?vid=0fb6b147-e9a8-4345-a220-93d47a47a517"},"vehicle_type_id":"4","last_reported":1746824962,"current_range_meters":20000,"station_id":"cpo3532slgdg3j2ikp40","pricing_plan_id":"cebpf4jnsgd1na2vs0mg"},{"bike_id":"eef67c5c-18d2-4751-8446-091d6493225c","system_id":"levelo_inurba_marseille","lat":43.29426,"lon":5.38616,"is_reserved":false,"is_disabled":false,"rental_uris":{"android":"levelo://app?vid=eef67c5c-18d2-4751-8446-091d6493225c","ios":"levelo://app?vid=eef67c5c-18d2-4751-8446-091d6493225c"},"vehicle_type_id":"4","last_reported":1746824962,"current_range_meters":20000,"station_id":"ce4bh2h2rcd13ifvqdh0","pricing_plan_id":"cebpf4jnsgd1na2vs0mg"},{"bike_id":"b36cb683-ad29-415e-9e01-33e17d955da6","system_id":"levelo_inurba_marseille","lat":43.296025,"lon":5.381001,"is_reserved":false,"is_disabled":false,"rental_uris":{"android":"levelo://app?vid=b36cb683-ad29-415e-9e01-33e17d955da6","ios":"levelo://app?vid=b36cb683-ad29-415e-9e01-33e17d955da6"},"vehicle_type_id":"4","last_reported":1746824962,"current_range_meters":20000,"station_id":"","pricing_plan_id":"cebpf4jnsgd1na2vs0mg"},{"bike_id":"e5f9e08b-c7e4-484f-8cb5-f829be2d4c56","system_id":"levelo_inurba_marseille","lat":43.29747,"lon":5.38383,"is_reserved":false,"is_disabled":false,"rental_uris":{"android":"levelo://app?vid=e5f9e08b-c7e4-484f-8cb5-f829be2d4c56","ios":"levelo://app?vid=e5f9e08b-c7e4-484f-8cb5-f829be2d4c56"},"vehicle_type_id":"4","last_reported":1746824962,"current_range_meters":20000,"station_id":"","pricing_plan_id":"cebpf4jnsgd1na2vs0mg"},{"bike_id":"639e8d06-7a06-43b7-b7b9-c0cc1c68b23b","system_id":"levelo_inurba_marseille","lat":43.29419,"lon":5.38622,"is_reserved":false,"is_disabled":false,"rental_uris":{"android":"levelo://app?vid=639e8d06-7a06-43b7-b7b9-c0cc1c68b23b","ios":"levelo://app?vid=639e8d06-7a06-43b7-b7b9-c0cc1c68b23b"},"vehicle_type_id":"4","last_reported":1746824962,"current_range_meters":20000,"station_id":"ce4bh2h2rcd13ifvqdh0","pricing_plan_id":"cebpf4jnsgd1na2vs0mg"},{"bike_id":"11bac9a6-0e04-4c68-9615-f13539342864","system_id":"levelo_inurba_marseille","lat":43.21249,"lon":5.35065,"is_reserved":false,"is_disabled":false,"rental_uris":{"android":"levelo://app?vid=11bac9a6-0e04-4c68-9615-f13539342864","ios":"levelo://app?vid=11bac9a6-0e04-4c68-9615-f13539342864"},"vehicle_type_id":"4","last_reported":1746824962,"current_range_meters":20400,"station_id":"","pricing_plan_id":"cebpf4jnsgd1na2vs0mg"},{"bike_id":"dff362e7-0dc5-4aac-b0e8-e6e174eac16e","system_id":"levelo_inurba_marseille","lat":43.27374,"lon":5.36249,"is_reserved":false,"is_disabled":false,"rental_uris":{"android":"levelo://app?vid=dff362e7-0dc5-4aac-b0e8-e6e174eac16e","ios":"levelo://app?vid=dff362e7-0dc5-4aac-b0e8-e6e174eac16e"},"vehicle_type_id":"4","last_reported":1746824962,"current_range_meters":20000,"station_id":"ce4bhbh2rcd13ifvqeo0","pricing_plan_id":"cebpf4jnsgd1na2vs0mg"},{"bike_id":"d415e7e2-f909-4c4f-94d7-56d33e682e41","system_id":"levelo_inurba_marseille","lat":43.24406,"lon":5.37063,"is_reserved":false,"is_disabled":true,"rental_uris":{"android":"levelo://app?vid=d415e7e2-f909-4c4f-94d7-56d33e682e41","ios":"levelo://app?vid=d415e7e2-f909-4c4f-94d7-56d33e682e41"},"vehicle_type_id":"4","last_reported":1746824962,"current_range_meters":20400,"station_id":"ce4bhhh2rcd13ifvqfk0","pricing_plan_id":"cebpf4jnsgd1na2vs0mg"},{"bike_id":"e430e18e-8ec0-4499-9c1b-7a91e3e02b36","system_id":"levelo_inurba_marseille","lat":43.28354,"lon":5.38105,"is_reserved":false,"is_disabled":false,"rental_uris":{"android":"levelo://app?vid=e430e18e-8ec0-4499-9c1b-7a91e3e02b36","ios":"levelo://app?vid=e430e18e-8ec0-4499-9c1b-7a91e3e02b36"},"vehicle_type_id":"4","last_reported":1746824962,"current_range_meters":20800,"station_id":"ce4bh412rcd13ifvqdr0","pricing_plan_id":"cebpf4jnsgd1na2vs0mg"},{"bike_id":"63c52170-046e-4640-bcac-7efe36817223","system_id":"levelo_inurba_marseille","lat":43.31357,"lon":5.385,"is_reserved":false,"is_disabled":false,"rental_uris":{"android":"levelo://app?vid=63c52170-046e-4640-bcac-7efe36817223","ios":"levelo://app?vid=63c52170-046e-4640-bcac-7efe36817223"},"vehicle_type_id":"4","last_reported":1746824962,"current_range_meters":20800,"station_id":"ce4bgt92rcd13ifvqcf0","pricing_plan_id":"cebpf4jnsgd1na2vs0mg"},{"bike_id":"1fc00dbb-fc6e-4e8f-a09d-16a53b350d47","system_id":"levelo_inurba_marseille","lat":43.28666,"lon":5.36358,"is_reserved":false,"is_disabled":false,"rental_uris":{"android":"levelo://app?vid=1fc00dbb-fc6e-4e8f-a09d-16a53b350d47","ios":"levelo://app?vid=1fc00dbb-fc6e-4e8f-a09d-16a53b350d47"},"vehicle_type_id":"4","last_reported":1746824962,"current_range_meters":20800,"station_id":"ce4bhah2rcd13ifvqej0","pricing_plan_id":"cebpf4jnsgd1na2vs0mg"},{"bike_id":"4e46374a-e40d-420e-b8c1-d73694c06a2b","system_id":"levelo_inurba_marseille","lat":43.29414,"lon":5.38625,"is_reserved":false,"is_disabled":false,"rental_uris":{"android":"levelo://app?vid=4e46374a-e40d-420e-b8c1-d73694c06a2b","ios":"levelo://app?vid=4e46374a-e40d-420e-b8c1-d73694c06a2b"},"vehicle_type_id":"4","last_reported":1746824962,"current_range_meters":20800,"station_id":"ce4bh2h2rcd13ifvqdh0","pricing_plan_id":"cebpf4jnsgd1na2vs0mg"},{"bike_id":"2fc3cf4e-73e4-43db-9d5e-d3d4b8da6f2a","system_id":"levelo_inurba_marseille","lat":43.27573,"lon":5.38408,"is_reserved":false,"is_disabled":false,"rental_uris":{"android":"levelo://app?vid=2fc3cf4e-73e4-43db-9d5e-d3d4b8da6f2a","ios":"levelo://app?vid=2fc3cf4e-73e4-43db-9d5e-d3d4b8da6f2a"},"vehicle_type_id":"4","last_reported":1746824962,"current_range_meters":20800,"station_id":"ce4bhh92rcd13ifvqfi0","pricing_plan_id":"cebpf4jnsgd1na2vs0mg"},{"bike_id":"2c077135-a489-46ab-a502-641f5894f423","system_id":"levelo_inurba_marseille","lat":43.23962,"lon":5.36629,"is_reserved":false,"is_disabled":false,"rental_uris":{"android":"levelo://app?vid=2c077135-a489-46ab-a502-641f5894f423","ios":"levelo://app?vid=2c077135-a489-46ab-a502-641f5894f423"},"vehicle_type_id":"4","last_reported":1746824962,"current_range_meters":21600,"station_id":"ce4bhi12rcd13ifvqfp0","pricing_plan_id":"cebpf4jnsgd1na2vs0mg"},{"bike_id":"7ef9c380-74be-455d-a6e8-d8f5bf01ceee","system_id":"levelo_inurba_marseille","lat":43.31073,"lon":5.38358,"is_reserved":false,"is_disabled":false,"rental_uris":{"android":"levelo://app?vid=7ef9c380-74be-455d-a6e8-d8f5bf01ceee","ios":"levelo://app?vid=7ef9c380-74be-455d-a6e8-d8f5bf01ceee"},"vehicle_type_id":"4","last_reported":1746824962,"current_range_meters":21600,"station_id":"ce4bgv92rcd13ifvqcr0","pricing_plan_id":"cebpf4jnsgd1na2vs0mg"},{"bike_id":"089388f9-578b-4ef2-a850-caec8891008b","system_id":"levelo_inurba_marseille","lat":43.2942,"lon":5.38629,"is_reserved":false,"is_disabled":false,"rental_uris":{"android":"levelo://app?vid=089388f9-578b-4ef2-a850-caec8891008b","ios":"levelo://app?vid=089388f9-578b-4ef2-a850-caec8891008b"},"vehicle_type_id":"4","last_reported":1746824962,"current_range_meters":22000,"station_id":"ce4bh2h2rcd13ifvqdh0","pricing_plan_id":"cebpf4jnsgd1na2vs0mg"},{"bike_id":"5080bc04-311b-4c10-8e17-8181d63a03bb","system_id":"levelo_inurba_marseille","lat":43.29197,"lon":5.3607,"is_reserved":false,"is_disabled":false,"rental_uris":{"android":"levelo://app?vid=5080bc04-311b-4c10-8e17-8181d63a03bb","ios":"levelo://app?vid=5080bc04-311b-4c10-8e17-8181d63a03bb"},"vehicle_type_id":"4","last_reported":1746824962,"current_range_meters":22000,"station_id":"ce4bhbh2rcd13ifvqeqg","pricing_plan_id":"cebpf4jnsgd1na2vs0mg"},{"bike_id":"a7f530d2-088a-4837-8b5b-acaadd59066d","system_id":"levelo_inurba_marseille","lat":43.3033,"lon":5.40431,"is_reserved":false,"is_disabled":false,"rental_uris":{"android":"levelo://app?vid=a7f530d2-088a-4837-8b5b-acaadd59066d","ios":"levelo://app?vid=a7f530d2-088a-4837-8b5b-acaadd59066d"},"vehicle_type_id":"4","last_reported":1746824962,"current_range_meters":21600,"station_id":"ce4bh012rcd13ifvqd10","pricing_plan_id":"cebpf4jnsgd1na2vs0mg"},{"bike_id":"4629799c-f1b4-4fe2-81f4-6cae2e77c918","system_id":"levelo_inurba_marseille","lat":43.28724,"lon":5.37938,"is_reserved":false,"is_disabled":false,"rental_uris":{"android":"levelo://app?vid=4629799c-f1b4-4fe2-81f4-6cae2e77c918","ios":"levelo://app?vid=4629799c-f1b4-4fe2-81f4-6cae2e77c918"},"vehicle_type_id":"4","last_reported":1746824962,"current_range_meters":22000,"station_id":"ce4bh9p2rcd13ifvqec0","pricing_plan_id":"cebpf4jnsgd1na2vs0mg"},{"bike_id":"4e80bd90-4cb1-487a-a627-e52a72d8580d","system_id":"levelo_inurba_marseille","lat":43.29416,"lon":5.38631,"is_reserved":false,"is_disabled":false,"rental_uris":{"android":"levelo://app?vid=4e80bd90-4cb1-487a-a627-e52a72d8580d","ios":"levelo://app?vid=4e80bd90-4cb1-487a-a627-e52a72d8580d"},"vehicle_type_id":"4","last_reported":1746824962,"current_range_meters":22000,"station_id":"ce4bh2h2rcd13ifvqdh0","pricing_plan_id":"cebpf4jnsgd1na2vs0mg"},{"bike_id":"a783564d-79c3-402c-a475-e8418e91c3a2","system_id":"levelo_inurba_marseille","lat":43.293204,"lon":5.371069,"is_reserved":false,"is_disabled":false,"rental_uris":{"android":"levelo://app?vid=a783564d-79c3-402c-a475-e8418e91c3a2","ios":"levelo://app?vid=a783564d-79c3-402c-a475-e8418e91c3a2"},"vehicle_type_id":"4","last_reported":1746824962,"current_range_meters":22000,"station_id":"","pricing_plan_id":"cebpf4jnsgd1na2vs0mg"},{"bike_id":"9d5dcd0f-5e62-4997-8d75-d5d39259a726","system_id":"levelo_inurba_marseille","lat":43.31723,"lon":5.4239,"is_reserved":false,"is_disabled":false,"rental_uris":{"android":"levelo://app?vid=9d5dcd0f-5e62-4997-8d75-d5d39259a726","ios":"levelo://app?vid=9d5dcd0f-5e62-4997-8d75-d5d39259a726"},"vehicle_type_id":"4","last_reported":1746824962,"current_range_meters":21600,"station_id":"ce4bhp92rcd13ifvqhbg","pricing_plan_id":"cebpf4jnsgd1na2vs0mg"},{"bike_id":"0bfa2ea4-01ba-49a5-9946-69cb68a58376","system_id":"levelo_inurba_marseille","lat":43.29413,"lon":5.38638,"is_reserved":false,"is_disabled":false,"rental_uris":{"android":"levelo://app?vid=0bfa2ea4-01ba-49a5-9946-69cb68a58376","ios":"levelo://app?vid=0bfa2ea4-01ba-49a5-9946-69cb68a58376"},"vehicle_type_id":"4","last_reported":1746824962,"current_range_meters":22400,"station_id":"ce4bh2h2rcd13ifvqdh0","pricing_plan_id":"cebpf4jnsgd1na2vs0mg"},{"bike_id":"a66baad1-ccdb-46dd-9074-697960d2fe09","system_id":"levelo_inurba_marseille","lat":43.26215,"lon":5.37442,"is_reserved":false,"is_disabled":false,"rental_uris":{"android":"levelo://app?vid=a66baad1-ccdb-46dd-9074-697960d2fe09","ios":"levelo://app?vid=a66baad1-ccdb-46dd-9074-697960d2fe09"},"vehicle_type_id":"4","last_reported":1746824962,"current_range_meters":22400,"station_id":"ce4bhgp2rcd13ifvqfc0","pricing_plan_id":"cebpf4jnsgd1na2vs0mg"},{"bike_id":"799ee484-474d-4e85-a125-14cb32252c9b","system_id":"levelo_inurba_marseille","lat":43.26217,"lon":5.37434,"is_reserved":false,"is_disabled":false,"rental_uris":{"android":"levelo://app?vid=799ee484-474d-4e85-a125-14cb32252c9b","ios":"levelo://app?vid=799ee484-474d-4e85-a125-14cb32252c9b"},"vehicle_type_id":"4","last_reported":1746824962,"current_range_meters":22400,"station_id":"ce4bhgp2rcd13ifvqfc0","pricing_plan_id":"cebpf4jnsgd1na2vs0mg"},{"bike_id":"aed414f7-e89e-4681-a732-1d6c6f1f34a8","system_id":"levelo_inurba_marseille","lat":43.294306,"lon":5.397534,"is_reserved":false,"is_disabled":false,"rental_uris":{"android":"levelo://app?vid=aed414f7-e89e-4681-a732-1d6c6f1f34a8","ios":"levelo://app?vid=aed414f7-e89e-4681-a732-1d6c6f1f34a8"},"vehicle_type_id":"4","last_reported":1746824962,"current_range_meters":22400,"station_id":"ce4bh3h2rcd13ifvqdo0","pricing_plan_id":"cebpf4jnsgd1na2vs0mg"},{"bike_id":"bf43bc07-20f6-4cee-bc8b-9bb7345eed40","system_id":"levelo_inurba_marseille","lat":43.30326,"lon":5.40433,"is_reserved":false,"is_disabled":false,"rental_uris":{"android":"levelo://app?vid=bf43bc07-20f6-4cee-bc8b-9bb7345eed40","ios":"levelo://app?vid=bf43bc07-20f6-4cee-bc8b-9bb7345eed40"},"vehicle_type_id":"4","last_reported":1746824962,"current_range_meters":22800,"station_id":"ce4bh012rcd13ifvqd10","pricing_plan_id":"cebpf4jnsgd1na2vs0mg"},{"bike_id":"7326cbf6-42ad-488d-99bc-d4958df37356","system_id":"levelo_inurba_marseille","lat":43.294232,"lon":5.386276,"is_reserved":false,"is_disabled":false,"rental_uris":{"android":"levelo://app?vid=7326cbf6-42ad-488d-99bc-d4958df37356","ios":"levelo://app?vid=7326cbf6-42ad-488d-99bc-d4958df37356"},"vehicle_type_id":"4","last_reported":1746824962,"current_range_meters":22800,"station_id":"ce4bh2h2rcd13ifvqdh0","pricing_plan_id":"cebpf4jnsgd1na2vs0mg"},{"bike_id":"07e073ad-692d-4e3f-ab7f-b5aff4e1bfef","system_id":"levelo_inurba_marseille","lat":43.3089,"lon":5.39642,"is_reserved":false,"is_disabled":false,"rental_uris":{"android":"levelo://app?vid=07e073ad-692d-4e3f-ab7f-b5aff4e1bfef","ios":"levelo://app?vid=07e073ad-692d-4e3f-ab7f-b5aff4e1bfef"},"vehicle_type_id":"4","last_reported":1746824962,"current_range_meters":22400,"station_id":"ce4bh012rcd13ifvqcv0","pricing_plan_id":"cebpf4jnsgd1na2vs0mg"},{"bike_id":"345ce1fb-b861-4aee-8c4c-ecef8dad57fb","system_id":"levelo_inurba_marseille","lat":43.243847,"lon":5.37065,"is_reserved":false,"is_disabled":false,"rental_uris":{"android":"levelo://app?vid=345ce1fb-b861-4aee-8c4c-ecef8dad57fb","ios":"levelo://app?vid=345ce1fb-b861-4aee-8c4c-ecef8dad57fb"},"vehicle_type_id":"4","last_reported":1746824962,"current_range_meters":22800,"station_id":"ce4bhhh2rcd13ifvqfk0","pricing_plan_id":"cebpf4jnsgd1na2vs0mg"},{"bike_id":"7c377f70-2120-44c6-bdbf-5f329d24d733","system_id":"levelo_inurba_marseille","lat":43.29415,"lon":5.38627,"is_reserved":false,"is_disabled":false,"rental_uris":{"android":"levelo://app?vid=7c377f70-2120-44c6-bdbf-5f329d24d733","ios":"levelo://app?vid=7c377f70-2120-44c6-bdbf-5f329d24d733"},"vehicle_type_id":"4","last_reported":1746824962,"current_range_meters":22800,"station_id":"ce4bh2h2rcd13ifvqdh0","pricing_plan_id":"cebpf4jnsgd1na2vs0mg"},{"bike_id":"f52c819d-ca4b-4640-b458-b877db1bf990","system_id":"levelo_inurba_marseille","lat":43.298647,"lon":5.410139,"is_reserved":false,"is_disabled":false,"rental_uris":{"android":"levelo://app?vid=f52c819d-ca4b-4640-b458-b877db1bf990","ios":"levelo://app?vid=f52c819d-ca4b-4640-b458-b877db1bf990"},"vehicle_type_id":"4","last_reported":1746824962,"current_range_meters":23200,"station_id":"","pricing_plan_id":"cebpf4jnsgd1na2vs0mg"},{"bike_id":"b49ae29d-9434-4e73-8066-9964daffbf70","system_id":"levelo_inurba_marseille","lat":43.24392,"lon":5.3705,"is_reserved":false,"is_disabled":false,"rental_uris":{"android":"levelo://app?vid=b49ae29d-9434-4e73-8066-9964daffbf70","ios":"levelo://app?vid=b49ae29d-9434-4e73-8066-9964daffbf70"},"vehicle_type_id":"4","last_reported":1746824962,"current_range_meters":22800,"station_id":"ce4bhhh2rcd13ifvqfk0","pricing_plan_id":"cebpf4jnsgd1na2vs0mg"},{"bike_id":"1e5542d3-968e-4cb2-9ecd-84e32d628c67","system_id":"levelo_inurba_marseille","lat":43.29957,"lon":5.4132,"is_reserved":false,"is_disabled":false,"rental_uris":{"android":"levelo://app?vid=1e5542d3-968e-4cb2-9ecd-84e32d628c67","ios":"levelo://app?vid=1e5542d3-968e-4cb2-9ecd-84e32d628c67"},"vehicle_type_id":"4","last_reported":1746824962,"current_range_meters":23200,"station_id":"ce4bhp12rcd13ifvqh9g","pricing_plan_id":"cebpf4jnsgd1na2vs0mg"},{"bike_id":"3b1c8ef6-8772-4f2e-a3b3-9cbba74886bf","system_id":"levelo_inurba_marseille","lat":43.30964,"lon":5.39032,"is_reserved":false,"is_disabled":false,"rental_uris":{"android":"levelo://app?vid=3b1c8ef6-8772-4f2e-a3b3-9cbba74886bf","ios":"levelo://app?vid=3b1c8ef6-8772-4f2e-a3b3-9cbba74886bf"},"vehicle_type_id":"4","last_reported":1746824962,"current_range_meters":23200,"station_id":"ce4bgup2rcd13ifvqco0","pricing_plan_id":"cebpf4jnsgd1na2vs0mg"},{"bike_id":"6b9ba116-23ae-474d-a4dd-6f42a9a9a563","system_id":"levelo_inurba_marseille","lat":43.28675,"lon":5.3866,"is_reserved":false,"is_disabled":false,"rental_uris":{"android":"levelo://app?vid=6b9ba116-23ae-474d-a4dd-6f42a9a9a563","ios":"levelo://app?vid=6b9ba116-23ae-474d-a4dd-6f42a9a9a563"},"vehicle_type_id":"4","last_reported":1746824962,"current_range_meters":23200,"station_id":"ce4bh492rcd13ifvqdug","pricing_plan_id":"cebpf4jnsgd1na2vs0mg"},{"bike_id":"e3862fa4-f3de-4f10-80d6-eadd7ab0aaba","system_id":"levelo_inurba_marseille","lat":43.29257,"lon":5.40909,"is_reserved":false,"is_disabled":false,"rental_uris":{"android":"levelo://app?vid=e3862fa4-f3de-4f10-80d6-eadd7ab0aaba","ios":"levelo://app?vid=e3862fa4-f3de-4f10-80d6-eadd7ab0aaba"},"vehicle_type_id":"4","last_reported":1746824962,"current_range_meters":23200,"station_id":"ce4bh192rcd13ifvqdc0","pricing_plan_id":"cebpf4jnsgd1na2vs0mg"},{"bike_id":"30d032a9-1fb6-4043-9a18-982f18073f8a","system_id":"levelo_inurba_marseille","lat":43.23953,"lon":5.3665,"is_reserved":false,"is_disabled":false,"rental_uris":{"android":"levelo://app?vid=30d032a9-1fb6-4043-9a18-982f18073f8a","ios":"levelo://app?vid=30d032a9-1fb6-4043-9a18-982f18073f8a"},"vehicle_type_id":"4","last_reported":1746824962,"current_range_meters":23200,"station_id":"ce4bhi12rcd13ifvqfp0","pricing_plan_id":"cebpf4jnsgd1na2vs0mg"},{"bike_id":"351ef218-24e5-4670-825d-fc1ac5cd3c19","system_id":"levelo_inurba_marseille","lat":43.31482,"lon":5.37306,"is_reserved":false,"is_disabled":false,"rental_uris":{"android":"levelo://app?vid=351ef218-24e5-4670-825d-fc1ac5cd3c19","ios":"levelo://app?vid=351ef218-24e5-4670-825d-fc1ac5cd3c19"},"vehicle_type_id":"4","last_reported":1746824962,"current_range_meters":23200,"station_id":"ce4bgt12rcd13ifvqcd0","pricing_plan_id":"cebpf4jnsgd1na2vs0mg"},{"bike_id":"ce47b29d-26e7-4416-8fd7-0ee6d32a740b","system_id":"levelo_inurba_marseille","lat":43.29255,"lon":5.38442,"is_reserved":false,"is_disabled":false,"rental_uris":{"android":"levelo://app?vid=ce47b29d-26e7-4416-8fd7-0ee6d32a740b","ios":"levelo://app?vid=ce47b29d-26e7-4416-8fd7-0ee6d32a740b"},"vehicle_type_id":"4","last_reported":1746824962,"current_range_meters":23200,"station_id":"ce4bh692rcd13ifvqea0","pricing_plan_id":"cebpf4jnsgd1na2vs0mg"},{"bike_id":"4e7ef0b6-1a93-4053-a286-9b84ce9ea953","system_id":"levelo_inurba_marseille","lat":43.29253,"lon":5.38439,"is_reserved":false,"is_disabled":false,"rental_uris":{"android":"levelo://app?vid=4e7ef0b6-1a93-4053-a286-9b84ce9ea953","ios":"levelo://app?vid=4e7ef0b6-1a93-4053-a286-9b84ce9ea953"},"vehicle_type_id":"4","last_reported":1746824962,"current_range_meters":24000,"station_id":"ce4bh692rcd13ifvqea0","pricing_plan_id":"cebpf4jnsgd1na2vs0mg"},{"bike_id":"8af08734-5df5-4cbb-917f-db23920c2925","system_id":"levelo_inurba_marseille","lat":43.29517,"lon":5.38543,"is_reserved":false,"is_disabled":false,"rental_uris":{"android":"levelo://app?vid=8af08734-5df5-4cbb-917f-db23920c2925","ios":"levelo://app?vid=8af08734-5df5-4cbb-917f-db23920c2925"},"vehicle_type_id":"4","last_reported":1746824962,"current_range_meters":24000,"station_id":"ce4bgih2rcd13ifvqba0","pricing_plan_id":"cebpf4jnsgd1na2vs0mg"},{"bike_id":"84d43bc9-113c-48c2-8524-29d39b05afca","system_id":"levelo_inurba_marseille","lat":43.28727,"lon":5.37934,"is_reserved":false,"is_disabled":false,"rental_uris":{"android":"levelo://app?vid=84d43bc9-113c-48c2-8524-29d39b05afca","ios":"levelo://app?vid=84d43bc9-113c-48c2-8524-29d39b05afca"},"vehicle_type_id":"4","last_reported":1746824962,"current_range_meters":24000,"station_id":"ce4bh9p2rcd13ifvqec0","pricing_plan_id":"cebpf4jnsgd1na2vs0mg"},{"bike_id":"830ca2f3-14a2-40d4-b14d-f14634d8ac66","system_id":"levelo_inurba_marseille","lat":43.31719,"lon":5.43732,"is_reserved":false,"is_disabled":true,"rental_uris":{"android":"levelo://app?vid=830ca2f3-14a2-40d4-b14d-f14634d8ac66","ios":"levelo://app?vid=830ca2f3-14a2-40d4-b14d-f14634d8ac66"},"vehicle_type_id":"4","last_reported":1746824962,"current_range_meters":24000,"station_id":"ce4bhp92rcd13ifvqhcg","pricing_plan_id":"cebpf4jnsgd1na2vs0mg"},{"bike_id":"35acdf18-4688-4fbc-9b69-407331d78b5a","system_id":"levelo_inurba_marseille","lat":43.292603,"lon":5.384377,"is_reserved":false,"is_disabled":false,"rental_uris":{"android":"levelo://app?vid=35acdf18-4688-4fbc-9b69-407331d78b5a","ios":"levelo://app?vid=35acdf18-4688-4fbc-9b69-407331d78b5a"},"vehicle_type_id":"4","last_reported":1746824962,"current_range_meters":24000,"station_id":"ce4bh692rcd13ifvqea0","pricing_plan_id":"cebpf4jnsgd1na2vs0mg"},{"bike_id":"ecfe4ab6-1ed8-4e3f-af8a-537e5f84860d","system_id":"levelo_inurba_marseille","lat":43.29975,"lon":5.38498,"is_reserved":false,"is_disabled":false,"rental_uris":{"android":"levelo://app?vid=ecfe4ab6-1ed8-4e3f-af8a-537e5f84860d","ios":"levelo://app?vid=ecfe4ab6-1ed8-4e3f-af8a-537e5f84860d"},"vehicle_type_id":"4","last_reported":1746824962,"current_range_meters":24000,"station_id":"ce4bgj92rcd13ifvqbd0","pricing_plan_id":"cebpf4jnsgd1na2vs0mg"},{"bike_id":"b4be7805-9985-4f63-bca0-70abc6fd1998","system_id":"levelo_inurba_marseille","lat":43.29273,"lon":5.38446,"is_reserved":false,"is_disabled":false,"rental_uris":{"android":"levelo://app?vid=b4be7805-9985-4f63-bca0-70abc6fd1998","ios":"levelo://app?vid=b4be7805-9985-4f63-bca0-70abc6fd1998"},"vehicle_type_id":"4","last_reported":1746824962,"current_range_meters":24000,"station_id":"ce4bh692rcd13ifvqea0","pricing_plan_id":"cebpf4jnsgd1na2vs0mg"},{"bike_id":"af552c10-f655-46cf-a5a4-2f095db5aecd","system_id":"levelo_inurba_marseille","lat":43.30311,"lon":5.39196,"is_reserved":false,"is_disabled":false,"rental_uris":{"android":"levelo://app?vid=af552c10-f655-46cf-a5a4-2f095db5aecd","ios":"levelo://app?vid=af552c10-f655-46cf-a5a4-2f095db5aecd"},"vehicle_type_id":"4","last_reported":1746824962,"current_range_meters":24000,"station_id":"ce4bgkh2rcd13ifvqbk0","pricing_plan_id":"cebpf4jnsgd1na2vs0mg"},{"bike_id":"51f9a216-41a1-4861-9774-60fc44178d23","system_id":"levelo_inurba_marseille","lat":43.29537,"lon":5.38519,"is_reserved":false,"is_disabled":false,"rental_uris":{"android":"levelo://app?vid=51f9a216-41a1-4861-9774-60fc44178d23","ios":"levelo://app?vid=51f9a216-41a1-4861-9774-60fc44178d23"},"vehicle_type_id":"4","last_reported":1746824962,"current_range_meters":24000,"station_id":"ce4bgih2rcd13ifvqba0","pricing_plan_id":"cebpf4jnsgd1na2vs0mg"},{"bike_id":"e4cc6aae-2bb5-4d1b-bddc-5fe29add5cc3","system_id":"levelo_inurba_marseille","lat":43.29792,"lon":5.3809,"is_reserved":false,"is_disabled":false,"rental_uris":{"android":"levelo://app?vid=e4cc6aae-2bb5-4d1b-bddc-5fe29add5cc3","ios":"levelo://app?vid=e4cc6aae-2bb5-4d1b-bddc-5fe29add5cc3"},"vehicle_type_id":"4","last_reported":1746824962,"current_range_meters":24000,"station_id":"ce4bgip2rcd13ifvqbb0","pricing_plan_id":"cebpf4jnsgd1na2vs0mg"},{"bike_id":"73ded412-1ade-4c78-acbe-a9afd038932d","system_id":"levelo_inurba_marseille","lat":43.24164,"lon":5.363957,"is_reserved":false,"is_disabled":false,"rental_uris":{"android":"levelo://app?vid=73ded412-1ade-4c78-acbe-a9afd038932d","ios":"levelo://app?vid=73ded412-1ade-4c78-acbe-a9afd038932d"},"vehicle_type_id":"4","last_reported":1746824962,"current_range_meters":24000,"station_id":"cpo36qri1sfpv3e86is0","pricing_plan_id":"cebpf4jnsgd1na2vs0mg"},{"bike_id":"1dc1bf32-4172-4f13-91e7-ab9aa0942504","system_id":"levelo_inurba_marseille","lat":43.30887,"lon":5.39659,"is_reserved":false,"is_disabled":false,"rental_uris":{"android":"levelo://app?vid=1dc1bf32-4172-4f13-91e7-ab9aa0942504","ios":"levelo://app?vid=1dc1bf32-4172-4f13-91e7-ab9aa0942504"},"vehicle_type_id":"4","last_reported":1746824962,"current_range_meters":24000,"station_id":"ce4bh012rcd13ifvqcv0","pricing_plan_id":"cebpf4jnsgd1na2vs0mg"},{"bike_id":"40b29dc7-38e1-4f66-85b2-7a146d1d8e20","system_id":"levelo_inurba_marseille","lat":43.30638,"lon":5.40091,"is_reserved":false,"is_disabled":false,"rental_uris":{"android":"levelo://app?vid=40b29dc7-38e1-4f66-85b2-7a146d1d8e20","ios":"levelo://app?vid=40b29dc7-38e1-4f66-85b2-7a146d1d8e20"},"vehicle_type_id":"4","last_reported":1746824962,"current_range_meters":24000,"station_id":"ce4bh112rcd13ifvqda0","pricing_plan_id":"cebpf4jnsgd1na2vs0mg"},{"bike_id":"9ba0e669-4874-47a8-8f1c-eacf136664d6","system_id":"levelo_inurba_marseille","lat":43.31758,"lon":5.39002,"is_reserved":false,"is_disabled":false,"rental_uris":{"android":"levelo://app?vid=9ba0e669-4874-47a8-8f1c-eacf136664d6","ios":"levelo://app?vid=9ba0e669-4874-47a8-8f1c-eacf136664d6"},"vehicle_type_id":"4","last_reported":1746824962,"current_range_meters":24000,"station_id":"ce4bhqp2rcd13ifvqhng","pricing_plan_id":"cebpf4jnsgd1na2vs0mg"},{"bike_id":"d5aa6e55-2510-4772-b93d-b59644f496e7","system_id":"levelo_inurba_marseille","lat":43.29936,"lon":5.36557,"is_reserved":false,"is_disabled":false,"rental_uris":{"android":"levelo://app?vid=d5aa6e55-2510-4772-b93d-b59644f496e7","ios":"levelo://app?vid=d5aa6e55-2510-4772-b93d-b59644f496e7"},"vehicle_type_id":"4","last_reported":1746824962,"current_range_meters":24000,"station_id":"ce4bgm92rcd13ifvqbr0","pricing_plan_id":"cebpf4jnsgd1na2vs0mg"},{"bike_id":"6ca69db7-bdbf-4901-a061-91257760b749","system_id":"levelo_inurba_marseille","lat":43.25722,"lon":5.41088,"is_reserved":false,"is_disabled":false,"rental_uris":{"android":"levelo://app?vid=6ca69db7-bdbf-4901-a061-91257760b749","ios":"levelo://app?vid=6ca69db7-bdbf-4901-a061-91257760b749"},"vehicle_type_id":"4","last_reported":1746824962,"current_range_meters":24400,"station_id":"ce4bhkp2rcd13ifvqgd0","pricing_plan_id":"cebpf4jnsgd1na2vs0mg"},{"bike_id":"48ed43fb-4ad0-4001-acee-f6ea4523cfc5","system_id":"levelo_inurba_marseille","lat":43.286213,"lon":5.47705,"is_reserved":false,"is_disabled":false,"rental_uris":{"android":"levelo://app?vid=48ed43fb-4ad0-4001-acee-f6ea4523cfc5","ios":"levelo://app?vid=48ed43fb-4ad0-4001-acee-f6ea4523cfc5"},"vehicle_type_id":"4","last_reported":1746824962,"current_range_meters":24400,"station_id":"","pricing_plan_id":"cebpf4jnsgd1na2vs0mg"},{"bike_id":"bcc30fe8-103f-4539-aed4-10df738ebe66","system_id":"levelo_inurba_marseille","lat":43.31721,"lon":5.42399,"is_reserved":false,"is_disabled":false,"rental_uris":{"android":"levelo://app?vid=bcc30fe8-103f-4539-aed4-10df738ebe66","ios":"levelo://app?vid=bcc30fe8-103f-4539-aed4-10df738ebe66"},"vehicle_type_id":"4","last_reported":1746824962,"current_range_meters":24000,"station_id":"ce4bhp92rcd13ifvqhbg","pricing_plan_id":"cebpf4jnsgd1na2vs0mg"},{"bike_id":"e8d87c3a-8e63-4494-879e-6d10d56c9c58","system_id":"levelo_inurba_marseille","lat":43.30634,"lon":5.40087,"is_reserved":false,"is_disabled":false,"rental_uris":{"android":"levelo://app?vid=e8d87c3a-8e63-4494-879e-6d10d56c9c58","ios":"levelo://app?vid=e8d87c3a-8e63-4494-879e-6d10d56c9c58"},"vehicle_type_id":"4","last_reported":1746824962,"current_range_meters":24400,"station_id":"ce4bh112rcd13ifvqda0","pricing_plan_id":"cebpf4jnsgd1na2vs0mg"},{"bike_id":"da1f98d9-54ed-436b-a834-480a7dc9bab4","system_id":"levelo_inurba_marseille","lat":43.30444,"lon":5.38876,"is_reserved":false,"is_disabled":false,"rental_uris":{"android":"levelo://app?vid=da1f98d9-54ed-436b-a834-480a7dc9bab4","ios":"levelo://app?vid=da1f98d9-54ed-436b-a834-480a7dc9bab4"},"vehicle_type_id":"4","last_reported":1746824962,"current_range_meters":24400,"station_id":"ce4bgk12rcd13ifvqbi0","pricing_plan_id":"cebpf4jnsgd1na2vs0mg"},{"bike_id":"428a7e11-536f-4dee-bd14-64cd00ee56fa","system_id":"levelo_inurba_marseille","lat":43.2669,"lon":5.38249,"is_reserved":false,"is_disabled":false,"rental_uris":{"android":"levelo://app?vid=428a7e11-536f-4dee-bd14-64cd00ee56fa","ios":"levelo://app?vid=428a7e11-536f-4dee-bd14-64cd00ee56fa"},"vehicle_type_id":"4","last_reported":1746824962,"current_range_meters":24400,"station_id":"ce4bhg92rcd13ifvqf90","pricing_plan_id":"cebpf4jnsgd1na2vs0mg"},{"bike_id":"9f297cec-ce6d-4920-b095-613dc4be599d","system_id":"levelo_inurba_marseille","lat":43.25859,"lon":5.39902,"is_reserved":false,"is_disabled":false,"rental_uris":{"android":"levelo://app?vid=9f297cec-ce6d-4920-b095-613dc4be599d","ios":"levelo://app?vid=9f297cec-ce6d-4920-b095-613dc4be599d"},"vehicle_type_id":"4","last_reported":1746824962,"current_range_meters":24400,"station_id":"ce4bhl92rcd13ifvqghg","pricing_plan_id":"cebpf4jnsgd1na2vs0mg"},{"bike_id":"5bc17110-2958-4859-9a6e-91de080f212e","system_id":"levelo_inurba_marseille","lat":43.29251,"lon":5.38443,"is_reserved":false,"is_disabled":false,"rental_uris":{"android":"levelo://app?vid=5bc17110-2958-4859-9a6e-91de080f212e","ios":"levelo://app?vid=5bc17110-2958-4859-9a6e-91de080f212e"},"vehicle_type_id":"4","last_reported":1746824962,"current_range_meters":24400,"station_id":"ce4bh692rcd13ifvqea0","pricing_plan_id":"cebpf4jnsgd1na2vs0mg"},