{"last_updated":1740776880,"ttl":60,"version":"2.2","data":{"bikes":[{"bike_id":"d3ad57ad-12cf-411b-8322-9a9c3fa2eac0","system_id":"levelo_inurba_marseille","lat":43.30593,"lon":5.3931,"is_reserved":false,"is_disabled":false,"rental_uris":{"android":"levelo://app?vid=d3ad57ad-12cf-411b-8322-9a9c3fa2eac0","ios":"levelo://app?vid=d3ad57ad-12cf-411b-8322-9a9c3fa2eac0"},"vehicle_type_id":"4","last_reported":1740776881,"current_range_meters":2800,"station_id":"ce4bh0p2rcd13ifvqd80","pricing_plan_id":"cebpf4jnsgd1na2vs0mg"},{"bike_id":"aa8cae61-f614-49d4-a6f9-04073c79edfc","system_id":"levelo_inurba_marseille","lat":43.29316,"lon":5.37188,"is_reserved":false,"is_disabled":false,"rental_uris":{"android":"levelo://app?vid=aa8cae61-f614-49d4-a6f9-04073c79edfc","ios":"levelo://app?vid=aa8cae61-f614-49d4-a6f9-04073c79edfc"},"vehicle_type_id":"4","last_reported":1740776881,"current_range_meters":3200,"station_id":"ce4bgh92rcd13ifvqb40","pricing_plan_id":"cebpf4jnsgd1na2vs0mg"},{"bike_id":"8d2adfba-32a2-4131-99ba-3ecdcaa11c4c","system_id":"levelo_inurba_marseille","lat":43.25509,"lon":5.37671,"is_reserved":false,"is_disabled":false,"rental_uris":{"android":"levelo://app?vid=8d2adfba-32a2-4131-99ba-3ecdcaa11c4c","ios":"levelo://app?vid=8d2adfba-32a2-4131-99ba-3ecdcaa11c4c"},"vehicle_type_id":"4","last_reported":1740776881,"current_range_meters":3200,"station_id":"ce4bhh12rcd13ifvqff0","pricing_plan_id":"cebpf4jnsgd1na2vs0mg"},{"bike_id":"46e64209-7a78-47c7-9ce5-31d882917732","system_id":"levelo_inurba_marseille","lat":43.29734,"lon":5.37668,"is_reserved":false,"is_disabled":false,"rental_uris":{"android":"levelo://app?vid=46e64209-7a78-47c7-9ce5-31d882917732","ios":"levelo://app?vid=46e64209-7a78-47c7-9ce5-31d882917732"},"vehicle_type_id":"4","last_reported":1740776881,"current_range_meters":3200,"station_id":"ce4bgkh2rcd13ifvqbl0","pricing_plan_id":"cebpf4jnsgd1na2vs0mg"},{"bike_id":"672316ae-9c12-449c-bb12-c9d9e5929cbc","system_id":"levelo_inurba_marseille","lat":43.29589,"lon":5.38092,"is_reserved":false,"is_disabled":false,"rental_uris":{"android":"levelo://app?vid=672316ae-9c12-449c-bb12-c9d9e5929cbc","ios":"levelo://app?vid=672316ae-9c12-449c-bb12-c9d9e5929cbc"},"vehicle_type_id":"4","last_reported":1740776881,"current_range_meters":3600,"station_id":"ce4bgl12rcd13ifvqbo0","pricing_plan_id":"cebpf4jnsgd1na2vs0mg"},{"bike_id":"cec75c87-f6e3-49e1-9364-54d8c713834e","system_id":"levelo_inurba_marseille","lat":43.28456,"lon":5.3589,"is_reserved":false,"is_disabled":false,"rental_uris":{"android":"levelo://app?vid=cec75c87-f6e3-49e1-9364-54d8c713834e","ios":"levelo://app?vid=cec75c87-f6e3-49e1-9364-54d8c713834e"},"vehicle_type_id":"4","last_reported":1740776881,"current_range_meters":3600,"station_id":"ce4bhah2rcd13ifvqei0","pricing_plan_id":"cebpf4jnsgd1na2vs0mg"},{"bike_id":"7288e277-6b94-40aa-b631-305fb1dd0599","system_id":"levelo_inurba_marseille","lat":43.31329,"lon":5.39693,"is_reserved":false,"is_disabled":false,"rental_uris":{"android":"levelo://app?vid=7288e277-6b94-40aa-b631-305fb1dd0599","ios":"levelo://app?vid=7288e277-6b94-40aa-b631-305fb1dd0599"},"vehicle_type_id":"4","last_reported":1740776881,"current_range_meters":3600,"station_id":"ce4bgvp2rcd13ifvqcu0","pricing_plan_id":"cebpf4jnsgd1na2vs0mg"},{"bike_id":"dbb938bf-03cb-4b54-bd0d-6b81eaab63cf","system_id":"levelo_inurba_marseille","lat":43.28417,"lon":5.37529,"is_reserved":false,"is_disabled":false,"rental_uris":{"android":"levelo://app?vid=dbb938bf-03cb-4b54-bd0d-6b81eaab63cf","ios":"levelo://app?vid=dbb938bf-03cb-4b54-bd0d-6b81eaab63cf"},"vehicle_type_id":"4","last_reported":1740776881,"current_range_meters":4000,"station_id":"ce4bh412rcd13ifvqds0","pricing_plan_id":"cebpf4jnsgd1na2vs0mg"},{"bike_id":"89f363ad-799b-487f-aa57-bee70fc2d147","system_id":"levelo_inurba_marseille","lat":43.30136,"lon":5.3987,"is_reserved":false,"is_disabled":false,"rental_uris":{"android":"levelo://app?vid=89f363ad-799b-487f-aa57-bee70fc2d147","ios":"levelo://app?vid=89f363ad-799b-487f-aa57-bee70fc2d147"},"vehicle_type_id":"4","last_reported":1740776881,"current_range_meters":3600,"station_id":"ce4bh0h2rcd13ifvqd40","pricing_plan_id":"cebpf4jnsgd1na2vs0mg"},{"bike_id":"6ef2d5b0-e2be-4b34-bcbf-65a8b9369a95","system_id":"levelo_inurba_marseille","lat":43.28614,"lon":5.35102,"is_reserved":false,"is_disabled":false,"rental_uris":{"android":"levelo://app?vid=6ef2d5b0-e2be-4b34-bcbf-65a8b9369a95","ios":"levelo://app?vid=6ef2d5b0-e2be-4b34-bcbf-65a8b9369a95"},"vehicle_type_id":"4","last_reported":1740776881,"current_range_meters":4400,"station_id":"ce4bhch2rcd13ifvqeug","pricing_plan_id":"cebpf4jnsgd1na2vs0mg"},{"bike_id":"f8f7f0cb-c8f8-4a1b-b0ba-667927d1e49a","system_id":"levelo_inurba_marseille","lat":43.2955,"lon":5.42271,"is_reserved":false,"is_disabled":false,"rental_uris":{"android":"levelo://app?vid=f8f7f0cb-c8f8-4a1b-b0ba-667927d1e49a","ios":"levelo://app?vid=f8f7f0cb-c8f8-4a1b-b0ba-667927d1e49a"},"vehicle_type_id":"4","last_reported":1740776881,"current_range_meters":1200,"station_id":"ce4bhph2rcd13ifvqhdg","pricing_plan_id":"cebpf4jnsgd1na2vs0mg"},{"bike_id":"2d151bb7-170e-44c9-853b-131cb86d5796","system_id":"levelo_inurba_marseille","lat":43.26567,"lon":5.39003,"is_reserved":false,"is_disabled":false,"rental_uris":{"android":"levelo://app?vid=2d151bb7-170e-44c9-853b-131cb86d5796","ios":"levelo://app?vid=2d151bb7-170e-44c9-853b-131cb86d5796"},"vehicle_type_id":"4","last_reported":1740776881,"current_range_meters":4400,"station_id":"ce4bhe12rcd13ifvqf30","pricing_plan_id":"cebpf4jnsgd1na2vs0mg"},{"bike_id":"a402dcb0-63b6-4569-b9e8-ad825500c3f8","system_id":"levelo_inurba_marseille","lat":43.28984,"lon":5.35901,"is_reserved":false,"is_disabled":false,"rental_uris":{"android":"levelo://app?vid=a402dcb0-63b6-4569-b9e8-ad825500c3f8","ios":"levelo://app?vid=a402dcb0-63b6-4569-b9e8-ad825500c3f8"},"vehicle_type_id":"4","last_reported":1740776881,"current_range_meters":4400,"station_id":"","pricing_plan_id":"cebpf4jnsgd1na2vs0mg"},{"bike_id":"a8328c72-27ce-4150-a953-d0b7993a21b2","system_id":"levelo_inurba_marseille","lat":43.29261,"lon":5.37649,"is_reserved":false,"is_disabled":false,"rental_uris":{"android":"levelo://app?vid=a8328c72-27ce-4150-a953-d0b7993a21b2","ios":"levelo://app?vid=a8328c72-27ce-4150-a953-d0b7993a21b2"},"vehicle_type_id":"4","last_reported":1740776881,"current_range_meters":4400,"station_id":"ce4bgi12rcd13ifvqb80","pricing_plan_id":"cebpf4jnsgd1na2vs0mg"},{"bike_id":"049dbaef-bf7d-467f-8e77-0ad41e5cb2fe","system_id":"levelo_inurba_marseille","lat":43.290301,"lon":5.35922,"is_reserved":false,"is_disabled":false,"rental_uris":{"android":"levelo://app?vid=049dbaef-bf7d-467f-8e77-0ad41e5cb2fe","ios":"levelo://app?vid=049dbaef-bf7d-467f-8e77-0ad41e5cb2fe"},"vehicle_type_id":"4","last_reported":1740776881,"current_range_meters":4800,"station_id":"ce4bha92rcd13ifvqeg0","pricing_plan_id":"cebpf4jnsgd1na2vs0mg"},{"bike_id":"e9783a72-39c5-49e7-8847-fa0f76b6d257","system_id":"levelo_inurba_marseille","lat":43.29971,"lon":5.38482,"is_reserved":false,"is_disabled":true,"rental_uris":{"android":"levelo://app?vid=e9783a72-39c5-49e7-8847-fa0f76b6d257","ios":"levelo://app?vid=e9783a72-39c5-49e7-8847-fa0f76b6d257"},"vehicle_type_id":"4","last_reported":1740776881,"current_range_meters":4800,"station_id":"ce4bgj92rcd13ifvqbd0","pricing_plan_id":"cebpf4jnsgd1na2vs0mg"},{"bike_id":"3d25e110-aaf8-4ceb-bc40-59c4eb843334","system_id":"levelo_inurba_marseille","lat":43.27902,"lon":5.38017,"is_reserved":false,"is_disabled":false,"rental_uris":{"android":"levelo://app?vid=3d25e110-aaf8-4ceb-bc40-59c4eb843334","ios":"levelo://app?vid=3d25e110-aaf8-4ceb-bc40-59c4eb843334"},"vehicle_type_id":"4","last_reported":1740776881,"current_range_meters":4800,"station_id":"ce4bhf92rcd13ifvqf50","pricing_plan_id":"cebpf4jnsgd1na2vs0mg"},{"bike_id":"0cf57a9c-d86e-4783-8b95-e1a91492d3fd","system_id":"levelo_inurba_marseille","lat":43.32292,"lon":5.38289,"is_reserved":false,"is_disabled":false,"rental_uris":{"android":"levelo://app?vid=0cf57a9c-d86e-4783-8b95-e1a91492d3fd","ios":"levelo://app?vid=0cf57a9c-d86e-4783-8b95-e1a91492d3fd"},"vehicle_type_id":"4","last_reported":1740776881,"current_range_meters":5600,"station_id":"ce4bhr12rcd13ifvqhqg","pricing_plan_id":"cebpf4jnsgd1na2vs0mg"},{"bike_id":"0317c915-b518-4b85-aa91-67d2abe0b311","system_id":"levelo_inurba_marseille","lat":43.29519,"lon":5.3906,"is_reserved":false,"is_disabled":false,"rental_uris":{"android":"levelo://app?vid=0317c915-b518-4b85-aa91-67d2abe0b311","ios":"levelo://app?vid=0317c915-b518-4b85-aa91-67d2abe0b311"},"vehicle_type_id":"4","last_reported":1740776881,"current_range_meters":5600,"station_id":"ce4bh3p2rcd13ifvqdp0","pricing_plan_id":"cebpf4jnsgd1na2vs0mg"},{"bike_id":"2137a66d-7e52-40b3-a7e1-e8f2cd57cd6e","system_id":"levelo_inurba_marseille","lat":43.30799,"lon":5.4353,"is_reserved":false,"is_disabled":false,"rental_uris":{"android":"levelo://app?vid=2137a66d-7e52-40b3-a7e1-e8f2cd57cd6e","ios":"levelo://app?vid=2137a66d-7e52-40b3-a7e1-e8f2cd57cd6e"},"vehicle_type_id":"4","last_reported":1740776881,"current_range_meters":5600,"station_id":"ce4bhph2rcd13ifvqheg","pricing_plan_id":"cebpf4jnsgd1na2vs0mg"},{"bike_id":"e9492ccb-443f-4239-b0e2-98069aac6ce6","system_id":"levelo_inurba_marseille","lat":43.29795,"lon":5.38103,"is_reserved":false,"is_disabled":false,"rental_uris":{"android":"levelo://app?vid=e9492ccb-443f-4239-b0e2-98069aac6ce6","ios":"levelo://app?vid=e9492ccb-443f-4239-b0e2-98069aac6ce6"},"vehicle_type_id":"4","last_reported":1740776881,"current_range_meters":5600,"station_id":"ce4bgip2rcd13ifvqbb0","pricing_plan_id":"cebpf4jnsgd1na2vs0mg"},{"bike_id":"6439d20a-0448-49e4-8753-65e5fed5133b","system_id":"levelo_inurba_marseille","lat":43.29555,"lon":5.42286,"is_reserved":false,"is_disabled":false,"rental_uris":{"android":"levelo://app?vid=6439d20a-0448-49e4-8753-65e5fed5133b","ios":"levelo://app?vid=6439d20a-0448-49e4-8753-65e5fed5133b"},"vehicle_type_id":"4","last_reported":1740776881,"current_range_meters":4800,"station_id":"ce4bhph2rcd13ifvqhdg","pricing_plan_id":"cebpf4jnsgd1na2vs0mg"},{"bike_id":"47ab1dbc-d155-46b0-bfa9-431288314450","system_id":"levelo_inurba_marseille","lat":43.27931,"lon":5.41033,"is_reserved":false,"is_disabled":false,"rental_uris":{"android":"levelo://app?vid=47ab1dbc-d155-46b0-bfa9-431288314450","ios":"levelo://app?vid=47ab1dbc-d155-46b0-bfa9-431288314450"},"vehicle_type_id":"4","last_reported":1740776881,"current_range_meters":6000,"station_id":"ce4bhnp2rcd13ifvqh0g","pricing_plan_id":"cebpf4jnsgd1na2vs0mg"},{"bike_id":"89a7517e-6658-46c5-a615-9e427ec79029","system_id":"levelo_inurba_marseille","lat":43.25723,"lon":5.4181,"is_reserved":false,"is_disabled":false,"rental_uris":{"android":"levelo://app?vid=89a7517e-6658-46c5-a615-9e427ec79029","ios":"levelo://app?vid=89a7517e-6658-46c5-a615-9e427ec79029"},"vehicle_type_id":"4","last_reported":1740776881,"current_range_meters":6000,"station_id":"","pricing_plan_id":"cebpf4jnsgd1na2vs0mg"},{"bike_id":"a9a19c6c-0bed-4d1f-a200-55a2f4d3052e","system_id":"levelo_inurba_marseille","lat":43.28995,"lon":5.42608,"is_reserved":false,"is_disabled":false,"rental_uris":{"android":"levelo://app?vid=a9a19c6c-0bed-4d1f-a200-55a2f4d3052e","ios":"levelo://app?vid=a9a19c6c-0bed-4d1f-a200-55a2f4d3052e"},"vehicle_type_id":"4","last_reported":1740776881,"current_range_meters":6400,"station_id":"","pricing_plan_id":"cebpf4jnsgd1na2vs0mg"},{"bike_id":"ac27d0b4-9d9f-43c2-a513-5f0648f807d3","system_id":"levelo_inurba_marseille","lat":43.30954,"lon":5.39039,"is_reserved":false,"is_disabled":false,"rental_uris":{"android":"levelo://app?vid=ac27d0b4-9d9f-43c2-a513-5f0648f807d3","ios":"levelo://app?vid=ac27d0b4-9d9f-43c2-a513-5f0648f807d3"},"vehicle_type_id":"4","last_reported":1740776881,"current_range_meters":6400,"station_id":"ce4bgup2rcd13ifvqco0","pricing_plan_id":"cebpf4jnsgd1na2vs0mg"},{"bike_id":"db4a8446-beda-4f58-9bb4-927ab9bcee1d","system_id":"levelo_inurba_marseille","lat":43.2849,"lon":5.38427,"is_reserved":false,"is_disabled":true,"rental_uris":{"android":"levelo://app?vid=db4a8446-beda-4f58-9bb4-927ab9bcee1d","ios":"levelo://app?vid=db4a8446-beda-4f58-9bb4-927ab9bcee1d"},"vehicle_type_id":"4","last_reported":1740776881,"current_range_meters":6400,"station_id":"ce4bh512rcd13ifvqe3g","pricing_plan_id":"cebpf4jnsgd1na2vs0mg"},{"bike_id":"55f306c6-820d-4fa0-bdc4-8b744d1f1eea","system_id":"levelo_inurba_marseille","lat":43.24796,"lon":5.37465,"is_reserved":false,"is_disabled":false,"rental_uris":{"android":"levelo://app?vid=55f306c6-820d-4fa0-bdc4-8b744d1f1eea","ios":"levelo://app?vid=55f306c6-820d-4fa0-bdc4-8b744d1f1eea"},"vehicle_type_id":"4","last_reported":1740776881,"current_range_meters":6800,"station_id":"ce4bhgh2rcd13ifvqfb0","pricing_plan_id":"cebpf4jnsgd1na2vs0mg"},{"bike_id":"a0d0f0af-98e5-4b36-bca4-67b5adefd797","system_id":"levelo_inurba_marseille","lat":43.29525,"lon":5.38548,"is_reserved":false,"is_disabled":false,"rental_uris":{"android":"levelo://app?vid=a0d0f0af-98e5-4b36-bca4-67b5adefd797","ios":"levelo://app?vid=a0d0f0af-98e5-4b36-bca4-67b5adefd797"},"vehicle_type_id":"4","last_reported":1740776881,"current_range_meters":6400,"station_id":"ce4bgih2rcd13ifvqba0","pricing_plan_id":"cebpf4jnsgd1na2vs0mg"},{"bike_id":"e2edc88f-cb57-4b64-b197-934acbd389a7","system_id":"levelo_inurba_marseille","lat":43.29853,"lon":5.36272,"is_reserved":false,"is_disabled":false,"rental_uris":{"android":"levelo://app?vid=e2edc88f-cb57-4b64-b197-934acbd389a7","ios":"levelo://app?vid=e2edc88f-cb57-4b64-b197-934acbd389a7"},"vehicle_type_id":"4","last_reported":1740776881,"current_range_meters":6400,"station_id":"ce4bgpp2rcd13ifvqc3g","pricing_plan_id":"cebpf4jnsgd1na2vs0mg"},{"bike_id":"8842432e-3598-4905-ba3c-96d51a1247fb","system_id":"levelo_inurba_marseille","lat":43.30288,"lon":5.39183,"is_reserved":false,"is_disabled":false,"rental_uris":{"android":"levelo://app?vid=8842432e-3598-4905-ba3c-96d51a1247fb","ios":"levelo://app?vid=8842432e-3598-4905-ba3c-96d51a1247fb"},"vehicle_type_id":"4","last_reported":1740776881,"current_range_meters":6400,"station_id":"ce4bgkh2rcd13ifvqbk0","pricing_plan_id":"cebpf4jnsgd1na2vs0mg"},{"bike_id":"4e21c123-fed3-4db6-ad81-45cccdae0542","system_id":"levelo_inurba_marseille","lat":43.24183,"lon":5.36406,"is_reserved":false,"is_disabled":true,"rental_uris":{"android":"levelo://app?vid=4e21c123-fed3-4db6-ad81-45cccdae0542","ios":"levelo://app?vid=4e21c123-fed3-4db6-ad81-45cccdae0542"},"vehicle_type_id":"4","last_reported":1740776881,"current_range_meters":6400,"station_id":"cpo36qri1sfpv3e86is0","pricing_plan_id":"cebpf4jnsgd1na2vs0mg"},{"bike_id":"d450afcf-676c-402c-8f2f-edc15cb61862","system_id":"levelo_inurba_marseille","lat":43.24808,"lon":5.37442,"is_reserved":false,"is_disabled":false,"rental_uris":{"android":"levelo://app?vid=d450afcf-676c-402c-8f2f-edc15cb61862","ios":"levelo://app?vid=d450afcf-676c-402c-8f2f-edc15cb61862"},"vehicle_type_id":"4","last_reported":1740776881,"current_range_meters":6400,"station_id":"ce4bhgh2rcd13ifvqfb0","pricing_plan_id":"cebpf4jnsgd1na2vs0mg"},{"bike_id":"ce22c214-a85a-4184-a1d5-b5596835ad0e","system_id":"levelo_inurba_marseille","lat":43.28925,"lon":5.38396,"is_reserved":false,"is_disabled":false,"rental_uris":{"android":"levelo://app?vid=ce22c214-a85a-4184-a1d5-b5596835ad0e","ios":"levelo://app?vid=ce22c214-a85a-4184-a1d5-b5596835ad0e"},"vehicle_type_id":"4","last_reported":1740776881,"current_range_meters":6800,"station_id":"ce4bh612rcd13ifvqe6g","pricing_plan_id":"cebpf4jnsgd1na2vs0mg"},{"bike_id":"57bfbd0f-c28e-4388-b1fc-5d5555e6d847","system_id":"levelo_inurba_marseille","lat":43.26495,"lon":5.39544,"is_reserved":false,"is_disabled":false,"rental_uris":{"android":"levelo://app?vid=57bfbd0f-c28e-4388-b1fc-5d5555e6d847","ios":"levelo://app?vid=57bfbd0f-c28e-4388-b1fc-5d5555e6d847"},"vehicle_type_id":"4","last_reported":1740776881,"current_range_meters":6400,"station_id":"ce4bhi12rcd13ifvqfq0","pricing_plan_id":"cebpf4jnsgd1na2vs0mg"},{"bike_id":"8feb7610-f7de-48c6-85ca-c5cd50f4d484","system_id":"levelo_inurba_marseille","lat":43.29256,"lon":5.37617,"is_reserved":false,"is_disabled":false,"rental_uris":{"android":"levelo://app?vid=8feb7610-f7de-48c6-85ca-c5cd50f4d484","ios":"levelo://app?vid=8feb7610-f7de-48c6-85ca-c5cd50f4d484"},"vehicle_type_id":"4","last_reported":1740776881,"current_range_meters":6800,"station_id":"ce4bgi12rcd13ifvqb80","pricing_plan_id":"cebpf4jnsgd1na2vs0mg"},{"bike_id":"43c32004-94fe-4598-87ba-734917dbcf43","system_id":"levelo_inurba_marseille","lat":43.29265,"lon":5.37622,"is_reserved":false,"is_disabled":false,"rental_uris":{"android":"levelo://app?vid=43c32004-94fe-4598-87ba-734917dbcf43","ios":"levelo://app?vid=43c32004-94fe-4598-87ba-734917dbcf43"},"vehicle_type_id":"4","last_reported":1740776881,"current_range_meters":7200,"station_id":"ce4bgi12rcd13ifvqb80","pricing_plan_id":"cebpf4jnsgd1na2vs0mg"},{"bike_id":"dcff507d-3819-435b-8033-cab0f880c6a6","system_id":"levelo_inurba_marseille","lat":43.26504,"lon":5.39554,"is_reserved":false,"is_disabled":true,"rental_uris":{"android":"levelo://app?vid=dcff507d-3819-435b-8033-cab0f880c6a6","ios":"levelo://app?vid=dcff507d-3819-435b-8033-cab0f880c6a6"},"vehicle_type_id":"4","last_reported":1740776881,"current_range_meters":6800,"station_id":"ce4bhi12rcd13ifvqfq0","pricing_plan_id":"cebpf4jnsgd1na2vs0mg"},{"bike_id":"4c3cbff4-8fcd-449f-9462-8524115108b2","system_id":"levelo_inurba_marseille","lat":43.26198,"lon":5.3793,"is_reserved":false,"is_disabled":true,"rental_uris":{"android":"levelo://app?vid=4c3cbff4-8fcd-449f-9462-8524115108b2","ios":"levelo://app?vid=4c3cbff4-8fcd-449f-9462-8524115108b2"},"vehicle_type_id":"4","last_reported":1740776881,"current_range_meters":6800,"station_id":"ce4bhjp2rcd13ifvqg90","pricing_plan_id":"cebpf4jnsgd1na2vs0mg"},{"bike_id":"a2a200b0-8b27-4595-bd9d-b6b4f5220f89","system_id":"levelo_inurba_marseille","lat":43.29521,"lon":5.39406,"is_reserved":false,"is_disabled":false,"rental_uris":{"android":"levelo://app?vid=a2a200b0-8b27-4595-bd9d-b6b4f5220f89","ios":"levelo://app?vid=a2a200b0-8b27-4595-bd9d-b6b4f5220f89"},"vehicle_type_id":"4","last_reported":1740776881,"current_range_meters":7200,"station_id":"ce4bh292rcd13ifvqdf0","pricing_plan_id":"cebpf4jnsgd1na2vs0mg"},{"bike_id":"c8090ebd-d98f-4266-849b-25ceeb64fece","system_id":"levelo_inurba_marseille","lat":43.28852,"lon":5.35871,"is_reserved":false,"is_disabled":false,"rental_uris":{"android":"levelo://app?vid=c8090ebd-d98f-4266-849b-25ceeb64fece","ios":"levelo://app?vid=c8090ebd-d98f-4266-849b-25ceeb64fece"},"vehicle_type_id":"4","last_reported":1740776881,"current_range_meters":7200,"station_id":"ce4bhb12rcd13ifvqem0","pricing_plan_id":"cebpf4jnsgd1na2vs0mg"},{"bike_id":"121f184f-90a0-4e66-9d33-06a22d0922f3","system_id":"levelo_inurba_marseille","lat":43.24163,"lon":5.36418,"is_reserved":false,"is_disabled":false,"rental_uris":{"android":"levelo://app?vid=121f184f-90a0-4e66-9d33-06a22d0922f3","ios":"levelo://app?vid=121f184f-90a0-4e66-9d33-06a22d0922f3"},"vehicle_type_id":"4","last_reported":1740776881,"current_range_meters":7200,"station_id":"cpo36qri1sfpv3e86is0","pricing_plan_id":"cebpf4jnsgd1na2vs0mg"},{"bike_id":"0da6e0a1-a80c-4bfa-9f42-9441a63191ed","system_id":"levelo_inurba_marseille","lat":43.248183,"lon":5.37451,"is_reserved":false,"is_disabled":false,"rental_uris":{"android":"levelo://app?vid=0da6e0a1-a80c-4bfa-9f42-9441a63191ed","ios":"levelo://app?vid=0da6e0a1-a80c-4bfa-9f42-9441a63191ed"},"vehicle_type_id":"4","last_reported":1740776881,"current_range_meters":7200,"station_id":"ce4bhgh2rcd13ifvqfb0","pricing_plan_id":"cebpf4jnsgd1na2vs0mg"},{"bike_id":"67ce8cfb-6f6b-425f-bc83-c1ca88627e6b","system_id":"levelo_inurba_marseille","lat":43.29267,"lon":5.37633,"is_reserved":false,"is_disabled":false,"rental_uris":{"android":"levelo://app?vid=67ce8cfb-6f6b-425f-bc83-c1ca88627e6b","ios":"levelo://app?vid=67ce8cfb-6f6b-425f-bc83-c1ca88627e6b"},"vehicle_type_id":"4","last_reported":1740776881,"current_range_meters":7200,"station_id":"ce4bgi12rcd13ifvqb80","pricing_plan_id":"cebpf4jnsgd1na2vs0mg"},{"bike_id":"dae7feff-e66b-4cb9-ad2d-72c73d90cc7b","system_id":"levelo_inurba_marseille","lat":43.29312,"lon":5.37185,"is_reserved":false,"is_disabled":false,"rental_uris":{"android":"levelo://app?vid=dae7feff-e66b-4cb9-ad2d-72c73d90cc7b","ios":"levelo://app?vid=dae7feff-e66b-4cb9-ad2d-72c73d90cc7b"},"vehicle_type_id":"4","last_reported":1740776881,"current_range_meters":6000,"station_id":"ce4bgh92rcd13ifvqb40","pricing_plan_id":"cebpf4jnsgd1na2vs0mg"},{"bike_id":"c11d57f8-ea00-4859-a163-fca64e26cdc4","system_id":"levelo_inurba_marseille","lat":43.29304,"lon":5.38322,"is_reserved":false,"is_disabled":false,"rental_uris":{"android":"levelo://app?vid=c11d57f8-ea00-4859-a163-fca64e26cdc4","ios":"levelo://app?vid=c11d57f8-ea00-4859-a163-fca64e26cdc4"},"vehicle_type_id":"4","last_reported":1740776881,"current_range_meters":8000,"station_id":"","pricing_plan_id":"cebpf4jnsgd1na2vs0mg"},{"bike_id":"56666d54-9252-41fc-939d-77bff526a683","system_id":"levelo_inurba_marseille","lat":43.28487,"lon":5.38413,"is_reserved":false,"is_disabled":false,"rental_uris":{"android":"levelo://app?vid=56666d54-9252-41fc-939d-77bff526a683","ios":"levelo://app?vid=56666d54-9252-41fc-939d-77bff526a683"},"vehicle_type_id":"4","last_reported":1740776881,"current_range_meters":7200,"station_id":"ce4bh512rcd13ifvqe3g","pricing_plan_id":"cebpf4jnsgd1na2vs0mg"},{"bike_id":"17ddbbb5-11e9-4dea-8d48-8df35a23e77a","system_id":"levelo_inurba_marseille","lat":43.31706,"lon":5.39007,"is_reserved":false,"is_disabled":false,"rental_uris":{"android":"levelo://app?vid=17ddbbb5-11e9-4dea-8d48-8df35a23e77a","ios":"levelo://app?vid=17ddbbb5-11e9-4dea-8d48-8df35a23e77a"},"vehicle_type_id":"4","last_reported":1740776881,"current_range_meters":7200,"station_id":"","pricing_plan_id":"cebpf4jnsgd1na2vs0mg"},{"bike_id":"1d423b7c-95b0-4f07-a5c0-fe88800182f7","system_id":"levelo_inurba_marseille","lat":43.33133,"lon":5.38445,"is_reserved":false,"is_disabled":false,"rental_uris":{"android":"levelo://app?vid=1d423b7c-95b0-4f07-a5c0-fe88800182f7","ios":"levelo://app?vid=1d423b7c-95b0-4f07-a5c0-fe88800182f7"},"vehicle_type_id":"4","last_reported":1740776881,"current_range_meters":7200,"station_id":"","pricing_plan_id":"cebpf4jnsgd1na2vs0mg"},{"bike_id":"0e07936b-b5f4-4ce0-90ff-73c063994f1c","system_id":"levelo_inurba_marseille","lat":43.30474,"lon":5.37256,"is_reserved":false,"is_disabled":false,"rental_uris":{"android":"levelo://app?vid=0e07936b-b5f4-4ce0-90ff-73c063994f1c","ios":"levelo://app?vid=0e07936b-b5f4-4ce0-90ff-73c063994f1c"},"vehicle_type_id":"4","last_reported":1740776881,"current_range_meters":7200,"station_id":"","pricing_plan_id":"cebpf4jnsgd1na2vs0mg"},{"bike_id":"61ab62fc-be79-48c3-97f3-649850657865","system_id":"levelo_inurba_marseille","lat":43.30925,"lon":5.40138,"is_reserved":false,"is_disabled":false,"rental_uris":{"android":"levelo://app?vid=61ab62fc-be79-48c3-97f3-649850657865","ios":"levelo://app?vid=61ab62fc-be79-48c3-97f3-649850657865"},"vehicle_type_id":"4","last_reported":1740776881,"current_range_meters":8000,"station_id":"ce4bgvp2rcd13ifvqct0","pricing_plan_id":"cebpf4jnsgd1na2vs0mg"},{"bike_id":"8de53cb5-0aac-4308-b8a5-96fb315b7142","system_id":"levelo_inurba_marseille","lat":43.24071,"lon":5.3776,"is_reserved":false,"is_disabled":false,"rental_uris":{"android":"levelo://app?vid=8de53cb5-0aac-4308-b8a5-96fb315b7142","ios":"levelo://app?vid=8de53cb5-0aac-4308-b8a5-96fb315b7142"},"vehicle_type_id":"4","last_reported":1740776881,"current_range_meters":6800,"station_id":"ce4bhnp2rcd13ifvqgvg","pricing_plan_id":"cebpf4jnsgd1na2vs0mg"},{"bike_id":"ac7b203d-d8fa-4429-8571-7591c246f7d3","system_id":"levelo_inurba_marseille","lat":43.27809,"lon":5.40742,"is_reserved":false,"is_disabled":false,"rental_uris":{"android":"levelo://app?vid=ac7b203d-d8fa-4429-8571-7591c246f7d3","ios":"levelo://app?vid=ac7b203d-d8fa-4429-8571-7591c246f7d3"},"vehicle_type_id":"4","last_reported":1740776881,"current_range_meters":8400,"station_id":"ce4bhnh2rcd13ifvqgtg","pricing_plan_id":"cebpf4jnsgd1na2vs0mg"},{"bike_id":"9753fb54-7bac-4c39-b532-b7089220649f","system_id":"levelo_inurba_marseille","lat":43.31085,"lon":5.42439,"is_reserved":false,"is_disabled":false,"rental_uris":{"android":"levelo://app?vid=9753fb54-7bac-4c39-b532-b7089220649f","ios":"levelo://app?vid=9753fb54-7bac-4c39-b532-b7089220649f"},"vehicle_type_id":"4","last_reported":1740776881,"current_range_meters":8000,"station_id":"ce4bhp92rcd13ifvqhag","pricing_plan_id":"cebpf4jnsgd1na2vs0mg"},{"bike_id":"f26c35c1-6d74-4839-8620-0ecaba4ac374","system_id":"levelo_inurba_marseille","lat":43.25008,"lon":5.38928,"is_reserved":false,"is_disabled":false,"rental_uris":{"android":"levelo://app?vid=f26c35c1-6d74-4839-8620-0ecaba4ac374","ios":"levelo://app?vid=f26c35c1-6d74-4839-8620-0ecaba4ac374"},"vehicle_type_id":"4","last_reported":1740776881,"current_range_meters":8000,"station_id":"ce4bhgp2rcd13ifvqfd0","pricing_plan_id":"cebpf4jnsgd1na2vs0mg"},{"bike_id":"634c495f-6c4d-4a4c-b3b7-5e3c81ecf24d","system_id":"levelo_inurba_marseille","lat":43.31729,"lon":5.40446,"is_reserved":false,"is_disabled":false,"rental_uris":{"android":"levelo://app?vid=634c495f-6c4d-4a4c-b3b7-5e3c81ecf24d","ios":"levelo://app?vid=634c495f-6c4d-4a4c-b3b7-5e3c81ecf24d"},"vehicle_type_id":"4","last_reported":1740776881,"current_range_meters":8000,"station_id":"ce4bh012rcd13ifvqd00","pricing_plan_id":"cebpf4jnsgd1na2vs0mg"},{"bike_id":"dfc6cec2-337f-421f-8967-2052a053c8a4","system_id":"levelo_inurba_marseille","lat":43.29899,"lon":5.38135,"is_reserved":false,"is_disabled":false,"rental_uris":{"android":"levelo://app?vid=dfc6cec2-337f-421f-8967-2052a053c8a4","ios":"levelo://app?vid=dfc6cec2-337f-421f-8967-2052a053c8a4"},"vehicle_type_id":"4","last_reported":1740776881,"current_range_meters":8800,"station_id":"ce4bgj12rcd13ifvqbc0","pricing_plan_id":"cebpf4jnsgd1na2vs0mg"},{"bike_id":"5c3a88b1-7190-40be-a3bd-0e2b48551239","system_id":"levelo_inurba_marseille","lat":43.3025,"lon":5.4007,"is_reserved":false,"is_disabled":false,"rental_uris":{"android":"levelo://app?vid=5c3a88b1-7190-40be-a3bd-0e2b48551239","ios":"levelo://app?vid=5c3a88b1-7190-40be-a3bd-0e2b48551239"},"vehicle_type_id":"4","last_reported":1740776881,"current_range_meters":8400,"station_id":"ce4bgvh2rcd13ifvqcs0","pricing_plan_id":"cebpf4jnsgd1na2vs0mg"},{"bike_id":"a46d2196-c83b-4e72-8ef6-f631bdeec332","system_id":"levelo_inurba_marseille","lat":43.302997,"lon":5.39201,"is_reserved":false,"is_disabled":false,"rental_uris":{"android":"levelo://app?vid=a46d2196-c83b-4e72-8ef6-f631bdeec332","ios":"levelo://app?vid=a46d2196-c83b-4e72-8ef6-f631bdeec332"},"vehicle_type_id":"4","last_reported":1740776881,"current_range_meters":8000,"station_id":"ce4bhc92rcd13ifvqetg","pricing_plan_id":"cebpf4jnsgd1na2vs0mg"},{"bike_id":"32028d2a-d834-4678-a648-cf11d05314f9","system_id":"levelo_inurba_marseille","lat":43.292391,"lon":5.39666,"is_reserved":false,"is_disabled":false,"rental_uris":{"android":"levelo://app?vid=32028d2a-d834-4678-a648-cf11d05314f9","ios":"levelo://app?vid=32028d2a-d834-4678-a648-cf11d05314f9"},"vehicle_type_id":"4","last_reported":1740776881,"current_range_meters":8400,"station_id":"ce4bhah2rcd13ifvqej0","pricing_plan_id":"cebpf4jnsgd1na2vs0mg"},{"bike_id":"5a236465-44d5-40a7-9b67-37f08f961c45","system_id":"levelo_inurba_marseille","lat":43.29992,"lon":5.39972,"is_reserved":false,"is_disabled":false,"rental_uris":{"android":"levelo://app?vid=5a236465-44d5-40a7-9b67-37f08f961c45","ios":"levelo://app?vid=5a236465-44d5-40a7-9b67-37f08f961c45"},"vehicle_type_id":"4","last_reported":1740776881,"current_range_meters":8400,"station_id":"ce4bh0h2rcd13ifvqd40","pricing_plan_id":"cebpf4jnsgd1na2vs0mg"},{"bike_id":"9b93917c-01f5-4414-beb3-cbbe67d12053","system_id":"levelo_inurba_marseille","lat":43.30418,"lon":5.41281,"is_reserved":false,"is_disabled":false,"rental_uris":{"android":"levelo://app?vid=9b93917c-01f5-4414-beb3-cbbe67d12053","ios":"levelo://app?vid=9b93917c-01f5-4414-beb3-cbbe67d12053"},"vehicle_type_id":"4","last_reported":1740776881,"current_range_meters":8400,"station_id":"ce4bhop2rcd13ifvqh8g","pricing_plan_id":"cebpf4jnsgd1na2vs0mg"},{"bike_id":"de15dbbd-ae35-44b8-be4b-6a5887186cf2","system_id":"levelo_inurba_marseille","lat":43.29178,"lon":5.37171,"is_reserved":false,"is_disabled":false,"rental_uris":{"android":"levelo://app?vid=de15dbbd-ae35-44b8-be4b-6a5887186cf2","ios":"levelo://app?vid=de15dbbd-ae35-44b8-be4b-6a5887186cf2"},"vehicle_type_id":"4","last_reported":1740776881,"current_range_meters":8400,"station_id":"ce4bha92rcd13ifvqeh0","pricing_plan_id":"cebpf4jnsgd1na2vs0mg"},{"bike_id":"b6f691f8-dac7-4bb6-9664-84b29309e504","system_id":"levelo_inurba_marseille","lat":43.30095,"lon":5.3908,"is_reserved":false,"is_disabled":false,"rental_uris":{"android":"levelo://app?vid=b6f691f8-dac7-4bb6-9664-84b29309e504","ios":"levelo://app?vid=b6f691f8-dac7-4bb6-9664-84b29309e504"},"vehicle_type_id":"4","last_reported":1740776881,"current_range_meters":8800,"station_id":"ce4bh192rcd13ifvqdb0","pricing_plan_id":"cebpf4jnsgd1na2vs0mg"},{"bike_id":"cdb49f82-26f4-4ee1-ba90-4d28297e46cc","system_id":"levelo_inurba_marseille","lat":43.29309,"lon":5.37183,"is_reserved":false,"is_disabled":false,"rental_uris":{"android":"levelo://app?vid=cdb49f82-26f4-4ee1-ba90-4d28297e46cc","ios":"levelo://app?vid=cdb49f82-26f4-4ee1-ba90-4d28297e46cc"},"vehicle_type_id":"4","last_reported":1740776881,"current_range_meters":8000,"station_id":"ce4bgh92rcd13ifvqb40","pricing_plan_id":"cebpf4jnsgd1na2vs0mg"},{"bike_id":"3de9aeda-1f9a-4bbc-8b90-e02a49e56ca9","system_id":"levelo_inurba_marseille","lat":43.2321,"lon":5.35578,"is_reserved":false,"is_disabled":false,"rental_uris":{"android":"levelo://app?vid=3de9aeda-1f9a-4bbc-8b90-e02a49e56ca9","ios":"levelo://app?vid=3de9aeda-1f9a-4bbc-8b90-e02a49e56ca9"},"vehicle_type_id":"4","last_reported":1740776881,"current_range_meters":8400,"station_id":"ce4bhu92rcd13ifvqi70","pricing_plan_id":"cebpf4jnsgd1na2vs0mg"},{"bike_id":"6d66fc76-1515-4e1f-83bc-5db27ddc8a03","system_id":"levelo_inurba_marseille","lat":43.24827,"lon":5.37468,"is_reserved":false,"is_disabled":false,"rental_uris":{"android":"levelo://app?vid=6d66fc76-1515-4e1f-83bc-5db27ddc8a03","ios":"levelo://app?vid=6d66fc76-1515-4e1f-83bc-5db27ddc8a03"},"vehicle_type_id":"4","last_reported":1740776881,"current_range_meters":8800,"station_id":"ce4bhgh2rcd13ifvqfb0","pricing_plan_id":"cebpf4jnsgd1na2vs0mg"},{"bike_id":"ea9cf9d7-7341-4809-8dba-dc2ffdbb0198","system_id":"levelo_inurba_marseille","lat":43.27926,"lon":5.38027,"is_reserved":false,"is_disabled":false,"rental_uris":{"android":"levelo://app?vid=ea9cf9d7-7341-4809-8dba-dc2ffdbb0198","ios":"levelo://app?vid=ea9cf9d7-7341-4809-8dba-dc2ffdbb0198"},"vehicle_type_id":"4","last_reported":1740776881,"current_range_meters":8800,"station_id":"ce4bhf92rcd13ifvqf50","pricing_plan_id":"cebpf4jnsgd1na2vs0mg"},{"bike_id":"f55dc4b3-2cd7-4368-afba-a4d1314abcdd","system_id":"levelo_inurba_marseille","lat":43.31362,"lon":5.38506,"is_reserved":false,"is_disabled":false,"rental_uris":{"android":"levelo://app?vid=f55dc4b3-2cd7-4368-afba-a4d1314abcdd","ios":"levelo://app?vid=f55dc4b3-2cd7-4368-afba-a4d1314abcdd"},"vehicle_type_id":"4","last_reported":1740776881,"current_range_meters":8800,"station_id":"ce4bgt92rcd13ifvqcf0","pricing_plan_id":"cebpf4jnsgd1na2vs0mg"},{"bike_id":"d4918d6a-5525-4be8-b0c4-7af64b54343d","system_id":"levelo_inurba_marseille","lat":43.24166,"lon":5.3641,"is_reserved":false,"is_disabled":false,"rental_uris":{"android":"levelo://app?vid=d4918d6a-5525-4be8-b0c4-7af64b54343d","ios":"levelo://app?vid=d4918d6a-5525-4be8-b0c4-7af64b54343d"},"vehicle_type_id":"4","last_reported":1740776881,"current_range_meters":8800,"station_id":"cpo36qri1sfpv3e86is0","pricing_plan_id":"cebpf4jnsgd1na2vs0mg"},{"bike_id":"9d9b41d9-5174-42ff-9e16-aeaa079a4d12","system_id":"levelo_inurba_marseille","lat":43.29322,"lon":5.37205,"is_reserved":false,"is_disabled":false,"rental_uris":{"android":"levelo://app?vid=9d9b41d9-5174-42ff-9e16-aeaa079a4d12","ios":"levelo://app?vid=9d9b41d9-5174-42ff-9e16-aeaa079a4d12"},"vehicle_type_id":"4","last_reported":1740776881,"current_range_meters":8800,"station_id":"ce4bgh92rcd13ifvqb40","pricing_plan_id":"cebpf4jnsgd1na2vs0mg"},{"bike_id":"19574d80-abbd-42df-939a-f43e871f9d2d","system_id":"levelo_inurba_marseille","lat":43.26685,"lon":5.38269,"is_reserved":false,"is_disabled":false,"rental_uris":{"android":"levelo://app?vid=19574d80-abbd-42df-939a-f43e871f9d2d","ios":"levelo://app?vid=19574d80-abbd-42df-939a-f43e871f9d2d"},"vehicle_type_id":"4","last_reported":1740776881,"current_range_meters":9200,"station_id":"ce4bhg92rcd13ifvqf90","pricing_plan_id":"cebpf4jnsgd1na2vs0mg"},{"bike_id":"ca140ed1-8e15-46fb-ab05-e9783e7a9a62","system_id":"levelo_inurba_marseille","lat":43.32331,"lon":5.40616,"is_reserved":false,"is_disabled":false,"rental_uris":{"android":"levelo://app?vid=ca140ed1-8e15-46fb-ab05-e9783e7a9a62","ios":"levelo://app?vid=ca140ed1-8e15-46fb-ab05-e9783e7a9a62"},"vehicle_type_id":"4","last_reported":1740776881,"current_range_meters":9200,"station_id":"ce4bhq92rcd13ifvqhjg","pricing_plan_id":"cebpf4jnsgd1na2vs0mg"},{"bike_id":"e28852fc-103f-4f46-980d-e603c1a05634","system_id":"levelo_inurba_marseille","lat":43.2989,"lon":5.38137,"is_reserved":false,"is_disabled":false,"rental_uris":{"android":"levelo://app?vid=e28852fc-103f-4f46-980d-e603c1a05634","ios":"levelo://app?vid=e28852fc-103f-4f46-980d-e603c1a05634"},"vehicle_type_id":"4","last_reported":1740776881,"current_range_meters":9200,"station_id":"ce4bgj12rcd13ifvqbc0","pricing_plan_id":"cebpf4jnsgd1na2vs0mg"},{"bike_id":"86fa9070-c842-4442-ac3f-c66446720b12","system_id":"levelo_inurba_marseille","lat":43.29302,"lon":5.37444,"is_reserved":false,"is_disabled":false,"rental_uris":{"android":"levelo://app?vid=86fa9070-c842-4442-ac3f-c66446720b12","ios":"levelo://app?vid=86fa9070-c842-4442-ac3f-c66446720b12"},"vehicle_type_id":"4","last_reported":1740776881,"current_range_meters":9200,"station_id":"ce4bgi12rcd13ifvqb70","pricing_plan_id":"cebpf4jnsgd1na2vs0mg"},{"bike_id":"d6a1e57b-ebaa-49d9-9dae-0e8d317fc94a","system_id":"levelo_inurba_marseille","lat":43.29522,"lon":5.38569,"is_reserved":false,"is_disabled":false,"rental_uris":{"android":"levelo://app?vid=d6a1e57b-ebaa-49d9-9dae-0e8d317fc94a","ios":"levelo://app?vid=d6a1e57b-ebaa-49d9-9dae-0e8d317fc94a"},"vehicle_type_id":"4","last_reported":1740776881,"current_range_meters":9200,"station_id":"ce4bgih2rcd13ifvqba0","pricing_plan_id":"cebpf4jnsgd1na2vs0mg"},{"bike_id":"620ba232-2d97-4cfe-bdaf-3a50962fd2de","system_id":"levelo_inurba_marseille","lat":43.2783,"lon":5.40732,"is_reserved":false,"is_disabled":false,"rental_uris":{"android":"levelo://app?vid=620ba232-2d97-4cfe-bdaf-3a50962fd2de","ios":"levelo://app?vid=620ba232-2d97-4cfe-bdaf-3a50962fd2de"},"vehicle_type_id":"4","last_reported":1740776881,"current_range_meters":9200,"station_id":"ce4bhnh2rcd13ifvqgtg","pricing_plan_id":"cebpf4jnsgd1na2vs0mg"},{"bike_id":"62e07eef-5db6-4a16-a521-b54f5f9ad73a","system_id":"levelo_inurba_marseille","lat":43.29929,"lon":5.36539,"is_reserved":false,"is_disabled":false,"rental_uris":{"android":"levelo://app?vid=62e07eef-5db6-4a16-a521-b54f5f9ad73a","ios":"levelo://app?vid=62e07eef-5db6-4a16-a521-b54f5f9ad73a"},"vehicle_type_id":"4","last_reported":1740776881,"current_range_meters":9200,"station_id":"ce4bgm92rcd13ifvqbr0","pricing_plan_id":"cebpf4jnsgd1na2vs0mg"},{"bike_id":"b374d9dc-b81c-42d7-b33f-038a885e17e6","system_id":"levelo_inurba_marseille","lat":43.31989,"lon":5.38736,"is_reserved":false,"is_disabled":false,"rental_uris":{"android":"levelo://app?vid=b374d9dc-b81c-42d7-b33f-038a885e17e6","ios":"levelo://app?vid=b374d9dc-b81c-42d7-b33f-038a885e17e6"},"vehicle_type_id":"4","last_reported":1740776881,"current_range_meters":9600,"station_id":"","pricing_plan_id":"cebpf4jnsgd1na2vs0mg"},{"bike_id":"a01d331c-097c-4fbd-8542-d470a80f71c3","system_id":"levelo_inurba_marseille","lat":43.239623,"lon":5.366253,"is_reserved":false,"is_disabled":false,"rental_uris":{"android":"levelo://app?vid=a01d331c-097c-4fbd-8542-d470a80f71c3","ios":"levelo://app?vid=a01d331c-097c-4fbd-8542-d470a80f71c3"},"vehicle_type_id":"4","last_reported":1740776881,"current_range_meters":9200,"station_id":"ce4bhlh2rcd13ifvqgig","pricing_plan_id":"cebpf4jnsgd1na2vs0mg"},{"bike_id":"53b23b24-07e8-4870-8ab7-c63d39038125","system_id":"levelo_inurba_marseille","lat":43.29425,"lon":5.38618,"is_reserved":false,"is_disabled":true,"rental_uris":{"android":"levelo://app?vid=53b23b24-07e8-4870-8ab7-c63d39038125","ios":"levelo://app?vid=53b23b24-07e8-4870-8ab7-c63d39038125"},"vehicle_type_id":"4","last_reported":1740776881,"current_range_meters":9200,"station_id":"ce4bh2h2rcd13ifvqdh0","pricing_plan_id":"cebpf4jnsgd1na2vs0mg"},{"bike_id":"63fa412d-c5ac-4871-8f86-1682a5c5b5d5","system_id":"levelo_inurba_marseille","lat":43.30699,"lon":5.37392,"is_reserved":false,"is_disabled":false,"rental_uris":{"android":"levelo://app?vid=63fa412d-c5ac-4871-8f86-1682a5c5b5d5","ios":"levelo://app?vid=63fa412d-c5ac-4871-8f86-1682a5c5b5d5"},"vehicle_type_id":"4","last_reported":1740776881,"current_range_meters":9600,"station_id":"","pricing_plan_id":"cebpf4jnsgd1na2vs0mg"},{"bike_id":"0f11596b-26ad-450f-8fb5-97ee8369fc7b","system_id":"levelo_inurba_marseille","lat":43.26559,"lon":5.37281,"is_reserved":false,"is_disabled":false,"rental_uris":{"android":"levelo://app?vid=0f11596b-26ad-450f-8fb5-97ee8369fc7b","ios":"levelo://app?vid=0f11596b-26ad-450f-8fb5-97ee8369fc7b"},"vehicle_type_id":"4","last_reported":1740776881,"current_range_meters":9200,"station_id":"ce4bhg12rcd13ifvqf70","pricing_plan_id":"cebpf4jnsgd1na2vs0mg"},{"bike_id":"04637487-bba0-4fc3-b487-91b0966835a6","system_id":"levelo_inurba_marseille","lat":43.25004,"lon":5.38929,"is_reserved":false,"is_disabled":false,"rental_uris":{"android":"levelo://app?vid=04637487-bba0-4fc3-b487-91b0966835a6","ios":"levelo://app?vid=04637487-bba0-4fc3-b487-91b0966835a6"},"vehicle_type_id":"4","last_reported":1740776881,"current_range_meters":9200,"station_id":"ce4bhgp2rcd13ifvqfd0","pricing_plan_id":"cebpf4jnsgd1na2vs0mg"},{"bike_id":"43618139-47f5-4932-9d86-5f206cde2585","system_id":"levelo_inurba_marseille","lat":43.27965,"lon":5.38702,"is_reserved":false,"is_disabled":false,"rental_uris":{"android":"levelo://app?vid=43618139-47f5-4932-9d86-5f206cde2585","ios":"levelo://app?vid=43618139-47f5-4932-9d86-5f206cde2585"},"vehicle_type_id":"4","last_reported":1740776881,"current_range_meters":9200,"station_id":"ce4bhg12rcd13ifvqf80","pricing_plan_id":"cebpf4jnsgd1na2vs0mg"},{"bike_id":"94d93eb2-b5f5-4f0b-ae0e-88e26f1e4d83","system_id":"levelo_inurba_marseille","lat":43.27425,"lon":5.39414,"is_reserved":false,"is_disabled":false,"rental_uris":{"android":"levelo://app?vid=94d93eb2-b5f5-4f0b-ae0e-88e26f1e4d83","ios":"levelo://app?vid=94d93eb2-b5f5-4f0b-ae0e-88e26f1e4d83"},"vehicle_type_id":"4","last_reported":1740776881,"current_range_meters":9600,"station_id":"ce4bhdp2rcd13ifvqf20","pricing_plan_id":"cebpf4jnsgd1na2vs0mg"},{"bike_id":"749fee80-dfaa-43de-aa58-d21bbf5e0792","system_id":"levelo_inurba_marseille","lat":43.23168,"lon":5.39973,"is_reserved":false,"is_disabled":false,"rental_uris":{"android":"levelo://app?vid=749fee80-dfaa-43de-aa58-d21bbf5e0792","ios":"levelo://app?vid=749fee80-dfaa-43de-aa58-d21bbf5e0792"},"vehicle_type_id":"4","last_reported":1740776881,"current_range_meters":9600,"station_id":"ce4bhn12rcd13ifvqgqg","pricing_plan_id":"cebpf4jnsgd1na2vs0mg"},{"bike_id":"4b7d95b1-35d3-47cc-a9b5-4ba973f3cafd","system_id":"levelo_inurba_marseille","lat":43.24808,"lon":5.374554,"is_reserved":false,"is_disabled":false,"rental_uris":{"android":"levelo://app?vid=4b7d95b1-35d3-47cc-a9b5-4ba973f3cafd","ios":"levelo://app?vid=4b7d95b1-35d3-47cc-a9b5-4ba973f3cafd"},"vehicle_type_id":"4","last_reported":1740776881,"current_range_meters":9600,"station_id":"ce4bhgh2rcd13ifvqfb0","pricing_plan_id":"cebpf4jnsgd1na2vs0mg"},{"bike_id":"c2a3fb9d-e5b2-4210-ae32-e09c58a9c5c2","system_id":"levelo_inurba_marseille","lat":43.28939,"lon":5.38408,"is_reserved":false,"is_disabled":false,"rental_uris":{"android":"levelo://app?vid=c2a3fb9d-e5b2-4210-ae32-e09c58a9c5c2","ios":"levelo://app?vid=c2a3fb9d-e5b2-4210-ae32-e09c58a9c5c2"},"vehicle_type_id":"4","last_reported":1740776881,"current_range_meters":9600,"station_id":"ce4bh612rcd13ifvqe6g","pricing_plan_id":"cebpf4jnsgd1na2vs0mg"},{"bike_id":"484abe24-d472-4faf-90f6-27d8da6f12c7","system_id":"levelo_inurba_marseille","lat":43.29632,"lon":5.406,"is_reserved":false,"is_disabled":false,"rental_uris":{"android":"levelo://app?vid=484abe24-d472-4faf-90f6-27d8da6f12c7","ios":"levelo://app?vid=484abe24-d472-4faf-90f6-27d8da6f12c7"},"vehicle_type_id":"4","last_reported":1740776881,"current_range_meters":9200,"station_id":"ce4bh0h2rcd13ifvqd60","pricing_plan_id":"cebpf4jnsgd1na2vs0mg"},{"bike_id":"07218d0c-edee-4927-8301-a0b5a1c7809f","system_id":"levelo_inurba_marseille","lat":43.25585,"lon":5.38241,"is_reserved":false,"is_disabled":false,"rental_uris":{"android":"levelo://app?vid=07218d0c-edee-4927-8301-a0b5a1c7809f","ios":"levelo://app?vid=07218d0c-edee-4927-8301-a0b5a1c7809f"},"vehicle_type_id":"4","last_reported":1740776881,"current_range_meters":9600,"station_id":"ce4bhih2rcd13ifvqfs0","pricing_plan_id":"cebpf4jnsgd1na2vs0mg"},{"bike_id":"4860406d-712e-47d3-a655-7f4e93639ebb","system_id":"levelo_inurba_marseille","lat":43.29848,"lon":5.3629,"is_reserved":false,"is_disabled":false,"rental_uris":{"android":"levelo://app?vid=4860406d-712e-47d3-a655-7f4e93639ebb","ios":"levelo://app?vid=4860406d-712e-47d3-a655-7f4e93639ebb"},"vehicle_type_id":"4","last_reported":1740776881,"current_range_meters":9600,"station_id":"ce4bgpp2rcd13ifvqc3g","pricing_plan_id":"cebpf4jnsgd1na2vs0mg"},{"bike_id":"62671c1a-f7a8-4663-9de4-5b1ec91b7d9c","system_id":"levelo_inurba_marseille","lat":43.2893,"lon":5.38401,"is_reserved":false,"is_disabled":false,"rental_uris":{"android":"levelo://app?vid=62671c1a-f7a8-4663-9de4-5b1ec91b7d9c","ios":"levelo://app?vid=62671c1a-f7a8-4663-9de4-5b1ec91b7d9c"},"vehicle_type_id":"4","last_reported":1740776881,"current_range_meters":9600,"station_id":"ce4bh612rcd13ifvqe6g","pricing_plan_id":"cebpf4jnsgd1na2vs0mg"},{"bike_id":"5058abfc-fb20-4754-8bb3-466da663ac91","system_id":"levelo_inurba_marseille","lat":43.29423,"lon":5.38629,"is_reserved":false,"is_disabled":false,"rental_uris":{"android":"levelo://app?vid=5058abfc-fb20-4754-8bb3-466da663ac91","ios":"levelo://app?vid=5058abfc-fb20-4754-8bb3-466da663ac91"},"vehicle_type_id":"4","last_reported":1740776881,"current_range_meters":9600,"station_id":"ce4bh2h2rcd13ifvqdh0","pricing_plan_id":"cebpf4jnsgd1na2vs0mg"},{"bike_id":"e8e574a6-d13a-4906-9b60-657faa08b971","system_id":"levelo_inurba_marseille","lat":43.26802,"lon":5.40263,"is_reserved":false,"is_disabled":true,"rental_uris":{"android":"levelo://app?vid=e8e574a6-d13a-4906-9b60-657faa08b971","ios":"levelo://app?vid=e8e574a6-d13a-4906-9b60-657faa08b971"},"vehicle_type_id":"4","last_reported":1740776881,"current_range_meters":9600,"station_id":"ce501612rcd8frsf0b60","pricing_plan_id":"cebpf4jnsgd1na2vs0mg"},{"bike_id":"87e93e74-8cd3-44d1-b4df-fd004e9d2d43","system_id":"levelo_inurba_marseille","lat":43.28119,"lon":5.37826,"is_reserved":false,"is_disabled":false,"rental_uris":{"android":"levelo://app?vid=87e93e74-8cd3-44d1-b4df-fd004e9d2d43","ios":"levelo://app?vid=87e93e74-8cd3-44d1-b4df-fd004e9d2d43"},"vehicle_type_id":"4","last_reported":1740776881,"current_range_meters":10000,"station_id":"ce4bha12rcd13ifvqee0","pricing_plan_id":"cebpf4jnsgd1na2vs0mg"},{"bike_id":"a17c7479-4cb9-4dac-bdfb-ea7d9b9e1277","system_id":"levelo_inurba_marseille","lat":43.29026,"lon":5.3865,"is_reserved":false,"is_disabled":false,"rental_uris":{"android":"levelo://app?vid=a17c7479-4cb9-4dac-bdfb-ea7d9b9e1277","ios":"levelo://app?vid=a17c7479-4cb9-4dac-bdfb-ea7d9b9e1277"},"vehicle_type_id":"4","last_reported":1740776881,"current_range_meters":9600,"station_id":"ce4bh4p2rcd13ifvqe0g","pricing_plan_id":"cebpf4jnsgd1na2vs0mg"},{"bike_id":"44a9b49b-687c-42ec-b31a-1a2a7b71f3f8","system_id":"levelo_inurba_marseille","lat":43.23186,"lon":5.39979,"is_reserved":false,"is_disabled":false,"rental_uris":{"android":"levelo://app?vid=44a9b49b-687c-42ec-b31a-1a2a7b71f3f8","ios":"levelo://app?vid=44a9b49b-687c-42ec-b31a-1a2a7b71f3f8"},"vehicle_type_id":"4","last_reported":1740776881,"current_range_meters":12000,"station_id":"ce4bhn12rcd13ifvqgqg","pricing_plan_id":"cebpf4jnsgd1na2vs0mg"},{"bike_id":"c776e964-75a1-4343-b453-0b5fc1f76818","system_id":"levelo_inurba_marseille","lat":43.3347,"lon":5.38189,"is_reserved":false,"is_disabled":false,"rental_uris":{"android":"levelo://app?vid=c776e964-75a1-4343-b453-0b5fc1f76818","ios":"levelo://app?vid=c776e964-75a1-4343-b453-0b5fc1f76818"},"vehicle_type_id":"4","last_reported":1740776881,"current_range_meters":10000,"station_id":"","pricing_plan_id":"cebpf4jnsgd1na2vs0mg"},{"bike_id":"a0fc1e5b-221c-42bc-a627-610a0dd9e8fb","system_id":"levelo_inurba_marseille","lat":43.301965,"lon":5.398373,"is_reserved":false,"is_disabled":false,"rental_uris":{"android":"levelo://app?vid=a0fc1e5b-221c-42bc-a627-610a0dd9e8fb","ios":"levelo://app?vid=a0fc1e5b-221c-42bc-a627-610a0dd9e8fb"},"vehicle_type_id":"4","last_reported":1740776881,"current_range_meters":10000,"station_id":"ce4bh0h2rcd13ifvqd40","pricing_plan_id":"cebpf4jnsgd1na2vs0mg"},{"bike_id":"43d6aa6f-20c7-4a1b-bcb8-31b660876567","system_id":"levelo_inurba_marseille","lat":43.26554,"lon":5.37302,"is_reserved":false,"is_disabled":false,"rental_uris":{"android":"levelo://app?vid=43d6aa6f-20c7-4a1b-bcb8-31b660876567","ios":"levelo://app?vid=43d6aa6f-20c7-4a1b-bcb8-31b660876567"},"vehicle_type_id":"4","last_reported":1740776881,"current_range_meters":10000,"station_id":"ce4bhg12rcd13ifvqf70","pricing_plan_id":"cebpf4jnsgd1na2vs0mg"},{"bike_id":"92b95165-18ef-461d-b391-870d4ac52a94","system_id":"levelo_inurba_marseille","lat":43.2926,"lon":5.38446,"is_reserved":false,"is_disabled":false,"rental_uris":{"android":"levelo://app?vid=92b95165-18ef-461d-b391-870d4ac52a94","ios":"levelo://app?vid=92b95165-18ef-461d-b391-870d4ac52a94"},"vehicle_type_id":"4","last_reported":1740776881,"current_range_meters":10800,"station_id":"ce4bh692rcd13ifvqea0","pricing_plan_id":"cebpf4jnsgd1na2vs0mg"},{"bike_id":"d1c5c859-8e75-4522-b064-87fcbfcc29a3","system_id":"levelo_inurba_marseille","lat":43.30207,"lon":5.39464,"is_reserved":false,"is_disabled":false,"rental_uris":{"android":"levelo://app?vid=d1c5c859-8e75-4522-b064-87fcbfcc29a3","ios":"levelo://app?vid=d1c5c859-8e75-4522-b064-87fcbfcc29a3"},"vehicle_type_id":"4","last_reported":1740776881,"current_range_meters":10000,"station_id":"ce4bh0p2rcd13ifvqd70","pricing_plan_id":"cebpf4jnsgd1na2vs0mg"},{"bike_id":"26cc7840-ae0e-4bb3-b632-324d66a8f696","system_id":"levelo_inurba_marseille","lat":43.29153,"lon":5.47884,"is_reserved":false,"is_disabled":false,"rental_uris":{"android":"levelo://app?vid=26cc7840-ae0e-4bb3-b632-324d66a8f696","ios":"levelo://app?vid=26cc7840-ae0e-4bb3-b632-324d66a8f696"},"vehicle_type_id":"4","last_reported":1740776881,"current_range_meters":10000,"station_id":"","pricing_plan_id":"cebpf4jnsgd1na2vs0mg"},{"bike_id":"7c7cfd37-ef03-4017-8a6f-03e7b17cd25f","system_id":"levelo_inurba_marseille","lat":43.29294,"lon":5.37434,"is_reserved":false,"is_disabled":false,"rental_uris":{"android":"levelo://app?vid=7c7cfd37-ef03-4017-8a6f-03e7b17cd25f","ios":"levelo://app?vid=7c7cfd37-ef03-4017-8a6f-03e7b17cd25f"},"vehicle_type_id":"4","last_reported":1740776881,"current_range_meters":10000,"station_id":"ce4bgi12rcd13ifvqb70","pricing_plan_id":"cebpf4jnsgd1na2vs0mg"},{"bike_id":"d5468aad-116b-4925-85e0-f6f4ad78214e","system_id":"levelo_inurba_marseille","lat":43.29023,"lon":5.38639,"is_reserved":false,"is_disabled":false,"rental_uris":{"android":"levelo://app?vid=d5468aad-116b-4925-85e0-f6f4ad78214e","ios":"levelo://app?vid=d5468aad-116b-4925-85e0-f6f4ad78214e"},"vehicle_type_id":"4","last_reported":1740776881,"current_range_meters":10000,"station_id":"ce4bh4p2rcd13ifvqe0g","pricing_plan_id":"cebpf4jnsgd1na2vs0mg"},{"bike_id":"583c93d8-f92a-4aad-931b-edc253df8745","system_id":"levelo_inurba_marseille","lat":43.29318,"lon":5.37452,"is_reserved":false,"is_disabled":false,"rental_uris":{"android":"levelo://app?vid=583c93d8-f92a-4aad-931b-edc253df8745","ios":"levelo://app?vid=583c93d8-f92a-4aad-931b-edc253df8745"},"vehicle_type_id":"4","last_reported":1740776881,"current_range_meters":10000,"station_id":"ce4bgi12rcd13ifvqb70","pricing_plan_id":"cebpf4jnsgd1na2vs0mg"},{"bike_id":"44b3831f-4abc-4bc0-a9ad-6692bc77ff3f","system_id":"levelo_inurba_marseille","lat":43.29259,"lon":5.38443,"is_reserved":false,"is_disabled":false,"rental_uris":{"android":"levelo://app?vid=44b3831f-4abc-4bc0-a9ad-6692bc77ff3f","ios":"levelo://app?vid=44b3831f-4abc-4bc0-a9ad-6692bc77ff3f"},"vehicle_type_id":"4","last_reported":1740776881,"current_range_meters":16400,"station_id":"ce4bh692rcd13ifvqea0","pricing_plan_id":"cebpf4jnsgd1na2vs0mg"},{"bike_id":"9133aa9f-1fe1-4d82-86fe-901632455e42","system_id":"levelo_inurba_marseille","lat":43.31271,"lon":5.40152,"is_reserved":false,"is_disabled":false,"rental_uris":{"android":"levelo://app?vid=9133aa9f-1fe1-4d82-86fe-901632455e42","ios":"levelo://app?vid=9133aa9f-1fe1-4d82-86fe-901632455e42"},"vehicle_type_id":"4","last_reported":1740776881,"current_range_meters":10800,"station_id":"ce4bh092rcd13ifvqd30","pricing_plan_id":"cebpf4jnsgd1na2vs0mg"},{"bike_id":"247dc2e1-caa8-47a2-9436-e63635edec78","system_id":"levelo_inurba_marseille","lat":43.29562,"lon":5.3996,"is_reserved":false,"is_disabled":false,"rental_uris":{"android":"levelo://app?vid=247dc2e1-caa8-47a2-9436-e63635edec78","ios":"levelo://app?vid=247dc2e1-caa8-47a2-9436-e63635edec78"},"vehicle_type_id":"4","last_reported":1740776881,"current_range_meters":10000,"station_id":"ce4bh312rcd13ifvqdj0","pricing_plan_id":"cebpf4jnsgd1na2vs0mg"},{"bike_id":"3f5e4c77-943b-4a46-b257-614bf13afec4","system_id":"levelo_inurba_marseille","lat":43.24167,"lon":5.36433,"is_reserved":false,"is_disabled":false,"rental_uris":{"android":"levelo://app?vid=3f5e4c77-943b-4a46-b257-614bf13afec4","ios":"levelo://app?vid=3f5e4c77-943b-4a46-b257-614bf13afec4"},"vehicle_type_id":"4","last_reported":1740776881,"current_range_meters":10800,"station_id":"cpo36qri1sfpv3e86is0","pricing_plan_id":"cebpf4jnsgd1na2vs0mg"},{"bike_id":"b0eb60c4-d7ce-4655-89f5-9d30451fff76","system_id":"levelo_inurba_marseille","lat":43.29971,"lon":5.37174,"is_reserved":false,"is_disabled":false,"rental_uris":{"android":"levelo://app?vid=b0eb60c4-d7ce-4655-89f5-9d30451fff76","ios":"levelo://app?vid=b0eb60c4-d7ce-4655-89f5-9d30451fff76"},"vehicle_type_id":"4","last_reported":1740776881,"current_range_meters":10800,"station_id":"ce4bgr92rcd13ifvqc7g","pricing_plan_id":"cebpf4jnsgd1na2vs0mg"},{"bike_id":"d15e37e1-3a8a-4303-9116-3c7e1d6875c5","system_id":"levelo_inurba_marseille","lat":43.30398,"lon":5.41261,"is_reserved":false,"is_disabled":false,"rental_uris":{"android":"levelo://app?vid=d15e37e1-3a8a-4303-9116-3c7e1d6875c5","ios":"levelo://app?vid=d15e37e1-3a8a-4303-9116-3c7e1d6875c5"},"vehicle_type_id":"4","last_reported":1740776881,"current_range_meters":10000,"station_id":"ce4bhop2rcd13ifvqh8g","pricing_plan_id":"cebpf4jnsgd1na2vs0mg"},{"bike_id":"e81f0452-2d78-4b79-9065-9b2e4f97b0af","system_id":"levelo_inurba_marseille","lat":43.29272,"lon":5.38446,"is_reserved":false,"is_disabled":false,"rental_uris":{"android":"levelo://app?vid=e81f0452-2d78-4b79-9065-9b2e4f97b0af","ios":"levelo://app?vid=e81f0452-2d78-4b79-9065-9b2e4f97b0af"},"vehicle_type_id":"4","last_reported":1740776881,"current_range_meters":16800,"station_id":"ce4bh692rcd13ifvqea0","pricing_plan_id":"cebpf4jnsgd1na2vs0mg"},{"bike_id":"3398b107-ce88-41da-bd6e-a5f36e9cda56","system_id":"levelo_inurba_marseille","lat":43.27979,"lon":5.3873,"is_reserved":false,"is_disabled":false,"rental_uris":{"android":"levelo://app?vid=3398b107-ce88-41da-bd6e-a5f36e9cda56","ios":"levelo://app?vid=3398b107-ce88-41da-bd6e-a5f36e9cda56"},"vehicle_type_id":"4","last_reported":1740776881,"current_range_meters":11200,"station_id":"ce4bhg12rcd13ifvqf80","pricing_plan_id":"cebpf4jnsgd1na2vs0mg"},{"bike_id":"0b685400-e734-49c7-a371-e90b39ea60ca","system_id":"levelo_inurba_marseille","lat":43.29259,"lon":5.38449,"is_reserved":false,"is_disabled":false,"rental_uris":{"android":"levelo://app?vid=0b685400-e734-49c7-a371-e90b39ea60ca","ios":"levelo://app?vid=0b685400-e734-49c7-a371-e90b39ea60ca"},"vehicle_type_id":"4","last_reported":1740776881,"current_range_meters":11200,"station_id":"ce4bh692rcd13ifvqea0","pricing_plan_id":"cebpf4jnsgd1na2vs0mg"},{"bike_id":"5133fc72-65ce-4545-887a-28c61a41db2c","system_id":"levelo_inurba_marseille","lat":43.280003,"lon":5.400114,"is_reserved":false,"is_disabled":false,"rental_uris":{"android":"levelo://app?vid=5133fc72-65ce-4545-887a-28c61a41db2c","ios":"levelo://app?vid=5133fc72-65ce-4545-887a-28c61a41db2c"},"vehicle_type_id":"4","last_reported":1740776881,"current_range_meters":11200,"station_id":"ce4bho92rcd13ifvqh4g","pricing_plan_id":"cebpf4jnsgd1na2vs0mg"},{"bike_id":"bcf10ec7-0dc7-4b31-90db-9fddabad3e7a","system_id":"levelo_inurba_marseille","lat":43.30547,"lon":5.367,"is_reserved":false,"is_disabled":true,"rental_uris":{"android":"levelo://app?vid=bcf10ec7-0dc7-4b31-90db-9fddabad3e7a","ios":"levelo://app?vid=bcf10ec7-0dc7-4b31-90db-9fddabad3e7a"},"vehicle_type_id":"4","last_reported":1740776881,"current_range_meters":11600,"station_id":"ce4bgrp2rcd13ifvqc9g","pricing_plan_id":"cebpf4jnsgd1na2vs0mg"},{"bike_id":"1a44e2f3-b712-436a-9a7d-ebb760b6c14b","system_id":"levelo_inurba_marseille","lat":43.29426,"lon":5.38629,"is_reserved":false,"is_disabled":false,"rental_uris":{"android":"levelo://app?vid=1a44e2f3-b712-436a-9a7d-ebb760b6c14b","ios":"levelo://app?vid=1a44e2f3-b712-436a-9a7d-ebb760b6c14b"},"vehicle_type_id":"4","last_reported":1740776881,"current_range_meters":12000,"station_id":"ce4bh2h2rcd13ifvqdh0","pricing_plan_id":"cebpf4jnsgd1na2vs0mg"},{"bike_id":"843d36d5-df7c-471b-973f-9d08aaf2ed09","system_id":"levelo_inurba_marseille","lat":43.29526,"lon":5.38552,"is_reserved":false,"is_disabled":false,"rental_uris":{"android":"levelo://app?vid=843d36d5-df7c-471b-973f-9d08aaf2ed09","ios":"levelo://app?vid=843d36d5-df7c-471b-973f-9d08aaf2ed09"},"vehicle_type_id":"4","last_reported":1740776881,"current_range_meters":11600,"station_id":"ce4bgih2rcd13ifvqba0","pricing_plan_id":"cebpf4jnsgd1na2vs0mg"},{"bike_id":"569ce547-37a1-487f-a123-cf186f9f6063","system_id":"levelo_inurba_marseille","lat":43.29297,"lon":5.37457,"is_reserved":false,"is_disabled":false,"rental_uris":{"android":"levelo://app?vid=569ce547-37a1-487f-a123-cf186f9f6063","ios":"levelo://app?vid=569ce547-37a1-487f-a123-cf186f9f6063"},"vehicle_type_id":"4","last_reported":1740776881,"current_range_meters":12000,"station_id":"ce4bgi12rcd13ifvqb70","pricing_plan_id":"cebpf4jnsgd1na2vs0mg"},{"bike_id":"44b7176d-d051-4674-8d09-e94dcd4bc6c9","system_id":"levelo_inurba_marseille","lat":43.30126,"lon":5.39867,"is_reserved":false,"is_disabled":false,"rental_uris":{"android":"levelo://app?vid=44b7176d-d051-4674-8d09-e94dcd4bc6c9","ios":"levelo://app?vid=44b7176d-d051-4674-8d09-e94dcd4bc6c9"},"vehicle_type_id":"4","last_reported":1740776881,"current_range_meters":11200,"station_id":"ce4bh0h2rcd13ifvqd40","pricing_plan_id":"cebpf4jnsgd1na2vs0mg"},{"bike_id":"da5a6c81-b1c1-4506-9b75-17f4f7a41004","system_id":"levelo_inurba_marseille","lat":43.29252,"lon":5.3844,"is_reserved":false,"is_disabled":false,"rental_uris":{"android":"levelo://app?vid=da5a6c81-b1c1-4506-9b75-17f4f7a41004","ios":"levelo://app?vid=da5a6c81-b1c1-4506-9b75-17f4f7a41004"},"vehicle_type_id":"4","last_reported":1740776881,"current_range_meters":12000,"station_id":"ce4bh692rcd13ifvqea0","pricing_plan_id":"cebpf4jnsgd1na2vs0mg"},{"bike_id":"c8f101ad-3299-4103-b362-e3fae3ea96b1","system_id":"levelo_inurba_marseille","lat":43.28072,"lon":5.39658,"is_reserved":false,"is_disabled":false,"rental_uris":{"android":"levelo://app?vid=c8f101ad-3299-4103-b362-e3fae3ea96b1","ios":"levelo://app?vid=c8f101ad-3299-4103-b362-e3fae3ea96b1"},"vehicle_type_id":"4","last_reported":1740776881,"current_range_meters":12000,"station_id":"ce4bho12rcd13ifvqh2g","pricing_plan_id":"cebpf4jnsgd1na2vs0mg"},{"bike_id":"364b209e-752e-45ea-b26c-06b2552c1833","system_id":"levelo_inurba_marseille","lat":43.231892,"lon":5.355648,"is_reserved":false,"is_disabled":false,"rental_uris":{"android":"levelo://app?vid=364b209e-752e-45ea-b26c-06b2552c1833","ios":"levelo://app?vid=364b209e-752e-45ea-b26c-06b2552c1833"},"vehicle_type_id":"4","last_reported":1740776881,"current_range_meters":12400,"station_id":"ce4bhu92rcd13ifvqi70","pricing_plan_id":"cebpf4jnsgd1na2vs0mg"},{"bike_id":"0e117c83-a27f-4fc9-b04c-43ba2a7928eb","system_id":"levelo_inurba_marseille","lat":43.28486,"lon":5.38567,"is_reserved":false,"is_disabled":false,"rental_uris":{"android":"levelo://app?vid=0e117c83-a27f-4fc9-b04c-43ba2a7928eb","ios":"levelo://app?vid=0e117c83-a27f-4fc9-b04c-43ba2a7928eb"},"vehicle_type_id":"4","last_reported":1740776881,"current_range_meters":12000,"station_id":"ce4bh8p2rcd13ifvqeb0","pricing_plan_id":"cebpf4jnsgd1na2vs0mg"},{"bike_id":"8856ea6a-9d67-418d-b686-5b1bf6f3abd4","system_id":"levelo_inurba_marseille","lat":43.273098,"lon":5.415583,"is_reserved":false,"is_disabled":false,"rental_uris":{"android":"levelo://app?vid=8856ea6a-9d67-418d-b686-5b1bf6f3abd4","ios":"levelo://app?vid=8856ea6a-9d67-418d-b686-5b1bf6f3abd4"},"vehicle_type_id":"4","last_reported":1740776881,"current_range_meters":14800,"station_id":"ce4bho12rcd13ifvqh1g","pricing_plan_id":"cebpf4jnsgd1na2vs0mg"},{"bike_id":"01a3d87a-a630-4d6f-ad97-42ff108b93f0","system_id":"levelo_inurba_marseille","lat":43.29259,"lon":5.38428,"is_reserved":false,"is_disabled":false,"rental_uris":{"android":"levelo://app?vid=01a3d87a-a630-4d6f-ad97-42ff108b93f0","ios":"levelo://app?vid=01a3d87a-a630-4d6f-ad97-42ff108b93f0"},"vehicle_type_id":"4","last_reported":1740776881,"current_range_meters":12400,"station_id":"ce4bh692rcd13ifvqea0","pricing_plan_id":"cebpf4jnsgd1na2vs0mg"},{"bike_id":"648b9054-36a1-435a-8f18-51964f3acedf","system_id":"levelo_inurba_marseille","lat":43.29167,"lon":5.37165,"is_reserved":false,"is_disabled":false,"rental_uris":{"android":"levelo://app?vid=648b9054-36a1-435a-8f18-51964f3acedf","ios":"levelo://app?vid=648b9054-36a1-435a-8f18-51964f3acedf"},"vehicle_type_id":"4","last_reported":1740776881,"current_range_meters":11600,"station_id":"ce4bha92rcd13ifvqeh0","pricing_plan_id":"cebpf4jnsgd1na2vs0mg"},{"bike_id":"593edb3c-7add-4a3d-9dbe-95cef549de0d","system_id":"levelo_inurba_marseille","lat":43.23068,"lon":5.35523,"is_reserved":false,"is_disabled":false,"rental_uris":{"android":"levelo://app?vid=593edb3c-7add-4a3d-9dbe-95cef549de0d","ios":"levelo://app?vid=593edb3c-7add-4a3d-9dbe-95cef549de0d"},"vehicle_type_id":"4","last_reported":1740776881,"current_range_meters":12000,"station_id":"cpo3342slgdg3j2ifvpg","pricing_plan_id":"cebpf4jnsgd1na2vs0mg"},{"bike_id":"1546db8b-0b40-429b-a5dc-dba9e039b1b5","system_id":"levelo_inurba_marseille","lat":43.29035,"lon":5.37563,"is_reserved":false,"is_disabled":false,"rental_uris":{"android":"levelo://app?vid=1546db8b-0b40-429b-a5dc-dba9e039b1b5","ios":"levelo://app?vid=1546db8b-0b40-429b-a5dc-dba9e039b1b5"},"vehicle_type_id":"4","last_reported":1740776881,"current_range_meters":12400,"station_id":"ce4bh692rcd13ifvqe90","pricing_plan_id":"cebpf4jnsgd1na2vs0mg"},{"bike_id":"38e4208e-f256-4294-9ec9-809b58394803","system_id":"levelo_inurba_marseille","lat":43.31328,"lon":5.39691,"is_reserved":false,"is_disabled":false,"rental_uris":{"android":"levelo://app?vid=38e4208e-f256-4294-9ec9-809b58394803","ios":"levelo://app?vid=38e4208e-f256-4294-9ec9-809b58394803"},"vehicle_type_id":"4","last_reported":1740776881,"current_range_meters":12800,"station_id":"ce4bgvp2rcd13ifvqcu0","pricing_plan_id":"cebpf4jnsgd1na2vs0mg"},{"bike_id":"3f91fb5c-c554-4815-8570-380b0647ca1b","system_id":"levelo_inurba_marseille","lat":43.29263,"lon":5.3847,"is_reserved":false,"is_disabled":false,"rental_uris":{"android":"levelo://app?vid=3f91fb5c-c554-4815-8570-380b0647ca1b","ios":"levelo://app?vid=3f91fb5c-c554-4815-8570-380b0647ca1b"},"vehicle_type_id":"4","last_reported":1740776881,"current_range_meters":12400,"station_id":"ce4bh692rcd13ifvqea0","pricing_plan_id":"cebpf4jnsgd1na2vs0mg"},{"bike_id":"a25a4bca-1a72-419f-af06-cf47c412ca14","system_id":"levelo_inurba_marseille","lat":43.30796,"lon":5.43525,"is_reserved":false,"is_disabled":false,"rental_uris":{"android":"levelo://app?vid=a25a4bca-1a72-419f-af06-cf47c412ca14","ios":"levelo://app?vid=a25a4bca-1a72-419f-af06-cf47c412ca14"},"vehicle_type_id":"4","last_reported":1740776881,"current_range_meters":12400,"station_id":"ce4bhph2rcd13ifvqheg","pricing_plan_id":"cebpf4jnsgd1na2vs0mg"},{"bike_id":"55131781-8313-40fb-9654-10198a457920","system_id":"levelo_inurba_marseille","lat":43.29287,"lon":5.3745,"is_reserved":false,"is_disabled":false,"rental_uris":{"android":"levelo://app?vid=55131781-8313-40fb-9654-10198a457920","ios":"levelo://app?vid=55131781-8313-40fb-9654-10198a457920"},"vehicle_type_id":"4","last_reported":1740776881,"current_range_meters":12400,"station_id":"ce4bgi12rcd13ifvqb70","pricing_plan_id":"cebpf4jnsgd1na2vs0mg"},{"bike_id":"8e89a4ec-707f-4b58-b75d-096b7eb5c7f4","system_id":"levelo_inurba_marseille","lat":43.29555,"lon":5.38556,"is_reserved":false,"is_disabled":false,"rental_uris":{"android":"levelo://app?vid=8e89a4ec-707f-4b58-b75d-096b7eb5c7f4","ios":"levelo://app?vid=8e89a4ec-707f-4b58-b75d-096b7eb5c7f4"},"vehicle_type_id":"4","last_reported":1740776881,"current_range_meters":12400,"station_id":"ce4bgih2rcd13ifvqba0","pricing_plan_id":"cebpf4jnsgd1na2vs0mg"},{"bike_id":"97299784-6a66-4b2b-966f-f9f0a7fd068f","system_id":"levelo_inurba_marseille","lat":43.2903,"lon":5.38636,"is_reserved":false,"is_disabled":false,"rental_uris":{"android":"levelo://app?vid=97299784-6a66-4b2b-966f-f9f0a7fd068f","ios":"levelo://app?vid=97299784-6a66-4b2b-966f-f9f0a7fd068f"},"vehicle_type_id":"4","last_reported":1740776881,"current_range_meters":12400,"station_id":"ce4bh4p2rcd13ifvqe0g","pricing_plan_id":"cebpf4jnsgd1na2vs0mg"},{"bike_id":"2dabea1c-c2b8-4258-abdc-13e9e45e1bb1","system_id":"levelo_inurba_marseille","lat":43.27825,"lon":5.40741,"is_reserved":false,"is_disabled":false,"rental_uris":{"android":"levelo://app?vid=2dabea1c-c2b8-4258-abdc-13e9e45e1bb1","ios":"levelo://app?vid=2dabea1c-c2b8-4258-abdc-13e9e45e1bb1"},"vehicle_type_id":"4","last_reported":1740776881,"current_range_meters":12800,"station_id":"ce4bhnh2rcd13ifvqgtg","pricing_plan_id":"cebpf4jnsgd1na2vs0mg"},{"bike_id":"49e9cdc7-76a5-4b66-ae2d-61c73beb73a8","system_id":"levelo_inurba_marseille","lat":43.24176,"lon":5.36417,"is_reserved":false,"is_disabled":false,"rental_uris":{"android":"levelo://app?vid=49e9cdc7-76a5-4b66-ae2d-61c73beb73a8","ios":"levelo://app?vid=49e9cdc7-76a5-4b66-ae2d-61c73beb73a8"},"vehicle_type_id":"4","last_reported":1740776881,"current_range_meters":12400,"station_id":"cpo36qri1sfpv3e86is0","pricing_plan_id":"cebpf4jnsgd1na2vs0mg"},{"bike_id":"a841825f-d30a-4442-aacf-c20d378ce259","system_id":"levelo_inurba_marseille","lat":43.280018,"lon":5.400132,"is_reserved":false,"is_disabled":false,"rental_uris":{"android":"levelo://app?vid=a841825f-d30a-4442-aacf-c20d378ce259","ios":"levelo://app?vid=a841825f-d30a-4442-aacf-c20d378ce259"},"vehicle_type_id":"4","last_reported":1740776881,"current_range_meters":12400,"station_id":"ce4bho92rcd13ifvqh4g","pricing_plan_id":"cebpf4jnsgd1na2vs0mg"},{"bike_id":"a381a5b9-a403-4200-9ffe-4dd1764c25e1","system_id":"levelo_inurba_marseille","lat":43.295407,"lon":5.385387,"is_reserved":false,"is_disabled":false,"rental_uris":{"android":"levelo://app?vid=a381a5b9-a403-4200-9ffe-4dd1764c25e1","ios":"levelo://app?vid=a381a5b9-a403-4200-9ffe-4dd1764c25e1"},"vehicle_type_id":"4","last_reported":1740776881,"current_range_meters":12800,"station_id":"ce4bgih2rcd13ifvqba0","pricing_plan_id":"cebpf4jnsgd1na2vs0mg"},{"bike_id":"d56036d2-528e-4b8f-a11a-e065c3a57244","system_id":"levelo_inurba_marseille","lat":43.29417,"lon":5.38649,"is_reserved":false,"is_disabled":false,"rental_uris":{"android":"levelo://app?vid=d56036d2-528e-4b8f-a11a-e065c3a57244","ios":"levelo://app?vid=d56036d2-528e-4b8f-a11a-e065c3a57244"},"vehicle_type_id":"4","last_reported":1740776881,"current_range_meters":12800,"station_id":"ce4bh2h2rcd13ifvqdh0","pricing_plan_id":"cebpf4jnsgd1na2vs0mg"},{"bike_id":"c06dc2ad-b8b6-4d31-9310-853fd7ab5790","system_id":"levelo_inurba_marseille","lat":43.29249,"lon":5.38471,"is_reserved":false,"is_disabled":false,"rental_uris":{"android":"levelo://app?vid=c06dc2ad-b8b6-4d31-9310-853fd7ab5790","ios":"levelo://app?vid=c06dc2ad-b8b6-4d31-9310-853fd7ab5790"},"vehicle_type_id":"4","last_reported":1740776881,"current_range_meters":12800,"station_id":"ce4bh692rcd13ifvqea0","pricing_plan_id":"cebpf4jnsgd1na2vs0mg"},{"bike_id":"eeab2b0f-b74a-40c0-a740-ffe04bdfaf49","system_id":"levelo_inurba_marseille","lat":43.2953,"lon":5.38532,"is_reserved":false,"is_disabled":false,"rental_uris":{"android":"levelo://app?vid=eeab2b0f-b74a-40c0-a740-ffe04bdfaf49","ios":"levelo://app?vid=eeab2b0f-b74a-40c0-a740-ffe04bdfaf49"},"vehicle_type_id":"4","last_reported":1740776881,"current_range_meters":13600,"station_id":"ce4bgih2rcd13ifvqba0","pricing_plan_id":"cebpf4jnsgd1na2vs0mg"},{"bike_id":"597c78d8-1097-48db-b3be-fafc8754eab9","system_id":"levelo_inurba_marseille","lat":43.24163,"lon":5.36414,"is_reserved":false,"is_disabled":false,"rental_uris":{"android":"levelo://app?vid=597c78d8-1097-48db-b3be-fafc8754eab9","ios":"levelo://app?vid=597c78d8-1097-48db-b3be-fafc8754eab9"},"vehicle_type_id":"4","last_reported":1740776881,"current_range_meters":13600,"station_id":"cpo36qri1sfpv3e86is0","pricing_plan_id":"cebpf4jnsgd1na2vs0mg"},{"bike_id":"fc98d1fc-a6da-44a3-a5a7-4c93a4cd4143","system_id":"levelo_inurba_marseille","lat":43.29257,"lon":5.37435,"is_reserved":false,"is_disabled":false,"rental_uris":{"android":"levelo://app?vid=fc98d1fc-a6da-44a3-a5a7-4c93a4cd4143","ios":"levelo://app?vid=fc98d1fc-a6da-44a3-a5a7-4c93a4cd4143"},"vehicle_type_id":"4","last_reported":1740776881,"current_range_meters":12800,"station_id":"","pricing_plan_id":"cebpf4jnsgd1na2vs0mg"},{"bike_id":"202a89fb-23cc-43f6-8a82-08d33c6311cb","system_id":"levelo_inurba_marseille","lat":43.2925,"lon":5.37429,"is_reserved":false,"is_disabled":false,"rental_uris":{"android":"levelo://app?vid=202a89fb-23cc-43f6-8a82-08d33c6311cb","ios":"levelo://app?vid=202a89fb-23cc-43f6-8a82-08d33c6311cb"},"vehicle_type_id":"4","last_reported":1740776881,"current_range_meters":13600,"station_id":"","pricing_plan_id":"cebpf4jnsgd1na2vs0mg"},{"bike_id":"c2e38ea5-8bac-4349-bbb8-7bf515f2b922","system_id":"levelo_inurba_marseille","lat":43.29026,"lon":5.38633,"is_reserved":false,"is_disabled":false,"rental_uris":{"android":"levelo://app?vid=c2e38ea5-8bac-4349-bbb8-7bf515f2b922","ios":"levelo://app?vid=c2e38ea5-8bac-4349-bbb8-7bf515f2b922"},"vehicle_type_id":"4","last_reported":1740776881,"current_range_meters":14000,"station_id":"ce4bh4p2rcd13ifvqe0g","pricing_plan_id":"cebpf4jnsgd1na2vs0mg"},{"bike_id":"2e4d80eb-6976-4057-84c5-eb8dddadad8a","system_id":"levelo_inurba_marseille","lat":43.2694,"lon":5.40256,"is_reserved":false,"is_disabled":false,"rental_uris":{"android":"levelo://app?vid=2e4d80eb-6976-4057-84c5-eb8dddadad8a","ios":"levelo://app?vid=2e4d80eb-6976-4057-84c5-eb8dddadad8a"},"vehicle_type_id":"4","last_reported":1740776881,"current_range_meters":14000,"station_id":"cjm6bp8fraef2m0cb0m0","pricing_plan_id":"cebpf4jnsgd1na2vs0mg"},{"bike_id":"3ae43e61-e460-4942-a7d7-9a08b7b0118e","system_id":"levelo_inurba_marseille","lat":43.24817,"lon":5.37461,"is_reserved":false,"is_disabled":false,"rental_uris":{"android":"levelo://app?vid=3ae43e61-e460-4942-a7d7-9a08b7b0118e","ios":"levelo://app?vid=3ae43e61-e460-4942-a7d7-9a08b7b0118e"},"vehicle_type_id":"4","last_reported":1740776881,"current_range_meters":13600,"station_id":"ce4bhgh2rcd13ifvqfb0","pricing_plan_id":"cebpf4jnsgd1na2vs0mg"},{"bike_id":"b4badd8c-1ca4-4a69-b6bd-bb9aecca860b","system_id":"levelo_inurba_marseille","lat":43.29559,"lon":5.39946,"is_reserved":false,"is_disabled":false,"rental_uris":{"android":"levelo://app?vid=b4badd8c-1ca4-4a69-b6bd-bb9aecca860b","ios":"levelo://app?vid=b4badd8c-1ca4-4a69-b6bd-bb9aecca860b"},"vehicle_type_id":"4","last_reported":1740776881,"current_range_meters":12800,"station_id":"ce4bh312rcd13ifvqdj0","pricing_plan_id":"cebpf4jnsgd1na2vs0mg"},{"bike_id":"24f1eea7-42d8-44a8-abd0-998abb559412","system_id":"levelo_inurba_marseille","lat":43.24806,"lon":5.37452,"is_reserved":false,"is_disabled":false,"rental_uris":{"android":"levelo://app?vid=24f1eea7-42d8-44a8-abd0-998abb559412","ios":"levelo://app?vid=24f1eea7-42d8-44a8-abd0-998abb559412"},"vehicle_type_id":"4","last_reported":1740776881,"current_range_meters":13600,"station_id":"ce4bhgh2rcd13ifvqfb0","pricing_plan_id":"cebpf4jnsgd1na2vs0mg"},{"bike_id":"f5fe4361-1d3d-4314-a7e8-95ca49fcf6f9","system_id":"levelo_inurba_marseille","lat":43.32211,"lon":5.38764,"is_reserved":false,"is_disabled":false,"rental_uris":{"android":"levelo://app?vid=f5fe4361-1d3d-4314-a7e8-95ca49fcf6f9","ios":"levelo://app?vid=f5fe4361-1d3d-4314-a7e8-95ca49fcf6f9"},"vehicle_type_id":"4","last_reported":1740776881,"current_range_meters":13600,"station_id":"","pricing_plan_id":"cebpf4jnsgd1na2vs0mg"},{"bike_id":"ebe3d439-be3f-42d5-8eaf-167e5b2984f8","system_id":"levelo_inurba_marseille","lat":43.29297,"lon":5.37457,"is_reserved":false,"is_disabled":false,"rental_uris":{"android":"levelo://app?vid=ebe3d439-be3f-42d5-8eaf-167e5b2984f8","ios":"levelo://app?vid=ebe3d439-be3f-42d5-8eaf-167e5b2984f8"},"vehicle_type_id":"4","last_reported":1740776881,"current_range_meters":13600,"station_id":"ce4bgi12rcd13ifvqb70","pricing_plan_id":"cebpf4jnsgd1na2vs0mg"},{"bike_id":"d6eec10b-620b-4607-843d-346ffd62a6e7","system_id":"levelo_inurba_marseille","lat":43.26502,"lon":5.39568,"is_reserved":false,"is_disabled":false,"rental_uris":{"android":"levelo://app?vid=d6eec10b-620b-4607-843d-346ffd62a6e7","ios":"levelo://app?vid=d6eec10b-620b-4607-843d-346ffd62a6e7"},"vehicle_type_id":"4","last_reported":1740776881,"current_range_meters":14000,"station_id":"ce4bhi12rcd13ifvqfq0","pricing_plan_id":"cebpf4jnsgd1na2vs0mg"},{"bike_id":"e9b63fc9-8485-4b16-8079-70141247b95b","system_id":"levelo_inurba_marseille","lat":43.29271,"lon":5.38444,"is_reserved":false,"is_disabled":false,"rental_uris":{"android":"levelo://app?vid=e9b63fc9-8485-4b16-8079-70141247b95b","ios":"levelo://app?vid=e9b63fc9-8485-4b16-8079-70141247b95b"},"vehicle_type_id":"4","last_reported":1740776881,"current_range_meters":13600,"station_id":"ce4bh692rcd13ifvqea0","pricing_plan_id":"cebpf4jnsgd1na2vs0mg"},{"bike_id":"7effa7a6-9702-430c-b031-394b39ae0ca0","system_id":"levelo_inurba_marseille","lat":43.29532,"lon":5.38536,"is_reserved":false,"is_disabled":false,"rental_uris":{"android":"levelo://app?vid=7effa7a6-9702-430c-b031-394b39ae0ca0","ios":"levelo://app?vid=7effa7a6-9702-430c-b031-394b39ae0ca0"},"vehicle_type_id":"4","last_reported":1740776881,"current_range_meters":13600,"station_id":"ce4bgih2rcd13ifvqba0","pricing_plan_id":"cebpf4jnsgd1na2vs0mg"},{"bike_id":"0037eb92-a99c-408c-a3a0-4148bb3b8773","system_id":"levelo_inurba_marseille","lat":43.30193,"lon":5.36625,"is_reserved":false,"is_disabled":false,"rental_uris":{"android":"levelo://app?vid=0037eb92-a99c-408c-a3a0-4148bb3b8773","ios":"levelo://app?vid=0037eb92-a99c-408c-a3a0-4148bb3b8773"},"vehicle_type_id":"4","last_reported":1740776881,"current_range_meters":14400,"station_id":"ce4bgrh2rcd13ifvqc8g","pricing_plan_id":"cebpf4jnsgd1na2vs0mg"},{"bike_id":"74bdaba9-ddf5-4116-ac2f-aa7e97c64476","system_id":"levelo_inurba_marseille","lat":43.25006,"lon":5.38937,"is_reserved":false,"is_disabled":false,"rental_uris":{"android":"levelo://app?vid=74bdaba9-ddf5-4116-ac2f-aa7e97c64476","ios":"levelo://app?vid=74bdaba9-ddf5-4116-ac2f-aa7e97c64476"},"vehicle_type_id":"4","last_reported":1740776881,"current_range_meters":14400,"station_id":"ce4bhgp2rcd13ifvqfd0","pricing_plan_id":"cebpf4jnsgd1na2vs0mg"},{"bike_id":"db5cedd8-2a5e-4954-9155-1cd4948b2414","system_id":"levelo_inurba_marseille","lat":43.29596,"lon":5.38095,"is_reserved":false,"is_disabled":false,"rental_uris":{"android":"levelo://app?vid=db5cedd8-2a5e-4954-9155-1cd4948b2414","ios":"levelo://app?vid=db5cedd8-2a5e-4954-9155-1cd4948b2414"},"vehicle_type_id":"4","last_reported":1740776881,"current_range_meters":14000,"station_id":"ce4bgl12rcd13ifvqbo0","pricing_plan_id":"cebpf4jnsgd1na2vs0mg"},{"bike_id":"2fd990b0-8119-447c-9a6f-c1a42a96a5b0","system_id":"levelo_inurba_marseille","lat":43.28935,"lon":5.36627,"is_reserved":false,"is_disabled":false,"rental_uris":{"android":"levelo://app?vid=2fd990b0-8119-447c-9a6f-c1a42a96a5b0","ios":"levelo://app?vid=2fd990b0-8119-447c-9a6f-c1a42a96a5b0"},"vehicle_type_id":"4","last_reported":1740776881,"current_range_meters":14400,"station_id":"ce4bhap2rcd13ifvqek0","pricing_plan_id":"cebpf4jnsgd1na2vs0mg"},{"bike_id":"97c3afd1-55a1-437b-9e82-83e8c2f8334c","system_id":"levelo_inurba_marseille","lat":43.29935,"lon":5.38425,"is_reserved":false,"is_disabled":false,"rental_uris":{"android":"levelo://app?vid=97c3afd1-55a1-437b-9e82-83e8c2f8334c","ios":"levelo://app?vid=97c3afd1-55a1-437b-9e82-83e8c2f8334c"},"vehicle_type_id":"4","last_reported":1740776881,"current_range_meters":14400,"station_id":"","pricing_plan_id":"cebpf4jnsgd1na2vs0mg"},{"bike_id":"152d5173-ed9c-4346-9b22-eb5f34e49026","system_id":"levelo_inurba_marseille","lat":43.27993,"lon":5.40012,"is_reserved":false,"is_disabled":false,"rental_uris":{"android":"levelo://app?vid=152d5173-ed9c-4346-9b22-eb5f34e49026","ios":"levelo://app?vid=152d5173-ed9c-4346-9b22-eb5f34e49026"},"vehicle_type_id":"4","last_reported":1740776881,"current_range_meters":14800,"station_id":"ce4bho92rcd13ifvqh4g","pricing_plan_id":"cebpf4jnsgd1na2vs0mg"},{"bike_id":"93266e20-8652-4b61-8a93-7647c4fcacdb","system_id":"levelo_inurba_marseille","lat":43.29422,"lon":5.38618,"is_reserved":false,"is_disabled":false,"rental_uris":{"android":"levelo://app?vid=93266e20-8652-4b61-8a93-7647c4fcacdb","ios":"levelo://app?vid=93266e20-8652-4b61-8a93-7647c4fcacdb"},"vehicle_type_id":"4","last_reported":1740776881,"current_range_meters":14400,"station_id":"ce4bh2h2rcd13ifvqdh0","pricing_plan_id":"cebpf4jnsgd1na2vs0mg"},{"bike_id":"7d7c3645-a1b8-4cba-8ed4-36c4931e6932","system_id":"levelo_inurba_marseille","lat":43.25574,"lon":5.382227,"is_reserved":false,"is_disabled":false,"rental_uris":{"android":"levelo://app?vid=7d7c3645-a1b8-4cba-8ed4-36c4931e6932","ios":"levelo://app?vid=7d7c3645-a1b8-4cba-8ed4-36c4931e6932"},"vehicle_type_id":"4","last_reported":1740776881,"current_range_meters":14400,"station_id":"ce4bhih2rcd13ifvqfs0","pricing_plan_id":"cebpf4jnsgd1na2vs0mg"},{"bike_id":"ec322bb1-89fe-4287-a5af-b8a16745ae9e","system_id":"levelo_inurba_marseille","lat":43.29045,"lon":5.38655,"is_reserved":false,"is_disabled":false,"rental_uris":{"android":"levelo://app?vid=ec322bb1-89fe-4287-a5af-b8a16745ae9e","ios":"levelo://app?vid=ec322bb1-89fe-4287-a5af-b8a16745ae9e"},"vehicle_type_id":"4","last_reported":1740776881,"current_range_meters":14400,"station_id":"ce4bh4p2rcd13ifvqe0g","pricing_plan_id":"cebpf4jnsgd1na2vs0mg"},{"bike_id":"6e2c73a5-4fc6-4016-8847-ee3dd6addc73","system_id":"levelo_inurba_marseille","lat":43.30419,"lon":5.41279,"is_reserved":false,"is_disabled":false,"rental_uris":{"android":"levelo://app?vid=6e2c73a5-4fc6-4016-8847-ee3dd6addc73","ios":"levelo://app?vid=6e2c73a5-4fc6-4016-8847-ee3dd6addc73"},"vehicle_type_id":"4","last_reported":1740776881,"current_range_meters":13600,"station_id":"ce4bhop2rcd13ifvqh8g","pricing_plan_id":"cebpf4jnsgd1na2vs0mg"},{"bike_id":"128c5a26-431a-4824-8fcd-ffb2e269f063","system_id":"levelo_inurba_marseille","lat":43.29416,"lon":5.38623,"is_reserved":false,"is_disabled":false,"rental_uris":{"android":"levelo://app?vid=128c5a26-431a-4824-8fcd-ffb2e269f063","ios":"levelo://app?vid=128c5a26-431a-4824-8fcd-ffb2e269f063"},"vehicle_type_id":"4","last_reported":1740776881,"current_range_meters":15200,"station_id":"ce4bh2h2rcd13ifvqdh0","pricing_plan_id":"cebpf4jnsgd1na2vs0mg"},{"bike_id":"8c86cb21-5e53-44c8-a766-70640a93721c","system_id":"levelo_inurba_marseille","lat":43.29182,"lon":5.37546,"is_reserved":false,"is_disabled":false,"rental_uris":{"android":"levelo://app?vid=8c86cb21-5e53-44c8-a766-70640a93721c","ios":"levelo://app?vid=8c86cb21-5e53-44c8-a766-70640a93721c"},"vehicle_type_id":"4","last_reported":1740776881,"current_range_meters":14800,"station_id":"","pricing_plan_id":"cebpf4jnsgd1na2vs0mg"},{"bike_id":"0395e071-5a2b-415c-b481-2f18c2ea3427","system_id":"levelo_inurba_marseille","lat":43.2481,"lon":5.37458,"is_reserved":false,"is_disabled":false,"rental_uris":{"android":"levelo://app?vid=0395e071-5a2b-415c-b481-2f18c2ea3427","ios":"levelo://app?vid=0395e071-5a2b-415c-b481-2f18c2ea3427"},"vehicle_type_id":"4","last_reported":1740776881,"current_range_meters":14800,"station_id":"ce4bhgh2rcd13ifvqfb0","pricing_plan_id":"cebpf4jnsgd1na2vs0mg"},{"bike_id":"a8ae0d56-d0ea-4e7a-9207-fd55b73ad34d","system_id":"levelo_inurba_marseille","lat":43.29702,"lon":5.36604,"is_reserved":false,"is_disabled":false,"rental_uris":{"android":"levelo://app?vid=a8ae0d56-d0ea-4e7a-9207-fd55b73ad34d","ios":"levelo://app?vid=a8ae0d56-d0ea-4e7a-9207-fd55b73ad34d"},"vehicle_type_id":"4","last_reported":1740776881,"current_range_meters":14400,"station_id":"ce4bgn12rcd13ifvqbt0","pricing_plan_id":"cebpf4jnsgd1na2vs0mg"},{"bike_id":"52586366-f39b-403f-b467-c8239f9cc964","system_id":"levelo_inurba_marseille","lat":43.30949,"lon":5.3904,"is_reserved":false,"is_disabled":false,"rental_uris":{"android":"levelo://app?vid=52586366-f39b-403f-b467-c8239f9cc964","ios":"levelo://app?vid=52586366-f39b-403f-b467-c8239f9cc964"},"vehicle_type_id":"4","last_reported":1740776881,"current_range_meters":14800,"station_id":"ce4bgup2rcd13ifvqco0","pricing_plan_id":"cebpf4jnsgd1na2vs0mg"},{"bike_id":"27f8d61f-de01-4772-8b8c-ceceaf4de61e","system_id":"levelo_inurba_marseille","lat":43.29034,"lon":5.37194,"is_reserved":false,"is_disabled":true,"rental_uris":{"android":"levelo://app?vid=27f8d61f-de01-4772-8b8c-ceceaf4de61e","ios":"levelo://app?vid=27f8d61f-de01-4772-8b8c-ceceaf4de61e"},"vehicle_type_id":"4","last_reported":1740776881,"current_range_meters":14800,"station_id":"ce4bh5p2rcd13ifvqe4g","pricing_plan_id":"cebpf4jnsgd1na2vs0mg"},{"bike_id":"6c7883c2-775d-4e23-81ec-3546ebab04a4","system_id":"levelo_inurba_marseille","lat":43.2926,"lon":5.38467,"is_reserved":false,"is_disabled":false,"rental_uris":{"android":"levelo://app?vid=6c7883c2-775d-4e23-81ec-3546ebab04a4","ios":"levelo://app?vid=6c7883c2-775d-4e23-81ec-3546ebab04a4"},"vehicle_type_id":"4","last_reported":1740776881,"current_range_meters":12800,"station_id":"ce4bh692rcd13ifvqea0","pricing_plan_id":"cebpf4jnsgd1na2vs0mg"},{"bike_id":"34e4ac4e-ce8e-4b20-b1a6-c88a21e00500","system_id":"levelo_inurba_marseille","lat":43.29529,"lon":5.38537,"is_reserved":false,"is_disabled":false,"rental_uris":{"android":"levelo://app?vid=34e4ac4e-ce8e-4b20-b1a6-c88a21e00500","ios":"levelo://app?vid=34e4ac4e-ce8e-4b20-b1a6-c88a21e00500"},"vehicle_type_id":"4","last_reported":1740776881,"current_range_meters":16000,"station_id":"ce4bgih2rcd13ifvqba0","pricing_plan_id":"cebpf4jnsgd1na2vs0mg"},{"bike_id":"6b943fee-c773-41de-b14c-f0080a9319d9","system_id":"levelo_inurba_marseille","lat":43.30303,"lon":5.39196,"is_reserved":false,"is_disabled":false,"rental_uris":{"android":"levelo://app?vid=6b943fee-c773-41de-b14c-f0080a9319d9","ios":"levelo://app?vid=6b943fee-c773-41de-b14c-f0080a9319d9"},"vehicle_type_id":"4","last_reported":1740776881,"current_range_meters":15200,"station_id":"ce4bgkh2rcd13ifvqbk0","pricing_plan_id":"cebpf4jnsgd1na2vs0mg"},{"bike_id":"d013a78a-b275-4446-b2e7-8bba7dd432cb","system_id":"levelo_inurba_marseille","lat":43.29252,"lon":5.38433,"is_reserved":false,"is_disabled":false,"rental_uris":{"android":"levelo://app?vid=d013a78a-b275-4446-b2e7-8bba7dd432cb","ios":"levelo://app?vid=d013a78a-b275-4446-b2e7-8bba7dd432cb"},"vehicle_type_id":"4","last_reported":1740776881,"current_range_meters":15200,"station_id":"ce4bh692rcd13ifvqea0","pricing_plan_id":"cebpf4jnsgd1na2vs0mg"},{"bike_id":"76fc5983-cfda-4c32-a112-0d6cadf4deae","system_id":"levelo_inurba_marseille","lat":43.29803,"lon":5.38109,"is_reserved":false,"is_disabled":false,"rental_uris":{"android":"levelo://app?vid=76fc5983-cfda-4c32-a112-0d6cadf4deae","ios":"levelo://app?vid=76fc5983-cfda-4c32-a112-0d6cadf4deae"},"vehicle_type_id":"4","last_reported":1740776881,"current_range_meters":14800,"station_id":"ce4bgip2rcd13ifvqbb0","pricing_plan_id":"cebpf4jnsgd1na2vs0mg"},{"bike_id":"f043888f-a6c0-4aa5-a054-4aa3833e8db5","system_id":"levelo_inurba_marseille","lat":43.2872,"lon":5.37383,"is_reserved":false,"is_disabled":false,"rental_uris":{"android":"levelo://app?vid=f043888f-a6c0-4aa5-a054-4aa3833e8db5","ios":"levelo://app?vid=f043888f-a6c0-4aa5-a054-4aa3833e8db5"},"vehicle_type_id":"4","last_reported":1740776881,"current_range_meters":15200,"station_id":"ce4bh3p2rcd13ifvqdq0","pricing_plan_id":"cebpf4jnsgd1na2vs0mg"},{"bike_id":"a43d23d2-0d6e-4cf7-8691-8ab079a8ff69","system_id":"levelo_inurba_marseille","lat":43.29917,"lon":5.43653,"is_reserved":false,"is_disabled":false,"rental_uris":{"android":"levelo://app?vid=a43d23d2-0d6e-4cf7-8691-8ab079a8ff69","ios":"levelo://app?vid=a43d23d2-0d6e-4cf7-8691-8ab079a8ff69"},"vehicle_type_id":"4","last_reported":1740776881,"current_range_meters":15200,"station_id":"ce4bhpp2rcd13ifvqhfg","pricing_plan_id":"cebpf4jnsgd1na2vs0mg"},{"bike_id":"88380df9-96d8-4259-9015-42f88b5705d1","system_id":"levelo_inurba_marseille","lat":43.29026,"lon":5.38649,"is_reserved":false,"is_disabled":false,"rental_uris":{"android":"levelo://app?vid=88380df9-96d8-4259-9015-42f88b5705d1","ios":"levelo://app?vid=88380df9-96d8-4259-9015-42f88b5705d1"},"vehicle_type_id":"4","last_reported":1740776881,"current_range_meters":15200,"station_id":"ce4bh4p2rcd13ifvqe0g","pricing_plan_id":"cebpf4jnsgd1na2vs0mg"},{"bike_id":"4015c440-7267-44b4-8be2-f4b87cb51aa9","system_id":"levelo_inurba_marseille","lat":43.25586,"lon":5.3825,"is_reserved":false,"is_disabled":false,"rental_uris":{"android":"levelo://app?vid=4015c440-7267-44b4-8be2-f4b87cb51aa9","ios":"levelo://app?vid=4015c440-7267-44b4-8be2-f4b87cb51aa9"},"vehicle_type_id":"4","last_reported":1740776881,"current_range_meters":15200,"station_id":"ce4bhih2rcd13ifvqfs0","pricing_plan_id":"cebpf4jnsgd1na2vs0mg"},{"bike_id":"5106241c-ca6d-4d28-afbc-225965760d01","system_id":"levelo_inurba_marseille","lat":43.29304,"lon":5.37461,"is_reserved":false,"is_disabled":false,"rental_uris":{"android":"levelo://app?vid=5106241c-ca6d-4d28-afbc-225965760d01","ios":"levelo://app?vid=5106241c-ca6d-4d28-afbc-225965760d01"},"vehicle_type_id":"4","last_reported":1740776881,"current_range_meters":15200,"station_id":"ce4bgi12rcd13ifvqb70","pricing_plan_id":"cebpf4jnsgd1na2vs0mg"},{"bike_id":"9358d1ea-d2d8-49f0-87a4-b3e3fdbd556b","system_id":"levelo_inurba_marseille","lat":43.29529,"lon":5.3752,"is_reserved":false,"is_disabled":false,"rental_uris":{"android":"levelo://app?vid=9358d1ea-d2d8-49f0-87a4-b3e3fdbd556b","ios":"levelo://app?vid=9358d1ea-d2d8-49f0-87a4-b3e3fdbd556b"},"vehicle_type_id":"4","last_reported":1740776881,"current_range_meters":16000,"station_id":"ce4bgkp2rcd13ifvqbmg","pricing_plan_id":"cebpf4jnsgd1na2vs0mg"},{"bike_id":"0693b9d6-4a9d-4e38-bfa2-80f934bcc2e3","system_id":"levelo_inurba_marseille","lat":43.24182,"lon":5.36396,"is_reserved":false,"is_disabled":false,"rental_uris":{"android":"levelo://app?vid=0693b9d6-4a9d-4e38-bfa2-80f934bcc2e3","ios":"levelo://app?vid=0693b9d6-4a9d-4e38-bfa2-80f934bcc2e3"},"vehicle_type_id":"4","last_reported":1740776881,"current_range_meters":16000,"station_id":"cpo36qri1sfpv3e86is0","pricing_plan_id":"cebpf4jnsgd1na2vs0mg"},{"bike_id":"9af50958-f85d-4dd2-ac60-124fa79170e6","system_id":"levelo_inurba_marseille","lat":43.2931,"lon":5.37172,"is_reserved":false,"is_disabled":false,"rental_uris":{"android":"levelo://app?vid=9af50958-f85d-4dd2-ac60-124fa79170e6","ios":"levelo://app?vid=9af50958-f85d-4dd2-ac60-124fa79170e6"},"vehicle_type_id":"4","last_reported":1740776881,"current_range_meters":16000,"station_id":"ce4bgh92rcd13ifvqb40","pricing_plan_id":"cebpf4jnsgd1na2vs0mg"},{"bike_id":"d76db084-d723-4c89-9b16-05153e40f4fc","system_id":"levelo_inurba_marseille","lat":43.29564,"lon":5.37524,"is_reserved":false,"is_disabled":false,"rental_uris":{"android":"levelo://app?vid=d76db084-d723-4c89-9b16-05153e40f4fc","ios":"levelo://app?vid=d76db084-d723-4c89-9b16-05153e40f4fc"},"vehicle_type_id":"4","last_reported":1740776881,"current_range_meters":16000,"station_id":"ce4bgh92rcd13ifvqb50","pricing_plan_id":"cebpf4jnsgd1na2vs0mg"},{"bike_id":"885afce5-a772-472c-8f00-8fa46534cdaa","system_id":"levelo_inurba_marseille","lat":43.292723,"lon":5.384487,"is_reserved":false,"is_disabled":false,"rental_uris":{"android":"levelo://app?vid=885afce5-a772-472c-8f00-8fa46534cdaa","ios":"levelo://app?vid=885afce5-a772-472c-8f00-8fa46534cdaa"},"vehicle_type_id":"4","last_reported":1740776881,"current_range_meters":16000,"station_id":"ce4bh692rcd13ifvqea0","pricing_plan_id":"cebpf4jnsgd1na2vs0mg"},{"bike_id":"6725b9fa-a9f3-4f27-be5c-e5f5f11c35c1","system_id":"levelo_inurba_marseille","lat":43.310727,"lon":5.383679,"is_reserved":false,"is_disabled":false,"rental_uris":{"android":"levelo://app?vid=6725b9fa-a9f3-4f27-be5c-e5f5f11c35c1","ios":"levelo://app?vid=6725b9fa-a9f3-4f27-be5c-e5f5f11c35c1"},"vehicle_type_id":"4","last_reported":1740776881,"current_range_meters":16000,"station_id":"ce4bgv92rcd13ifvqcr0","pricing_plan_id":"cebpf4jnsgd1na2vs0mg"},{"bike_id":"0e4369ca-fd39-43a1-b045-aca8dac7d1ce","system_id":"levelo_inurba_marseille","lat":43.28562,"lon":5.39495,"is_reserved":false,"is_disabled":false,"rental_uris":{"android":"levelo://app?vid=0e4369ca-fd39-43a1-b045-aca8dac7d1ce","ios":"levelo://app?vid=0e4369ca-fd39-43a1-b045-aca8dac7d1ce"},"vehicle_type_id":"4","last_reported":1740776881,"current_range_meters":13600,"station_id":"ce4bh292rcd13ifvqdg0","pricing_plan_id":"cebpf4jnsgd1na2vs0mg"},{"bike_id":"20d2ee05-766c-42f5-ad36-8379672e425d","system_id":"levelo_inurba_marseille","lat":43.2961,"lon":5.38119,"is_reserved":false,"is_disabled":false,"rental_uris":{"android":"levelo://app?vid=20d2ee05-766c-42f5-ad36-8379672e425d","ios":"levelo://app?vid=20d2ee05-766c-42f5-ad36-8379672e425d"},"vehicle_type_id":"4","last_reported":1740776881,"current_range_meters":16000,"station_id":"ce4bgl12rcd13ifvqbo0","pricing_plan_id":"cebpf4jnsgd1na2vs0mg"},{"bike_id":"df7e73d3-91e6-4681-b8bf-51c483ffc80d","system_id":"levelo_inurba_marseille","lat":43.29711,"lon":5.37701,"is_reserved":false,"is_disabled":false,"rental_uris":{"android":"levelo://app?vid=df7e73d3-91e6-4681-b8bf-51c483ffc80d","ios":"levelo://app?vid=df7e73d3-91e6-4681-b8bf-51c483ffc80d"},"vehicle_type_id":"4","last_reported":1740776881,"current_range_meters":15200,"station_id":"ce4bgkh2rcd13ifvqbl0","pricing_plan_id":"cebpf4jnsgd1na2vs0mg"},{"bike_id":"97a5ce50-b7ae-427e-8be0-883daf6271b9","system_id":"levelo_inurba_marseille","lat":43.29031,"lon":5.38651,"is_reserved":false,"is_disabled":false,"rental_uris":{"android":"levelo://app?vid=97a5ce50-b7ae-427e-8be0-883daf6271b9","ios":"levelo://app?vid=97a5ce50-b7ae-427e-8be0-883daf6271b9"},"vehicle_type_id":"4","last_reported":1740776881,"current_range_meters":16000,"station_id":"ce4bh4p2rcd13ifvqe0g","pricing_plan_id":"cebpf4jnsgd1na2vs0mg"},{"bike_id":"d8c8fb51-1519-40c1-969d-e07901fbc741","system_id":"levelo_inurba_marseille","lat":43.283544,"lon":5.381071,"is_reserved":false,"is_disabled":false,"rental_uris":{"android":"levelo://app?vid=d8c8fb51-1519-40c1-969d-e07901fbc741","ios":"levelo://app?vid=d8c8fb51-1519-40c1-969d-e07901fbc741"},"vehicle_type_id":"4","last_reported":1740776881,"current_range_meters":16000,"station_id":"","pricing_plan_id":"cebpf4jnsgd1na2vs0mg"},{"bike_id":"fc353b25-cdb4-4b5b-90f9-7be19d416b8b","system_id":"levelo_inurba_marseille","lat":43.2926,"lon":5.38448,"is_reserved":false,"is_disabled":false,"rental_uris":{"android":"levelo://app?vid=fc353b25-cdb4-4b5b-90f9-7be19d416b8b","ios":"levelo://app?vid=fc353b25-cdb4-4b5b-90f9-7be19d416b8b"},"vehicle_type_id":"4","last_reported":1740776881,"current_range_meters":16400,"station_id":"ce4bh692rcd13ifvqea0","pricing_plan_id":"cebpf4jnsgd1na2vs0mg"},{"bike_id":"85d1b766-bdfe-4877-a335-4669a45aabed","system_id":"levelo_inurba_marseille","lat":43.28304,"lon":5.43335,"is_reserved":false,"is_disabled":false,"rental_uris":{"android":"levelo://app?vid=85d1b766-bdfe-4877-a335-4669a45aabed","ios":"levelo://app?vid=85d1b766-bdfe-4877-a335-4669a45aabed"},"vehicle_type_id":"4","last_reported":1740776881,"current_range_meters":16000,"station_id":"","pricing_plan_id":"cebpf4jnsgd1na2vs0mg"},{"bike_id":"ee74a44b-861a-4712-870c-c520cf54d921","system_id":"levelo_inurba_marseille","lat":43.29256,"lon":5.40911,"is_reserved":false,"is_disabled":false,"rental_uris":{"android":"levelo://app?vid=ee74a44b-861a-4712-870c-c520cf54d921","ios":"levelo://app?vid=ee74a44b-861a-4712-870c-c520cf54d921"},"vehicle_type_id":"4","last_reported":1740776881,"current_range_meters":15200,"station_id":"ce4bh192rcd13ifvqdc0","pricing_plan_id":"cebpf4jnsgd1na2vs0mg"},{"bike_id":"1f1d4c23-1eb7-4ee6-b2fb-10cfb5c52761","system_id":"levelo_inurba_marseille","lat":43.29255,"lon":5.3845,"is_reserved":false,"is_disabled":false,"rental_uris":{"android":"levelo://app?vid=1f1d4c23-1eb7-4ee6-b2fb-10cfb5c52761","ios":"levelo://app?vid=1f1d4c23-1eb7-4ee6-b2fb-10cfb5c52761"},"vehicle_type_id":"4","last_reported":1740776881,"current_range_meters":16000,"station_id":"ce4bh692rcd13ifvqea0","pricing_plan_id":"cebpf4jnsgd1na2vs0mg"},{"bike_id":"d08026f3-0b26-4adf-8a08-108aa393621c","system_id":"levelo_inurba_marseille","lat":43.30941,"lon":5.39027,"is_reserved":false,"is_disabled":false,"rental_uris":{"android":"levelo://app?vid=d08026f3-0b26-4adf-8a08-108aa393621c","ios":"levelo://app?vid=d08026f3-0b26-4adf-8a08-108aa393621c"},"vehicle_type_id":"4","last_reported":1740776881,"current_range_meters":16400,"station_id":"ce4bgup2rcd13ifvqco0","pricing_plan_id":"cebpf4jnsgd1na2vs0mg"},{"bike_id":"f9f4593d-ec14-43c6-ac64-d227a2c444e7","system_id":"levelo_inurba_marseille","lat":43.29959,"lon":5.38572,"is_reserved":false,"is_disabled":true,"rental_uris":{"android":"levelo://app?vid=f9f4593d-ec14-43c6-ac64-d227a2c444e7","ios":"levelo://app?vid=f9f4593d-ec14-43c6-ac64-d227a2c444e7"},"vehicle_type_id":"4","last_reported":1740776881,"current_range_meters":16400,"station_id":"","pricing_plan_id":"cebpf4jnsgd1na2vs0mg"},{"bike_id":"180ac7f9-db35-4465-8bb6-ae073120ef65","system_id":"levelo_inurba_marseille","lat":43.29283,"lon":5.38425,"is_reserved":false,"is_disabled":false,"rental_uris":{"android":"levelo://app?vid=180ac7f9-db35-4465-8bb6-ae073120ef65","ios":"levelo://app?vid=180ac7f9-db35-4465-8bb6-ae073120ef65"},"vehicle_type_id":"4","last_reported":1740776881,"current_range_meters":16400,"station_id":"ce4bh692rcd13ifvqea0","pricing_plan_id":"cebpf4jnsgd1na2vs0mg"},{"bike_id":"32ceb2c3-2f3b-4092-8d32-8ede67e0cd39","system_id":"levelo_inurba_marseille","lat":43.29893,"lon":5.43648,"is_reserved":false,"is_disabled":false,"rental_uris":{"android":"levelo://app?vid=32ceb2c3-2f3b-4092-8d32-8ede67e0cd39","ios":"levelo://app?vid=32ceb2c3-2f3b-4092-8d32-8ede67e0cd39"},"vehicle_type_id":"4","last_reported":1740776881,"current_range_meters":16400,"station_id":"ce4bhpp2rcd13ifvqhfg","pricing_plan_id":"cebpf4jnsgd1na2vs0mg"},{"bike_id":"39424971-6ce3-4caa-b644-1ddfff8e5408","system_id":"levelo_inurba_marseille","lat":43.26553,"lon":5.37286,"is_reserved":false,"is_disabled":false,"rental_uris":{"android":"levelo://app?vid=39424971-6ce3-4caa-b644-1ddfff8e5408","ios":"levelo://app?vid=39424971-6ce3-4caa-b644-1ddfff8e5408"},"vehicle_type_id":"4","last_reported":1740776881,"current_range_meters":16400,"station_id":"ce4bhg12rcd13ifvqf70","pricing_plan_id":"cebpf4jnsgd1na2vs0mg"},{"bike_id":"161d70e9-e213-4bf5-bde1-9c3d7296d89c","system_id":"levelo_inurba_marseille","lat":43.2782,"lon":5.39197,"is_reserved":false,"is_disabled":true,"rental_uris":{"android":"levelo://app?vid=161d70e9-e213-4bf5-bde1-9c3d7296d89c","ios":"levelo://app?vid=161d70e9-e213-4bf5-bde1-9c3d7296d89c"},"vehicle_type_id":"4","last_reported":1740776881,"current_range_meters":16400,"station_id":"ce4bhjp2rcd13ifvqga0","pricing_plan_id":"cebpf4jnsgd1na2vs0mg"},{"bike_id":"8a4f99ce-bff4-4a86-963f-023125ea5ae7","system_id":"levelo_inurba_marseille","lat":43.29248,"lon":5.38451,"is_reserved":false,"is_disabled":false,"rental_uris":{"android":"levelo://app?vid=8a4f99ce-bff4-4a86-963f-023125ea5ae7","ios":"levelo://app?vid=8a4f99ce-bff4-4a86-963f-023125ea5ae7"},"vehicle_type_id":"4","last_reported":1740776881,"current_range_meters":16400,"station_id":"ce4bh692rcd13ifvqea0","pricing_plan_id":"cebpf4jnsgd1na2vs0mg"},{"bike_id":"cb853248-557f-48ac-928f-efa1fb628a01","system_id":"levelo_inurba_marseille","lat":43.29257,"lon":5.38445,"is_reserved":false,"is_disabled":false,"rental_uris":{"android":"levelo://app?vid=cb853248-557f-48ac-928f-efa1fb628a01","ios":"levelo://app?vid=cb853248-557f-48ac-928f-efa1fb628a01"},"vehicle_type_id":"4","last_reported":1740776881,"current_range_meters":16400,"station_id":"ce4bh692rcd13ifvqea0","pricing_plan_id":"cebpf4jnsgd1na2vs0mg"},{"bike_id":"3e6eb5ab-3b41-4e51-838d-95c67fde06e4","system_id":"levelo_inurba_marseille","lat":43.29271,"lon":5.37617,"is_reserved":false,"is_disabled":false,"rental_uris":{"android":"levelo://app?vid=3e6eb5ab-3b41-4e51-838d-95c67fde06e4","ios":"levelo://app?vid=3e6eb5ab-3b41-4e51-838d-95c67fde06e4"},"vehicle_type_id":"4","last_reported":1740776881,"current_range_meters":16400,"station_id":"ce4bgi12rcd13ifvqb80","pricing_plan_id":"cebpf4jnsgd1na2vs0mg"},{"bike_id":"babefcd3-c2a2-4ba7-9712-04f23b855b03","system_id":"levelo_inurba_marseille","lat":43.2961,"lon":5.37713,"is_reserved":false,"is_disabled":false,"rental_uris":{"android":"levelo://app?vid=babefcd3-c2a2-4ba7-9712-04f23b855b03","ios":"levelo://app?vid=babefcd3-c2a2-4ba7-9712-04f23b855b03"},"vehicle_type_id":"4","last_reported":1740776881,"current_range_meters":16400,"station_id":"ce4bgi92rcd13ifvqb90","pricing_plan_id":"cebpf4jnsgd1na2vs0mg"},{"bike_id":"43cf1fa7-9038-4235-a5db-81b874461315","system_id":"levelo_inurba_marseille","lat":43.29312,"lon":5.37448,"is_reserved":false,"is_disabled":false,"rental_uris":{"android":"levelo://app?vid=43cf1fa7-9038-4235-a5db-81b874461315","ios":"levelo://app?vid=43cf1fa7-9038-4235-a5db-81b874461315"},"vehicle_type_id":"4","last_reported":1740776881,"current_range_meters":16400,"station_id":"ce4bgi12rcd13ifvqb70","pricing_plan_id":"cebpf4jnsgd1na2vs0mg"},{"bike_id":"d7079f25-1775-4843-a7b0-8d2f90924116","system_id":"levelo_inurba_marseille","lat":43.29422,"lon":5.38632,"is_reserved":false,"is_disabled":false,"rental_uris":{"android":"levelo://app?vid=d7079f25-1775-4843-a7b0-8d2f90924116","ios":"levelo://app?vid=d7079f25-1775-4843-a7b0-8d2f90924116"},"vehicle_type_id":"4","last_reported":1740776881,"current_range_meters":16400,"station_id":"ce4bh2h2rcd13ifvqdh0","pricing_plan_id":"cebpf4jnsgd1na2vs0mg"},{"bike_id":"22fe66e0-fce1-45f1-ad22-ae87582ba88c","system_id":"levelo_inurba_marseille","lat":43.29293,"lon":5.37459,"is_reserved":false,"is_disabled":false,"rental_uris":{"android":"levelo://app?vid=22fe66e0-fce1-45f1-ad22-ae87582ba88c","ios":"levelo://app?vid=22fe66e0-fce1-45f1-ad22-ae87582ba88c"},"vehicle_type_id":"4","last_reported":1740776881,"current_range_meters":16800,"station_id":"ce4bgi12rcd13ifvqb70","pricing_plan_id":"cebpf4jnsgd1na2vs0mg"},{"bike_id":"7fbf236f-24ab-45b9-988d-0ac2c78e8ed7","system_id":"levelo_inurba_marseille","lat":43.29277,"lon":5.37436,"is_reserved":false,"is_disabled":false,"rental_uris":{"android":"levelo://app?vid=7fbf236f-24ab-45b9-988d-0ac2c78e8ed7","ios":"levelo://app?vid=7fbf236f-24ab-45b9-988d-0ac2c78e8ed7"},"vehicle_type_id":"4","last_reported":1740776881,"current_range_meters":16800,"station_id":"ce4bgi12rcd13ifvqb70","pricing_plan_id":"cebpf4jnsgd1na2vs0mg"},{"bike_id":"5a62e097-626e-4afd-8969-ec25dd85d7fd","system_id":"levelo_inurba_marseille","lat":43.23147,"lon":5.4376,"is_reserved":false,"is_disabled":false,"rental_uris":{"android":"levelo://app?vid=5a62e097-626e-4afd-8969-ec25dd85d7fd","ios":"levelo://app?vid=5a62e097-626e-4afd-8969-ec25dd85d7fd"},"vehicle_type_id":"4","last_reported":1740776881,"current_range_meters":16800,"station_id":"ce4bhmp2rcd13ifvqgog","pricing_plan_id":"cebpf4jnsgd1na2vs0mg"},{"bike_id":"b10e4e1d-186b-4fc6-8ecb-4ea3326473c7","system_id":"levelo_inurba_marseille","lat":43.28472,"lon":5.38418,"is_reserved":false,"is_disabled":false,"rental_uris":{"android":"levelo://app?vid=b10e4e1d-186b-4fc6-8ecb-4ea3326473c7","ios":"levelo://app?vid=b10e4e1d-186b-4fc6-8ecb-4ea3326473c7"},"vehicle_type_id":"4","last_reported":1740776881,"current_range_meters":16800,"station_id":"ce4bh512rcd13ifvqe3g","pricing_plan_id":"cebpf4jnsgd1na2vs0mg"},{"bike_id":"a0b7ba07-15f9-4597-849c-2ede68d7e912","system_id":"levelo_inurba_marseille","lat":43.294149,"lon":5.386151,"is_reserved":false,"is_disabled":false,"rental_uris":{"android":"levelo://app?vid=a0b7ba07-15f9-4597-849c-2ede68d7e912","ios":"levelo://app?vid=a0b7ba07-15f9-4597-849c-2ede68d7e912"},"vehicle_type_id":"4","last_reported":1740776881,"current_range_meters":16800,"station_id":"ce4bh9p2rcd13ifvqed0","pricing_plan_id":"cebpf4jnsgd1na2vs0mg"},{"bike_id":"f730dc90-3449-46aa-8e22-f16d74e19981","system_id":"levelo_inurba_marseille","lat":43.28972,"lon":5.37838,"is_reserved":false,"is_disabled":false,"rental_uris":{"android":"levelo://app?vid=f730dc90-3449-46aa-8e22-f16d74e19981","ios":"levelo://app?vid=f730dc90-3449-46aa-8e22-f16d74e19981"},"vehicle_type_id":"4","last_reported":1740776881,"current_range_meters":16400,"station_id":"ce4bh9p2rcd13ifvqed0","pricing_plan_id":"cebpf4jnsgd1na2vs0mg"},{"bike_id":"7778bd5d-b9b9-4963-86d9-230254203a27","system_id":"levelo_inurba_marseille","lat":43.30951,"lon":5.39061,"is_reserved":false,"is_disabled":false,"rental_uris":{"android":"levelo://app?vid=7778bd5d-b9b9-4963-86d9-230254203a27","ios":"levelo://app?vid=7778bd5d-b9b9-4963-86d9-230254203a27"},"vehicle_type_id":"4","last_reported":1740776881,"current_range_meters":16800,"station_id":"ce4bgup2rcd13ifvqco0","pricing_plan_id":"cebpf4jnsgd1na2vs0mg"},{"bike_id":"3815a125-565a-4577-8461-7a3710056863","system_id":"levelo_inurba_marseille","lat":43.28455,"lon":5.3588,"is_reserved":false,"is_disabled":false,"rental_uris":{"android":"levelo://app?vid=3815a125-565a-4577-8461-7a3710056863","ios":"levelo://app?vid=3815a125-565a-4577-8461-7a3710056863"},"vehicle_type_id":"4","last_reported":1740776881,"current_range_meters":16800,"station_id":"ce4bhah2rcd13ifvqei0","pricing_plan_id":"cebpf4jnsgd1na2vs0mg"},{"bike_id":"1cf271e4-3fdc-452d-86cb-068e3c0a62ab","system_id":"levelo_inurba_marseille","lat":43.30953,"lon":5.39032,"is_reserved":false,"is_disabled":false,"rental_uris":{"android":"levelo://app?vid=1cf271e4-3fdc-452d-86cb-068e3c0a62ab","ios":"levelo://app?vid=1cf271e4-3fdc-452d-86cb-068e3c0a62ab"},"vehicle_type_id":"4","last_reported":1740776881,"current_range_meters":16400,"station_id":"ce4bgup2rcd13ifvqco0","pricing_plan_id":"cebpf4jnsgd1na2vs0mg"},{"bike_id":"637cf10a-68c2-4356-bc4a-f50d5c7f65e6","system_id":"levelo_inurba_marseille","lat":43.29974,"lon":5.38496,"is_reserved":false,"is_disabled":false,"rental_uris":{"android":"levelo://app?vid=637cf10a-68c2-4356-bc4a-f50d5c7f65e6","ios":"levelo://app?vid=637cf10a-68c2-4356-bc4a-f50d5c7f65e6"},