{"last_updated":1746054618,"ttl":60,"version":"2.2","data":{"bikes":[{"bike_id":"b1795e38-3363-4fdf-b6fd-6b996346dc01","system_id":"levelo_inurba_marseille","lat":43.30913,"lon":5.37194,"is_reserved":false,"is_disabled":false,"rental_uris":{"android":"levelo://app?vid=b1795e38-3363-4fdf-b6fd-6b996346dc01","ios":"levelo://app?vid=b1795e38-3363-4fdf-b6fd-6b996346dc01"},"vehicle_type_id":"4","last_reported":1746054618,"current_range_meters":2800,"station_id":"ce4bguh2rcd13ifvqckg","pricing_plan_id":"cebpf4jnsgd1na2vs0mg"},{"bike_id":"7277521c-6e81-4afa-8525-ce183bafa14d","system_id":"levelo_inurba_marseille","lat":43.29262,"lon":5.40904,"is_reserved":false,"is_disabled":false,"rental_uris":{"android":"levelo://app?vid=7277521c-6e81-4afa-8525-ce183bafa14d","ios":"levelo://app?vid=7277521c-6e81-4afa-8525-ce183bafa14d"},"vehicle_type_id":"4","last_reported":1746054618,"current_range_meters":2800,"station_id":"ce4bh192rcd13ifvqdc0","pricing_plan_id":"cebpf4jnsgd1na2vs0mg"},{"bike_id":"e4ba035c-90d8-454f-ac6e-c287b3392cfa","system_id":"levelo_inurba_marseille","lat":43.28338,"lon":5.38097,"is_reserved":false,"is_disabled":false,"rental_uris":{"android":"levelo://app?vid=e4ba035c-90d8-454f-ac6e-c287b3392cfa","ios":"levelo://app?vid=e4ba035c-90d8-454f-ac6e-c287b3392cfa"},"vehicle_type_id":"4","last_reported":1746054618,"current_range_meters":3200,"station_id":"ce4bh412rcd13ifvqdr0","pricing_plan_id":"cebpf4jnsgd1na2vs0mg"},{"bike_id":"bbd2c16f-e9d7-4104-a3ca-04e45cffbb51","system_id":"levelo_inurba_marseille","lat":43.297488,"lon":5.381084,"is_reserved":false,"is_disabled":false,"rental_uris":{"android":"levelo://app?vid=bbd2c16f-e9d7-4104-a3ca-04e45cffbb51","ios":"levelo://app?vid=bbd2c16f-e9d7-4104-a3ca-04e45cffbb51"},"vehicle_type_id":"4","last_reported":1746054618,"current_range_meters":3200,"station_id":"","pricing_plan_id":"cebpf4jnsgd1na2vs0mg"},{"bike_id":"5915e0aa-fa0f-4885-98b5-7fcf19bb218f","system_id":"levelo_inurba_marseille","lat":43.27429,"lon":5.39427,"is_reserved":false,"is_disabled":false,"rental_uris":{"android":"levelo://app?vid=5915e0aa-fa0f-4885-98b5-7fcf19bb218f","ios":"levelo://app?vid=5915e0aa-fa0f-4885-98b5-7fcf19bb218f"},"vehicle_type_id":"4","last_reported":1746054618,"current_range_meters":3200,"station_id":"ce4bhdp2rcd13ifvqf20","pricing_plan_id":"cebpf4jnsgd1na2vs0mg"},{"bike_id":"d8834ec9-5a9c-4825-8f0d-cdf93fa7aaf0","system_id":"levelo_inurba_marseille","lat":43.29634,"lon":5.37301,"is_reserved":false,"is_disabled":false,"rental_uris":{"android":"levelo://app?vid=d8834ec9-5a9c-4825-8f0d-cdf93fa7aaf0","ios":"levelo://app?vid=d8834ec9-5a9c-4825-8f0d-cdf93fa7aaf0"},"vehicle_type_id":"4","last_reported":1746054618,"current_range_meters":3200,"station_id":"","pricing_plan_id":"cebpf4jnsgd1na2vs0mg"},{"bike_id":"b56f04b5-e57f-4ab5-b8fe-64ac138294f5","system_id":"levelo_inurba_marseille","lat":43.280391,"lon":5.36944,"is_reserved":false,"is_disabled":false,"rental_uris":{"android":"levelo://app?vid=b56f04b5-e57f-4ab5-b8fe-64ac138294f5","ios":"levelo://app?vid=b56f04b5-e57f-4ab5-b8fe-64ac138294f5"},"vehicle_type_id":"4","last_reported":1746054618,"current_range_meters":2800,"station_id":"ce4bha12rcd13ifvqef0","pricing_plan_id":"cebpf4jnsgd1na2vs0mg"},{"bike_id":"df5c8a91-5938-45c5-906f-0efd9d00fcaf","system_id":"levelo_inurba_marseille","lat":43.3133,"lon":5.39682,"is_reserved":false,"is_disabled":false,"rental_uris":{"android":"levelo://app?vid=df5c8a91-5938-45c5-906f-0efd9d00fcaf","ios":"levelo://app?vid=df5c8a91-5938-45c5-906f-0efd9d00fcaf"},"vehicle_type_id":"4","last_reported":1746054618,"current_range_meters":3200,"station_id":"ce4bgvp2rcd13ifvqcu0","pricing_plan_id":"cebpf4jnsgd1na2vs0mg"},{"bike_id":"3b22bb4e-9110-45e4-a369-fb929b53ca61","system_id":"levelo_inurba_marseille","lat":43.30251,"lon":5.4006,"is_reserved":false,"is_disabled":false,"rental_uris":{"android":"levelo://app?vid=3b22bb4e-9110-45e4-a369-fb929b53ca61","ios":"levelo://app?vid=3b22bb4e-9110-45e4-a369-fb929b53ca61"},"vehicle_type_id":"4","last_reported":1746054618,"current_range_meters":3200,"station_id":"ce4bgvh2rcd13ifvqcs0","pricing_plan_id":"cebpf4jnsgd1na2vs0mg"},{"bike_id":"72956bec-cc5e-40fa-bdff-3af76cad7d69","system_id":"levelo_inurba_marseille","lat":43.33602,"lon":5.41033,"is_reserved":false,"is_disabled":false,"rental_uris":{"android":"levelo://app?vid=72956bec-cc5e-40fa-bdff-3af76cad7d69","ios":"levelo://app?vid=72956bec-cc5e-40fa-bdff-3af76cad7d69"},"vehicle_type_id":"4","last_reported":1746054618,"current_range_meters":3600,"station_id":"ce4bhqh2rcd13ifvqhmg","pricing_plan_id":"cebpf4jnsgd1na2vs0mg"},{"bike_id":"8db00566-3504-4c01-8e45-6906ee336e27","system_id":"levelo_inurba_marseille","lat":43.30245,"lon":5.40052,"is_reserved":false,"is_disabled":false,"rental_uris":{"android":"levelo://app?vid=8db00566-3504-4c01-8e45-6906ee336e27","ios":"levelo://app?vid=8db00566-3504-4c01-8e45-6906ee336e27"},"vehicle_type_id":"4","last_reported":1746054618,"current_range_meters":3600,"station_id":"ce4bgvh2rcd13ifvqcs0","pricing_plan_id":"cebpf4jnsgd1na2vs0mg"},{"bike_id":"99988b78-a464-4b9d-a96e-4ce6be72aee5","system_id":"levelo_inurba_marseille","lat":43.289735,"lon":5.378345,"is_reserved":false,"is_disabled":false,"rental_uris":{"android":"levelo://app?vid=99988b78-a464-4b9d-a96e-4ce6be72aee5","ios":"levelo://app?vid=99988b78-a464-4b9d-a96e-4ce6be72aee5"},"vehicle_type_id":"4","last_reported":1746054618,"current_range_meters":3600,"station_id":"ce4bh9p2rcd13ifvqed0","pricing_plan_id":"cebpf4jnsgd1na2vs0mg"},{"bike_id":"06bb3fbc-1701-4a06-9cc8-e6b4858e3eeb","system_id":"levelo_inurba_marseille","lat":43.29555,"lon":5.36512,"is_reserved":false,"is_disabled":false,"rental_uris":{"android":"levelo://app?vid=06bb3fbc-1701-4a06-9cc8-e6b4858e3eeb","ios":"levelo://app?vid=06bb3fbc-1701-4a06-9cc8-e6b4858e3eeb"},"vehicle_type_id":"4","last_reported":1746054618,"current_range_meters":3600,"station_id":"","pricing_plan_id":"cebpf4jnsgd1na2vs0mg"},{"bike_id":"59103a45-9c45-4967-bf5f-4eea7855d313","system_id":"levelo_inurba_marseille","lat":43.28669,"lon":5.38671,"is_reserved":false,"is_disabled":false,"rental_uris":{"android":"levelo://app?vid=59103a45-9c45-4967-bf5f-4eea7855d313","ios":"levelo://app?vid=59103a45-9c45-4967-bf5f-4eea7855d313"},"vehicle_type_id":"4","last_reported":1746054618,"current_range_meters":4400,"station_id":"ce4bh492rcd13ifvqdug","pricing_plan_id":"cebpf4jnsgd1na2vs0mg"},{"bike_id":"174a382d-669a-43dc-b32c-df5770725187","system_id":"levelo_inurba_marseille","lat":43.28038,"lon":5.36948,"is_reserved":false,"is_disabled":false,"rental_uris":{"android":"levelo://app?vid=174a382d-669a-43dc-b32c-df5770725187","ios":"levelo://app?vid=174a382d-669a-43dc-b32c-df5770725187"},"vehicle_type_id":"4","last_reported":1746054618,"current_range_meters":4400,"station_id":"ce4bha12rcd13ifvqef0","pricing_plan_id":"cebpf4jnsgd1na2vs0mg"},{"bike_id":"09f827c5-676a-458f-8558-766989031dc6","system_id":"levelo_inurba_marseille","lat":43.31362,"lon":5.38486,"is_reserved":false,"is_disabled":false,"rental_uris":{"android":"levelo://app?vid=09f827c5-676a-458f-8558-766989031dc6","ios":"levelo://app?vid=09f827c5-676a-458f-8558-766989031dc6"},"vehicle_type_id":"4","last_reported":1746054618,"current_range_meters":4400,"station_id":"ce4bgt92rcd13ifvqcf0","pricing_plan_id":"cebpf4jnsgd1na2vs0mg"},{"bike_id":"a32906b7-91c0-445c-9313-14efa6dc99d9","system_id":"levelo_inurba_marseille","lat":43.25123,"lon":5.40327,"is_reserved":false,"is_disabled":false,"rental_uris":{"android":"levelo://app?vid=a32906b7-91c0-445c-9313-14efa6dc99d9","ios":"levelo://app?vid=a32906b7-91c0-445c-9313-14efa6dc99d9"},"vehicle_type_id":"4","last_reported":1746054618,"current_range_meters":4800,"station_id":"ce4bhlh2rcd13ifvqgig","pricing_plan_id":"cebpf4jnsgd1na2vs0mg"},{"bike_id":"f2b3c286-6776-447c-b9e3-b804997d42c8","system_id":"levelo_inurba_marseille","lat":43.30453,"lon":5.37913,"is_reserved":false,"is_disabled":false,"rental_uris":{"android":"levelo://app?vid=f2b3c286-6776-447c-b9e3-b804997d42c8","ios":"levelo://app?vid=f2b3c286-6776-447c-b9e3-b804997d42c8"},"vehicle_type_id":"4","last_reported":1746054618,"current_range_meters":4800,"station_id":"ce4bgup2rcd13ifvqcn0","pricing_plan_id":"cebpf4jnsgd1na2vs0mg"},{"bike_id":"24fe4670-2cfb-49d4-a3ec-2dd67a898c28","system_id":"levelo_inurba_marseille","lat":43.25759,"lon":5.41009,"is_reserved":false,"is_disabled":false,"rental_uris":{"android":"levelo://app?vid=24fe4670-2cfb-49d4-a3ec-2dd67a898c28","ios":"levelo://app?vid=24fe4670-2cfb-49d4-a3ec-2dd67a898c28"},"vehicle_type_id":"4","last_reported":1746054618,"current_range_meters":4800,"station_id":"ce4bhkp2rcd13ifvqgd0","pricing_plan_id":"cebpf4jnsgd1na2vs0mg"},{"bike_id":"382b2aa1-0c26-433f-951c-1e0aa6aac28d","system_id":"levelo_inurba_marseille","lat":43.27975,"lon":5.38733,"is_reserved":false,"is_disabled":false,"rental_uris":{"android":"levelo://app?vid=382b2aa1-0c26-433f-951c-1e0aa6aac28d","ios":"levelo://app?vid=382b2aa1-0c26-433f-951c-1e0aa6aac28d"},"vehicle_type_id":"4","last_reported":1746054618,"current_range_meters":5600,"station_id":"ce4bhg12rcd13ifvqf80","pricing_plan_id":"cebpf4jnsgd1na2vs0mg"},{"bike_id":"b5908ace-1e9d-4150-a4c2-18f701aaba63","system_id":"levelo_inurba_marseille","lat":43.29962,"lon":5.41315,"is_reserved":false,"is_disabled":false,"rental_uris":{"android":"levelo://app?vid=b5908ace-1e9d-4150-a4c2-18f701aaba63","ios":"levelo://app?vid=b5908ace-1e9d-4150-a4c2-18f701aaba63"},"vehicle_type_id":"4","last_reported":1746054618,"current_range_meters":5600,"station_id":"ce4bhp12rcd13ifvqh9g","pricing_plan_id":"cebpf4jnsgd1na2vs0mg"},{"bike_id":"16224d15-cfd5-4ad6-8985-36c67148782b","system_id":"levelo_inurba_marseille","lat":43.278303,"lon":5.392088,"is_reserved":false,"is_disabled":false,"rental_uris":{"android":"levelo://app?vid=16224d15-cfd5-4ad6-8985-36c67148782b","ios":"levelo://app?vid=16224d15-cfd5-4ad6-8985-36c67148782b"},"vehicle_type_id":"4","last_reported":1746054618,"current_range_meters":5600,"station_id":"ce4bhjp2rcd13ifvqga0","pricing_plan_id":"cebpf4jnsgd1na2vs0mg"},{"bike_id":"605f87fe-8a7b-4678-bf49-f6ba1d2f7071","system_id":"levelo_inurba_marseille","lat":43.30591,"lon":5.393181,"is_reserved":false,"is_disabled":false,"rental_uris":{"android":"levelo://app?vid=605f87fe-8a7b-4678-bf49-f6ba1d2f7071","ios":"levelo://app?vid=605f87fe-8a7b-4678-bf49-f6ba1d2f7071"},"vehicle_type_id":"4","last_reported":1746054618,"current_range_meters":5600,"station_id":"ce4bh0h2rcd13ifvqd40","pricing_plan_id":"cebpf4jnsgd1na2vs0mg"},{"bike_id":"bffce823-66bd-4e1e-803a-c9da0c4c87df","system_id":"levelo_inurba_marseille","lat":43.29914,"lon":5.38141,"is_reserved":false,"is_disabled":false,"rental_uris":{"android":"levelo://app?vid=bffce823-66bd-4e1e-803a-c9da0c4c87df","ios":"levelo://app?vid=bffce823-66bd-4e1e-803a-c9da0c4c87df"},"vehicle_type_id":"4","last_reported":1746054618,"current_range_meters":6000,"station_id":"ce4bgj12rcd13ifvqbc0","pricing_plan_id":"cebpf4jnsgd1na2vs0mg"},{"bike_id":"b2774ff4-bc7c-4a9c-bb1c-ec753f0b19b5","system_id":"levelo_inurba_marseille","lat":43.29042,"lon":5.39953,"is_reserved":false,"is_disabled":false,"rental_uris":{"android":"levelo://app?vid=b2774ff4-bc7c-4a9c-bb1c-ec753f0b19b5","ios":"levelo://app?vid=b2774ff4-bc7c-4a9c-bb1c-ec753f0b19b5"},"vehicle_type_id":"4","last_reported":1746054618,"current_range_meters":6000,"station_id":"ce4bh392rcd13ifvqdm0","pricing_plan_id":"cebpf4jnsgd1na2vs0mg"},{"bike_id":"11030378-0600-47dc-8993-218a0b1ab3df","system_id":"levelo_inurba_marseille","lat":43.239548,"lon":5.366276,"is_reserved":false,"is_disabled":false,"rental_uris":{"android":"levelo://app?vid=11030378-0600-47dc-8993-218a0b1ab3df","ios":"levelo://app?vid=11030378-0600-47dc-8993-218a0b1ab3df"},"vehicle_type_id":"4","last_reported":1746054618,"current_range_meters":6000,"station_id":"ce4bhi12rcd13ifvqfp0","pricing_plan_id":"cebpf4jnsgd1na2vs0mg"},{"bike_id":"957db6d5-acc4-42ed-8580-1ffeee99ab4f","system_id":"levelo_inurba_marseille","lat":43.2797,"lon":5.38756,"is_reserved":false,"is_disabled":false,"rental_uris":{"android":"levelo://app?vid=957db6d5-acc4-42ed-8580-1ffeee99ab4f","ios":"levelo://app?vid=957db6d5-acc4-42ed-8580-1ffeee99ab4f"},"vehicle_type_id":"4","last_reported":1746054618,"current_range_meters":6000,"station_id":"ce4bhg12rcd13ifvqf80","pricing_plan_id":"cebpf4jnsgd1na2vs0mg"},{"bike_id":"1f70d46f-d800-458c-9efc-2a5ffd9be588","system_id":"levelo_inurba_marseille","lat":43.33591,"lon":5.40946,"is_reserved":false,"is_disabled":false,"rental_uris":{"android":"levelo://app?vid=1f70d46f-d800-458c-9efc-2a5ffd9be588","ios":"levelo://app?vid=1f70d46f-d800-458c-9efc-2a5ffd9be588"},"vehicle_type_id":"4","last_reported":1746054618,"current_range_meters":6000,"station_id":"ce4bhqh2rcd13ifvqhmg","pricing_plan_id":"cebpf4jnsgd1na2vs0mg"},{"bike_id":"98c0dd74-b416-47aa-a5dd-bbfad8576950","system_id":"levelo_inurba_marseille","lat":43.28106,"lon":5.37835,"is_reserved":false,"is_disabled":false,"rental_uris":{"android":"levelo://app?vid=98c0dd74-b416-47aa-a5dd-bbfad8576950","ios":"levelo://app?vid=98c0dd74-b416-47aa-a5dd-bbfad8576950"},"vehicle_type_id":"4","last_reported":1746054618,"current_range_meters":6000,"station_id":"ce4bha12rcd13ifvqee0","pricing_plan_id":"cebpf4jnsgd1na2vs0mg"},{"bike_id":"673a0c3f-8ece-48df-a2aa-4780ac191d8f","system_id":"levelo_inurba_marseille","lat":43.32027,"lon":5.41572,"is_reserved":false,"is_disabled":false,"rental_uris":{"android":"levelo://app?vid=673a0c3f-8ece-48df-a2aa-4780ac191d8f","ios":"levelo://app?vid=673a0c3f-8ece-48df-a2aa-4780ac191d8f"},"vehicle_type_id":"4","last_reported":1746054618,"current_range_meters":6400,"station_id":"ce4bhq92rcd13ifvqhkg","pricing_plan_id":"cebpf4jnsgd1na2vs0mg"},{"bike_id":"0bf0e341-72dd-4b17-81c6-3fa2d42f0e6b","system_id":"levelo_inurba_marseille","lat":43.2835,"lon":5.38103,"is_reserved":false,"is_disabled":false,"rental_uris":{"android":"levelo://app?vid=0bf0e341-72dd-4b17-81c6-3fa2d42f0e6b","ios":"levelo://app?vid=0bf0e341-72dd-4b17-81c6-3fa2d42f0e6b"},"vehicle_type_id":"4","last_reported":1746054618,"current_range_meters":6400,"station_id":"ce4bh412rcd13ifvqdr0","pricing_plan_id":"cebpf4jnsgd1na2vs0mg"},{"bike_id":"2d0fea3e-041c-4d20-aeb7-63739e3d5c27","system_id":"levelo_inurba_marseille","lat":43.306321,"lon":5.366013,"is_reserved":false,"is_disabled":false,"rental_uris":{"android":"levelo://app?vid=2d0fea3e-041c-4d20-aeb7-63739e3d5c27","ios":"levelo://app?vid=2d0fea3e-041c-4d20-aeb7-63739e3d5c27"},"vehicle_type_id":"4","last_reported":1746054618,"current_range_meters":6800,"station_id":"","pricing_plan_id":"cebpf4jnsgd1na2vs0mg"},{"bike_id":"e06e3ad6-0e5a-49f2-98bb-d0b7ffaaf745","system_id":"levelo_inurba_marseille","lat":43.233887,"lon":5.361046,"is_reserved":false,"is_disabled":false,"rental_uris":{"android":"levelo://app?vid=e06e3ad6-0e5a-49f2-98bb-d0b7ffaaf745","ios":"levelo://app?vid=e06e3ad6-0e5a-49f2-98bb-d0b7ffaaf745"},"vehicle_type_id":"4","last_reported":1746054618,"current_range_meters":6400,"station_id":"","pricing_plan_id":"cebpf4jnsgd1na2vs0mg"},{"bike_id":"00efbeb5-872a-4078-9994-9640cb88c828","system_id":"levelo_inurba_marseille","lat":43.25721,"lon":5.41112,"is_reserved":false,"is_disabled":false,"rental_uris":{"android":"levelo://app?vid=00efbeb5-872a-4078-9994-9640cb88c828","ios":"levelo://app?vid=00efbeb5-872a-4078-9994-9640cb88c828"},"vehicle_type_id":"4","last_reported":1746054618,"current_range_meters":6800,"station_id":"ce4bhkp2rcd13ifvqgd0","pricing_plan_id":"cebpf4jnsgd1na2vs0mg"},{"bike_id":"0ac3953f-04e5-4439-8948-7139276b9c2a","system_id":"levelo_inurba_marseille","lat":43.28403,"lon":5.37509,"is_reserved":false,"is_disabled":false,"rental_uris":{"android":"levelo://app?vid=0ac3953f-04e5-4439-8948-7139276b9c2a","ios":"levelo://app?vid=0ac3953f-04e5-4439-8948-7139276b9c2a"},"vehicle_type_id":"4","last_reported":1746054618,"current_range_meters":6800,"station_id":"ce4bh412rcd13ifvqds0","pricing_plan_id":"cebpf4jnsgd1na2vs0mg"},{"bike_id":"baebec09-17e6-4eed-b8ef-05abfa1451d5","system_id":"levelo_inurba_marseille","lat":43.30905,"lon":5.39644,"is_reserved":false,"is_disabled":false,"rental_uris":{"android":"levelo://app?vid=baebec09-17e6-4eed-b8ef-05abfa1451d5","ios":"levelo://app?vid=baebec09-17e6-4eed-b8ef-05abfa1451d5"},"vehicle_type_id":"4","last_reported":1746054618,"current_range_meters":6800,"station_id":"ce4bh012rcd13ifvqcv0","pricing_plan_id":"cebpf4jnsgd1na2vs0mg"},{"bike_id":"387bc5ea-7c2b-41e1-a1e6-3b4cc71c9638","system_id":"levelo_inurba_marseille","lat":43.24162,"lon":5.39711,"is_reserved":false,"is_disabled":false,"rental_uris":{"android":"levelo://app?vid=387bc5ea-7c2b-41e1-a1e6-3b4cc71c9638","ios":"levelo://app?vid=387bc5ea-7c2b-41e1-a1e6-3b4cc71c9638"},"vehicle_type_id":"4","last_reported":1746054618,"current_range_meters":6800,"station_id":"ce4bhn12rcd13ifvqgpg","pricing_plan_id":"cebpf4jnsgd1na2vs0mg"},{"bike_id":"a86b7939-a8bf-47fd-9ae1-45960375edc1","system_id":"levelo_inurba_marseille","lat":43.30889,"lon":5.39658,"is_reserved":false,"is_disabled":false,"rental_uris":{"android":"levelo://app?vid=a86b7939-a8bf-47fd-9ae1-45960375edc1","ios":"levelo://app?vid=a86b7939-a8bf-47fd-9ae1-45960375edc1"},"vehicle_type_id":"4","last_reported":1746054618,"current_range_meters":6800,"station_id":"ce4bh012rcd13ifvqcv0","pricing_plan_id":"cebpf4jnsgd1na2vs0mg"},{"bike_id":"1202284b-ee73-48e5-a023-742ca407511c","system_id":"levelo_inurba_marseille","lat":43.27434,"lon":5.39417,"is_reserved":false,"is_disabled":false,"rental_uris":{"android":"levelo://app?vid=1202284b-ee73-48e5-a023-742ca407511c","ios":"levelo://app?vid=1202284b-ee73-48e5-a023-742ca407511c"},"vehicle_type_id":"4","last_reported":1746054618,"current_range_meters":6800,"station_id":"ce4bhdp2rcd13ifvqf20","pricing_plan_id":"cebpf4jnsgd1na2vs0mg"},{"bike_id":"c89af82b-d8de-4524-ac1f-cc5e38330d5b","system_id":"levelo_inurba_marseille","lat":43.32478,"lon":5.36579,"is_reserved":false,"is_disabled":false,"rental_uris":{"android":"levelo://app?vid=c89af82b-d8de-4524-ac1f-cc5e38330d5b","ios":"levelo://app?vid=c89af82b-d8de-4524-ac1f-cc5e38330d5b"},"vehicle_type_id":"4","last_reported":1746054618,"current_range_meters":7200,"station_id":"ce4bhs12rcd13ifvqhvg","pricing_plan_id":"cebpf4jnsgd1na2vs0mg"},{"bike_id":"bc1d975a-af42-46ea-a9c7-0b3364dd6004","system_id":"levelo_inurba_marseille","lat":43.28415,"lon":5.37496,"is_reserved":false,"is_disabled":false,"rental_uris":{"android":"levelo://app?vid=bc1d975a-af42-46ea-a9c7-0b3364dd6004","ios":"levelo://app?vid=bc1d975a-af42-46ea-a9c7-0b3364dd6004"},"vehicle_type_id":"4","last_reported":1746054618,"current_range_meters":7200,"station_id":"ce4bh412rcd13ifvqds0","pricing_plan_id":"cebpf4jnsgd1na2vs0mg"},{"bike_id":"0ad3bba1-4bc4-479c-8461-1db3bb0761ed","system_id":"levelo_inurba_marseille","lat":43.3133,"lon":5.39694,"is_reserved":false,"is_disabled":false,"rental_uris":{"android":"levelo://app?vid=0ad3bba1-4bc4-479c-8461-1db3bb0761ed","ios":"levelo://app?vid=0ad3bba1-4bc4-479c-8461-1db3bb0761ed"},"vehicle_type_id":"4","last_reported":1746054618,"current_range_meters":7200,"station_id":"ce4bgvp2rcd13ifvqcu0","pricing_plan_id":"cebpf4jnsgd1na2vs0mg"},{"bike_id":"d94ec0f1-df42-4d10-8765-57087b04a16e","system_id":"levelo_inurba_marseille","lat":43.28851,"lon":5.393,"is_reserved":false,"is_disabled":false,"rental_uris":{"android":"levelo://app?vid=d94ec0f1-df42-4d10-8765-57087b04a16e","ios":"levelo://app?vid=d94ec0f1-df42-4d10-8765-57087b04a16e"},"vehicle_type_id":"4","last_reported":1746054618,"current_range_meters":7200,"station_id":"ce4bh2p2rcd13ifvqdi0","pricing_plan_id":"cebpf4jnsgd1na2vs0mg"},{"bike_id":"76a9cd10-fdd4-4a05-acce-121be760d6db","system_id":"levelo_inurba_marseille","lat":43.273163,"lon":5.390936,"is_reserved":false,"is_disabled":true,"rental_uris":{"android":"levelo://app?vid=76a9cd10-fdd4-4a05-acce-121be760d6db","ios":"levelo://app?vid=76a9cd10-fdd4-4a05-acce-121be760d6db"},"vehicle_type_id":"4","last_reported":1746054618,"current_range_meters":7200,"station_id":"ce4bhgp2rcd13ifvqfe0","pricing_plan_id":"cebpf4jnsgd1na2vs0mg"},{"bike_id":"9b94b1fc-5af7-4775-8887-2628eff150ed","system_id":"levelo_inurba_marseille","lat":43.30101,"lon":5.39081,"is_reserved":false,"is_disabled":false,"rental_uris":{"android":"levelo://app?vid=9b94b1fc-5af7-4775-8887-2628eff150ed","ios":"levelo://app?vid=9b94b1fc-5af7-4775-8887-2628eff150ed"},"vehicle_type_id":"4","last_reported":1746054618,"current_range_meters":7200,"station_id":"ce4bh192rcd13ifvqdb0","pricing_plan_id":"cebpf4jnsgd1na2vs0mg"},{"bike_id":"38888685-ecee-457f-b7f2-6a456f769de8","system_id":"levelo_inurba_marseille","lat":43.32349,"lon":5.38886,"is_reserved":false,"is_disabled":false,"rental_uris":{"android":"levelo://app?vid=38888685-ecee-457f-b7f2-6a456f769de8","ios":"levelo://app?vid=38888685-ecee-457f-b7f2-6a456f769de8"},"vehicle_type_id":"4","last_reported":1746054618,"current_range_meters":8000,"station_id":"ce4bhqp2rcd13ifvqhog","pricing_plan_id":"cebpf4jnsgd1na2vs0mg"},{"bike_id":"72345e43-66a9-421c-bc31-7e802f1376ac","system_id":"levelo_inurba_marseille","lat":43.2942,"lon":5.38623,"is_reserved":false,"is_disabled":false,"rental_uris":{"android":"levelo://app?vid=72345e43-66a9-421c-bc31-7e802f1376ac","ios":"levelo://app?vid=72345e43-66a9-421c-bc31-7e802f1376ac"},"vehicle_type_id":"4","last_reported":1746054618,"current_range_meters":8000,"station_id":"ce4bh2h2rcd13ifvqdh0","pricing_plan_id":"cebpf4jnsgd1na2vs0mg"},{"bike_id":"2806b558-e7ec-472b-9609-45e5c29e99f3","system_id":"levelo_inurba_marseille","lat":43.28761,"lon":5.3768,"is_reserved":false,"is_disabled":false,"rental_uris":{"android":"levelo://app?vid=2806b558-e7ec-472b-9609-45e5c29e99f3","ios":"levelo://app?vid=2806b558-e7ec-472b-9609-45e5c29e99f3"},"vehicle_type_id":"4","last_reported":1746054618,"current_range_meters":8000,"station_id":"","pricing_plan_id":"cebpf4jnsgd1na2vs0mg"},{"bike_id":"024007ba-4dd2-49cd-80bc-6247bbc36f87","system_id":"levelo_inurba_marseille","lat":43.29781,"lon":5.37107,"is_reserved":false,"is_disabled":false,"rental_uris":{"android":"levelo://app?vid=024007ba-4dd2-49cd-80bc-6247bbc36f87","ios":"levelo://app?vid=024007ba-4dd2-49cd-80bc-6247bbc36f87"},"vehicle_type_id":"4","last_reported":1746054618,"current_range_meters":8000,"station_id":"ce4bgop2rcd13ifvqc1g","pricing_plan_id":"cebpf4jnsgd1na2vs0mg"},{"bike_id":"c4df782d-c1f5-4d8f-9d6a-dce65b2d2735","system_id":"levelo_inurba_marseille","lat":43.30806,"lon":5.38163,"is_reserved":false,"is_disabled":false,"rental_uris":{"android":"levelo://app?vid=c4df782d-c1f5-4d8f-9d6a-dce65b2d2735","ios":"levelo://app?vid=c4df782d-c1f5-4d8f-9d6a-dce65b2d2735"},"vehicle_type_id":"4","last_reported":1746054618,"current_range_meters":8000,"station_id":"ce4bgt12rcd13ifvqce0","pricing_plan_id":"cebpf4jnsgd1na2vs0mg"},{"bike_id":"af45928f-99f5-4c10-8488-a1690bf972d2","system_id":"levelo_inurba_marseille","lat":43.294421,"lon":5.397587,"is_reserved":false,"is_disabled":true,"rental_uris":{"android":"levelo://app?vid=af45928f-99f5-4c10-8488-a1690bf972d2","ios":"levelo://app?vid=af45928f-99f5-4c10-8488-a1690bf972d2"},"vehicle_type_id":"4","last_reported":1746054618,"current_range_meters":8000,"station_id":"ce4bh3h2rcd13ifvqdo0","pricing_plan_id":"cebpf4jnsgd1na2vs0mg"},{"bike_id":"c16f6fc2-03bf-4e15-ab62-a648d84ba2d8","system_id":"levelo_inurba_marseille","lat":43.27998,"lon":5.39999,"is_reserved":false,"is_disabled":false,"rental_uris":{"android":"levelo://app?vid=c16f6fc2-03bf-4e15-ab62-a648d84ba2d8","ios":"levelo://app?vid=c16f6fc2-03bf-4e15-ab62-a648d84ba2d8"},"vehicle_type_id":"4","last_reported":1746054618,"current_range_meters":8000,"station_id":"ce4bho92rcd13ifvqh4g","pricing_plan_id":"cebpf4jnsgd1na2vs0mg"},{"bike_id":"00d6f668-ccb9-47ae-b8ce-c39b1f313b6e","system_id":"levelo_inurba_marseille","lat":43.29308,"lon":5.37163,"is_reserved":false,"is_disabled":true,"rental_uris":{"android":"levelo://app?vid=00d6f668-ccb9-47ae-b8ce-c39b1f313b6e","ios":"levelo://app?vid=00d6f668-ccb9-47ae-b8ce-c39b1f313b6e"},"vehicle_type_id":"4","last_reported":1746054618,"current_range_meters":8000,"station_id":"ce4bgh92rcd13ifvqb40","pricing_plan_id":"cebpf4jnsgd1na2vs0mg"},{"bike_id":"9965e496-e128-48a0-9487-d7af7b498698","system_id":"levelo_inurba_marseille","lat":43.291907,"lon":5.393242,"is_reserved":false,"is_disabled":true,"rental_uris":{"android":"levelo://app?vid=9965e496-e128-48a0-9487-d7af7b498698","ios":"levelo://app?vid=9965e496-e128-48a0-9487-d7af7b498698"},"vehicle_type_id":"4","last_reported":1746054618,"current_range_meters":8000,"station_id":"ce4bh192rcd13ifvqdd0","pricing_plan_id":"cebpf4jnsgd1na2vs0mg"},{"bike_id":"29004581-500e-4cc8-8d9f-f7ba87082b36","system_id":"levelo_inurba_marseille","lat":43.30808,"lon":5.381467,"is_reserved":false,"is_disabled":false,"rental_uris":{"android":"levelo://app?vid=29004581-500e-4cc8-8d9f-f7ba87082b36","ios":"levelo://app?vid=29004581-500e-4cc8-8d9f-f7ba87082b36"},"vehicle_type_id":"4","last_reported":1746054618,"current_range_meters":8000,"station_id":"ce4bgt12rcd13ifvqce0","pricing_plan_id":"cebpf4jnsgd1na2vs0mg"},{"bike_id":"72d99e4a-f470-42c1-809e-b5359c766919","system_id":"levelo_inurba_marseille","lat":43.28705,"lon":5.37393,"is_reserved":false,"is_disabled":false,"rental_uris":{"android":"levelo://app?vid=72d99e4a-f470-42c1-809e-b5359c766919","ios":"levelo://app?vid=72d99e4a-f470-42c1-809e-b5359c766919"},"vehicle_type_id":"4","last_reported":1746054618,"current_range_meters":8000,"station_id":"ce4bh3p2rcd13ifvqdq0","pricing_plan_id":"cebpf4jnsgd1na2vs0mg"},{"bike_id":"fa21a78e-abff-4118-ad81-13650028bad4","system_id":"levelo_inurba_marseille","lat":43.25872,"lon":5.39892,"is_reserved":false,"is_disabled":false,"rental_uris":{"android":"levelo://app?vid=fa21a78e-abff-4118-ad81-13650028bad4","ios":"levelo://app?vid=fa21a78e-abff-4118-ad81-13650028bad4"},"vehicle_type_id":"4","last_reported":1746054618,"current_range_meters":8000,"station_id":"ce4bhl92rcd13ifvqghg","pricing_plan_id":"cebpf4jnsgd1na2vs0mg"},{"bike_id":"8fe0cc0b-a043-4280-a5e4-0783063c5830","system_id":"levelo_inurba_marseille","lat":43.317585,"lon":5.390126,"is_reserved":false,"is_disabled":false,"rental_uris":{"android":"levelo://app?vid=8fe0cc0b-a043-4280-a5e4-0783063c5830","ios":"levelo://app?vid=8fe0cc0b-a043-4280-a5e4-0783063c5830"},"vehicle_type_id":"4","last_reported":1746054618,"current_range_meters":8000,"station_id":"ce4bhqp2rcd13ifvqhng","pricing_plan_id":"cebpf4jnsgd1na2vs0mg"},{"bike_id":"0684bb70-d1ff-4939-b928-996dec0a79c0","system_id":"levelo_inurba_marseille","lat":43.29447,"lon":5.39743,"is_reserved":false,"is_disabled":false,"rental_uris":{"android":"levelo://app?vid=0684bb70-d1ff-4939-b928-996dec0a79c0","ios":"levelo://app?vid=0684bb70-d1ff-4939-b928-996dec0a79c0"},"vehicle_type_id":"4","last_reported":1746054618,"current_range_meters":8400,"station_id":"ce4bh3h2rcd13ifvqdo0","pricing_plan_id":"cebpf4jnsgd1na2vs0mg"},{"bike_id":"a0da20fc-88e0-400b-8360-717e1e8d72f2","system_id":"levelo_inurba_marseille","lat":43.30934,"lon":5.40136,"is_reserved":false,"is_disabled":false,"rental_uris":{"android":"levelo://app?vid=a0da20fc-88e0-400b-8360-717e1e8d72f2","ios":"levelo://app?vid=a0da20fc-88e0-400b-8360-717e1e8d72f2"},"vehicle_type_id":"4","last_reported":1746054618,"current_range_meters":8400,"station_id":"ce4bgvp2rcd13ifvqct0","pricing_plan_id":"cebpf4jnsgd1na2vs0mg"},{"bike_id":"05bc1beb-7322-4b6e-ac33-cb496e469d14","system_id":"levelo_inurba_marseille","lat":43.29875,"lon":5.39726,"is_reserved":false,"is_disabled":false,"rental_uris":{"android":"levelo://app?vid=05bc1beb-7322-4b6e-ac33-cb496e469d14","ios":"levelo://app?vid=05bc1beb-7322-4b6e-ac33-cb496e469d14"},"vehicle_type_id":"4","last_reported":1746054618,"current_range_meters":8400,"station_id":"ce4bh0h2rcd13ifvqd50","pricing_plan_id":"cebpf4jnsgd1na2vs0mg"},{"bike_id":"489415b8-9254-45c1-b00c-e7554d56755c","system_id":"levelo_inurba_marseille","lat":43.245271,"lon":5.412168,"is_reserved":false,"is_disabled":false,"rental_uris":{"android":"levelo://app?vid=489415b8-9254-45c1-b00c-e7554d56755c","ios":"levelo://app?vid=489415b8-9254-45c1-b00c-e7554d56755c"},"vehicle_type_id":"4","last_reported":1746054618,"current_range_meters":8400,"station_id":"","pricing_plan_id":"cebpf4jnsgd1na2vs0mg"},{"bike_id":"3bdfe450-8e81-4f9c-a076-f8d1a68d589a","system_id":"levelo_inurba_marseille","lat":43.29868,"lon":5.39732,"is_reserved":false,"is_disabled":false,"rental_uris":{"android":"levelo://app?vid=3bdfe450-8e81-4f9c-a076-f8d1a68d589a","ios":"levelo://app?vid=3bdfe450-8e81-4f9c-a076-f8d1a68d589a"},"vehicle_type_id":"4","last_reported":1746054618,"current_range_meters":8000,"station_id":"ce4bh0h2rcd13ifvqd50","pricing_plan_id":"cebpf4jnsgd1na2vs0mg"},{"bike_id":"e724090f-9f5a-4859-894c-1a62cb509fd4","system_id":"levelo_inurba_marseille","lat":43.245444,"lon":5.395252,"is_reserved":false,"is_disabled":false,"rental_uris":{"android":"levelo://app?vid=e724090f-9f5a-4859-894c-1a62cb509fd4","ios":"levelo://app?vid=e724090f-9f5a-4859-894c-1a62cb509fd4"},"vehicle_type_id":"4","last_reported":1746054618,"current_range_meters":8400,"station_id":"ce4bhlp2rcd13ifvqgjg","pricing_plan_id":"cebpf4jnsgd1na2vs0mg"},{"bike_id":"761bebd3-472a-45fc-9e2a-f893102f93e7","system_id":"levelo_inurba_marseille","lat":43.2794,"lon":5.41036,"is_reserved":false,"is_disabled":false,"rental_uris":{"android":"levelo://app?vid=761bebd3-472a-45fc-9e2a-f893102f93e7","ios":"levelo://app?vid=761bebd3-472a-45fc-9e2a-f893102f93e7"},"vehicle_type_id":"4","last_reported":1746054618,"current_range_meters":8400,"station_id":"ce4bhnp2rcd13ifvqh0g","pricing_plan_id":"cebpf4jnsgd1na2vs0mg"},{"bike_id":"07edfd45-c3fa-4b57-b865-cf1bf9963264","system_id":"levelo_inurba_marseille","lat":43.23407,"lon":5.36411,"is_reserved":false,"is_disabled":false,"rental_uris":{"android":"levelo://app?vid=07edfd45-c3fa-4b57-b865-cf1bf9963264","ios":"levelo://app?vid=07edfd45-c3fa-4b57-b865-cf1bf9963264"},"vehicle_type_id":"4","last_reported":1746054618,"current_range_meters":8400,"station_id":"","pricing_plan_id":"cebpf4jnsgd1na2vs0mg"},{"bike_id":"9514f132-b436-4584-8fc6-3e83b88fbb96","system_id":"levelo_inurba_marseille","lat":43.27442,"lon":5.39418,"is_reserved":false,"is_disabled":false,"rental_uris":{"android":"levelo://app?vid=9514f132-b436-4584-8fc6-3e83b88fbb96","ios":"levelo://app?vid=9514f132-b436-4584-8fc6-3e83b88fbb96"},"vehicle_type_id":"4","last_reported":1746054618,"current_range_meters":8400,"station_id":"ce4bhdp2rcd13ifvqf20","pricing_plan_id":"cebpf4jnsgd1na2vs0mg"},{"bike_id":"1b18721a-6f6f-4d3b-9b28-4a9d4775c599","system_id":"levelo_inurba_marseille","lat":43.27984,"lon":5.3874,"is_reserved":false,"is_disabled":false,"rental_uris":{"android":"levelo://app?vid=1b18721a-6f6f-4d3b-9b28-4a9d4775c599","ios":"levelo://app?vid=1b18721a-6f6f-4d3b-9b28-4a9d4775c599"},"vehicle_type_id":"4","last_reported":1746054618,"current_range_meters":8800,"station_id":"ce4bhg12rcd13ifvqf80","pricing_plan_id":"cebpf4jnsgd1na2vs0mg"},{"bike_id":"7d981a24-ab9c-4d5b-b5fc-9f4e27dadc31","system_id":"levelo_inurba_marseille","lat":43.31714,"lon":5.40456,"is_reserved":false,"is_disabled":false,"rental_uris":{"android":"levelo://app?vid=7d981a24-ab9c-4d5b-b5fc-9f4e27dadc31","ios":"levelo://app?vid=7d981a24-ab9c-4d5b-b5fc-9f4e27dadc31"},"vehicle_type_id":"4","last_reported":1746054618,"current_range_meters":8800,"station_id":"ce4bh012rcd13ifvqd00","pricing_plan_id":"cebpf4jnsgd1na2vs0mg"},{"bike_id":"e97d015f-9174-4fdd-84d0-a13f0543d396","system_id":"levelo_inurba_marseille","lat":43.28345,"lon":5.38104,"is_reserved":false,"is_disabled":false,"rental_uris":{"android":"levelo://app?vid=e97d015f-9174-4fdd-84d0-a13f0543d396","ios":"levelo://app?vid=e97d015f-9174-4fdd-84d0-a13f0543d396"},"vehicle_type_id":"4","last_reported":1746054618,"current_range_meters":8800,"station_id":"ce4bh412rcd13ifvqdr0","pricing_plan_id":"cebpf4jnsgd1na2vs0mg"},{"bike_id":"16b3be1b-f522-406d-bd69-62ab255e5198","system_id":"levelo_inurba_marseille","lat":43.32107,"lon":5.36769,"is_reserved":false,"is_disabled":false,"rental_uris":{"android":"levelo://app?vid=16b3be1b-f522-406d-bd69-62ab255e5198","ios":"levelo://app?vid=16b3be1b-f522-406d-bd69-62ab255e5198"},"vehicle_type_id":"4","last_reported":1746054618,"current_range_meters":8800,"station_id":"ce4bhrh2rcd13ifvqhug","pricing_plan_id":"cebpf4jnsgd1na2vs0mg"},{"bike_id":"b80407fc-5f28-4358-be2b-a9c7b0a334e1","system_id":"levelo_inurba_marseille","lat":43.251173,"lon":5.403183,"is_reserved":false,"is_disabled":false,"rental_uris":{"android":"levelo://app?vid=b80407fc-5f28-4358-be2b-a9c7b0a334e1","ios":"levelo://app?vid=b80407fc-5f28-4358-be2b-a9c7b0a334e1"},"vehicle_type_id":"4","last_reported":1746054618,"current_range_meters":8800,"station_id":"ce4bhlh2rcd13ifvqgig","pricing_plan_id":"cebpf4jnsgd1na2vs0mg"},{"bike_id":"06d2d3c8-9fc9-4d69-a070-0ce5daa9cb28","system_id":"levelo_inurba_marseille","lat":43.26946,"lon":5.40255,"is_reserved":false,"is_disabled":true,"rental_uris":{"android":"levelo://app?vid=06d2d3c8-9fc9-4d69-a070-0ce5daa9cb28","ios":"levelo://app?vid=06d2d3c8-9fc9-4d69-a070-0ce5daa9cb28"},"vehicle_type_id":"4","last_reported":1746054618,"current_range_meters":8800,"station_id":"cjm6bp8fraef2m0cb0m0","pricing_plan_id":"cebpf4jnsgd1na2vs0mg"},{"bike_id":"25693cd8-0285-4bfc-8e44-2bc60ff853ce","system_id":"levelo_inurba_marseille","lat":43.24687,"lon":5.40109,"is_reserved":false,"is_disabled":false,"rental_uris":{"android":"levelo://app?vid=25693cd8-0285-4bfc-8e44-2bc60ff853ce","ios":"levelo://app?vid=25693cd8-0285-4bfc-8e44-2bc60ff853ce"},"vehicle_type_id":"4","last_reported":1746054618,"current_range_meters":8800,"station_id":"","pricing_plan_id":"cebpf4jnsgd1na2vs0mg"},{"bike_id":"31a7e207-d694-4d28-9e0b-741a0c8f5cc8","system_id":"levelo_inurba_marseille","lat":43.29448,"lon":5.39746,"is_reserved":false,"is_disabled":false,"rental_uris":{"android":"levelo://app?vid=31a7e207-d694-4d28-9e0b-741a0c8f5cc8","ios":"levelo://app?vid=31a7e207-d694-4d28-9e0b-741a0c8f5cc8"},"vehicle_type_id":"4","last_reported":1746054618,"current_range_meters":8800,"station_id":"ce4bh3h2rcd13ifvqdo0","pricing_plan_id":"cebpf4jnsgd1na2vs0mg"},{"bike_id":"605a12db-4145-42a5-877a-b4a375a7cf38","system_id":"levelo_inurba_marseille","lat":43.316937,"lon":5.404534,"is_reserved":false,"is_disabled":false,"rental_uris":{"android":"levelo://app?vid=605a12db-4145-42a5-877a-b4a375a7cf38","ios":"levelo://app?vid=605a12db-4145-42a5-877a-b4a375a7cf38"},"vehicle_type_id":"4","last_reported":1746054618,"current_range_meters":8800,"station_id":"ce4bh012rcd13ifvqd00","pricing_plan_id":"cebpf4jnsgd1na2vs0mg"},{"bike_id":"678a7352-ff19-4e60-a122-b9191974b846","system_id":"levelo_inurba_marseille","lat":43.29257,"lon":5.40903,"is_reserved":false,"is_disabled":false,"rental_uris":{"android":"levelo://app?vid=678a7352-ff19-4e60-a122-b9191974b846","ios":"levelo://app?vid=678a7352-ff19-4e60-a122-b9191974b846"},"vehicle_type_id":"4","last_reported":1746054618,"current_range_meters":8800,"station_id":"ce4bh192rcd13ifvqdc0","pricing_plan_id":"cebpf4jnsgd1na2vs0mg"},{"bike_id":"c46a383e-fe2a-4bdf-abdd-1d3dfbbf9ff7","system_id":"levelo_inurba_marseille","lat":43.28673,"lon":5.36346,"is_reserved":false,"is_disabled":false,"rental_uris":{"android":"levelo://app?vid=c46a383e-fe2a-4bdf-abdd-1d3dfbbf9ff7","ios":"levelo://app?vid=c46a383e-fe2a-4bdf-abdd-1d3dfbbf9ff7"},"vehicle_type_id":"4","last_reported":1746054618,"current_range_meters":8800,"station_id":"ce4bhah2rcd13ifvqej0","pricing_plan_id":"cebpf4jnsgd1na2vs0mg"},{"bike_id":"ec4066d2-10e8-47a7-9fae-05d45bed3d89","system_id":"levelo_inurba_marseille","lat":43.29626,"lon":5.40585,"is_reserved":false,"is_disabled":false,"rental_uris":{"android":"levelo://app?vid=ec4066d2-10e8-47a7-9fae-05d45bed3d89","ios":"levelo://app?vid=ec4066d2-10e8-47a7-9fae-05d45bed3d89"},"vehicle_type_id":"4","last_reported":1746054618,"current_range_meters":9200,"station_id":"ce4bh0h2rcd13ifvqd60","pricing_plan_id":"cebpf4jnsgd1na2vs0mg"},{"bike_id":"2e9a0f22-21e4-41fc-aa62-512d9e695c76","system_id":"levelo_inurba_marseille","lat":43.25111,"lon":5.40299,"is_reserved":false,"is_disabled":false,"rental_uris":{"android":"levelo://app?vid=2e9a0f22-21e4-41fc-aa62-512d9e695c76","ios":"levelo://app?vid=2e9a0f22-21e4-41fc-aa62-512d9e695c76"},"vehicle_type_id":"4","last_reported":1746054618,"current_range_meters":9200,"station_id":"ce4bhlh2rcd13ifvqgig","pricing_plan_id":"cebpf4jnsgd1na2vs0mg"},{"bike_id":"7bca0793-1176-4b81-940e-92a4b7af9ae5","system_id":"levelo_inurba_marseille","lat":43.28081,"lon":5.39664,"is_reserved":false,"is_disabled":false,"rental_uris":{"android":"levelo://app?vid=7bca0793-1176-4b81-940e-92a4b7af9ae5","ios":"levelo://app?vid=7bca0793-1176-4b81-940e-92a4b7af9ae5"},"vehicle_type_id":"4","last_reported":1746054618,"current_range_meters":9200,"station_id":"ce4bho12rcd13ifvqh2g","pricing_plan_id":"cebpf4jnsgd1na2vs0mg"},{"bike_id":"4ff0db05-be29-471d-80d9-4fc345b5a0ff","system_id":"levelo_inurba_marseille","lat":43.306386,"lon":5.40085,"is_reserved":false,"is_disabled":false,"rental_uris":{"android":"levelo://app?vid=4ff0db05-be29-471d-80d9-4fc345b5a0ff","ios":"levelo://app?vid=4ff0db05-be29-471d-80d9-4fc345b5a0ff"},"vehicle_type_id":"4","last_reported":1746054618,"current_range_meters":9600,"station_id":"ce4bh112rcd13ifvqda0","pricing_plan_id":"cebpf4jnsgd1na2vs0mg"},{"bike_id":"03a1fc05-430d-49e4-8187-955ac610df4d","system_id":"levelo_inurba_marseille","lat":43.29628,"lon":5.40597,"is_reserved":false,"is_disabled":false,"rental_uris":{"android":"levelo://app?vid=03a1fc05-430d-49e4-8187-955ac610df4d","ios":"levelo://app?vid=03a1fc05-430d-49e4-8187-955ac610df4d"},"vehicle_type_id":"4","last_reported":1746054618,"current_range_meters":9200,"station_id":"ce4bh0h2rcd13ifvqd60","pricing_plan_id":"cebpf4jnsgd1na2vs0mg"},{"bike_id":"94c67595-7de3-4443-ab76-ab1b2a1e805b","system_id":"levelo_inurba_marseille","lat":43.284178,"lon":5.375143,"is_reserved":false,"is_disabled":false,"rental_uris":{"android":"levelo://app?vid=94c67595-7de3-4443-ab76-ab1b2a1e805b","ios":"levelo://app?vid=94c67595-7de3-4443-ab76-ab1b2a1e805b"},"vehicle_type_id":"4","last_reported":1746054618,"current_range_meters":9600,"station_id":"ce4bh412rcd13ifvqds0","pricing_plan_id":"cebpf4jnsgd1na2vs0mg"},{"bike_id":"07541a4c-711f-473d-acfe-1eb9b677008b","system_id":"levelo_inurba_marseille","lat":43.32486,"lon":5.3657,"is_reserved":false,"is_disabled":true,"rental_uris":{"android":"levelo://app?vid=07541a4c-711f-473d-acfe-1eb9b677008b","ios":"levelo://app?vid=07541a4c-711f-473d-acfe-1eb9b677008b"},"vehicle_type_id":"4","last_reported":1746054618,"current_range_meters":9600,"station_id":"ce4bhs12rcd13ifvqhvg","pricing_plan_id":"cebpf4jnsgd1na2vs0mg"},{"bike_id":"df93e2e5-6077-4d47-ac12-eb3362d865a5","system_id":"levelo_inurba_marseille","lat":43.28412,"lon":5.37505,"is_reserved":false,"is_disabled":false,"rental_uris":{"android":"levelo://app?vid=df93e2e5-6077-4d47-ac12-eb3362d865a5","ios":"levelo://app?vid=df93e2e5-6077-4d47-ac12-eb3362d865a5"},"vehicle_type_id":"4","last_reported":1746054618,"current_range_meters":9600,"station_id":"ce4bh412rcd13ifvqds0","pricing_plan_id":"cebpf4jnsgd1na2vs0mg"},{"bike_id":"b35319f1-b87e-4db8-ab3a-f11a22b07a4b","system_id":"levelo_inurba_marseille","lat":43.24681,"lon":5.38151,"is_reserved":false,"is_disabled":true,"rental_uris":{"android":"levelo://app?vid=b35319f1-b87e-4db8-ab3a-f11a22b07a4b","ios":"levelo://app?vid=b35319f1-b87e-4db8-ab3a-f11a22b07a4b"},"vehicle_type_id":"4","last_reported":1746054618,"current_range_meters":9600,"station_id":"ce4bhih2rcd13ifvqfr0","pricing_plan_id":"cebpf4jnsgd1na2vs0mg"},{"bike_id":"c2822950-d0b4-4023-8870-6743aa9d2122","system_id":"levelo_inurba_marseille","lat":43.26778,"lon":5.39414,"is_reserved":false,"is_disabled":false,"rental_uris":{"android":"levelo://app?vid=c2822950-d0b4-4023-8870-6743aa9d2122","ios":"levelo://app?vid=c2822950-d0b4-4023-8870-6743aa9d2122"},"vehicle_type_id":"4","last_reported":1746054618,"current_range_meters":9600,"station_id":"ce4bhh12rcd13ifvqfg0","pricing_plan_id":"cebpf4jnsgd1na2vs0mg"},{"bike_id":"7f770ba9-2e48-47c9-8bb4-942855273bad","system_id":"levelo_inurba_marseille","lat":43.25345,"lon":5.42401,"is_reserved":false,"is_disabled":false,"rental_uris":{"android":"levelo://app?vid=7f770ba9-2e48-47c9-8bb4-942855273bad","ios":"levelo://app?vid=7f770ba9-2e48-47c9-8bb4-942855273bad"},"vehicle_type_id":"4","last_reported":1746054618,"current_range_meters":9600,"station_id":"","pricing_plan_id":"cebpf4jnsgd1na2vs0mg"},{"bike_id":"2544e246-f638-4608-a294-1186fcaa72b1","system_id":"levelo_inurba_marseille","lat":43.289586,"lon":5.397603,"is_reserved":false,"is_disabled":false,"rental_uris":{"android":"levelo://app?vid=2544e246-f638-4608-a294-1186fcaa72b1","ios":"levelo://app?vid=2544e246-f638-4608-a294-1186fcaa72b1"},"vehicle_type_id":"4","last_reported":1746054618,"current_range_meters":9600,"station_id":"ce4bho92rcd13ifvqh3g","pricing_plan_id":"cebpf4jnsgd1na2vs0mg"},{"bike_id":"56f27f6b-2e3e-46f2-b555-40d71230b8fc","system_id":"levelo_inurba_marseille","lat":43.29195,"lon":5.3932,"is_reserved":false,"is_disabled":false,"rental_uris":{"android":"levelo://app?vid=56f27f6b-2e3e-46f2-b555-40d71230b8fc","ios":"levelo://app?vid=56f27f6b-2e3e-46f2-b555-40d71230b8fc"},"vehicle_type_id":"4","last_reported":1746054618,"current_range_meters":9600,"station_id":"ce4bh192rcd13ifvqdd0","pricing_plan_id":"cebpf4jnsgd1na2vs0mg"},{"bike_id":"303d897b-9142-4bca-9812-1950e13a7b17","system_id":"levelo_inurba_marseille","lat":43.30892,"lon":5.39655,"is_reserved":false,"is_disabled":false,"rental_uris":{"android":"levelo://app?vid=303d897b-9142-4bca-9812-1950e13a7b17","ios":"levelo://app?vid=303d897b-9142-4bca-9812-1950e13a7b17"},"vehicle_type_id":"4","last_reported":1746054618,"current_range_meters":9600,"station_id":"ce4bh012rcd13ifvqcv0","pricing_plan_id":"cebpf4jnsgd1na2vs0mg"},{"bike_id":"d86248d6-ea66-44ba-892b-84733bbdfa49","system_id":"levelo_inurba_marseille","lat":43.28157,"lon":5.42643,"is_reserved":false,"is_disabled":false,"rental_uris":{"android":"levelo://app?vid=d86248d6-ea66-44ba-892b-84733bbdfa49","ios":"levelo://app?vid=d86248d6-ea66-44ba-892b-84733bbdfa49"},"vehicle_type_id":"4","last_reported":1746054618,"current_range_meters":9200,"station_id":"ce4bhnh2rcd13ifvqgug","pricing_plan_id":"cebpf4jnsgd1na2vs0mg"},{"bike_id":"59a7cd42-003f-44d6-859c-edbaf413e179","system_id":"levelo_inurba_marseille","lat":43.2885,"lon":5.39311,"is_reserved":false,"is_disabled":false,"rental_uris":{"android":"levelo://app?vid=59a7cd42-003f-44d6-859c-edbaf413e179","ios":"levelo://app?vid=59a7cd42-003f-44d6-859c-edbaf413e179"},"vehicle_type_id":"4","last_reported":1746054618,"current_range_meters":10000,"station_id":"ce4bh2p2rcd13ifvqdi0","pricing_plan_id":"cebpf4jnsgd1na2vs0mg"},{"bike_id":"db0908a4-93f5-433c-89b3-74830571e54c","system_id":"levelo_inurba_marseille","lat":43.28936,"lon":5.36639,"is_reserved":false,"is_disabled":false,"rental_uris":{"android":"levelo://app?vid=db0908a4-93f5-433c-89b3-74830571e54c","ios":"levelo://app?vid=db0908a4-93f5-433c-89b3-74830571e54c"},"vehicle_type_id":"4","last_reported":1746054618,"current_range_meters":9600,"station_id":"ce4bhap2rcd13ifvqek0","pricing_plan_id":"cebpf4jnsgd1na2vs0mg"},{"bike_id":"f3288ce6-c25f-42a6-8fd2-a51487b479f2","system_id":"levelo_inurba_marseille","lat":43.29436,"lon":5.39752,"is_reserved":false,"is_disabled":false,"rental_uris":{"android":"levelo://app?vid=f3288ce6-c25f-42a6-8fd2-a51487b479f2","ios":"levelo://app?vid=f3288ce6-c25f-42a6-8fd2-a51487b479f2"},"vehicle_type_id":"4","last_reported":1746054618,"current_range_meters":10000,"station_id":"ce4bh3h2rcd13ifvqdo0","pricing_plan_id":"cebpf4jnsgd1na2vs0mg"},{"bike_id":"f9f7e2fe-4a94-4233-8531-fb973b01f0d3","system_id":"levelo_inurba_marseille","lat":43.27801,"lon":5.40721,"is_reserved":false,"is_disabled":false,"rental_uris":{"android":"levelo://app?vid=f9f7e2fe-4a94-4233-8531-fb973b01f0d3","ios":"levelo://app?vid=f9f7e2fe-4a94-4233-8531-fb973b01f0d3"},"vehicle_type_id":"4","last_reported":1746054618,"current_range_meters":10000,"station_id":"ce4bhnh2rcd13ifvqgtg","pricing_plan_id":"cebpf4jnsgd1na2vs0mg"},{"bike_id":"b81bdc80-7137-4a07-8c63-52664b4472d6","system_id":"levelo_inurba_marseille","lat":43.27981,"lon":5.38707,"is_reserved":false,"is_disabled":false,"rental_uris":{"android":"levelo://app?vid=b81bdc80-7137-4a07-8c63-52664b4472d6","ios":"levelo://app?vid=b81bdc80-7137-4a07-8c63-52664b4472d6"},"vehicle_type_id":"4","last_reported":1746054618,"current_range_meters":10000,"station_id":"ce4bhg12rcd13ifvqf80","pricing_plan_id":"cebpf4jnsgd1na2vs0mg"},{"bike_id":"e5e92a64-e709-4b1a-a9b1-cbffe85789ca","system_id":"levelo_inurba_marseille","lat":43.255438,"lon":5.38139,"is_reserved":false,"is_disabled":false,"rental_uris":{"android":"levelo://app?vid=e5e92a64-e709-4b1a-a9b1-cbffe85789ca","ios":"levelo://app?vid=e5e92a64-e709-4b1a-a9b1-cbffe85789ca"},"vehicle_type_id":"4","last_reported":1746054618,"current_range_meters":10000,"station_id":"","pricing_plan_id":"cebpf4jnsgd1na2vs0mg"},{"bike_id":"9f7dcf3b-5de8-4203-b8f3-1867275b9acd","system_id":"levelo_inurba_marseille","lat":43.316881,"lon":5.404651,"is_reserved":false,"is_disabled":false,"rental_uris":{"android":"levelo://app?vid=9f7dcf3b-5de8-4203-b8f3-1867275b9acd","ios":"levelo://app?vid=9f7dcf3b-5de8-4203-b8f3-1867275b9acd"},"vehicle_type_id":"4","last_reported":1746054618,"current_range_meters":10000,"station_id":"ce4bh012rcd13ifvqd00","pricing_plan_id":"cebpf4jnsgd1na2vs0mg"},{"bike_id":"8261973d-7fd9-4c15-8fb8-294a251b0456","system_id":"levelo_inurba_marseille","lat":43.29216,"lon":5.38598,"is_reserved":false,"is_disabled":false,"rental_uris":{"android":"levelo://app?vid=8261973d-7fd9-4c15-8fb8-294a251b0456","ios":"levelo://app?vid=8261973d-7fd9-4c15-8fb8-294a251b0456"},"vehicle_type_id":"4","last_reported":1746054618,"current_range_meters":10000,"station_id":"","pricing_plan_id":"cebpf4jnsgd1na2vs0mg"},{"bike_id":"a0750b35-c3fd-4e73-baf3-d09a038c1fd0","system_id":"levelo_inurba_marseille","lat":43.24668,"lon":5.38161,"is_reserved":false,"is_disabled":false,"rental_uris":{"android":"levelo://app?vid=a0750b35-c3fd-4e73-baf3-d09a038c1fd0","ios":"levelo://app?vid=a0750b35-c3fd-4e73-baf3-d09a038c1fd0"},"vehicle_type_id":"4","last_reported":1746054618,"current_range_meters":10800,"station_id":"ce4bhih2rcd13ifvqfr0","pricing_plan_id":"cebpf4jnsgd1na2vs0mg"},{"bike_id":"2e4ca70c-0ed4-41a3-8684-8a963fb8ccea","system_id":"levelo_inurba_marseille","lat":43.3211,"lon":5.36766,"is_reserved":false,"is_disabled":false,"rental_uris":{"android":"levelo://app?vid=2e4ca70c-0ed4-41a3-8684-8a963fb8ccea","ios":"levelo://app?vid=2e4ca70c-0ed4-41a3-8684-8a963fb8ccea"},"vehicle_type_id":"4","last_reported":1746054618,"current_range_meters":10800,"station_id":"ce4bhrh2rcd13ifvqhug","pricing_plan_id":"cebpf4jnsgd1na2vs0mg"},{"bike_id":"bca525c4-cb7b-4a21-b3d8-f9e046dd4238","system_id":"levelo_inurba_marseille","lat":43.32049,"lon":5.4154,"is_reserved":false,"is_disabled":false,"rental_uris":{"android":"levelo://app?vid=bca525c4-cb7b-4a21-b3d8-f9e046dd4238","ios":"levelo://app?vid=bca525c4-cb7b-4a21-b3d8-f9e046dd4238"},"vehicle_type_id":"4","last_reported":1746054618,"current_range_meters":10800,"station_id":"ce4bhq92rcd13ifvqhkg","pricing_plan_id":"cebpf4jnsgd1na2vs0mg"},{"bike_id":"e6843412-7221-463b-9ed7-bd167d9edffb","system_id":"levelo_inurba_marseille","lat":43.28014,"lon":5.41661,"is_reserved":false,"is_disabled":false,"rental_uris":{"android":"levelo://app?vid=e6843412-7221-463b-9ed7-bd167d9edffb","ios":"levelo://app?vid=e6843412-7221-463b-9ed7-bd167d9edffb"},"vehicle_type_id":"4","last_reported":1746054618,"current_range_meters":10000,"station_id":"ce4bho12rcd13ifvqh1g","pricing_plan_id":"cebpf4jnsgd1na2vs0mg"},{"bike_id":"7924b638-6bb2-4d04-8752-d92a7a4ba43a","system_id":"levelo_inurba_marseille","lat":43.241808,"lon":5.39731,"is_reserved":false,"is_disabled":false,"rental_uris":{"android":"levelo://app?vid=7924b638-6bb2-4d04-8752-d92a7a4ba43a","ios":"levelo://app?vid=7924b638-6bb2-4d04-8752-d92a7a4ba43a"},"vehicle_type_id":"4","last_reported":1746054618,"current_range_meters":10800,"station_id":"ce4bhn12rcd13ifvqgpg","pricing_plan_id":"cebpf4jnsgd1na2vs0mg"},{"bike_id":"bf3fc117-790e-46e2-82ad-3400966af7eb","system_id":"levelo_inurba_marseille","lat":43.2781,"lon":5.40706,"is_reserved":false,"is_disabled":false,"rental_uris":{"android":"levelo://app?vid=bf3fc117-790e-46e2-82ad-3400966af7eb","ios":"levelo://app?vid=bf3fc117-790e-46e2-82ad-3400966af7eb"},"vehicle_type_id":"4","last_reported":1746054618,"current_range_meters":10800,"station_id":"ce4bhnh2rcd13ifvqgtg","pricing_plan_id":"cebpf4jnsgd1na2vs0mg"},{"bike_id":"f94938d7-8eb3-450c-8155-115e8333e964","system_id":"levelo_inurba_marseille","lat":43.26058,"lon":5.39398,"is_reserved":false,"is_disabled":false,"rental_uris":{"android":"levelo://app?vid=f94938d7-8eb3-450c-8155-115e8333e964","ios":"levelo://app?vid=f94938d7-8eb3-450c-8155-115e8333e964"},"vehicle_type_id":"4","last_reported":1746054618,"current_range_meters":10800,"station_id":"ce4bhh92rcd13ifvqfj0","pricing_plan_id":"cebpf4jnsgd1na2vs0mg"},{"bike_id":"c1cbc237-cfab-474a-aa26-81a87506105a","system_id":"levelo_inurba_marseille","lat":43.2175,"lon":5.34594,"is_reserved":false,"is_disabled":false,"rental_uris":{"android":"levelo://app?vid=c1cbc237-cfab-474a-aa26-81a87506105a","ios":"levelo://app?vid=c1cbc237-cfab-474a-aa26-81a87506105a"},"vehicle_type_id":"4","last_reported":1746054618,"current_range_meters":11200,"station_id":"st_cvj6r9ubvosntc0bgbag","pricing_plan_id":"cebpf4jnsgd1na2vs0mg"},{"bike_id":"f77b66dc-df98-4767-bb4a-b3fb2fb7880b","system_id":"levelo_inurba_marseille","lat":43.29871,"lon":5.39721,"is_reserved":false,"is_disabled":false,"rental_uris":{"android":"levelo://app?vid=f77b66dc-df98-4767-bb4a-b3fb2fb7880b","ios":"levelo://app?vid=f77b66dc-df98-4767-bb4a-b3fb2fb7880b"},"vehicle_type_id":"4","last_reported":1746054618,"current_range_meters":10800,"station_id":"ce4bh0h2rcd13ifvqd50","pricing_plan_id":"cebpf4jnsgd1na2vs0mg"},{"bike_id":"32a15618-6a0f-4e5e-b840-d882b4d5fd48","system_id":"levelo_inurba_marseille","lat":43.30259,"lon":5.40085,"is_reserved":false,"is_disabled":false,"rental_uris":{"android":"levelo://app?vid=32a15618-6a0f-4e5e-b840-d882b4d5fd48","ios":"levelo://app?vid=32a15618-6a0f-4e5e-b840-d882b4d5fd48"},"vehicle_type_id":"4","last_reported":1746054618,"current_range_meters":10800,"station_id":"ce4bgvh2rcd13ifvqcs0","pricing_plan_id":"cebpf4jnsgd1na2vs0mg"},{"bike_id":"6a106a1c-6e54-481e-8d92-53ef639dc064","system_id":"levelo_inurba_marseille","lat":43.2998,"lon":5.37173,"is_reserved":false,"is_disabled":false,"rental_uris":{"android":"levelo://app?vid=6a106a1c-6e54-481e-8d92-53ef639dc064","ios":"levelo://app?vid=6a106a1c-6e54-481e-8d92-53ef639dc064"},"vehicle_type_id":"4","last_reported":1746054618,"current_range_meters":10800,"station_id":"ce4bgr92rcd13ifvqc7g","pricing_plan_id":"cebpf4jnsgd1na2vs0mg"},{"bike_id":"fca9dc8b-9c20-4eab-83ff-17d0ce9a6922","system_id":"levelo_inurba_marseille","lat":43.260364,"lon":5.417347,"is_reserved":false,"is_disabled":false,"rental_uris":{"android":"levelo://app?vid=fca9dc8b-9c20-4eab-83ff-17d0ce9a6922","ios":"levelo://app?vid=fca9dc8b-9c20-4eab-83ff-17d0ce9a6922"},"vehicle_type_id":"4","last_reported":1746054618,"current_range_meters":11200,"station_id":"","pricing_plan_id":"cebpf4jnsgd1na2vs0mg"},{"bike_id":"032564e3-7c6f-4dae-8fee-5f63b3bd85c6","system_id":"levelo_inurba_marseille","lat":43.26979,"lon":5.40311,"is_reserved":false,"is_disabled":false,"rental_uris":{"android":"levelo://app?vid=032564e3-7c6f-4dae-8fee-5f63b3bd85c6","ios":"levelo://app?vid=032564e3-7c6f-4dae-8fee-5f63b3bd85c6"},"vehicle_type_id":"4","last_reported":1746054618,"current_range_meters":11200,"station_id":"","pricing_plan_id":"cebpf4jnsgd1na2vs0mg"},{"bike_id":"f31bf073-e687-4787-90ee-691c464f7f3e","system_id":"levelo_inurba_marseille","lat":43.2573,"lon":5.41103,"is_reserved":false,"is_disabled":false,"rental_uris":{"android":"levelo://app?vid=f31bf073-e687-4787-90ee-691c464f7f3e","ios":"levelo://app?vid=f31bf073-e687-4787-90ee-691c464f7f3e"},"vehicle_type_id":"4","last_reported":1746054618,"current_range_meters":11200,"station_id":"ce4bhkp2rcd13ifvqgd0","pricing_plan_id":"cebpf4jnsgd1na2vs0mg"},{"bike_id":"5243500a-7d21-41ad-be8d-fa13fc91eadd","system_id":"levelo_inurba_marseille","lat":43.28347,"lon":5.3811,"is_reserved":false,"is_disabled":false,"rental_uris":{"android":"levelo://app?vid=5243500a-7d21-41ad-be8d-fa13fc91eadd","ios":"levelo://app?vid=5243500a-7d21-41ad-be8d-fa13fc91eadd"},"vehicle_type_id":"4","last_reported":1746054618,"current_range_meters":11200,"station_id":"ce4bh412rcd13ifvqdr0","pricing_plan_id":"cebpf4jnsgd1na2vs0mg"},{"bike_id":"34cbcf02-e318-45df-826e-e947871585f5","system_id":"levelo_inurba_marseille","lat":43.28707,"lon":5.39985,"is_reserved":false,"is_disabled":false,"rental_uris":{"android":"levelo://app?vid=34cbcf02-e318-45df-826e-e947871585f5","ios":"levelo://app?vid=34cbcf02-e318-45df-826e-e947871585f5"},"vehicle_type_id":"4","last_reported":1746054618,"current_range_meters":10000,"station_id":"ce4bho92rcd13ifvqh3g","pricing_plan_id":"cebpf4jnsgd1na2vs0mg"},{"bike_id":"c5552acd-50fa-4b0d-95c7-8f6dc5626569","system_id":"levelo_inurba_marseille","lat":43.28084,"lon":5.39641,"is_reserved":false,"is_disabled":false,"rental_uris":{"android":"levelo://app?vid=c5552acd-50fa-4b0d-95c7-8f6dc5626569","ios":"levelo://app?vid=c5552acd-50fa-4b0d-95c7-8f6dc5626569"},"vehicle_type_id":"4","last_reported":1746054618,"current_range_meters":11200,"station_id":"ce4bho12rcd13ifvqh2g","pricing_plan_id":"cebpf4jnsgd1na2vs0mg"},{"bike_id":"5f73c99b-bade-4860-a122-b1c1d280cf82","system_id":"levelo_inurba_marseille","lat":43.2587,"lon":5.39895,"is_reserved":false,"is_disabled":false,"rental_uris":{"android":"levelo://app?vid=5f73c99b-bade-4860-a122-b1c1d280cf82","ios":"levelo://app?vid=5f73c99b-bade-4860-a122-b1c1d280cf82"},"vehicle_type_id":"4","last_reported":1746054618,"current_range_meters":11200,"station_id":"ce4bhl92rcd13ifvqghg","pricing_plan_id":"cebpf4jnsgd1na2vs0mg"},{"bike_id":"6385b97d-fd27-4d3e-b676-aa06faab38a4","system_id":"levelo_inurba_marseille","lat":43.274324,"lon":5.394194,"is_reserved":false,"is_disabled":false,"rental_uris":{"android":"levelo://app?vid=6385b97d-fd27-4d3e-b676-aa06faab38a4","ios":"levelo://app?vid=6385b97d-fd27-4d3e-b676-aa06faab38a4"},"vehicle_type_id":"4","last_reported":1746054618,"current_range_meters":11200,"station_id":"ce4bhdp2rcd13ifvqf20","pricing_plan_id":"cebpf4jnsgd1na2vs0mg"},{"bike_id":"22e1e4a0-462b-4458-a280-92f7c22f61a6","system_id":"levelo_inurba_marseille","lat":43.27573,"lon":5.38416,"is_reserved":false,"is_disabled":false,"rental_uris":{"android":"levelo://app?vid=22e1e4a0-462b-4458-a280-92f7c22f61a6","ios":"levelo://app?vid=22e1e4a0-462b-4458-a280-92f7c22f61a6"},"vehicle_type_id":"4","last_reported":1746054618,"current_range_meters":11200,"station_id":"ce4bhh92rcd13ifvqfi0","pricing_plan_id":"cebpf4jnsgd1na2vs0mg"},{"bike_id":"3ce5a6a0-7c75-4b93-962c-2dd6ababc3c9","system_id":"levelo_inurba_marseille","lat":43.22507,"lon":5.34778,"is_reserved":false,"is_disabled":false,"rental_uris":{"android":"levelo://app?vid=3ce5a6a0-7c75-4b93-962c-2dd6ababc3c9","ios":"levelo://app?vid=3ce5a6a0-7c75-4b93-962c-2dd6ababc3c9"},"vehicle_type_id":"4","last_reported":1746054618,"current_range_meters":11200,"station_id":"st_cvj5dfep6f1abm77gieg","pricing_plan_id":"cebpf4jnsgd1na2vs0mg"},{"bike_id":"2790c2bd-f290-448f-a19e-7cbd2ff02d1b","system_id":"levelo_inurba_marseille","lat":43.337247,"lon":5.391903,"is_reserved":false,"is_disabled":false,"rental_uris":{"android":"levelo://app?vid=2790c2bd-f290-448f-a19e-7cbd2ff02d1b","ios":"levelo://app?vid=2790c2bd-f290-448f-a19e-7cbd2ff02d1b"},"vehicle_type_id":"4","last_reported":1746054618,"current_range_meters":11600,"station_id":"ce4bhr92rcd13ifvqhsg","pricing_plan_id":"cebpf4jnsgd1na2vs0mg"},{"bike_id":"8ab8f219-1642-4a0d-af2a-eaa8ea6c816f","system_id":"levelo_inurba_marseille","lat":43.31761,"lon":5.39009,"is_reserved":false,"is_disabled":false,"rental_uris":{"android":"levelo://app?vid=8ab8f219-1642-4a0d-af2a-eaa8ea6c816f","ios":"levelo://app?vid=8ab8f219-1642-4a0d-af2a-eaa8ea6c816f"},"vehicle_type_id":"4","last_reported":1746054618,"current_range_meters":11600,"station_id":"ce4bhqp2rcd13ifvqhng","pricing_plan_id":"cebpf4jnsgd1na2vs0mg"},{"bike_id":"77942475-b9df-43a6-af61-b22087b935d2","system_id":"levelo_inurba_marseille","lat":43.292504,"lon":5.384337,"is_reserved":false,"is_disabled":true,"rental_uris":{"android":"levelo://app?vid=77942475-b9df-43a6-af61-b22087b935d2","ios":"levelo://app?vid=77942475-b9df-43a6-af61-b22087b935d2"},"vehicle_type_id":"4","last_reported":1746054618,"current_range_meters":11600,"station_id":"ce4bh692rcd13ifvqea0","pricing_plan_id":"cebpf4jnsgd1na2vs0mg"},{"bike_id":"466f1ff9-2ada-45b9-92d5-f0fb3b885b4d","system_id":"levelo_inurba_marseille","lat":43.28108,"lon":5.3783,"is_reserved":false,"is_disabled":false,"rental_uris":{"android":"levelo://app?vid=466f1ff9-2ada-45b9-92d5-f0fb3b885b4d","ios":"levelo://app?vid=466f1ff9-2ada-45b9-92d5-f0fb3b885b4d"},"vehicle_type_id":"4","last_reported":1746054618,"current_range_meters":11200,"station_id":"ce4bha12rcd13ifvqee0","pricing_plan_id":"cebpf4jnsgd1na2vs0mg"},{"bike_id":"379b8933-bc6e-4164-9d36-daaf2941e50f","system_id":"levelo_inurba_marseille","lat":43.30817,"lon":5.37475,"is_reserved":false,"is_disabled":false,"rental_uris":{"android":"levelo://app?vid=379b8933-bc6e-4164-9d36-daaf2941e50f","ios":"levelo://app?vid=379b8933-bc6e-4164-9d36-daaf2941e50f"},"vehicle_type_id":"4","last_reported":1746054618,"current_range_meters":11600,"station_id":"","pricing_plan_id":"cebpf4jnsgd1na2vs0mg"},{"bike_id":"45fe344c-0af3-4c49-b29e-53206f0eb805","system_id":"levelo_inurba_marseille","lat":43.30785,"lon":5.3765,"is_reserved":false,"is_disabled":false,"rental_uris":{"android":"levelo://app?vid=45fe344c-0af3-4c49-b29e-53206f0eb805","ios":"levelo://app?vid=45fe344c-0af3-4c49-b29e-53206f0eb805"},"vehicle_type_id":"4","last_reported":1746054618,"current_range_meters":11200,"station_id":"ce4bgv92rcd13ifvqcq0","pricing_plan_id":"cebpf4jnsgd1na2vs0mg"},{"bike_id":"5a2a0acc-2638-483b-bd73-f0bad1b88542","system_id":"levelo_inurba_marseille","lat":43.27969,"lon":5.38725,"is_reserved":false,"is_disabled":false,"rental_uris":{"android":"levelo://app?vid=5a2a0acc-2638-483b-bd73-f0bad1b88542","ios":"levelo://app?vid=5a2a0acc-2638-483b-bd73-f0bad1b88542"},"vehicle_type_id":"4","last_reported":1746054618,"current_range_meters":11600,"station_id":"ce4bhg12rcd13ifvqf80","pricing_plan_id":"cebpf4jnsgd1na2vs0mg"},{"bike_id":"d08fe425-042c-4938-b862-c3dc2ac034aa","system_id":"levelo_inurba_marseille","lat":43.32367,"lon":5.38884,"is_reserved":false,"is_disabled":false,"rental_uris":{"android":"levelo://app?vid=d08fe425-042c-4938-b862-c3dc2ac034aa","ios":"levelo://app?vid=d08fe425-042c-4938-b862-c3dc2ac034aa"},"vehicle_type_id":"4","last_reported":1746054618,"current_range_meters":11600,"station_id":"ce4bhqp2rcd13ifvqhog","pricing_plan_id":"cebpf4jnsgd1na2vs0mg"},{"bike_id":"607c2c4a-518c-4a6b-998b-f67c9a85ee64","system_id":"levelo_inurba_marseille","lat":43.287076,"lon":5.373927,"is_reserved":false,"is_disabled":false,"rental_uris":{"android":"levelo://app?vid=607c2c4a-518c-4a6b-998b-f67c9a85ee64","ios":"levelo://app?vid=607c2c4a-518c-4a6b-998b-f67c9a85ee64"},"vehicle_type_id":"4","last_reported":1746054618,"current_range_meters":11600,"station_id":"ce4bh3p2rcd13ifvqdq0","pricing_plan_id":"cebpf4jnsgd1na2vs0mg"},{"bike_id":"6a8a1fbc-036f-4d52-83f6-304f0d1e5e7e","system_id":"levelo_inurba_marseille","lat":43.28691,"lon":5.37393,"is_reserved":false,"is_disabled":false,"rental_uris":{"android":"levelo://app?vid=6a8a1fbc-036f-4d52-83f6-304f0d1e5e7e","ios":"levelo://app?vid=6a8a1fbc-036f-4d52-83f6-304f0d1e5e7e"},"vehicle_type_id":"4","last_reported":1746054618,"current_range_meters":11600,"station_id":"ce4bh3p2rcd13ifvqdq0","pricing_plan_id":"cebpf4jnsgd1na2vs0mg"},{"bike_id":"0a854328-ea99-4f4a-bec4-cdd8a5855319","system_id":"levelo_inurba_marseille","lat":43.30812,"lon":5.4352,"is_reserved":false,"is_disabled":false,"rental_uris":{"android":"levelo://app?vid=0a854328-ea99-4f4a-bec4-cdd8a5855319","ios":"levelo://app?vid=0a854328-ea99-4f4a-bec4-cdd8a5855319"},"vehicle_type_id":"4","last_reported":1746054618,"current_range_meters":11600,"station_id":"ce4bhph2rcd13ifvqheg","pricing_plan_id":"cebpf4jnsgd1na2vs0mg"},{"bike_id":"b8feccfa-4923-4995-84ae-609fa42fd20c","system_id":"levelo_inurba_marseille","lat":43.28007,"lon":5.39996,"is_reserved":false,"is_disabled":false,"rental_uris":{"android":"levelo://app?vid=b8feccfa-4923-4995-84ae-609fa42fd20c","ios":"levelo://app?vid=b8feccfa-4923-4995-84ae-609fa42fd20c"},"vehicle_type_id":"4","last_reported":1746054618,"current_range_meters":12000,"station_id":"ce4bho92rcd13ifvqh4g","pricing_plan_id":"cebpf4jnsgd1na2vs0mg"},{"bike_id":"0a442aba-ae12-4441-a882-2bb82f540c36","system_id":"levelo_inurba_marseille","lat":43.27425,"lon":5.394123,"is_reserved":false,"is_disabled":false,"rental_uris":{"android":"levelo://app?vid=0a442aba-ae12-4441-a882-2bb82f540c36","ios":"levelo://app?vid=0a442aba-ae12-4441-a882-2bb82f540c36"},"vehicle_type_id":"4","last_reported":1746054618,"current_range_meters":11600,"station_id":"ce4bhdp2rcd13ifvqf20","pricing_plan_id":"cebpf4jnsgd1na2vs0mg"},{"bike_id":"fa0013e1-384c-4a43-9dc8-c63fff3d2b7e","system_id":"levelo_inurba_marseille","lat":43.231847,"lon":5.3998,"is_reserved":false,"is_disabled":false,"rental_uris":{"android":"levelo://app?vid=fa0013e1-384c-4a43-9dc8-c63fff3d2b7e","ios":"levelo://app?vid=fa0013e1-384c-4a43-9dc8-c63fff3d2b7e"},"vehicle_type_id":"4","last_reported":1746054618,"current_range_meters":12000,"station_id":"ce4bhn12rcd13ifvqgqg","pricing_plan_id":"cebpf4jnsgd1na2vs0mg"},{"bike_id":"562276dc-22b8-4d74-876e-58926664ab2e","system_id":"levelo_inurba_marseille","lat":43.29017,"lon":5.35626,"is_reserved":false,"is_disabled":true,"rental_uris":{"android":"levelo://app?vid=562276dc-22b8-4d74-876e-58926664ab2e","ios":"levelo://app?vid=562276dc-22b8-4d74-876e-58926664ab2e"},"vehicle_type_id":"4","last_reported":1746054618,"current_range_meters":12000,"station_id":"ce4bhb92rcd13ifvqen0","pricing_plan_id":"cebpf4jnsgd1na2vs0mg"},{"bike_id":"58ea75ac-ba33-486d-953a-cfa6f13eb988","system_id":"levelo_inurba_marseille","lat":43.28404,"lon":5.37502,"is_reserved":false,"is_disabled":false,"rental_uris":{"android":"levelo://app?vid=58ea75ac-ba33-486d-953a-cfa6f13eb988","ios":"levelo://app?vid=58ea75ac-ba33-486d-953a-cfa6f13eb988"},"vehicle_type_id":"4","last_reported":1746054618,"current_range_meters":12000,"station_id":"ce4bh412rcd13ifvqds0","pricing_plan_id":"cebpf4jnsgd1na2vs0mg"},{"bike_id":"cb799d30-a786-4212-8461-e5560b5b16ef","system_id":"levelo_inurba_marseille","lat":43.32091,"lon":5.44081,"is_reserved":false,"is_disabled":false,"rental_uris":{"android":"levelo://app?vid=cb799d30-a786-4212-8461-e5560b5b16ef","ios":"levelo://app?vid=cb799d30-a786-4212-8461-e5560b5b16ef"},"vehicle_type_id":"4","last_reported":1746054618,"current_range_meters":12000,"station_id":"","pricing_plan_id":"cebpf4jnsgd1na2vs0mg"},{"bike_id":"729b8131-36ef-4d05-9ed4-3891754cceb5","system_id":"levelo_inurba_marseille","lat":43.24999,"lon":5.3892,"is_reserved":false,"is_disabled":false,"rental_uris":{"android":"levelo://app?vid=729b8131-36ef-4d05-9ed4-3891754cceb5","ios":"levelo://app?vid=729b8131-36ef-4d05-9ed4-3891754cceb5"},"vehicle_type_id":"4","last_reported":1746054618,"current_range_meters":12000,"station_id":"ce4bhgp2rcd13ifvqfd0","pricing_plan_id":"cebpf4jnsgd1na2vs0mg"},{"bike_id":"42979274-76ae-42a2-b009-8dde9f74aa65","system_id":"levelo_inurba_marseille","lat":43.33018,"lon":5.39023,"is_reserved":false,"is_disabled":false,"rental_uris":{"android":"levelo://app?vid=42979274-76ae-42a2-b009-8dde9f74aa65","ios":"levelo://app?vid=42979274-76ae-42a2-b009-8dde9f74aa65"},"vehicle_type_id":"4","last_reported":1746054618,"current_range_meters":12400,"station_id":"ce4bhr92rcd13ifvqhrg","pricing_plan_id":"cebpf4jnsgd1na2vs0mg"},{"bike_id":"097d13a1-9558-4a72-b7ec-8017bd0f0a59","system_id":"levelo_inurba_marseille","lat":43.30637,"lon":5.4009,"is_reserved":false,"is_disabled":false,"rental_uris":{"android":"levelo://app?vid=097d13a1-9558-4a72-b7ec-8017bd0f0a59","ios":"levelo://app?vid=097d13a1-9558-4a72-b7ec-8017bd0f0a59"},"vehicle_type_id":"4","last_reported":1746054618,"current_range_meters":12400,"station_id":"ce4bh112rcd13ifvqda0","pricing_plan_id":"cebpf4jnsgd1na2vs0mg"},{"bike_id":"22da4027-4f6f-45d1-9334-006a58311cd1","system_id":"levelo_inurba_marseille","lat":43.24067,"lon":5.36793,"is_reserved":false,"is_disabled":false,"rental_uris":{"android":"levelo://app?vid=22da4027-4f6f-45d1-9334-006a58311cd1","ios":"levelo://app?vid=22da4027-4f6f-45d1-9334-006a58311cd1"},"vehicle_type_id":"4","last_reported":1746054618,"current_range_meters":12400,"station_id":"","pricing_plan_id":"cebpf4jnsgd1na2vs0mg"},{"bike_id":"80651a87-6c3b-4ad8-a524-9ca686ad66c6","system_id":"levelo_inurba_marseille","lat":43.32998,"lon":5.39025,"is_reserved":false,"is_disabled":false,"rental_uris":{"android":"levelo://app?vid=80651a87-6c3b-4ad8-a524-9ca686ad66c6","ios":"levelo://app?vid=80651a87-6c3b-4ad8-a524-9ca686ad66c6"},"vehicle_type_id":"4","last_reported":1746054618,"current_range_meters":12400,"station_id":"ce4bhr92rcd13ifvqhrg","pricing_plan_id":"cebpf4jnsgd1na2vs0mg"},{"bike_id":"9f87d872-9836-4a68-a4bb-b0ab837e0461","system_id":"levelo_inurba_marseille","lat":43.305463,"lon":5.367108,"is_reserved":false,"is_disabled":true,"rental_uris":{"android":"levelo://app?vid=9f87d872-9836-4a68-a4bb-b0ab837e0461","ios":"levelo://app?vid=9f87d872-9836-4a68-a4bb-b0ab837e0461"},"vehicle_type_id":"4","last_reported":1746054618,"current_range_meters":12400,"station_id":"ce4bgrp2rcd13ifvqc9g","pricing_plan_id":"cebpf4jnsgd1na2vs0mg"},{"bike_id":"405fa080-f811-46f3-8582-d87d58738f3b","system_id":"levelo_inurba_marseille","lat":43.25719,"lon":5.41811,"is_reserved":false,"is_disabled":false,"rental_uris":{"android":"levelo://app?vid=405fa080-f811-46f3-8582-d87d58738f3b","ios":"levelo://app?vid=405fa080-f811-46f3-8582-d87d58738f3b"},"vehicle_type_id":"4","last_reported":1746054618,"current_range_meters":12400,"station_id":"","pricing_plan_id":"cebpf4jnsgd1na2vs0mg"},{"bike_id":"4783f7ce-a657-4873-8b5b-c64ccfb0d6e3","system_id":"levelo_inurba_marseille","lat":43.294552,"lon":5.39758,"is_reserved":false,"is_disabled":false,"rental_uris":{"android":"levelo://app?vid=4783f7ce-a657-4873-8b5b-c64ccfb0d6e3","ios":"levelo://app?vid=4783f7ce-a657-4873-8b5b-c64ccfb0d6e3"},"vehicle_type_id":"4","last_reported":1746054618,"current_range_meters":12800,"station_id":"ce4bh3h2rcd13ifvqdo0","pricing_plan_id":"cebpf4jnsgd1na2vs0mg"},{"bike_id":"171cdde1-553e-41d8-ad20-22097af17faf","system_id":"levelo_inurba_marseille","lat":43.26572,"lon":5.38994,"is_reserved":false,"is_disabled":false,"rental_uris":{"android":"levelo://app?vid=171cdde1-553e-41d8-ad20-22097af17faf","ios":"levelo://app?vid=171cdde1-553e-41d8-ad20-22097af17faf"},"vehicle_type_id":"4","last_reported":1746054618,"current_range_meters":12800,"station_id":"ce4bhe12rcd13ifvqf30","pricing_plan_id":"cebpf4jnsgd1na2vs0mg"},{"bike_id":"0c70beac-2c9a-4d87-9ce5-9c62957c3c27","system_id":"levelo_inurba_marseille","lat":43.3137,"lon":5.38489,"is_reserved":false,"is_disabled":false,"rental_uris":{"android":"levelo://app?vid=0c70beac-2c9a-4d87-9ce5-9c62957c3c27","ios":"levelo://app?vid=0c70beac-2c9a-4d87-9ce5-9c62957c3c27"},"vehicle_type_id":"4","last_reported":1746054618,"current_range_meters":12800,"station_id":"ce4bgt92rcd13ifvqcf0","pricing_plan_id":"cebpf4jnsgd1na2vs0mg"},{"bike_id":"1d9a9580-6889-484d-8b2e-74a4c2c3366f","system_id":"levelo_inurba_marseille","lat":43.27421,"lon":5.39413,"is_reserved":false,"is_disabled":false,"rental_uris":{"android":"levelo://app?vid=1d9a9580-6889-484d-8b2e-74a4c2c3366f","ios":"levelo://app?vid=1d9a9580-6889-484d-8b2e-74a4c2c3366f"},"vehicle_type_id":"4","last_reported":1746054618,"current_range_meters":12800,"station_id":"ce4bhdp2rcd13ifvqf20","pricing_plan_id":"cebpf4jnsgd1na2vs0mg"},{"bike_id":"2b50d1f2-e2a1-42f5-b7ea-3a9e8da75d6c","system_id":"levelo_inurba_marseille","lat":43.2867,"lon":5.38668,"is_reserved":false,"is_disabled":false,"rental_uris":{"android":"levelo://app?vid=2b50d1f2-e2a1-42f5-b7ea-3a9e8da75d6c","ios":"levelo://app?vid=2b50d1f2-e2a1-42f5-b7ea-3a9e8da75d6c"},"vehicle_type_id":"4","last_reported":1746054618,"current_range_meters":12800,"station_id":"ce4bh492rcd13ifvqdug","pricing_plan_id":"cebpf4jnsgd1na2vs0mg"},{"bike_id":"93c3535d-3cb4-4d5e-8674-4af1ca712961","system_id":"levelo_inurba_marseille","lat":43.322878,"lon":5.382698,"is_reserved":false,"is_disabled":false,"rental_uris":{"android":"levelo://app?vid=93c3535d-3cb4-4d5e-8674-4af1ca712961","ios":"levelo://app?vid=93c3535d-3cb4-4d5e-8674-4af1ca712961"},"vehicle_type_id":"4","last_reported":1746054618,"current_range_meters":12800,"station_id":"ce4bhr12rcd13ifvqhqg","pricing_plan_id":"cebpf4jnsgd1na2vs0mg"},{"bike_id":"1f1f8c35-5e32-47e2-bf8d-d650b1576b88","system_id":"levelo_inurba_marseille","lat":43.27497,"lon":5.42449,"is_reserved":false,"is_disabled":false,"rental_uris":{"android":"levelo://app?vid=1f1f8c35-5e32-47e2-bf8d-d650b1576b88","ios":"levelo://app?vid=1f1f8c35-5e32-47e2-bf8d-d650b1576b88"},"vehicle_type_id":"4","last_reported":1746054618,"current_range_meters":12400,"station_id":"ce4bhn92rcd13ifvqgrg","pricing_plan_id":"cebpf4jnsgd1na2vs0mg"},{"bike_id":"d81abb63-9e29-43ff-affe-f5dd120de981","system_id":"levelo_inurba_marseille","lat":43.32368,"lon":5.38883,"is_reserved":false,"is_disabled":false,"rental_uris":{"android":"levelo://app?vid=d81abb63-9e29-43ff-affe-f5dd120de981","ios":"levelo://app?vid=d81abb63-9e29-43ff-affe-f5dd120de981"},"vehicle_type_id":"4","last_reported":1746054618,"current_range_meters":12800,"station_id":"ce4bhqp2rcd13ifvqhog","pricing_plan_id":"cebpf4jnsgd1na2vs0mg"},{"bike_id":"fd0b924d-e1b4-46bb-b0de-34767fc65d12","system_id":"levelo_inurba_marseille","lat":43.2846,"lon":5.35884,"is_reserved":false,"is_disabled":false,"rental_uris":{"android":"levelo://app?vid=fd0b924d-e1b4-46bb-b0de-34767fc65d12","ios":"levelo://app?vid=fd0b924d-e1b4-46bb-b0de-34767fc65d12"},"vehicle_type_id":"4","last_reported":1746054618,"current_range_meters":12800,"station_id":"ce4bhah2rcd13ifvqei0","pricing_plan_id":"cebpf4jnsgd1na2vs0mg"},{"bike_id":"74e43ab7-c22e-4e7e-9af4-ef7676b145b6","system_id":"levelo_inurba_marseille","lat":43.25716,"lon":5.41087,"is_reserved":false,"is_disabled":false,"rental_uris":{"android":"levelo://app?vid=74e43ab7-c22e-4e7e-9af4-ef7676b145b6","ios":"levelo://app?vid=74e43ab7-c22e-4e7e-9af4-ef7676b145b6"},"vehicle_type_id":"4","last_reported":1746054618,"current_range_meters":13600,"station_id":"ce4bhkp2rcd13ifvqgd0","pricing_plan_id":"cebpf4jnsgd1na2vs0mg"},{"bike_id":"da557341-b4a1-447e-9606-415e0f9c6127","system_id":"levelo_inurba_marseille","lat":43.30461,"lon":5.3789,"is_reserved":false,"is_disabled":true,"rental_uris":{"android":"levelo://app?vid=da557341-b4a1-447e-9606-415e0f9c6127","ios":"levelo://app?vid=da557341-b4a1-447e-9606-415e0f9c6127"},"vehicle_type_id":"4","last_reported":1746054618,"current_range_meters":13600,"station_id":"ce4bgup2rcd13ifvqcn0","pricing_plan_id":"cebpf4jnsgd1na2vs0mg"},{"bike_id":"294d4bb4-6cc6-4db6-9419-fd301bcfb554","system_id":"levelo_inurba_marseille","lat":43.27671,"lon":5.38881,"is_reserved":false,"is_disabled":false,"rental_uris":{"android":"levelo://app?vid=294d4bb4-6cc6-4db6-9419-fd301bcfb554","ios":"levelo://app?vid=294d4bb4-6cc6-4db6-9419-fd301bcfb554"},"vehicle_type_id":"4","last_reported":1746054618,"current_range_meters":13600,"station_id":"ce4bhi12rcd13ifvqfo0","pricing_plan_id":"cebpf4jnsgd1na2vs0mg"},{"bike_id":"bded5638-5663-46d5-b164-b8214836c3ea","system_id":"levelo_inurba_marseille","lat":43.273052,"lon":5.392076,"is_reserved":false,"is_disabled":false,"rental_uris":{"android":"levelo://app?vid=bded5638-5663-46d5-b164-b8214836c3ea","ios":"levelo://app?vid=bded5638-5663-46d5-b164-b8214836c3ea"},"vehicle_type_id":"4","last_reported":1746054618,"current_range_meters":14000,"station_id":"","pricing_plan_id":"cebpf4jnsgd1na2vs0mg"},{"bike_id":"3d16fab9-3e9f-42e6-8c77-6750333018dd","system_id":"levelo_inurba_marseille","lat":43.31115,"lon":5.37781,"is_reserved":false,"is_disabled":false,"rental_uris":{"android":"levelo://app?vid=3d16fab9-3e9f-42e6-8c77-6750333018dd","ios":"levelo://app?vid=3d16fab9-3e9f-42e6-8c77-6750333018dd"},"vehicle_type_id":"4","last_reported":1746054618,"current_range_meters":14000,"station_id":"ce4bgt92rcd13ifvqcg0","pricing_plan_id":"cebpf4jnsgd1na2vs0mg"},{"bike_id":"64981ae5-9d65-4547-8181-90035c8fdb2e","system_id":"levelo_inurba_marseille","lat":43.32852,"lon":5.36585,"is_reserved":false,"is_disabled":false,"rental_uris":{"android":"levelo://app?vid=64981ae5-9d65-4547-8181-90035c8fdb2e","ios":"levelo://app?vid=64981ae5-9d65-4547-8181-90035c8fdb2e"},"vehicle_type_id":"4","last_reported":1746054618,"current_range_meters":14000,"station_id":"","pricing_plan_id":"cebpf4jnsgd1na2vs0mg"},{"bike_id":"a732b3d6-472a-46b2-b5fc-7d86a14ed2fc","system_id":"levelo_inurba_marseille","lat":43.330324,"lon":5.390393,"is_reserved":false,"is_disabled":false,"rental_uris":{"android":"levelo://app?vid=a732b3d6-472a-46b2-b5fc-7d86a14ed2fc","ios":"levelo://app?vid=a732b3d6-472a-46b2-b5fc-7d86a14ed2fc"},"vehicle_type_id":"4","last_reported":1746054618,"current_range_meters":14000,"station_id":"ce4bhr92rcd13ifvqhrg","pricing_plan_id":"cebpf4jnsgd1na2vs0mg"},{"bike_id":"5bad94cc-7f01-4910-af58-47d9a595bbc1","system_id":"levelo_inurba_marseille","lat":43.27839,"lon":5.39201,"is_reserved":false,"is_disabled":false,"rental_uris":{"android":"levelo://app?vid=5bad94cc-7f01-4910-af58-47d9a595bbc1","ios":"levelo://app?vid=5bad94cc-7f01-4910-af58-47d9a595bbc1"},"vehicle_type_id":"4","last_reported":1746054618,"current_range_meters":14000,"station_id":"ce4bhjp2rcd13ifvqga0","pricing_plan_id":"cebpf4jnsgd1na2vs0mg"},{"bike_id":"fd427e05-8ad1-4dac-ba3a-e42fe8245eb3","system_id":"levelo_inurba_marseille","lat":43.28408,"lon":5.34979,"is_reserved":false,"is_disabled":true,"rental_uris":{"android":"levelo://app?vid=fd427e05-8ad1-4dac-ba3a-e42fe8245eb3","ios":"levelo://app?vid=fd427e05-8ad1-4dac-ba3a-e42fe8245eb3"},"vehicle_type_id":"4","last_reported":1746054618,"current_range_meters":14000,"station_id":"ce4bhbh2rcd13ifvqepg","pricing_plan_id":"cebpf4jnsgd1na2vs0mg"},{"bike_id":"5c685a05-0889-4d73-a28b-7bdf66201533","system_id":"levelo_inurba_marseille","lat":43.27497,"lon":5.42446,"is_reserved":false,"is_disabled":false,"rental_uris":{"android":"levelo://app?vid=5c685a05-0889-4d73-a28b-7bdf66201533","ios":"levelo://app?vid=5c685a05-0889-4d73-a28b-7bdf66201533"},"vehicle_type_id":"4","last_reported":1746054618,"current_range_meters":14000,"station_id":"ce4bhn92rcd13ifvqgrg","pricing_plan_id":"cebpf4jnsgd1na2vs0mg"},{"bike_id":"f749cfeb-40fc-4c29-8d8f-4f1eb1793156","system_id":"levelo_inurba_marseille","lat":43.28107,"lon":5.37837,"is_reserved":false,"is_disabled":false,"rental_uris":{"android":"levelo://app?vid=f749cfeb-40fc-4c29-8d8f-4f1eb1793156","ios":"levelo://app?vid=f749cfeb-40fc-4c29-8d8f-4f1eb1793156"},"vehicle_type_id":"4","last_reported":1746054618,"current_range_meters":14000,"station_id":"ce4bha12rcd13ifvqee0","pricing_plan_id":"cebpf4jnsgd1na2vs0mg"},{"bike_id":"022bbe08-f438-4035-b90d-e31f48ac1061","system_id":"levelo_inurba_marseille","lat":43.31377,"lon":5.38503,"is_reserved":false,"is_disabled":false,"rental_uris":{"android":"levelo://app?vid=022bbe08-f438-4035-b90d-e31f48ac1061","ios":"levelo://app?vid=022bbe08-f438-4035-b90d-e31f48ac1061"},"vehicle_type_id":"4","last_reported":1746054618,"current_range_meters":14000,"station_id":"ce4bgt92rcd13ifvqcf0","pricing_plan_id":"cebpf4jnsgd1na2vs0mg"},{"bike_id":"2651b4a1-13e1-4235-9053-4ff760306dc9","system_id":"levelo_inurba_marseille","lat":43.30332,"lon":5.40426,"is_reserved":false,"is_disabled":false,"rental_uris":{"android":"levelo://app?vid=2651b4a1-13e1-4235-9053-4ff760306dc9","ios":"levelo://app?vid=2651b4a1-13e1-4235-9053-4ff760306dc9"},"vehicle_type_id":"4","last_reported":1746054618,"current_range_meters":14000,"station_id":"ce4bh012rcd13ifvqd10","pricing_plan_id":"cebpf4jnsgd1na2vs0mg"},{"bike_id":"c80190f4-0b1d-4ca7-a2ab-26b81ff89134","system_id":"levelo_inurba_marseille","lat":43.31325,"lon":5.39689,"is_reserved":false,"is_disabled":false,"rental_uris":{"android":"levelo://app?vid=c80190f4-0b1d-4ca7-a2ab-26b81ff89134","ios":"levelo://app?vid=c80190f4-0b1d-4ca7-a2ab-26b81ff89134"},"vehicle_type_id":"4","last_reported":1746054618,"current_range_meters":14000,"station_id":"ce4bgvp2rcd13ifvqcu0","pricing_plan_id":"cebpf4jnsgd1na2vs0mg"},{"bike_id":"a688b131-ae29-4f11-8812-f85f61aa6706","system_id":"levelo_inurba_marseille","lat":43.292101,"lon":5.393194,"is_reserved":false,"is_disabled":true,"rental_uris":{"android":"levelo://app?vid=a688b131-ae29-4f11-8812-f85f61aa6706","ios":"levelo://app?vid=a688b131-ae29-4f11-8812-f85f61aa6706"},"vehicle_type_id":"4","last_reported":1746054618,"current_range_meters":14400,"station_id":"ce4bhbh2rcd13ifvqeo0","pricing_plan_id":"cebpf4jnsgd1na2vs0mg"},{"bike_id":"858f276a-aacb-4171-a3c2-938c4f74ce42","system_id":"levelo_inurba_marseille","lat":43.311114,"lon":5.37764,"is_reserved":false,"is_disabled":false,"rental_uris":{"android":"levelo://app?vid=858f276a-aacb-4171-a3c2-938c4f74ce42","ios":"levelo://app?vid=858f276a-aacb-4171-a3c2-938c4f74ce42"},"vehicle_type_id":"4","last_reported":1746054618,"current_range_meters":14400,"station_id":"ce4bgt92rcd13ifvqcg0","pricing_plan_id":"cebpf4jnsgd1na2vs0mg"},{"bike_id":"0df22f61-9c25-424e-bd02-bc390c358bcf","system_id":"levelo_inurba_marseille","lat":43.27944,"lon":5.41029,"is_reserved":false,"is_disabled":false,"rental_uris":{"android":"levelo://app?vid=0df22f61-9c25-424e-bd02-bc390c358bcf","ios":"levelo://app?vid=0df22f61-9c25-424e-bd02-bc390c358bcf"},"vehicle_type_id":"4","last_reported":1746054618,"current_range_meters":14400,"station_id":"ce4bhnp2rcd13ifvqh0g","pricing_plan_id":"cebpf4jnsgd1na2vs0mg"},{"bike_id":"251e9dd1-1ef6-4d68-a53b-07ad88490391","system_id":"levelo_inurba_marseille","lat":43.30926,"lon":5.40148,"is_reserved":false,"is_disabled":false,"rental_uris":{"android":"levelo://app?vid=251e9dd1-1ef6-4d68-a53b-07ad88490391","ios":"levelo://app?vid=251e9dd1-1ef6-4d68-a53b-07ad88490391"},"vehicle_type_id":"4","last_reported":1746054618,"current_range_meters":14400,"station_id":"ce4bgvp2rcd13ifvqct0","pricing_plan_id":"cebpf4jnsgd1na2vs0mg"},{"bike_id":"6f204a41-dc28-4059-88af-7439b681257c","system_id":"levelo_inurba_marseille","lat":43.30145,"lon":5.3742,"is_reserved":false,"is_disabled":false,"rental_uris":{"android":"levelo://app?vid=6f204a41-dc28-4059-88af-7439b681257c","ios":"levelo://app?vid=6f204a41-dc28-4059-88af-7439b681257c"},"vehicle_type_id":"4","last_reported":1746054618,"current_range_meters":14000,"station_id":"ce4bgs92rcd13ifvqcc0","pricing_plan_id":"cebpf4jnsgd1na2vs0mg"},{"bike_id":"ff871a21-68c1-40d8-a5e8-eabe2ee6fb5b","system_id":"levelo_inurba_marseille","lat":43.301554,"lon":5.398142,"is_reserved":false,"is_disabled":false,"rental_uris":{"android":"levelo://app?vid=ff871a21-68c1-40d8-a5e8-eabe2ee6fb5b","ios":"levelo://app?vid=ff871a21-68c1-40d8-a5e8-eabe2ee6fb5b"},"vehicle_type_id":"4","last_reported":1746054618,"current_range_meters":14400,"station_id":"ce4bgk12rcd13ifvqbi0","pricing_plan_id":"cebpf4jnsgd1na2vs0mg"},{"bike_id":"e7f9e01b-f1b3-4396-a004-8141ae69fec7","system_id":"levelo_inurba_marseille","lat":43.289484,"lon":5.36398,"is_reserved":false,"is_disabled":false,"rental_uris":{"android":"levelo://app?vid=e7f9e01b-f1b3-4396-a004-8141ae69fec7","ios":"levelo://app?vid=e7f9e01b-f1b3-4396-a004-8141ae69fec7"},"vehicle_type_id":"4","last_reported":1746054618,"current_range_meters":14800,"station_id":"ce4bhc92rcd13ifvqetg","pricing_plan_id":"cebpf4jnsgd1na2vs0mg"},{"bike_id":"d8f69332-d7da-463e-98da-8052c52b547e","system_id":"levelo_inurba_marseille","lat":43.27823,"lon":5.40718,"is_reserved":false,"is_disabled":false,"rental_uris":{"android":"levelo://app?vid=d8f69332-d7da-463e-98da-8052c52b547e","ios":"levelo://app?vid=d8f69332-d7da-463e-98da-8052c52b547e"},"vehicle_type_id":"4","last_reported":1746054618,"current_range_meters":14800,"station_id":"ce4bhnh2rcd13ifvqgtg","pricing_plan_id":"cebpf4jnsgd1na2vs0mg"},{"bike_id":"083163f5-e2fd-40d2-9e4f-7b3d2d85df31","system_id":"levelo_inurba_marseille","lat":43.27002,"lon":5.387502,"is_reserved":false,"is_disabled":true,"rental_uris":{"android":"levelo://app?vid=083163f5-e2fd-40d2-9e4f-7b3d2d85df31","ios":"levelo://app?vid=083163f5-e2fd-40d2-9e4f-7b3d2d85df31"},"vehicle_type_id":"4","last_reported":1746054618,"current_range_meters":14800,"station_id":"","pricing_plan_id":"cebpf4jnsgd1na2vs0mg"},{"bike_id":"7940bc1b-eaa7-4f49-a435-46dc9391f6a1","system_id":"levelo_inurba_marseille","lat":43.212016,"lon":5.35066,"is_reserved":false,"is_disabled":false,"rental_uris":{"android":"levelo://app?vid=7940bc1b-eaa7-4f49-a435-46dc9391f6a1","ios":"levelo://app?vid=7940bc1b-eaa7-4f49-a435-46dc9391f6a1"},"vehicle_type_id":"4","last_reported":1746054618,"current_range_meters":14800,"station_id":"st_cvj6sg6p6f1abm77japg","pricing_plan_id":"cebpf4jnsgd1na2vs0mg"},{"bike_id":"34b484ab-c0f1-4e55-b51a-e2bafdafb63e","system_id":"levelo_inurba_marseille","lat":43.23046,"lon":5.35487,"is_reserved":false,"is_disabled":false,"rental_uris":{"android":"levelo://app?vid=34b484ab-c0f1-4e55-b51a-e2bafdafb63e","ios":"levelo://app?vid=34b484ab-c0f1-4e55-b51a-e2bafdafb63e"},"vehicle_type_id":"4","last_reported":1746054618,"current_range_meters":14800,"station_id":"cpo3342slgdg3j2ifvpg","pricing_plan_id":"cebpf4jnsgd1na2vs0mg"},{"bike_id":"4215e336-130f-4e4e-ac75-ab1f2791ea4d","system_id":"levelo_inurba_marseille","lat":43.31642,"lon":5.40548,"is_reserved":false,"is_disabled":false,"rental_uris":{"android":"levelo://app?vid=4215e336-130f-4e4e-ac75-ab1f2791ea4d","ios":"levelo://app?vid=4215e336-130f-4e4e-ac75-ab1f2791ea4d"},"vehicle_type_id":"4","last_reported":1746054618,"current_range_meters":14800,"station_id":"","pricing_plan_id":"cebpf4jnsgd1na2vs0mg"},{"bike_id":"c29e36ac-2727-4e24-a089-8ad710d53619","system_id":"levelo_inurba_marseille","lat":43.30928,"lon":5.40146,"is_reserved":false,"is_disabled":false,"rental_uris":{"android":"levelo://app?vid=c29e36ac-2727-4e24-a089-8ad710d53619","ios":"levelo://app?vid=c29e36ac-2727-4e24-a089-8ad710d53619"},"vehicle_type_id":"4","last_reported":1746054618,"current_range_meters":15200,"station_id":"ce4bgvp2rcd13ifvqct0","pricing_plan_id":"cebpf4jnsgd1na2vs0mg"},{"bike_id":"fd7875a1-1cd0-47f8-880b-6ef58a6b7e2e","system_id":"levelo_inurba_marseille","lat":43.22933,"lon":5.3537,"is_reserved":false,"is_disabled":false,"rental_uris":{"android":"levelo://app?vid=fd7875a1-1cd0-47f8-880b-6ef58a6b7e2e","ios":"levelo://app?vid=fd7875a1-1cd0-47f8-880b-6ef58a6b7e2e"},"vehicle_type_id":"4","last_reported":1746054618,"current_range_meters":15200,"station_id":"cpo3532slgdg3j2ikp40","pricing_plan_id":"cebpf4jnsgd1na2vs0mg"},{"bike_id":"66cf9de5-17de-4e38-9ee0-8d2cef3b4ab3","system_id":"levelo_inurba_marseille","lat":43.30668,"lon":5.40094,"is_reserved":false,"is_disabled":true,"rental_uris":{"android":"levelo://app?vid=66cf9de5-17de-4e38-9ee0-8d2cef3b4ab3","ios":"levelo://app?vid=66cf9de5-17de-4e38-9ee0-8d2cef3b4ab3"},"vehicle_type_id":"4","last_reported":1746054618,"current_range_meters":15200,"station_id":"ce4bh112rcd13ifvqda0","pricing_plan_id":"cebpf4jnsgd1na2vs0mg"},{"bike_id":"f055cbd2-4fde-4734-b9a9-ba676338ff03","system_id":"levelo_inurba_marseille","lat":43.2811,"lon":5.37833,"is_reserved":false,"is_disabled":false,"rental_uris":{"android":"levelo://app?vid=f055cbd2-4fde-4734-b9a9-ba676338ff03","ios":"levelo://app?vid=f055cbd2-4fde-4734-b9a9-ba676338ff03"},"vehicle_type_id":"4","last_reported":1746054618,"current_range_meters":15200,"station_id":"ce4bha12rcd13ifvqee0","pricing_plan_id":"cebpf4jnsgd1na2vs0mg"},{"bike_id":"da62e04f-aabf-4f2b-9e7f-761fdf6d967b","system_id":"levelo_inurba_marseille","lat":43.28416,"lon":5.3751,"is_reserved":false,"is_disabled":false,"rental_uris":{"android":"levelo://app?vid=da62e04f-aabf-4f2b-9e7f-761fdf6d967b","ios":"levelo://app?vid=da62e04f-aabf-4f2b-9e7f-761fdf6d967b"},"vehicle_type_id":"4","last_reported":1746054618,"current_range_meters":16000,"station_id":"ce4bh412rcd13ifvqds0","pricing_plan_id":"cebpf4jnsgd1na2vs0mg"},{"bike_id":"3d13519f-8c59-4500-915b-0e3325a7d2e1","system_id":"levelo_inurba_marseille","lat":43.29893,"lon":5.38322,"is_reserved":false,"is_disabled":false,"rental_uris":{"android":"levelo://app?vid=3d13519f-8c59-4500-915b-0e3325a7d2e1","ios":"levelo://app?vid=3d13519f-8c59-4500-915b-0e3325a7d2e1"},"vehicle_type_id":"4","last_reported":1746054618,"current_range_meters":16000,"station_id":"","pricing_plan_id":"cebpf4jnsgd1na2vs0mg"},{"bike_id":"fe9083d3-036c-45c9-9372-5aa64c224af0","system_id":"levelo_inurba_marseille","lat":43.308925,"lon":5.371948,"is_reserved":false,"is_disabled":false,"rental_uris":{"android":"levelo://app?vid=fe9083d3-036c-45c9-9372-5aa64c224af0","ios":"levelo://app?vid=fe9083d3-036c-45c9-9372-5aa64c224af0"},"vehicle_type_id":"4","last_reported":1746054618,"current_range_meters":16000,"station_id":"ce4bguh2rcd13ifvqckg","pricing_plan_id":"cebpf4jnsgd1na2vs0mg"},{"bike_id":"68387bcf-91b9-4d94-9345-8087e5f6d466","system_id":"levelo_inurba_marseille","lat":43.31333,"lon":5.36771,"is_reserved":false,"is_disabled":true,"rental_uris":{"android":"levelo://app?vid=68387bcf-91b9-4d94-9345-8087e5f6d466","ios":"levelo://app?vid=68387bcf-91b9-4d94-9345-8087e5f6d466"},"vehicle_type_id":"4","last_reported":1746054618,"current_range_meters":16400,"station_id":"","pricing_plan_id":"cebpf4jnsgd1na2vs0mg"},{"bike_id":"dfd685e2-5571-4ab9-8dba-04a38b46622f","system_id":"levelo_inurba_marseille","lat":43.284457,"lon":5.391958,"is_reserved":false,"is_disabled":false,"rental_uris":{"android":"levelo://app?vid=dfd685e2-5571-4ab9-8dba-04a38b46622f","ios":"levelo://app?vid=dfd685e2-5571-4ab9-8dba-04a38b46622f"},"vehicle_type_id":"4","last_reported":1746054618,"current_range_meters":16400,"station_id":"ce4bhoh2rcd13ifvqh5g","pricing_plan_id":"cebpf4jnsgd1na2vs0mg"},{"bike_id":"a80efe56-7ec7-41b2-959d-a20ff548881b","system_id":"levelo_inurba_marseille","lat":43.323643,"lon":5.388813,"is_reserved":false,"is_disabled":false,"rental_uris":{"android":"levelo://app?vid=a80efe56-7ec7-41b2-959d-a20ff548881b","ios":"levelo://app?vid=a80efe56-7ec7-41b2-959d-a20ff548881b"},"vehicle_type_id":"4","last_reported":1746054618,"current_range_meters":16400,"station_id":"ce4bhqp2rcd13ifvqhog","pricing_plan_id":"cebpf4jnsgd1na2vs0mg"},{"bike_id":"1f303245-4981-4fbe-b75a-6373e04d2d5a","system_id":"levelo_inurba_marseille","lat":43.25151,"lon":5.40336,"is_reserved":false,"is_disabled":false,"rental_uris":{"android":"levelo://app?vid=1f303245-4981-4fbe-b75a-6373e04d2d5a","ios":"levelo://app?vid=1f303245-4981-4fbe-b75a-6373e04d2d5a"},"vehicle_type_id":"4","last_reported":1746054618,"current_range_meters":16400,"station_id":"","pricing_plan_id":"cebpf4jnsgd1na2vs0mg"},{"bike_id":"1130c3af-831f-4180-a824-77b5ac50d0ae","system_id":"levelo_inurba_marseille","lat":43.30887,"lon":5.39637,"is_reserved":false,"is_disabled":false,"rental_uris":{"android":"levelo://app?vid=1130c3af-831f-4180-a824-77b5ac50d0ae","ios":"levelo://app?vid=1130c3af-831f-4180-a824-77b5ac50d0ae"},"vehicle_type_id":"4","last_reported":1746054618,"current_range_meters":16400,"station_id":"ce4bh012rcd13ifvqcv0","pricing_plan_id":"cebpf4jnsgd1na2vs0mg"},{"bike_id":"3806a380-3a76-4ebd-b55b-a8b2dfcc63e6","system_id":"levelo_inurba_marseille","lat":43.28853,"lon":5.3932,"is_reserved":false,"is_disabled":false,"rental_uris":{"android":"levelo://app?vid=3806a380-3a76-4ebd-b55b-a8b2dfcc63e6","ios":"levelo://app?vid=3806a380-3a76-4ebd-b55b-a8b2dfcc63e6"},"vehicle_type_id":"4","last_reported":1746054618,"current_range_meters":16400,"station_id":"ce4bh2p2rcd13ifvqdi0","pricing_plan_id":"cebpf4jnsgd1na2vs0mg"},{"bike_id":"d5c588f0-31de-4a59-aaa3-59e8c6bd02d0","system_id":"levelo_inurba_marseille","lat":43.27368,"lon":5.36256,"is_reserved":false,"is_disabled":false,"rental_uris":{"android":"levelo://app?vid=d5c588f0-31de-4a59-aaa3-59e8c6bd02d0","ios":"levelo://app?vid=d5c588f0-31de-4a59-aaa3-59e8c6bd02d0"},"vehicle_type_id":"4","last_reported":1746054618,"current_range_meters":16400,"station_id":"ce4bhbh2rcd13ifvqeo0","pricing_plan_id":"cebpf4jnsgd1na2vs0mg"},{"bike_id":"fa4107b7-6eba-4c1f-b126-34560680d4b4","system_id":"levelo_inurba_marseille","lat":43.30949,"lon":5.39026,"is_reserved":false,"is_disabled":false,"rental_uris":{"android":"levelo://app?vid=fa4107b7-6eba-4c1f-b126-34560680d4b4","ios":"levelo://app?vid=fa4107b7-6eba-4c1f-b126-34560680d4b4"},"vehicle_type_id":"4","last_reported":1746054618,"current_range_meters":16400,"station_id":"ce4bgup2rcd13ifvqco0","pricing_plan_id":"cebpf4jnsgd1na2vs0mg"},{"bike_id":"aa1220d4-7fa1-4ad4-8aa5-3dbf237cf05a","system_id":"levelo_inurba_marseille","lat":43.283546,"lon":5.381064,"is_reserved":false,"is_disabled":false,"rental_uris":{"android":"levelo://app?vid=aa1220d4-7fa1-4ad4-8aa5-3dbf237cf05a","ios":"levelo://app?vid=aa1220d4-7fa1-4ad4-8aa5-3dbf237cf05a"},"vehicle_type_id":"4","last_reported":1746054618,"current_range_meters":16400,"station_id":"ce4bh412rcd13ifvqdr0","pricing_plan_id":"cebpf4jnsgd1na2vs0mg"},{"bike_id":"f02ae64c-9233-4a17-8305-23ebd345c78b","system_id":"levelo_inurba_marseille","lat":43.231835,"lon":5.399892,"is_reserved":false,"is_disabled":false,"rental_uris":{"android":"levelo://app?vid=f02ae64c-9233-4a17-8305-23ebd345c78b","ios":"levelo://app?vid=f02ae64c-9233-4a17-8305-23ebd345c78b"},"vehicle_type_id":"4","last_reported":1746054618,"current_range_meters":16400,"station_id":"ce4bhn12rcd13ifvqgqg","pricing_plan_id":"cebpf4jnsgd1na2vs0mg"},{"bike_id":"1276ff5c-0e07-4a84-8274-86c8fab8119b","system_id":"levelo_inurba_marseille","lat":43.29032,"lon":5.38658,"is_reserved":false,"is_disabled":true,"rental_uris":{"android":"levelo://app?vid=1276ff5c-0e07-4a84-8274-86c8fab8119b","ios":"levelo://app?vid=1276ff5c-0e07-4a84-8274-86c8fab8119b"},"vehicle_type_id":"4","last_reported":1746054618,"current_range_meters":16400,"station_id":"ce4bh4p2rcd13ifvqe0g","pricing_plan_id":"cebpf4jnsgd1na2vs0mg"},{"bike_id":"c7c0d192-e617-45cc-b216-b198082e27a1","system_id":"levelo_inurba_marseille","lat":43.31506,"lon":5.37267,"is_reserved":false,"is_disabled":false,"rental_uris":{"android":"levelo://app?vid=c7c0d192-e617-45cc-b216-b198082e27a1","ios":"levelo://app?vid=c7c0d192-e617-45cc-b216-b198082e27a1"},"vehicle_type_id":"4","last_reported":1746054618,"current_range_meters":16800,"station_id":"ce4bgt12rcd13ifvqcd0","pricing_plan_id":"cebpf4jnsgd1na2vs0mg"},{"bike_id":"1ef4171e-e15d-4304-91ff-924c70dde6b0","system_id":"levelo_inurba_marseille","lat":43.2987,"lon":5.39728,"is_reserved":false,"is_disabled":false,"rental_uris":{"android":"levelo://app?vid=1ef4171e-e15d-4304-91ff-924c70dde6b0","ios":"levelo://app?vid=1ef4171e-e15d-4304-91ff-924c70dde6b0"},"vehicle_type_id":"4","last_reported":1746054618,"current_range_meters":16800,"station_id":"ce4bh0h2rcd13ifvqd50","pricing_plan_id":"cebpf4jnsgd1na2vs0mg"},{"bike_id":"9349d600-e511-4a0e-b3a3-3194a21ed526","system_id":"levelo_inurba_marseille","lat":43.32487,"lon":5.36562,"is_reserved":false,"is_disabled":false,"rental_uris":{"android":"levelo://app?vid=9349d600-e511-4a0e-b3a3-3194a21ed526","ios":"levelo://app?vid=9349d600-e511-4a0e-b3a3-3194a21ed526"},"vehicle_type_id":"4","last_reported":1746054618,"current_range_meters":16800,"station_id":"ce4bhs12rcd13ifvqhvg","pricing_plan_id":"cebpf4jnsgd1na2vs0mg"},{"bike_id":"b58385b2-d1b2-4ecc-af75-eb7cf4772905","system_id":"levelo_inurba_marseille","lat":43.23065,"lon":5.35492,"is_reserved":false,"is_disabled":false,"rental_uris":{"android":"levelo://app?vid=b58385b2-d1b2-4ecc-af75-eb7cf4772905","ios":"levelo://app?vid=b58385b2-d1b2-4ecc-af75-eb7cf4772905"},"vehicle_type_id":"4","last_reported":1746054618,"current_range_meters":16800,"station_id":"cpo3342slgdg3j2ifvpg","pricing_plan_id":"cebpf4jnsgd1na2vs0mg"},{"bike_id":"18167509-5ca2-4caf-8bcd-debaba44deeb","system_id":"levelo_inurba_marseille","lat":43.32481,"lon":5.36561,"is_reserved":false,"is_disabled":false,"rental_uris":{"android":"levelo://app?vid=18167509-5ca2-4caf-8bcd-debaba44deeb","ios":"levelo://app?vid=18167509-5ca2-4caf-8bcd-debaba44deeb"},"vehicle_type_id":"4","last_reported":1746054618,"current_range_meters":16800,"station_id":"ce4bhs12rcd13ifvqhvg","pricing_plan_id":"cebpf4jnsgd1na2vs0mg"},{"bike_id":"d672134c-f42b-492c-9b24-4f511d563187","system_id":"levelo_inurba_marseille","lat":43.29973,"lon":5.38501,"is_reserved":false,"is_disabled":false,"rental_uris":{"android":"levelo://app?vid=d672134c-f42b-492c-9b24-4f511d563187","ios":"levelo://app?vid=d672134c-f42b-492c-9b24-4f511d563187"},"vehicle_type_id":"4","last_reported":1746054618,"current_range_meters":16400,"station_id":"ce4bgj92rcd13ifvqbd0","pricing_plan_id":"cebpf4jnsgd1na2vs0mg"},{"bike_id":"51fab5ef-a00d-4e32-90af-91019d86dee9","system_id":"levelo_inurba_marseille","lat":43.319898,"lon":5.381256,"is_reserved":false,"is_disabled":true,"rental_uris":{"android":"levelo://app?vid=51fab5ef-a00d-4e32-90af-91019d86dee9","ios":"levelo://app?vid=51fab5ef-a00d-4e32-90af-91019d86dee9"},"vehicle_type_id":"4","last_reported":1746054618,"current_range_meters":17200,"station_id":"ce4bhr12rcd13ifvqhpg","pricing_plan_id":"cebpf4jnsgd1na2vs0mg"},{"bike_id":"b54499c4-23c6-4daf-b341-1f375f963ef4","system_id":"levelo_inurba_marseille","lat":43.2873,"lon":5.36075,"is_reserved":false,"is_disabled":false,"rental_uris":{"android":"levelo://app?vid=b54499c4-23c6-4daf-b341-1f375f963ef4","ios":"levelo://app?vid=b54499c4-23c6-4daf-b341-1f375f963ef4"},"vehicle_type_id":"4","last_reported":1746054618,"current_range_meters":16800,"station_id":"cki0cbj6b192h4jlfktg","pricing_plan_id":"cebpf4jnsgd1na2vs0mg"},{"bike_id":"dc2dfdc7-73a2-4f18-837a-0677b3a23fbe","system_id":"levelo_inurba_marseille","lat":43.33594,"lon":5.41022,"is_reserved":false,"is_disabled":false,"rental_uris":{"android":"levelo://app?vid=dc2dfdc7-73a2-4f18-837a-0677b3a23fbe","ios":"levelo://app?vid=dc2dfdc7-73a2-4f18-837a-0677b3a23fbe"},"vehicle_type_id":"4","last_reported":1746054618,"current_range_meters":16800,"station_id":"ce4bhqh2rcd13ifvqhmg","pricing_plan_id":"cebpf4jnsgd1na2vs0mg"},{"bike_id":"58e61467-50db-4ef1-a23a-155c99fb9f5b","system_id":"levelo_inurba_marseille","lat":43.31494,"lon":5.373,"is_reserved":false,"is_disabled":false,"rental_uris":{"android":"levelo://app?vid=58e61467-50db-4ef1-a23a-155c99fb9f5b","ios":"levelo://app?vid=58e61467-50db-4ef1-a23a-155c99fb9f5b"},"vehicle_type_id":"4","last_reported":1746054618,"current_range_meters":17200,"station_id":"ce4bgt12rcd13ifvqcd0","pricing_plan_id":"cebpf4jnsgd1na2vs0mg"},{"bike_id":"2c0692ec-a666-43c9-a2f7-d62f933cb885","system_id":"levelo_inurba_marseille","lat":43.29262,"lon":5.40908,"is_reserved":false,"is_disabled":false,"rental_uris":{"android":"levelo://app?vid=2c0692ec-a666-43c9-a2f7-d62f933cb885","ios":"levelo://app?vid=2c0692ec-a666-43c9-a2f7-d62f933cb885"},"vehicle_type_id":"4","last_reported":1746054618,"current_range_meters":16800,"station_id":"ce4bh192rcd13ifvqdc0","pricing_plan_id":"cebpf4jnsgd1na2vs0mg"},{"bike_id":"30511a93-9f0a-4619-aa5a-1c772d9b1231","system_id":"levelo_inurba_marseille","lat":43.29957,"lon":5.4132,"is_reserved":false,"is_disabled":false,"rental_uris":{"android":"levelo://app?vid=30511a93-9f0a-4619-aa5a-1c772d9b1231","ios":"levelo://app?vid=30511a93-9f0a-4619-aa5a-1c772d9b1231"},"vehicle_type_id":"4","last_reported":1746054618,"current_range_meters":17200,"station_id":"ce4bhp12rcd13ifvqh9g","pricing_plan_id":"cebpf4jnsgd1na2vs0mg"},{"bike_id":"e14f59a5-0222-4844-97b7-07de15de0abb","system_id":"levelo_inurba_marseille","lat":43.30582,"lon":5.37206,"is_reserved":false,"is_disabled":false,"rental_uris":{"android":"levelo://app?vid=e14f59a5-0222-4844-97b7-07de15de0abb","ios":"levelo://app?vid=e14f59a5-0222-4844-97b7-07de15de0abb"},"vehicle_type_id":"4","last_reported":1746054618,"current_range_meters":17200,"station_id":"ce4bgqh2rcd13ifvqc4g","pricing_plan_id":"cebpf4jnsgd1na2vs0mg"},{"bike_id":"eda4293a-5528-450f-bd2e-cf110722c831","system_id":"levelo_inurba_marseille","lat":43.3173,"lon":5.42392,"is_reserved":false,"is_disabled":false,"rental_uris":{"android":"levelo://app?vid=eda4293a-5528-450f-bd2e-cf110722c831","ios":"levelo://app?vid=eda4293a-5528-450f-bd2e-cf110722c831"},"vehicle_type_id":"4","last_reported":1746054618,"current_range_meters":17200,"station_id":"ce4bhp92rcd13ifvqhbg","pricing_plan_id":"cebpf4jnsgd1na2vs0mg"},{"bike_id":"c63897fa-85ae-464a-bc10-49ac520ec75c","system_id":"levelo_inurba_marseille","lat":43.27808,"lon":5.4071,"is_reserved":false,"is_disabled":false,"rental_uris":{"android":"levelo://app?vid=c63897fa-85ae-464a-bc10-49ac520ec75c","ios":"levelo://app?vid=c63897fa-85ae-464a-bc10-49ac520ec75c"},"vehicle_type_id":"4","last_reported":1746054618,"current_range_meters":17200,"station_id":"ce4bhnh2rcd13ifvqgtg","pricing_plan_id":"cebpf4jnsgd1na2vs0mg"},{"bike_id":"bc859335-0d0f-4be2-a38c-1f16424b9cb4","system_id":"levelo_inurba_marseille","lat":43.28079,"lon":5.39654,"is_reserved":false,"is_disabled":false,"rental_uris":{"android":"levelo://app?vid=bc859335-0d0f-4be2-a38c-1f16424b9cb4","ios":"levelo://app?vid=bc859335-0d0f-4be2-a38c-1f16424b9cb4"},"vehicle_type_id":"4","last_reported":1746054618,"current_range_meters":17200,"station_id":"ce4bho12rcd13ifvqh2g","pricing_plan_id":"cebpf4jnsgd1na2vs0mg"},{"bike_id":"36cd9195-0913-492b-806e-82644c5b2cfb","system_id":"levelo_inurba_marseille","lat":43.27423,"lon":5.39419,"is_reserved":false,"is_disabled":false,"rental_uris":{"android":"levelo://app?vid=36cd9195-0913-492b-806e-82644c5b2cfb","ios":"levelo://app?vid=36cd9195-0913-492b-806e-82644c5b2cfb"},"vehicle_type_id":"4","last_reported":1746054618,"current_range_meters":17200,"station_id":"ce4bhdp2rcd13ifvqf20","pricing_plan_id":"cebpf4jnsgd1na2vs0mg"},{"bike_id":"b1b4d74f-092b-476b-abae-f60870c92748","system_id":"levelo_inurba_marseille","lat":43.25094,"lon":5.39527,"is_reserved":false,"is_disabled":false,"rental_uris":{"android":"levelo://app?vid=b1b4d74f-092b-476b-abae-f60870c92748","ios":"levelo://app?vid=b1b4d74f-092b-476b-abae-f60870c92748"},"vehicle_type_id":"4","last_reported":1746054618,"current_range_meters":17600,"station_id":"ce4bhm12rcd13ifvqgkg","pricing_plan_id":"cebpf4jnsgd1na2vs0mg"},{"bike_id":"105ffea5-2499-4f85-9991-784a7d24e273","system_id":"levelo_inurba_marseille","lat":43.2847,"lon":5.35874,"is_reserved":false,"is_disabled":false,"rental_uris":{"android":"levelo://app?vid=105ffea5-2499-4f85-9991-784a7d24e273","ios":"levelo://app?vid=105ffea5-2499-4f85-9991-784a7d24e273"},"vehicle_type_id":"4","last_reported":1746054618,"current_range_meters":17600,"station_id":"ce4bhah2rcd13ifvqei0","pricing_plan_id":"cebpf4jnsgd1na2vs0mg"},{"bike_id":"03599276-5e0a-44f6-918f-21df64f6e246","system_id":"levelo_inurba_marseille","lat":43.3026,"lon":5.40077,"is_reserved":false,"is_disabled":false,"rental_uris":{"android":"levelo://app?vid=03599276-5e0a-44f6-918f-21df64f6e246","ios":"levelo://app?vid=03599276-5e0a-44f6-918f-21df64f6e246"},"vehicle_type_id":"4","last_reported":1746054618,"current_range_meters":17200,"station_id":"ce4bgvh2rcd13ifvqcs0","pricing_plan_id":"cebpf4jnsgd1na2vs0mg"},{"bike_id":"b83f5607-a228-4cfe-8c56-ad92f785f2d2","system_id":"levelo_inurba_marseille","lat":43.28349,"lon":5.38108,"is_reserved":false,"is_disabled":false,"rental_uris":{"android":"levelo://app?vid=b83f5607-a228-4cfe-8c56-ad92f785f2d2","ios":"levelo://app?vid=b83f5607-a228-4cfe-8c56-ad92f785f2d2"},