{"last_updated":1741467960,"ttl":60,"version":"2.2","data":{"bikes":[{"bike_id":"e3565dcf-4d34-49d7-919b-1234920ea466","system_id":"levelo_inurba_marseille","lat":43.33746,"lon":5.3745,"is_reserved":false,"is_disabled":false,"rental_uris":{"android":"levelo://app?vid=e3565dcf-4d34-49d7-919b-1234920ea466","ios":"levelo://app?vid=e3565dcf-4d34-49d7-919b-1234920ea466"},"vehicle_type_id":"4","last_reported":1741467960,"current_range_meters":34800,"station_id":"","pricing_plan_id":"cebpf4jnsgd1na2vs0mg"},{"bike_id":"2d61ec87-0577-43ad-a521-fdb089acfcf2","system_id":"levelo_inurba_marseille","lat":43.30947,"lon":5.39049,"is_reserved":false,"is_disabled":true,"rental_uris":{"android":"levelo://app?vid=2d61ec87-0577-43ad-a521-fdb089acfcf2","ios":"levelo://app?vid=2d61ec87-0577-43ad-a521-fdb089acfcf2"},"vehicle_type_id":"4","last_reported":1741467960,"current_range_meters":0,"station_id":"","pricing_plan_id":"cebpf4jnsgd1na2vs0mg"},{"bike_id":"bb09aed0-5712-4b75-9abf-57a7804b664c","system_id":"levelo_inurba_marseille","lat":43.29221,"lon":5.35788,"is_reserved":false,"is_disabled":true,"rental_uris":{"android":"levelo://app?vid=bb09aed0-5712-4b75-9abf-57a7804b664c","ios":"levelo://app?vid=bb09aed0-5712-4b75-9abf-57a7804b664c"},"vehicle_type_id":"4","last_reported":1741467960,"current_range_meters":0,"station_id":"","pricing_plan_id":"cebpf4jnsgd1na2vs0mg"},{"bike_id":"de10dad3-cc48-400a-922c-cca5bf1a3a20","system_id":"levelo_inurba_marseille","lat":43.29301,"lon":5.36999,"is_reserved":false,"is_disabled":true,"rental_uris":{"android":"levelo://app?vid=de10dad3-cc48-400a-922c-cca5bf1a3a20","ios":"levelo://app?vid=de10dad3-cc48-400a-922c-cca5bf1a3a20"},"vehicle_type_id":"4","last_reported":1741467960,"current_range_meters":0,"station_id":"","pricing_plan_id":"cebpf4jnsgd1na2vs0mg"},{"bike_id":"84fd8a9d-d33c-4402-bbe4-001e62a7f660","system_id":"levelo_inurba_marseille","lat":43.26563,"lon":5.39874,"is_reserved":false,"is_disabled":true,"rental_uris":{"android":"levelo://app?vid=84fd8a9d-d33c-4402-bbe4-001e62a7f660","ios":"levelo://app?vid=84fd8a9d-d33c-4402-bbe4-001e62a7f660"},"vehicle_type_id":"4","last_reported":1741467960,"current_range_meters":0,"station_id":"","pricing_plan_id":"cebpf4jnsgd1na2vs0mg"},{"bike_id":"ee1d2ad1-36ca-49dd-a328-f2a9a9994ecb","system_id":"levelo_inurba_marseille","lat":43.310869,"lon":5.38131,"is_reserved":false,"is_disabled":true,"rental_uris":{"android":"levelo://app?vid=ee1d2ad1-36ca-49dd-a328-f2a9a9994ecb","ios":"levelo://app?vid=ee1d2ad1-36ca-49dd-a328-f2a9a9994ecb"},"vehicle_type_id":"4","last_reported":1741467960,"current_range_meters":0,"station_id":"","pricing_plan_id":"cebpf4jnsgd1na2vs0mg"},{"bike_id":"b50fa2d4-accd-4f93-9200-8176d7ca2493","system_id":"levelo_inurba_marseille","lat":43.26888,"lon":5.39328,"is_reserved":false,"is_disabled":true,"rental_uris":{"android":"levelo://app?vid=b50fa2d4-accd-4f93-9200-8176d7ca2493","ios":"levelo://app?vid=b50fa2d4-accd-4f93-9200-8176d7ca2493"},"vehicle_type_id":"4","last_reported":1741467960,"current_range_meters":0,"station_id":"","pricing_plan_id":"cebpf4jnsgd1na2vs0mg"},{"bike_id":"4a17d1b8-749f-4ead-8e77-3be80208c84b","system_id":"levelo_inurba_marseille","lat":43.2809,"lon":5.39847,"is_reserved":false,"is_disabled":true,"rental_uris":{"android":"levelo://app?vid=4a17d1b8-749f-4ead-8e77-3be80208c84b","ios":"levelo://app?vid=4a17d1b8-749f-4ead-8e77-3be80208c84b"},"vehicle_type_id":"4","last_reported":1741467960,"current_range_meters":0,"station_id":"","pricing_plan_id":"cebpf4jnsgd1na2vs0mg"},{"bike_id":"9c2a65ea-f853-4980-96dd-92ca8e872fcd","system_id":"levelo_inurba_marseille","lat":43.24882,"lon":5.40925,"is_reserved":false,"is_disabled":true,"rental_uris":{"android":"levelo://app?vid=9c2a65ea-f853-4980-96dd-92ca8e872fcd","ios":"levelo://app?vid=9c2a65ea-f853-4980-96dd-92ca8e872fcd"},"vehicle_type_id":"4","last_reported":1741467960,"current_range_meters":0,"station_id":"","pricing_plan_id":"cebpf4jnsgd1na2vs0mg"},{"bike_id":"80f45231-658c-466e-8af1-7330fb29f5d1","system_id":"levelo_inurba_marseille","lat":43.30297,"lon":5.39216,"is_reserved":false,"is_disabled":true,"rental_uris":{"android":"levelo://app?vid=80f45231-658c-466e-8af1-7330fb29f5d1","ios":"levelo://app?vid=80f45231-658c-466e-8af1-7330fb29f5d1"},"vehicle_type_id":"4","last_reported":1741467960,"current_range_meters":0,"station_id":"ce4bgkh2rcd13ifvqbk0","pricing_plan_id":"cebpf4jnsgd1na2vs0mg"},{"bike_id":"cb1fa34d-af5f-4537-a45c-95a918b8cb12","system_id":"levelo_inurba_marseille","lat":43.31698,"lon":5.40447,"is_reserved":false,"is_disabled":true,"rental_uris":{"android":"levelo://app?vid=cb1fa34d-af5f-4537-a45c-95a918b8cb12","ios":"levelo://app?vid=cb1fa34d-af5f-4537-a45c-95a918b8cb12"},"vehicle_type_id":"4","last_reported":1741467960,"current_range_meters":0,"station_id":"ce4bh012rcd13ifvqd00","pricing_plan_id":"cebpf4jnsgd1na2vs0mg"},{"bike_id":"63ae37f3-40b4-470c-ab47-0be4cd4bc168","system_id":"levelo_inurba_marseille","lat":43.31267,"lon":5.4017,"is_reserved":false,"is_disabled":true,"rental_uris":{"android":"levelo://app?vid=63ae37f3-40b4-470c-ab47-0be4cd4bc168","ios":"levelo://app?vid=63ae37f3-40b4-470c-ab47-0be4cd4bc168"},"vehicle_type_id":"4","last_reported":1741467960,"current_range_meters":0,"station_id":"ce4bh092rcd13ifvqd30","pricing_plan_id":"cebpf4jnsgd1na2vs0mg"},{"bike_id":"3c6bed57-d33a-45f6-8efa-0109dfe7c5ca","system_id":"levelo_inurba_marseille","lat":43.30563,"lon":5.38406,"is_reserved":false,"is_disabled":true,"rental_uris":{"android":"levelo://app?vid=3c6bed57-d33a-45f6-8efa-0109dfe7c5ca","ios":"levelo://app?vid=3c6bed57-d33a-45f6-8efa-0109dfe7c5ca"},"vehicle_type_id":"4","last_reported":1741467960,"current_range_meters":0,"station_id":"ce4bh3p2rcd13ifvqdp0","pricing_plan_id":"cebpf4jnsgd1na2vs0mg"},{"bike_id":"2f2d7246-8f5b-4fdc-8001-65662929a61c","system_id":"levelo_inurba_marseille","lat":43.28031,"lon":5.3695,"is_reserved":false,"is_disabled":true,"rental_uris":{"android":"levelo://app?vid=2f2d7246-8f5b-4fdc-8001-65662929a61c","ios":"levelo://app?vid=2f2d7246-8f5b-4fdc-8001-65662929a61c"},"vehicle_type_id":"4","last_reported":1741467960,"current_range_meters":0,"station_id":"ce4bha12rcd13ifvqef0","pricing_plan_id":"cebpf4jnsgd1na2vs0mg"},{"bike_id":"018a0131-6ef8-44aa-8450-054e1dacd21d","system_id":"levelo_inurba_marseille","lat":43.27904,"lon":5.39594,"is_reserved":false,"is_disabled":true,"rental_uris":{"android":"levelo://app?vid=018a0131-6ef8-44aa-8450-054e1dacd21d","ios":"levelo://app?vid=018a0131-6ef8-44aa-8450-054e1dacd21d"},"vehicle_type_id":"4","last_reported":1741467960,"current_range_meters":0,"station_id":"ce4bhf92rcd13ifvqf40","pricing_plan_id":"cebpf4jnsgd1na2vs0mg"},{"bike_id":"8b399cb8-2899-49f6-b534-79e49a56496f","system_id":"levelo_inurba_marseille","lat":43.2656,"lon":5.37274,"is_reserved":false,"is_disabled":true,"rental_uris":{"android":"levelo://app?vid=8b399cb8-2899-49f6-b534-79e49a56496f","ios":"levelo://app?vid=8b399cb8-2899-49f6-b534-79e49a56496f"},"vehicle_type_id":"4","last_reported":1741467960,"current_range_meters":0,"station_id":"ce4bhg12rcd13ifvqf70","pricing_plan_id":"cebpf4jnsgd1na2vs0mg"},{"bike_id":"36212135-4ae7-49d0-8704-82f5f1908ce1","system_id":"levelo_inurba_marseille","lat":43.24816,"lon":5.37458,"is_reserved":false,"is_disabled":true,"rental_uris":{"android":"levelo://app?vid=36212135-4ae7-49d0-8704-82f5f1908ce1","ios":"levelo://app?vid=36212135-4ae7-49d0-8704-82f5f1908ce1"},"vehicle_type_id":"4","last_reported":1741467960,"current_range_meters":0,"station_id":"ce4bhgh2rcd13ifvqfb0","pricing_plan_id":"cebpf4jnsgd1na2vs0mg"},{"bike_id":"9abc57ce-1c0c-45dc-becb-f31907480e47","system_id":"levelo_inurba_marseille","lat":43.27211,"lon":5.39183,"is_reserved":false,"is_disabled":true,"rental_uris":{"android":"levelo://app?vid=9abc57ce-1c0c-45dc-becb-f31907480e47","ios":"levelo://app?vid=9abc57ce-1c0c-45dc-becb-f31907480e47"},"vehicle_type_id":"4","last_reported":1741467960,"current_range_meters":0,"station_id":"ce4bhhp2rcd13ifvqfm0","pricing_plan_id":"cebpf4jnsgd1na2vs0mg"},{"bike_id":"5261c4cf-cfd0-4e36-b8d8-f1d6907bde78","system_id":"levelo_inurba_marseille","lat":43.27209,"lon":5.39184,"is_reserved":false,"is_disabled":true,"rental_uris":{"android":"levelo://app?vid=5261c4cf-cfd0-4e36-b8d8-f1d6907bde78","ios":"levelo://app?vid=5261c4cf-cfd0-4e36-b8d8-f1d6907bde78"},"vehicle_type_id":"4","last_reported":1741467960,"current_range_meters":0,"station_id":"ce4bhhp2rcd13ifvqfm0","pricing_plan_id":"cebpf4jnsgd1na2vs0mg"},{"bike_id":"11e4afb8-2975-4dfd-ab69-7eb0b3f8bcae","system_id":"levelo_inurba_marseille","lat":43.27658,"lon":5.38908,"is_reserved":false,"is_disabled":true,"rental_uris":{"android":"levelo://app?vid=11e4afb8-2975-4dfd-ab69-7eb0b3f8bcae","ios":"levelo://app?vid=11e4afb8-2975-4dfd-ab69-7eb0b3f8bcae"},"vehicle_type_id":"4","last_reported":1741467960,"current_range_meters":0,"station_id":"ce4bhi12rcd13ifvqfo0","pricing_plan_id":"cebpf4jnsgd1na2vs0mg"},{"bike_id":"2aecb751-613a-4962-8ece-c07d3cb9eae1","system_id":"levelo_inurba_marseille","lat":43.27671,"lon":5.38918,"is_reserved":false,"is_disabled":true,"rental_uris":{"android":"levelo://app?vid=2aecb751-613a-4962-8ece-c07d3cb9eae1","ios":"levelo://app?vid=2aecb751-613a-4962-8ece-c07d3cb9eae1"},"vehicle_type_id":"4","last_reported":1741467960,"current_range_meters":0,"station_id":"ce4bhi12rcd13ifvqfo0","pricing_plan_id":"cebpf4jnsgd1na2vs0mg"},{"bike_id":"a1a5466f-01d4-4cdf-af89-2c69cb2c6302","system_id":"levelo_inurba_marseille","lat":43.24664,"lon":5.38157,"is_reserved":false,"is_disabled":true,"rental_uris":{"android":"levelo://app?vid=a1a5466f-01d4-4cdf-af89-2c69cb2c6302","ios":"levelo://app?vid=a1a5466f-01d4-4cdf-af89-2c69cb2c6302"},"vehicle_type_id":"4","last_reported":1741467960,"current_range_meters":0,"station_id":"ce4bhih2rcd13ifvqfr0","pricing_plan_id":"cebpf4jnsgd1na2vs0mg"},{"bike_id":"4cd6b98a-d54e-4330-96a5-5b20bee35b6e","system_id":"levelo_inurba_marseille","lat":43.25939,"lon":5.40905,"is_reserved":false,"is_disabled":true,"rental_uris":{"android":"levelo://app?vid=4cd6b98a-d54e-4330-96a5-5b20bee35b6e","ios":"levelo://app?vid=4cd6b98a-d54e-4330-96a5-5b20bee35b6e"},"vehicle_type_id":"4","last_reported":1741467960,"current_range_meters":0,"station_id":"ce4bhm92rcd13ifvqglg","pricing_plan_id":"cebpf4jnsgd1na2vs0mg"},{"bike_id":"e2bc65eb-fd4c-423c-8315-ca079109124e","system_id":"levelo_inurba_marseille","lat":43.2418,"lon":5.39732,"is_reserved":false,"is_disabled":true,"rental_uris":{"android":"levelo://app?vid=e2bc65eb-fd4c-423c-8315-ca079109124e","ios":"levelo://app?vid=e2bc65eb-fd4c-423c-8315-ca079109124e"},"vehicle_type_id":"4","last_reported":1741467960,"current_range_meters":0,"station_id":"ce4bhn12rcd13ifvqgpg","pricing_plan_id":"cebpf4jnsgd1na2vs0mg"},{"bike_id":"1135acae-ac5a-4bfd-b672-ba43119031b6","system_id":"levelo_inurba_marseille","lat":43.24184,"lon":5.39747,"is_reserved":false,"is_disabled":true,"rental_uris":{"android":"levelo://app?vid=1135acae-ac5a-4bfd-b672-ba43119031b6","ios":"levelo://app?vid=1135acae-ac5a-4bfd-b672-ba43119031b6"},"vehicle_type_id":"4","last_reported":1741467960,"current_range_meters":0,"station_id":"ce4bhn12rcd13ifvqgpg","pricing_plan_id":"cebpf4jnsgd1na2vs0mg"},{"bike_id":"d262983a-dfbe-40d7-94e2-8bbca71026af","system_id":"levelo_inurba_marseille","lat":43.29551,"lon":5.42291,"is_reserved":false,"is_disabled":true,"rental_uris":{"android":"levelo://app?vid=d262983a-dfbe-40d7-94e2-8bbca71026af","ios":"levelo://app?vid=d262983a-dfbe-40d7-94e2-8bbca71026af"},"vehicle_type_id":"4","last_reported":1741467960,"current_range_meters":0,"station_id":"ce4bhph2rcd13ifvqhdg","pricing_plan_id":"cebpf4jnsgd1na2vs0mg"},{"bike_id":"2ac6b12a-25d9-47fc-8555-7c0ea34f2525","system_id":"levelo_inurba_marseille","lat":43.32541,"lon":5.41418,"is_reserved":false,"is_disabled":true,"rental_uris":{"android":"levelo://app?vid=2ac6b12a-25d9-47fc-8555-7c0ea34f2525","ios":"levelo://app?vid=2ac6b12a-25d9-47fc-8555-7c0ea34f2525"},"vehicle_type_id":"4","last_reported":1741467960,"current_range_meters":0,"station_id":"ce4bhq12rcd13ifvqhhg","pricing_plan_id":"cebpf4jnsgd1na2vs0mg"},{"bike_id":"c48d54df-5c9c-4ed7-a738-27c5a76cb7ce","system_id":"levelo_inurba_marseille","lat":43.23189,"lon":5.35559,"is_reserved":false,"is_disabled":true,"rental_uris":{"android":"levelo://app?vid=c48d54df-5c9c-4ed7-a738-27c5a76cb7ce","ios":"levelo://app?vid=c48d54df-5c9c-4ed7-a738-27c5a76cb7ce"},"vehicle_type_id":"4","last_reported":1741467960,"current_range_meters":0,"station_id":"ce4bhu92rcd13ifvqi70","pricing_plan_id":"cebpf4jnsgd1na2vs0mg"},{"bike_id":"8fc94196-6820-44cb-994c-10605b39e6c6","system_id":"levelo_inurba_marseille","lat":43.31214,"lon":5.36903,"is_reserved":false,"is_disabled":true,"rental_uris":{"android":"levelo://app?vid=8fc94196-6820-44cb-994c-10605b39e6c6","ios":"levelo://app?vid=8fc94196-6820-44cb-994c-10605b39e6c6"},"vehicle_type_id":"4","last_reported":1741467960,"current_range_meters":400,"station_id":"ce4bgl92rcd13ifvqbq0","pricing_plan_id":"cebpf4jnsgd1na2vs0mg"},{"bike_id":"fac72be8-51bb-4bc1-863b-d8526a9ac11f","system_id":"levelo_inurba_marseille","lat":43.29418,"lon":5.38621,"is_reserved":false,"is_disabled":true,"rental_uris":{"android":"levelo://app?vid=fac72be8-51bb-4bc1-863b-d8526a9ac11f","ios":"levelo://app?vid=fac72be8-51bb-4bc1-863b-d8526a9ac11f"},"vehicle_type_id":"4","last_reported":1741467960,"current_range_meters":400,"station_id":"ce4bh2h2rcd13ifvqdh0","pricing_plan_id":"cebpf4jnsgd1na2vs0mg"},{"bike_id":"3ee2bda3-47f3-467d-97bc-86e6798f8ab0","system_id":"levelo_inurba_marseille","lat":43.27938,"lon":5.38714,"is_reserved":false,"is_disabled":true,"rental_uris":{"android":"levelo://app?vid=3ee2bda3-47f3-467d-97bc-86e6798f8ab0","ios":"levelo://app?vid=3ee2bda3-47f3-467d-97bc-86e6798f8ab0"},"vehicle_type_id":"4","last_reported":1741467960,"current_range_meters":400,"station_id":"ce4bhg12rcd13ifvqf80","pricing_plan_id":"cebpf4jnsgd1na2vs0mg"},{"bike_id":"fb631cb5-81a4-4b42-ab9d-3b2a12998d93","system_id":"levelo_inurba_marseille","lat":43.2441,"lon":5.37057,"is_reserved":false,"is_disabled":true,"rental_uris":{"android":"levelo://app?vid=fb631cb5-81a4-4b42-ab9d-3b2a12998d93","ios":"levelo://app?vid=fb631cb5-81a4-4b42-ab9d-3b2a12998d93"},"vehicle_type_id":"4","last_reported":1741467960,"current_range_meters":400,"station_id":"ce4bhhh2rcd13ifvqfk0","pricing_plan_id":"cebpf4jnsgd1na2vs0mg"},{"bike_id":"dfb06809-4278-4685-b4e2-d0007d8e61c1","system_id":"levelo_inurba_marseille","lat":43.29947,"lon":5.36545,"is_reserved":false,"is_disabled":true,"rental_uris":{"android":"levelo://app?vid=dfb06809-4278-4685-b4e2-d0007d8e61c1","ios":"levelo://app?vid=dfb06809-4278-4685-b4e2-d0007d8e61c1"},"vehicle_type_id":"4","last_reported":1741467960,"current_range_meters":800,"station_id":"ce4bgm92rcd13ifvqbr0","pricing_plan_id":"cebpf4jnsgd1na2vs0mg"},{"bike_id":"0ea97ee9-e343-48c9-82d8-96b6a014257e","system_id":"levelo_inurba_marseille","lat":43.27976,"lon":5.38715,"is_reserved":false,"is_disabled":true,"rental_uris":{"android":"levelo://app?vid=0ea97ee9-e343-48c9-82d8-96b6a014257e","ios":"levelo://app?vid=0ea97ee9-e343-48c9-82d8-96b6a014257e"},"vehicle_type_id":"4","last_reported":1741467960,"current_range_meters":800,"station_id":"ce4bhg12rcd13ifvqf80","pricing_plan_id":"cebpf4jnsgd1na2vs0mg"},{"bike_id":"0fa42f93-3d75-4ce2-a5b9-1646dbabb910","system_id":"levelo_inurba_marseille","lat":43.26801,"lon":5.39405,"is_reserved":false,"is_disabled":true,"rental_uris":{"android":"levelo://app?vid=0fa42f93-3d75-4ce2-a5b9-1646dbabb910","ios":"levelo://app?vid=0fa42f93-3d75-4ce2-a5b9-1646dbabb910"},"vehicle_type_id":"4","last_reported":1741467960,"current_range_meters":800,"station_id":"ce4bhh12rcd13ifvqfg0","pricing_plan_id":"cebpf4jnsgd1na2vs0mg"},{"bike_id":"510282fe-4f06-4665-9a1e-d99c128a9522","system_id":"levelo_inurba_marseille","lat":43.333695,"lon":5.396515,"is_reserved":false,"is_disabled":true,"rental_uris":{"android":"levelo://app?vid=510282fe-4f06-4665-9a1e-d99c128a9522","ios":"levelo://app?vid=510282fe-4f06-4665-9a1e-d99c128a9522"},"vehicle_type_id":"4","last_reported":1741467960,"current_range_meters":1200,"station_id":"","pricing_plan_id":"cebpf4jnsgd1na2vs0mg"},{"bike_id":"e090c7da-5809-47b5-aae3-76193464a901","system_id":"levelo_inurba_marseille","lat":43.29598,"lon":5.38162,"is_reserved":false,"is_disabled":true,"rental_uris":{"android":"levelo://app?vid=e090c7da-5809-47b5-aae3-76193464a901","ios":"levelo://app?vid=e090c7da-5809-47b5-aae3-76193464a901"},"vehicle_type_id":"4","last_reported":1741467960,"current_range_meters":1200,"station_id":"ce4bgl12rcd13ifvqbo0","pricing_plan_id":"cebpf4jnsgd1na2vs0mg"},{"bike_id":"e24533c9-2437-41a8-b09c-6207ae63a4af","system_id":"levelo_inurba_marseille","lat":43.26031,"lon":5.37568,"is_reserved":false,"is_disabled":true,"rental_uris":{"android":"levelo://app?vid=e24533c9-2437-41a8-b09c-6207ae63a4af","ios":"levelo://app?vid=e24533c9-2437-41a8-b09c-6207ae63a4af"},"vehicle_type_id":"4","last_reported":1741467960,"current_range_meters":1200,"station_id":"ce4bhgh2rcd13ifvqfa0","pricing_plan_id":"cebpf4jnsgd1na2vs0mg"},{"bike_id":"ccac3438-a6f8-42eb-b049-1949fc56894a","system_id":"levelo_inurba_marseille","lat":43.2396,"lon":5.36639,"is_reserved":false,"is_disabled":true,"rental_uris":{"android":"levelo://app?vid=ccac3438-a6f8-42eb-b049-1949fc56894a","ios":"levelo://app?vid=ccac3438-a6f8-42eb-b049-1949fc56894a"},"vehicle_type_id":"4","last_reported":1741467960,"current_range_meters":1200,"station_id":"ce4bhi12rcd13ifvqfp0","pricing_plan_id":"cebpf4jnsgd1na2vs0mg"},{"bike_id":"db2d8560-cf19-4c95-9ecc-d69a70a5c838","system_id":"levelo_inurba_marseille","lat":43.25087,"lon":5.39502,"is_reserved":false,"is_disabled":true,"rental_uris":{"android":"levelo://app?vid=db2d8560-cf19-4c95-9ecc-d69a70a5c838","ios":"levelo://app?vid=db2d8560-cf19-4c95-9ecc-d69a70a5c838"},"vehicle_type_id":"4","last_reported":1741467960,"current_range_meters":1200,"station_id":"ce4bhm12rcd13ifvqgkg","pricing_plan_id":"cebpf4jnsgd1na2vs0mg"},{"bike_id":"43bc5e18-7bfb-4e30-b758-942e653f0d5a","system_id":"levelo_inurba_marseille","lat":43.246313,"lon":5.402665,"is_reserved":false,"is_disabled":true,"rental_uris":{"android":"levelo://app?vid=43bc5e18-7bfb-4e30-b758-942e653f0d5a","ios":"levelo://app?vid=43bc5e18-7bfb-4e30-b758-942e653f0d5a"},"vehicle_type_id":"4","last_reported":1741467960,"current_range_meters":1600,"station_id":"","pricing_plan_id":"cebpf4jnsgd1na2vs0mg"},{"bike_id":"7e465d3d-3b90-4824-8612-604cbbd73021","system_id":"levelo_inurba_marseille","lat":43.30134,"lon":5.39864,"is_reserved":false,"is_disabled":true,"rental_uris":{"android":"levelo://app?vid=7e465d3d-3b90-4824-8612-604cbbd73021","ios":"levelo://app?vid=7e465d3d-3b90-4824-8612-604cbbd73021"},"vehicle_type_id":"4","last_reported":1741467960,"current_range_meters":1600,"station_id":"ce4bh0h2rcd13ifvqd40","pricing_plan_id":"cebpf4jnsgd1na2vs0mg"},{"bike_id":"b2d09530-ac81-4616-ad81-09170f7311d3","system_id":"levelo_inurba_marseille","lat":43.26194,"lon":5.37431,"is_reserved":false,"is_disabled":true,"rental_uris":{"android":"levelo://app?vid=b2d09530-ac81-4616-ad81-09170f7311d3","ios":"levelo://app?vid=b2d09530-ac81-4616-ad81-09170f7311d3"},"vehicle_type_id":"4","last_reported":1741467960,"current_range_meters":1600,"station_id":"ce4bhgp2rcd13ifvqfc0","pricing_plan_id":"cebpf4jnsgd1na2vs0mg"},{"bike_id":"ec87f67c-b0f1-4af6-bac9-4e1b8c1f63e0","system_id":"levelo_inurba_marseille","lat":43.26483,"lon":5.39544,"is_reserved":false,"is_disabled":true,"rental_uris":{"android":"levelo://app?vid=ec87f67c-b0f1-4af6-bac9-4e1b8c1f63e0","ios":"levelo://app?vid=ec87f67c-b0f1-4af6-bac9-4e1b8c1f63e0"},"vehicle_type_id":"4","last_reported":1741467960,"current_range_meters":1600,"station_id":"ce4bhi12rcd13ifvqfq0","pricing_plan_id":"cebpf4jnsgd1na2vs0mg"},{"bike_id":"40fffde5-0995-47b2-b8e4-c8f9b93e400c","system_id":"levelo_inurba_marseille","lat":43.26223,"lon":5.40446,"is_reserved":false,"is_disabled":true,"rental_uris":{"android":"levelo://app?vid=40fffde5-0995-47b2-b8e4-c8f9b93e400c","ios":"levelo://app?vid=40fffde5-0995-47b2-b8e4-c8f9b93e400c"},"vehicle_type_id":"4","last_reported":1741467960,"current_range_meters":1600,"station_id":"ce4bhmh2rcd13ifvqgmg","pricing_plan_id":"cebpf4jnsgd1na2vs0mg"},{"bike_id":"9a2eb955-54a3-432f-93b1-4c7d6d8dd25d","system_id":"levelo_inurba_marseille","lat":43.23198,"lon":5.39968,"is_reserved":false,"is_disabled":true,"rental_uris":{"android":"levelo://app?vid=9a2eb955-54a3-432f-93b1-4c7d6d8dd25d","ios":"levelo://app?vid=9a2eb955-54a3-432f-93b1-4c7d6d8dd25d"},"vehicle_type_id":"4","last_reported":1741467960,"current_range_meters":1600,"station_id":"ce4bhn12rcd13ifvqgqg","pricing_plan_id":"cebpf4jnsgd1na2vs0mg"},{"bike_id":"53ba06d6-3b6c-4f49-bc80-8f7e1937ded3","system_id":"levelo_inurba_marseille","lat":43.2789,"lon":5.41254,"is_reserved":false,"is_disabled":true,"rental_uris":{"android":"levelo://app?vid=53ba06d6-3b6c-4f49-bc80-8f7e1937ded3","ios":"levelo://app?vid=53ba06d6-3b6c-4f49-bc80-8f7e1937ded3"},"vehicle_type_id":"4","last_reported":1741467960,"current_range_meters":2000,"station_id":"","pricing_plan_id":"cebpf4jnsgd1na2vs0mg"},{"bike_id":"4cacebdd-ac3f-485a-b554-b846ab325bf9","system_id":"levelo_inurba_marseille","lat":43.31245,"lon":5.36944,"is_reserved":false,"is_disabled":true,"rental_uris":{"android":"levelo://app?vid=4cacebdd-ac3f-485a-b554-b846ab325bf9","ios":"levelo://app?vid=4cacebdd-ac3f-485a-b554-b846ab325bf9"},"vehicle_type_id":"4","last_reported":1741467960,"current_range_meters":2000,"station_id":"ce4bgl92rcd13ifvqbq0","pricing_plan_id":"cebpf4jnsgd1na2vs0mg"},{"bike_id":"98e60829-f81a-4fc7-beb0-5c1fe349f961","system_id":"levelo_inurba_marseille","lat":43.28028,"lon":5.36944,"is_reserved":false,"is_disabled":true,"rental_uris":{"android":"levelo://app?vid=98e60829-f81a-4fc7-beb0-5c1fe349f961","ios":"levelo://app?vid=98e60829-f81a-4fc7-beb0-5c1fe349f961"},"vehicle_type_id":"4","last_reported":1741467960,"current_range_meters":2000,"station_id":"ce4bha12rcd13ifvqef0","pricing_plan_id":"cebpf4jnsgd1na2vs0mg"},{"bike_id":"d9395f0b-f59e-438e-a2a7-b5eee31b0ba9","system_id":"levelo_inurba_marseille","lat":43.25011,"lon":5.38917,"is_reserved":false,"is_disabled":true,"rental_uris":{"android":"levelo://app?vid=d9395f0b-f59e-438e-a2a7-b5eee31b0ba9","ios":"levelo://app?vid=d9395f0b-f59e-438e-a2a7-b5eee31b0ba9"},"vehicle_type_id":"4","last_reported":1741467960,"current_range_meters":2000,"station_id":"ce4bhgp2rcd13ifvqfd0","pricing_plan_id":"cebpf4jnsgd1na2vs0mg"},{"bike_id":"36940aee-c59c-49d9-8723-4c2757978650","system_id":"levelo_inurba_marseille","lat":43.27228,"lon":5.39208,"is_reserved":false,"is_disabled":true,"rental_uris":{"android":"levelo://app?vid=36940aee-c59c-49d9-8723-4c2757978650","ios":"levelo://app?vid=36940aee-c59c-49d9-8723-4c2757978650"},"vehicle_type_id":"4","last_reported":1741467960,"current_range_meters":2000,"station_id":"ce4bhhp2rcd13ifvqfm0","pricing_plan_id":"cebpf4jnsgd1na2vs0mg"},{"bike_id":"73927c3d-e7e0-4273-88c3-69e3fa3d1b2a","system_id":"levelo_inurba_marseille","lat":43.26959,"lon":5.3864,"is_reserved":false,"is_disabled":true,"rental_uris":{"android":"levelo://app?vid=73927c3d-e7e0-4273-88c3-69e3fa3d1b2a","ios":"levelo://app?vid=73927c3d-e7e0-4273-88c3-69e3fa3d1b2a"},"vehicle_type_id":"4","last_reported":1741467960,"current_range_meters":2000,"station_id":"ce4bhm12rcd13ifvqgkg","pricing_plan_id":"cebpf4jnsgd1na2vs0mg"},{"bike_id":"da45a08b-182e-4d36-9246-7e1e8ed625ec","system_id":"levelo_inurba_marseille","lat":43.29009,"lon":5.38142,"is_reserved":false,"is_disabled":false,"rental_uris":{"android":"levelo://app?vid=da45a08b-182e-4d36-9246-7e1e8ed625ec","ios":"levelo://app?vid=da45a08b-182e-4d36-9246-7e1e8ed625ec"},"vehicle_type_id":"4","last_reported":1741467960,"current_range_meters":2800,"station_id":"ce4bh4p2rcd13ifvqe1g","pricing_plan_id":"cebpf4jnsgd1na2vs0mg"},{"bike_id":"f90efa61-82d5-4b97-b63e-fd11981af807","system_id":"levelo_inurba_marseille","lat":43.24805,"lon":5.37455,"is_reserved":false,"is_disabled":false,"rental_uris":{"android":"levelo://app?vid=f90efa61-82d5-4b97-b63e-fd11981af807","ios":"levelo://app?vid=f90efa61-82d5-4b97-b63e-fd11981af807"},"vehicle_type_id":"4","last_reported":1741467960,"current_range_meters":2800,"station_id":"ce4bhgh2rcd13ifvqfb0","pricing_plan_id":"cebpf4jnsgd1na2vs0mg"},{"bike_id":"496b97ad-3573-4da5-8ba5-88192ba165c0","system_id":"levelo_inurba_marseille","lat":43.2732,"lon":5.39082,"is_reserved":false,"is_disabled":false,"rental_uris":{"android":"levelo://app?vid=496b97ad-3573-4da5-8ba5-88192ba165c0","ios":"levelo://app?vid=496b97ad-3573-4da5-8ba5-88192ba165c0"},"vehicle_type_id":"4","last_reported":1741467960,"current_range_meters":2800,"station_id":"ce4bhgp2rcd13ifvqfe0","pricing_plan_id":"cebpf4jnsgd1na2vs0mg"},{"bike_id":"0f637d6f-79f8-4f82-9beb-659c54ae18b4","system_id":"levelo_inurba_marseille","lat":43.26198,"lon":5.4043,"is_reserved":false,"is_disabled":false,"rental_uris":{"android":"levelo://app?vid=0f637d6f-79f8-4f82-9beb-659c54ae18b4","ios":"levelo://app?vid=0f637d6f-79f8-4f82-9beb-659c54ae18b4"},"vehicle_type_id":"4","last_reported":1741467960,"current_range_meters":2800,"station_id":"ce4bhmh2rcd13ifvqgmg","pricing_plan_id":"cebpf4jnsgd1na2vs0mg"},{"bike_id":"4ed10b44-88a8-4dec-99db-545daad23c1c","system_id":"levelo_inurba_marseille","lat":43.23962,"lon":5.36643,"is_reserved":false,"is_disabled":false,"rental_uris":{"android":"levelo://app?vid=4ed10b44-88a8-4dec-99db-545daad23c1c","ios":"levelo://app?vid=4ed10b44-88a8-4dec-99db-545daad23c1c"},"vehicle_type_id":"4","last_reported":1741467960,"current_range_meters":3200,"station_id":"ce4bhi12rcd13ifvqfp0","pricing_plan_id":"cebpf4jnsgd1na2vs0mg"},{"bike_id":"3020232d-5c4b-4eb9-8587-f92291d190d5","system_id":"levelo_inurba_marseille","lat":43.32657,"lon":5.40996,"is_reserved":false,"is_disabled":false,"rental_uris":{"android":"levelo://app?vid=3020232d-5c4b-4eb9-8587-f92291d190d5","ios":"levelo://app?vid=3020232d-5c4b-4eb9-8587-f92291d190d5"},"vehicle_type_id":"4","last_reported":1741467960,"current_range_meters":3200,"station_id":"ce4bhpp2rcd13ifvqhgg","pricing_plan_id":"cebpf4jnsgd1na2vs0mg"},{"bike_id":"ef841903-cdc0-4227-af7f-cb9f26dc3c9b","system_id":"levelo_inurba_marseille","lat":43.3141,"lon":5.3927,"is_reserved":false,"is_disabled":false,"rental_uris":{"android":"levelo://app?vid=ef841903-cdc0-4227-af7f-cb9f26dc3c9b","ios":"levelo://app?vid=ef841903-cdc0-4227-af7f-cb9f26dc3c9b"},"vehicle_type_id":"4","last_reported":1741467960,"current_range_meters":3600,"station_id":"","pricing_plan_id":"cebpf4jnsgd1na2vs0mg"},{"bike_id":"5919d275-8d20-4f87-ac0c-e895604f5e13","system_id":"levelo_inurba_marseille","lat":43.30882,"lon":5.37192,"is_reserved":false,"is_disabled":false,"rental_uris":{"android":"levelo://app?vid=5919d275-8d20-4f87-ac0c-e895604f5e13","ios":"levelo://app?vid=5919d275-8d20-4f87-ac0c-e895604f5e13"},"vehicle_type_id":"4","last_reported":1741467960,"current_range_meters":3600,"station_id":"ce4bguh2rcd13ifvqckg","pricing_plan_id":"cebpf4jnsgd1na2vs0mg"},{"bike_id":"8680ef64-82c6-4c49-8fbf-a6d47f3a7cce","system_id":"levelo_inurba_marseille","lat":43.30923,"lon":5.40142,"is_reserved":false,"is_disabled":false,"rental_uris":{"android":"levelo://app?vid=8680ef64-82c6-4c49-8fbf-a6d47f3a7cce","ios":"levelo://app?vid=8680ef64-82c6-4c49-8fbf-a6d47f3a7cce"},"vehicle_type_id":"4","last_reported":1741467960,"current_range_meters":3600,"station_id":"ce4bgvp2rcd13ifvqct0","pricing_plan_id":"cebpf4jnsgd1na2vs0mg"},{"bike_id":"a55361f6-d537-46dc-be46-9be582d1a6c5","system_id":"levelo_inurba_marseille","lat":43.26949,"lon":5.38631,"is_reserved":false,"is_disabled":false,"rental_uris":{"android":"levelo://app?vid=a55361f6-d537-46dc-be46-9be582d1a6c5","ios":"levelo://app?vid=a55361f6-d537-46dc-be46-9be582d1a6c5"},"vehicle_type_id":"4","last_reported":1741467960,"current_range_meters":3600,"station_id":"ce4bhh92rcd13ifvqfh0","pricing_plan_id":"cebpf4jnsgd1na2vs0mg"},{"bike_id":"56c927e2-f46d-474b-b950-c871f4e254ee","system_id":"levelo_inurba_marseille","lat":43.290317,"lon":5.3748,"is_reserved":false,"is_disabled":false,"rental_uris":{"android":"levelo://app?vid=56c927e2-f46d-474b-b950-c871f4e254ee","ios":"levelo://app?vid=56c927e2-f46d-474b-b950-c871f4e254ee"},"vehicle_type_id":"4","last_reported":1741467960,"current_range_meters":3600,"station_id":"ce4bhl12rcd13ifvqgf0","pricing_plan_id":"cebpf4jnsgd1na2vs0mg"},{"bike_id":"04cac416-f980-4f10-a1db-76cb911255b8","system_id":"levelo_inurba_marseille","lat":43.32358,"lon":5.36758,"is_reserved":false,"is_disabled":false,"rental_uris":{"android":"levelo://app?vid=04cac416-f980-4f10-a1db-76cb911255b8","ios":"levelo://app?vid=04cac416-f980-4f10-a1db-76cb911255b8"},"vehicle_type_id":"4","last_reported":1741467960,"current_range_meters":3600,"station_id":"ce4bhsh2rcd13ifvqi2g","pricing_plan_id":"cebpf4jnsgd1na2vs0mg"},{"bike_id":"6e5c1ec0-55c7-428f-ab14-fe8ef478e880","system_id":"levelo_inurba_marseille","lat":43.32084,"lon":5.4012,"is_reserved":false,"is_disabled":false,"rental_uris":{"android":"levelo://app?vid=6e5c1ec0-55c7-428f-ab14-fe8ef478e880","ios":"levelo://app?vid=6e5c1ec0-55c7-428f-ab14-fe8ef478e880"},"vehicle_type_id":"4","last_reported":1741467960,"current_range_meters":4000,"station_id":"","pricing_plan_id":"cebpf4jnsgd1na2vs0mg"},{"bike_id":"9ed116aa-ba84-4d8c-8453-4f389c37f24d","system_id":"levelo_inurba_marseille","lat":43.30325,"lon":5.4043,"is_reserved":false,"is_disabled":false,"rental_uris":{"android":"levelo://app?vid=9ed116aa-ba84-4d8c-8453-4f389c37f24d","ios":"levelo://app?vid=9ed116aa-ba84-4d8c-8453-4f389c37f24d"},"vehicle_type_id":"4","last_reported":1741467960,"current_range_meters":4000,"station_id":"ce4bh012rcd13ifvqd10","pricing_plan_id":"cebpf4jnsgd1na2vs0mg"},{"bike_id":"70a48b30-c2c8-4771-95f5-650081824e6b","system_id":"levelo_inurba_marseille","lat":43.27568,"lon":5.38414,"is_reserved":false,"is_disabled":false,"rental_uris":{"android":"levelo://app?vid=70a48b30-c2c8-4771-95f5-650081824e6b","ios":"levelo://app?vid=70a48b30-c2c8-4771-95f5-650081824e6b"},"vehicle_type_id":"4","last_reported":1741467960,"current_range_meters":4000,"station_id":"ce4bhh92rcd13ifvqfi0","pricing_plan_id":"cebpf4jnsgd1na2vs0mg"},{"bike_id":"9f22fbb6-a380-4b54-b337-75d43e2de561","system_id":"levelo_inurba_marseille","lat":43.25091,"lon":5.39519,"is_reserved":false,"is_disabled":false,"rental_uris":{"android":"levelo://app?vid=9f22fbb6-a380-4b54-b337-75d43e2de561","ios":"levelo://app?vid=9f22fbb6-a380-4b54-b337-75d43e2de561"},"vehicle_type_id":"4","last_reported":1741467960,"current_range_meters":4000,"station_id":"ce4bhm12rcd13ifvqgkg","pricing_plan_id":"cebpf4jnsgd1na2vs0mg"},{"bike_id":"e28530a2-235f-4ed9-af74-83b22ca01721","system_id":"levelo_inurba_marseille","lat":43.31271,"lon":5.40171,"is_reserved":false,"is_disabled":false,"rental_uris":{"android":"levelo://app?vid=e28530a2-235f-4ed9-af74-83b22ca01721","ios":"levelo://app?vid=e28530a2-235f-4ed9-af74-83b22ca01721"},"vehicle_type_id":"4","last_reported":1741467960,"current_range_meters":4400,"station_id":"ce4bh092rcd13ifvqd30","pricing_plan_id":"cebpf4jnsgd1na2vs0mg"},{"bike_id":"db361612-8186-4e1c-a8a1-a778740c3e27","system_id":"levelo_inurba_marseille","lat":43.26066,"lon":5.39399,"is_reserved":false,"is_disabled":false,"rental_uris":{"android":"levelo://app?vid=db361612-8186-4e1c-a8a1-a778740c3e27","ios":"levelo://app?vid=db361612-8186-4e1c-a8a1-a778740c3e27"},"vehicle_type_id":"4","last_reported":1741467960,"current_range_meters":4400,"station_id":"ce4bhh92rcd13ifvqfj0","pricing_plan_id":"cebpf4jnsgd1na2vs0mg"},{"bike_id":"247b4340-3338-49f7-b20d-e36de088bbb8","system_id":"levelo_inurba_marseille","lat":43.2925,"lon":5.42652,"is_reserved":false,"is_disabled":false,"rental_uris":{"android":"levelo://app?vid=247b4340-3338-49f7-b20d-e36de088bbb8","ios":"levelo://app?vid=247b4340-3338-49f7-b20d-e36de088bbb8"},"vehicle_type_id":"4","last_reported":1741467960,"current_range_meters":4800,"station_id":"","pricing_plan_id":"cebpf4jnsgd1na2vs0mg"},{"bike_id":"cf8661bc-fee9-494a-8f13-615307c50d1c","system_id":"levelo_inurba_marseille","lat":43.32786,"lon":5.39162,"is_reserved":false,"is_disabled":false,"rental_uris":{"android":"levelo://app?vid=cf8661bc-fee9-494a-8f13-615307c50d1c","ios":"levelo://app?vid=cf8661bc-fee9-494a-8f13-615307c50d1c"},"vehicle_type_id":"4","last_reported":1741467960,"current_range_meters":4800,"station_id":"","pricing_plan_id":"cebpf4jnsgd1na2vs0mg"},{"bike_id":"b07ee627-53d4-4b0b-82f2-8c10c915cccd","system_id":"levelo_inurba_marseille","lat":43.30121,"lon":5.39865,"is_reserved":false,"is_disabled":false,"rental_uris":{"android":"levelo://app?vid=b07ee627-53d4-4b0b-82f2-8c10c915cccd","ios":"levelo://app?vid=b07ee627-53d4-4b0b-82f2-8c10c915cccd"},"vehicle_type_id":"4","last_reported":1741467960,"current_range_meters":4800,"station_id":"ce4bh0h2rcd13ifvqd40","pricing_plan_id":"cebpf4jnsgd1na2vs0mg"},{"bike_id":"1111c850-27c7-4759-b22d-1f894c3ddca9","system_id":"levelo_inurba_marseille","lat":43.30612,"lon":5.3935,"is_reserved":false,"is_disabled":false,"rental_uris":{"android":"levelo://app?vid=1111c850-27c7-4759-b22d-1f894c3ddca9","ios":"levelo://app?vid=1111c850-27c7-4759-b22d-1f894c3ddca9"},"vehicle_type_id":"4","last_reported":1741467960,"current_range_meters":4800,"station_id":"ce4bh0p2rcd13ifvqd80","pricing_plan_id":"cebpf4jnsgd1na2vs0mg"},{"bike_id":"f5d853ae-919b-43b3-be75-cc2d944d4e90","system_id":"levelo_inurba_marseille","lat":43.28681,"lon":5.38662,"is_reserved":false,"is_disabled":false,"rental_uris":{"android":"levelo://app?vid=f5d853ae-919b-43b3-be75-cc2d944d4e90","ios":"levelo://app?vid=f5d853ae-919b-43b3-be75-cc2d944d4e90"},"vehicle_type_id":"4","last_reported":1741467960,"current_range_meters":4800,"station_id":"ce4bh492rcd13ifvqdug","pricing_plan_id":"cebpf4jnsgd1na2vs0mg"},{"bike_id":"5d4e4574-6498-4372-afcd-f02df8652fd1","system_id":"levelo_inurba_marseille","lat":43.25722,"lon":5.41113,"is_reserved":false,"is_disabled":false,"rental_uris":{"android":"levelo://app?vid=5d4e4574-6498-4372-afcd-f02df8652fd1","ios":"levelo://app?vid=5d4e4574-6498-4372-afcd-f02df8652fd1"},"vehicle_type_id":"4","last_reported":1741467960,"current_range_meters":4800,"station_id":"ce4bhkp2rcd13ifvqgd0","pricing_plan_id":"cebpf4jnsgd1na2vs0mg"},{"bike_id":"82b29a48-b593-40a3-a023-49c1a7ca6f53","system_id":"levelo_inurba_marseille","lat":43.24387,"lon":5.37065,"is_reserved":false,"is_disabled":false,"rental_uris":{"android":"levelo://app?vid=82b29a48-b593-40a3-a023-49c1a7ca6f53","ios":"levelo://app?vid=82b29a48-b593-40a3-a023-49c1a7ca6f53"},"vehicle_type_id":"4","last_reported":1741467960,"current_range_meters":5600,"station_id":"ce4bhhh2rcd13ifvqfk0","pricing_plan_id":"cebpf4jnsgd1na2vs0mg"},{"bike_id":"8310cde6-c1e7-4f34-9185-55193707cf9d","system_id":"levelo_inurba_marseille","lat":43.27811,"lon":5.40725,"is_reserved":false,"is_disabled":false,"rental_uris":{"android":"levelo://app?vid=8310cde6-c1e7-4f34-9185-55193707cf9d","ios":"levelo://app?vid=8310cde6-c1e7-4f34-9185-55193707cf9d"},"vehicle_type_id":"4","last_reported":1741467960,"current_range_meters":5600,"station_id":"ce4bhnh2rcd13ifvqgtg","pricing_plan_id":"cebpf4jnsgd1na2vs0mg"},{"bike_id":"60e1fe0f-c1dd-449c-85d9-a3dd616d061a","system_id":"levelo_inurba_marseille","lat":43.23189,"lon":5.35502,"is_reserved":false,"is_disabled":false,"rental_uris":{"android":"levelo://app?vid=60e1fe0f-c1dd-449c-85d9-a3dd616d061a","ios":"levelo://app?vid=60e1fe0f-c1dd-449c-85d9-a3dd616d061a"},"vehicle_type_id":"4","last_reported":1741467960,"current_range_meters":5600,"station_id":"ce4bhu92rcd13ifvqi70","pricing_plan_id":"cebpf4jnsgd1na2vs0mg"},{"bike_id":"1b63c0b1-6366-449d-8957-2184245860e0","system_id":"levelo_inurba_marseille","lat":43.29523,"lon":5.37491,"is_reserved":false,"is_disabled":false,"rental_uris":{"android":"levelo://app?vid=1b63c0b1-6366-449d-8957-2184245860e0","ios":"levelo://app?vid=1b63c0b1-6366-449d-8957-2184245860e0"},"vehicle_type_id":"4","last_reported":1741467960,"current_range_meters":6000,"station_id":"ce4bgkp2rcd13ifvqbmg","pricing_plan_id":"cebpf4jnsgd1na2vs0mg"},{"bike_id":"246565e0-566c-4071-8e9e-eb980b2e3570","system_id":"levelo_inurba_marseille","lat":43.29533,"lon":5.38549,"is_reserved":false,"is_disabled":false,"rental_uris":{"android":"levelo://app?vid=246565e0-566c-4071-8e9e-eb980b2e3570","ios":"levelo://app?vid=246565e0-566c-4071-8e9e-eb980b2e3570"},"vehicle_type_id":"4","last_reported":1741467960,"current_range_meters":6400,"station_id":"ce4bgih2rcd13ifvqba0","pricing_plan_id":"cebpf4jnsgd1na2vs0mg"},{"bike_id":"27305ad5-3fc8-47a3-9c3d-1a17f119d9fa","system_id":"levelo_inurba_marseille","lat":43.25081,"lon":5.39505,"is_reserved":false,"is_disabled":false,"rental_uris":{"android":"levelo://app?vid=27305ad5-3fc8-47a3-9c3d-1a17f119d9fa","ios":"levelo://app?vid=27305ad5-3fc8-47a3-9c3d-1a17f119d9fa"},"vehicle_type_id":"4","last_reported":1741467960,"current_range_meters":6400,"station_id":"ce4bhm12rcd13ifvqgkg","pricing_plan_id":"cebpf4jnsgd1na2vs0mg"},{"bike_id":"414c5dc9-b378-4437-ad3e-c9007df2b5fb","system_id":"levelo_inurba_marseille","lat":43.2623,"lon":5.40447,"is_reserved":false,"is_disabled":false,"rental_uris":{"android":"levelo://app?vid=414c5dc9-b378-4437-ad3e-c9007df2b5fb","ios":"levelo://app?vid=414c5dc9-b378-4437-ad3e-c9007df2b5fb"},"vehicle_type_id":"4","last_reported":1741467960,"current_range_meters":6400,"station_id":"ce4bhmh2rcd13ifvqgmg","pricing_plan_id":"cebpf4jnsgd1na2vs0mg"},{"bike_id":"e5c2f9a0-d065-4e10-9bff-a9a02c7dbc80","system_id":"levelo_inurba_marseille","lat":43.29891,"lon":5.43634,"is_reserved":false,"is_disabled":false,"rental_uris":{"android":"levelo://app?vid=e5c2f9a0-d065-4e10-9bff-a9a02c7dbc80","ios":"levelo://app?vid=e5c2f9a0-d065-4e10-9bff-a9a02c7dbc80"},"vehicle_type_id":"4","last_reported":1741467960,"current_range_meters":6400,"station_id":"ce4bhpp2rcd13ifvqhfg","pricing_plan_id":"cebpf4jnsgd1na2vs0mg"},{"bike_id":"43900f3a-f33b-4012-b4bc-ba37bd85dcda","system_id":"levelo_inurba_marseille","lat":43.29415,"lon":5.3863,"is_reserved":false,"is_disabled":false,"rental_uris":{"android":"levelo://app?vid=43900f3a-f33b-4012-b4bc-ba37bd85dcda","ios":"levelo://app?vid=43900f3a-f33b-4012-b4bc-ba37bd85dcda"},"vehicle_type_id":"4","last_reported":1741467960,"current_range_meters":6800,"station_id":"ce4bh2h2rcd13ifvqdh0","pricing_plan_id":"cebpf4jnsgd1na2vs0mg"},{"bike_id":"8bf9cecf-521c-4484-8ec2-870992587567","system_id":"levelo_inurba_marseille","lat":43.29419,"lon":5.3862,"is_reserved":false,"is_disabled":false,"rental_uris":{"android":"levelo://app?vid=8bf9cecf-521c-4484-8ec2-870992587567","ios":"levelo://app?vid=8bf9cecf-521c-4484-8ec2-870992587567"},"vehicle_type_id":"4","last_reported":1741467960,"current_range_meters":6800,"station_id":"ce4bh2h2rcd13ifvqdh0","pricing_plan_id":"cebpf4jnsgd1na2vs0mg"},{"bike_id":"ed8f7f27-25d5-483e-9a90-2580abb6b858","system_id":"levelo_inurba_marseille","lat":43.29256,"lon":5.38443,"is_reserved":false,"is_disabled":false,"rental_uris":{"android":"levelo://app?vid=ed8f7f27-25d5-483e-9a90-2580abb6b858","ios":"levelo://app?vid=ed8f7f27-25d5-483e-9a90-2580abb6b858"},"vehicle_type_id":"4","last_reported":1741467960,"current_range_meters":6800,"station_id":"ce4bh692rcd13ifvqea0","pricing_plan_id":"cebpf4jnsgd1na2vs0mg"},{"bike_id":"e73fb96e-0764-498c-88ac-adb20e0dd955","system_id":"levelo_inurba_marseille","lat":43.26066,"lon":5.39399,"is_reserved":false,"is_disabled":false,"rental_uris":{"android":"levelo://app?vid=e73fb96e-0764-498c-88ac-adb20e0dd955","ios":"levelo://app?vid=e73fb96e-0764-498c-88ac-adb20e0dd955"},"vehicle_type_id":"4","last_reported":1741467960,"current_range_meters":6800,"station_id":"ce4bhh92rcd13ifvqfj0","pricing_plan_id":"cebpf4jnsgd1na2vs0mg"},{"bike_id":"24eab6f7-5b40-4e15-a267-f117df0d4ccf","system_id":"levelo_inurba_marseille","lat":43.23962,"lon":5.36643,"is_reserved":false,"is_disabled":false,"rental_uris":{"android":"levelo://app?vid=24eab6f7-5b40-4e15-a267-f117df0d4ccf","ios":"levelo://app?vid=24eab6f7-5b40-4e15-a267-f117df0d4ccf"},"vehicle_type_id":"4","last_reported":1741467960,"current_range_meters":6800,"station_id":"ce4bhi12rcd13ifvqfp0","pricing_plan_id":"cebpf4jnsgd1na2vs0mg"},{"bike_id":"ff69b590-8439-4948-a50c-f9b899fda469","system_id":"levelo_inurba_marseille","lat":43.23972,"lon":5.36623,"is_reserved":false,"is_disabled":false,"rental_uris":{"android":"levelo://app?vid=ff69b590-8439-4948-a50c-f9b899fda469","ios":"levelo://app?vid=ff69b590-8439-4948-a50c-f9b899fda469"},"vehicle_type_id":"4","last_reported":1741467960,"current_range_meters":6800,"station_id":"ce4bhi12rcd13ifvqfp0","pricing_plan_id":"cebpf4jnsgd1na2vs0mg"},{"bike_id":"04027f9f-3617-4d0f-8003-b61a82d55757","system_id":"levelo_inurba_marseille","lat":43.27818,"lon":5.40701,"is_reserved":false,"is_disabled":false,"rental_uris":{"android":"levelo://app?vid=04027f9f-3617-4d0f-8003-b61a82d55757","ios":"levelo://app?vid=04027f9f-3617-4d0f-8003-b61a82d55757"},"vehicle_type_id":"4","last_reported":1741467960,"current_range_meters":6800,"station_id":"ce4bhnh2rcd13ifvqgtg","pricing_plan_id":"cebpf4jnsgd1na2vs0mg"},{"bike_id":"25305dbe-974d-481a-8296-0926ee678627","system_id":"levelo_inurba_marseille","lat":43.24076,"lon":5.37765,"is_reserved":false,"is_disabled":false,"rental_uris":{"android":"levelo://app?vid=25305dbe-974d-481a-8296-0926ee678627","ios":"levelo://app?vid=25305dbe-974d-481a-8296-0926ee678627"},"vehicle_type_id":"4","last_reported":1741467960,"current_range_meters":6800,"station_id":"ce4bhnp2rcd13ifvqgvg","pricing_plan_id":"cebpf4jnsgd1na2vs0mg"},{"bike_id":"a8f484f1-d47f-4ef2-b175-70c6757421df","system_id":"levelo_inurba_marseille","lat":43.30541,"lon":5.3692,"is_reserved":false,"is_disabled":false,"rental_uris":{"android":"levelo://app?vid=a8f484f1-d47f-4ef2-b175-70c6757421df","ios":"levelo://app?vid=a8f484f1-d47f-4ef2-b175-70c6757421df"},"vehicle_type_id":"4","last_reported":1741467960,"current_range_meters":7200,"station_id":"","pricing_plan_id":"cebpf4jnsgd1na2vs0mg"},{"bike_id":"60fba7df-4520-4d63-9c5b-9a7a002cedfb","system_id":"levelo_inurba_marseille","lat":43.28021,"lon":5.39131,"is_reserved":false,"is_disabled":false,"rental_uris":{"android":"levelo://app?vid=60fba7df-4520-4d63-9c5b-9a7a002cedfb","ios":"levelo://app?vid=60fba7df-4520-4d63-9c5b-9a7a002cedfb"},"vehicle_type_id":"4","last_reported":1741467960,"current_range_meters":7200,"station_id":"","pricing_plan_id":"cebpf4jnsgd1na2vs0mg"},{"bike_id":"d04764b2-721c-4149-b1b8-42d1c3ceb1a5","system_id":"levelo_inurba_marseille","lat":43.3136,"lon":5.38495,"is_reserved":false,"is_disabled":false,"rental_uris":{"android":"levelo://app?vid=d04764b2-721c-4149-b1b8-42d1c3ceb1a5","ios":"levelo://app?vid=d04764b2-721c-4149-b1b8-42d1c3ceb1a5"},"vehicle_type_id":"4","last_reported":1741467960,"current_range_meters":7200,"station_id":"ce4bgt92rcd13ifvqcf0","pricing_plan_id":"cebpf4jnsgd1na2vs0mg"},{"bike_id":"5ca996c0-0a80-44d1-8537-8549724f9f29","system_id":"levelo_inurba_marseille","lat":43.26784,"lon":5.39418,"is_reserved":false,"is_disabled":false,"rental_uris":{"android":"levelo://app?vid=5ca996c0-0a80-44d1-8537-8549724f9f29","ios":"levelo://app?vid=5ca996c0-0a80-44d1-8537-8549724f9f29"},"vehicle_type_id":"4","last_reported":1741467960,"current_range_meters":7200,"station_id":"ce4bhh12rcd13ifvqfg0","pricing_plan_id":"cebpf4jnsgd1na2vs0mg"},{"bike_id":"5288f7d5-930d-45a8-bab2-bb08912ffd7d","system_id":"levelo_inurba_marseille","lat":43.2695,"lon":5.38649,"is_reserved":false,"is_disabled":false,"rental_uris":{"android":"levelo://app?vid=5288f7d5-930d-45a8-bab2-bb08912ffd7d","ios":"levelo://app?vid=5288f7d5-930d-45a8-bab2-bb08912ffd7d"},"vehicle_type_id":"4","last_reported":1741467960,"current_range_meters":7200,"station_id":"ce4bhh92rcd13ifvqfh0","pricing_plan_id":"cebpf4jnsgd1na2vs0mg"},{"bike_id":"7d295ec4-9c0e-4850-9c53-dd65645b97b2","system_id":"levelo_inurba_marseille","lat":43.260607,"lon":5.393907,"is_reserved":false,"is_disabled":false,"rental_uris":{"android":"levelo://app?vid=7d295ec4-9c0e-4850-9c53-dd65645b97b2","ios":"levelo://app?vid=7d295ec4-9c0e-4850-9c53-dd65645b97b2"},"vehicle_type_id":"4","last_reported":1741467960,"current_range_meters":7200,"station_id":"ce4bhh92rcd13ifvqfj0","pricing_plan_id":"cebpf4jnsgd1na2vs0mg"},{"bike_id":"21dda7ec-58bd-4ec5-b46b-7fc383d9774f","system_id":"levelo_inurba_marseille","lat":43.32047,"lon":5.41534,"is_reserved":false,"is_disabled":false,"rental_uris":{"android":"levelo://app?vid=21dda7ec-58bd-4ec5-b46b-7fc383d9774f","ios":"levelo://app?vid=21dda7ec-58bd-4ec5-b46b-7fc383d9774f"},"vehicle_type_id":"4","last_reported":1741467960,"current_range_meters":7200,"station_id":"ce4bhq92rcd13ifvqhkg","pricing_plan_id":"cebpf4jnsgd1na2vs0mg"},{"bike_id":"53bd1732-d8ff-41a5-8f1b-42274afdde26","system_id":"levelo_inurba_marseille","lat":43.29335,"lon":5.42819,"is_reserved":false,"is_disabled":false,"rental_uris":{"android":"levelo://app?vid=53bd1732-d8ff-41a5-8f1b-42274afdde26","ios":"levelo://app?vid=53bd1732-d8ff-41a5-8f1b-42274afdde26"},"vehicle_type_id":"4","last_reported":1741467960,"current_range_meters":8000,"station_id":"","pricing_plan_id":"cebpf4jnsgd1na2vs0mg"},{"bike_id":"64f4ef8a-1c6c-46c3-ae62-8e05492b6515","system_id":"levelo_inurba_marseille","lat":43.31441,"lon":5.3923,"is_reserved":false,"is_disabled":false,"rental_uris":{"android":"levelo://app?vid=64f4ef8a-1c6c-46c3-ae62-8e05492b6515","ios":"levelo://app?vid=64f4ef8a-1c6c-46c3-ae62-8e05492b6515"},"vehicle_type_id":"4","last_reported":1741467960,"current_range_meters":8000,"station_id":"","pricing_plan_id":"cebpf4jnsgd1na2vs0mg"},{"bike_id":"747c6040-43e2-4eef-863e-e11c89365cc4","system_id":"levelo_inurba_marseille","lat":43.31203,"lon":5.36848,"is_reserved":false,"is_disabled":false,"rental_uris":{"android":"levelo://app?vid=747c6040-43e2-4eef-863e-e11c89365cc4","ios":"levelo://app?vid=747c6040-43e2-4eef-863e-e11c89365cc4"},"vehicle_type_id":"4","last_reported":1741467960,"current_range_meters":8000,"station_id":"ce4bgl92rcd13ifvqbq0","pricing_plan_id":"cebpf4jnsgd1na2vs0mg"},{"bike_id":"aec2f0f3-386d-48a7-8774-d71f8fab2826","system_id":"levelo_inurba_marseille","lat":43.27915,"lon":5.39585,"is_reserved":false,"is_disabled":false,"rental_uris":{"android":"levelo://app?vid=aec2f0f3-386d-48a7-8774-d71f8fab2826","ios":"levelo://app?vid=aec2f0f3-386d-48a7-8774-d71f8fab2826"},"vehicle_type_id":"4","last_reported":1741467960,"current_range_meters":8000,"station_id":"ce4bhf92rcd13ifvqf40","pricing_plan_id":"cebpf4jnsgd1na2vs0mg"},{"bike_id":"21b363e8-386f-49ae-a31e-ee1cf97cc543","system_id":"levelo_inurba_marseille","lat":43.26555,"lon":5.37281,"is_reserved":false,"is_disabled":false,"rental_uris":{"android":"levelo://app?vid=21b363e8-386f-49ae-a31e-ee1cf97cc543","ios":"levelo://app?vid=21b363e8-386f-49ae-a31e-ee1cf97cc543"},"vehicle_type_id":"4","last_reported":1741467960,"current_range_meters":8000,"station_id":"ce4bhg12rcd13ifvqf70","pricing_plan_id":"cebpf4jnsgd1na2vs0mg"},{"bike_id":"f4fef931-b4a2-4ebe-bec3-6b00147f7cb2","system_id":"levelo_inurba_marseille","lat":43.27315,"lon":5.39113,"is_reserved":false,"is_disabled":false,"rental_uris":{"android":"levelo://app?vid=f4fef931-b4a2-4ebe-bec3-6b00147f7cb2","ios":"levelo://app?vid=f4fef931-b4a2-4ebe-bec3-6b00147f7cb2"},"vehicle_type_id":"4","last_reported":1741467960,"current_range_meters":8000,"station_id":"ce4bhgp2rcd13ifvqfe0","pricing_plan_id":"cebpf4jnsgd1na2vs0mg"},{"bike_id":"c0b10922-0901-419f-ad58-f92f5000eaf2","system_id":"levelo_inurba_marseille","lat":43.26775,"lon":5.3942,"is_reserved":false,"is_disabled":false,"rental_uris":{"android":"levelo://app?vid=c0b10922-0901-419f-ad58-f92f5000eaf2","ios":"levelo://app?vid=c0b10922-0901-419f-ad58-f92f5000eaf2"},"vehicle_type_id":"4","last_reported":1741467960,"current_range_meters":8000,"station_id":"ce4bhh12rcd13ifvqfg0","pricing_plan_id":"cebpf4jnsgd1na2vs0mg"},{"bike_id":"445f5ccc-731a-484d-b373-ff618ed50dbb","system_id":"levelo_inurba_marseille","lat":43.26952,"lon":5.38645,"is_reserved":false,"is_disabled":false,"rental_uris":{"android":"levelo://app?vid=445f5ccc-731a-484d-b373-ff618ed50dbb","ios":"levelo://app?vid=445f5ccc-731a-484d-b373-ff618ed50dbb"},"vehicle_type_id":"4","last_reported":1741467960,"current_range_meters":8000,"station_id":"ce4bhh92rcd13ifvqfh0","pricing_plan_id":"cebpf4jnsgd1na2vs0mg"},{"bike_id":"99121d6d-76c3-4940-bf6e-13375dbd5bf4","system_id":"levelo_inurba_marseille","lat":43.23964,"lon":5.36639,"is_reserved":false,"is_disabled":false,"rental_uris":{"android":"levelo://app?vid=99121d6d-76c3-4940-bf6e-13375dbd5bf4","ios":"levelo://app?vid=99121d6d-76c3-4940-bf6e-13375dbd5bf4"},"vehicle_type_id":"4","last_reported":1741467960,"current_range_meters":8000,"station_id":"ce4bhi12rcd13ifvqfp0","pricing_plan_id":"cebpf4jnsgd1na2vs0mg"},{"bike_id":"8968ebf0-976e-4199-a05d-0b5eb90e8fa7","system_id":"levelo_inurba_marseille","lat":43.257189,"lon":5.411106,"is_reserved":false,"is_disabled":false,"rental_uris":{"android":"levelo://app?vid=8968ebf0-976e-4199-a05d-0b5eb90e8fa7","ios":"levelo://app?vid=8968ebf0-976e-4199-a05d-0b5eb90e8fa7"},"vehicle_type_id":"4","last_reported":1741467960,"current_range_meters":8000,"station_id":"ce4bhkp2rcd13ifvqgd0","pricing_plan_id":"cebpf4jnsgd1na2vs0mg"},{"bike_id":"6d0356cd-03ed-4a8b-97c7-0e2dd8952c4d","system_id":"levelo_inurba_marseille","lat":43.31706,"lon":5.43712,"is_reserved":false,"is_disabled":false,"rental_uris":{"android":"levelo://app?vid=6d0356cd-03ed-4a8b-97c7-0e2dd8952c4d","ios":"levelo://app?vid=6d0356cd-03ed-4a8b-97c7-0e2dd8952c4d"},"vehicle_type_id":"4","last_reported":1741467960,"current_range_meters":8000,"station_id":"ce4bhp92rcd13ifvqhcg","pricing_plan_id":"cebpf4jnsgd1na2vs0mg"},{"bike_id":"b6d4299b-4fdb-4612-927d-2e81bbe91b45","system_id":"levelo_inurba_marseille","lat":43.32117,"lon":5.36769,"is_reserved":false,"is_disabled":false,"rental_uris":{"android":"levelo://app?vid=b6d4299b-4fdb-4612-927d-2e81bbe91b45","ios":"levelo://app?vid=b6d4299b-4fdb-4612-927d-2e81bbe91b45"},"vehicle_type_id":"4","last_reported":1741467960,"current_range_meters":8000,"station_id":"ce4bhrh2rcd13ifvqhug","pricing_plan_id":"cebpf4jnsgd1na2vs0mg"},{"bike_id":"4c63458e-2db0-4cb3-bfc1-7ab137c5f028","system_id":"levelo_inurba_marseille","lat":43.26946,"lon":5.40262,"is_reserved":false,"is_disabled":false,"rental_uris":{"android":"levelo://app?vid=4c63458e-2db0-4cb3-bfc1-7ab137c5f028","ios":"levelo://app?vid=4c63458e-2db0-4cb3-bfc1-7ab137c5f028"},"vehicle_type_id":"4","last_reported":1741467960,"current_range_meters":8000,"station_id":"cjm6bp8fraef2m0cb0m0","pricing_plan_id":"cebpf4jnsgd1na2vs0mg"},{"bike_id":"c40c13ce-fdbb-4f52-b2d8-1005d4c9277b","system_id":"levelo_inurba_marseille","lat":43.254,"lon":5.41886,"is_reserved":false,"is_disabled":false,"rental_uris":{"android":"levelo://app?vid=c40c13ce-fdbb-4f52-b2d8-1005d4c9277b","ios":"levelo://app?vid=c40c13ce-fdbb-4f52-b2d8-1005d4c9277b"},"vehicle_type_id":"4","last_reported":1741467960,"current_range_meters":8400,"station_id":"","pricing_plan_id":"cebpf4jnsgd1na2vs0mg"},{"bike_id":"c35465d8-2059-452b-aedf-263638f8047e","system_id":"levelo_inurba_marseille","lat":43.31122,"lon":5.37766,"is_reserved":false,"is_disabled":false,"rental_uris":{"android":"levelo://app?vid=c35465d8-2059-452b-aedf-263638f8047e","ios":"levelo://app?vid=c35465d8-2059-452b-aedf-263638f8047e"},"vehicle_type_id":"4","last_reported":1741467960,"current_range_meters":8400,"station_id":"ce4bgt92rcd13ifvqcg0","pricing_plan_id":"cebpf4jnsgd1na2vs0mg"},{"bike_id":"28a222b8-ee91-4818-b3f4-9fc2f0d905f9","system_id":"levelo_inurba_marseille","lat":43.30086,"lon":5.39077,"is_reserved":false,"is_disabled":false,"rental_uris":{"android":"levelo://app?vid=28a222b8-ee91-4818-b3f4-9fc2f0d905f9","ios":"levelo://app?vid=28a222b8-ee91-4818-b3f4-9fc2f0d905f9"},"vehicle_type_id":"4","last_reported":1741467960,"current_range_meters":8400,"station_id":"ce4bh192rcd13ifvqdb0","pricing_plan_id":"cebpf4jnsgd1na2vs0mg"},{"bike_id":"3c77d28d-ef5d-43f9-afd5-3b629025e592","system_id":"levelo_inurba_marseille","lat":43.29425,"lon":5.38619,"is_reserved":false,"is_disabled":false,"rental_uris":{"android":"levelo://app?vid=3c77d28d-ef5d-43f9-afd5-3b629025e592","ios":"levelo://app?vid=3c77d28d-ef5d-43f9-afd5-3b629025e592"},"vehicle_type_id":"4","last_reported":1741467960,"current_range_meters":8400,"station_id":"ce4bh2h2rcd13ifvqdh0","pricing_plan_id":"cebpf4jnsgd1na2vs0mg"},{"bike_id":"900eaafe-95fa-4014-a080-565d306d9ab1","system_id":"levelo_inurba_marseille","lat":43.29044,"lon":5.38146,"is_reserved":false,"is_disabled":false,"rental_uris":{"android":"levelo://app?vid=900eaafe-95fa-4014-a080-565d306d9ab1","ios":"levelo://app?vid=900eaafe-95fa-4014-a080-565d306d9ab1"},"vehicle_type_id":"4","last_reported":1741467960,"current_range_meters":8400,"station_id":"ce4bh4p2rcd13ifvqe1g","pricing_plan_id":"cebpf4jnsgd1na2vs0mg"},{"bike_id":"c54e76cd-efcc-47c2-b5e1-593386ffe01e","system_id":"levelo_inurba_marseille","lat":43.28975,"lon":5.37837,"is_reserved":false,"is_disabled":false,"rental_uris":{"android":"levelo://app?vid=c54e76cd-efcc-47c2-b5e1-593386ffe01e","ios":"levelo://app?vid=c54e76cd-efcc-47c2-b5e1-593386ffe01e"},"vehicle_type_id":"4","last_reported":1741467960,"current_range_meters":8400,"station_id":"ce4bh9p2rcd13ifvqed0","pricing_plan_id":"cebpf4jnsgd1na2vs0mg"},{"bike_id":"6f46e430-3990-4530-b0f2-2d4583660ccd","system_id":"levelo_inurba_marseille","lat":43.27421,"lon":5.39405,"is_reserved":false,"is_disabled":false,"rental_uris":{"android":"levelo://app?vid=6f46e430-3990-4530-b0f2-2d4583660ccd","ios":"levelo://app?vid=6f46e430-3990-4530-b0f2-2d4583660ccd"},"vehicle_type_id":"4","last_reported":1741467960,"current_range_meters":8400,"station_id":"ce4bhdp2rcd13ifvqf20","pricing_plan_id":"cebpf4jnsgd1na2vs0mg"},{"bike_id":"29a2dc41-176e-4ce3-9704-1e0c81ed4573","system_id":"levelo_inurba_marseille","lat":43.26061,"lon":5.39392,"is_reserved":false,"is_disabled":false,"rental_uris":{"android":"levelo://app?vid=29a2dc41-176e-4ce3-9704-1e0c81ed4573","ios":"levelo://app?vid=29a2dc41-176e-4ce3-9704-1e0c81ed4573"},"vehicle_type_id":"4","last_reported":1741467960,"current_range_meters":8400,"station_id":"ce4bhh92rcd13ifvqfj0","pricing_plan_id":"cebpf4jnsgd1na2vs0mg"},{"bike_id":"aa5a6ba6-9d57-42a9-a76f-86763ff3079f","system_id":"levelo_inurba_marseille","lat":43.27202,"lon":5.39183,"is_reserved":false,"is_disabled":false,"rental_uris":{"android":"levelo://app?vid=aa5a6ba6-9d57-42a9-a76f-86763ff3079f","ios":"levelo://app?vid=aa5a6ba6-9d57-42a9-a76f-86763ff3079f"},"vehicle_type_id":"4","last_reported":1741467960,"current_range_meters":8400,"station_id":"ce4bhhp2rcd13ifvqfm0","pricing_plan_id":"cebpf4jnsgd1na2vs0mg"},{"bike_id":"cb7e618a-093b-4757-8263-4076ceaa0e8a","system_id":"levelo_inurba_marseille","lat":43.25083,"lon":5.39518,"is_reserved":false,"is_disabled":false,"rental_uris":{"android":"levelo://app?vid=cb7e618a-093b-4757-8263-4076ceaa0e8a","ios":"levelo://app?vid=cb7e618a-093b-4757-8263-4076ceaa0e8a"},"vehicle_type_id":"4","last_reported":1741467960,"current_range_meters":8400,"station_id":"ce4bhm12rcd13ifvqgkg","pricing_plan_id":"cebpf4jnsgd1na2vs0mg"},{"bike_id":"cb0d4d15-0ce0-4061-8a04-93bcbe80bd0f","system_id":"levelo_inurba_marseille","lat":43.25943,"lon":5.40902,"is_reserved":false,"is_disabled":false,"rental_uris":{"android":"levelo://app?vid=cb0d4d15-0ce0-4061-8a04-93bcbe80bd0f","ios":"levelo://app?vid=cb0d4d15-0ce0-4061-8a04-93bcbe80bd0f"},"vehicle_type_id":"4","last_reported":1741467960,"current_range_meters":8400,"station_id":"ce4bhm92rcd13ifvqglg","pricing_plan_id":"cebpf4jnsgd1na2vs0mg"},{"bike_id":"7c11c067-b6f5-44dd-8ac2-42418c1e55db","system_id":"levelo_inurba_marseille","lat":43.26953,"lon":5.40255,"is_reserved":false,"is_disabled":false,"rental_uris":{"android":"levelo://app?vid=7c11c067-b6f5-44dd-8ac2-42418c1e55db","ios":"levelo://app?vid=7c11c067-b6f5-44dd-8ac2-42418c1e55db"},"vehicle_type_id":"4","last_reported":1741467960,"current_range_meters":8400,"station_id":"cjm6bp8fraef2m0cb0m0","pricing_plan_id":"cebpf4jnsgd1na2vs0mg"},{"bike_id":"3fe917b7-79ea-42e6-87db-94c29205ddd8","system_id":"levelo_inurba_marseille","lat":43.29616,"lon":5.37735,"is_reserved":false,"is_disabled":false,"rental_uris":{"android":"levelo://app?vid=3fe917b7-79ea-42e6-87db-94c29205ddd8","ios":"levelo://app?vid=3fe917b7-79ea-42e6-87db-94c29205ddd8"},"vehicle_type_id":"4","last_reported":1741467960,"current_range_meters":8800,"station_id":"ce4bgi92rcd13ifvqb90","pricing_plan_id":"cebpf4jnsgd1na2vs0mg"},{"bike_id":"99bae543-d1e7-4dfa-946f-7d44d1e5b3dc","system_id":"levelo_inurba_marseille","lat":43.2981,"lon":5.38112,"is_reserved":false,"is_disabled":false,"rental_uris":{"android":"levelo://app?vid=99bae543-d1e7-4dfa-946f-7d44d1e5b3dc","ios":"levelo://app?vid=99bae543-d1e7-4dfa-946f-7d44d1e5b3dc"},"vehicle_type_id":"4","last_reported":1741467960,"current_range_meters":8800,"station_id":"ce4bgip2rcd13ifvqbb0","pricing_plan_id":"cebpf4jnsgd1na2vs0mg"},{"bike_id":"b8718b49-63d2-405f-82ae-ed4f19c93803","system_id":"levelo_inurba_marseille","lat":43.28919,"lon":5.3841,"is_reserved":false,"is_disabled":false,"rental_uris":{"android":"levelo://app?vid=b8718b49-63d2-405f-82ae-ed4f19c93803","ios":"levelo://app?vid=b8718b49-63d2-405f-82ae-ed4f19c93803"},"vehicle_type_id":"4","last_reported":1741467960,"current_range_meters":8800,"station_id":"ce4bh612rcd13ifvqe6g","pricing_plan_id":"cebpf4jnsgd1na2vs0mg"},{"bike_id":"508e4c87-e0a2-4432-b4f8-7d1470e0510a","system_id":"levelo_inurba_marseille","lat":43.27574,"lon":5.38408,"is_reserved":false,"is_disabled":false,"rental_uris":{"android":"levelo://app?vid=508e4c87-e0a2-4432-b4f8-7d1470e0510a","ios":"levelo://app?vid=508e4c87-e0a2-4432-b4f8-7d1470e0510a"},"vehicle_type_id":"4","last_reported":1741467960,"current_range_meters":8800,"station_id":"ce4bhh92rcd13ifvqfi0","pricing_plan_id":"cebpf4jnsgd1na2vs0mg"},{"bike_id":"4535af30-838a-436f-9c39-afb86353063f","system_id":"levelo_inurba_marseille","lat":43.30198,"lon":5.39964,"is_reserved":false,"is_disabled":false,"rental_uris":{"android":"levelo://app?vid=4535af30-838a-436f-9c39-afb86353063f","ios":"levelo://app?vid=4535af30-838a-436f-9c39-afb86353063f"},"vehicle_type_id":"4","last_reported":1741467960,"current_range_meters":9200,"station_id":"","pricing_plan_id":"cebpf4jnsgd1na2vs0mg"},{"bike_id":"7ccf354e-d9c3-453e-9d8c-ff76790a4a22","system_id":"levelo_inurba_marseille","lat":43.29544,"lon":5.38542,"is_reserved":false,"is_disabled":false,"rental_uris":{"android":"levelo://app?vid=7ccf354e-d9c3-453e-9d8c-ff76790a4a22","ios":"levelo://app?vid=7ccf354e-d9c3-453e-9d8c-ff76790a4a22"},"vehicle_type_id":"4","last_reported":1741467960,"current_range_meters":9200,"station_id":"ce4bgih2rcd13ifvqba0","pricing_plan_id":"cebpf4jnsgd1na2vs0mg"},{"bike_id":"14cf3877-3af3-46f4-af3f-e93bc737cb7b","system_id":"levelo_inurba_marseille","lat":43.29862,"lon":5.36289,"is_reserved":false,"is_disabled":false,"rental_uris":{"android":"levelo://app?vid=14cf3877-3af3-46f4-af3f-e93bc737cb7b","ios":"levelo://app?vid=14cf3877-3af3-46f4-af3f-e93bc737cb7b"},"vehicle_type_id":"4","last_reported":1741467960,"current_range_meters":9200,"station_id":"ce4bgpp2rcd13ifvqc3g","pricing_plan_id":"cebpf4jnsgd1na2vs0mg"},{"bike_id":"cda480f5-496d-456d-af66-37f4b2d64afd","system_id":"levelo_inurba_marseille","lat":43.31324,"lon":5.39698,"is_reserved":false,"is_disabled":false,"rental_uris":{"android":"levelo://app?vid=cda480f5-496d-456d-af66-37f4b2d64afd","ios":"levelo://app?vid=cda480f5-496d-456d-af66-37f4b2d64afd"},"vehicle_type_id":"4","last_reported":1741467960,"current_range_meters":9200,"station_id":"ce4bgvp2rcd13ifvqcu0","pricing_plan_id":"cebpf4jnsgd1na2vs0mg"},{"bike_id":"6fc9c63f-4027-4364-b51e-5e116296b3dc","system_id":"levelo_inurba_marseille","lat":43.29033,"lon":5.38653,"is_reserved":false,"is_disabled":false,"rental_uris":{"android":"levelo://app?vid=6fc9c63f-4027-4364-b51e-5e116296b3dc","ios":"levelo://app?vid=6fc9c63f-4027-4364-b51e-5e116296b3dc"},"vehicle_type_id":"4","last_reported":1741467960,"current_range_meters":9200,"station_id":"ce4bh4p2rcd13ifvqe0g","pricing_plan_id":"cebpf4jnsgd1na2vs0mg"},{"bike_id":"2e3c60b3-f5fc-40b6-b347-86b0b4f3ee6e","system_id":"levelo_inurba_marseille","lat":43.23195,"lon":5.39982,"is_reserved":false,"is_disabled":false,"rental_uris":{"android":"levelo://app?vid=2e3c60b3-f5fc-40b6-b347-86b0b4f3ee6e","ios":"levelo://app?vid=2e3c60b3-f5fc-40b6-b347-86b0b4f3ee6e"},"vehicle_type_id":"4","last_reported":1741467960,"current_range_meters":9200,"station_id":"ce4bhn12rcd13ifvqgqg","pricing_plan_id":"cebpf4jnsgd1na2vs0mg"},{"bike_id":"bdce6986-86c4-4404-aa26-b17249768109","system_id":"levelo_inurba_marseille","lat":43.27817,"lon":5.40719,"is_reserved":false,"is_disabled":false,"rental_uris":{"android":"levelo://app?vid=bdce6986-86c4-4404-aa26-b17249768109","ios":"levelo://app?vid=bdce6986-86c4-4404-aa26-b17249768109"},"vehicle_type_id":"4","last_reported":1741467960,"current_range_meters":9200,"station_id":"ce4bhnh2rcd13ifvqgtg","pricing_plan_id":"cebpf4jnsgd1na2vs0mg"},{"bike_id":"42aedb88-473c-4518-8d54-dc991a6234b1","system_id":"levelo_inurba_marseille","lat":43.2784,"lon":5.40718,"is_reserved":false,"is_disabled":false,"rental_uris":{"android":"levelo://app?vid=42aedb88-473c-4518-8d54-dc991a6234b1","ios":"levelo://app?vid=42aedb88-473c-4518-8d54-dc991a6234b1"},"vehicle_type_id":"4","last_reported":1741467960,"current_range_meters":9200,"station_id":"ce4bhnh2rcd13ifvqgtg","pricing_plan_id":"cebpf4jnsgd1na2vs0mg"},{"bike_id":"30416b6a-f765-4542-9b52-eca6ab185881","system_id":"levelo_inurba_marseille","lat":43.3229,"lon":5.38275,"is_reserved":false,"is_disabled":false,"rental_uris":{"android":"levelo://app?vid=30416b6a-f765-4542-9b52-eca6ab185881","ios":"levelo://app?vid=30416b6a-f765-4542-9b52-eca6ab185881"},"vehicle_type_id":"4","last_reported":1741467960,"current_range_meters":9200,"station_id":"ce4bhr12rcd13ifvqhqg","pricing_plan_id":"cebpf4jnsgd1na2vs0mg"},{"bike_id":"1eae27e7-b16c-402d-88a7-74119068df4b","system_id":"levelo_inurba_marseille","lat":43.26782,"lon":5.39498,"is_reserved":false,"is_disabled":false,"rental_uris":{"android":"levelo://app?vid=1eae27e7-b16c-402d-88a7-74119068df4b","ios":"levelo://app?vid=1eae27e7-b16c-402d-88a7-74119068df4b"},"vehicle_type_id":"4","last_reported":1741467960,"current_range_meters":9600,"station_id":"","pricing_plan_id":"cebpf4jnsgd1na2vs0mg"},{"bike_id":"29106f44-6e7c-47ff-b437-aa4cfbd6d7b7","system_id":"levelo_inurba_marseille","lat":43.27612,"lon":5.36014,"is_reserved":false,"is_disabled":false,"rental_uris":{"android":"levelo://app?vid=29106f44-6e7c-47ff-b437-aa4cfbd6d7b7","ios":"levelo://app?vid=29106f44-6e7c-47ff-b437-aa4cfbd6d7b7"},"vehicle_type_id":"4","last_reported":1741467960,"current_range_meters":9600,"station_id":"","pricing_plan_id":"cebpf4jnsgd1na2vs0mg"},{"bike_id":"0ee34a75-da67-4fcc-bde2-63a3210d095a","system_id":"levelo_inurba_marseille","lat":43.29405,"lon":5.38628,"is_reserved":false,"is_disabled":false,"rental_uris":{"android":"levelo://app?vid=0ee34a75-da67-4fcc-bde2-63a3210d095a","ios":"levelo://app?vid=0ee34a75-da67-4fcc-bde2-63a3210d095a"},"vehicle_type_id":"4","last_reported":1741467960,"current_range_meters":9600,"station_id":"ce4bh2h2rcd13ifvqdh0","pricing_plan_id":"cebpf4jnsgd1na2vs0mg"},{"bike_id":"49728009-0f50-46ba-a132-6d4fe5f38e91","system_id":"levelo_inurba_marseille","lat":43.29416,"lon":5.3864,"is_reserved":false,"is_disabled":false,"rental_uris":{"android":"levelo://app?vid=49728009-0f50-46ba-a132-6d4fe5f38e91","ios":"levelo://app?vid=49728009-0f50-46ba-a132-6d4fe5f38e91"},"vehicle_type_id":"4","last_reported":1741467960,"current_range_meters":9600,"station_id":"ce4bh2h2rcd13ifvqdh0","pricing_plan_id":"cebpf4jnsgd1na2vs0mg"},{"bike_id":"8a918602-9ac4-47c1-baf8-d4080cced523","system_id":"levelo_inurba_marseille","lat":43.29418,"lon":5.38632,"is_reserved":false,"is_disabled":false,"rental_uris":{"android":"levelo://app?vid=8a918602-9ac4-47c1-baf8-d4080cced523","ios":"levelo://app?vid=8a918602-9ac4-47c1-baf8-d4080cced523"},"vehicle_type_id":"4","last_reported":1741467960,"current_range_meters":9600,"station_id":"ce4bh2h2rcd13ifvqdh0","pricing_plan_id":"cebpf4jnsgd1na2vs0mg"},{"bike_id":"ae43b039-5a4b-4c39-82a7-f66f6c90996b","system_id":"levelo_inurba_marseille","lat":43.2836,"lon":5.38639,"is_reserved":false,"is_disabled":false,"rental_uris":{"android":"levelo://app?vid=ae43b039-5a4b-4c39-82a7-f66f6c90996b","ios":"levelo://app?vid=ae43b039-5a4b-4c39-82a7-f66f6c90996b"},"vehicle_type_id":"4","last_reported":1741467960,"current_range_meters":9600,"station_id":"ce4bh492rcd13ifvqdvg","pricing_plan_id":"cebpf4jnsgd1na2vs0mg"},{"bike_id":"4c85eab2-52b8-4067-b8f2-6c525237fdc8","system_id":"levelo_inurba_marseille","lat":43.27213,"lon":5.39205,"is_reserved":false,"is_disabled":false,"rental_uris":{"android":"levelo://app?vid=4c85eab2-52b8-4067-b8f2-6c525237fdc8","ios":"levelo://app?vid=4c85eab2-52b8-4067-b8f2-6c525237fdc8"},"vehicle_type_id":"4","last_reported":1741467960,"current_range_meters":9600,"station_id":"ce4bhhp2rcd13ifvqfm0","pricing_plan_id":"cebpf4jnsgd1na2vs0mg"},{"bike_id":"d399c68f-4683-4187-95d7-e32ffde3c66c","system_id":"levelo_inurba_marseille","lat":43.25093,"lon":5.39522,"is_reserved":false,"is_disabled":false,"rental_uris":{"android":"levelo://app?vid=d399c68f-4683-4187-95d7-e32ffde3c66c","ios":"levelo://app?vid=d399c68f-4683-4187-95d7-e32ffde3c66c"},"vehicle_type_id":"4","last_reported":1741467960,"current_range_meters":9600,"station_id":"ce4bhm12rcd13ifvqgkg","pricing_plan_id":"cebpf4jnsgd1na2vs0mg"},{"bike_id":"b2c2514d-58df-4080-9acc-0a3325c87525","system_id":"levelo_inurba_marseille","lat":43.32356,"lon":5.36763,"is_reserved":false,"is_disabled":false,"rental_uris":{"android":"levelo://app?vid=b2c2514d-58df-4080-9acc-0a3325c87525","ios":"levelo://app?vid=b2c2514d-58df-4080-9acc-0a3325c87525"},"vehicle_type_id":"4","last_reported":1741467960,"current_range_meters":9600,"station_id":"ce4bhsh2rcd13ifvqi2g","pricing_plan_id":"cebpf4jnsgd1na2vs0mg"},{"bike_id":"2cd62b5d-cb55-4130-8b4a-c96f5828ffcd","system_id":"levelo_inurba_marseille","lat":43.27308,"lon":5.39137,"is_reserved":false,"is_disabled":false,"rental_uris":{"android":"levelo://app?vid=2cd62b5d-cb55-4130-8b4a-c96f5828ffcd","ios":"levelo://app?vid=2cd62b5d-cb55-4130-8b4a-c96f5828ffcd"},"vehicle_type_id":"4","last_reported":1741467960,"current_range_meters":10000,"station_id":"","pricing_plan_id":"cebpf4jnsgd1na2vs0mg"},{"bike_id":"859907bb-89cf-47e5-8202-d4e928b86369","system_id":"levelo_inurba_marseille","lat":43.3056,"lon":5.36677,"is_reserved":false,"is_disabled":false,"rental_uris":{"android":"levelo://app?vid=859907bb-89cf-47e5-8202-d4e928b86369","ios":"levelo://app?vid=859907bb-89cf-47e5-8202-d4e928b86369"},"vehicle_type_id":"4","last_reported":1741467960,"current_range_meters":10000,"station_id":"","pricing_plan_id":"cebpf4jnsgd1na2vs0mg"},{"bike_id":"436bcdbb-61d6-407c-bb12-7dc81cb26c80","system_id":"levelo_inurba_marseille","lat":43.29254,"lon":5.37601,"is_reserved":false,"is_disabled":false,"rental_uris":{"android":"levelo://app?vid=436bcdbb-61d6-407c-bb12-7dc81cb26c80","ios":"levelo://app?vid=436bcdbb-61d6-407c-bb12-7dc81cb26c80"},"vehicle_type_id":"4","last_reported":1741467960,"current_range_meters":10000,"station_id":"ce4bgi12rcd13ifvqb80","pricing_plan_id":"cebpf4jnsgd1na2vs0mg"},{"bike_id":"6e2925bf-8875-4fff-a415-293325b374e2","system_id":"levelo_inurba_marseille","lat":43.29439,"lon":5.38616,"is_reserved":false,"is_disabled":false,"rental_uris":{"android":"levelo://app?vid=6e2925bf-8875-4fff-a415-293325b374e2","ios":"levelo://app?vid=6e2925bf-8875-4fff-a415-293325b374e2"},"vehicle_type_id":"4","last_reported":1741467960,"current_range_meters":10000,"station_id":"ce4bh2h2rcd13ifvqdh0","pricing_plan_id":"cebpf4jnsgd1na2vs0mg"},{"bike_id":"011ff1ac-3896-41f9-954b-60a3242fc88a","system_id":"levelo_inurba_marseille","lat":43.28852,"lon":5.39309,"is_reserved":false,"is_disabled":false,"rental_uris":{"android":"levelo://app?vid=011ff1ac-3896-41f9-954b-60a3242fc88a","ios":"levelo://app?vid=011ff1ac-3896-41f9-954b-60a3242fc88a"},"vehicle_type_id":"4","last_reported":1741467960,"current_range_meters":10000,"station_id":"ce4bh2p2rcd13ifvqdi0","pricing_plan_id":"cebpf4jnsgd1na2vs0mg"},{"bike_id":"811a7e86-9324-4895-8e7c-a424c4198aa5","system_id":"levelo_inurba_marseille","lat":43.29099,"lon":5.38126,"is_reserved":false,"is_disabled":false,"rental_uris":{"android":"levelo://app?vid=811a7e86-9324-4895-8e7c-a424c4198aa5","ios":"levelo://app?vid=811a7e86-9324-4895-8e7c-a424c4198aa5"},"vehicle_type_id":"4","last_reported":1741467960,"current_range_meters":10000,"station_id":"ce4bh512rcd13ifvqe2g","pricing_plan_id":"cebpf4jnsgd1na2vs0mg"},{"bike_id":"bdc083e9-1753-4d9a-be06-15e48117add3","system_id":"levelo_inurba_marseille","lat":43.29095,"lon":5.38161,"is_reserved":false,"is_disabled":false,"rental_uris":{"android":"levelo://app?vid=bdc083e9-1753-4d9a-be06-15e48117add3","ios":"levelo://app?vid=bdc083e9-1753-4d9a-be06-15e48117add3"},"vehicle_type_id":"4","last_reported":1741467960,"current_range_meters":10000,"station_id":"ce4bh512rcd13ifvqe2g","pricing_plan_id":"cebpf4jnsgd1na2vs0mg"},{"bike_id":"82798ebb-132d-402c-a08c-5aa81e89de35","system_id":"levelo_inurba_marseille","lat":43.27303,"lon":5.39077,"is_reserved":false,"is_disabled":false,"rental_uris":{"android":"levelo://app?vid=82798ebb-132d-402c-a08c-5aa81e89de35","ios":"levelo://app?vid=82798ebb-132d-402c-a08c-5aa81e89de35"},"vehicle_type_id":"4","last_reported":1741467960,"current_range_meters":10000,"station_id":"ce4bhgp2rcd13ifvqfe0","pricing_plan_id":"cebpf4jnsgd1na2vs0mg"},{"bike_id":"7d4cc756-9c8b-4502-ad8d-d022cadf052f","system_id":"levelo_inurba_marseille","lat":43.27317,"lon":5.39105,"is_reserved":false,"is_disabled":false,"rental_uris":{"android":"levelo://app?vid=7d4cc756-9c8b-4502-ad8d-d022cadf052f","ios":"levelo://app?vid=7d4cc756-9c8b-4502-ad8d-d022cadf052f"},"vehicle_type_id":"4","last_reported":1741467960,"current_range_meters":10000,"station_id":"ce4bhgp2rcd13ifvqfe0","pricing_plan_id":"cebpf4jnsgd1na2vs0mg"},{"bike_id":"6a18a5d3-f424-46d8-a9ec-ed80b65a5b13","system_id":"levelo_inurba_marseille","lat":43.25502,"lon":5.3765,"is_reserved":false,"is_disabled":false,"rental_uris":{"android":"levelo://app?vid=6a18a5d3-f424-46d8-a9ec-ed80b65a5b13","ios":"levelo://app?vid=6a18a5d3-f424-46d8-a9ec-ed80b65a5b13"},"vehicle_type_id":"4","last_reported":1741467960,"current_range_meters":10000,"station_id":"ce4bhh12rcd13ifvqff0","pricing_plan_id":"cebpf4jnsgd1na2vs0mg"},{"bike_id":"ce8e0952-bd72-46a8-9481-a4de30a0a55a","system_id":"levelo_inurba_marseille","lat":43.29289,"lon":5.38464,"is_reserved":false,"is_disabled":false,"rental_uris":{"android":"levelo://app?vid=ce8e0952-bd72-46a8-9481-a4de30a0a55a","ios":"levelo://app?vid=ce8e0952-bd72-46a8-9481-a4de30a0a55a"},"vehicle_type_id":"4","last_reported":1741467960,"current_range_meters":10800,"station_id":"ce4bh692rcd13ifvqea0","pricing_plan_id":"cebpf4jnsgd1na2vs0mg"},{"bike_id":"6dc6a376-2d07-4693-8343-4e2c46120c7a","system_id":"levelo_inurba_marseille","lat":43.26799,"lon":5.39399,"is_reserved":false,"is_disabled":false,"rental_uris":{"android":"levelo://app?vid=6dc6a376-2d07-4693-8343-4e2c46120c7a","ios":"levelo://app?vid=6dc6a376-2d07-4693-8343-4e2c46120c7a"},"vehicle_type_id":"4","last_reported":1741467960,"current_range_meters":10800,"station_id":"ce4bhh12rcd13ifvqfg0","pricing_plan_id":"cebpf4jnsgd1na2vs0mg"},{"bike_id":"ad284fdb-e6f9-4c5a-9e2c-c44130087410","system_id":"levelo_inurba_marseille","lat":43.23182,"lon":5.39985,"is_reserved":false,"is_disabled":false,"rental_uris":{"android":"levelo://app?vid=ad284fdb-e6f9-4c5a-9e2c-c44130087410","ios":"levelo://app?vid=ad284fdb-e6f9-4c5a-9e2c-c44130087410"},"vehicle_type_id":"4","last_reported":1741467960,"current_range_meters":10800,"station_id":"ce4bhn12rcd13ifvqgqg","pricing_plan_id":"cebpf4jnsgd1na2vs0mg"},{"bike_id":"1042d58a-9ab0-4a70-8721-331f271ce5a5","system_id":"levelo_inurba_marseille","lat":43.23181,"lon":5.39998,"is_reserved":false,"is_disabled":false,"rental_uris":{"android":"levelo://app?vid=1042d58a-9ab0-4a70-8721-331f271ce5a5","ios":"levelo://app?vid=1042d58a-9ab0-4a70-8721-331f271ce5a5"},"vehicle_type_id":"4","last_reported":1741467960,"current_range_meters":10800,"station_id":"ce4bhn12rcd13ifvqgqg","pricing_plan_id":"cebpf4jnsgd1na2vs0mg"},{"bike_id":"f2a28bae-9db2-4b5e-a55a-5c236f9931a1","system_id":"levelo_inurba_marseille","lat":43.29027,"lon":5.37565,"is_reserved":false,"is_disabled":false,"rental_uris":{"android":"levelo://app?vid=f2a28bae-9db2-4b5e-a55a-5c236f9931a1","ios":"levelo://app?vid=f2a28bae-9db2-4b5e-a55a-5c236f9931a1"},"vehicle_type_id":"4","last_reported":1741467960,"current_range_meters":11200,"station_id":"ce4bh692rcd13ifvqe90","pricing_plan_id":"cebpf4jnsgd1na2vs0mg"},{"bike_id":"1255397c-ce62-4d3c-b34c-42b1e892168c","system_id":"levelo_inurba_marseille","lat":43.2572,"lon":5.41113,"is_reserved":false,"is_disabled":false,"rental_uris":{"android":"levelo://app?vid=1255397c-ce62-4d3c-b34c-42b1e892168c","ios":"levelo://app?vid=1255397c-ce62-4d3c-b34c-42b1e892168c"},"vehicle_type_id":"4","last_reported":1741467960,"current_range_meters":11200,"station_id":"ce4bhkp2rcd13ifvqgd0","pricing_plan_id":"cebpf4jnsgd1na2vs0mg"},{"bike_id":"2ccee320-67e8-4dc3-b761-19553b6bcc0d","system_id":"levelo_inurba_marseille","lat":43.2694,"lon":5.38643,"is_reserved":false,"is_disabled":false,"rental_uris":{"android":"levelo://app?vid=2ccee320-67e8-4dc3-b761-19553b6bcc0d","ios":"levelo://app?vid=2ccee320-67e8-4dc3-b761-19553b6bcc0d"},"vehicle_type_id":"4","last_reported":1741467960,"current_range_meters":11200,"station_id":"ce4bhkp2rcd13ifvqgd0","pricing_plan_id":"cebpf4jnsgd1na2vs0mg"},{"bike_id":"892a6af1-2b92-497a-810f-703c588dbefb","system_id":"levelo_inurba_marseille","lat":43.24543,"lon":5.3952,"is_reserved":false,"is_disabled":false,"rental_uris":{"android":"levelo://app?vid=892a6af1-2b92-497a-810f-703c588dbefb","ios":"levelo://app?vid=892a6af1-2b92-497a-810f-703c588dbefb"},"vehicle_type_id":"4","last_reported":1741467960,"current_range_meters":11200,"station_id":"ce4bhlp2rcd13ifvqgjg","pricing_plan_id":"cebpf4jnsgd1na2vs0mg"},{"bike_id":"19bbe8da-d7df-496e-a677-cbaab925cf5e","system_id":"levelo_inurba_marseille","lat":43.2487,"lon":5.4247,"is_reserved":false,"is_disabled":false,"rental_uris":{"android":"levelo://app?vid=19bbe8da-d7df-496e-a677-cbaab925cf5e","ios":"levelo://app?vid=19bbe8da-d7df-496e-a677-cbaab925cf5e"},"vehicle_type_id":"4","last_reported":1741467960,"current_range_meters":11600,"station_id":"","pricing_plan_id":"cebpf4jnsgd1na2vs0mg"},{"bike_id":"3ec3e2aa-eb1a-4432-8bc2-401db54ef086","system_id":"levelo_inurba_marseille","lat":43.2952,"lon":5.3855,"is_reserved":false,"is_disabled":false,"rental_uris":{"android":"levelo://app?vid=3ec3e2aa-eb1a-4432-8bc2-401db54ef086","ios":"levelo://app?vid=3ec3e2aa-eb1a-4432-8bc2-401db54ef086"},"vehicle_type_id":"4","last_reported":1741467960,"current_range_meters":11600,"station_id":"ce4bgih2rcd13ifvqba0","pricing_plan_id":"cebpf4jnsgd1na2vs0mg"},{"bike_id":"d8d28d85-68d4-4b6f-8a1f-722fc1806dff","system_id":"levelo_inurba_marseille","lat":43.29416,"lon":5.38634,"is_reserved":false,"is_disabled":false,"rental_uris":{"android":"levelo://app?vid=d8d28d85-68d4-4b6f-8a1f-722fc1806dff","ios":"levelo://app?vid=d8d28d85-68d4-4b6f-8a1f-722fc1806dff"},"vehicle_type_id":"4","last_reported":1741467960,"current_range_meters":11600,"station_id":"ce4bh2h2rcd13ifvqdh0","pricing_plan_id":"cebpf4jnsgd1na2vs0mg"},{"bike_id":"85c3b8f0-8178-447f-801c-960dbbfba5e6","system_id":"levelo_inurba_marseille","lat":43.28484,"lon":5.38423,"is_reserved":false,"is_disabled":false,"rental_uris":{"android":"levelo://app?vid=85c3b8f0-8178-447f-801c-960dbbfba5e6","ios":"levelo://app?vid=85c3b8f0-8178-447f-801c-960dbbfba5e6"},"vehicle_type_id":"4","last_reported":1741467960,"current_range_meters":11600,"station_id":"ce4bh512rcd13ifvqe3g","pricing_plan_id":"cebpf4jnsgd1na2vs0mg"},{"bike_id":"97687e68-be46-4713-8e56-6dcec5493f0a","system_id":"levelo_inurba_marseille","lat":43.24819,"lon":5.37467,"is_reserved":false,"is_disabled":false,"rental_uris":{"android":"levelo://app?vid=97687e68-be46-4713-8e56-6dcec5493f0a","ios":"levelo://app?vid=97687e68-be46-4713-8e56-6dcec5493f0a"},"vehicle_type_id":"4","last_reported":1741467960,"current_range_meters":11600,"station_id":"ce4bhgh2rcd13ifvqfb0","pricing_plan_id":"cebpf4jnsgd1na2vs0mg"},{"bike_id":"10ead8e5-dd89-4ac8-a43d-87b0c9c13a41","system_id":"levelo_inurba_marseille","lat":43.25811,"lon":5.39431,"is_reserved":false,"is_disabled":false,"rental_uris":{"android":"levelo://app?vid=10ead8e5-dd89-4ac8-a43d-87b0c9c13a41","ios":"levelo://app?vid=10ead8e5-dd89-4ac8-a43d-87b0c9c13a41"},"vehicle_type_id":"4","last_reported":1741467960,"current_range_meters":11600,"station_id":"ce4bhip2rcd13ifvqft0","pricing_plan_id":"cebpf4jnsgd1na2vs0mg"},{"bike_id":"0e698c9d-47bc-4045-944d-ecfd6b2414bc","system_id":"levelo_inurba_marseille","lat":43.31068,"lon":5.42457,"is_reserved":false,"is_disabled":false,"rental_uris":{"android":"levelo://app?vid=0e698c9d-47bc-4045-944d-ecfd6b2414bc","ios":"levelo://app?vid=0e698c9d-47bc-4045-944d-ecfd6b2414bc"},"vehicle_type_id":"4","last_reported":1741467960,"current_range_meters":11600,"station_id":"ce4bhp92rcd13ifvqhag","pricing_plan_id":"cebpf4jnsgd1na2vs0mg"},{"bike_id":"43c3fc42-54d2-4fe6-a995-eb5396b90ee1","system_id":"levelo_inurba_marseille","lat":43.32101,"lon":5.36767,"is_reserved":false,"is_disabled":false,"rental_uris":{"android":"levelo://app?vid=43c3fc42-54d2-4fe6-a995-eb5396b90ee1","ios":"levelo://app?vid=43c3fc42-54d2-4fe6-a995-eb5396b90ee1"},"vehicle_type_id":"4","last_reported":1741467960,"current_range_meters":11600,"station_id":"ce4bhrh2rcd13ifvqhug","pricing_plan_id":"cebpf4jnsgd1na2vs0mg"},{"bike_id":"ead2b8ea-f152-40ea-80fb-ee1211b8cefb","system_id":"levelo_inurba_marseille","lat":43.26941,"lon":5.40266,"is_reserved":false,"is_disabled":false,"rental_uris":{"android":"levelo://app?vid=ead2b8ea-f152-40ea-80fb-ee1211b8cefb","ios":"levelo://app?vid=ead2b8ea-f152-40ea-80fb-ee1211b8cefb"},"vehicle_type_id":"4","last_reported":1741467960,"current_range_meters":11600,"station_id":"cjm6bp8fraef2m0cb0m0","pricing_plan_id":"cebpf4jnsgd1na2vs0mg"},{"bike_id":"3c0e4035-a221-4175-9c1f-5404a2e80550","system_id":"levelo_inurba_marseille","lat":43.2694,"lon":5.40248,"is_reserved":false,"is_disabled":false,"rental_uris":{"android":"levelo://app?vid=3c0e4035-a221-4175-9c1f-5404a2e80550","ios":"levelo://app?vid=3c0e4035-a221-4175-9c1f-5404a2e80550"},"vehicle_type_id":"4","last_reported":1741467960,"current_range_meters":11600,"station_id":"cjm6bp8fraef2m0cb0m0","pricing_plan_id":"cebpf4jnsgd1na2vs0mg"},{"bike_id":"74921a3d-81fd-4139-a16d-7c498eb42c3c","system_id":"levelo_inurba_marseille","lat":43.28695,"lon":5.38653,"is_reserved":false,"is_disabled":false,"rental_uris":{"android":"levelo://app?vid=74921a3d-81fd-4139-a16d-7c498eb42c3c","ios":"levelo://app?vid=74921a3d-81fd-4139-a16d-7c498eb42c3c"},"vehicle_type_id":"4","last_reported":1741467960,"current_range_meters":12000,"station_id":"ce4bh492rcd13ifvqdug","pricing_plan_id":"cebpf4jnsgd1na2vs0mg"},{"bike_id":"2a456351-ab0e-4027-a266-d89165679a6e","system_id":"levelo_inurba_marseille","lat":43.28981,"lon":5.3783,"is_reserved":false,"is_disabled":false,"rental_uris":{"android":"levelo://app?vid=2a456351-ab0e-4027-a266-d89165679a6e","ios":"levelo://app?vid=2a456351-ab0e-4027-a266-d89165679a6e"},"vehicle_type_id":"4","last_reported":1741467960,"current_range_meters":12000,"station_id":"ce4bh9p2rcd13ifvqed0","pricing_plan_id":"cebpf4jnsgd1na2vs0mg"},{"bike_id":"6cfa6918-9998-41e2-be7e-8892614f1312","system_id":"levelo_inurba_marseille","lat":43.23959,"lon":5.36636,"is_reserved":false,"is_disabled":false,"rental_uris":{"android":"levelo://app?vid=6cfa6918-9998-41e2-be7e-8892614f1312","ios":"levelo://app?vid=6cfa6918-9998-41e2-be7e-8892614f1312"},"vehicle_type_id":"4","last_reported":1741467960,"current_range_meters":12000,"station_id":"ce4bhi12rcd13ifvqfp0","pricing_plan_id":"cebpf4jnsgd1na2vs0mg"},{"bike_id":"bfe03db3-d69a-445a-a62a-d6ccdbb319ad","system_id":"levelo_inurba_marseille","lat":43.2953,"lon":5.38527,"is_reserved":false,"is_disabled":false,"rental_uris":{"android":"levelo://app?vid=bfe03db3-d69a-445a-a62a-d6ccdbb319ad","ios":"levelo://app?vid=bfe03db3-d69a-445a-a62a-d6ccdbb319ad"},"vehicle_type_id":"4","last_reported":1741467960,"current_range_meters":12400,"station_id":"ce4bgih2rcd13ifvqba0","pricing_plan_id":"cebpf4jnsgd1na2vs0mg"},{"bike_id":"cb9741bc-643a-4d23-8717-61f0eafe1247","system_id":"levelo_inurba_marseille","lat":43.2926,"lon":5.38449,"is_reserved":false,"is_disabled":false,"rental_uris":{"android":"levelo://app?vid=cb9741bc-643a-4d23-8717-61f0eafe1247","ios":"levelo://app?vid=cb9741bc-643a-4d23-8717-61f0eafe1247"},"vehicle_type_id":"4","last_reported":1741467960,"current_range_meters":12400,"station_id":"ce4bh692rcd13ifvqea0","pricing_plan_id":"cebpf4jnsgd1na2vs0mg"},{"bike_id":"94af502c-459a-42c2-a2ea-1872126a18db","system_id":"levelo_inurba_marseille","lat":43.28854,"lon":5.35873,"is_reserved":false,"is_disabled":false,"rental_uris":{"android":"levelo://app?vid=94af502c-459a-42c2-a2ea-1872126a18db","ios":"levelo://app?vid=94af502c-459a-42c2-a2ea-1872126a18db"},"vehicle_type_id":"4","last_reported":1741467960,"current_range_meters":12400,"station_id":"ce4bhb12rcd13ifvqem0","pricing_plan_id":"cebpf4jnsgd1na2vs0mg"},{"bike_id":"c0c9a2ce-2739-41db-af1b-d956dbc13131","system_id":"levelo_inurba_marseille","lat":43.27053,"lon":5.40246,"is_reserved":false,"is_disabled":false,"rental_uris":{"android":"levelo://app?vid=c0c9a2ce-2739-41db-af1b-d956dbc13131","ios":"levelo://app?vid=c0c9a2ce-2739-41db-af1b-d956dbc13131"},"vehicle_type_id":"4","last_reported":1741467960,"current_range_meters":12400,"station_id":"ce4bhk92rcd13ifvqgc0","pricing_plan_id":"cebpf4jnsgd1na2vs0mg"},{"bike_id":"5c713d1d-2e33-44ad-a6bb-4d74aa4ffe47","system_id":"levelo_inurba_marseille","lat":43.27938,"lon":5.4105,"is_reserved":false,"is_disabled":false,"rental_uris":{"android":"levelo://app?vid=5c713d1d-2e33-44ad-a6bb-4d74aa4ffe47","ios":"levelo://app?vid=5c713d1d-2e33-44ad-a6bb-4d74aa4ffe47"},"vehicle_type_id":"4","last_reported":1741467960,"current_range_meters":12400,"station_id":"ce4bhnp2rcd13ifvqh0g","pricing_plan_id":"cebpf4jnsgd1na2vs0mg"},{"bike_id":"128c6e9a-f050-4340-a828-773721c0287d","system_id":"levelo_inurba_marseille","lat":43.26961,"lon":5.40236,"is_reserved":false,"is_disabled":false,"rental_uris":{"android":"levelo://app?vid=128c6e9a-f050-4340-a828-773721c0287d","ios":"levelo://app?vid=128c6e9a-f050-4340-a828-773721c0287d"},"vehicle_type_id":"4","last_reported":1741467960,"current_range_meters":12400,"station_id":"cjm6bp8fraef2m0cb0m0","pricing_plan_id":"cebpf4jnsgd1na2vs0mg"},{"bike_id":"c61134b0-1408-4f5b-8d03-135c1977fc47","system_id":"levelo_inurba_marseille","lat":43.30107,"lon":5.39873,"is_reserved":false,"is_disabled":false,"rental_uris":{"android":"levelo://app?vid=c61134b0-1408-4f5b-8d03-135c1977fc47","ios":"levelo://app?vid=c61134b0-1408-4f5b-8d03-135c1977fc47"},"vehicle_type_id":"4","last_reported":1741467960,"current_range_meters":12800,"station_id":"ce4bh0h2rcd13ifvqd40","pricing_plan_id":"cebpf4jnsgd1na2vs0mg"},{"bike_id":"7ea24603-5d75-4156-9d29-c1641ffd9327","system_id":"levelo_inurba_marseille","lat":43.29418,"lon":5.38642,"is_reserved":false,"is_disabled":false,"rental_uris":{"android":"levelo://app?vid=7ea24603-5d75-4156-9d29-c1641ffd9327","ios":"levelo://app?vid=7ea24603-5d75-4156-9d29-c1641ffd9327"},"vehicle_type_id":"4","last_reported":1741467960,"current_range_meters":12800,"station_id":"ce4bh2h2rcd13ifvqdh0","pricing_plan_id":"cebpf4jnsgd1na2vs0mg"},{"bike_id":"3cd27547-3fcd-4794-aecf-58440a4552bc","system_id":"levelo_inurba_marseille","lat":43.29416,"lon":5.38644,"is_reserved":false,"is_disabled":false,"rental_uris":{"android":"levelo://app?vid=3cd27547-3fcd-4794-aecf-58440a4552bc","ios":"levelo://app?vid=3cd27547-3fcd-4794-aecf-58440a4552bc"},"vehicle_type_id":"4","last_reported":1741467960,"current_range_meters":12800,"station_id":"ce4bh2h2rcd13ifvqdh0","pricing_plan_id":"cebpf4jnsgd1na2vs0mg"},{"bike_id":"f0a12ca0-129c-45e9-86c2-d821cb1fc440","system_id":"levelo_inurba_marseille","lat":43.28372,"lon":5.38652,"is_reserved":false,"is_disabled":false,"rental_uris":{"android":"levelo://app?vid=f0a12ca0-129c-45e9-86c2-d821cb1fc440","ios":"levelo://app?vid=f0a12ca0-129c-45e9-86c2-d821cb1fc440"},"vehicle_type_id":"4","last_reported":1741467960,"current_range_meters":12800,"station_id":"ce4bh492rcd13ifvqdvg","pricing_plan_id":"cebpf4jnsgd1na2vs0mg"},{"bike_id":"61e388e0-88e8-4998-828e-6cf2d929078c","system_id":"levelo_inurba_marseille","lat":43.32102,"lon":5.36806,"is_reserved":false,"is_disabled":false,"rental_uris":{"android":"levelo://app?vid=61e388e0-88e8-4998-828e-6cf2d929078c","ios":"levelo://app?vid=61e388e0-88e8-4998-828e-6cf2d929078c"},"vehicle_type_id":"4","last_reported":1741467960,"current_range_meters":12800,"station_id":"ce4bhrh2rcd13ifvqhug","pricing_plan_id":"cebpf4jnsgd1na2vs0mg"},{"bike_id":"c26aeefe-6efa-4367-a4c3-a0a18a302ae1","system_id":"levelo_inurba_marseille","lat":43.29408,"lon":5.38632,"is_reserved":false,"is_disabled":false,"rental_uris":{"android":"levelo://app?vid=c26aeefe-6efa-4367-a4c3-a0a18a302ae1","ios":"levelo://app?vid=c26aeefe-6efa-4367-a4c3-a0a18a302ae1"},"vehicle_type_id":"4","last_reported":1741467960,"current_range_meters":13600,"station_id":"ce4bh2h2rcd13ifvqdh0","pricing_plan_id":"cebpf4jnsgd1na2vs0mg"},{"bike_id":"ee4ea2ef-1433-4b15-ba5a-93decf17183b","system_id":"levelo_inurba_marseille","lat":43.27403,"lon":5.39412,"is_reserved":false,"is_disabled":false,"rental_uris":{"android":"levelo://app?vid=ee4ea2ef-1433-4b15-ba5a-93decf17183b","ios":"levelo://app?vid=ee4ea2ef-1433-4b15-ba5a-93decf17183b"},"vehicle_type_id":"4","last_reported":1741467960,"current_range_meters":13600,"station_id":"ce4bhdp2rcd13ifvqf20","pricing_plan_id":"cebpf4jnsgd1na2vs0mg"},{"bike_id":"e4862560-8b14-41f0-b4ab-304f0c05b04a","system_id":"levelo_inurba_marseille","lat":43.25113,"lon":5.39505,"is_reserved":false,"is_disabled":false,"rental_uris":{"android":"levelo://app?vid=e4862560-8b14-41f0-b4ab-304f0c05b04a","ios":"levelo://app?vid=e4862560-8b14-41f0-b4ab-304f0c05b04a"},"vehicle_type_id":"4","last_reported":1741467960,"current_range_meters":13600,"station_id":"ce4bhm12rcd13ifvqgkg","pricing_plan_id":"cebpf4jnsgd1na2vs0mg"},{"bike_id":"f4702b4f-385d-48fd-848e-a4538571fe3e","system_id":"levelo_inurba_marseille","lat":43.31329,"lon":5.39688,"is_reserved":false,"is_disabled":false,"rental_uris":{"android":"levelo://app?vid=f4702b4f-385d-48fd-848e-a4538571fe3e","ios":"levelo://app?vid=f4702b4f-385d-48fd-848e-a4538571fe3e"},"vehicle_type_id":"4","last_reported":1741467960,"current_range_meters":14000,"station_id":"ce4bgvp2rcd13ifvqcu0","pricing_plan_id":"cebpf4jnsgd1na2vs0mg"},{"bike_id":"24a64fbc-1d9c-4e77-b5d3-c5ffcae0ed5c","system_id":"levelo_inurba_marseille","lat":43.3088,"lon":5.39654,"is_reserved":false,"is_disabled":false,"rental_uris":{"android":"levelo://app?vid=24a64fbc-1d9c-4e77-b5d3-c5ffcae0ed5c","ios":"levelo://app?vid=24a64fbc-1d9c-4e77-b5d3-c5ffcae0ed5c"},"vehicle_type_id":"4","last_reported":1741467960,"current_range_meters":14000,"station_id":"ce4bh012rcd13ifvqcv0","pricing_plan_id":"cebpf4jnsgd1na2vs0mg"},{"bike_id":"4c5d8bb4-3d1e-4689-9d72-361d8d376cce","system_id":"levelo_inurba_marseille","lat":43.24822,"lon":5.37469,"is_reserved":false,"is_disabled":false,"rental_uris":{"android":"levelo://app?vid=4c5d8bb4-3d1e-4689-9d72-361d8d376cce","ios":"levelo://app?vid=4c5d8bb4-3d1e-4689-9d72-361d8d376cce"},"vehicle_type_id":"4","last_reported":1741467960,"current_range_meters":14000,"station_id":"ce4bhgh2rcd13ifvqfb0","pricing_plan_id":"cebpf4jnsgd1na2vs0mg"},{"bike_id":"f9034936-8f2a-4827-915c-2ebc45a3c33c","system_id":"levelo_inurba_marseille","lat":43.27848,"lon":5.39212,"is_reserved":false,"is_disabled":false,"rental_uris":{"android":"levelo://app?vid=f9034936-8f2a-4827-915c-2ebc45a3c33c","ios":"levelo://app?vid=f9034936-8f2a-4827-915c-2ebc45a3c33c"},"vehicle_type_id":"4","last_reported":1741467960,"current_range_meters":14000,"station_id":"ce4bhjp2rcd13ifvqga0","pricing_plan_id":"cebpf4jnsgd1na2vs0mg"},{"bike_id":"7758ed75-5f25-4863-b21b-fc212239a75b","system_id":"levelo_inurba_marseille","lat":43.257283,"lon":5.411098,"is_reserved":false,"is_disabled":false,"rental_uris":{"android":"levelo://app?vid=7758ed75-5f25-4863-b21b-fc212239a75b","ios":"levelo://app?vid=7758ed75-5f25-4863-b21b-fc212239a75b"},"vehicle_type_id":"4","last_reported":1741467960,"current_range_meters":14000,"station_id":"ce4bhkp2rcd13ifvqgd0","pricing_plan_id":"cebpf4jnsgd1na2vs0mg"},{"bike_id":"1882bff9-3a4a-48a1-ae14-1aea4af61a78","system_id":"levelo_inurba_marseille","lat":43.322928,"lon":5.382753,"is_reserved":false,"is_disabled":false,"rental_uris":{"android":"levelo://app?vid=1882bff9-3a4a-48a1-ae14-1aea4af61a78","ios":"levelo://app?vid=1882bff9-3a4a-48a1-ae14-1aea4af61a78"},"vehicle_type_id":"4","last_reported":1741467960,"current_range_meters":14000,"station_id":"ce4bhr12rcd13ifvqhqg","pricing_plan_id":"cebpf4jnsgd1na2vs0mg"},{"bike_id":"edaacdef-4d91-4846-968c-2fb91df3ab69","system_id":"levelo_inurba_marseille","lat":43.26805,"lon":5.40254,"is_reserved":false,"is_disabled":false,"rental_uris":{"android":"levelo://app?vid=edaacdef-4d91-4846-968c-2fb91df3ab69","ios":"levelo://app?vid=edaacdef-4d91-4846-968c-2fb91df3ab69"},"vehicle_type_id":"4","last_reported":1741467960,"current_range_meters":14000,"station_id":"ce501612rcd8frsf0b60","pricing_plan_id":"cebpf4jnsgd1na2vs0mg"},{"bike_id":"a2960189-5989-4c00-af6e-284f8ed085e7","system_id":"levelo_inurba_marseille","lat":43.28698,"lon":5.37395,"is_reserved":false,"is_disabled":false,"rental_uris":{"android":"levelo://app?vid=a2960189-5989-4c00-af6e-284f8ed085e7","ios":"levelo://app?vid=a2960189-5989-4c00-af6e-284f8ed085e7"},"vehicle_type_id":"4","last_reported":1741467960,"current_range_meters":14400,"station_id":"","pricing_plan_id":"cebpf4jnsgd1na2vs0mg"},{"bike_id":"b304c82d-4d5d-4a9e-ba9e-48d3fc1ee6e3","system_id":"levelo_inurba_marseille","lat":43.27325,"lon":5.39268,"is_reserved":false,"is_disabled":false,"rental_uris":{"android":"levelo://app?vid=b304c82d-4d5d-4a9e-ba9e-48d3fc1ee6e3","ios":"levelo://app?vid=b304c82d-4d5d-4a9e-ba9e-48d3fc1ee6e3"},"vehicle_type_id":"4","last_reported":1741467960,"current_range_meters":14400,"station_id":"","pricing_plan_id":"cebpf4jnsgd1na2vs0mg"},{"bike_id":"0ebabd55-7e9b-41bc-9350-3ca9a74a8376","system_id":"levelo_inurba_marseille","lat":43.30601,"lon":5.39361,"is_reserved":false,"is_disabled":false,"rental_uris":{"android":"levelo://app?vid=0ebabd55-7e9b-41bc-9350-3ca9a74a8376","ios":"levelo://app?vid=0ebabd55-7e9b-41bc-9350-3ca9a74a8376"},"vehicle_type_id":"4","last_reported":1741467960,"current_range_meters":14400,"station_id":"ce4bh0p2rcd13ifvqd80","pricing_plan_id":"cebpf4jnsgd1na2vs0mg"},{"bike_id":"2402b77e-af3a-4ed2-9d0d-6a3bccc86ddf","system_id":"levelo_inurba_marseille","lat":43.29094,"lon":5.38121,"is_reserved":false,"is_disabled":false,"rental_uris":{"android":"levelo://app?vid=2402b77e-af3a-4ed2-9d0d-6a3bccc86ddf","ios":"levelo://app?vid=2402b77e-af3a-4ed2-9d0d-6a3bccc86ddf"},"vehicle_type_id":"4","last_reported":1741467960,"current_range_meters":14400,"station_id":"ce4bh512rcd13ifvqe2g","pricing_plan_id":"cebpf4jnsgd1na2vs0mg"},{"bike_id":"d8feaf20-f6cc-4f3a-9bf0-f4a5dcebd831","system_id":"levelo_inurba_marseille","lat":43.29263,"lon":5.3844,"is_reserved":false,"is_disabled":false,"rental_uris":{"android":"levelo://app?vid=d8feaf20-f6cc-4f3a-9bf0-f4a5dcebd831","ios":"levelo://app?vid=d8feaf20-f6cc-4f3a-9bf0-f4a5dcebd831"},"vehicle_type_id":"4","last_reported":1741467960,"current_range_meters":14400,"station_id":"ce4bh692rcd13ifvqea0","pricing_plan_id":"cebpf4jnsgd1na2vs0mg"},{"bike_id":"d60e2ba2-9d3a-4067-8d8a-3ebb91302584","system_id":"levelo_inurba_marseille","lat":43.29829,"lon":5.38273,"is_reserved":false,"is_disabled":false,"rental_uris":{"android":"levelo://app?vid=d60e2ba2-9d3a-4067-8d8a-3ebb91302584","ios":"levelo://app?vid=d60e2ba2-9d3a-4067-8d8a-3ebb91302584"},"vehicle_type_id":"4","last_reported":1741467960,"current_range_meters":14800,"station_id":"","pricing_plan_id":"cebpf4jnsgd1na2vs0mg"},{"bike_id":"13ab1637-d907-4b06-8f71-580137053ecf","system_id":"levelo_inurba_marseille","lat":43.296,"lon":5.38111,"is_reserved":false,"is_disabled":false,"rental_uris":{"android":"levelo://app?vid=13ab1637-d907-4b06-8f71-580137053ecf","ios":"levelo://app?vid=13ab1637-d907-4b06-8f71-580137053ecf"},"vehicle_type_id":"4","last_reported":1741467960,"current_range_meters":14800,"station_id":"ce4bgl12rcd13ifvqbo0","pricing_plan_id":"cebpf4jnsgd1na2vs0mg"},{"bike_id":"ae276dbe-2bee-4de1-9769-f8f66825f40a","system_id":"levelo_inurba_marseille","lat":43.29575,"lon":5.38554,"is_reserved":false,"is_disabled":false,"rental_uris":{"android":"levelo://app?vid=ae276dbe-2bee-4de1-9769-f8f66825f40a","ios":"levelo://app?vid=ae276dbe-2bee-4de1-9769-f8f66825f40a"},"vehicle_type_id":"4","last_reported":1741467960,"current_range_meters":15200,"station_id":"ce4bgih2rcd13ifvqba0","pricing_plan_id":"cebpf4jnsgd1na2vs0mg"},{"bike_id":"347bb355-4c95-4913-87ae-585333e3578e","system_id":"levelo_inurba_marseille","lat":43.29278,"lon":5.38451,"is_reserved":false,"is_disabled":false,"rental_uris":{"android":"levelo://app?vid=347bb355-4c95-4913-87ae-585333e3578e","ios":"levelo://app?vid=347bb355-4c95-4913-87ae-585333e3578e"},"vehicle_type_id":"4","last_reported":1741467960,"current_range_meters":15200,"station_id":"ce4bh692rcd13ifvqea0","pricing_plan_id":"cebpf4jnsgd1na2vs0mg"},{"bike_id":"f36ae466-a77a-4b5f-81fb-7f656c25849a","system_id":"levelo_inurba_marseille","lat":43.27209,"lon":5.39182,"is_reserved":false,"is_disabled":false,"rental_uris":{"android":"levelo://app?vid=f36ae466-a77a-4b5f-81fb-7f656c25849a","ios":"levelo://app?vid=f36ae466-a77a-4b5f-81fb-7f656c25849a"},"vehicle_type_id":"4","last_reported":1741467960,"current_range_meters":15200,"station_id":"ce4bhhp2rcd13ifvqfm0","pricing_plan_id":"cebpf4jnsgd1na2vs0mg"},{"bike_id":"e9dab2ce-7c7d-40d2-82aa-ed5c703d86fd","system_id":"levelo_inurba_marseille","lat":43.32112,"lon":5.36776,"is_reserved":false,"is_disabled":false,"rental_uris":{"android":"levelo://app?vid=e9dab2ce-7c7d-40d2-82aa-ed5c703d86fd","ios":"levelo://app?vid=e9dab2ce-7c7d-40d2-82aa-ed5c703d86fd"},"vehicle_type_id":"4","last_reported":1741467960,"current_range_meters":15200,"station_id":"ce4bhrh2rcd13ifvqhug","pricing_plan_id":"cebpf4jnsgd1na2vs0mg"},{"bike_id":"deb81f77-c6e9-45d2-b680-8c00a5704cb4","system_id":"levelo_inurba_marseille","lat":43.32092,"lon":5.3678,"is_reserved":false,"is_disabled":false,"rental_uris":{"android":"levelo://app?vid=deb81f77-c6e9-45d2-b680-8c00a5704cb4","ios":"levelo://app?vid=deb81f77-c6e9-45d2-b680-8c00a5704cb4"},"vehicle_type_id":"4","last_reported":1741467960,"current_range_meters":15200,"station_id":"ce4bhrh2rcd13ifvqhug","pricing_plan_id":"cebpf4jnsgd1na2vs0mg"},{"bike_id":"2921a9de-6f65-4022-9e71-0fa0e0f3494d","system_id":"levelo_inurba_marseille","lat":43.29532,"lon":5.38535,"is_reserved":false,"is_disabled":false,"rental_uris":{"android":"levelo://app?vid=2921a9de-6f65-4022-9e71-0fa0e0f3494d","ios":"levelo://app?vid=2921a9de-6f65-4022-9e71-0fa0e0f3494d"},"vehicle_type_id":"4","last_reported":1741467960,"current_range_meters":16000,"station_id":"ce4bgih2rcd13ifvqba0","pricing_plan_id":"cebpf4jnsgd1na2vs0mg"},{"bike_id":"f9638b2c-d0af-4d66-87fa-2740d52e0d85","system_id":"levelo_inurba_marseille","lat":43.29613,"lon":5.37171,"is_reserved":false,"is_disabled":false,"rental_uris":{"android":"levelo://app?vid=f9638b2c-d0af-4d66-87fa-2740d52e0d85","ios":"levelo://app?vid=f9638b2c-d0af-4d66-87fa-2740d52e0d85"},"vehicle_type_id":"4","last_reported":1741467960,"current_range_meters":16000,"station_id":"ce4bgnh2rcd13ifvqc0g","pricing_plan_id":"cebpf4jnsgd1na2vs0mg"},{"bike_id":"55e07992-75f2-46df-b108-3d8b1289bc19","system_id":"levelo_inurba_marseille","lat":43.29037,"lon":5.37573,"is_reserved":false,"is_disabled":false,"rental_uris":{"android":"levelo://app?vid=55e07992-75f2-46df-b108-3d8b1289bc19","ios":"levelo://app?vid=55e07992-75f2-46df-b108-3d8b1289bc19"},"vehicle_type_id":"4","last_reported":1741467960,"current_range_meters":16000,"station_id":"ce4bh692rcd13ifvqe90","pricing_plan_id":"cebpf4jnsgd1na2vs0mg"},{"bike_id":"6af04937-0681-4f26-bd91-477a3afdcacd","system_id":"levelo_inurba_marseille","lat":43.24802,"lon":5.37452,"is_reserved":false,"is_disabled":false,"rental_uris":{"android":"levelo://app?vid=6af04937-0681-4f26-bd91-477a3afdcacd","ios":"levelo://app?vid=6af04937-0681-4f26-bd91-477a3afdcacd"},"vehicle_type_id":"4","last_reported":1741467960,"current_range_meters":16000,"station_id":"ce4bhgh2rcd13ifvqfb0","pricing_plan_id":"cebpf4jnsgd1na2vs0mg"},{"bike_id":"1c481fb0-d338-447e-9ac4-5d0e02692c73","system_id":"levelo_inurba_marseille","lat":43.25488,"lon":5.37642,"is_reserved":false,"is_disabled":false,"rental_uris":{"android":"levelo://app?vid=1c481fb0-d338-447e-9ac4-5d0e02692c73","ios":"levelo://app?vid=1c481fb0-d338-447e-9ac4-5d0e02692c73"},"vehicle_type_id":"4","last_reported":1741467960,"current_range_meters":16000,"station_id":"ce4bhh12rcd13ifvqff0","pricing_plan_id":"cebpf4jnsgd1na2vs0mg"},{"bike_id":"08fdc1d0-8ff9-4f50-b1df-1bda2a7fa786","system_id":"levelo_inurba_marseille","lat":43.3211,"lon":5.36786,"is_reserved":false,"is_disabled":false,"rental_uris":{"android":"levelo://app?vid=08fdc1d0-8ff9-4f50-b1df-1bda2a7fa786","ios":"levelo://app?vid=08fdc1d0-8ff9-4f50-b1df-1bda2a7fa786"},"vehicle_type_id":"4","last_reported":1741467960,"current_range_meters":16000,"station_id":"ce4bhrh2rcd13ifvqhug","pricing_plan_id":"cebpf4jnsgd1na2vs0mg"},{"bike_id":"b95d23af-3c09-4f82-8dd9-a60eb717c1cd","system_id":"levelo_inurba_marseille","lat":43.33037,"lon":5.39755,"is_reserved":false,"is_disabled":false,"rental_uris":{"android":"levelo://app?vid=b95d23af-3c09-4f82-8dd9-a60eb717c1cd","ios":"levelo://app?vid=b95d23af-3c09-4f82-8dd9-a60eb717c1cd"},"vehicle_type_id":"4","last_reported":1741467960,"current_range_meters":16400,"station_id":"","pricing_plan_id":"cebpf4jnsgd1na2vs0mg"},{"bike_id":"b7dbd81c-ca41-4403-b3b8-c89e3ddb5bdb","system_id":"levelo_inurba_marseille","lat":43.31373,"lon":5.37657,"is_reserved":false,"is_disabled":false,"rental_uris":{"android":"levelo://app?vid=b7dbd81c-ca41-4403-b3b8-c89e3ddb5bdb","ios":"levelo://app?vid=b7dbd81c-ca41-4403-b3b8-c89e3ddb5bdb"},"vehicle_type_id":"4","last_reported":1741467960,"current_range_meters":16400,"station_id":"","pricing_plan_id":"cebpf4jnsgd1na2vs0mg"},{"bike_id":"da129414-f280-48cf-ab3e-bff259c7a62a","system_id":"levelo_inurba_marseille","lat":43.29308,"lon":5.37166,"is_reserved":false,"is_disabled":false,"rental_uris":{"android":"levelo://app?vid=da129414-f280-48cf-ab3e-bff259c7a62a","ios":"levelo://app?vid=da129414-f280-48cf-ab3e-bff259c7a62a"},"vehicle_type_id":"4","last_reported":1741467960,"current_range_meters":16400,"station_id":"ce4bgh92rcd13ifvqb40","pricing_plan_id":"cebpf4jnsgd1na2vs0mg"},{"bike_id":"2d4c74b2-640d-421f-bf74-f777497ee41a","system_id":"levelo_inurba_marseille","lat":43.30304,"lon":5.39204,"is_reserved":false,"is_disabled":false,"rental_uris":{"android":"levelo://app?vid=2d4c74b2-640d-421f-bf74-f777497ee41a","ios":"levelo://app?vid=2d4c74b2-640d-421f-bf74-f777497ee41a"},"vehicle_type_id":"4","last_reported":1741467960,"current_range_meters":16400,"station_id":"ce4bgkh2rcd13ifvqbk0","pricing_plan_id":"cebpf4jnsgd1na2vs0mg"},{"bike_id":"d19f8686-8d00-4a1e-9a57-ec6e2143288d","system_id":"levelo_inurba_marseille","lat":43.29533,"lon":5.37502,"is_reserved":false,"is_disabled":false,"rental_uris":{"android":"levelo://app?vid=d19f8686-8d00-4a1e-9a57-ec6e2143288d","ios":"levelo://app?vid=d19f8686-8d00-4a1e-9a57-ec6e2143288d"},