{"last_updated":1747764867,"ttl":60,"version":"2.2","data":{"bikes":[{"bike_id":"c0b9fd4f-e181-46ce-b0bf-f5119973334f","system_id":"levelo_inurba_marseille","lat":43.33771,"lon":5.37424,"is_reserved":false,"is_disabled":true,"rental_uris":{"android":"levelo://app?vid=c0b9fd4f-e181-46ce-b0bf-f5119973334f","ios":"levelo://app?vid=c0b9fd4f-e181-46ce-b0bf-f5119973334f"},"vehicle_type_id":"4","last_reported":1747764867,"current_range_meters":0,"station_id":"","pricing_plan_id":"cebpf4jnsgd1na2vs0mg"},{"bike_id":"fc2577e7-1497-425b-9d4f-ab8d7dc843c6","system_id":"levelo_inurba_marseille","lat":43.33771,"lon":5.37485,"is_reserved":false,"is_disabled":true,"rental_uris":{"android":"levelo://app?vid=fc2577e7-1497-425b-9d4f-ab8d7dc843c6","ios":"levelo://app?vid=fc2577e7-1497-425b-9d4f-ab8d7dc843c6"},"vehicle_type_id":"4","last_reported":1747764867,"current_range_meters":0,"station_id":"","pricing_plan_id":"cebpf4jnsgd1na2vs0mg"},{"bike_id":"0f459924-77c7-4e4d-91ab-eefd8404a7f3","system_id":"levelo_inurba_marseille","lat":43.31827,"lon":5.38909,"is_reserved":false,"is_disabled":true,"rental_uris":{"android":"levelo://app?vid=0f459924-77c7-4e4d-91ab-eefd8404a7f3","ios":"levelo://app?vid=0f459924-77c7-4e4d-91ab-eefd8404a7f3"},"vehicle_type_id":"4","last_reported":1747764867,"current_range_meters":0,"station_id":"","pricing_plan_id":"cebpf4jnsgd1na2vs0mg"},{"bike_id":"193fb940-cfa6-47de-aedf-50066ae57d3c","system_id":"levelo_inurba_marseille","lat":43.30955,"lon":5.38639,"is_reserved":false,"is_disabled":true,"rental_uris":{"android":"levelo://app?vid=193fb940-cfa6-47de-aedf-50066ae57d3c","ios":"levelo://app?vid=193fb940-cfa6-47de-aedf-50066ae57d3c"},"vehicle_type_id":"4","last_reported":1747764867,"current_range_meters":0,"station_id":"","pricing_plan_id":"cebpf4jnsgd1na2vs0mg"},{"bike_id":"fea43c0c-64be-4bdb-9fbb-ba49fa4326e1","system_id":"levelo_inurba_marseille","lat":43.282148,"lon":5.390609,"is_reserved":false,"is_disabled":true,"rental_uris":{"android":"levelo://app?vid=fea43c0c-64be-4bdb-9fbb-ba49fa4326e1","ios":"levelo://app?vid=fea43c0c-64be-4bdb-9fbb-ba49fa4326e1"},"vehicle_type_id":"4","last_reported":1747764867,"current_range_meters":0,"station_id":"","pricing_plan_id":"cebpf4jnsgd1na2vs0mg"},{"bike_id":"399c41cd-ce0f-41ec-852e-8ace5217f7e1","system_id":"levelo_inurba_marseille","lat":43.29949,"lon":5.45291,"is_reserved":false,"is_disabled":true,"rental_uris":{"android":"levelo://app?vid=399c41cd-ce0f-41ec-852e-8ace5217f7e1","ios":"levelo://app?vid=399c41cd-ce0f-41ec-852e-8ace5217f7e1"},"vehicle_type_id":"4","last_reported":1747764867,"current_range_meters":0,"station_id":"","pricing_plan_id":"cebpf4jnsgd1na2vs0mg"},{"bike_id":"9cbc41a4-1ea7-437c-9922-07c42a064686","system_id":"levelo_inurba_marseille","lat":43.29538,"lon":5.39308,"is_reserved":false,"is_disabled":true,"rental_uris":{"android":"levelo://app?vid=9cbc41a4-1ea7-437c-9922-07c42a064686","ios":"levelo://app?vid=9cbc41a4-1ea7-437c-9922-07c42a064686"},"vehicle_type_id":"4","last_reported":1747764867,"current_range_meters":0,"station_id":"","pricing_plan_id":"cebpf4jnsgd1na2vs0mg"},{"bike_id":"51ae0958-406a-4431-94ad-9f5846678e4f","system_id":"levelo_inurba_marseille","lat":43.29405,"lon":5.40865,"is_reserved":false,"is_disabled":true,"rental_uris":{"android":"levelo://app?vid=51ae0958-406a-4431-94ad-9f5846678e4f","ios":"levelo://app?vid=51ae0958-406a-4431-94ad-9f5846678e4f"},"vehicle_type_id":"4","last_reported":1747764867,"current_range_meters":0,"station_id":"","pricing_plan_id":"cebpf4jnsgd1na2vs0mg"},{"bike_id":"e9dd3aa4-b5e7-4480-926d-d7f537719bfa","system_id":"levelo_inurba_marseille","lat":43.230331,"lon":5.401847,"is_reserved":false,"is_disabled":true,"rental_uris":{"android":"levelo://app?vid=e9dd3aa4-b5e7-4480-926d-d7f537719bfa","ios":"levelo://app?vid=e9dd3aa4-b5e7-4480-926d-d7f537719bfa"},"vehicle_type_id":"4","last_reported":1747764867,"current_range_meters":0,"station_id":"","pricing_plan_id":"cebpf4jnsgd1na2vs0mg"},{"bike_id":"c714c5ae-5ef2-4f89-8b27-263fa7fd4a35","system_id":"levelo_inurba_marseille","lat":43.30878,"lon":5.3966,"is_reserved":false,"is_disabled":true,"rental_uris":{"android":"levelo://app?vid=c714c5ae-5ef2-4f89-8b27-263fa7fd4a35","ios":"levelo://app?vid=c714c5ae-5ef2-4f89-8b27-263fa7fd4a35"},"vehicle_type_id":"4","last_reported":1747764867,"current_range_meters":0,"station_id":"ce4bh012rcd13ifvqcv0","pricing_plan_id":"cebpf4jnsgd1na2vs0mg"},{"bike_id":"9ca87aa6-027d-4e28-bd9d-073189ce94c1","system_id":"levelo_inurba_marseille","lat":43.29119,"lon":5.38082,"is_reserved":false,"is_disabled":true,"rental_uris":{"android":"levelo://app?vid=9ca87aa6-027d-4e28-bd9d-073189ce94c1","ios":"levelo://app?vid=9ca87aa6-027d-4e28-bd9d-073189ce94c1"},"vehicle_type_id":"4","last_reported":1747764867,"current_range_meters":0,"station_id":"ce4bh512rcd13ifvqe2g","pricing_plan_id":"cebpf4jnsgd1na2vs0mg"},{"bike_id":"b797fcab-31d4-4ebc-805d-16929950857f","system_id":"levelo_inurba_marseille","lat":43.26214,"lon":5.3744,"is_reserved":false,"is_disabled":true,"rental_uris":{"android":"levelo://app?vid=b797fcab-31d4-4ebc-805d-16929950857f","ios":"levelo://app?vid=b797fcab-31d4-4ebc-805d-16929950857f"},"vehicle_type_id":"4","last_reported":1747764867,"current_range_meters":0,"station_id":"ce4bhgp2rcd13ifvqfc0","pricing_plan_id":"cebpf4jnsgd1na2vs0mg"},{"bike_id":"3a92b462-7d55-4119-aaff-a443b75330ca","system_id":"levelo_inurba_marseille","lat":43.25501,"lon":5.37654,"is_reserved":false,"is_disabled":true,"rental_uris":{"android":"levelo://app?vid=3a92b462-7d55-4119-aaff-a443b75330ca","ios":"levelo://app?vid=3a92b462-7d55-4119-aaff-a443b75330ca"},"vehicle_type_id":"4","last_reported":1747764867,"current_range_meters":0,"station_id":"ce4bhh12rcd13ifvqff0","pricing_plan_id":"cebpf4jnsgd1na2vs0mg"},{"bike_id":"e6f66813-ef23-440e-9dd9-153f997bbeb5","system_id":"levelo_inurba_marseille","lat":43.26482,"lon":5.39555,"is_reserved":false,"is_disabled":true,"rental_uris":{"android":"levelo://app?vid=e6f66813-ef23-440e-9dd9-153f997bbeb5","ios":"levelo://app?vid=e6f66813-ef23-440e-9dd9-153f997bbeb5"},"vehicle_type_id":"4","last_reported":1747764867,"current_range_meters":0,"station_id":"ce4bhi12rcd13ifvqfq0","pricing_plan_id":"cebpf4jnsgd1na2vs0mg"},{"bike_id":"4a033fdc-7346-4cc0-9f02-f079da097807","system_id":"levelo_inurba_marseille","lat":43.25586,"lon":5.38238,"is_reserved":false,"is_disabled":true,"rental_uris":{"android":"levelo://app?vid=4a033fdc-7346-4cc0-9f02-f079da097807","ios":"levelo://app?vid=4a033fdc-7346-4cc0-9f02-f079da097807"},"vehicle_type_id":"4","last_reported":1747764867,"current_range_meters":0,"station_id":"ce4bhih2rcd13ifvqfs0","pricing_plan_id":"cebpf4jnsgd1na2vs0mg"},{"bike_id":"980d8480-b991-4aa9-ad9a-bed31bcecc44","system_id":"levelo_inurba_marseille","lat":43.23186,"lon":5.3999,"is_reserved":false,"is_disabled":true,"rental_uris":{"android":"levelo://app?vid=980d8480-b991-4aa9-ad9a-bed31bcecc44","ios":"levelo://app?vid=980d8480-b991-4aa9-ad9a-bed31bcecc44"},"vehicle_type_id":"4","last_reported":1747764867,"current_range_meters":0,"station_id":"ce4bhn12rcd13ifvqgqg","pricing_plan_id":"cebpf4jnsgd1na2vs0mg"},{"bike_id":"3a4db7e7-3b23-4ded-9073-219d356db8b9","system_id":"levelo_inurba_marseille","lat":43.2407,"lon":5.37768,"is_reserved":false,"is_disabled":true,"rental_uris":{"android":"levelo://app?vid=3a4db7e7-3b23-4ded-9073-219d356db8b9","ios":"levelo://app?vid=3a4db7e7-3b23-4ded-9073-219d356db8b9"},"vehicle_type_id":"4","last_reported":1747764867,"current_range_meters":0,"station_id":"ce4bhnp2rcd13ifvqgvg","pricing_plan_id":"cebpf4jnsgd1na2vs0mg"},{"bike_id":"912be152-ba23-45b1-a14b-d3513a13eac9","system_id":"levelo_inurba_marseille","lat":43.31954,"lon":5.374,"is_reserved":false,"is_disabled":true,"rental_uris":{"android":"levelo://app?vid=912be152-ba23-45b1-a14b-d3513a13eac9","ios":"levelo://app?vid=912be152-ba23-45b1-a14b-d3513a13eac9"},"vehicle_type_id":"4","last_reported":1747764867,"current_range_meters":400,"station_id":"","pricing_plan_id":"cebpf4jnsgd1na2vs0mg"},{"bike_id":"6ceda5b0-5f95-4fc5-9c8c-b257791be826","system_id":"levelo_inurba_marseille","lat":43.2804,"lon":5.3694,"is_reserved":false,"is_disabled":true,"rental_uris":{"android":"levelo://app?vid=6ceda5b0-5f95-4fc5-9c8c-b257791be826","ios":"levelo://app?vid=6ceda5b0-5f95-4fc5-9c8c-b257791be826"},"vehicle_type_id":"4","last_reported":1747764867,"current_range_meters":400,"station_id":"ce4bha12rcd13ifvqef0","pricing_plan_id":"cebpf4jnsgd1na2vs0mg"},{"bike_id":"85731189-b2e5-4663-bb8c-d51c926d8b17","system_id":"levelo_inurba_marseille","lat":43.25583,"lon":5.38238,"is_reserved":false,"is_disabled":true,"rental_uris":{"android":"levelo://app?vid=85731189-b2e5-4663-bb8c-d51c926d8b17","ios":"levelo://app?vid=85731189-b2e5-4663-bb8c-d51c926d8b17"},"vehicle_type_id":"4","last_reported":1747764867,"current_range_meters":400,"station_id":"ce4bhih2rcd13ifvqfs0","pricing_plan_id":"cebpf4jnsgd1na2vs0mg"},{"bike_id":"38aee7bb-cfaf-4efd-b7a8-9a39f07dfc89","system_id":"levelo_inurba_marseille","lat":43.27373,"lon":5.36252,"is_reserved":false,"is_disabled":true,"rental_uris":{"android":"levelo://app?vid=38aee7bb-cfaf-4efd-b7a8-9a39f07dfc89","ios":"levelo://app?vid=38aee7bb-cfaf-4efd-b7a8-9a39f07dfc89"},"vehicle_type_id":"4","last_reported":1747764867,"current_range_meters":800,"station_id":"ce4bhbh2rcd13ifvqeo0","pricing_plan_id":"cebpf4jnsgd1na2vs0mg"},{"bike_id":"dc98730d-cc0a-4c44-9a6d-5e9014b8987b","system_id":"levelo_inurba_marseille","lat":43.25115,"lon":5.40318,"is_reserved":false,"is_disabled":true,"rental_uris":{"android":"levelo://app?vid=dc98730d-cc0a-4c44-9a6d-5e9014b8987b","ios":"levelo://app?vid=dc98730d-cc0a-4c44-9a6d-5e9014b8987b"},"vehicle_type_id":"4","last_reported":1747764867,"current_range_meters":800,"station_id":"ce4bhlh2rcd13ifvqgig","pricing_plan_id":"cebpf4jnsgd1na2vs0mg"},{"bike_id":"94d8a59a-ca56-44ee-b062-00fcf4bc6616","system_id":"levelo_inurba_marseille","lat":43.23169,"lon":5.39998,"is_reserved":false,"is_disabled":true,"rental_uris":{"android":"levelo://app?vid=94d8a59a-ca56-44ee-b062-00fcf4bc6616","ios":"levelo://app?vid=94d8a59a-ca56-44ee-b062-00fcf4bc6616"},"vehicle_type_id":"4","last_reported":1747764867,"current_range_meters":800,"station_id":"ce4bhn12rcd13ifvqgqg","pricing_plan_id":"cebpf4jnsgd1na2vs0mg"},{"bike_id":"6d362400-aab0-4c9b-b57a-9f45b61b2a84","system_id":"levelo_inurba_marseille","lat":43.3002,"lon":5.40921,"is_reserved":false,"is_disabled":true,"rental_uris":{"android":"levelo://app?vid=6d362400-aab0-4c9b-b57a-9f45b61b2a84","ios":"levelo://app?vid=6d362400-aab0-4c9b-b57a-9f45b61b2a84"},"vehicle_type_id":"4","last_reported":1747764867,"current_range_meters":1200,"station_id":"","pricing_plan_id":"cebpf4jnsgd1na2vs0mg"},{"bike_id":"36ca1586-842b-4dd5-8f83-7ffdbca39e63","system_id":"levelo_inurba_marseille","lat":43.29533,"lon":5.38548,"is_reserved":false,"is_disabled":true,"rental_uris":{"android":"levelo://app?vid=36ca1586-842b-4dd5-8f83-7ffdbca39e63","ios":"levelo://app?vid=36ca1586-842b-4dd5-8f83-7ffdbca39e63"},"vehicle_type_id":"4","last_reported":1747764867,"current_range_meters":1200,"station_id":"ce4bgih2rcd13ifvqba0","pricing_plan_id":"cebpf4jnsgd1na2vs0mg"},{"bike_id":"7d7a19ae-61e8-4a41-9200-9b6f942533f1","system_id":"levelo_inurba_marseille","lat":43.306066,"lon":5.372269,"is_reserved":false,"is_disabled":true,"rental_uris":{"android":"levelo://app?vid=7d7a19ae-61e8-4a41-9200-9b6f942533f1","ios":"levelo://app?vid=7d7a19ae-61e8-4a41-9200-9b6f942533f1"},"vehicle_type_id":"4","last_reported":1747764867,"current_range_meters":1200,"station_id":"ce4bgqh2rcd13ifvqc4g","pricing_plan_id":"cebpf4jnsgd1na2vs0mg"},{"bike_id":"7b567e8f-86a2-4f11-82e8-b5a1d758b10b","system_id":"levelo_inurba_marseille","lat":43.29064,"lon":5.3719,"is_reserved":false,"is_disabled":true,"rental_uris":{"android":"levelo://app?vid=7b567e8f-86a2-4f11-82e8-b5a1d758b10b","ios":"levelo://app?vid=7b567e8f-86a2-4f11-82e8-b5a1d758b10b"},"vehicle_type_id":"4","last_reported":1747764867,"current_range_meters":1600,"station_id":"ce4bh5p2rcd13ifvqe4g","pricing_plan_id":"cebpf4jnsgd1na2vs0mg"},{"bike_id":"70cededa-5e74-4166-a6d1-01424ffc6754","system_id":"levelo_inurba_marseille","lat":43.31082,"lon":5.42435,"is_reserved":false,"is_disabled":true,"rental_uris":{"android":"levelo://app?vid=70cededa-5e74-4166-a6d1-01424ffc6754","ios":"levelo://app?vid=70cededa-5e74-4166-a6d1-01424ffc6754"},"vehicle_type_id":"4","last_reported":1747764867,"current_range_meters":1600,"station_id":"ce4bhp92rcd13ifvqhag","pricing_plan_id":"cebpf4jnsgd1na2vs0mg"},{"bike_id":"3c2e874b-823b-4069-8a4a-aca4fb4238f3","system_id":"levelo_inurba_marseille","lat":43.276326,"lon":5.397349,"is_reserved":false,"is_disabled":true,"rental_uris":{"android":"levelo://app?vid=3c2e874b-823b-4069-8a4a-aca4fb4238f3","ios":"levelo://app?vid=3c2e874b-823b-4069-8a4a-aca4fb4238f3"},"vehicle_type_id":"4","last_reported":1747764867,"current_range_meters":2000,"station_id":"","pricing_plan_id":"cebpf4jnsgd1na2vs0mg"},{"bike_id":"124564c4-133e-41c6-bc38-2b81369555b2","system_id":"levelo_inurba_marseille","lat":43.27374,"lon":5.36257,"is_reserved":false,"is_disabled":true,"rental_uris":{"android":"levelo://app?vid=124564c4-133e-41c6-bc38-2b81369555b2","ios":"levelo://app?vid=124564c4-133e-41c6-bc38-2b81369555b2"},"vehicle_type_id":"4","last_reported":1747764867,"current_range_meters":2000,"station_id":"ce4bhbh2rcd13ifvqeo0","pricing_plan_id":"cebpf4jnsgd1na2vs0mg"},{"bike_id":"3e309358-0fb7-4800-a918-7268045916e5","system_id":"levelo_inurba_marseille","lat":43.27816,"lon":5.40721,"is_reserved":false,"is_disabled":true,"rental_uris":{"android":"levelo://app?vid=3e309358-0fb7-4800-a918-7268045916e5","ios":"levelo://app?vid=3e309358-0fb7-4800-a918-7268045916e5"},"vehicle_type_id":"4","last_reported":1747764867,"current_range_meters":2000,"station_id":"ce4bhnh2rcd13ifvqgtg","pricing_plan_id":"cebpf4jnsgd1na2vs0mg"},{"bike_id":"a2f377fc-ceeb-44c6-b80d-9be882a97936","system_id":"levelo_inurba_marseille","lat":43.31769,"lon":5.39001,"is_reserved":false,"is_disabled":true,"rental_uris":{"android":"levelo://app?vid=a2f377fc-ceeb-44c6-b80d-9be882a97936","ios":"levelo://app?vid=a2f377fc-ceeb-44c6-b80d-9be882a97936"},"vehicle_type_id":"4","last_reported":1747764867,"current_range_meters":2000,"station_id":"ce4bhqp2rcd13ifvqhng","pricing_plan_id":"cebpf4jnsgd1na2vs0mg"},{"bike_id":"7b39d616-b1c3-4b3a-ba2c-e72fdc08b676","system_id":"levelo_inurba_marseille","lat":43.2924,"lon":5.40901,"is_reserved":false,"is_disabled":false,"rental_uris":{"android":"levelo://app?vid=7b39d616-b1c3-4b3a-ba2c-e72fdc08b676","ios":"levelo://app?vid=7b39d616-b1c3-4b3a-ba2c-e72fdc08b676"},"vehicle_type_id":"4","last_reported":1747764867,"current_range_meters":2800,"station_id":"ce4bh192rcd13ifvqdc0","pricing_plan_id":"cebpf4jnsgd1na2vs0mg"},{"bike_id":"a5ff30a5-eb16-4e54-ba4f-4e068b03c073","system_id":"levelo_inurba_marseille","lat":43.28853,"lon":5.35852,"is_reserved":false,"is_disabled":false,"rental_uris":{"android":"levelo://app?vid=a5ff30a5-eb16-4e54-ba4f-4e068b03c073","ios":"levelo://app?vid=a5ff30a5-eb16-4e54-ba4f-4e068b03c073"},"vehicle_type_id":"4","last_reported":1747764867,"current_range_meters":3200,"station_id":"ce4bhb12rcd13ifvqem0","pricing_plan_id":"cebpf4jnsgd1na2vs0mg"},{"bike_id":"ad0c7604-928a-4823-9ab5-4ee84d396647","system_id":"levelo_inurba_marseille","lat":43.26553,"lon":5.38072,"is_reserved":false,"is_disabled":false,"rental_uris":{"android":"levelo://app?vid=ad0c7604-928a-4823-9ab5-4ee84d396647","ios":"levelo://app?vid=ad0c7604-928a-4823-9ab5-4ee84d396647"},"vehicle_type_id":"4","last_reported":1747764867,"current_range_meters":3200,"station_id":"ce4bhg92rcd13ifvqf90","pricing_plan_id":"cebpf4jnsgd1na2vs0mg"},{"bike_id":"30670139-e0a2-4873-8611-0be5ac3d0e82","system_id":"levelo_inurba_marseille","lat":43.27361,"lon":5.39097,"is_reserved":false,"is_disabled":false,"rental_uris":{"android":"levelo://app?vid=30670139-e0a2-4873-8611-0be5ac3d0e82","ios":"levelo://app?vid=30670139-e0a2-4873-8611-0be5ac3d0e82"},"vehicle_type_id":"4","last_reported":1747764867,"current_range_meters":3200,"station_id":"ce4bhgp2rcd13ifvqfe0","pricing_plan_id":"cebpf4jnsgd1na2vs0mg"},{"bike_id":"e1fd3e3c-c5b7-4f67-b0c2-e90e5dcdcf4e","system_id":"levelo_inurba_marseille","lat":43.264974,"lon":5.395482,"is_reserved":false,"is_disabled":false,"rental_uris":{"android":"levelo://app?vid=e1fd3e3c-c5b7-4f67-b0c2-e90e5dcdcf4e","ios":"levelo://app?vid=e1fd3e3c-c5b7-4f67-b0c2-e90e5dcdcf4e"},"vehicle_type_id":"4","last_reported":1747764867,"current_range_meters":3200,"station_id":"ce4bhi12rcd13ifvqfq0","pricing_plan_id":"cebpf4jnsgd1na2vs0mg"},{"bike_id":"5976a1b0-aaff-4b11-bc9a-537b1ffa785b","system_id":"levelo_inurba_marseille","lat":43.28456,"lon":5.35885,"is_reserved":false,"is_disabled":false,"rental_uris":{"android":"levelo://app?vid=5976a1b0-aaff-4b11-bc9a-537b1ffa785b","ios":"levelo://app?vid=5976a1b0-aaff-4b11-bc9a-537b1ffa785b"},"vehicle_type_id":"4","last_reported":1747764867,"current_range_meters":3600,"station_id":"ce4bhah2rcd13ifvqei0","pricing_plan_id":"cebpf4jnsgd1na2vs0mg"},{"bike_id":"68872ab4-3c4f-4daf-ab28-0774c99bf61a","system_id":"levelo_inurba_marseille","lat":43.25113,"lon":5.40307,"is_reserved":false,"is_disabled":false,"rental_uris":{"android":"levelo://app?vid=68872ab4-3c4f-4daf-ab28-0774c99bf61a","ios":"levelo://app?vid=68872ab4-3c4f-4daf-ab28-0774c99bf61a"},"vehicle_type_id":"4","last_reported":1747764867,"current_range_meters":3600,"station_id":"ce4bhlh2rcd13ifvqgig","pricing_plan_id":"cebpf4jnsgd1na2vs0mg"},{"bike_id":"e64e36d1-c3e7-4427-9260-70ac75fa0a1c","system_id":"levelo_inurba_marseille","lat":43.33773,"lon":5.37483,"is_reserved":false,"is_disabled":false,"rental_uris":{"android":"levelo://app?vid=e64e36d1-c3e7-4427-9260-70ac75fa0a1c","ios":"levelo://app?vid=e64e36d1-c3e7-4427-9260-70ac75fa0a1c"},"vehicle_type_id":"4","last_reported":1747764867,"current_range_meters":4000,"station_id":"","pricing_plan_id":"cebpf4jnsgd1na2vs0mg"},{"bike_id":"d1f6077a-4b8e-4304-b44c-199fb86e895d","system_id":"levelo_inurba_marseille","lat":43.30546,"lon":5.38417,"is_reserved":false,"is_disabled":false,"rental_uris":{"android":"levelo://app?vid=d1f6077a-4b8e-4304-b44c-199fb86e895d","ios":"levelo://app?vid=d1f6077a-4b8e-4304-b44c-199fb86e895d"},"vehicle_type_id":"4","last_reported":1747764867,"current_range_meters":4000,"station_id":"ce4bgg92rcd13ifvqb30","pricing_plan_id":"cebpf4jnsgd1na2vs0mg"},{"bike_id":"d57153c1-8f91-4784-beeb-c2d53dbe2885","system_id":"levelo_inurba_marseille","lat":43.30591,"lon":5.37233,"is_reserved":false,"is_disabled":false,"rental_uris":{"android":"levelo://app?vid=d57153c1-8f91-4784-beeb-c2d53dbe2885","ios":"levelo://app?vid=d57153c1-8f91-4784-beeb-c2d53dbe2885"},"vehicle_type_id":"4","last_reported":1747764867,"current_range_meters":4000,"station_id":"ce4bgqh2rcd13ifvqc4g","pricing_plan_id":"cebpf4jnsgd1na2vs0mg"},{"bike_id":"04df0fdb-8483-4ae7-8db9-4fcb4e68b8c4","system_id":"levelo_inurba_marseille","lat":43.287415,"lon":5.384925,"is_reserved":false,"is_disabled":false,"rental_uris":{"android":"levelo://app?vid=04df0fdb-8483-4ae7-8db9-4fcb4e68b8c4","ios":"levelo://app?vid=04df0fdb-8483-4ae7-8db9-4fcb4e68b8c4"},"vehicle_type_id":"4","last_reported":1747764867,"current_range_meters":4000,"station_id":"ce4bh612rcd13ifvqe6g","pricing_plan_id":"cebpf4jnsgd1na2vs0mg"},{"bike_id":"2fec8a42-20b3-41e9-8d6c-8e213a07dde8","system_id":"levelo_inurba_marseille","lat":43.28713,"lon":5.3794,"is_reserved":false,"is_disabled":false,"rental_uris":{"android":"levelo://app?vid=2fec8a42-20b3-41e9-8d6c-8e213a07dde8","ios":"levelo://app?vid=2fec8a42-20b3-41e9-8d6c-8e213a07dde8"},"vehicle_type_id":"4","last_reported":1747764867,"current_range_meters":4000,"station_id":"ce4bh9p2rcd13ifvqec0","pricing_plan_id":"cebpf4jnsgd1na2vs0mg"},{"bike_id":"a2552bec-658e-4eea-abc9-deb9830eb669","system_id":"levelo_inurba_marseille","lat":43.23178,"lon":5.39976,"is_reserved":false,"is_disabled":false,"rental_uris":{"android":"levelo://app?vid=a2552bec-658e-4eea-abc9-deb9830eb669","ios":"levelo://app?vid=a2552bec-658e-4eea-abc9-deb9830eb669"},"vehicle_type_id":"4","last_reported":1747764867,"current_range_meters":4000,"station_id":"ce4bhn12rcd13ifvqgqg","pricing_plan_id":"cebpf4jnsgd1na2vs0mg"},{"bike_id":"bcf76825-b688-4776-b2c2-b9e8e703785a","system_id":"levelo_inurba_marseille","lat":43.307333,"lon":5.424403,"is_reserved":false,"is_disabled":false,"rental_uris":{"android":"levelo://app?vid=bcf76825-b688-4776-b2c2-b9e8e703785a","ios":"levelo://app?vid=bcf76825-b688-4776-b2c2-b9e8e703785a"},"vehicle_type_id":"4","last_reported":1747764867,"current_range_meters":4000,"station_id":"st_cvj6ca6bvosntc0bfgr0","pricing_plan_id":"cebpf4jnsgd1na2vs0mg"},{"bike_id":"68da5479-01e7-4b91-9c52-a301a8429b0f","system_id":"levelo_inurba_marseille","lat":43.29257,"lon":5.37623,"is_reserved":false,"is_disabled":false,"rental_uris":{"android":"levelo://app?vid=68da5479-01e7-4b91-9c52-a301a8429b0f","ios":"levelo://app?vid=68da5479-01e7-4b91-9c52-a301a8429b0f"},"vehicle_type_id":"4","last_reported":1747764867,"current_range_meters":4400,"station_id":"ce4bgi12rcd13ifvqb80","pricing_plan_id":"cebpf4jnsgd1na2vs0mg"},{"bike_id":"a12c52b5-a718-4900-8975-0b622e7c3ddf","system_id":"levelo_inurba_marseille","lat":43.299211,"lon":5.374734,"is_reserved":false,"is_disabled":false,"rental_uris":{"android":"levelo://app?vid=a12c52b5-a718-4900-8975-0b622e7c3ddf","ios":"levelo://app?vid=a12c52b5-a718-4900-8975-0b622e7c3ddf"},"vehicle_type_id":"4","last_reported":1747764867,"current_range_meters":4400,"station_id":"ce4bgjh2rcd13ifvqbg0","pricing_plan_id":"cebpf4jnsgd1na2vs0mg"},{"bike_id":"9d94c859-09fc-4250-b5ba-c9eb02dcc8dc","system_id":"levelo_inurba_marseille","lat":43.30251,"lon":5.40058,"is_reserved":false,"is_disabled":false,"rental_uris":{"android":"levelo://app?vid=9d94c859-09fc-4250-b5ba-c9eb02dcc8dc","ios":"levelo://app?vid=9d94c859-09fc-4250-b5ba-c9eb02dcc8dc"},"vehicle_type_id":"4","last_reported":1747764867,"current_range_meters":4400,"station_id":"ce4bgvh2rcd13ifvqcs0","pricing_plan_id":"cebpf4jnsgd1na2vs0mg"},{"bike_id":"20e333a9-798b-42d6-afa4-c94df8c77bd6","system_id":"levelo_inurba_marseille","lat":43.28138,"lon":5.42648,"is_reserved":false,"is_disabled":false,"rental_uris":{"android":"levelo://app?vid=20e333a9-798b-42d6-afa4-c94df8c77bd6","ios":"levelo://app?vid=20e333a9-798b-42d6-afa4-c94df8c77bd6"},"vehicle_type_id":"4","last_reported":1747764867,"current_range_meters":4400,"station_id":"ce4bhnh2rcd13ifvqgug","pricing_plan_id":"cebpf4jnsgd1na2vs0mg"},{"bike_id":"20bee342-4a3f-4f34-940d-bb6cf00d52ae","system_id":"levelo_inurba_marseille","lat":43.26668,"lon":5.38582,"is_reserved":false,"is_disabled":false,"rental_uris":{"android":"levelo://app?vid=20bee342-4a3f-4f34-940d-bb6cf00d52ae","ios":"levelo://app?vid=20bee342-4a3f-4f34-940d-bb6cf00d52ae"},"vehicle_type_id":"4","last_reported":1747764867,"current_range_meters":4800,"station_id":"","pricing_plan_id":"cebpf4jnsgd1na2vs0mg"},{"bike_id":"233bbcfe-c961-44e2-90c2-2d32759cfc56","system_id":"levelo_inurba_marseille","lat":43.30228,"lon":5.394882,"is_reserved":false,"is_disabled":false,"rental_uris":{"android":"levelo://app?vid=233bbcfe-c961-44e2-90c2-2d32759cfc56","ios":"levelo://app?vid=233bbcfe-c961-44e2-90c2-2d32759cfc56"},"vehicle_type_id":"4","last_reported":1747764867,"current_range_meters":4800,"station_id":"ce4bh0p2rcd13ifvqd70","pricing_plan_id":"cebpf4jnsgd1na2vs0mg"},{"bike_id":"ab1a4504-8ef4-479d-9f6f-c03977ae52cb","system_id":"levelo_inurba_marseille","lat":43.24813,"lon":5.37457,"is_reserved":false,"is_disabled":false,"rental_uris":{"android":"levelo://app?vid=ab1a4504-8ef4-479d-9f6f-c03977ae52cb","ios":"levelo://app?vid=ab1a4504-8ef4-479d-9f6f-c03977ae52cb"},"vehicle_type_id":"4","last_reported":1747764867,"current_range_meters":4800,"station_id":"ce4bhgh2rcd13ifvqfb0","pricing_plan_id":"cebpf4jnsgd1na2vs0mg"},{"bike_id":"d0c54a00-ea27-42db-b52f-4bb487e4e9e1","system_id":"levelo_inurba_marseille","lat":43.24178,"lon":5.39724,"is_reserved":false,"is_disabled":false,"rental_uris":{"android":"levelo://app?vid=d0c54a00-ea27-42db-b52f-4bb487e4e9e1","ios":"levelo://app?vid=d0c54a00-ea27-42db-b52f-4bb487e4e9e1"},"vehicle_type_id":"4","last_reported":1747764867,"current_range_meters":4800,"station_id":"ce4bhn12rcd13ifvqgpg","pricing_plan_id":"cebpf4jnsgd1na2vs0mg"},{"bike_id":"396f2af7-a1b7-45ae-b053-326bdaf45e1b","system_id":"levelo_inurba_marseille","lat":43.30367,"lon":5.42485,"is_reserved":false,"is_disabled":false,"rental_uris":{"android":"levelo://app?vid=396f2af7-a1b7-45ae-b053-326bdaf45e1b","ios":"levelo://app?vid=396f2af7-a1b7-45ae-b053-326bdaf45e1b"},"vehicle_type_id":"4","last_reported":1747764867,"current_range_meters":4800,"station_id":"ce4bhoh2rcd13ifvqh6g","pricing_plan_id":"cebpf4jnsgd1na2vs0mg"},{"bike_id":"e1099fc2-8880-4344-bde0-04dfc31e44a5","system_id":"levelo_inurba_marseille","lat":43.30799,"lon":5.43529,"is_reserved":false,"is_disabled":false,"rental_uris":{"android":"levelo://app?vid=e1099fc2-8880-4344-bde0-04dfc31e44a5","ios":"levelo://app?vid=e1099fc2-8880-4344-bde0-04dfc31e44a5"},"vehicle_type_id":"4","last_reported":1747764867,"current_range_meters":4800,"station_id":"ce4bhph2rcd13ifvqheg","pricing_plan_id":"cebpf4jnsgd1na2vs0mg"},{"bike_id":"2e6e64c2-1430-49d7-a9c1-09fccbf0f8ca","system_id":"levelo_inurba_marseille","lat":43.33732,"lon":5.39183,"is_reserved":false,"is_disabled":false,"rental_uris":{"android":"levelo://app?vid=2e6e64c2-1430-49d7-a9c1-09fccbf0f8ca","ios":"levelo://app?vid=2e6e64c2-1430-49d7-a9c1-09fccbf0f8ca"},"vehicle_type_id":"4","last_reported":1747764867,"current_range_meters":4800,"station_id":"ce4bhr92rcd13ifvqhsg","pricing_plan_id":"cebpf4jnsgd1na2vs0mg"},{"bike_id":"0c08e5b0-fde5-49b1-89bb-e0701dc02799","system_id":"levelo_inurba_marseille","lat":43.3043,"lon":5.38891,"is_reserved":false,"is_disabled":false,"rental_uris":{"android":"levelo://app?vid=0c08e5b0-fde5-49b1-89bb-e0701dc02799","ios":"levelo://app?vid=0c08e5b0-fde5-49b1-89bb-e0701dc02799"},"vehicle_type_id":"4","last_reported":1747764867,"current_range_meters":5600,"station_id":"ce4bgk12rcd13ifvqbi0","pricing_plan_id":"cebpf4jnsgd1na2vs0mg"},{"bike_id":"cd5f78a7-3c1c-4363-b5cc-051787bae2ed","system_id":"levelo_inurba_marseille","lat":43.25825,"lon":5.3944,"is_reserved":false,"is_disabled":false,"rental_uris":{"android":"levelo://app?vid=cd5f78a7-3c1c-4363-b5cc-051787bae2ed","ios":"levelo://app?vid=cd5f78a7-3c1c-4363-b5cc-051787bae2ed"},"vehicle_type_id":"4","last_reported":1747764867,"current_range_meters":5600,"station_id":"ce4bhip2rcd13ifvqft0","pricing_plan_id":"cebpf4jnsgd1na2vs0mg"},{"bike_id":"ba59102a-6c47-4600-bcb9-76e5920c2815","system_id":"levelo_inurba_marseille","lat":43.31344,"lon":5.37202,"is_reserved":false,"is_disabled":false,"rental_uris":{"android":"levelo://app?vid=ba59102a-6c47-4600-bcb9-76e5920c2815","ios":"levelo://app?vid=ba59102a-6c47-4600-bcb9-76e5920c2815"},"vehicle_type_id":"4","last_reported":1747764867,"current_range_meters":6000,"station_id":"","pricing_plan_id":"cebpf4jnsgd1na2vs0mg"},{"bike_id":"9c3eadf3-209c-4ac8-b003-8fcd453ae05f","system_id":"levelo_inurba_marseille","lat":43.28038,"lon":5.36945,"is_reserved":false,"is_disabled":false,"rental_uris":{"android":"levelo://app?vid=9c3eadf3-209c-4ac8-b003-8fcd453ae05f","ios":"levelo://app?vid=9c3eadf3-209c-4ac8-b003-8fcd453ae05f"},"vehicle_type_id":"4","last_reported":1747764867,"current_range_meters":6000,"station_id":"ce4bha12rcd13ifvqef0","pricing_plan_id":"cebpf4jnsgd1na2vs0mg"},{"bike_id":"cf20a5f9-ed8c-4691-830f-418dcf259a2b","system_id":"levelo_inurba_marseille","lat":43.25497,"lon":5.37636,"is_reserved":false,"is_disabled":false,"rental_uris":{"android":"levelo://app?vid=cf20a5f9-ed8c-4691-830f-418dcf259a2b","ios":"levelo://app?vid=cf20a5f9-ed8c-4691-830f-418dcf259a2b"},"vehicle_type_id":"4","last_reported":1747764867,"current_range_meters":6000,"station_id":"ce4bhh12rcd13ifvqff0","pricing_plan_id":"cebpf4jnsgd1na2vs0mg"},{"bike_id":"bb8db386-52b9-4fc9-8f97-3af0ed638228","system_id":"levelo_inurba_marseille","lat":43.26212,"lon":5.37926,"is_reserved":false,"is_disabled":false,"rental_uris":{"android":"levelo://app?vid=bb8db386-52b9-4fc9-8f97-3af0ed638228","ios":"levelo://app?vid=bb8db386-52b9-4fc9-8f97-3af0ed638228"},"vehicle_type_id":"4","last_reported":1747764867,"current_range_meters":6000,"station_id":"ce4bhjp2rcd13ifvqg90","pricing_plan_id":"cebpf4jnsgd1na2vs0mg"},{"bike_id":"4b88fdea-9410-479b-abf3-7d2c52ae8721","system_id":"levelo_inurba_marseille","lat":43.25107,"lon":5.40324,"is_reserved":false,"is_disabled":false,"rental_uris":{"android":"levelo://app?vid=4b88fdea-9410-479b-abf3-7d2c52ae8721","ios":"levelo://app?vid=4b88fdea-9410-479b-abf3-7d2c52ae8721"},"vehicle_type_id":"4","last_reported":1747764867,"current_range_meters":6000,"station_id":"ce4bhlh2rcd13ifvqgig","pricing_plan_id":"cebpf4jnsgd1na2vs0mg"},{"bike_id":"aee74e6d-645b-4a6c-bcfa-7697bf604faa","system_id":"levelo_inurba_marseille","lat":43.27998,"lon":5.40017,"is_reserved":false,"is_disabled":false,"rental_uris":{"android":"levelo://app?vid=aee74e6d-645b-4a6c-bcfa-7697bf604faa","ios":"levelo://app?vid=aee74e6d-645b-4a6c-bcfa-7697bf604faa"},"vehicle_type_id":"4","last_reported":1747764867,"current_range_meters":6000,"station_id":"ce4bho92rcd13ifvqh4g","pricing_plan_id":"cebpf4jnsgd1na2vs0mg"},{"bike_id":"068a78cc-8660-43a3-9179-5215a9eed415","system_id":"levelo_inurba_marseille","lat":43.29302,"lon":5.37463,"is_reserved":false,"is_disabled":false,"rental_uris":{"android":"levelo://app?vid=068a78cc-8660-43a3-9179-5215a9eed415","ios":"levelo://app?vid=068a78cc-8660-43a3-9179-5215a9eed415"},"vehicle_type_id":"4","last_reported":1747764867,"current_range_meters":6400,"station_id":"ce4bgi12rcd13ifvqb70","pricing_plan_id":"cebpf4jnsgd1na2vs0mg"},{"bike_id":"aa1e679a-ec3d-43d1-92e4-5afd2ab3d869","system_id":"levelo_inurba_marseille","lat":43.30142,"lon":5.39841,"is_reserved":false,"is_disabled":false,"rental_uris":{"android":"levelo://app?vid=aa1e679a-ec3d-43d1-92e4-5afd2ab3d869","ios":"levelo://app?vid=aa1e679a-ec3d-43d1-92e4-5afd2ab3d869"},"vehicle_type_id":"4","last_reported":1747764867,"current_range_meters":6400,"station_id":"ce4bh0h2rcd13ifvqd40","pricing_plan_id":"cebpf4jnsgd1na2vs0mg"},{"bike_id":"43a669de-adcd-42c3-8105-1febeebaa55c","system_id":"levelo_inurba_marseille","lat":43.27916,"lon":5.395805,"is_reserved":false,"is_disabled":false,"rental_uris":{"android":"levelo://app?vid=43a669de-adcd-42c3-8105-1febeebaa55c","ios":"levelo://app?vid=43a669de-adcd-42c3-8105-1febeebaa55c"},"vehicle_type_id":"4","last_reported":1747764867,"current_range_meters":6400,"station_id":"ce4bhf92rcd13ifvqf40","pricing_plan_id":"cebpf4jnsgd1na2vs0mg"},{"bike_id":"3756623f-8650-41f1-921f-b5cabd8d6af7","system_id":"levelo_inurba_marseille","lat":43.31973,"lon":5.37481,"is_reserved":false,"is_disabled":false,"rental_uris":{"android":"levelo://app?vid=3756623f-8650-41f1-921f-b5cabd8d6af7","ios":"levelo://app?vid=3756623f-8650-41f1-921f-b5cabd8d6af7"},"vehicle_type_id":"4","last_reported":1747764867,"current_range_meters":6800,"station_id":"","pricing_plan_id":"cebpf4jnsgd1na2vs0mg"},{"bike_id":"bcbdbd69-7be8-42f8-a855-a4358565de8f","system_id":"levelo_inurba_marseille","lat":43.27733,"lon":5.41394,"is_reserved":false,"is_disabled":false,"rental_uris":{"android":"levelo://app?vid=bcbdbd69-7be8-42f8-a855-a4358565de8f","ios":"levelo://app?vid=bcbdbd69-7be8-42f8-a855-a4358565de8f"},"vehicle_type_id":"4","last_reported":1747764867,"current_range_meters":6800,"station_id":"","pricing_plan_id":"cebpf4jnsgd1na2vs0mg"},{"bike_id":"5fb6a1f8-7fd8-4093-9224-149fe76f65c7","system_id":"levelo_inurba_marseille","lat":43.30141,"lon":5.37418,"is_reserved":false,"is_disabled":false,"rental_uris":{"android":"levelo://app?vid=5fb6a1f8-7fd8-4093-9224-149fe76f65c7","ios":"levelo://app?vid=5fb6a1f8-7fd8-4093-9224-149fe76f65c7"},"vehicle_type_id":"4","last_reported":1747764867,"current_range_meters":6800,"station_id":"ce4bgs92rcd13ifvqcc0","pricing_plan_id":"cebpf4jnsgd1na2vs0mg"},{"bike_id":"8f0f531d-6a65-4647-8a6f-baa3d982f42f","system_id":"levelo_inurba_marseille","lat":43.28122,"lon":5.42586,"is_reserved":false,"is_disabled":false,"rental_uris":{"android":"levelo://app?vid=8f0f531d-6a65-4647-8a6f-baa3d982f42f","ios":"levelo://app?vid=8f0f531d-6a65-4647-8a6f-baa3d982f42f"},"vehicle_type_id":"4","last_reported":1747764867,"current_range_meters":7200,"station_id":"","pricing_plan_id":"cebpf4jnsgd1na2vs0mg"},{"bike_id":"a78bc30f-d61c-4f67-affc-20bbafc401a3","system_id":"levelo_inurba_marseille","lat":43.30131,"lon":5.39863,"is_reserved":false,"is_disabled":false,"rental_uris":{"android":"levelo://app?vid=a78bc30f-d61c-4f67-affc-20bbafc401a3","ios":"levelo://app?vid=a78bc30f-d61c-4f67-affc-20bbafc401a3"},"vehicle_type_id":"4","last_reported":1747764867,"current_range_meters":7200,"station_id":"ce4bh0h2rcd13ifvqd40","pricing_plan_id":"cebpf4jnsgd1na2vs0mg"},{"bike_id":"35bd9a79-44f6-4106-a2a9-3365befa25fa","system_id":"levelo_inurba_marseille","lat":43.28675,"lon":5.3866,"is_reserved":false,"is_disabled":false,"rental_uris":{"android":"levelo://app?vid=35bd9a79-44f6-4106-a2a9-3365befa25fa","ios":"levelo://app?vid=35bd9a79-44f6-4106-a2a9-3365befa25fa"},"vehicle_type_id":"4","last_reported":1747764867,"current_range_meters":7200,"station_id":"ce4bh492rcd13ifvqdug","pricing_plan_id":"cebpf4jnsgd1na2vs0mg"},{"bike_id":"7779bdb2-3e3d-4257-9fe9-06e6e72a8fbb","system_id":"levelo_inurba_marseille","lat":43.28739,"lon":5.37976,"is_reserved":false,"is_disabled":false,"rental_uris":{"android":"levelo://app?vid=7779bdb2-3e3d-4257-9fe9-06e6e72a8fbb","ios":"levelo://app?vid=7779bdb2-3e3d-4257-9fe9-06e6e72a8fbb"},"vehicle_type_id":"4","last_reported":1747764867,"current_range_meters":7200,"station_id":"ce4bh9p2rcd13ifvqec0","pricing_plan_id":"cebpf4jnsgd1na2vs0mg"},{"bike_id":"126c4136-5470-47ae-9a72-33dbde745361","system_id":"levelo_inurba_marseille","lat":43.26543,"lon":5.39043,"is_reserved":false,"is_disabled":false,"rental_uris":{"android":"levelo://app?vid=126c4136-5470-47ae-9a72-33dbde745361","ios":"levelo://app?vid=126c4136-5470-47ae-9a72-33dbde745361"},"vehicle_type_id":"4","last_reported":1747764867,"current_range_meters":7200,"station_id":"ce4bhe12rcd13ifvqf30","pricing_plan_id":"cebpf4jnsgd1na2vs0mg"},{"bike_id":"01cb2e34-f8ae-4c99-bc04-8da7443e4644","system_id":"levelo_inurba_marseille","lat":43.30417,"lon":5.41289,"is_reserved":false,"is_disabled":false,"rental_uris":{"android":"levelo://app?vid=01cb2e34-f8ae-4c99-bc04-8da7443e4644","ios":"levelo://app?vid=01cb2e34-f8ae-4c99-bc04-8da7443e4644"},"vehicle_type_id":"4","last_reported":1747764867,"current_range_meters":7200,"station_id":"ce4bhop2rcd13ifvqh8g","pricing_plan_id":"cebpf4jnsgd1na2vs0mg"},{"bike_id":"e8008497-6770-4893-9a49-94f598d6ff3d","system_id":"levelo_inurba_marseille","lat":43.31773,"lon":5.39,"is_reserved":false,"is_disabled":false,"rental_uris":{"android":"levelo://app?vid=e8008497-6770-4893-9a49-94f598d6ff3d","ios":"levelo://app?vid=e8008497-6770-4893-9a49-94f598d6ff3d"},"vehicle_type_id":"4","last_reported":1747764867,"current_range_meters":7200,"station_id":"ce4bhqp2rcd13ifvqhng","pricing_plan_id":"cebpf4jnsgd1na2vs0mg"},{"bike_id":"a86d588e-15d7-4bbc-a49c-a091c128c973","system_id":"levelo_inurba_marseille","lat":43.23197,"lon":5.35543,"is_reserved":false,"is_disabled":false,"rental_uris":{"android":"levelo://app?vid=a86d588e-15d7-4bbc-a49c-a091c128c973","ios":"levelo://app?vid=a86d588e-15d7-4bbc-a49c-a091c128c973"},"vehicle_type_id":"4","last_reported":1747764867,"current_range_meters":7200,"station_id":"ce4bhu92rcd13ifvqi70","pricing_plan_id":"cebpf4jnsgd1na2vs0mg"},{"bike_id":"85eaca89-9437-48d0-9bca-a254337b88db","system_id":"levelo_inurba_marseille","lat":43.27468,"lon":5.40961,"is_reserved":false,"is_disabled":false,"rental_uris":{"android":"levelo://app?vid=85eaca89-9437-48d0-9bca-a254337b88db","ios":"levelo://app?vid=85eaca89-9437-48d0-9bca-a254337b88db"},"vehicle_type_id":"4","last_reported":1747764867,"current_range_meters":8000,"station_id":"","pricing_plan_id":"cebpf4jnsgd1na2vs0mg"},{"bike_id":"a982adcc-9376-4d71-aaa6-a6b327c9fa2a","system_id":"levelo_inurba_marseille","lat":43.30911,"lon":5.36846,"is_reserved":false,"is_disabled":false,"rental_uris":{"android":"levelo://app?vid=a982adcc-9376-4d71-aaa6-a6b327c9fa2a","ios":"levelo://app?vid=a982adcc-9376-4d71-aaa6-a6b327c9fa2a"},"vehicle_type_id":"4","last_reported":1747764867,"current_range_meters":8000,"station_id":"ce4bgn92rcd13ifvqbvg","pricing_plan_id":"cebpf4jnsgd1na2vs0mg"},{"bike_id":"63848e79-a9d7-4eee-9a0f-aab3aced5588","system_id":"levelo_inurba_marseille","lat":43.29276,"lon":5.36853,"is_reserved":false,"is_disabled":false,"rental_uris":{"android":"levelo://app?vid=63848e79-a9d7-4eee-9a0f-aab3aced5588","ios":"levelo://app?vid=63848e79-a9d7-4eee-9a0f-aab3aced5588"},"vehicle_type_id":"4","last_reported":1747764867,"current_range_meters":8000,"station_id":"ce4bhbp2rcd13ifvqesg","pricing_plan_id":"cebpf4jnsgd1na2vs0mg"},{"bike_id":"8a77c670-a7af-4ac0-9918-4e6c1c91e962","system_id":"levelo_inurba_marseille","lat":43.25076,"lon":5.39554,"is_reserved":false,"is_disabled":false,"rental_uris":{"android":"levelo://app?vid=8a77c670-a7af-4ac0-9918-4e6c1c91e962","ios":"levelo://app?vid=8a77c670-a7af-4ac0-9918-4e6c1c91e962"},"vehicle_type_id":"4","last_reported":1747764867,"current_range_meters":8000,"station_id":"ce4bhm12rcd13ifvqgkg","pricing_plan_id":"cebpf4jnsgd1na2vs0mg"},{"bike_id":"feadd485-e507-4070-a97d-b228f8e95bcb","system_id":"levelo_inurba_marseille","lat":43.295562,"lon":5.422915,"is_reserved":false,"is_disabled":false,"rental_uris":{"android":"levelo://app?vid=feadd485-e507-4070-a97d-b228f8e95bcb","ios":"levelo://app?vid=feadd485-e507-4070-a97d-b228f8e95bcb"},"vehicle_type_id":"4","last_reported":1747764867,"current_range_meters":8000,"station_id":"ce4bhph2rcd13ifvqhdg","pricing_plan_id":"cebpf4jnsgd1na2vs0mg"},{"bike_id":"e06b4522-2e52-4951-8ff8-086d65890cec","system_id":"levelo_inurba_marseille","lat":43.2694,"lon":5.40262,"is_reserved":false,"is_disabled":false,"rental_uris":{"android":"levelo://app?vid=e06b4522-2e52-4951-8ff8-086d65890cec","ios":"levelo://app?vid=e06b4522-2e52-4951-8ff8-086d65890cec"},"vehicle_type_id":"4","last_reported":1747764867,"current_range_meters":8000,"station_id":"cjm6bp8fraef2m0cb0m0","pricing_plan_id":"cebpf4jnsgd1na2vs0mg"},{"bike_id":"d3996809-7ebd-4c26-a054-6ef78dbb7380","system_id":"levelo_inurba_marseille","lat":43.30648,"lon":5.40079,"is_reserved":false,"is_disabled":false,"rental_uris":{"android":"levelo://app?vid=d3996809-7ebd-4c26-a054-6ef78dbb7380","ios":"levelo://app?vid=d3996809-7ebd-4c26-a054-6ef78dbb7380"},"vehicle_type_id":"4","last_reported":1747764867,"current_range_meters":8400,"station_id":"ce4bh112rcd13ifvqda0","pricing_plan_id":"cebpf4jnsgd1na2vs0mg"},{"bike_id":"9e2cbd2f-59c0-49fd-803d-00b3807b36db","system_id":"levelo_inurba_marseille","lat":43.29249,"lon":5.40919,"is_reserved":false,"is_disabled":false,"rental_uris":{"android":"levelo://app?vid=9e2cbd2f-59c0-49fd-803d-00b3807b36db","ios":"levelo://app?vid=9e2cbd2f-59c0-49fd-803d-00b3807b36db"},"vehicle_type_id":"4","last_reported":1747764867,"current_range_meters":8400,"station_id":"ce4bh192rcd13ifvqdc0","pricing_plan_id":"cebpf4jnsgd1na2vs0mg"},{"bike_id":"8bb998b5-b149-4be3-9425-19424ce476be","system_id":"levelo_inurba_marseille","lat":43.28038,"lon":5.36948,"is_reserved":false,"is_disabled":false,"rental_uris":{"android":"levelo://app?vid=8bb998b5-b149-4be3-9425-19424ce476be","ios":"levelo://app?vid=8bb998b5-b149-4be3-9425-19424ce476be"},"vehicle_type_id":"4","last_reported":1747764867,"current_range_meters":8400,"station_id":"ce4bha12rcd13ifvqef0","pricing_plan_id":"cebpf4jnsgd1na2vs0mg"},{"bike_id":"0a93cb39-aade-42a7-83e0-1bade3cb2d61","system_id":"levelo_inurba_marseille","lat":43.291656,"lon":5.371618,"is_reserved":false,"is_disabled":false,"rental_uris":{"android":"levelo://app?vid=0a93cb39-aade-42a7-83e0-1bade3cb2d61","ios":"levelo://app?vid=0a93cb39-aade-42a7-83e0-1bade3cb2d61"},"vehicle_type_id":"4","last_reported":1747764867,"current_range_meters":8400,"station_id":"ce4bha92rcd13ifvqeh0","pricing_plan_id":"cebpf4jnsgd1na2vs0mg"},{"bike_id":"1bbe5f68-8b6e-4e77-84fb-487428aa7fb0","system_id":"levelo_inurba_marseille","lat":43.29162,"lon":5.37154,"is_reserved":false,"is_disabled":false,"rental_uris":{"android":"levelo://app?vid=1bbe5f68-8b6e-4e77-84fb-487428aa7fb0","ios":"levelo://app?vid=1bbe5f68-8b6e-4e77-84fb-487428aa7fb0"},"vehicle_type_id":"4","last_reported":1747764867,"current_range_meters":8400,"station_id":"ce4bha92rcd13ifvqeh0","pricing_plan_id":"cebpf4jnsgd1na2vs0mg"},{"bike_id":"3870d19c-fd5b-475f-bc0e-e1adb882845c","system_id":"levelo_inurba_marseille","lat":43.295211,"lon":5.422844,"is_reserved":false,"is_disabled":false,"rental_uris":{"android":"levelo://app?vid=3870d19c-fd5b-475f-bc0e-e1adb882845c","ios":"levelo://app?vid=3870d19c-fd5b-475f-bc0e-e1adb882845c"},"vehicle_type_id":"4","last_reported":1747764867,"current_range_meters":8400,"station_id":"ce4bhph2rcd13ifvqhdg","pricing_plan_id":"cebpf4jnsgd1na2vs0mg"},{"bike_id":"86cf97dc-ea2d-428a-8962-7cd0d9f1878a","system_id":"levelo_inurba_marseille","lat":43.25508,"lon":5.39928,"is_reserved":false,"is_disabled":false,"rental_uris":{"android":"levelo://app?vid=86cf97dc-ea2d-428a-8962-7cd0d9f1878a","ios":"levelo://app?vid=86cf97dc-ea2d-428a-8962-7cd0d9f1878a"},"vehicle_type_id":"4","last_reported":1747764867,"current_range_meters":8800,"station_id":"","pricing_plan_id":"cebpf4jnsgd1na2vs0mg"},{"bike_id":"b1ab9ccf-d005-4e04-959f-d15b750df38b","system_id":"levelo_inurba_marseille","lat":43.31292,"lon":5.38291,"is_reserved":false,"is_disabled":false,"rental_uris":{"android":"levelo://app?vid=b1ab9ccf-d005-4e04-959f-d15b750df38b","ios":"levelo://app?vid=b1ab9ccf-d005-4e04-959f-d15b750df38b"},"vehicle_type_id":"4","last_reported":1747764867,"current_range_meters":8800,"station_id":"","pricing_plan_id":"cebpf4jnsgd1na2vs0mg"},{"bike_id":"ba960376-72b6-497b-b5b8-ac851fc938c4","system_id":"levelo_inurba_marseille","lat":43.30361,"lon":5.41875,"is_reserved":false,"is_disabled":false,"rental_uris":{"android":"levelo://app?vid=ba960376-72b6-497b-b5b8-ac851fc938c4","ios":"levelo://app?vid=ba960376-72b6-497b-b5b8-ac851fc938c4"},"vehicle_type_id":"4","last_reported":1747764867,"current_range_meters":8800,"station_id":"ce4bhop2rcd13ifvqh7g","pricing_plan_id":"cebpf4jnsgd1na2vs0mg"},{"bike_id":"bffbaf88-357a-4e87-a68c-a9a27a6e01e6","system_id":"levelo_inurba_marseille","lat":43.262349,"lon":5.421283,"is_reserved":false,"is_disabled":false,"rental_uris":{"android":"levelo://app?vid=bffbaf88-357a-4e87-a68c-a9a27a6e01e6","ios":"levelo://app?vid=bffbaf88-357a-4e87-a68c-a9a27a6e01e6"},"vehicle_type_id":"4","last_reported":1747764867,"current_range_meters":9200,"station_id":"","pricing_plan_id":"cebpf4jnsgd1na2vs0mg"},{"bike_id":"7ee6b5d1-dcaa-416d-8a83-cc4c875c2f12","system_id":"levelo_inurba_marseille","lat":43.286102,"lon":5.351101,"is_reserved":false,"is_disabled":false,"rental_uris":{"android":"levelo://app?vid=7ee6b5d1-dcaa-416d-8a83-cc4c875c2f12","ios":"levelo://app?vid=7ee6b5d1-dcaa-416d-8a83-cc4c875c2f12"},"vehicle_type_id":"4","last_reported":1747764867,"current_range_meters":9200,"station_id":"ce4bhch2rcd13ifvqeug","pricing_plan_id":"cebpf4jnsgd1na2vs0mg"},{"bike_id":"de03d63e-5dd2-4895-932d-b9728c79c52e","system_id":"levelo_inurba_marseille","lat":43.25495,"lon":5.3766,"is_reserved":false,"is_disabled":false,"rental_uris":{"android":"levelo://app?vid=de03d63e-5dd2-4895-932d-b9728c79c52e","ios":"levelo://app?vid=de03d63e-5dd2-4895-932d-b9728c79c52e"},"vehicle_type_id":"4","last_reported":1747764867,"current_range_meters":9200,"station_id":"ce4bhh12rcd13ifvqff0","pricing_plan_id":"cebpf4jnsgd1na2vs0mg"},{"bike_id":"a0aabdb9-5fa2-40e6-8b72-83f513b3ace8","system_id":"levelo_inurba_marseille","lat":43.23199,"lon":5.3555,"is_reserved":false,"is_disabled":false,"rental_uris":{"android":"levelo://app?vid=a0aabdb9-5fa2-40e6-8b72-83f513b3ace8","ios":"levelo://app?vid=a0aabdb9-5fa2-40e6-8b72-83f513b3ace8"},"vehicle_type_id":"4","last_reported":1747764867,"current_range_meters":9200,"station_id":"ce4bhu92rcd13ifvqi70","pricing_plan_id":"cebpf4jnsgd1na2vs0mg"},{"bike_id":"55354908-40f1-4840-8e54-d933c745cc19","system_id":"levelo_inurba_marseille","lat":43.286255,"lon":5.384475,"is_reserved":false,"is_disabled":false,"rental_uris":{"android":"levelo://app?vid=55354908-40f1-4840-8e54-d933c745cc19","ios":"levelo://app?vid=55354908-40f1-4840-8e54-d933c745cc19"},"vehicle_type_id":"4","last_reported":1747764867,"current_range_meters":9600,"station_id":"","pricing_plan_id":"cebpf4jnsgd1na2vs0mg"},{"bike_id":"74b3a725-2a7e-4f92-8049-6310b65d042f","system_id":"levelo_inurba_marseille","lat":43.29218,"lon":5.36088,"is_reserved":false,"is_disabled":false,"rental_uris":{"android":"levelo://app?vid=74b3a725-2a7e-4f92-8049-6310b65d042f","ios":"levelo://app?vid=74b3a725-2a7e-4f92-8049-6310b65d042f"},"vehicle_type_id":"4","last_reported":1747764867,"current_range_meters":9600,"station_id":"ce4bhbh2rcd13ifvqeqg","pricing_plan_id":"cebpf4jnsgd1na2vs0mg"},{"bike_id":"26c78581-1553-4644-b3f1-9bd75487c5df","system_id":"levelo_inurba_marseille","lat":43.25591,"lon":5.38237,"is_reserved":false,"is_disabled":false,"rental_uris":{"android":"levelo://app?vid=26c78581-1553-4644-b3f1-9bd75487c5df","ios":"levelo://app?vid=26c78581-1553-4644-b3f1-9bd75487c5df"},"vehicle_type_id":"4","last_reported":1747764867,"current_range_meters":9600,"station_id":"ce4bhih2rcd13ifvqfs0","pricing_plan_id":"cebpf4jnsgd1na2vs0mg"},{"bike_id":"141017c9-db67-4742-b07d-828ca23799ff","system_id":"levelo_inurba_marseille","lat":43.23194,"lon":5.35549,"is_reserved":false,"is_disabled":false,"rental_uris":{"android":"levelo://app?vid=141017c9-db67-4742-b07d-828ca23799ff","ios":"levelo://app?vid=141017c9-db67-4742-b07d-828ca23799ff"},"vehicle_type_id":"4","last_reported":1747764867,"current_range_meters":9600,"station_id":"ce4bhu92rcd13ifvqi70","pricing_plan_id":"cebpf4jnsgd1na2vs0mg"},{"bike_id":"e8162579-a5ad-485f-ad83-fec8a2ebe7e1","system_id":"levelo_inurba_marseille","lat":43.26826,"lon":5.39099,"is_reserved":false,"is_disabled":false,"rental_uris":{"android":"levelo://app?vid=e8162579-a5ad-485f-ad83-fec8a2ebe7e1","ios":"levelo://app?vid=e8162579-a5ad-485f-ad83-fec8a2ebe7e1"},"vehicle_type_id":"4","last_reported":1747764867,"current_range_meters":10000,"station_id":"","pricing_plan_id":"cebpf4jnsgd1na2vs0mg"},{"bike_id":"8c6e391d-6de7-4d45-b5f7-5ee9efc08a5a","system_id":"levelo_inurba_marseille","lat":43.31406,"lon":5.39639,"is_reserved":false,"is_disabled":false,"rental_uris":{"android":"levelo://app?vid=8c6e391d-6de7-4d45-b5f7-5ee9efc08a5a","ios":"levelo://app?vid=8c6e391d-6de7-4d45-b5f7-5ee9efc08a5a"},"vehicle_type_id":"4","last_reported":1747764867,"current_range_meters":10000,"station_id":"","pricing_plan_id":"cebpf4jnsgd1na2vs0mg"},{"bike_id":"e8dc44ba-ed5d-4b4d-840c-7c1fcac49009","system_id":"levelo_inurba_marseille","lat":43.30431,"lon":5.39747,"is_reserved":false,"is_disabled":false,"rental_uris":{"android":"levelo://app?vid=e8dc44ba-ed5d-4b4d-840c-7c1fcac49009","ios":"levelo://app?vid=e8dc44ba-ed5d-4b4d-840c-7c1fcac49009"},"vehicle_type_id":"4","last_reported":1747764867,"current_range_meters":10000,"station_id":"ce4bh092rcd13ifvqd20","pricing_plan_id":"cebpf4jnsgd1na2vs0mg"},{"bike_id":"0eba188e-45dc-4d88-bb44-5a6542fb27f0","system_id":"levelo_inurba_marseille","lat":43.3009,"lon":5.39069,"is_reserved":false,"is_disabled":false,"rental_uris":{"android":"levelo://app?vid=0eba188e-45dc-4d88-bb44-5a6542fb27f0","ios":"levelo://app?vid=0eba188e-45dc-4d88-bb44-5a6542fb27f0"},"vehicle_type_id":"4","last_reported":1747764867,"current_range_meters":10000,"station_id":"ce4bh192rcd13ifvqdb0","pricing_plan_id":"cebpf4jnsgd1na2vs0mg"},{"bike_id":"0a11884a-975d-413c-8e52-07cd7ff9db8f","system_id":"levelo_inurba_marseille","lat":43.2808,"lon":5.37865,"is_reserved":false,"is_disabled":false,"rental_uris":{"android":"levelo://app?vid=0a11884a-975d-413c-8e52-07cd7ff9db8f","ios":"levelo://app?vid=0a11884a-975d-413c-8e52-07cd7ff9db8f"},"vehicle_type_id":"4","last_reported":1747764867,"current_range_meters":10000,"station_id":"ce4bha12rcd13ifvqee0","pricing_plan_id":"cebpf4jnsgd1na2vs0mg"},{"bike_id":"1b24829f-cb8a-41f9-b680-3556bf7cf194","system_id":"levelo_inurba_marseille","lat":43.28453,"lon":5.35892,"is_reserved":false,"is_disabled":false,"rental_uris":{"android":"levelo://app?vid=1b24829f-cb8a-41f9-b680-3556bf7cf194","ios":"levelo://app?vid=1b24829f-cb8a-41f9-b680-3556bf7cf194"},"vehicle_type_id":"4","last_reported":1747764867,"current_range_meters":10000,"station_id":"ce4bhah2rcd13ifvqei0","pricing_plan_id":"cebpf4jnsgd1na2vs0mg"},{"bike_id":"482a1ded-1e87-4e35-8d17-968328a6fc09","system_id":"levelo_inurba_marseille","lat":43.26227,"lon":5.40455,"is_reserved":false,"is_disabled":false,"rental_uris":{"android":"levelo://app?vid=482a1ded-1e87-4e35-8d17-968328a6fc09","ios":"levelo://app?vid=482a1ded-1e87-4e35-8d17-968328a6fc09"},"vehicle_type_id":"4","last_reported":1747764867,"current_range_meters":10000,"station_id":"ce4bhmh2rcd13ifvqgmg","pricing_plan_id":"cebpf4jnsgd1na2vs0mg"},{"bike_id":"efa3d3ee-6ab6-4771-aa3d-1ec2742cd864","system_id":"levelo_inurba_marseille","lat":43.27825,"lon":5.40702,"is_reserved":false,"is_disabled":false,"rental_uris":{"android":"levelo://app?vid=efa3d3ee-6ab6-4771-aa3d-1ec2742cd864","ios":"levelo://app?vid=efa3d3ee-6ab6-4771-aa3d-1ec2742cd864"},"vehicle_type_id":"4","last_reported":1747764867,"current_range_meters":10000,"station_id":"ce4bhnh2rcd13ifvqgtg","pricing_plan_id":"cebpf4jnsgd1na2vs0mg"},{"bike_id":"649893f4-d1f7-41d7-8f88-42f6b6e183d3","system_id":"levelo_inurba_marseille","lat":43.24088,"lon":5.37744,"is_reserved":false,"is_disabled":false,"rental_uris":{"android":"levelo://app?vid=649893f4-d1f7-41d7-8f88-42f6b6e183d3","ios":"levelo://app?vid=649893f4-d1f7-41d7-8f88-42f6b6e183d3"},"vehicle_type_id":"4","last_reported":1747764867,"current_range_meters":10000,"station_id":"ce4bhnp2rcd13ifvqgvg","pricing_plan_id":"cebpf4jnsgd1na2vs0mg"},{"bike_id":"3fe3e658-16aa-4314-bde3-a3088b88bbed","system_id":"levelo_inurba_marseille","lat":43.30415,"lon":5.41285,"is_reserved":false,"is_disabled":false,"rental_uris":{"android":"levelo://app?vid=3fe3e658-16aa-4314-bde3-a3088b88bbed","ios":"levelo://app?vid=3fe3e658-16aa-4314-bde3-a3088b88bbed"},"vehicle_type_id":"4","last_reported":1747764867,"current_range_meters":10000,"station_id":"ce4bhop2rcd13ifvqh8g","pricing_plan_id":"cebpf4jnsgd1na2vs0mg"},{"bike_id":"8515e518-e6ae-4d30-823e-a81239625260","system_id":"levelo_inurba_marseille","lat":43.297,"lon":5.36161,"is_reserved":false,"is_disabled":false,"rental_uris":{"android":"levelo://app?vid=8515e518-e6ae-4d30-823e-a81239625260","ios":"levelo://app?vid=8515e518-e6ae-4d30-823e-a81239625260"},"vehicle_type_id":"4","last_reported":1747764867,"current_range_meters":10800,"station_id":"","pricing_plan_id":"cebpf4jnsgd1na2vs0mg"},{"bike_id":"79a2c5f1-3d3f-49e8-8c5e-3449221dc142","system_id":"levelo_inurba_marseille","lat":43.27588,"lon":5.36086,"is_reserved":false,"is_disabled":false,"rental_uris":{"android":"levelo://app?vid=79a2c5f1-3d3f-49e8-8c5e-3449221dc142","ios":"levelo://app?vid=79a2c5f1-3d3f-49e8-8c5e-3449221dc142"},"vehicle_type_id":"4","last_reported":1747764867,"current_range_meters":10800,"station_id":"ce4bgj92rcd13ifvqbe0","pricing_plan_id":"cebpf4jnsgd1na2vs0mg"},{"bike_id":"490a8248-5c16-4b77-8627-1cb3a295d1d4","system_id":"levelo_inurba_marseille","lat":43.27608,"lon":5.36118,"is_reserved":false,"is_disabled":false,"rental_uris":{"android":"levelo://app?vid=490a8248-5c16-4b77-8627-1cb3a295d1d4","ios":"levelo://app?vid=490a8248-5c16-4b77-8627-1cb3a295d1d4"},"vehicle_type_id":"4","last_reported":1747764867,"current_range_meters":10800,"station_id":"ce4bgj92rcd13ifvqbe0","pricing_plan_id":"cebpf4jnsgd1na2vs0mg"},{"bike_id":"01edc2e7-a2a5-4ee3-a537-b3e4e1c2b964","system_id":"levelo_inurba_marseille","lat":43.28674,"lon":5.36348,"is_reserved":false,"is_disabled":false,"rental_uris":{"android":"levelo://app?vid=01edc2e7-a2a5-4ee3-a537-b3e4e1c2b964","ios":"levelo://app?vid=01edc2e7-a2a5-4ee3-a537-b3e4e1c2b964"},"vehicle_type_id":"4","last_reported":1747764867,"current_range_meters":10800,"station_id":"ce4bhah2rcd13ifvqej0","pricing_plan_id":"cebpf4jnsgd1na2vs0mg"},{"bike_id":"373f7ecb-b8cd-456f-8759-32c3cf35ab73","system_id":"levelo_inurba_marseille","lat":43.26935,"lon":5.38928,"is_reserved":false,"is_disabled":false,"rental_uris":{"android":"levelo://app?vid=373f7ecb-b8cd-456f-8759-32c3cf35ab73","ios":"levelo://app?vid=373f7ecb-b8cd-456f-8759-32c3cf35ab73"},"vehicle_type_id":"4","last_reported":1747764867,"current_range_meters":10800,"station_id":"ce4bhhh2rcd13ifvqfl0","pricing_plan_id":"cebpf4jnsgd1na2vs0mg"},{"bike_id":"3552fbf2-b43a-446f-93f5-d695fc251b73","system_id":"levelo_inurba_marseille","lat":43.25198,"lon":5.37511,"is_reserved":false,"is_disabled":false,"rental_uris":{"android":"levelo://app?vid=3552fbf2-b43a-446f-93f5-d695fc251b73","ios":"levelo://app?vid=3552fbf2-b43a-446f-93f5-d695fc251b73"},"vehicle_type_id":"4","last_reported":1747764867,"current_range_meters":11200,"station_id":"","pricing_plan_id":"cebpf4jnsgd1na2vs0mg"},{"bike_id":"99af6b54-f624-460f-b60d-c893dd375f78","system_id":"levelo_inurba_marseille","lat":43.24667,"lon":5.3817,"is_reserved":false,"is_disabled":false,"rental_uris":{"android":"levelo://app?vid=99af6b54-f624-460f-b60d-c893dd375f78","ios":"levelo://app?vid=99af6b54-f624-460f-b60d-c893dd375f78"},"vehicle_type_id":"4","last_reported":1747764867,"current_range_meters":11200,"station_id":"ce4bhih2rcd13ifvqfr0","pricing_plan_id":"cebpf4jnsgd1na2vs0mg"},{"bike_id":"49f05bcc-fd58-450f-908f-51a1dca2ea65","system_id":"levelo_inurba_marseille","lat":43.25099,"lon":5.39507,"is_reserved":false,"is_disabled":false,"rental_uris":{"android":"levelo://app?vid=49f05bcc-fd58-450f-908f-51a1dca2ea65","ios":"levelo://app?vid=49f05bcc-fd58-450f-908f-51a1dca2ea65"},"vehicle_type_id":"4","last_reported":1747764867,"current_range_meters":11200,"station_id":"ce4bhm12rcd13ifvqgkg","pricing_plan_id":"cebpf4jnsgd1na2vs0mg"},{"bike_id":"71e146ad-5169-4dc5-a288-c7c746aad618","system_id":"levelo_inurba_marseille","lat":43.23186,"lon":5.399855,"is_reserved":false,"is_disabled":false,"rental_uris":{"android":"levelo://app?vid=71e146ad-5169-4dc5-a288-c7c746aad618","ios":"levelo://app?vid=71e146ad-5169-4dc5-a288-c7c746aad618"},"vehicle_type_id":"4","last_reported":1747764867,"current_range_meters":11200,"station_id":"ce4bhn12rcd13ifvqgqg","pricing_plan_id":"cebpf4jnsgd1na2vs0mg"},{"bike_id":"48f27f29-5850-4f4f-b193-450032ac8cf8","system_id":"levelo_inurba_marseille","lat":43.26789,"lon":5.40314,"is_reserved":false,"is_disabled":false,"rental_uris":{"android":"levelo://app?vid=48f27f29-5850-4f4f-b193-450032ac8cf8","ios":"levelo://app?vid=48f27f29-5850-4f4f-b193-450032ac8cf8"},"vehicle_type_id":"4","last_reported":1747764867,"current_range_meters":11200,"station_id":"ce501612rcd8frsf0b60","pricing_plan_id":"cebpf4jnsgd1na2vs0mg"},{"bike_id":"c6d2c12c-9aa9-4dcf-860d-fc3c4f3765b3","system_id":"levelo_inurba_marseille","lat":43.27356,"lon":5.36239,"is_reserved":false,"is_disabled":false,"rental_uris":{"android":"levelo://app?vid=c6d2c12c-9aa9-4dcf-860d-fc3c4f3765b3","ios":"levelo://app?vid=c6d2c12c-9aa9-4dcf-860d-fc3c4f3765b3"},"vehicle_type_id":"4","last_reported":1747764867,"current_range_meters":11600,"station_id":"ce4bhbh2rcd13ifvqeo0","pricing_plan_id":"cebpf4jnsgd1na2vs0mg"},{"bike_id":"59b8a132-4666-485c-b6ad-3e889f0d9322","system_id":"levelo_inurba_marseille","lat":43.25505,"lon":5.37635,"is_reserved":false,"is_disabled":false,"rental_uris":{"android":"levelo://app?vid=59b8a132-4666-485c-b6ad-3e889f0d9322","ios":"levelo://app?vid=59b8a132-4666-485c-b6ad-3e889f0d9322"},"vehicle_type_id":"4","last_reported":1747764867,"current_range_meters":11600,"station_id":"ce4bhh12rcd13ifvqff0","pricing_plan_id":"cebpf4jnsgd1na2vs0mg"},{"bike_id":"c3c11b11-8507-45b4-bd48-1e3bdd46fbbe","system_id":"levelo_inurba_marseille","lat":43.23203,"lon":5.3997,"is_reserved":false,"is_disabled":false,"rental_uris":{"android":"levelo://app?vid=c3c11b11-8507-45b4-bd48-1e3bdd46fbbe","ios":"levelo://app?vid=c3c11b11-8507-45b4-bd48-1e3bdd46fbbe"},"vehicle_type_id":"4","last_reported":1747764867,"current_range_meters":11600,"station_id":"ce4bhn12rcd13ifvqgqg","pricing_plan_id":"cebpf4jnsgd1na2vs0mg"},{"bike_id":"cf7d73db-c753-40a4-b556-83232609c6d7","system_id":"levelo_inurba_marseille","lat":43.30125,"lon":5.39863,"is_reserved":false,"is_disabled":false,"rental_uris":{"android":"levelo://app?vid=cf7d73db-c753-40a4-b556-83232609c6d7","ios":"levelo://app?vid=cf7d73db-c753-40a4-b556-83232609c6d7"},"vehicle_type_id":"4","last_reported":1747764867,"current_range_meters":12000,"station_id":"ce4bh0h2rcd13ifvqd40","pricing_plan_id":"cebpf4jnsgd1na2vs0mg"},{"bike_id":"72cd7404-2e42-4953-bf9a-e2c0ef14f470","system_id":"levelo_inurba_marseille","lat":43.29038,"lon":5.35923,"is_reserved":false,"is_disabled":false,"rental_uris":{"android":"levelo://app?vid=72cd7404-2e42-4953-bf9a-e2c0ef14f470","ios":"levelo://app?vid=72cd7404-2e42-4953-bf9a-e2c0ef14f470"},"vehicle_type_id":"4","last_reported":1747764867,"current_range_meters":12000,"station_id":"ce4bha92rcd13ifvqeg0","pricing_plan_id":"cebpf4jnsgd1na2vs0mg"},{"bike_id":"f6e773e6-97fb-470c-90ee-7abb49b9e074","system_id":"levelo_inurba_marseille","lat":43.23973,"lon":5.36621,"is_reserved":false,"is_disabled":false,"rental_uris":{"android":"levelo://app?vid=f6e773e6-97fb-470c-90ee-7abb49b9e074","ios":"levelo://app?vid=f6e773e6-97fb-470c-90ee-7abb49b9e074"},"vehicle_type_id":"4","last_reported":1747764867,"current_range_meters":12000,"station_id":"ce4bhi12rcd13ifvqfp0","pricing_plan_id":"cebpf4jnsgd1na2vs0mg"},{"bike_id":"d222c036-c02a-40db-bb80-83d7b7358871","system_id":"levelo_inurba_marseille","lat":43.33726,"lon":5.39197,"is_reserved":false,"is_disabled":false,"rental_uris":{"android":"levelo://app?vid=d222c036-c02a-40db-bb80-83d7b7358871","ios":"levelo://app?vid=d222c036-c02a-40db-bb80-83d7b7358871"},"vehicle_type_id":"4","last_reported":1747764867,"current_range_meters":12000,"station_id":"ce4bhr92rcd13ifvqhsg","pricing_plan_id":"cebpf4jnsgd1na2vs0mg"},{"bike_id":"ae905db4-39fd-4d1a-b283-c006d7b7939e","system_id":"levelo_inurba_marseille","lat":43.28103,"lon":5.3784,"is_reserved":false,"is_disabled":false,"rental_uris":{"android":"levelo://app?vid=ae905db4-39fd-4d1a-b283-c006d7b7939e","ios":"levelo://app?vid=ae905db4-39fd-4d1a-b283-c006d7b7939e"},"vehicle_type_id":"4","last_reported":1747764867,"current_range_meters":12400,"station_id":"ce4bha12rcd13ifvqee0","pricing_plan_id":"cebpf4jnsgd1na2vs0mg"},{"bike_id":"4884629e-1b2b-4f82-a089-fccac6edde63","system_id":"levelo_inurba_marseille","lat":43.28424,"lon":5.3498,"is_reserved":false,"is_disabled":false,"rental_uris":{"android":"levelo://app?vid=4884629e-1b2b-4f82-a089-fccac6edde63","ios":"levelo://app?vid=4884629e-1b2b-4f82-a089-fccac6edde63"},"vehicle_type_id":"4","last_reported":1747764867,"current_range_meters":12400,"station_id":"ce4bhbh2rcd13ifvqepg","pricing_plan_id":"cebpf4jnsgd1na2vs0mg"},{"bike_id":"dc80936a-51b4-4ef9-b71e-e259b58f2ac3","system_id":"levelo_inurba_marseille","lat":43.23223,"lon":5.39973,"is_reserved":false,"is_disabled":false,"rental_uris":{"android":"levelo://app?vid=dc80936a-51b4-4ef9-b71e-e259b58f2ac3","ios":"levelo://app?vid=dc80936a-51b4-4ef9-b71e-e259b58f2ac3"},"vehicle_type_id":"4","last_reported":1747764867,"current_range_meters":12800,"station_id":"","pricing_plan_id":"cebpf4jnsgd1na2vs0mg"},{"bike_id":"668a16d7-24d3-493b-bcc8-73eb8e3a0c0e","system_id":"levelo_inurba_marseille","lat":43.29413,"lon":5.38631,"is_reserved":false,"is_disabled":false,"rental_uris":{"android":"levelo://app?vid=668a16d7-24d3-493b-bcc8-73eb8e3a0c0e","ios":"levelo://app?vid=668a16d7-24d3-493b-bcc8-73eb8e3a0c0e"},"vehicle_type_id":"4","last_reported":1747764867,"current_range_meters":12800,"station_id":"ce4bh2h2rcd13ifvqdh0","pricing_plan_id":"cebpf4jnsgd1na2vs0mg"},{"bike_id":"c9760461-ada3-40ef-ab0a-8aff1d686fb9","system_id":"levelo_inurba_marseille","lat":43.2886,"lon":5.3586,"is_reserved":false,"is_disabled":false,"rental_uris":{"android":"levelo://app?vid=c9760461-ada3-40ef-ab0a-8aff1d686fb9","ios":"levelo://app?vid=c9760461-ada3-40ef-ab0a-8aff1d686fb9"},"vehicle_type_id":"4","last_reported":1747764867,"current_range_meters":12800,"station_id":"ce4bhb12rcd13ifvqem0","pricing_plan_id":"cebpf4jnsgd1na2vs0mg"},{"bike_id":"6d88390a-6935-4111-ac54-622634570fa7","system_id":"levelo_inurba_marseille","lat":43.28612,"lon":5.35108,"is_reserved":false,"is_disabled":false,"rental_uris":{"android":"levelo://app?vid=6d88390a-6935-4111-ac54-622634570fa7","ios":"levelo://app?vid=6d88390a-6935-4111-ac54-622634570fa7"},"vehicle_type_id":"4","last_reported":1747764867,"current_range_meters":12800,"station_id":"ce4bhch2rcd13ifvqeug","pricing_plan_id":"cebpf4jnsgd1na2vs0mg"},{"bike_id":"a108c6fe-fc59-467c-8bf3-782c2c64dc0a","system_id":"levelo_inurba_marseille","lat":43.28739,"lon":5.36071,"is_reserved":false,"is_disabled":false,"rental_uris":{"android":"levelo://app?vid=a108c6fe-fc59-467c-8bf3-782c2c64dc0a","ios":"levelo://app?vid=a108c6fe-fc59-467c-8bf3-782c2c64dc0a"},"vehicle_type_id":"4","last_reported":1747764867,"current_range_meters":12800,"station_id":"cki0cbj6b192h4jlfktg","pricing_plan_id":"cebpf4jnsgd1na2vs0mg"},{"bike_id":"bd6d7942-fe35-47f9-9314-0f83fb285e3d","system_id":"levelo_inurba_marseille","lat":43.28108,"lon":5.37834,"is_reserved":false,"is_disabled":false,"rental_uris":{"android":"levelo://app?vid=bd6d7942-fe35-47f9-9314-0f83fb285e3d","ios":"levelo://app?vid=bd6d7942-fe35-47f9-9314-0f83fb285e3d"},"vehicle_type_id":"4","last_reported":1747764867,"current_range_meters":13600,"station_id":"ce4bha12rcd13ifvqee0","pricing_plan_id":"cebpf4jnsgd1na2vs0mg"},{"bike_id":"d5100ba1-88ce-4d5b-bb4f-db283df34c32","system_id":"levelo_inurba_marseille","lat":43.27903,"lon":5.38018,"is_reserved":false,"is_disabled":false,"rental_uris":{"android":"levelo://app?vid=d5100ba1-88ce-4d5b-bb4f-db283df34c32","ios":"levelo://app?vid=d5100ba1-88ce-4d5b-bb4f-db283df34c32"},"vehicle_type_id":"4","last_reported":1747764867,"current_range_meters":13600,"station_id":"ce4bhf92rcd13ifvqf50","pricing_plan_id":"cebpf4jnsgd1na2vs0mg"},{"bike_id":"87f214f7-c158-4b9d-9659-2c25f2157d46","system_id":"levelo_inurba_marseille","lat":43.24547,"lon":5.39527,"is_reserved":false,"is_disabled":false,"rental_uris":{"android":"levelo://app?vid=87f214f7-c158-4b9d-9659-2c25f2157d46","ios":"levelo://app?vid=87f214f7-c158-4b9d-9659-2c25f2157d46"},"vehicle_type_id":"4","last_reported":1747764867,"current_range_meters":13600,"station_id":"ce4bhlp2rcd13ifvqgjg","pricing_plan_id":"cebpf4jnsgd1na2vs0mg"},{"bike_id":"1dc11bc0-5f09-4847-84a0-e8a8e47157b4","system_id":"levelo_inurba_marseille","lat":43.27371,"lon":5.36266,"is_reserved":false,"is_disabled":false,"rental_uris":{"android":"levelo://app?vid=1dc11bc0-5f09-4847-84a0-e8a8e47157b4","ios":"levelo://app?vid=1dc11bc0-5f09-4847-84a0-e8a8e47157b4"},"vehicle_type_id":"4","last_reported":1747764867,"current_range_meters":14000,"station_id":"ce4bhbh2rcd13ifvqeo0","pricing_plan_id":"cebpf4jnsgd1na2vs0mg"},{"bike_id":"5eb68c04-da7f-4459-b57e-7fa15a1ceae4","system_id":"levelo_inurba_marseille","lat":43.30416,"lon":5.41283,"is_reserved":false,"is_disabled":false,"rental_uris":{"android":"levelo://app?vid=5eb68c04-da7f-4459-b57e-7fa15a1ceae4","ios":"levelo://app?vid=5eb68c04-da7f-4459-b57e-7fa15a1ceae4"},"vehicle_type_id":"4","last_reported":1747764867,"current_range_meters":14000,"station_id":"ce4bhop2rcd13ifvqh8g","pricing_plan_id":"cebpf4jnsgd1na2vs0mg"},{"bike_id":"a7dd5f98-1109-4c9c-b9c4-482f6fc45105","system_id":"levelo_inurba_marseille","lat":43.31755,"lon":5.39014,"is_reserved":false,"is_disabled":false,"rental_uris":{"android":"levelo://app?vid=a7dd5f98-1109-4c9c-b9c4-482f6fc45105","ios":"levelo://app?vid=a7dd5f98-1109-4c9c-b9c4-482f6fc45105"},"vehicle_type_id":"4","last_reported":1747764867,"current_range_meters":14000,"station_id":"ce4bhqp2rcd13ifvqhng","pricing_plan_id":"cebpf4jnsgd1na2vs0mg"},{"bike_id":"92b0a5c8-c6d6-4a72-b93e-4d778b4d4efd","system_id":"levelo_inurba_marseille","lat":43.28041,"lon":5.3694,"is_reserved":false,"is_disabled":false,"rental_uris":{"android":"levelo://app?vid=92b0a5c8-c6d6-4a72-b93e-4d778b4d4efd","ios":"levelo://app?vid=92b0a5c8-c6d6-4a72-b93e-4d778b4d4efd"},"vehicle_type_id":"4","last_reported":1747764867,"current_range_meters":14400,"station_id":"ce4bha12rcd13ifvqef0","pricing_plan_id":"cebpf4jnsgd1na2vs0mg"},{"bike_id":"51e6788c-b40c-49af-ac1c-8989081509a3","system_id":"levelo_inurba_marseille","lat":43.29003,"lon":5.35621,"is_reserved":false,"is_disabled":false,"rental_uris":{"android":"levelo://app?vid=51e6788c-b40c-49af-ac1c-8989081509a3","ios":"levelo://app?vid=51e6788c-b40c-49af-ac1c-8989081509a3"},"vehicle_type_id":"4","last_reported":1747764867,"current_range_meters":14400,"station_id":"ce4bhb92rcd13ifvqen0","pricing_plan_id":"cebpf4jnsgd1na2vs0mg"},{"bike_id":"723f981c-f59a-475d-b391-bfe74bd17d37","system_id":"levelo_inurba_marseille","lat":43.27057,"lon":5.40256,"is_reserved":false,"is_disabled":false,"rental_uris":{"android":"levelo://app?vid=723f981c-f59a-475d-b391-bfe74bd17d37","ios":"levelo://app?vid=723f981c-f59a-475d-b391-bfe74bd17d37"},"vehicle_type_id":"4","last_reported":1747764867,"current_range_meters":14400,"station_id":"ce4bhk92rcd13ifvqgc0","pricing_plan_id":"cebpf4jnsgd1na2vs0mg"},{"bike_id":"edffe597-6f79-49f9-8df7-4789a9f67718","system_id":"levelo_inurba_marseille","lat":43.32109,"lon":5.36765,"is_reserved":false,"is_disabled":false,"rental_uris":{"android":"levelo://app?vid=edffe597-6f79-49f9-8df7-4789a9f67718","ios":"levelo://app?vid=edffe597-6f79-49f9-8df7-4789a9f67718"},"vehicle_type_id":"4","last_reported":1747764867,"current_range_meters":14400,"station_id":"ce4bhrh2rcd13ifvqhug","pricing_plan_id":"cebpf4jnsgd1na2vs0mg"},{"bike_id":"cf30ad57-e6b5-4bca-a62d-26c118f3fc22","system_id":"levelo_inurba_marseille","lat":43.29004,"lon":5.35615,"is_reserved":false,"is_disabled":false,"rental_uris":{"android":"levelo://app?vid=cf30ad57-e6b5-4bca-a62d-26c118f3fc22","ios":"levelo://app?vid=cf30ad57-e6b5-4bca-a62d-26c118f3fc22"},"vehicle_type_id":"4","last_reported":1747764867,"current_range_meters":14800,"station_id":"ce4bhb92rcd13ifvqen0","pricing_plan_id":"cebpf4jnsgd1na2vs0mg"},{"bike_id":"a89f7469-6945-4e0e-8904-12da0c7dbcb9","system_id":"levelo_inurba_marseille","lat":43.26216,"lon":5.37438,"is_reserved":false,"is_disabled":false,"rental_uris":{"android":"levelo://app?vid=a89f7469-6945-4e0e-8904-12da0c7dbcb9","ios":"levelo://app?vid=a89f7469-6945-4e0e-8904-12da0c7dbcb9"},"vehicle_type_id":"4","last_reported":1747764867,"current_range_meters":14800,"station_id":"ce4bhgp2rcd13ifvqfc0","pricing_plan_id":"cebpf4jnsgd1na2vs0mg"},{"bike_id":"d14cb34f-c088-4fce-8177-7d93d185cb84","system_id":"levelo_inurba_marseille","lat":43.2808,"lon":5.39652,"is_reserved":false,"is_disabled":false,"rental_uris":{"android":"levelo://app?vid=d14cb34f-c088-4fce-8177-7d93d185cb84","ios":"levelo://app?vid=d14cb34f-c088-4fce-8177-7d93d185cb84"},"vehicle_type_id":"4","last_reported":1747764867,"current_range_meters":14800,"station_id":"ce4bho12rcd13ifvqh2g","pricing_plan_id":"cebpf4jnsgd1na2vs0mg"},{"bike_id":"b77fcbae-009f-41f3-9695-f8474e4841e6","system_id":"levelo_inurba_marseille","lat":43.29261,"lon":5.3844,"is_reserved":false,"is_disabled":false,"rental_uris":{"android":"levelo://app?vid=b77fcbae-009f-41f3-9695-f8474e4841e6","ios":"levelo://app?vid=b77fcbae-009f-41f3-9695-f8474e4841e6"},"vehicle_type_id":"4","last_reported":1747764867,"current_range_meters":15200,"station_id":"ce4bh692rcd13ifvqea0","pricing_plan_id":"cebpf4jnsgd1na2vs0mg"},{"bike_id":"21c80388-5dc7-4904-b021-db79d4ddd3dc","system_id":"levelo_inurba_marseille","lat":43.27384,"lon":5.36284,"is_reserved":false,"is_disabled":false,"rental_uris":{"android":"levelo://app?vid=21c80388-5dc7-4904-b021-db79d4ddd3dc","ios":"levelo://app?vid=21c80388-5dc7-4904-b021-db79d4ddd3dc"},"vehicle_type_id":"4","last_reported":1747764867,"current_range_meters":15200,"station_id":"ce4bhbh2rcd13ifvqeo0","pricing_plan_id":"cebpf4jnsgd1na2vs0mg"},{"bike_id":"6ec97dc1-110f-4e0e-9695-809bc65cf3ac","system_id":"levelo_inurba_marseille","lat":43.27171,"lon":5.40993,"is_reserved":false,"is_disabled":false,"rental_uris":{"android":"levelo://app?vid=6ec97dc1-110f-4e0e-9695-809bc65cf3ac","ios":"levelo://app?vid=6ec97dc1-110f-4e0e-9695-809bc65cf3ac"},"vehicle_type_id":"4","last_reported":1747764867,"current_range_meters":15200,"station_id":"ce4bhl12rcd13ifvqgf0","pricing_plan_id":"cebpf4jnsgd1na2vs0mg"},{"bike_id":"ee222a69-22c8-443a-9094-3b7c8c2d365a","system_id":"levelo_inurba_marseille","lat":43.280814,"lon":5.396598,"is_reserved":false,"is_disabled":false,"rental_uris":{"android":"levelo://app?vid=ee222a69-22c8-443a-9094-3b7c8c2d365a","ios":"levelo://app?vid=ee222a69-22c8-443a-9094-3b7c8c2d365a"},"vehicle_type_id":"4","last_reported":1747764867,"current_range_meters":15200,"station_id":"ce4bho12rcd13ifvqh2g","pricing_plan_id":"cebpf4jnsgd1na2vs0mg"},{"bike_id":"5765434c-77b5-41b5-8b14-b978e4d6dd10","system_id":"levelo_inurba_marseille","lat":43.2119,"lon":5.35065,"is_reserved":false,"is_disabled":false,"rental_uris":{"android":"levelo://app?vid=5765434c-77b5-41b5-8b14-b978e4d6dd10","ios":"levelo://app?vid=5765434c-77b5-41b5-8b14-b978e4d6dd10"},"vehicle_type_id":"4","last_reported":1747764867,"current_range_meters":15200,"station_id":"st_cvj6sg6p6f1abm77japg","pricing_plan_id":"cebpf4jnsgd1na2vs0mg"},{"bike_id":"d22b0fd0-78a6-46fc-aad8-ce2ca2a629e3","system_id":"levelo_inurba_marseille","lat":43.21198,"lon":5.350764,"is_reserved":false,"is_disabled":false,"rental_uris":{"android":"levelo://app?vid=d22b0fd0-78a6-46fc-aad8-ce2ca2a629e3","ios":"levelo://app?vid=d22b0fd0-78a6-46fc-aad8-ce2ca2a629e3"},"vehicle_type_id":"4","last_reported":1747764867,"current_range_meters":15200,"station_id":"st_cvj6sg6p6f1abm77japg","pricing_plan_id":"cebpf4jnsgd1na2vs0mg"},{"bike_id":"d08aaeb5-11cd-4457-8faa-67e4247a4f6f","system_id":"levelo_inurba_marseille","lat":43.28727,"lon":5.37917,"is_reserved":false,"is_disabled":false,"rental_uris":{"android":"levelo://app?vid=d08aaeb5-11cd-4457-8faa-67e4247a4f6f","ios":"levelo://app?vid=d08aaeb5-11cd-4457-8faa-67e4247a4f6f"},"vehicle_type_id":"4","last_reported":1747764867,"current_range_meters":16000,"station_id":"ce4bh9p2rcd13ifvqec0","pricing_plan_id":"cebpf4jnsgd1na2vs0mg"},{"bike_id":"56cf80a0-6e20-4517-b7ab-ff4ac3730a84","system_id":"levelo_inurba_marseille","lat":43.23188,"lon":5.399875,"is_reserved":false,"is_disabled":false,"rental_uris":{"android":"levelo://app?vid=56cf80a0-6e20-4517-b7ab-ff4ac3730a84","ios":"levelo://app?vid=56cf80a0-6e20-4517-b7ab-ff4ac3730a84"},"vehicle_type_id":"4","last_reported":1747764867,"current_range_meters":16000,"station_id":"ce4bhn12rcd13ifvqgqg","pricing_plan_id":"cebpf4jnsgd1na2vs0mg"},{"bike_id":"09d6234c-ffb6-4303-8b5c-26d27f33817c","system_id":"levelo_inurba_marseille","lat":43.27955,"lon":5.41045,"is_reserved":false,"is_disabled":false,"rental_uris":{"android":"levelo://app?vid=09d6234c-ffb6-4303-8b5c-26d27f33817c","ios":"levelo://app?vid=09d6234c-ffb6-4303-8b5c-26d27f33817c"},"vehicle_type_id":"4","last_reported":1747764867,"current_range_meters":16000,"station_id":"ce4bhnp2rcd13ifvqh0g","pricing_plan_id":"cebpf4jnsgd1na2vs0mg"},{"bike_id":"a253706b-1cb9-4ca4-9560-173eeb92ac1f","system_id":"levelo_inurba_marseille","lat":43.308074,"lon":5.435249,"is_reserved":false,"is_disabled":false,"rental_uris":{"android":"levelo://app?vid=a253706b-1cb9-4ca4-9560-173eeb92ac1f","ios":"levelo://app?vid=a253706b-1cb9-4ca4-9560-173eeb92ac1f"},"vehicle_type_id":"4","last_reported":1747764867,"current_range_meters":16000,"station_id":"ce4bhph2rcd13ifvqheg","pricing_plan_id":"cebpf4jnsgd1na2vs0mg"},{"bike_id":"1a340bac-8012-4c7c-b50a-247d19f083a9","system_id":"levelo_inurba_marseille","lat":43.211915,"lon":5.350728,"is_reserved":false,"is_disabled":false,"rental_uris":{"android":"levelo://app?vid=1a340bac-8012-4c7c-b50a-247d19f083a9","ios":"levelo://app?vid=1a340bac-8012-4c7c-b50a-247d19f083a9"},"vehicle_type_id":"4","last_reported":1747764867,"current_range_meters":16000,"station_id":"st_cvj6sg6p6f1abm77japg","pricing_plan_id":"cebpf4jnsgd1na2vs0mg"},{"bike_id":"2b33731e-8c17-4c0d-a1b9-58d61f26db8d","system_id":"levelo_inurba_marseille","lat":43.29539,"lon":5.38546,"is_reserved":false,"is_disabled":false,"rental_uris":{"android":"levelo://app?vid=2b33731e-8c17-4c0d-a1b9-58d61f26db8d","ios":"levelo://app?vid=2b33731e-8c17-4c0d-a1b9-58d61f26db8d"},"vehicle_type_id":"4","last_reported":1747764867,"current_range_meters":16400,"station_id":"ce4bgih2rcd13ifvqba0","pricing_plan_id":"cebpf4jnsgd1na2vs0mg"},{"bike_id":"33c4dfc2-5cbd-491e-bac4-05592543199c","system_id":"levelo_inurba_marseille","lat":43.29029,"lon":5.38651,"is_reserved":false,"is_disabled":false,"rental_uris":{"android":"levelo://app?vid=33c4dfc2-5cbd-491e-bac4-05592543199c","ios":"levelo://app?vid=33c4dfc2-5cbd-491e-bac4-05592543199c"},"vehicle_type_id":"4","last_reported":1747764867,"current_range_meters":16400,"station_id":"ce4bh4p2rcd13ifvqe0g","pricing_plan_id":"cebpf4jnsgd1na2vs0mg"},{"bike_id":"9fc4c32e-9edb-4d53-8b73-78f40630aac4","system_id":"levelo_inurba_marseille","lat":43.29028,"lon":5.38643,"is_reserved":false,"is_disabled":false,"rental_uris":{"android":"levelo://app?vid=9fc4c32e-9edb-4d53-8b73-78f40630aac4","ios":"levelo://app?vid=9fc4c32e-9edb-4d53-8b73-78f40630aac4"},"vehicle_type_id":"4","last_reported":1747764867,"current_range_meters":16400,"station_id":"ce4bh4p2rcd13ifvqe0g","pricing_plan_id":"cebpf4jnsgd1na2vs0mg"},{"bike_id":"e72146f0-780e-44c8-80e4-20af930935a8","system_id":"levelo_inurba_marseille","lat":43.28277,"lon":5.35075,"is_reserved":false,"is_disabled":false,"rental_uris":{"android":"levelo://app?vid=e72146f0-780e-44c8-80e4-20af930935a8","ios":"levelo://app?vid=e72146f0-780e-44c8-80e4-20af930935a8"},"vehicle_type_id":"4","last_reported":1747764867,"current_range_meters":16400,"station_id":"ce4bhbp2rcd13ifvqerg","pricing_plan_id":"cebpf4jnsgd1na2vs0mg"},{"bike_id":"c9332228-05cb-4726-839c-afbf0dc20163","system_id":"levelo_inurba_marseille","lat":43.32279,"lon":5.3828,"is_reserved":false,"is_disabled":false,"rental_uris":{"android":"levelo://app?vid=c9332228-05cb-4726-839c-afbf0dc20163","ios":"levelo://app?vid=c9332228-05cb-4726-839c-afbf0dc20163"},"vehicle_type_id":"4","last_reported":1747764867,"current_range_meters":16400,"station_id":"ce4bhr12rcd13ifvqhqg","pricing_plan_id":"cebpf4jnsgd1na2vs0mg"},{"bike_id":"41a63ad7-5271-4c92-a07b-12a7b1d342de","system_id":"levelo_inurba_marseille","lat":43.212,"lon":5.35063,"is_reserved":false,"is_disabled":false,"rental_uris":{"android":"levelo://app?vid=41a63ad7-5271-4c92-a07b-12a7b1d342de","ios":"levelo://app?vid=41a63ad7-5271-4c92-a07b-12a7b1d342de"},"vehicle_type_id":"4","last_reported":1747764867,"current_range_meters":16400,"station_id":"st_cvj6sg6p6f1abm77japg","pricing_plan_id":"cebpf4jnsgd1na2vs0mg"},{"bike_id":"94386903-439e-4cd9-bdb9-f67799f287f8","system_id":"levelo_inurba_marseille","lat":43.26686,"lon":5.38273,"is_reserved":false,"is_disabled":false,"rental_uris":{"android":"levelo://app?vid=94386903-439e-4cd9-bdb9-f67799f287f8","ios":"levelo://app?vid=94386903-439e-4cd9-bdb9-f67799f287f8"},"vehicle_type_id":"4","last_reported":1747764867,"current_range_meters":16800,"station_id":"ce4bhg92rcd13ifvqf90","pricing_plan_id":"cebpf4jnsgd1na2vs0mg"},{"bike_id":"b2098f36-3a4b-4364-a6b7-9bce689a500e","system_id":"levelo_inurba_marseille","lat":43.278164,"lon":5.407106,"is_reserved":false,"is_disabled":false,"rental_uris":{"android":"levelo://app?vid=b2098f36-3a4b-4364-a6b7-9bce689a500e","ios":"levelo://app?vid=b2098f36-3a4b-4364-a6b7-9bce689a500e"},"vehicle_type_id":"4","last_reported":1747764867,"current_range_meters":16800,"station_id":"ce4bhnh2rcd13ifvqgtg","pricing_plan_id":"cebpf4jnsgd1na2vs0mg"},{"bike_id":"24dc12dd-e0a1-4ccc-b473-486d35ddca69","system_id":"levelo_inurba_marseille","lat":43.317253,"lon":5.436957,"is_reserved":false,"is_disabled":false,"rental_uris":{"android":"levelo://app?vid=24dc12dd-e0a1-4ccc-b473-486d35ddca69","ios":"levelo://app?vid=24dc12dd-e0a1-4ccc-b473-486d35ddca69"},"vehicle_type_id":"4","last_reported":1747764867,"current_range_meters":16800,"station_id":"ce4bhp92rcd13ifvqhcg","pricing_plan_id":"cebpf4jnsgd1na2vs0mg"},{"bike_id":"20341d8a-5a7b-49d2-9f9d-dafcc3b6b254","system_id":"levelo_inurba_marseille","lat":43.31772,"lon":5.39008,"is_reserved":false,"is_disabled":false,"rental_uris":{"android":"levelo://app?vid=20341d8a-5a7b-49d2-9f9d-dafcc3b6b254","ios":"levelo://app?vid=20341d8a-5a7b-49d2-9f9d-dafcc3b6b254"},"vehicle_type_id":"4","last_reported":1747764867,"current_range_meters":16800,"station_id":"ce4bhqp2rcd13ifvqhng","pricing_plan_id":"cebpf4jnsgd1na2vs0mg"},{"bike_id":"a0b1bfab-f23f-45ef-9cca-abc7dadd7472","system_id":"levelo_inurba_marseille","lat":43.23193,"lon":5.35557,"is_reserved":false,"is_disabled":false,"rental_uris":{"android":"levelo://app?vid=a0b1bfab-f23f-45ef-9cca-abc7dadd7472","ios":"levelo://app?vid=a0b1bfab-f23f-45ef-9cca-abc7dadd7472"},"vehicle_type_id":"4","last_reported":1747764867,"current_range_meters":16800,"station_id":"ce4bhu92rcd13ifvqi70","pricing_plan_id":"cebpf4jnsgd1na2vs0mg"},{"bike_id":"ffc044dd-96ac-4f9c-9a95-7c8f59395323","system_id":"levelo_inurba_marseille","lat":43.30642,"lon":5.4007,"is_reserved":false,"is_disabled":false,"rental_uris":{"android":"levelo://app?vid=ffc044dd-96ac-4f9c-9a95-7c8f59395323","ios":"levelo://app?vid=ffc044dd-96ac-4f9c-9a95-7c8f59395323"},"vehicle_type_id":"4","last_reported":1747764867,"current_range_meters":17200,"station_id":"ce4bh112rcd13ifvqda0","pricing_plan_id":"cebpf4jnsgd1na2vs0mg"},{"bike_id":"2f6f0fa1-b9a1-4aa2-9904-e432d55d52ea","system_id":"levelo_inurba_marseille","lat":43.29256,"lon":5.40899,"is_reserved":false,"is_disabled":false,"rental_uris":{"android":"levelo://app?vid=2f6f0fa1-b9a1-4aa2-9904-e432d55d52ea","ios":"levelo://app?vid=2f6f0fa1-b9a1-4aa2-9904-e432d55d52ea"},"vehicle_type_id":"4","last_reported":1747764867,"current_range_meters":17200,"station_id":"ce4bh192rcd13ifvqdc0","pricing_plan_id":"cebpf4jnsgd1na2vs0mg"},{"bike_id":"bc205f9d-8454-4fa8-824f-4cae8bf9de90","system_id":"levelo_inurba_marseille","lat":43.28097,"lon":5.37839,"is_reserved":false,"is_disabled":false,"rental_uris":{"android":"levelo://app?vid=bc205f9d-8454-4fa8-824f-4cae8bf9de90","ios":"levelo://app?vid=bc205f9d-8454-4fa8-824f-4cae8bf9de90"},"vehicle_type_id":"4","last_reported":1747764867,"current_range_meters":17200,"station_id":"ce4bha12rcd13ifvqee0","pricing_plan_id":"cebpf4jnsgd1na2vs0mg"},{"bike_id":"144c6575-1da7-4736-b14d-9724747021a9","system_id":"levelo_inurba_marseille","lat":43.255,"lon":5.37656,"is_reserved":false,"is_disabled":false,"rental_uris":{"android":"levelo://app?vid=144c6575-1da7-4736-b14d-9724747021a9","ios":"levelo://app?vid=144c6575-1da7-4736-b14d-9724747021a9"},"vehicle_type_id":"4","last_reported":1747764867,"current_range_meters":17200,"station_id":"ce4bhh12rcd13ifvqff0","pricing_plan_id":"cebpf4jnsgd1na2vs0mg"},{"bike_id":"d3787df1-b187-4674-a172-34b227ec7bf2","system_id":"levelo_inurba_marseille","lat":43.26062,"lon":5.39397,"is_reserved":false,"is_disabled":false,"rental_uris":{"android":"levelo://app?vid=d3787df1-b187-4674-a172-34b227ec7bf2","ios":"levelo://app?vid=d3787df1-b187-4674-a172-34b227ec7bf2"},"vehicle_type_id":"4","last_reported":1747764867,"current_range_meters":17200,"station_id":"ce4bhh92rcd13ifvqfj0","pricing_plan_id":"cebpf4jnsgd1na2vs0mg"},{"bike_id":"0e6bb125-ff93-4853-97e0-da4a593482f4","system_id":"levelo_inurba_marseille","lat":43.280825,"lon":5.396461,"is_reserved":false,"is_disabled":false,"rental_uris":{"android":"levelo://app?vid=0e6bb125-ff93-4853-97e0-da4a593482f4","ios":"levelo://app?vid=0e6bb125-ff93-4853-97e0-da4a593482f4"},"vehicle_type_id":"4","last_reported":1747764867,"current_range_meters":17200,"station_id":"ce4bho12rcd13ifvqh2g","pricing_plan_id":"cebpf4jnsgd1na2vs0mg"},{"bike_id":"7b64057b-640d-4d3e-937d-f96f196e6a4e","system_id":"levelo_inurba_marseille","lat":43.27971,"lon":5.40065,"is_reserved":false,"is_disabled":false,"rental_uris":{"android":"levelo://app?vid=7b64057b-640d-4d3e-937d-f96f196e6a4e","ios":"levelo://app?vid=7b64057b-640d-4d3e-937d-f96f196e6a4e"},"vehicle_type_id":"4","last_reported":1747764867,"current_range_meters":17200,"station_id":"ce4bho92rcd13ifvqh4g","pricing_plan_id":"cebpf4jnsgd1na2vs0mg"},{"bike_id":"a1196188-2c7c-465c-999b-7edb1f0906f1","system_id":"levelo_inurba_marseille","lat":43.26962,"lon":5.42136,"is_reserved":false,"is_disabled":false,"rental_uris":{"android":"levelo://app?vid=a1196188-2c7c-465c-999b-7edb1f0906f1","ios":"levelo://app?vid=a1196188-2c7c-465c-999b-7edb1f0906f1"},"vehicle_type_id":"4","last_reported":1747764867,"current_range_meters":17600,"station_id":"","pricing_plan_id":"cebpf4jnsgd1na2vs0mg"},{"bike_id":"e31833c9-3629-4b2f-810c-c09df0eb266c","system_id":"levelo_inurba_marseille","lat":43.33751,"lon":5.37509,"is_reserved":false,"is_disabled":false,"rental_uris":{"android":"levelo://app?vid=e31833c9-3629-4b2f-810c-c09df0eb266c","ios":"levelo://app?vid=e31833c9-3629-4b2f-810c-c09df0eb266c"},"vehicle_type_id":"4","last_reported":1747764867,"current_range_meters":17600,"station_id":"","pricing_plan_id":"cebpf4jnsgd1na2vs0mg"},{"bike_id":"33013483-a8f4-4014-bd60-f8f2cc524856","system_id":"levelo_inurba_marseille","lat":43.30804,"lon":5.3816,"is_reserved":false,"is_disabled":false,"rental_uris":{"android":"levelo://app?vid=33013483-a8f4-4014-bd60-f8f2cc524856","ios":"levelo://app?vid=33013483-a8f4-4014-bd60-f8f2cc524856"},"vehicle_type_id":"4","last_reported":1747764867,"current_range_meters":17600,"station_id":"ce4bgt12rcd13ifvqce0","pricing_plan_id":"cebpf4jnsgd1na2vs0mg"},{"bike_id":"9e2045d4-9c9c-4b3c-b34e-6cbaeeb6143a","system_id":"levelo_inurba_marseille","lat":43.29242,"lon":5.36114,"is_reserved":false,"is_disabled":false,"rental_uris":{"android":"levelo://app?vid=9e2045d4-9c9c-4b3c-b34e-6cbaeeb6143a","ios":"levelo://app?vid=9e2045d4-9c9c-4b3c-b34e-6cbaeeb6143a"},"vehicle_type_id":"4","last_reported":1747764867,"current_range_meters":17600,"station_id":"ce4bhbh2rcd13ifvqeqg","pricing_plan_id":"cebpf4jnsgd1na2vs0mg"},{"bike_id":"d2243da5-46a4-4675-a166-c5959f727fa3","system_id":"levelo_inurba_marseille","lat":43.279464,"lon":5.410429,"is_reserved":false,"is_disabled":false,"rental_uris":{"android":"levelo://app?vid=d2243da5-46a4-4675-a166-c5959f727fa3","ios":"levelo://app?vid=d2243da5-46a4-4675-a166-c5959f727fa3"},"vehicle_type_id":"4","last_reported":1747764867,"current_range_meters":17600,"station_id":"ce4bhnp2rcd13ifvqh0g","pricing_plan_id":"cebpf4jnsgd1na2vs0mg"},{"bike_id":"81bf3b5a-e1af-448f-9da0-a06f23d54799","system_id":"levelo_inurba_marseille","lat":43.2894,"lon":5.36641,"is_reserved":false,"is_disabled":false,"rental_uris":{"android":"levelo://app?vid=81bf3b5a-e1af-448f-9da0-a06f23d54799","ios":"levelo://app?vid=81bf3b5a-e1af-448f-9da0-a06f23d54799"},"vehicle_type_id":"4","last_reported":1747764867,"current_range_meters":18000,"station_id":"ce4bhap2rcd13ifvqek0","pricing_plan_id":"cebpf4jnsgd1na2vs0mg"},{"bike_id":"7da979cc-7838-4ed0-99a1-8df6f88f3333","system_id":"levelo_inurba_marseille","lat":43.30356,"lon":5.41883,"is_reserved":false,"is_disabled":false,"rental_uris":{"android":"levelo://app?vid=7da979cc-7838-4ed0-99a1-8df6f88f3333","ios":"levelo://app?vid=7da979cc-7838-4ed0-99a1-8df6f88f3333"},"vehicle_type_id":"4","last_reported":1747764867,"current_range_meters":18000,"station_id":"ce4bhop2rcd13ifvqh7g","pricing_plan_id":"cebpf4jnsgd1na2vs0mg"},{"bike_id":"c4f0ddbf-912f-4dc6-81b8-da7688e7978e","system_id":"levelo_inurba_marseille","lat":43.30805,"lon":5.43523,"is_reserved":false,"is_disabled":false,"rental_uris":{"android":"levelo://app?vid=c4f0ddbf-912f-4dc6-81b8-da7688e7978e","ios":"levelo://app?vid=c4f0ddbf-912f-4dc6-81b8-da7688e7978e"},"vehicle_type_id":"4","last_reported":1747764867,"current_range_meters":18000,"station_id":"ce4bhph2rcd13ifvqheg","pricing_plan_id":"cebpf4jnsgd1na2vs0mg"},{"bike_id":"d0ec97fc-5f15-41c1-862e-417a4d2bc588","system_id":"levelo_inurba_marseille","lat":43.26935,"lon":5.4026,"is_reserved":false,"is_disabled":false,"rental_uris":{"android":"levelo://app?vid=d0ec97fc-5f15-41c1-862e-417a4d2bc588","ios":"levelo://app?vid=d0ec97fc-5f15-41c1-862e-417a4d2bc588"},"vehicle_type_id":"4","last_reported":1747764867,"current_range_meters":18000,"station_id":"cjm6bp8fraef2m0cb0m0","pricing_plan_id":"cebpf4jnsgd1na2vs0mg"},{"bike_id":"4e38f7d2-3a2f-4430-97f0-7b564ed6c4b9","system_id":"levelo_inurba_marseille","lat":43.21206,"lon":5.35055,"is_reserved":false,"is_disabled":false,"rental_uris":{"android":"levelo://app?vid=4e38f7d2-3a2f-4430-97f0-7b564ed6c4b9","ios":"levelo://app?vid=4e38f7d2-3a2f-4430-97f0-7b564ed6c4b9"},"vehicle_type_id":"4","last_reported":1747764867,"current_range_meters":18000,"station_id":"st_cvj6sg6p6f1abm77japg","pricing_plan_id":"cebpf4jnsgd1na2vs0mg"},{"bike_id":"509a7bc5-3ed4-44a0-83b3-6bbf477b3a61","system_id":"levelo_inurba_marseille","lat":43.211912,"lon":5.350793,"is_reserved":false,"is_disabled":false,"rental_uris":{"android":"levelo://app?vid=509a7bc5-3ed4-44a0-83b3-6bbf477b3a61","ios":"levelo://app?vid=509a7bc5-3ed4-44a0-83b3-6bbf477b3a61"},"vehicle_type_id":"4","last_reported":1747764867,"current_range_meters":18000,"station_id":"st_cvj6sg6p6f1abm77japg","pricing_plan_id":"cebpf4jnsgd1na2vs0mg"},{"bike_id":"8bb7d43c-e583-40c0-9a6a-a2f0c4f03243","system_id":"levelo_inurba_marseille","lat":43.292631,"lon":5.40918,"is_reserved":false,"is_disabled":false,"rental_uris":{"android":"levelo://app?vid=8bb7d43c-e583-40c0-9a6a-a2f0c4f03243","ios":"levelo://app?vid=8bb7d43c-e583-40c0-9a6a-a2f0c4f03243"},"vehicle_type_id":"4","last_reported":1747764867,"current_range_meters":18800,"station_id":"ce4bh192rcd13ifvqdc0","pricing_plan_id":"cebpf4jnsgd1na2vs0mg"},{"bike_id":"b4e986e6-0c3f-4832-a8d4-499b62b53197","system_id":"levelo_inurba_marseille","lat":43.26567,"lon":5.3902,"is_reserved":false,"is_disabled":false,"rental_uris":{"android":"levelo://app?vid=b4e986e6-0c3f-4832-a8d4-499b62b53197","ios":"levelo://app?vid=b4e986e6-0c3f-4832-a8d4-499b62b53197"},"vehicle_type_id":"4","last_reported":1747764867,"current_range_meters":18800,"station_id":"ce4bhe12rcd13ifvqf30","pricing_plan_id":"cebpf4jnsgd1na2vs0mg"},{"bike_id":"ac54cb9d-c717-4084-9363-e0498a0029df","system_id":"levelo_inurba_marseille","lat":43.27944,"lon":5.41041,"is_reserved":false,"is_disabled":false,"rental_uris":{"android":"levelo://app?vid=ac54cb9d-c717-4084-9363-e0498a0029df","ios":"levelo://app?vid=ac54cb9d-c717-4084-9363-e0498a0029df"},"vehicle_type_id":"4","last_reported":1747764867,"current_range_meters":18800,"station_id":"ce4bhnp2rcd13ifvqh0g","pricing_plan_id":"cebpf4jnsgd1na2vs0mg"},{"bike_id":"c9712e0c-2e84-4ab9-a19d-b2f0870bbac5","system_id":"levelo_inurba_marseille","lat":43.31765,"lon":5.39016,"is_reserved":false,"is_disabled":false,"rental_uris":{"android":"levelo://app?vid=c9712e0c-2e84-4ab9-a19d-b2f0870bbac5","ios":"levelo://app?vid=c9712e0c-2e84-4ab9-a19d-b2f0870bbac5"},"vehicle_type_id":"4","last_reported":1747764867,"current_range_meters":18800,"station_id":"ce4bhqp2rcd13ifvqhng","pricing_plan_id":"cebpf4jnsgd1na2vs0mg"},{"bike_id":"628c52ae-b897-4dca-953c-8475bb2941d3","system_id":"levelo_inurba_marseille","lat":43.21188,"lon":5.35058,"is_reserved":false,"is_disabled":false,"rental_uris":{"android":"levelo://app?vid=628c52ae-b897-4dca-953c-8475bb2941d3","ios":"levelo://app?vid=628c52ae-b897-4dca-953c-8475bb2941d3"},"vehicle_type_id":"4","last_reported":1747764867,"current_range_meters":18800,"station_id":"st_cvj6sg6p6f1abm77japg","pricing_plan_id":"cebpf4jnsgd1na2vs0mg"},{"bike_id":"c9a00e74-029a-454e-8e85-1b3d994b9d78","system_id":"levelo_inurba_marseille","lat":43.211914,"lon":5.350816,"is_reserved":false,"is_disabled":false,"rental_uris":{"android":"levelo://app?vid=c9a00e74-029a-454e-8e85-1b3d994b9d78","ios":"levelo://app?vid=c9a00e74-029a-454e-8e85-1b3d994b9d78"},"vehicle_type_id":"4","last_reported":1747764867,"current_range_meters":18800,"station_id":"st_cvj6sg6p6f1abm77japg","pricing_plan_id":"cebpf4jnsgd1na2vs0mg"},{"bike_id":"dcea4d0d-5d2a-4a37-b0f9-fee23930f3f9","system_id":"levelo_inurba_marseille","lat":43.30649,"lon":5.40083,"is_reserved":false,"is_disabled":false,"rental_uris":{"android":"levelo://app?vid=dcea4d0d-5d2a-4a37-b0f9-fee23930f3f9","ios":"levelo://app?vid=dcea4d0d-5d2a-4a37-b0f9-fee23930f3f9"},"vehicle_type_id":"4","last_reported":1747764867,"current_range_meters":19600,"station_id":"ce4bh112rcd13ifvqda0","pricing_plan_id":"cebpf4jnsgd1na2vs0mg"},{"bike_id":"c27ed0e2-63f8-4d83-a014-3d9f9e4f194d","system_id":"levelo_inurba_marseille","lat":43.23962,"lon":5.36629,"is_reserved":false,"is_disabled":false,"rental_uris":{"android":"levelo://app?vid=c27ed0e2-63f8-4d83-a014-3d9f9e4f194d","ios":"levelo://app?vid=c27ed0e2-63f8-4d83-a014-3d9f9e4f194d"},"vehicle_type_id":"4","last_reported":1747764867,"current_range_meters":19600,"station_id":"ce4bhi12rcd13ifvqfp0","pricing_plan_id":"cebpf4jnsgd1na2vs0mg"},{"bike_id":"2a954923-ace9-4790-81a0-254d59f9ea2b","system_id":"levelo_inurba_marseille","lat":43.29976,"lon":5.41338,"is_reserved":false,"is_disabled":false,"rental_uris":{"android":"levelo://app?vid=2a954923-ace9-4790-81a0-254d59f9ea2b","ios":"levelo://app?vid=2a954923-ace9-4790-81a0-254d59f9ea2b"},"vehicle_type_id":"4","last_reported":1747764867,"current_range_meters":19600,"station_id":"ce4bhp12rcd13ifvqh9g","pricing_plan_id":"cebpf4jnsgd1na2vs0mg"},{"bike_id":"ded9865d-4795-4761-be37-b7e2264dae76","system_id":"levelo_inurba_marseille","lat":43.32361,"lon":5.38887,"is_reserved":false,"is_disabled":false,"rental_uris":{"android":"levelo://app?vid=ded9865d-4795-4761-be37-b7e2264dae76","ios":"levelo://app?vid=ded9865d-4795-4761-be37-b7e2264dae76"},"vehicle_type_id":"4","last_reported":1747764867,"current_range_meters":19600,"station_id":"ce4bhqp2rcd13ifvqhog","pricing_plan_id":"cebpf4jnsgd1na2vs0mg"},{"bike_id":"0e5823e9-d73d-4028-8a79-d941fa737500","system_id":"levelo_inurba_marseille","lat":43.25836,"lon":5.38732,"is_reserved":false,"is_disabled":false,"rental_uris":{"android":"levelo://app?vid=0e5823e9-d73d-4028-8a79-d941fa737500","ios":"levelo://app?vid=0e5823e9-d73d-4028-8a79-d941fa737500"},"vehicle_type_id":"4","last_reported":1747764867,"current_range_meters":20000,"station_id":"","pricing_plan_id":"cebpf4jnsgd1na2vs0mg"},{"bike_id":"a2f62b82-021a-40cb-a76c-22b76e650f0b","system_id":"levelo_inurba_marseille","lat":43.28722,"lon":5.36093,"is_reserved":false,"is_disabled":false,"rental_uris":{"android":"levelo://app?vid=a2f62b82-021a-40cb-a76c-22b76e650f0b","ios":"levelo://app?vid=a2f62b82-021a-40cb-a76c-22b76e650f0b"},"vehicle_type_id":"4","last_reported":1747764867,"current_range_meters":20000,"station_id":"","pricing_plan_id":"cebpf4jnsgd1na2vs0mg"},{"bike_id":"0a7c9105-b12e-4170-aaf7-a2958b77a260","system_id":"levelo_inurba_marseille","lat":43.29425,"lon":5.38612,"is_reserved":false,"is_disabled":false,"rental_uris":{"android":"levelo://app?vid=0a7c9105-b12e-4170-aaf7-a2958b77a260","ios":"levelo://app?vid=0a7c9105-b12e-4170-aaf7-a2958b77a260"},"vehicle_type_id":"4","last_reported":1747764867,"current_range_meters":20000,"station_id":"ce4bh2h2rcd13ifvqdh0","pricing_plan_id":"cebpf4jnsgd1na2vs0mg"},{"bike_id":"5ecfea49-a446-482f-a28d-eb128a187cdc","system_id":"levelo_inurba_marseille","lat":43.28351,"lon":5.38108,"is_reserved":false,"is_disabled":false,"rental_uris":{"android":"levelo://app?vid=5ecfea49-a446-482f-a28d-eb128a187cdc","ios":"levelo://app?vid=5ecfea49-a446-482f-a28d-eb128a187cdc"},"vehicle_type_id":"4","last_reported":1747764867,"current_range_meters":20000,"station_id":"ce4bh412rcd13ifvqdr0","pricing_plan_id":"cebpf4jnsgd1na2vs0mg"},{"bike_id":"3bd55992-8663-4390-ac23-3a58233bfeb2","system_id":"levelo_inurba_marseille","lat":43.282874,"lon":5.385769,"is_reserved":false,"is_disabled":false,"rental_uris":{"android":"levelo://app?vid=3bd55992-8663-4390-ac23-3a58233bfeb2","ios":"levelo://app?vid=3bd55992-8663-4390-ac23-3a58233bfeb2"},"vehicle_type_id":"4","last_reported":1747764867,"current_range_meters":20000,"station_id":"ce4bh512rcd13ifvqe3g","pricing_plan_id":"cebpf4jnsgd1na2vs0mg"},{"bike_id":"97b74aaf-f6dc-40e2-ac6c-9dd5fc5f7177","system_id":"levelo_inurba_marseille","lat":43.28035,"lon":5.36951,"is_reserved":false,"is_disabled":false,"rental_uris":{"android":"levelo://app?vid=97b74aaf-f6dc-40e2-ac6c-9dd5fc5f7177","ios":"levelo://app?vid=97b74aaf-f6dc-40e2-ac6c-9dd5fc5f7177"},"vehicle_type_id":"4","last_reported":1747764867,"current_range_meters":20000,"station_id":"ce4bha12rcd13ifvqef0","pricing_plan_id":"cebpf4jnsgd1na2vs0mg"},{"bike_id":"2952ade9-356c-4336-99a1-396e23965977","system_id":"levelo_inurba_marseille","lat":43.28408,"lon":5.37526,"is_reserved":false,"is_disabled":false,"rental_uris":{"android":"levelo://app?vid=2952ade9-356c-4336-99a1-396e23965977","ios":"levelo://app?vid=2952ade9-356c-4336-99a1-396e23965977"},"vehicle_type_id":"4","last_reported":1747764867,"current_range_meters":20400,"station_id":"ce4bh412rcd13ifvqds0","pricing_plan_id":"cebpf4jnsgd1na2vs0mg"},{"bike_id":"3520f649-ea4e-4fb4-be52-35d39bd0a476","system_id":"levelo_inurba_marseille","lat":43.28476,"lon":5.38424,"is_reserved":false,"is_disabled":false,"rental_uris":{"android":"levelo://app?vid=3520f649-ea4e-4fb4-be52-35d39bd0a476","ios":"levelo://app?vid=3520f649-ea4e-4fb4-be52-35d39bd0a476"},"vehicle_type_id":"4","last_reported":1747764867,"current_range_meters":20400,"station_id":"ce4bh512rcd13ifvqe3g","pricing_plan_id":"cebpf4jnsgd1na2vs0mg"},{"bike_id":"70ceb0df-d830-40f6-be39-bb1a7dbd5010","system_id":"levelo_inurba_marseille","lat":43.28293,"lon":5.35075,"is_reserved":false,"is_disabled":false,"rental_uris":{"android":"levelo://app?vid=70ceb0df-d830-40f6-be39-bb1a7dbd5010","ios":"levelo://app?vid=70ceb0df-d830-40f6-be39-bb1a7dbd5010"},"vehicle_type_id":"4","last_reported":1747764867,"current_range_meters":20400,"station_id":"ce4bhbp2rcd13ifvqerg","pricing_plan_id":"cebpf4jnsgd1na2vs0mg"},{"bike_id":"8202ae19-a658-4a84-a3a6-32833f9e3211","system_id":"levelo_inurba_marseille","lat":43.25116,"lon":5.40326,"is_reserved":false,"is_disabled":false,"rental_uris":{"android":"levelo://app?vid=8202ae19-a658-4a84-a3a6-32833f9e3211","ios":"levelo://app?vid=8202ae19-a658-4a84-a3a6-32833f9e3211"},"vehicle_type_id":"4","last_reported":1747764867,"current_range_meters":20400,"station_id":"ce4bhlh2rcd13ifvqgig","pricing_plan_id":"cebpf4jnsgd1na2vs0mg"},{"bike_id":"d4acc3d6-22e6-44af-8a92-fc4a8985e714","system_id":"levelo_inurba_marseille","lat":43.25088,"lon":5.39523,"is_reserved":false,"is_disabled":false,"rental_uris":{"android":"levelo://app?vid=d4acc3d6-22e6-44af-8a92-fc4a8985e714","ios":"levelo://app?vid=d4acc3d6-22e6-44af-8a92-fc4a8985e714"},"vehicle_type_id":"4","last_reported":1747764867,"current_range_meters":20400,"station_id":"ce4bhm12rcd13ifvqgkg","pricing_plan_id":"cebpf4jnsgd1na2vs0mg"},{"bike_id":"dc61c065-6ed1-487e-9ecf-5a93a8f61ca7","system_id":"levelo_inurba_marseille","lat":43.231918,"lon":5.399822,"is_reserved":false,"is_disabled":false,"rental_uris":{"android":"levelo://app?vid=dc61c065-6ed1-487e-9ecf-5a93a8f61ca7","ios":"levelo://app?vid=dc61c065-6ed1-487e-9ecf-5a93a8f61ca7"},"vehicle_type_id":"4","last_reported":1747764867,"current_range_meters":20400,"station_id":"ce4bhn12rcd13ifvqgqg","pricing_plan_id":"cebpf4jnsgd1na2vs0mg"},{"bike_id":"512cad48-a180-4060-b1f1-89c6ef5852f2","system_id":"levelo_inurba_marseille","lat":43.23186,"lon":5.39982,"is_reserved":false,"is_disabled":false,"rental_uris":{"android":"levelo://app?vid=512cad48-a180-4060-b1f1-89c6ef5852f2","ios":"levelo://app?vid=512cad48-a180-4060-b1f1-89c6ef5852f2"},"vehicle_type_id":"4","last_reported":1747764867,"current_range_meters":20400,"station_id":"ce4bhn12rcd13ifvqgqg","pricing_plan_id":"cebpf4jnsgd1na2vs0mg"},{"bike_id":"12855e6f-61dd-49d1-a672-739ac41830e6","system_id":"levelo_inurba_marseille","lat":43.279878,"lon":5.416605,"is_reserved":false,"is_disabled":false,"rental_uris":{"android":"levelo://app?vid=12855e6f-61dd-49d1-a672-739ac41830e6","ios":"levelo://app?vid=12855e6f-61dd-49d1-a672-739ac41830e6"},"vehicle_type_id":"4","last_reported":1747764867,"current_range_meters":20400,"station_id":"ce4bho12rcd13ifvqh1g","pricing_plan_id":"cebpf4jnsgd1na2vs0mg"},{"bike_id":"337cd117-753f-4902-926a-74f688956ef1","system_id":"levelo_inurba_marseille","lat":43.3073,"lon":5.42447,"is_reserved":false,"is_disabled":false,"rental_uris":{"android":"levelo://app?vid=337cd117-753f-4902-926a-74f688956ef1","ios":"levelo://app?vid=337cd117-753f-4902-926a-74f688956ef1"},"vehicle_type_id":"4","last_reported":1747764867,"current_range_meters":20400,"station_id":"st_cvj6ca6bvosntc0bfgr0","pricing_plan_id":"cebpf4jnsgd1na2vs0mg"},{"bike_id":"8201d4c3-98ac-4a7d-bcef-673d41c46f47","system_id":"levelo_inurba_marseille","lat":43.292599,"lon":5.38437,"is_reserved":false,"is_disabled":false,"rental_uris":{"android":"levelo://app?vid=8201d4c3-98ac-4a7d-bcef-673d41c46f47","ios":"levelo://app?vid=8201d4c3-98ac-4a7d-bcef-673d41c46f47"},"vehicle_type_id":"4","last_reported":1747764867,"current_range_meters":20800,"station_id":"ce4bh692rcd13ifvqea0","pricing_plan_id":"cebpf4jnsgd1na2vs0mg"},{"bike_id":"c935da82-9052-4f0c-be5a-a1c74f9ae9d4","system_id":"levelo_inurba_marseille","lat":43.291763,"lon":5.357867,"is_reserved":false,"is_disabled":false,"rental_uris":{"android":"levelo://app?vid=c935da82-9052-4f0c-be5a-a1c74f9ae9d4","ios":"levelo://app?vid=c935da82-9052-4f0c-be5a-a1c74f9ae9d4"},"vehicle_type_id":"4","last_reported":1747764867,"current_range_meters":20800,"station_id":"ce4bhb12rcd13ifvqel0","pricing_plan_id":"cebpf4jnsgd1na2vs0mg"},{"bike_id":"5c9299f6-bc3f-48fe-9ee8-6369779a448d","system_id":"levelo_inurba_marseille","lat":43.273728,"lon":5.362654,"is_reserved":false,"is_disabled":false,"rental_uris":{"android":"levelo://app?vid=5c9299f6-bc3f-48fe-9ee8-6369779a448d","ios":"levelo://app?vid=5c9299f6-bc3f-48fe-9ee8-6369779a448d"},"vehicle_type_id":"4","last_reported":1747764867,"current_range_meters":20800,"station_id":"ce4bhbh2rcd13ifvqeo0","pricing_plan_id":"cebpf4jnsgd1na2vs0mg"},{"bike_id":"7fa4be75-d207-4b7d-86e6-882fd410f809","system_id":"levelo_inurba_marseille","lat":43.25497,"lon":5.37653,"is_reserved":false,"is_disabled":false,"rental_uris":{"android":"levelo://app?vid=7fa4be75-d207-4b7d-86e6-882fd410f809","ios":"levelo://app?vid=7fa4be75-d207-4b7d-86e6-882fd410f809"},"vehicle_type_id":"4","last_reported":1747764867,"current_range_meters":20800,"station_id":"ce4bhh12rcd13ifvqff0","pricing_plan_id":"cebpf4jnsgd1na2vs0mg"},{"bike_id":"6db98dd0-2562-411f-a40d-8bbe1106c59f","system_id":"levelo_inurba_marseille","lat":43.25827,"lon":5.39436,"is_reserved":false,"is_disabled":false,"rental_uris":{"android":"levelo://app?vid=6db98dd0-2562-411f-a40d-8bbe1106c59f","ios":"levelo://app?vid=6db98dd0-2562-411f-a40d-8bbe1106c59f"},"vehicle_type_id":"4","last_reported":1747764867,"current_range_meters":20800,"station_id":"ce4bhip2rcd13ifvqft0","pricing_plan_id":"cebpf4jnsgd1na2vs0mg"},{"bike_id":"3066ab39-c657-4d1a-b6d6-7310923f05b2","system_id":"levelo_inurba_marseille","lat":43.274913,"lon":5.424472,"is_reserved":false,"is_disabled":false,"rental_uris":{"android":"levelo://app?vid=3066ab39-c657-4d1a-b6d6-7310923f05b2","ios":"levelo://app?vid=3066ab39-c657-4d1a-b6d6-7310923f05b2"},"vehicle_type_id":"4","last_reported":1747764867,"current_range_meters":20800,"station_id":"ce4bhn92rcd13ifvqgrg","pricing_plan_id":"cebpf4jnsgd1na2vs0mg"},