{"last_updated":1725041484,"ttl":30,"version":"2.2","data":{"bikes":[{"bike_id":"fcd370d8-acf6-4a8a-88bc-39c99b9ca03d","system_id":"levelo_inurba_marseille","lat":43.31238,"lon":5.36849,"is_reserved":false,"is_disabled":false,"rental_uris":{"android":"levelo://app?vid=fcd370d8-acf6-4a8a-88bc-39c99b9ca03d","ios":"levelo://app?vid=fcd370d8-acf6-4a8a-88bc-39c99b9ca03d"},"vehicle_type_id":"4","last_reported":1725041484,"current_range_meters":800,"station_id":"ce4bgl92rcd13ifvqbq0","pricing_plan_id":"cebpf4jnsgd1na2vs0mg"},{"bike_id":"c5a326b4-bd16-468f-ad2d-6e2539639695","system_id":"levelo_inurba_marseille","lat":43.312239,"lon":5.368562,"is_reserved":false,"is_disabled":false,"rental_uris":{"android":"levelo://app?vid=c5a326b4-bd16-468f-ad2d-6e2539639695","ios":"levelo://app?vid=c5a326b4-bd16-468f-ad2d-6e2539639695"},"vehicle_type_id":"4","last_reported":1725041484,"current_range_meters":12000,"station_id":"ce4bgl92rcd13ifvqbq0","pricing_plan_id":"cebpf4jnsgd1na2vs0mg"},{"bike_id":"5fdb003b-d7c2-41e3-904e-5547e001d217","system_id":"levelo_inurba_marseille","lat":43.312239,"lon":5.368562,"is_reserved":false,"is_disabled":false,"rental_uris":{"android":"levelo://app?vid=5fdb003b-d7c2-41e3-904e-5547e001d217","ios":"levelo://app?vid=5fdb003b-d7c2-41e3-904e-5547e001d217"},"vehicle_type_id":"4","last_reported":1725041484,"current_range_meters":15600,"station_id":"ce4bgl92rcd13ifvqbq0","pricing_plan_id":"cebpf4jnsgd1na2vs0mg"},{"bike_id":"05968193-08a1-47ee-9776-b38b9c81ac26","system_id":"levelo_inurba_marseille","lat":43.312239,"lon":5.368562,"is_reserved":false,"is_disabled":false,"rental_uris":{"android":"levelo://app?vid=05968193-08a1-47ee-9776-b38b9c81ac26","ios":"levelo://app?vid=05968193-08a1-47ee-9776-b38b9c81ac26"},"vehicle_type_id":"4","last_reported":1725041484,"current_range_meters":800,"station_id":"ce4bgl92rcd13ifvqbq0","pricing_plan_id":"cebpf4jnsgd1na2vs0mg"},{"bike_id":"c5aa55cd-0020-418b-a156-978143a8dc7a","system_id":"levelo_inurba_marseille","lat":43.309076,"lon":5.368465,"is_reserved":false,"is_disabled":false,"rental_uris":{"android":"levelo://app?vid=c5aa55cd-0020-418b-a156-978143a8dc7a","ios":"levelo://app?vid=c5aa55cd-0020-418b-a156-978143a8dc7a"},"vehicle_type_id":"4","last_reported":1725041484,"current_range_meters":18000,"station_id":"ce4bgn92rcd13ifvqbvg","pricing_plan_id":"cebpf4jnsgd1na2vs0mg"},{"bike_id":"3d8e0d33-0706-4987-84f9-f515d5ae29e7","system_id":"levelo_inurba_marseille","lat":43.314811,"lon":5.373103,"is_reserved":false,"is_disabled":false,"rental_uris":{"android":"levelo://app?vid=3d8e0d33-0706-4987-84f9-f515d5ae29e7","ios":"levelo://app?vid=3d8e0d33-0706-4987-84f9-f515d5ae29e7"},"vehicle_type_id":"4","last_reported":1725041484,"current_range_meters":0,"station_id":"ce4bgt12rcd13ifvqcd0","pricing_plan_id":"cebpf4jnsgd1na2vs0mg"},{"bike_id":"0d31e964-caa8-4234-8a38-96d0642f8b77","system_id":"levelo_inurba_marseille","lat":43.314811,"lon":5.373103,"is_reserved":false,"is_disabled":false,"rental_uris":{"android":"levelo://app?vid=0d31e964-caa8-4234-8a38-96d0642f8b77","ios":"levelo://app?vid=0d31e964-caa8-4234-8a38-96d0642f8b77"},"vehicle_type_id":"4","last_reported":1725041484,"current_range_meters":8000,"station_id":"ce4bgt12rcd13ifvqcd0","pricing_plan_id":"cebpf4jnsgd1na2vs0mg"},{"bike_id":"6bde1c85-30d3-4cc8-b8dd-c44c56f9bf57","system_id":"levelo_inurba_marseille","lat":43.314811,"lon":5.373103,"is_reserved":false,"is_disabled":false,"rental_uris":{"android":"levelo://app?vid=6bde1c85-30d3-4cc8-b8dd-c44c56f9bf57","ios":"levelo://app?vid=6bde1c85-30d3-4cc8-b8dd-c44c56f9bf57"},"vehicle_type_id":"4","last_reported":1725041484,"current_range_meters":26800,"station_id":"ce4bgt12rcd13ifvqcd0","pricing_plan_id":"cebpf4jnsgd1na2vs0mg"},{"bike_id":"02c757a9-42a9-4270-b9f1-a82937e415b2","system_id":"levelo_inurba_marseille","lat":43.314811,"lon":5.373103,"is_reserved":false,"is_disabled":false,"rental_uris":{"android":"levelo://app?vid=02c757a9-42a9-4270-b9f1-a82937e415b2","ios":"levelo://app?vid=02c757a9-42a9-4270-b9f1-a82937e415b2"},"vehicle_type_id":"4","last_reported":1725041484,"current_range_meters":20800,"station_id":"ce4bgt12rcd13ifvqcd0","pricing_plan_id":"cebpf4jnsgd1na2vs0mg"},{"bike_id":"88693c61-57c2-41eb-9dc2-82281fd1d6d7","system_id":"levelo_inurba_marseille","lat":43.309039,"lon":5.371797,"is_reserved":false,"is_disabled":false,"rental_uris":{"android":"levelo://app?vid=88693c61-57c2-41eb-9dc2-82281fd1d6d7","ios":"levelo://app?vid=88693c61-57c2-41eb-9dc2-82281fd1d6d7"},"vehicle_type_id":"4","last_reported":1725041484,"current_range_meters":18000,"station_id":"ce4bguh2rcd13ifvqckg","pricing_plan_id":"cebpf4jnsgd1na2vs0mg"},{"bike_id":"e315c0d5-e7c1-4c76-bf0a-3d0085f42991","system_id":"levelo_inurba_marseille","lat":43.30878,"lon":5.37197,"is_reserved":false,"is_disabled":false,"rental_uris":{"android":"levelo://app?vid=e315c0d5-e7c1-4c76-bf0a-3d0085f42991","ios":"levelo://app?vid=e315c0d5-e7c1-4c76-bf0a-3d0085f42991"},"vehicle_type_id":"4","last_reported":1725041484,"current_range_meters":28800,"station_id":"","pricing_plan_id":"cebpf4jnsgd1na2vs0mg"},{"bike_id":"e62d9ca2-ee17-4373-90fd-7da3ce0f9cbe","system_id":"levelo_inurba_marseille","lat":43.309039,"lon":5.371797,"is_reserved":false,"is_disabled":false,"rental_uris":{"android":"levelo://app?vid=e62d9ca2-ee17-4373-90fd-7da3ce0f9cbe","ios":"levelo://app?vid=e62d9ca2-ee17-4373-90fd-7da3ce0f9cbe"},"vehicle_type_id":"4","last_reported":1725041484,"current_range_meters":10400,"station_id":"ce4bguh2rcd13ifvqckg","pricing_plan_id":"cebpf4jnsgd1na2vs0mg"},{"bike_id":"a60b3093-1f20-4baa-8fc6-0204409dca66","system_id":"levelo_inurba_marseille","lat":43.305706,"lon":5.365654,"is_reserved":false,"is_disabled":false,"rental_uris":{"android":"levelo://app?vid=a60b3093-1f20-4baa-8fc6-0204409dca66","ios":"levelo://app?vid=a60b3093-1f20-4baa-8fc6-0204409dca66"},"vehicle_type_id":"4","last_reported":1725041484,"current_range_meters":400,"station_id":"ce4bgs12rcd13ifvqcag","pricing_plan_id":"cebpf4jnsgd1na2vs0mg"},{"bike_id":"1cafe92a-b33d-42ea-a3e8-66bca86af68a","system_id":"levelo_inurba_marseille","lat":43.311125,"lon":5.377624,"is_reserved":false,"is_disabled":false,"rental_uris":{"android":"levelo://app?vid=1cafe92a-b33d-42ea-a3e8-66bca86af68a","ios":"levelo://app?vid=1cafe92a-b33d-42ea-a3e8-66bca86af68a"},"vehicle_type_id":"4","last_reported":1725041484,"current_range_meters":15200,"station_id":"ce4bgt92rcd13ifvqcg0","pricing_plan_id":"cebpf4jnsgd1na2vs0mg"},{"bike_id":"03c8ecc7-5352-4517-8e18-7f0a239b98af","system_id":"levelo_inurba_marseille","lat":43.303046,"lon":5.368981,"is_reserved":false,"is_disabled":false,"rental_uris":{"android":"levelo://app?vid=03c8ecc7-5352-4517-8e18-7f0a239b98af","ios":"levelo://app?vid=03c8ecc7-5352-4517-8e18-7f0a239b98af"},"vehicle_type_id":"4","last_reported":1725041484,"current_range_meters":3200,"station_id":"ce4bgqh2rcd13ifvqc5g","pricing_plan_id":"cebpf4jnsgd1na2vs0mg"},{"bike_id":"116326d3-99b0-42d9-9e17-f6e02b0df00e","system_id":"levelo_inurba_marseille","lat":43.303046,"lon":5.368981,"is_reserved":false,"is_disabled":false,"rental_uris":{"android":"levelo://app?vid=116326d3-99b0-42d9-9e17-f6e02b0df00e","ios":"levelo://app?vid=116326d3-99b0-42d9-9e17-f6e02b0df00e"},"vehicle_type_id":"4","last_reported":1725041484,"current_range_meters":0,"station_id":"ce4bgqh2rcd13ifvqc5g","pricing_plan_id":"cebpf4jnsgd1na2vs0mg"},{"bike_id":"d90d8d67-b003-4c76-994c-5d7041e20d8c","system_id":"levelo_inurba_marseille","lat":43.315289,"lon":5.380349,"is_reserved":false,"is_disabled":false,"rental_uris":{"android":"levelo://app?vid=d90d8d67-b003-4c76-994c-5d7041e20d8c","ios":"levelo://app?vid=d90d8d67-b003-4c76-994c-5d7041e20d8c"},"vehicle_type_id":"4","last_reported":1725041484,"current_range_meters":15600,"station_id":"ce4bhsp2rcd13ifvqi50","pricing_plan_id":"cebpf4jnsgd1na2vs0mg"},{"bike_id":"d903db05-9f9d-41c6-bd24-8e0c49288891","system_id":"levelo_inurba_marseille","lat":43.31427,"lon":5.38094,"is_reserved":false,"is_disabled":false,"rental_uris":{"android":"levelo://app?vid=d903db05-9f9d-41c6-bd24-8e0c49288891","ios":"levelo://app?vid=d903db05-9f9d-41c6-bd24-8e0c49288891"},"vehicle_type_id":"4","last_reported":1725041484,"current_range_meters":4400,"station_id":"","pricing_plan_id":"cebpf4jnsgd1na2vs0mg"},{"bike_id":"1d63310c-b69b-4d63-a4dc-09257be83115","system_id":"levelo_inurba_marseille","lat":43.30123,"lon":5.37017,"is_reserved":false,"is_disabled":false,"rental_uris":{"android":"levelo://app?vid=1d63310c-b69b-4d63-a4dc-09257be83115","ios":"levelo://app?vid=1d63310c-b69b-4d63-a4dc-09257be83115"},"vehicle_type_id":"4","last_reported":1725041484,"current_range_meters":0,"station_id":"","pricing_plan_id":"cebpf4jnsgd1na2vs0mg"},{"bike_id":"4c4ccad5-a660-4536-9d1d-76b4435a980e","system_id":"levelo_inurba_marseille","lat":43.304606,"lon":5.379026,"is_reserved":false,"is_disabled":false,"rental_uris":{"android":"levelo://app?vid=4c4ccad5-a660-4536-9d1d-76b4435a980e","ios":"levelo://app?vid=4c4ccad5-a660-4536-9d1d-76b4435a980e"},"vehicle_type_id":"4","last_reported":1725041484,"current_range_meters":0,"station_id":"ce4bgup2rcd13ifvqcn0","pricing_plan_id":"cebpf4jnsgd1na2vs0mg"},{"bike_id":"edbd35a5-b0cf-4e66-b288-f4a71f358779","system_id":"levelo_inurba_marseille","lat":43.304606,"lon":5.379026,"is_reserved":false,"is_disabled":false,"rental_uris":{"android":"levelo://app?vid=edbd35a5-b0cf-4e66-b288-f4a71f358779","ios":"levelo://app?vid=edbd35a5-b0cf-4e66-b288-f4a71f358779"},"vehicle_type_id":"4","last_reported":1725041484,"current_range_meters":2800,"station_id":"ce4bgup2rcd13ifvqcn0","pricing_plan_id":"cebpf4jnsgd1na2vs0mg"},{"bike_id":"74ebed37-9786-4dd4-9749-d296717c0e1b","system_id":"levelo_inurba_marseille","lat":43.324771,"lon":5.36557,"is_reserved":false,"is_disabled":false,"rental_uris":{"android":"levelo://app?vid=74ebed37-9786-4dd4-9749-d296717c0e1b","ios":"levelo://app?vid=74ebed37-9786-4dd4-9749-d296717c0e1b"},"vehicle_type_id":"4","last_reported":1725041484,"current_range_meters":27200,"station_id":"ce4bhs12rcd13ifvqhvg","pricing_plan_id":"cebpf4jnsgd1na2vs0mg"},{"bike_id":"074b6f93-784c-408b-8123-782bd891a425","system_id":"levelo_inurba_marseille","lat":43.317,"lon":5.38273,"is_reserved":false,"is_disabled":false,"rental_uris":{"android":"levelo://app?vid=074b6f93-784c-408b-8123-782bd891a425","ios":"levelo://app?vid=074b6f93-784c-408b-8123-782bd891a425"},"vehicle_type_id":"4","last_reported":1725041484,"current_range_meters":31200,"station_id":"","pricing_plan_id":"cebpf4jnsgd1na2vs0mg"},{"bike_id":"e76c4a54-0f51-4751-b723-8e6288c2ae4a","system_id":"levelo_inurba_marseille","lat":43.302784,"lon":5.377158,"is_reserved":false,"is_disabled":false,"rental_uris":{"android":"levelo://app?vid=e76c4a54-0f51-4751-b723-8e6288c2ae4a","ios":"levelo://app?vid=e76c4a54-0f51-4751-b723-8e6288c2ae4a"},"vehicle_type_id":"4","last_reported":1725041484,"current_range_meters":28000,"station_id":"ce4bguh2rcd13ifvqcj0","pricing_plan_id":"cebpf4jnsgd1na2vs0mg"},{"bike_id":"0b33379e-33b5-4322-a4d5-279466ff6cc3","system_id":"levelo_inurba_marseille","lat":43.302784,"lon":5.377158,"is_reserved":false,"is_disabled":false,"rental_uris":{"android":"levelo://app?vid=0b33379e-33b5-4322-a4d5-279466ff6cc3","ios":"levelo://app?vid=0b33379e-33b5-4322-a4d5-279466ff6cc3"},"vehicle_type_id":"4","last_reported":1725041484,"current_range_meters":21600,"station_id":"ce4bguh2rcd13ifvqcj0","pricing_plan_id":"cebpf4jnsgd1na2vs0mg"},{"bike_id":"6207c27f-7267-4f69-97f7-714a80cfa293","system_id":"levelo_inurba_marseille","lat":43.31984,"lon":5.38146,"is_reserved":false,"is_disabled":false,"rental_uris":{"android":"levelo://app?vid=6207c27f-7267-4f69-97f7-714a80cfa293","ios":"levelo://app?vid=6207c27f-7267-4f69-97f7-714a80cfa293"},"vehicle_type_id":"4","last_reported":1725041484,"current_range_meters":0,"station_id":"","pricing_plan_id":"cebpf4jnsgd1na2vs0mg"},{"bike_id":"3996134a-3107-4267-a31b-7fc76857860c","system_id":"levelo_inurba_marseille","lat":43.319935,"lon":5.381699,"is_reserved":false,"is_disabled":false,"rental_uris":{"android":"levelo://app?vid=3996134a-3107-4267-a31b-7fc76857860c","ios":"levelo://app?vid=3996134a-3107-4267-a31b-7fc76857860c"},"vehicle_type_id":"4","last_reported":1725041484,"current_range_meters":22800,"station_id":"ce4bhr12rcd13ifvqhpg","pricing_plan_id":"cebpf4jnsgd1na2vs0mg"},{"bike_id":"2a08a633-bc9c-4a44-ba40-f23ec6efaf12","system_id":"levelo_inurba_marseille","lat":43.31995,"lon":5.38165,"is_reserved":false,"is_disabled":false,"rental_uris":{"android":"levelo://app?vid=2a08a633-bc9c-4a44-ba40-f23ec6efaf12","ios":"levelo://app?vid=2a08a633-bc9c-4a44-ba40-f23ec6efaf12"},"vehicle_type_id":"4","last_reported":1725041484,"current_range_meters":14800,"station_id":"ce4bhr12rcd13ifvqhpg","pricing_plan_id":"cebpf4jnsgd1na2vs0mg"},{"bike_id":"d294beca-e427-4c7f-96b0-5ffc91088925","system_id":"levelo_inurba_marseille","lat":43.313571,"lon":5.384829,"is_reserved":false,"is_disabled":false,"rental_uris":{"android":"levelo://app?vid=d294beca-e427-4c7f-96b0-5ffc91088925","ios":"levelo://app?vid=d294beca-e427-4c7f-96b0-5ffc91088925"},"vehicle_type_id":"4","last_reported":1725041484,"current_range_meters":0,"station_id":"ce4bgt92rcd13ifvqcf0","pricing_plan_id":"cebpf4jnsgd1na2vs0mg"},{"bike_id":"23614049-bbbe-46a3-a6f4-eaf3d40abfc9","system_id":"levelo_inurba_marseille","lat":43.313571,"lon":5.384829,"is_reserved":false,"is_disabled":false,"rental_uris":{"android":"levelo://app?vid=23614049-bbbe-46a3-a6f4-eaf3d40abfc9","ios":"levelo://app?vid=23614049-bbbe-46a3-a6f4-eaf3d40abfc9"},"vehicle_type_id":"4","last_reported":1725041484,"current_range_meters":19600,"station_id":"ce4bgt92rcd13ifvqcf0","pricing_plan_id":"cebpf4jnsgd1na2vs0mg"},{"bike_id":"f2b2367e-7514-49bb-8f41-a248c9c7566b","system_id":"levelo_inurba_marseille","lat":43.299222,"lon":5.365554,"is_reserved":false,"is_disabled":false,"rental_uris":{"android":"levelo://app?vid=f2b2367e-7514-49bb-8f41-a248c9c7566b","ios":"levelo://app?vid=f2b2367e-7514-49bb-8f41-a248c9c7566b"},"vehicle_type_id":"4","last_reported":1725041484,"current_range_meters":13600,"station_id":"ce4bgm92rcd13ifvqbr0","pricing_plan_id":"cebpf4jnsgd1na2vs0mg"},{"bike_id":"ffb39074-cf6a-439e-9734-a31abdaf1d8f","system_id":"levelo_inurba_marseille","lat":43.298433,"lon":5.362774,"is_reserved":false,"is_disabled":false,"rental_uris":{"android":"levelo://app?vid=ffb39074-cf6a-439e-9734-a31abdaf1d8f","ios":"levelo://app?vid=ffb39074-cf6a-439e-9734-a31abdaf1d8f"},"vehicle_type_id":"4","last_reported":1725041484,"current_range_meters":6000,"station_id":"ce4bgpp2rcd13ifvqc3g","pricing_plan_id":"cebpf4jnsgd1na2vs0mg"},{"bike_id":"253429c0-17eb-4492-839f-21e7533549b8","system_id":"levelo_inurba_marseille","lat":43.305364,"lon":5.384119,"is_reserved":false,"is_disabled":false,"rental_uris":{"android":"levelo://app?vid=253429c0-17eb-4492-839f-21e7533549b8","ios":"levelo://app?vid=253429c0-17eb-4492-839f-21e7533549b8"},"vehicle_type_id":"4","last_reported":1725041484,"current_range_meters":17600,"station_id":"ce4bgg92rcd13ifvqb30","pricing_plan_id":"cebpf4jnsgd1na2vs0mg"},{"bike_id":"01c874dd-0745-4e58-9483-3b7cfea73c91","system_id":"levelo_inurba_marseille","lat":43.299243,"lon":5.37481,"is_reserved":false,"is_disabled":false,"rental_uris":{"android":"levelo://app?vid=01c874dd-0745-4e58-9483-3b7cfea73c91","ios":"levelo://app?vid=01c874dd-0745-4e58-9483-3b7cfea73c91"},"vehicle_type_id":"4","last_reported":1725041484,"current_range_meters":26800,"station_id":"ce4bgjh2rcd13ifvqbg0","pricing_plan_id":"cebpf4jnsgd1na2vs0mg"},{"bike_id":"f3b7d322-312e-4f25-a774-1783975e4409","system_id":"levelo_inurba_marseille","lat":43.311722,"lon":5.387247,"is_reserved":false,"is_disabled":false,"rental_uris":{"android":"levelo://app?vid=f3b7d322-312e-4f25-a774-1783975e4409","ios":"levelo://app?vid=f3b7d322-312e-4f25-a774-1783975e4409"},"vehicle_type_id":"4","last_reported":1725041484,"current_range_meters":9600,"station_id":"ce4bgv12rcd13ifvqcp0","pricing_plan_id":"cebpf4jnsgd1na2vs0mg"},{"bike_id":"91e10a2d-2cb3-439c-97ac-7b7154632cf6","system_id":"levelo_inurba_marseille","lat":43.301417,"lon":5.3809,"is_reserved":false,"is_disabled":false,"rental_uris":{"android":"levelo://app?vid=91e10a2d-2cb3-439c-97ac-7b7154632cf6","ios":"levelo://app?vid=91e10a2d-2cb3-439c-97ac-7b7154632cf6"},"vehicle_type_id":"4","last_reported":1725041484,"current_range_meters":24800,"station_id":"ce4bgjp2rcd13ifvqbh0","pricing_plan_id":"cebpf4jnsgd1na2vs0mg"},{"bike_id":"fc49c816-de85-4aea-829c-c0020a3d5119","system_id":"levelo_inurba_marseille","lat":43.30142,"lon":5.38066,"is_reserved":false,"is_disabled":false,"rental_uris":{"android":"levelo://app?vid=fc49c816-de85-4aea-829c-c0020a3d5119","ios":"levelo://app?vid=fc49c816-de85-4aea-829c-c0020a3d5119"},"vehicle_type_id":"4","last_reported":1725041484,"current_range_meters":13600,"station_id":"ce4bgjp2rcd13ifvqbh0","pricing_plan_id":"cebpf4jnsgd1na2vs0mg"},{"bike_id":"eef13f45-1270-470b-9b5e-33c9a27027f1","system_id":"levelo_inurba_marseille","lat":43.30147,"lon":5.38075,"is_reserved":false,"is_disabled":false,"rental_uris":{"android":"levelo://app?vid=eef13f45-1270-470b-9b5e-33c9a27027f1","ios":"levelo://app?vid=eef13f45-1270-470b-9b5e-33c9a27027f1"},"vehicle_type_id":"4","last_reported":1725041484,"current_range_meters":11200,"station_id":"ce4bgjp2rcd13ifvqbh0","pricing_plan_id":"cebpf4jnsgd1na2vs0mg"},{"bike_id":"bc4796bc-df74-4518-b5cd-fedbbd1a8b3d","system_id":"levelo_inurba_marseille","lat":43.295279,"lon":5.375048,"is_reserved":false,"is_disabled":false,"rental_uris":{"android":"levelo://app?vid=bc4796bc-df74-4518-b5cd-fedbbd1a8b3d","ios":"levelo://app?vid=bc4796bc-df74-4518-b5cd-fedbbd1a8b3d"},"vehicle_type_id":"4","last_reported":1725041484,"current_range_meters":0,"station_id":"ce4bgkp2rcd13ifvqbmg","pricing_plan_id":"cebpf4jnsgd1na2vs0mg"},{"bike_id":"bcbd3b74-6924-42b8-a5b7-d7913acbe2ea","system_id":"levelo_inurba_marseille","lat":43.297794,"lon":5.370888,"is_reserved":false,"is_disabled":false,"rental_uris":{"android":"levelo://app?vid=bcbd3b74-6924-42b8-a5b7-d7913acbe2ea","ios":"levelo://app?vid=bcbd3b74-6924-42b8-a5b7-d7913acbe2ea"},"vehicle_type_id":"4","last_reported":1725041484,"current_range_meters":13200,"station_id":"ce4bgop2rcd13ifvqc1g","pricing_plan_id":"cebpf4jnsgd1na2vs0mg"},{"bike_id":"fd72acb5-83ae-4b8d-9994-b6135f8a1d3e","system_id":"levelo_inurba_marseille","lat":43.32291,"lon":5.38255,"is_reserved":false,"is_disabled":false,"rental_uris":{"android":"levelo://app?vid=fd72acb5-83ae-4b8d-9994-b6135f8a1d3e","ios":"levelo://app?vid=fd72acb5-83ae-4b8d-9994-b6135f8a1d3e"},"vehicle_type_id":"4","last_reported":1725041484,"current_range_meters":20400,"station_id":"ce4bhr12rcd13ifvqhqg","pricing_plan_id":"cebpf4jnsgd1na2vs0mg"},{"bike_id":"cb73b66e-dfa6-4f93-80b9-a70c2f549e78","system_id":"levelo_inurba_marseille","lat":43.3229,"lon":5.38257,"is_reserved":false,"is_disabled":false,"rental_uris":{"android":"levelo://app?vid=cb73b66e-dfa6-4f93-80b9-a70c2f549e78","ios":"levelo://app?vid=cb73b66e-dfa6-4f93-80b9-a70c2f549e78"},"vehicle_type_id":"4","last_reported":1725041484,"current_range_meters":23600,"station_id":"ce4bhr12rcd13ifvqhqg","pricing_plan_id":"cebpf4jnsgd1na2vs0mg"},{"bike_id":"1a7a1539-a8a4-46be-9a17-2c31df071044","system_id":"levelo_inurba_marseille","lat":43.322872,"lon":5.382756,"is_reserved":false,"is_disabled":false,"rental_uris":{"android":"levelo://app?vid=1a7a1539-a8a4-46be-9a17-2c31df071044","ios":"levelo://app?vid=1a7a1539-a8a4-46be-9a17-2c31df071044"},"vehicle_type_id":"4","last_reported":1725041484,"current_range_meters":28800,"station_id":"ce4bhr12rcd13ifvqhqg","pricing_plan_id":"cebpf4jnsgd1na2vs0mg"},{"bike_id":"e4e931bb-0e96-4d51-b128-d34334c25756","system_id":"levelo_inurba_marseille","lat":43.32289,"lon":5.38269,"is_reserved":false,"is_disabled":false,"rental_uris":{"android":"levelo://app?vid=e4e931bb-0e96-4d51-b128-d34334c25756","ios":"levelo://app?vid=e4e931bb-0e96-4d51-b128-d34334c25756"},"vehicle_type_id":"4","last_reported":1725041484,"current_range_meters":12000,"station_id":"ce4bhr12rcd13ifvqhqg","pricing_plan_id":"cebpf4jnsgd1na2vs0mg"},{"bike_id":"80f79607-950d-4368-bad6-c2365837a4d3","system_id":"levelo_inurba_marseille","lat":43.322907,"lon":5.382723,"is_reserved":false,"is_disabled":false,"rental_uris":{"android":"levelo://app?vid=80f79607-950d-4368-bad6-c2365837a4d3","ios":"levelo://app?vid=80f79607-950d-4368-bad6-c2365837a4d3"},"vehicle_type_id":"4","last_reported":1725041484,"current_range_meters":2800,"station_id":"ce4bhr12rcd13ifvqhqg","pricing_plan_id":"cebpf4jnsgd1na2vs0mg"},{"bike_id":"239638f9-e701-4fee-a699-9563739460a5","system_id":"levelo_inurba_marseille","lat":43.297163,"lon":5.365866,"is_reserved":false,"is_disabled":false,"rental_uris":{"android":"levelo://app?vid=239638f9-e701-4fee-a699-9563739460a5","ios":"levelo://app?vid=239638f9-e701-4fee-a699-9563739460a5"},"vehicle_type_id":"4","last_reported":1725041484,"current_range_meters":24800,"station_id":"ce4bgn12rcd13ifvqbt0","pricing_plan_id":"cebpf4jnsgd1na2vs0mg"},{"bike_id":"f80cfea7-0989-463e-af6c-8edcb451d63a","system_id":"levelo_inurba_marseille","lat":43.29629,"lon":5.367481,"is_reserved":false,"is_disabled":false,"rental_uris":{"android":"levelo://app?vid=f80cfea7-0989-463e-af6c-8edcb451d63a","ios":"levelo://app?vid=f80cfea7-0989-463e-af6c-8edcb451d63a"},"vehicle_type_id":"4","last_reported":1725041484,"current_range_meters":14800,"station_id":"","pricing_plan_id":"cebpf4jnsgd1na2vs0mg"},{"bike_id":"447fbeed-ebe3-45fa-848d-552b7549ee46","system_id":"levelo_inurba_marseille","lat":43.2968,"lon":5.37291,"is_reserved":false,"is_disabled":false,"rental_uris":{"android":"levelo://app?vid=447fbeed-ebe3-45fa-848d-552b7549ee46","ios":"levelo://app?vid=447fbeed-ebe3-45fa-848d-552b7549ee46"},"vehicle_type_id":"4","last_reported":1725041484,"current_range_meters":10800,"station_id":"ce4bgk12rcd13ifvqbj0","pricing_plan_id":"cebpf4jnsgd1na2vs0mg"},{"bike_id":"ffee62f0-381f-4f7b-ae90-ac75a4cfda28","system_id":"levelo_inurba_marseille","lat":43.29671,"lon":5.37372,"is_reserved":false,"is_disabled":false,"rental_uris":{"android":"levelo://app?vid=ffee62f0-381f-4f7b-ae90-ac75a4cfda28","ios":"levelo://app?vid=ffee62f0-381f-4f7b-ae90-ac75a4cfda28"},"vehicle_type_id":"4","last_reported":1725041484,"current_range_meters":19200,"station_id":"","pricing_plan_id":"cebpf4jnsgd1na2vs0mg"},{"bike_id":"c8ea7346-a9de-4ebe-9e25-4d0c3cd531af","system_id":"levelo_inurba_marseille","lat":43.29622,"lon":5.37154,"is_reserved":false,"is_disabled":false,"rental_uris":{"android":"levelo://app?vid=c8ea7346-a9de-4ebe-9e25-4d0c3cd531af","ios":"levelo://app?vid=c8ea7346-a9de-4ebe-9e25-4d0c3cd531af"},"vehicle_type_id":"4","last_reported":1725041484,"current_range_meters":2000,"station_id":"ce4bgnh2rcd13ifvqc0g","pricing_plan_id":"cebpf4jnsgd1na2vs0mg"},{"bike_id":"3f362199-eafd-4414-92a0-bb852fad638f","system_id":"levelo_inurba_marseille","lat":43.296131,"lon":5.370791,"is_reserved":false,"is_disabled":false,"rental_uris":{"android":"levelo://app?vid=3f362199-eafd-4414-92a0-bb852fad638f","ios":"levelo://app?vid=3f362199-eafd-4414-92a0-bb852fad638f"},"vehicle_type_id":"4","last_reported":1725041484,"current_range_meters":4400,"station_id":"ce4bgnh2rcd13ifvqc0g","pricing_plan_id":"cebpf4jnsgd1na2vs0mg"},{"bike_id":"2d391218-36a9-415b-a044-ac033016b29b","system_id":"levelo_inurba_marseille","lat":43.299083,"lon":5.381355,"is_reserved":false,"is_disabled":false,"rental_uris":{"android":"levelo://app?vid=2d391218-36a9-415b-a044-ac033016b29b","ios":"levelo://app?vid=2d391218-36a9-415b-a044-ac033016b29b"},"vehicle_type_id":"4","last_reported":1725041484,"current_range_meters":12000,"station_id":"ce4bgj12rcd13ifvqbc0","pricing_plan_id":"cebpf4jnsgd1na2vs0mg"},{"bike_id":"ad43ca1b-6496-492a-9dd8-6dd67c551272","system_id":"levelo_inurba_marseille","lat":43.30957,"lon":5.390233,"is_reserved":false,"is_disabled":false,"rental_uris":{"android":"levelo://app?vid=ad43ca1b-6496-492a-9dd8-6dd67c551272","ios":"levelo://app?vid=ad43ca1b-6496-492a-9dd8-6dd67c551272"},"vehicle_type_id":"4","last_reported":1725041484,"current_range_meters":27200,"station_id":"ce4bgup2rcd13ifvqco0","pricing_plan_id":"cebpf4jnsgd1na2vs0mg"},{"bike_id":"bb2197af-6258-4548-bfa6-61e2583f8c8b","system_id":"levelo_inurba_marseille","lat":43.309589,"lon":5.390258,"is_reserved":false,"is_disabled":false,"rental_uris":{"android":"levelo://app?vid=bb2197af-6258-4548-bfa6-61e2583f8c8b","ios":"levelo://app?vid=bb2197af-6258-4548-bfa6-61e2583f8c8b"},"vehicle_type_id":"4","last_reported":1725041484,"current_range_meters":11200,"station_id":"ce4bgup2rcd13ifvqco0","pricing_plan_id":"cebpf4jnsgd1na2vs0mg"},{"bike_id":"1db51cb2-8d1c-44c3-9fd0-b04c161d65d4","system_id":"levelo_inurba_marseille","lat":43.30967,"lon":5.3903,"is_reserved":false,"is_disabled":false,"rental_uris":{"android":"levelo://app?vid=1db51cb2-8d1c-44c3-9fd0-b04c161d65d4","ios":"levelo://app?vid=1db51cb2-8d1c-44c3-9fd0-b04c161d65d4"},"vehicle_type_id":"4","last_reported":1725041484,"current_range_meters":10400,"station_id":"ce4bgup2rcd13ifvqco0","pricing_plan_id":"cebpf4jnsgd1na2vs0mg"},{"bike_id":"74984e22-0963-4234-940d-be1a26ed5e22","system_id":"levelo_inurba_marseille","lat":43.309565,"lon":5.39028,"is_reserved":false,"is_disabled":false,"rental_uris":{"android":"levelo://app?vid=74984e22-0963-4234-940d-be1a26ed5e22","ios":"levelo://app?vid=74984e22-0963-4234-940d-be1a26ed5e22"},"vehicle_type_id":"4","last_reported":1725041484,"current_range_meters":15200,"station_id":"ce4bgup2rcd13ifvqco0","pricing_plan_id":"cebpf4jnsgd1na2vs0mg"},{"bike_id":"0a233a40-4eff-4aad-a925-d3a15f4be492","system_id":"levelo_inurba_marseille","lat":43.309589,"lon":5.390258,"is_reserved":false,"is_disabled":false,"rental_uris":{"android":"levelo://app?vid=0a233a40-4eff-4aad-a925-d3a15f4be492","ios":"levelo://app?vid=0a233a40-4eff-4aad-a925-d3a15f4be492"},"vehicle_type_id":"4","last_reported":1725041484,"current_range_meters":10800,"station_id":"ce4bgup2rcd13ifvqco0","pricing_plan_id":"cebpf4jnsgd1na2vs0mg"},{"bike_id":"595ed9a3-de2e-4894-94ac-bd432df6bbf3","system_id":"levelo_inurba_marseille","lat":43.30952,"lon":5.39028,"is_reserved":false,"is_disabled":false,"rental_uris":{"android":"levelo://app?vid=595ed9a3-de2e-4894-94ac-bd432df6bbf3","ios":"levelo://app?vid=595ed9a3-de2e-4894-94ac-bd432df6bbf3"},"vehicle_type_id":"4","last_reported":1725041484,"current_range_meters":0,"station_id":"ce4bgup2rcd13ifvqco0","pricing_plan_id":"cebpf4jnsgd1na2vs0mg"},{"bike_id":"ff6eca23-7a6a-476c-a6f5-540a795932d9","system_id":"levelo_inurba_marseille","lat":43.30959,"lon":5.39031,"is_reserved":false,"is_disabled":false,"rental_uris":{"android":"levelo://app?vid=ff6eca23-7a6a-476c-a6f5-540a795932d9","ios":"levelo://app?vid=ff6eca23-7a6a-476c-a6f5-540a795932d9"},"vehicle_type_id":"4","last_reported":1725041484,"current_range_meters":10000,"station_id":"ce4bgup2rcd13ifvqco0","pricing_plan_id":"cebpf4jnsgd1na2vs0mg"},{"bike_id":"79b31fb9-e4c9-4c70-9bfa-5ea216fddc9b","system_id":"levelo_inurba_marseille","lat":43.309589,"lon":5.390258,"is_reserved":false,"is_disabled":false,"rental_uris":{"android":"levelo://app?vid=79b31fb9-e4c9-4c70-9bfa-5ea216fddc9b","ios":"levelo://app?vid=79b31fb9-e4c9-4c70-9bfa-5ea216fddc9b"},"vehicle_type_id":"4","last_reported":1725041484,"current_range_meters":31200,"station_id":"ce4bgup2rcd13ifvqco0","pricing_plan_id":"cebpf4jnsgd1na2vs0mg"},{"bike_id":"22ac4987-5ab2-42fa-954f-47daaf0b713f","system_id":"levelo_inurba_marseille","lat":43.309589,"lon":5.390258,"is_reserved":false,"is_disabled":false,"rental_uris":{"android":"levelo://app?vid=22ac4987-5ab2-42fa-954f-47daaf0b713f","ios":"levelo://app?vid=22ac4987-5ab2-42fa-954f-47daaf0b713f"},"vehicle_type_id":"4","last_reported":1725041484,"current_range_meters":10400,"station_id":"ce4bgup2rcd13ifvqco0","pricing_plan_id":"cebpf4jnsgd1na2vs0mg"},{"bike_id":"1ce25cf8-3827-41ca-98da-ee19fb0f21b9","system_id":"levelo_inurba_marseille","lat":43.309589,"lon":5.390258,"is_reserved":false,"is_disabled":false,"rental_uris":{"android":"levelo://app?vid=1ce25cf8-3827-41ca-98da-ee19fb0f21b9","ios":"levelo://app?vid=1ce25cf8-3827-41ca-98da-ee19fb0f21b9"},"vehicle_type_id":"4","last_reported":1725041484,"current_range_meters":17600,"station_id":"ce4bgup2rcd13ifvqco0","pricing_plan_id":"cebpf4jnsgd1na2vs0mg"},{"bike_id":"cfed6565-6a60-41be-801a-24c911946dfd","system_id":"levelo_inurba_marseille","lat":43.309589,"lon":5.390258,"is_reserved":false,"is_disabled":false,"rental_uris":{"android":"levelo://app?vid=cfed6565-6a60-41be-801a-24c911946dfd","ios":"levelo://app?vid=cfed6565-6a60-41be-801a-24c911946dfd"},"vehicle_type_id":"4","last_reported":1725041484,"current_range_meters":16800,"station_id":"ce4bgup2rcd13ifvqco0","pricing_plan_id":"cebpf4jnsgd1na2vs0mg"},{"bike_id":"71914ece-453d-4222-a60c-9b4b9b5fd6fd","system_id":"levelo_inurba_marseille","lat":43.309589,"lon":5.390258,"is_reserved":false,"is_disabled":false,"rental_uris":{"android":"levelo://app?vid=71914ece-453d-4222-a60c-9b4b9b5fd6fd","ios":"levelo://app?vid=71914ece-453d-4222-a60c-9b4b9b5fd6fd"},"vehicle_type_id":"4","last_reported":1725041484,"current_range_meters":8400,"station_id":"ce4bgup2rcd13ifvqco0","pricing_plan_id":"cebpf4jnsgd1na2vs0mg"},{"bike_id":"f34bbc84-6f47-4d53-b115-02ce64d12bb2","system_id":"levelo_inurba_marseille","lat":43.309589,"lon":5.390258,"is_reserved":false,"is_disabled":false,"rental_uris":{"android":"levelo://app?vid=f34bbc84-6f47-4d53-b115-02ce64d12bb2","ios":"levelo://app?vid=f34bbc84-6f47-4d53-b115-02ce64d12bb2"},"vehicle_type_id":"4","last_reported":1725041484,"current_range_meters":8800,"station_id":"ce4bgup2rcd13ifvqco0","pricing_plan_id":"cebpf4jnsgd1na2vs0mg"},{"bike_id":"b714e736-3cc6-461d-b8d3-071e1a4f6a89","system_id":"levelo_inurba_marseille","lat":43.309473,"lon":5.390307,"is_reserved":false,"is_disabled":false,"rental_uris":{"android":"levelo://app?vid=b714e736-3cc6-461d-b8d3-071e1a4f6a89","ios":"levelo://app?vid=b714e736-3cc6-461d-b8d3-071e1a4f6a89"},"vehicle_type_id":"4","last_reported":1725041484,"current_range_meters":6000,"station_id":"ce4bgup2rcd13ifvqco0","pricing_plan_id":"cebpf4jnsgd1na2vs0mg"},{"bike_id":"f93e9126-a4f0-4dae-9f49-33fa7fff6a7a","system_id":"levelo_inurba_marseille","lat":43.3095,"lon":5.39032,"is_reserved":false,"is_disabled":false,"rental_uris":{"android":"levelo://app?vid=f93e9126-a4f0-4dae-9f49-33fa7fff6a7a","ios":"levelo://app?vid=f93e9126-a4f0-4dae-9f49-33fa7fff6a7a"},"vehicle_type_id":"4","last_reported":1725041484,"current_range_meters":2800,"station_id":"ce4bgup2rcd13ifvqco0","pricing_plan_id":"cebpf4jnsgd1na2vs0mg"},{"bike_id":"64631527-3657-4c54-b3cd-747198b0357f","system_id":"levelo_inurba_marseille","lat":43.309589,"lon":5.390258,"is_reserved":false,"is_disabled":false,"rental_uris":{"android":"levelo://app?vid=64631527-3657-4c54-b3cd-747198b0357f","ios":"levelo://app?vid=64631527-3657-4c54-b3cd-747198b0357f"},"vehicle_type_id":"4","last_reported":1725041484,"current_range_meters":14400,"station_id":"ce4bgup2rcd13ifvqco0","pricing_plan_id":"cebpf4jnsgd1na2vs0mg"},{"bike_id":"eff7cfe4-b3cb-4e75-a637-996a2477ecf6","system_id":"levelo_inurba_marseille","lat":43.30953,"lon":5.39034,"is_reserved":false,"is_disabled":false,"rental_uris":{"android":"levelo://app?vid=eff7cfe4-b3cb-4e75-a637-996a2477ecf6","ios":"levelo://app?vid=eff7cfe4-b3cb-4e75-a637-996a2477ecf6"},"vehicle_type_id":"4","last_reported":1725041484,"current_range_meters":0,"station_id":"ce4bgup2rcd13ifvqco0","pricing_plan_id":"cebpf4jnsgd1na2vs0mg"},{"bike_id":"2a4e24af-bf77-42e8-aa44-1968c158d520","system_id":"levelo_inurba_marseille","lat":43.309589,"lon":5.390258,"is_reserved":false,"is_disabled":false,"rental_uris":{"android":"levelo://app?vid=2a4e24af-bf77-42e8-aa44-1968c158d520","ios":"levelo://app?vid=2a4e24af-bf77-42e8-aa44-1968c158d520"},"vehicle_type_id":"4","last_reported":1725041484,"current_range_meters":17600,"station_id":"ce4bgup2rcd13ifvqco0","pricing_plan_id":"cebpf4jnsgd1na2vs0mg"},{"bike_id":"811ce069-6630-4b64-8521-3c9d2e4f16a5","system_id":"levelo_inurba_marseille","lat":43.3095,"lon":5.39036,"is_reserved":false,"is_disabled":false,"rental_uris":{"android":"levelo://app?vid=811ce069-6630-4b64-8521-3c9d2e4f16a5","ios":"levelo://app?vid=811ce069-6630-4b64-8521-3c9d2e4f16a5"},"vehicle_type_id":"4","last_reported":1725041484,"current_range_meters":20800,"station_id":"ce4bgup2rcd13ifvqco0","pricing_plan_id":"cebpf4jnsgd1na2vs0mg"},{"bike_id":"bd7af7a4-5764-4d18-b610-d0e807902a5c","system_id":"levelo_inurba_marseille","lat":43.309589,"lon":5.390258,"is_reserved":false,"is_disabled":false,"rental_uris":{"android":"levelo://app?vid=bd7af7a4-5764-4d18-b610-d0e807902a5c","ios":"levelo://app?vid=bd7af7a4-5764-4d18-b610-d0e807902a5c"},"vehicle_type_id":"4","last_reported":1725041484,"current_range_meters":31200,"station_id":"ce4bgup2rcd13ifvqco0","pricing_plan_id":"cebpf4jnsgd1na2vs0mg"},{"bike_id":"db122149-c4c7-4dd8-b045-aa3f5c8c42cb","system_id":"levelo_inurba_marseille","lat":43.309589,"lon":5.390258,"is_reserved":false,"is_disabled":false,"rental_uris":{"android":"levelo://app?vid=db122149-c4c7-4dd8-b045-aa3f5c8c42cb","ios":"levelo://app?vid=db122149-c4c7-4dd8-b045-aa3f5c8c42cb"},"vehicle_type_id":"4","last_reported":1725041484,"current_range_meters":3600,"station_id":"ce4bgup2rcd13ifvqco0","pricing_plan_id":"cebpf4jnsgd1na2vs0mg"},{"bike_id":"1ef61b3c-46d1-423b-bc98-9465f54bc343","system_id":"levelo_inurba_marseille","lat":43.30946,"lon":5.39036,"is_reserved":false,"is_disabled":false,"rental_uris":{"android":"levelo://app?vid=1ef61b3c-46d1-423b-bc98-9465f54bc343","ios":"levelo://app?vid=1ef61b3c-46d1-423b-bc98-9465f54bc343"},"vehicle_type_id":"4","last_reported":1725041484,"current_range_meters":0,"station_id":"ce4bgup2rcd13ifvqco0","pricing_plan_id":"cebpf4jnsgd1na2vs0mg"},{"bike_id":"a7c5e805-1d72-42cc-a712-3ba8bd70a0ac","system_id":"levelo_inurba_marseille","lat":43.30951,"lon":5.39039,"is_reserved":false,"is_disabled":false,"rental_uris":{"android":"levelo://app?vid=a7c5e805-1d72-42cc-a712-3ba8bd70a0ac","ios":"levelo://app?vid=a7c5e805-1d72-42cc-a712-3ba8bd70a0ac"},"vehicle_type_id":"4","last_reported":1725041484,"current_range_meters":4400,"station_id":"ce4bgup2rcd13ifvqco0","pricing_plan_id":"cebpf4jnsgd1na2vs0mg"},{"bike_id":"e0fa9c4e-01fd-437c-b27f-d29426720c9f","system_id":"levelo_inurba_marseille","lat":43.309589,"lon":5.390258,"is_reserved":false,"is_disabled":false,"rental_uris":{"android":"levelo://app?vid=e0fa9c4e-01fd-437c-b27f-d29426720c9f","ios":"levelo://app?vid=e0fa9c4e-01fd-437c-b27f-d29426720c9f"},"vehicle_type_id":"4","last_reported":1725041484,"current_range_meters":6000,"station_id":"ce4bgup2rcd13ifvqco0","pricing_plan_id":"cebpf4jnsgd1na2vs0mg"},{"bike_id":"6e2061f0-c9a2-4aeb-a2ac-e44bbf73d203","system_id":"levelo_inurba_marseille","lat":43.309589,"lon":5.390258,"is_reserved":false,"is_disabled":false,"rental_uris":{"android":"levelo://app?vid=6e2061f0-c9a2-4aeb-a2ac-e44bbf73d203","ios":"levelo://app?vid=6e2061f0-c9a2-4aeb-a2ac-e44bbf73d203"},"vehicle_type_id":"4","last_reported":1725041484,"current_range_meters":4000,"station_id":"ce4bgup2rcd13ifvqco0","pricing_plan_id":"cebpf4jnsgd1na2vs0mg"},{"bike_id":"499f632a-2491-4a69-8cab-f4c8debde6b6","system_id":"levelo_inurba_marseille","lat":43.309589,"lon":5.390258,"is_reserved":false,"is_disabled":false,"rental_uris":{"android":"levelo://app?vid=499f632a-2491-4a69-8cab-f4c8debde6b6","ios":"levelo://app?vid=499f632a-2491-4a69-8cab-f4c8debde6b6"},"vehicle_type_id":"4","last_reported":1725041484,"current_range_meters":0,"station_id":"ce4bgup2rcd13ifvqco0","pricing_plan_id":"cebpf4jnsgd1na2vs0mg"},{"bike_id":"ad945acc-8a7a-4d10-adcd-5b3bd9ad4d5e","system_id":"levelo_inurba_marseille","lat":43.30949,"lon":5.39046,"is_reserved":false,"is_disabled":false,"rental_uris":{"android":"levelo://app?vid=ad945acc-8a7a-4d10-adcd-5b3bd9ad4d5e","ios":"levelo://app?vid=ad945acc-8a7a-4d10-adcd-5b3bd9ad4d5e"},"vehicle_type_id":"4","last_reported":1725041484,"current_range_meters":4000,"station_id":"ce4bgup2rcd13ifvqco0","pricing_plan_id":"cebpf4jnsgd1na2vs0mg"},{"bike_id":"b617fdee-7eb7-418a-a8d8-a1bc801ad492","system_id":"levelo_inurba_marseille","lat":43.309589,"lon":5.390258,"is_reserved":false,"is_disabled":false,"rental_uris":{"android":"levelo://app?vid=b617fdee-7eb7-418a-a8d8-a1bc801ad492","ios":"levelo://app?vid=b617fdee-7eb7-418a-a8d8-a1bc801ad492"},"vehicle_type_id":"4","last_reported":1725041484,"current_range_meters":5600,"station_id":"ce4bgup2rcd13ifvqco0","pricing_plan_id":"cebpf4jnsgd1na2vs0mg"},{"bike_id":"39bbb779-e1f8-43bd-93c8-538059cae8a0","system_id":"levelo_inurba_marseille","lat":43.30953,"lon":5.39048,"is_reserved":false,"is_disabled":false,"rental_uris":{"android":"levelo://app?vid=39bbb779-e1f8-43bd-93c8-538059cae8a0","ios":"levelo://app?vid=39bbb779-e1f8-43bd-93c8-538059cae8a0"},"vehicle_type_id":"4","last_reported":1725041484,"current_range_meters":16400,"station_id":"ce4bgup2rcd13ifvqco0","pricing_plan_id":"cebpf4jnsgd1na2vs0mg"},{"bike_id":"ceddfc2a-6372-4fb5-ba7b-9615caa62723","system_id":"levelo_inurba_marseille","lat":43.29854,"lon":5.38106,"is_reserved":false,"is_disabled":false,"rental_uris":{"android":"levelo://app?vid=ceddfc2a-6372-4fb5-ba7b-9615caa62723","ios":"levelo://app?vid=ceddfc2a-6372-4fb5-ba7b-9615caa62723"},"vehicle_type_id":"4","last_reported":1725041484,"current_range_meters":6000,"station_id":"","pricing_plan_id":"cebpf4jnsgd1na2vs0mg"},{"bike_id":"ccee0480-9ea9-406d-b621-cdc9242f9dc0","system_id":"levelo_inurba_marseille","lat":43.298037,"lon":5.381066,"is_reserved":false,"is_disabled":false,"rental_uris":{"android":"levelo://app?vid=ccee0480-9ea9-406d-b621-cdc9242f9dc0","ios":"levelo://app?vid=ccee0480-9ea9-406d-b621-cdc9242f9dc0"},"vehicle_type_id":"4","last_reported":1725041484,"current_range_meters":2800,"station_id":"ce4bgip2rcd13ifvqbb0","pricing_plan_id":"cebpf4jnsgd1na2vs0mg"},{"bike_id":"de187eed-2e7e-484e-bfad-b8f85fb567c5","system_id":"levelo_inurba_marseille","lat":43.298037,"lon":5.381066,"is_reserved":false,"is_disabled":false,"rental_uris":{"android":"levelo://app?vid=de187eed-2e7e-484e-bfad-b8f85fb567c5","ios":"levelo://app?vid=de187eed-2e7e-484e-bfad-b8f85fb567c5"},"vehicle_type_id":"4","last_reported":1725041484,"current_range_meters":0,"station_id":"ce4bgip2rcd13ifvqbb0","pricing_plan_id":"cebpf4jnsgd1na2vs0mg"},{"bike_id":"ced65f89-fad1-416b-8c2b-eaa56718124c","system_id":"levelo_inurba_marseille","lat":43.298037,"lon":5.381066,"is_reserved":false,"is_disabled":false,"rental_uris":{"android":"levelo://app?vid=ced65f89-fad1-416b-8c2b-eaa56718124c","ios":"levelo://app?vid=ced65f89-fad1-416b-8c2b-eaa56718124c"},"vehicle_type_id":"4","last_reported":1725041484,"current_range_meters":3600,"station_id":"ce4bgip2rcd13ifvqbb0","pricing_plan_id":"cebpf4jnsgd1na2vs0mg"},{"bike_id":"23c82bd3-116e-414c-b30a-af26d5500ab6","system_id":"levelo_inurba_marseille","lat":43.298037,"lon":5.381066,"is_reserved":false,"is_disabled":false,"rental_uris":{"android":"levelo://app?vid=23c82bd3-116e-414c-b30a-af26d5500ab6","ios":"levelo://app?vid=23c82bd3-116e-414c-b30a-af26d5500ab6"},"vehicle_type_id":"4","last_reported":1725041484,"current_range_meters":13600,"station_id":"ce4bgip2rcd13ifvqbb0","pricing_plan_id":"cebpf4jnsgd1na2vs0mg"},{"bike_id":"231252fe-9d8b-4e9e-b104-267f27a42865","system_id":"levelo_inurba_marseille","lat":43.298037,"lon":5.381066,"is_reserved":false,"is_disabled":false,"rental_uris":{"android":"levelo://app?vid=231252fe-9d8b-4e9e-b104-267f27a42865","ios":"levelo://app?vid=231252fe-9d8b-4e9e-b104-267f27a42865"},"vehicle_type_id":"4","last_reported":1725041484,"current_range_meters":1600,"station_id":"ce4bgip2rcd13ifvqbb0","pricing_plan_id":"cebpf4jnsgd1na2vs0mg"},{"bike_id":"b12f8406-269c-4834-acb8-bf751a669838","system_id":"levelo_inurba_marseille","lat":43.298037,"lon":5.381066,"is_reserved":false,"is_disabled":false,"rental_uris":{"android":"levelo://app?vid=b12f8406-269c-4834-acb8-bf751a669838","ios":"levelo://app?vid=b12f8406-269c-4834-acb8-bf751a669838"},"vehicle_type_id":"4","last_reported":1725041484,"current_range_meters":13200,"station_id":"ce4bgip2rcd13ifvqbb0","pricing_plan_id":"cebpf4jnsgd1na2vs0mg"},{"bike_id":"678570c2-a630-4185-8d22-bd8590e98616","system_id":"levelo_inurba_marseille","lat":43.298037,"lon":5.381066,"is_reserved":false,"is_disabled":false,"rental_uris":{"android":"levelo://app?vid=678570c2-a630-4185-8d22-bd8590e98616","ios":"levelo://app?vid=678570c2-a630-4185-8d22-bd8590e98616"},"vehicle_type_id":"4","last_reported":1725041484,"current_range_meters":4400,"station_id":"ce4bgip2rcd13ifvqbb0","pricing_plan_id":"cebpf4jnsgd1na2vs0mg"},{"bike_id":"97d2bc80-c82b-4b9a-b2af-c30c7c4df3cb","system_id":"levelo_inurba_marseille","lat":43.2979,"lon":5.3809,"is_reserved":false,"is_disabled":false,"rental_uris":{"android":"levelo://app?vid=97d2bc80-c82b-4b9a-b2af-c30c7c4df3cb","ios":"levelo://app?vid=97d2bc80-c82b-4b9a-b2af-c30c7c4df3cb"},"vehicle_type_id":"4","last_reported":1725041484,"current_range_meters":14800,"station_id":"ce4bgip2rcd13ifvqbb0","pricing_plan_id":"cebpf4jnsgd1na2vs0mg"},{"bike_id":"8a8887de-5c7d-4b1c-91b2-78e9c920b48d","system_id":"levelo_inurba_marseille","lat":43.29571,"lon":5.37512,"is_reserved":false,"is_disabled":false,"rental_uris":{"android":"levelo://app?vid=8a8887de-5c7d-4b1c-91b2-78e9c920b48d","ios":"levelo://app?vid=8a8887de-5c7d-4b1c-91b2-78e9c920b48d"},"vehicle_type_id":"4","last_reported":1725041484,"current_range_meters":29600,"station_id":"ce4bgh92rcd13ifvqb50","pricing_plan_id":"cebpf4jnsgd1na2vs0mg"},{"bike_id":"7ae93185-fdea-490e-9a69-24d86ece67d6","system_id":"levelo_inurba_marseille","lat":43.297897,"lon":5.381047,"is_reserved":false,"is_disabled":false,"rental_uris":{"android":"levelo://app?vid=7ae93185-fdea-490e-9a69-24d86ece67d6","ios":"levelo://app?vid=7ae93185-fdea-490e-9a69-24d86ece67d6"},"vehicle_type_id":"4","last_reported":1725041484,"current_range_meters":0,"station_id":"ce4bgip2rcd13ifvqbb0","pricing_plan_id":"cebpf4jnsgd1na2vs0mg"},{"bike_id":"679de93a-8fa2-40fd-82af-54aca047c3e6","system_id":"levelo_inurba_marseille","lat":43.298037,"lon":5.381066,"is_reserved":false,"is_disabled":false,"rental_uris":{"android":"levelo://app?vid=679de93a-8fa2-40fd-82af-54aca047c3e6","ios":"levelo://app?vid=679de93a-8fa2-40fd-82af-54aca047c3e6"},"vehicle_type_id":"4","last_reported":1725041484,"current_range_meters":14800,"station_id":"ce4bgip2rcd13ifvqbb0","pricing_plan_id":"cebpf4jnsgd1na2vs0mg"},{"bike_id":"c67235f2-8158-4d4f-b96a-a6fa54ab2f2d","system_id":"levelo_inurba_marseille","lat":43.29784,"lon":5.38106,"is_reserved":false,"is_disabled":false,"rental_uris":{"android":"levelo://app?vid=c67235f2-8158-4d4f-b96a-a6fa54ab2f2d","ios":"levelo://app?vid=c67235f2-8158-4d4f-b96a-a6fa54ab2f2d"},"vehicle_type_id":"4","last_reported":1725041484,"current_range_meters":0,"station_id":"ce4bgip2rcd13ifvqbb0","pricing_plan_id":"cebpf4jnsgd1na2vs0mg"},{"bike_id":"5b3c9e70-08d0-482e-b2b5-4521e19202c9","system_id":"levelo_inurba_marseille","lat":43.296277,"lon":5.377108,"is_reserved":false,"is_disabled":false,"rental_uris":{"android":"levelo://app?vid=5b3c9e70-08d0-482e-b2b5-4521e19202c9","ios":"levelo://app?vid=5b3c9e70-08d0-482e-b2b5-4521e19202c9"},"vehicle_type_id":"4","last_reported":1725041484,"current_range_meters":2800,"station_id":"ce4bgi92rcd13ifvqb90","pricing_plan_id":"cebpf4jnsgd1na2vs0mg"},{"bike_id":"2616037e-fe6b-4584-9ba5-fc33f9e3fb39","system_id":"levelo_inurba_marseille","lat":43.295748,"lon":5.37522,"is_reserved":false,"is_disabled":false,"rental_uris":{"android":"levelo://app?vid=2616037e-fe6b-4584-9ba5-fc33f9e3fb39","ios":"levelo://app?vid=2616037e-fe6b-4584-9ba5-fc33f9e3fb39"},"vehicle_type_id":"4","last_reported":1725041484,"current_range_meters":7600,"station_id":"ce4bgh92rcd13ifvqb50","pricing_plan_id":"cebpf4jnsgd1na2vs0mg"},{"bike_id":"af7f0ad0-63c2-4546-a7aa-95b6c9a861c9","system_id":"levelo_inurba_marseille","lat":43.296277,"lon":5.377108,"is_reserved":false,"is_disabled":false,"rental_uris":{"android":"levelo://app?vid=af7f0ad0-63c2-4546-a7aa-95b6c9a861c9","ios":"levelo://app?vid=af7f0ad0-63c2-4546-a7aa-95b6c9a861c9"},"vehicle_type_id":"4","last_reported":1725041484,"current_range_meters":400,"station_id":"ce4bgi92rcd13ifvqb90","pricing_plan_id":"cebpf4jnsgd1na2vs0mg"},{"bike_id":"5cb4750f-15e2-40c6-8d1e-4e66cb4a3ae9","system_id":"levelo_inurba_marseille","lat":43.295305,"lon":5.374451,"is_reserved":false,"is_disabled":false,"rental_uris":{"android":"levelo://app?vid=5cb4750f-15e2-40c6-8d1e-4e66cb4a3ae9","ios":"levelo://app?vid=5cb4750f-15e2-40c6-8d1e-4e66cb4a3ae9"},"vehicle_type_id":"4","last_reported":1725041484,"current_range_meters":18400,"station_id":"","pricing_plan_id":"cebpf4jnsgd1na2vs0mg"},{"bike_id":"29b1c43e-6115-40ae-bf08-ac0c8b60e474","system_id":"levelo_inurba_marseille","lat":43.299707,"lon":5.384859,"is_reserved":false,"is_disabled":false,"rental_uris":{"android":"levelo://app?vid=29b1c43e-6115-40ae-bf08-ac0c8b60e474","ios":"levelo://app?vid=29b1c43e-6115-40ae-bf08-ac0c8b60e474"},"vehicle_type_id":"4","last_reported":1725041484,"current_range_meters":29600,"station_id":"ce4bgj92rcd13ifvqbd0","pricing_plan_id":"cebpf4jnsgd1na2vs0mg"},{"bike_id":"3b744a50-a588-41a6-afed-8f9b388eeb77","system_id":"levelo_inurba_marseille","lat":43.302008,"lon":5.394694,"is_reserved":false,"is_disabled":false,"rental_uris":{"android":"levelo://app?vid=3b744a50-a588-41a6-afed-8f9b388eeb77","ios":"levelo://app?vid=3b744a50-a588-41a6-afed-8f9b388eeb77"},"vehicle_type_id":"4","last_reported":1725041484,"current_range_meters":15600,"station_id":"ce4bh0p2rcd13ifvqd70","pricing_plan_id":"cebpf4jnsgd1na2vs0mg"},{"bike_id":"8e183d20-6f28-4d57-beb7-5ebf97643f18","system_id":"levelo_inurba_marseille","lat":43.301396,"lon":5.387812,"is_reserved":false,"is_disabled":false,"rental_uris":{"android":"levelo://app?vid=8e183d20-6f28-4d57-beb7-5ebf97643f18","ios":"levelo://app?vid=8e183d20-6f28-4d57-beb7-5ebf97643f18"},"vehicle_type_id":"4","last_reported":1725041484,"current_range_meters":13600,"station_id":"ce4bghh2rcd13ifvqb60","pricing_plan_id":"cebpf4jnsgd1na2vs0mg"},{"bike_id":"fe3aadde-33fa-49fc-be7b-4861d15d2e82","system_id":"levelo_inurba_marseille","lat":43.299717,"lon":5.384845,"is_reserved":false,"is_disabled":false,"rental_uris":{"android":"levelo://app?vid=fe3aadde-33fa-49fc-be7b-4861d15d2e82","ios":"levelo://app?vid=fe3aadde-33fa-49fc-be7b-4861d15d2e82"},"vehicle_type_id":"4","last_reported":1725041484,"current_range_meters":0,"station_id":"ce4bgj92rcd13ifvqbd0","pricing_plan_id":"cebpf4jnsgd1na2vs0mg"},{"bike_id":"5f65083e-3e3e-4e95-b1e1-166a50bfe7db","system_id":"levelo_inurba_marseille","lat":43.314594,"lon":5.392878,"is_reserved":false,"is_disabled":false,"rental_uris":{"android":"levelo://app?vid=5f65083e-3e3e-4e95-b1e1-166a50bfe7db","ios":"levelo://app?vid=5f65083e-3e3e-4e95-b1e1-166a50bfe7db"},"vehicle_type_id":"4","last_reported":1725041484,"current_range_meters":25600,"station_id":"","pricing_plan_id":"cebpf4jnsgd1na2vs0mg"},{"bike_id":"81214d15-503e-4aa1-bec9-fa1bdbf331e7","system_id":"levelo_inurba_marseille","lat":43.301396,"lon":5.387812,"is_reserved":false,"is_disabled":false,"rental_uris":{"android":"levelo://app?vid=81214d15-503e-4aa1-bec9-fa1bdbf331e7","ios":"levelo://app?vid=81214d15-503e-4aa1-bec9-fa1bdbf331e7"},"vehicle_type_id":"4","last_reported":1725041484,"current_range_meters":31600,"station_id":"ce4bghh2rcd13ifvqb60","pricing_plan_id":"cebpf4jnsgd1na2vs0mg"},{"bike_id":"2907afd2-4d5d-4fc0-8d79-4590bd12f347","system_id":"levelo_inurba_marseille","lat":43.301396,"lon":5.387812,"is_reserved":false,"is_disabled":false,"rental_uris":{"android":"levelo://app?vid=2907afd2-4d5d-4fc0-8d79-4590bd12f347","ios":"levelo://app?vid=2907afd2-4d5d-4fc0-8d79-4590bd12f347"},"vehicle_type_id":"4","last_reported":1725041484,"current_range_meters":29200,"station_id":"ce4bghh2rcd13ifvqb60","pricing_plan_id":"cebpf4jnsgd1na2vs0mg"},{"bike_id":"dd84a14e-a2cc-472d-890d-49ba67879119","system_id":"levelo_inurba_marseille","lat":43.32367,"lon":5.388836,"is_reserved":false,"is_disabled":false,"rental_uris":{"android":"levelo://app?vid=dd84a14e-a2cc-472d-890d-49ba67879119","ios":"levelo://app?vid=dd84a14e-a2cc-472d-890d-49ba67879119"},"vehicle_type_id":"4","last_reported":1725041484,"current_range_meters":25200,"station_id":"ce4bhqp2rcd13ifvqhog","pricing_plan_id":"cebpf4jnsgd1na2vs0mg"},{"bike_id":"f21b735c-cc31-454d-af6b-a44dc41d43eb","system_id":"levelo_inurba_marseille","lat":43.296442,"lon":5.381602,"is_reserved":false,"is_disabled":false,"rental_uris":{"android":"levelo://app?vid=f21b735c-cc31-454d-af6b-a44dc41d43eb","ios":"levelo://app?vid=f21b735c-cc31-454d-af6b-a44dc41d43eb"},"vehicle_type_id":"4","last_reported":1725041484,"current_range_meters":0,"station_id":"","pricing_plan_id":"cebpf4jnsgd1na2vs0mg"},{"bike_id":"593c9e1b-07b1-4c60-8993-6b149f4fa4a7","system_id":"levelo_inurba_marseille","lat":43.311206,"lon":5.393658,"is_reserved":false,"is_disabled":false,"rental_uris":{"android":"levelo://app?vid=593c9e1b-07b1-4c60-8993-6b149f4fa4a7","ios":"levelo://app?vid=593c9e1b-07b1-4c60-8993-6b149f4fa4a7"},"vehicle_type_id":"4","last_reported":1725041484,"current_range_meters":1200,"station_id":"","pricing_plan_id":"cebpf4jnsgd1na2vs0mg"},{"bike_id":"4ab5e112-d452-41b2-a66a-9b989fe8c7e5","system_id":"levelo_inurba_marseille","lat":43.31429,"lon":5.39374,"is_reserved":false,"is_disabled":false,"rental_uris":{"android":"levelo://app?vid=4ab5e112-d452-41b2-a66a-9b989fe8c7e5","ios":"levelo://app?vid=4ab5e112-d452-41b2-a66a-9b989fe8c7e5"},"vehicle_type_id":"4","last_reported":1725041484,"current_range_meters":24000,"station_id":"","pricing_plan_id":"cebpf4jnsgd1na2vs0mg"},{"bike_id":"d44f7cfa-dce1-4a1b-b8e6-4fbf09949c89","system_id":"levelo_inurba_marseille","lat":43.29603,"lon":5.38097,"is_reserved":false,"is_disabled":false,"rental_uris":{"android":"levelo://app?vid=d44f7cfa-dce1-4a1b-b8e6-4fbf09949c89","ios":"levelo://app?vid=d44f7cfa-dce1-4a1b-b8e6-4fbf09949c89"},"vehicle_type_id":"4","last_reported":1725041484,"current_range_meters":0,"station_id":"ce4bgl12rcd13ifvqbo0","pricing_plan_id":"cebpf4jnsgd1na2vs0mg"},{"bike_id":"93c38b85-a549-4d51-97ac-c64e9f3560ea","system_id":"levelo_inurba_marseille","lat":43.29602,"lon":5.381084,"is_reserved":false,"is_disabled":false,"rental_uris":{"android":"levelo://app?vid=93c38b85-a549-4d51-97ac-c64e9f3560ea","ios":"levelo://app?vid=93c38b85-a549-4d51-97ac-c64e9f3560ea"},"vehicle_type_id":"4","last_reported":1725041484,"current_range_meters":28000,"station_id":"ce4bgl12rcd13ifvqbo0","pricing_plan_id":"cebpf4jnsgd1na2vs0mg"},{"bike_id":"3b8ffeb0-7a61-4bb2-b7d6-b6a1576ba6f3","system_id":"levelo_inurba_marseille","lat":43.29602,"lon":5.381084,"is_reserved":false,"is_disabled":false,"rental_uris":{"android":"levelo://app?vid=3b8ffeb0-7a61-4bb2-b7d6-b6a1576ba6f3","ios":"levelo://app?vid=3b8ffeb0-7a61-4bb2-b7d6-b6a1576ba6f3"},"vehicle_type_id":"4","last_reported":1725041484,"current_range_meters":800,"station_id":"ce4bgl12rcd13ifvqbo0","pricing_plan_id":"cebpf4jnsgd1na2vs0mg"},{"bike_id":"3e4ae414-22a4-4c5d-a6c6-a4292dd0e2a3","system_id":"levelo_inurba_marseille","lat":43.29602,"lon":5.381084,"is_reserved":false,"is_disabled":false,"rental_uris":{"android":"levelo://app?vid=3e4ae414-22a4-4c5d-a6c6-a4292dd0e2a3","ios":"levelo://app?vid=3e4ae414-22a4-4c5d-a6c6-a4292dd0e2a3"},"vehicle_type_id":"4","last_reported":1725041484,"current_range_meters":29200,"station_id":"ce4bgl12rcd13ifvqbo0","pricing_plan_id":"cebpf4jnsgd1na2vs0mg"},{"bike_id":"e9afaa02-0b83-4e7e-9b36-93bacacdb026","system_id":"levelo_inurba_marseille","lat":43.29602,"lon":5.381084,"is_reserved":false,"is_disabled":false,"rental_uris":{"android":"levelo://app?vid=e9afaa02-0b83-4e7e-9b36-93bacacdb026","ios":"levelo://app?vid=e9afaa02-0b83-4e7e-9b36-93bacacdb026"},"vehicle_type_id":"4","last_reported":1725041484,"current_range_meters":8400,"station_id":"ce4bgl12rcd13ifvqbo0","pricing_plan_id":"cebpf4jnsgd1na2vs0mg"},{"bike_id":"d2487d29-8f9a-4fe8-80da-3c38f9052c4a","system_id":"levelo_inurba_marseille","lat":43.29602,"lon":5.381084,"is_reserved":false,"is_disabled":false,"rental_uris":{"android":"levelo://app?vid=d2487d29-8f9a-4fe8-80da-3c38f9052c4a","ios":"levelo://app?vid=d2487d29-8f9a-4fe8-80da-3c38f9052c4a"},"vehicle_type_id":"4","last_reported":1725041484,"current_range_meters":30800,"station_id":"ce4bgl12rcd13ifvqbo0","pricing_plan_id":"cebpf4jnsgd1na2vs0mg"},{"bike_id":"598497b2-259e-438d-bf4b-f3ba9b9da601","system_id":"levelo_inurba_marseille","lat":43.29602,"lon":5.381084,"is_reserved":false,"is_disabled":false,"rental_uris":{"android":"levelo://app?vid=598497b2-259e-438d-bf4b-f3ba9b9da601","ios":"levelo://app?vid=598497b2-259e-438d-bf4b-f3ba9b9da601"},"vehicle_type_id":"4","last_reported":1725041484,"current_range_meters":2000,"station_id":"ce4bgl12rcd13ifvqbo0","pricing_plan_id":"cebpf4jnsgd1na2vs0mg"},{"bike_id":"1fb28c2b-d612-4bd7-9bc6-b8b61594c2ac","system_id":"levelo_inurba_marseille","lat":43.306745,"lon":5.39275,"is_reserved":false,"is_disabled":false,"rental_uris":{"android":"levelo://app?vid=1fb28c2b-d612-4bd7-9bc6-b8b61594c2ac","ios":"levelo://app?vid=1fb28c2b-d612-4bd7-9bc6-b8b61594c2ac"},"vehicle_type_id":"4","last_reported":1725041484,"current_range_meters":4400,"station_id":"","pricing_plan_id":"cebpf4jnsgd1na2vs0mg"},{"bike_id":"4ab64029-9bc9-4294-956f-e444f80ebe87","system_id":"levelo_inurba_marseille","lat":43.292749,"lon":5.368398,"is_reserved":false,"is_disabled":false,"rental_uris":{"android":"levelo://app?vid=4ab64029-9bc9-4294-956f-e444f80ebe87","ios":"levelo://app?vid=4ab64029-9bc9-4294-956f-e444f80ebe87"},"vehicle_type_id":"4","last_reported":1725041484,"current_range_meters":13200,"station_id":"ce4bhbp2rcd13ifvqesg","pricing_plan_id":"cebpf4jnsgd1na2vs0mg"},{"bike_id":"73b629cf-73bc-467f-9ac0-070b77ec0171","system_id":"levelo_inurba_marseille","lat":43.292749,"lon":5.368398,"is_reserved":false,"is_disabled":false,"rental_uris":{"android":"levelo://app?vid=73b629cf-73bc-467f-9ac0-070b77ec0171","ios":"levelo://app?vid=73b629cf-73bc-467f-9ac0-070b77ec0171"},"vehicle_type_id":"4","last_reported":1725041484,"current_range_meters":2000,"station_id":"ce4bhbp2rcd13ifvqesg","pricing_plan_id":"cebpf4jnsgd1na2vs0mg"},{"bike_id":"d8792663-f2b4-43fc-9314-af2c2d11cd3d","system_id":"levelo_inurba_marseille","lat":43.292749,"lon":5.368398,"is_reserved":false,"is_disabled":false,"rental_uris":{"android":"levelo://app?vid=d8792663-f2b4-43fc-9314-af2c2d11cd3d","ios":"levelo://app?vid=d8792663-f2b4-43fc-9314-af2c2d11cd3d"},"vehicle_type_id":"4","last_reported":1725041484,"current_range_meters":16800,"station_id":"ce4bhbp2rcd13ifvqesg","pricing_plan_id":"cebpf4jnsgd1na2vs0mg"},{"bike_id":"d8f7857b-72f7-4244-95c5-3e4d315f5263","system_id":"levelo_inurba_marseille","lat":43.29495,"lon":5.37944,"is_reserved":false,"is_disabled":false,"rental_uris":{"android":"levelo://app?vid=d8f7857b-72f7-4244-95c5-3e4d315f5263","ios":"levelo://app?vid=d8f7857b-72f7-4244-95c5-3e4d315f5263"},"vehicle_type_id":"4","last_reported":1725041484,"current_range_meters":400,"station_id":"","pricing_plan_id":"cebpf4jnsgd1na2vs0mg"},{"bike_id":"5c17fc3c-a89c-4ff3-8a94-157708bd1711","system_id":"levelo_inurba_marseille","lat":43.29304,"lon":5.3717,"is_reserved":false,"is_disabled":false,"rental_uris":{"android":"levelo://app?vid=5c17fc3c-a89c-4ff3-8a94-157708bd1711","ios":"levelo://app?vid=5c17fc3c-a89c-4ff3-8a94-157708bd1711"},"vehicle_type_id":"4","last_reported":1725041484,"current_range_meters":31200,"station_id":"ce4bgh92rcd13ifvqb40","pricing_plan_id":"cebpf4jnsgd1na2vs0mg"},{"bike_id":"946444d6-ad2b-49fb-addb-122dcd05059d","system_id":"levelo_inurba_marseille","lat":43.292749,"lon":5.368398,"is_reserved":false,"is_disabled":false,"rental_uris":{"android":"levelo://app?vid=946444d6-ad2b-49fb-addb-122dcd05059d","ios":"levelo://app?vid=946444d6-ad2b-49fb-addb-122dcd05059d"},"vehicle_type_id":"4","last_reported":1725041484,"current_range_meters":5600,"station_id":"ce4bhbp2rcd13ifvqesg","pricing_plan_id":"cebpf4jnsgd1na2vs0mg"},{"bike_id":"53735a5c-f4e5-4e30-af6c-9a4a3639ab63","system_id":"levelo_inurba_marseille","lat":43.292749,"lon":5.368398,"is_reserved":false,"is_disabled":false,"rental_uris":{"android":"levelo://app?vid=53735a5c-f4e5-4e30-af6c-9a4a3639ab63","ios":"levelo://app?vid=53735a5c-f4e5-4e30-af6c-9a4a3639ab63"},"vehicle_type_id":"4","last_reported":1725041484,"current_range_meters":0,"station_id":"ce4bhbp2rcd13ifvqesg","pricing_plan_id":"cebpf4jnsgd1na2vs0mg"},{"bike_id":"076c3375-df8b-47da-be4c-1bbd9554364a","system_id":"levelo_inurba_marseille","lat":43.29302,"lon":5.37466,"is_reserved":false,"is_disabled":false,"rental_uris":{"android":"levelo://app?vid=076c3375-df8b-47da-be4c-1bbd9554364a","ios":"levelo://app?vid=076c3375-df8b-47da-be4c-1bbd9554364a"},"vehicle_type_id":"4","last_reported":1725041484,"current_range_meters":0,"station_id":"ce4bgi12rcd13ifvqb70","pricing_plan_id":"cebpf4jnsgd1na2vs0mg"},{"bike_id":"8808d5a0-77b3-4485-aae9-3f2d253f8e80","system_id":"levelo_inurba_marseille","lat":43.30598,"lon":5.39355,"is_reserved":false,"is_disabled":false,"rental_uris":{"android":"levelo://app?vid=8808d5a0-77b3-4485-aae9-3f2d253f8e80","ios":"levelo://app?vid=8808d5a0-77b3-4485-aae9-3f2d253f8e80"},"vehicle_type_id":"4","last_reported":1725041484,"current_range_meters":0,"station_id":"ce4bh0p2rcd13ifvqd80","pricing_plan_id":"cebpf4jnsgd1na2vs0mg"},{"bike_id":"9073ae50-ba5b-467d-9bf2-c93206170357","system_id":"levelo_inurba_marseille","lat":43.305994,"lon":5.393687,"is_reserved":false,"is_disabled":false,"rental_uris":{"android":"levelo://app?vid=9073ae50-ba5b-467d-9bf2-c93206170357","ios":"levelo://app?vid=9073ae50-ba5b-467d-9bf2-c93206170357"},"vehicle_type_id":"4","last_reported":1725041484,"current_range_meters":0,"station_id":"ce4bh0p2rcd13ifvqd80","pricing_plan_id":"cebpf4jnsgd1na2vs0mg"},{"bike_id":"57081d78-396d-481f-8bbb-aa6f8e852fa7","system_id":"levelo_inurba_marseille","lat":43.305994,"lon":5.393687,"is_reserved":false,"is_disabled":false,"rental_uris":{"android":"levelo://app?vid=57081d78-396d-481f-8bbb-aa6f8e852fa7","ios":"levelo://app?vid=57081d78-396d-481f-8bbb-aa6f8e852fa7"},"vehicle_type_id":"4","last_reported":1725041484,"current_range_meters":9600,"station_id":"ce4bh0p2rcd13ifvqd80","pricing_plan_id":"cebpf4jnsgd1na2vs0mg"},{"bike_id":"cc7bf253-d57f-4345-a901-59688a3aa003","system_id":"levelo_inurba_marseille","lat":43.30595,"lon":5.3936,"is_reserved":false,"is_disabled":false,"rental_uris":{"android":"levelo://app?vid=cc7bf253-d57f-4345-a901-59688a3aa003","ios":"levelo://app?vid=cc7bf253-d57f-4345-a901-59688a3aa003"},"vehicle_type_id":"4","last_reported":1725041484,"current_range_meters":29200,"station_id":"ce4bh0p2rcd13ifvqd80","pricing_plan_id":"cebpf4jnsgd1na2vs0mg"},{"bike_id":"56973a2a-8134-4b16-a57e-15a7a15f3153","system_id":"levelo_inurba_marseille","lat":43.30599,"lon":5.39363,"is_reserved":false,"is_disabled":false,"rental_uris":{"android":"levelo://app?vid=56973a2a-8134-4b16-a57e-15a7a15f3153","ios":"levelo://app?vid=56973a2a-8134-4b16-a57e-15a7a15f3153"},"vehicle_type_id":"4","last_reported":1725041484,"current_range_meters":13600,"station_id":"ce4bh0p2rcd13ifvqd80","pricing_plan_id":"cebpf4jnsgd1na2vs0mg"},{"bike_id":"58aee318-8a90-488f-8cf9-44bdb75c1cfe","system_id":"levelo_inurba_marseille","lat":43.30595,"lon":5.39364,"is_reserved":false,"is_disabled":false,"rental_uris":{"android":"levelo://app?vid=58aee318-8a90-488f-8cf9-44bdb75c1cfe","ios":"levelo://app?vid=58aee318-8a90-488f-8cf9-44bdb75c1cfe"},"vehicle_type_id":"4","last_reported":1725041484,"current_range_meters":21200,"station_id":"ce4bh0p2rcd13ifvqd80","pricing_plan_id":"cebpf4jnsgd1na2vs0mg"},{"bike_id":"459c61c6-3586-4db8-87c9-ec051a01bd56","system_id":"levelo_inurba_marseille","lat":43.29365,"lon":5.37842,"is_reserved":false,"is_disabled":false,"rental_uris":{"android":"levelo://app?vid=459c61c6-3586-4db8-87c9-ec051a01bd56","ios":"levelo://app?vid=459c61c6-3586-4db8-87c9-ec051a01bd56"},"vehicle_type_id":"4","last_reported":1725041484,"current_range_meters":7200,"station_id":"ce4bgjh2rcd13ifvqbf0","pricing_plan_id":"cebpf4jnsgd1na2vs0mg"},{"bike_id":"fa484951-3eb0-463a-9220-fc897bb72f10","system_id":"levelo_inurba_marseille","lat":43.2923,"lon":5.36066,"is_reserved":false,"is_disabled":false,"rental_uris":{"android":"levelo://app?vid=fa484951-3eb0-463a-9220-fc897bb72f10","ios":"levelo://app?vid=fa484951-3eb0-463a-9220-fc897bb72f10"},"vehicle_type_id":"4","last_reported":1725041484,"current_range_meters":20400,"station_id":"ce4bhbh2rcd13ifvqeqg","pricing_plan_id":"cebpf4jnsgd1na2vs0mg"},{"bike_id":"2eed4ff6-4d7f-4567-b816-af444409a925","system_id":"levelo_inurba_marseille","lat":43.29229,"lon":5.36059,"is_reserved":false,"is_disabled":false,"rental_uris":{"android":"levelo://app?vid=2eed4ff6-4d7f-4567-b816-af444409a925","ios":"levelo://app?vid=2eed4ff6-4d7f-4567-b816-af444409a925"},"vehicle_type_id":"4","last_reported":1725041484,"current_range_meters":0,"station_id":"ce4bhbh2rcd13ifvqeqg","pricing_plan_id":"cebpf4jnsgd1na2vs0mg"},{"bike_id":"3f24baea-a5a5-4ae3-8133-977f50abd4eb","system_id":"levelo_inurba_marseille","lat":43.29226,"lon":5.36069,"is_reserved":false,"is_disabled":false,"rental_uris":{"android":"levelo://app?vid=3f24baea-a5a5-4ae3-8133-977f50abd4eb","ios":"levelo://app?vid=3f24baea-a5a5-4ae3-8133-977f50abd4eb"},"vehicle_type_id":"4","last_reported":1725041484,"current_range_meters":1600,"station_id":"ce4bhbh2rcd13ifvqeqg","pricing_plan_id":"cebpf4jnsgd1na2vs0mg"},{"bike_id":"c9bd3d4f-d72d-4ff3-b538-88dc8d8a51db","system_id":"levelo_inurba_marseille","lat":43.292311,"lon":5.360731,"is_reserved":false,"is_disabled":false,"rental_uris":{"android":"levelo://app?vid=c9bd3d4f-d72d-4ff3-b538-88dc8d8a51db","ios":"levelo://app?vid=c9bd3d4f-d72d-4ff3-b538-88dc8d8a51db"},"vehicle_type_id":"4","last_reported":1725041484,"current_range_meters":0,"station_id":"ce4bhbh2rcd13ifvqeqg","pricing_plan_id":"cebpf4jnsgd1na2vs0mg"},{"bike_id":"0bffc3a9-1096-47ef-9f82-7af34fa15a7a","system_id":"levelo_inurba_marseille","lat":43.29213,"lon":5.360337,"is_reserved":false,"is_disabled":false,"rental_uris":{"android":"levelo://app?vid=0bffc3a9-1096-47ef-9f82-7af34fa15a7a","ios":"levelo://app?vid=0bffc3a9-1096-47ef-9f82-7af34fa15a7a"},"vehicle_type_id":"4","last_reported":1725041484,"current_range_meters":0,"station_id":"ce4bhbh2rcd13ifvqeqg","pricing_plan_id":"cebpf4jnsgd1na2vs0mg"},{"bike_id":"94830723-fde1-46ee-89bd-c4c04212ebfd","system_id":"levelo_inurba_marseille","lat":43.29165,"lon":5.37152,"is_reserved":false,"is_disabled":false,"rental_uris":{"android":"levelo://app?vid=94830723-fde1-46ee-89bd-c4c04212ebfd","ios":"levelo://app?vid=94830723-fde1-46ee-89bd-c4c04212ebfd"},"vehicle_type_id":"4","last_reported":1725041484,"current_range_meters":0,"station_id":"ce4bha92rcd13ifvqeh0","pricing_plan_id":"cebpf4jnsgd1na2vs0mg"},{"bike_id":"07d742dd-3978-4a1d-a1f5-2ed94b8f4324","system_id":"levelo_inurba_marseille","lat":43.292005,"lon":5.357875,"is_reserved":false,"is_disabled":false,"rental_uris":{"android":"levelo://app?vid=07d742dd-3978-4a1d-a1f5-2ed94b8f4324","ios":"levelo://app?vid=07d742dd-3978-4a1d-a1f5-2ed94b8f4324"},"vehicle_type_id":"4","last_reported":1725041484,"current_range_meters":10800,"station_id":"ce4bhb12rcd13ifvqel0","pricing_plan_id":"cebpf4jnsgd1na2vs0mg"},{"bike_id":"d8d2b945-351e-4634-aaed-320abe983163","system_id":"levelo_inurba_marseille","lat":43.305994,"lon":5.393687,"is_reserved":false,"is_disabled":false,"rental_uris":{"android":"levelo://app?vid=d8d2b945-351e-4634-aaed-320abe983163","ios":"levelo://app?vid=d8d2b945-351e-4634-aaed-320abe983163"},"vehicle_type_id":"4","last_reported":1725041484,"current_range_meters":25600,"station_id":"ce4bh0p2rcd13ifvqd80","pricing_plan_id":"cebpf4jnsgd1na2vs0mg"},{"bike_id":"6e073635-19bf-401c-a621-cf5545a5ff07","system_id":"levelo_inurba_marseille","lat":43.29197,"lon":5.35799,"is_reserved":false,"is_disabled":false,"rental_uris":{"android":"levelo://app?vid=6e073635-19bf-401c-a621-cf5545a5ff07","ios":"levelo://app?vid=6e073635-19bf-401c-a621-cf5545a5ff07"},"vehicle_type_id":"4","last_reported":1725041484,"current_range_meters":23200,"station_id":"ce4bhb12rcd13ifvqel0","pricing_plan_id":"cebpf4jnsgd1na2vs0mg"},{"bike_id":"9ed53a79-b5c5-4598-9b30-28c8d0922142","system_id":"levelo_inurba_marseille","lat":43.292005,"lon":5.357875,"is_reserved":false,"is_disabled":false,"rental_uris":{"android":"levelo://app?vid=9ed53a79-b5c5-4598-9b30-28c8d0922142","ios":"levelo://app?vid=9ed53a79-b5c5-4598-9b30-28c8d0922142"},"vehicle_type_id":"4","last_reported":1725041484,"current_range_meters":6400,"station_id":"ce4bhb12rcd13ifvqel0","pricing_plan_id":"cebpf4jnsgd1na2vs0mg"},{"bike_id":"821269c0-3afc-4e54-89ec-49994d399b04","system_id":"levelo_inurba_marseille","lat":43.31332,"lon":5.39689,"is_reserved":false,"is_disabled":false,"rental_uris":{"android":"levelo://app?vid=821269c0-3afc-4e54-89ec-49994d399b04","ios":"levelo://app?vid=821269c0-3afc-4e54-89ec-49994d399b04"},"vehicle_type_id":"4","last_reported":1725041484,"current_range_meters":31200,"station_id":"ce4bgvp2rcd13ifvqcu0","pricing_plan_id":"cebpf4jnsgd1na2vs0mg"},{"bike_id":"356a3af9-8be4-402e-bfa2-5de63cb55808","system_id":"levelo_inurba_marseille","lat":43.31332,"lon":5.39693,"is_reserved":false,"is_disabled":false,"rental_uris":{"android":"levelo://app?vid=356a3af9-8be4-402e-bfa2-5de63cb55808","ios":"levelo://app?vid=356a3af9-8be4-402e-bfa2-5de63cb55808"},"vehicle_type_id":"4","last_reported":1725041484,"current_range_meters":18400,"station_id":"ce4bgvp2rcd13ifvqcu0","pricing_plan_id":"cebpf4jnsgd1na2vs0mg"},{"bike_id":"b37d0da7-275b-4655-9016-f561f524c5a3","system_id":"levelo_inurba_marseille","lat":43.313291,"lon":5.396838,"is_reserved":false,"is_disabled":false,"rental_uris":{"android":"levelo://app?vid=b37d0da7-275b-4655-9016-f561f524c5a3","ios":"levelo://app?vid=b37d0da7-275b-4655-9016-f561f524c5a3"},"vehicle_type_id":"4","last_reported":1725041484,"current_range_meters":8000,"station_id":"ce4bgvp2rcd13ifvqcu0","pricing_plan_id":"cebpf4jnsgd1na2vs0mg"},{"bike_id":"196fd55d-0ac3-448a-9b93-f23e1f6349e0","system_id":"levelo_inurba_marseille","lat":43.309038,"lon":5.396546,"is_reserved":false,"is_disabled":false,"rental_uris":{"android":"levelo://app?vid=196fd55d-0ac3-448a-9b93-f23e1f6349e0","ios":"levelo://app?vid=196fd55d-0ac3-448a-9b93-f23e1f6349e0"},"vehicle_type_id":"4","last_reported":1725041484,"current_range_meters":11200,"station_id":"ce4bh012rcd13ifvqcv0","pricing_plan_id":"cebpf4jnsgd1na2vs0mg"},{"bike_id":"65d4e8fc-21ac-40c7-ae61-f5c3a556b79f","system_id":"levelo_inurba_marseille","lat":43.309038,"lon":5.396546,"is_reserved":false,"is_disabled":false,"rental_uris":{"android":"levelo://app?vid=65d4e8fc-21ac-40c7-ae61-f5c3a556b79f","ios":"levelo://app?vid=65d4e8fc-21ac-40c7-ae61-f5c3a556b79f"},"vehicle_type_id":"4","last_reported":1725041484,"current_range_meters":27200,"station_id":"ce4bh012rcd13ifvqcv0","pricing_plan_id":"cebpf4jnsgd1na2vs0mg"},{"bike_id":"96aa2612-94a7-4d85-9730-921419fc9972","system_id":"levelo_inurba_marseille","lat":43.309038,"lon":5.396546,"is_reserved":false,"is_disabled":false,"rental_uris":{"android":"levelo://app?vid=96aa2612-94a7-4d85-9730-921419fc9972","ios":"levelo://app?vid=96aa2612-94a7-4d85-9730-921419fc9972"},"vehicle_type_id":"4","last_reported":1725041484,"current_range_meters":4000,"station_id":"ce4bh012rcd13ifvqcv0","pricing_plan_id":"cebpf4jnsgd1na2vs0mg"},{"bike_id":"abea910b-2a01-4ada-ab09-bfeff36833a0","system_id":"levelo_inurba_marseille","lat":43.309038,"lon":5.396546,"is_reserved":false,"is_disabled":false,"rental_uris":{"android":"levelo://app?vid=abea910b-2a01-4ada-ab09-bfeff36833a0","ios":"levelo://app?vid=abea910b-2a01-4ada-ab09-bfeff36833a0"},"vehicle_type_id":"4","last_reported":1725041484,"current_range_meters":0,"station_id":"ce4bh012rcd13ifvqcv0","pricing_plan_id":"cebpf4jnsgd1na2vs0mg"},{"bike_id":"36deb7bb-6bec-47f7-974f-da1b79ec44d5","system_id":"levelo_inurba_marseille","lat":43.309038,"lon":5.396546,"is_reserved":false,"is_disabled":false,"rental_uris":{"android":"levelo://app?vid=36deb7bb-6bec-47f7-974f-da1b79ec44d5","ios":"levelo://app?vid=36deb7bb-6bec-47f7-974f-da1b79ec44d5"},"vehicle_type_id":"4","last_reported":1725041484,"current_range_meters":0,"station_id":"ce4bh012rcd13ifvqcv0","pricing_plan_id":"cebpf4jnsgd1na2vs0mg"},{"bike_id":"bc8a4a99-c601-40b9-8cba-ffe2a1241889","system_id":"levelo_inurba_marseille","lat":43.29529,"lon":5.385581,"is_reserved":false,"is_disabled":false,"rental_uris":{"android":"levelo://app?vid=bc8a4a99-c601-40b9-8cba-ffe2a1241889","ios":"levelo://app?vid=bc8a4a99-c601-40b9-8cba-ffe2a1241889"},"vehicle_type_id":"4","last_reported":1725041484,"current_range_meters":11200,"station_id":"ce4bgih2rcd13ifvqba0","pricing_plan_id":"cebpf4jnsgd1na2vs0mg"},{"bike_id":"6e1f703c-9037-4d27-8c7a-0627b5d97f18","system_id":"levelo_inurba_marseille","lat":43.29529,"lon":5.385581,"is_reserved":false,"is_disabled":false,"rental_uris":{"android":"levelo://app?vid=6e1f703c-9037-4d27-8c7a-0627b5d97f18","ios":"levelo://app?vid=6e1f703c-9037-4d27-8c7a-0627b5d97f18"},"vehicle_type_id":"4","last_reported":1725041484,"current_range_meters":14800,"station_id":"ce4bgih2rcd13ifvqba0","pricing_plan_id":"cebpf4jnsgd1na2vs0mg"},{"bike_id":"95884465-32aa-46cd-8db2-248673faa276","system_id":"levelo_inurba_marseille","lat":43.29529,"lon":5.385581,"is_reserved":false,"is_disabled":false,"rental_uris":{"android":"levelo://app?vid=95884465-32aa-46cd-8db2-248673faa276","ios":"levelo://app?vid=95884465-32aa-46cd-8db2-248673faa276"},"vehicle_type_id":"4","last_reported":1725041484,"current_range_meters":25600,"station_id":"ce4bgih2rcd13ifvqba0","pricing_plan_id":"cebpf4jnsgd1na2vs0mg"},{"bike_id":"d7206bfb-3655-4338-be56-3a4c8b0adb3e","system_id":"levelo_inurba_marseille","lat":43.29529,"lon":5.385581,"is_reserved":false,"is_disabled":false,"rental_uris":{"android":"levelo://app?vid=d7206bfb-3655-4338-be56-3a4c8b0adb3e","ios":"levelo://app?vid=d7206bfb-3655-4338-be56-3a4c8b0adb3e"},"vehicle_type_id":"4","last_reported":1725041484,"current_range_meters":25200,"station_id":"ce4bgih2rcd13ifvqba0","pricing_plan_id":"cebpf4jnsgd1na2vs0mg"},{"bike_id":"39b944a6-30ce-4566-834d-1a8ab1a90004","system_id":"levelo_inurba_marseille","lat":43.290779,"lon":5.371482,"is_reserved":false,"is_disabled":false,"rental_uris":{"android":"levelo://app?vid=39b944a6-30ce-4566-834d-1a8ab1a90004","ios":"levelo://app?vid=39b944a6-30ce-4566-834d-1a8ab1a90004"},"vehicle_type_id":"4","last_reported":1725041484,"current_range_meters":0,"station_id":"ce4bh5p2rcd13ifvqe4g","pricing_plan_id":"cebpf4jnsgd1na2vs0mg"},{"bike_id":"d8b4cbeb-672a-47ab-aa83-7b5ff89ea874","system_id":"levelo_inurba_marseille","lat":43.290779,"lon":5.371482,"is_reserved":false,"is_disabled":false,"rental_uris":{"android":"levelo://app?vid=d8b4cbeb-672a-47ab-aa83-7b5ff89ea874","ios":"levelo://app?vid=d8b4cbeb-672a-47ab-aa83-7b5ff89ea874"},"vehicle_type_id":"4","last_reported":1725041484,"current_range_meters":21600,"station_id":"ce4bh5p2rcd13ifvqe4g","pricing_plan_id":"cebpf4jnsgd1na2vs0mg"},{"bike_id":"62f94ebb-5ece-46ce-bf88-305d050743ea","system_id":"levelo_inurba_marseille","lat":43.290779,"lon":5.371482,"is_reserved":false,"is_disabled":false,"rental_uris":{"android":"levelo://app?vid=62f94ebb-5ece-46ce-bf88-305d050743ea","ios":"levelo://app?vid=62f94ebb-5ece-46ce-bf88-305d050743ea"},"vehicle_type_id":"4","last_reported":1725041484,"current_range_meters":0,"station_id":"ce4bh5p2rcd13ifvqe4g","pricing_plan_id":"cebpf4jnsgd1na2vs0mg"},{"bike_id":"e564fb3f-7989-47ac-84d9-5618a4b58890","system_id":"levelo_inurba_marseille","lat":43.290779,"lon":5.371482,"is_reserved":false,"is_disabled":false,"rental_uris":{"android":"levelo://app?vid=e564fb3f-7989-47ac-84d9-5618a4b58890","ios":"levelo://app?vid=e564fb3f-7989-47ac-84d9-5618a4b58890"},"vehicle_type_id":"4","last_reported":1725041484,"current_range_meters":5200,"station_id":"ce4bh5p2rcd13ifvqe4g","pricing_plan_id":"cebpf4jnsgd1na2vs0mg"},{"bike_id":"de65b80b-5c60-4dce-86d6-7bacaef3fad7","system_id":"levelo_inurba_marseille","lat":43.302008,"lon":5.394694,"is_reserved":false,"is_disabled":false,"rental_uris":{"android":"levelo://app?vid=de65b80b-5c60-4dce-86d6-7bacaef3fad7","ios":"levelo://app?vid=de65b80b-5c60-4dce-86d6-7bacaef3fad7"},"vehicle_type_id":"4","last_reported":1725041484,"current_range_meters":6400,"station_id":"ce4bh0p2rcd13ifvqd70","pricing_plan_id":"cebpf4jnsgd1na2vs0mg"},{"bike_id":"0da55b64-0a51-4c39-829d-5eb376c69149","system_id":"levelo_inurba_marseille","lat":43.292935,"lon":5.38262,"is_reserved":false,"is_disabled":false,"rental_uris":{"android":"levelo://app?vid=0da55b64-0a51-4c39-829d-5eb376c69149","ios":"levelo://app?vid=0da55b64-0a51-4c39-829d-5eb376c69149"},"vehicle_type_id":"4","last_reported":1725041484,"current_range_meters":9200,"station_id":"ce4bh692rcd13ifvqea0","pricing_plan_id":"cebpf4jnsgd1na2vs0mg"},{"bike_id":"ddca04cd-c574-474e-ad7a-a99454cd9736","system_id":"levelo_inurba_marseille","lat":43.29442,"lon":5.38633,"is_reserved":false,"is_disabled":false,"rental_uris":{"android":"levelo://app?vid=ddca04cd-c574-474e-ad7a-a99454cd9736","ios":"levelo://app?vid=ddca04cd-c574-474e-ad7a-a99454cd9736"},"vehicle_type_id":"4","last_reported":1725041484,"current_range_meters":11600,"station_id":"","pricing_plan_id":"cebpf4jnsgd1na2vs0mg"},{"bike_id":"9468cb37-8690-45ac-9005-2605d32ed6a7","system_id":"levelo_inurba_marseille","lat":43.29426,"lon":5.38613,"is_reserved":false,"is_disabled":false,"rental_uris":{"android":"levelo://app?vid=9468cb37-8690-45ac-9005-2605d32ed6a7","ios":"levelo://app?vid=9468cb37-8690-45ac-9005-2605d32ed6a7"},"vehicle_type_id":"4","last_reported":1725041484,"current_range_meters":0,"station_id":"ce4bh2h2rcd13ifvqdh0","pricing_plan_id":"cebpf4jnsgd1na2vs0mg"},{"bike_id":"9fbfef4e-d396-4a12-96c9-ec3cf0121494","system_id":"levelo_inurba_marseille","lat":43.29045,"lon":5.37571,"is_reserved":false,"is_disabled":false,"rental_uris":{"android":"levelo://app?vid=9fbfef4e-d396-4a12-96c9-ec3cf0121494","ios":"levelo://app?vid=9fbfef4e-d396-4a12-96c9-ec3cf0121494"},"vehicle_type_id":"4","last_reported":1725041484,"current_range_meters":0,"station_id":"ce4bh692rcd13ifvqe90","pricing_plan_id":"cebpf4jnsgd1na2vs0mg"},{"bike_id":"3af0ebed-21a4-4748-a3b0-3e6ca16ed2e1","system_id":"levelo_inurba_marseille","lat":43.29421,"lon":5.3862,"is_reserved":false,"is_disabled":false,"rental_uris":{"android":"levelo://app?vid=3af0ebed-21a4-4748-a3b0-3e6ca16ed2e1","ios":"levelo://app?vid=3af0ebed-21a4-4748-a3b0-3e6ca16ed2e1"},"vehicle_type_id":"4","last_reported":1725041484,"current_range_meters":0,"station_id":"ce4bh2h2rcd13ifvqdh0","pricing_plan_id":"cebpf4jnsgd1na2vs0mg"},{"bike_id":"04662c83-4b2b-4cf9-b9e5-5ca9be7e5c12","system_id":"levelo_inurba_marseille","lat":43.294153,"lon":5.386305,"is_reserved":false,"is_disabled":false,"rental_uris":{"android":"levelo://app?vid=04662c83-4b2b-4cf9-b9e5-5ca9be7e5c12","ios":"levelo://app?vid=04662c83-4b2b-4cf9-b9e5-5ca9be7e5c12"},"vehicle_type_id":"4","last_reported":1725041484,"current_range_meters":26400,"station_id":"ce4bh2h2rcd13ifvqdh0","pricing_plan_id":"cebpf4jnsgd1na2vs0mg"},{"bike_id":"d82c64f3-8a76-4121-bf12-f42e7837f78f","system_id":"levelo_inurba_marseille","lat":43.29418,"lon":5.38621,"is_reserved":false,"is_disabled":false,"rental_uris":{"android":"levelo://app?vid=d82c64f3-8a76-4121-bf12-f42e7837f78f","ios":"levelo://app?vid=d82c64f3-8a76-4121-bf12-f42e7837f78f"},"vehicle_type_id":"4","last_reported":1725041484,"current_range_meters":0,"station_id":"ce4bh2h2rcd13ifvqdh0","pricing_plan_id":"cebpf4jnsgd1na2vs0mg"},{"bike_id":"1c2b49cf-1034-411f-8f26-e9b74f84427c","system_id":"levelo_inurba_marseille","lat":43.294153,"lon":5.386305,"is_reserved":false,"is_disabled":false,"rental_uris":{"android":"levelo://app?vid=1c2b49cf-1034-411f-8f26-e9b74f84427c","ios":"levelo://app?vid=1c2b49cf-1034-411f-8f26-e9b74f84427c"},"vehicle_type_id":"4","last_reported":1725041484,"current_range_meters":27600,"station_id":"ce4bh2h2rcd13ifvqdh0","pricing_plan_id":"cebpf4jnsgd1na2vs0mg"},{"bike_id":"15f263a8-78ef-47b2-a2f3-aa83e76dda72","system_id":"levelo_inurba_marseille","lat":43.294153,"lon":5.386305,"is_reserved":false,"is_disabled":false,"rental_uris":{"android":"levelo://app?vid=15f263a8-78ef-47b2-a2f3-aa83e76dda72","ios":"levelo://app?vid=15f263a8-78ef-47b2-a2f3-aa83e76dda72"},"vehicle_type_id":"4","last_reported":1725041484,"current_range_meters":16400,"station_id":"ce4bh2h2rcd13ifvqdh0","pricing_plan_id":"cebpf4jnsgd1na2vs0mg"},{"bike_id":"5f31c675-0d22-4ae7-9ff9-2aa257acce70","system_id":"levelo_inurba_marseille","lat":43.29418,"lon":5.38632,"is_reserved":false,"is_disabled":false,"rental_uris":{"android":"levelo://app?vid=5f31c675-0d22-4ae7-9ff9-2aa257acce70","ios":"levelo://app?vid=5f31c675-0d22-4ae7-9ff9-2aa257acce70"},"vehicle_type_id":"4","last_reported":1725041484,"current_range_meters":0,"station_id":"ce4bh2h2rcd13ifvqdh0","pricing_plan_id":"cebpf4jnsgd1na2vs0mg"},{"bike_id":"fe50d4ee-48cc-4399-b589-9d5a2f360baa","system_id":"levelo_inurba_marseille","lat":43.292642,"lon":5.384254,"is_reserved":false,"is_disabled":false,"rental_uris":{"android":"levelo://app?vid=fe50d4ee-48cc-4399-b589-9d5a2f360baa","ios":"levelo://app?vid=fe50d4ee-48cc-4399-b589-9d5a2f360baa"},"vehicle_type_id":"4","last_reported":1725041484,"current_range_meters":0,"station_id":"ce4bh692rcd13ifvqea0","pricing_plan_id":"cebpf4jnsgd1na2vs0mg"},{"bike_id":"17f28f20-933e-47e1-ba31-ccff3e0eed9a","system_id":"levelo_inurba_marseille","lat":43.290631,"lon":5.359244,"is_reserved":false,"is_disabled":false,"rental_uris":{"android":"levelo://app?vid=17f28f20-933e-47e1-ba31-ccff3e0eed9a","ios":"levelo://app?vid=17f28f20-933e-47e1-ba31-ccff3e0eed9a"},"vehicle_type_id":"4","last_reported":1725041484,"current_range_meters":20000,"station_id":"ce4bha92rcd13ifvqeg0","pricing_plan_id":"cebpf4jnsgd1na2vs0mg"},{"bike_id":"4a889034-8dd6-4ef2-937a-5800f57ffdb0","system_id":"levelo_inurba_marseille","lat":43.292642,"lon":5.384254,"is_reserved":false,"is_disabled":false,"rental_uris":{"android":"levelo://app?vid=4a889034-8dd6-4ef2-937a-5800f57ffdb0","ios":"levelo://app?vid=4a889034-8dd6-4ef2-937a-5800f57ffdb0"},"vehicle_type_id":"4","last_reported":1725041484,"current_range_meters":8400,"station_id":"ce4bh692rcd13ifvqea0","pricing_plan_id":"cebpf4jnsgd1na2vs0mg"},{"bike_id":"18f7dd0f-c869-44a0-873d-4d5708d42781","system_id":"levelo_inurba_marseille","lat":43.304296,"lon":5.397513,"is_reserved":false,"is_disabled":false,"rental_uris":{"android":"levelo://app?vid=18f7dd0f-c869-44a0-873d-4d5708d42781","ios":"levelo://app?vid=18f7dd0f-c869-44a0-873d-4d5708d42781"},"vehicle_type_id":"4","last_reported":1725041484,"current_range_meters":24400,"station_id":"ce4bh092rcd13ifvqd20","pricing_plan_id":"cebpf4jnsgd1na2vs0mg"},{"bike_id":"49e012d1-9cb8-4eb9-a44d-7a0c790ee9ee","system_id":"levelo_inurba_marseille","lat":43.304296,"lon":5.397513,"is_reserved":false,"is_disabled":false,"rental_uris":{"android":"levelo://app?vid=49e012d1-9cb8-4eb9-a44d-7a0c790ee9ee","ios":"levelo://app?vid=49e012d1-9cb8-4eb9-a44d-7a0c790ee9ee"},"vehicle_type_id":"4","last_reported":1725041484,"current_range_meters":11600,"station_id":"ce4bh092rcd13ifvqd20","pricing_plan_id":"cebpf4jnsgd1na2vs0mg"},{"bike_id":"3e3ed24b-2f92-4a8e-9e6a-b43aac4d1ccd","system_id":"levelo_inurba_marseille","lat":43.304274,"lon":5.397513,"is_reserved":false,"is_disabled":false,"rental_uris":{"android":"levelo://app?vid=3e3ed24b-2f92-4a8e-9e6a-b43aac4d1ccd","ios":"levelo://app?vid=3e3ed24b-2f92-4a8e-9e6a-b43aac4d1ccd"},"vehicle_type_id":"4","last_reported":1725041484,"current_range_meters":400,"station_id":"ce4bh092rcd13ifvqd20","pricing_plan_id":"cebpf4jnsgd1na2vs0mg"},{"bike_id":"f20504cf-13c5-40d5-bc70-3bdb3f88bf0f","system_id":"levelo_inurba_marseille","lat":43.292642,"lon":5.384254,"is_reserved":false,"is_disabled":false,"rental_uris":{"android":"levelo://app?vid=f20504cf-13c5-40d5-bc70-3bdb3f88bf0f","ios":"levelo://app?vid=f20504cf-13c5-40d5-bc70-3bdb3f88bf0f"},"vehicle_type_id":"4","last_reported":1725041484,"current_range_meters":30000,"station_id":"ce4bh692rcd13ifvqea0","pricing_plan_id":"cebpf4jnsgd1na2vs0mg"},{"bike_id":"ef3b9f4a-6982-4c13-8208-a2eb46fe81a7","system_id":"levelo_inurba_marseille","lat":43.29009,"lon":5.35612,"is_reserved":false,"is_disabled":false,"rental_uris":{"android":"levelo://app?vid=ef3b9f4a-6982-4c13-8208-a2eb46fe81a7","ios":"levelo://app?vid=ef3b9f4a-6982-4c13-8208-a2eb46fe81a7"},"vehicle_type_id":"4","last_reported":1725041484,"current_range_meters":0,"station_id":"ce4bhb92rcd13ifvqen0","pricing_plan_id":"cebpf4jnsgd1na2vs0mg"},{"bike_id":"0013b467-cb96-4e3e-98ed-6c858801164a","system_id":"levelo_inurba_marseille","lat":43.33027,"lon":5.39035,"is_reserved":false,"is_disabled":false,"rental_uris":{"android":"levelo://app?vid=0013b467-cb96-4e3e-98ed-6c858801164a","ios":"levelo://app?vid=0013b467-cb96-4e3e-98ed-6c858801164a"},"vehicle_type_id":"4","last_reported":1725041484,"current_range_meters":11600,"station_id":"ce4bhr92rcd13ifvqhrg","pricing_plan_id":"cebpf4jnsgd1na2vs0mg"},{"bike_id":"72f32263-e8c6-4ae7-b0fe-37edcab0ac6e","system_id":"levelo_inurba_marseille","lat":43.330442,"lon":5.389148,"is_reserved":false,"is_disabled":false,"rental_uris":{"android":"levelo://app?vid=72f32263-e8c6-4ae7-b0fe-37edcab0ac6e","ios":"levelo://app?vid=72f32263-e8c6-4ae7-b0fe-37edcab0ac6e"},"vehicle_type_id":"4","last_reported":1725041484,"current_range_meters":19200,"station_id":"ce4bhr92rcd13ifvqhrg","pricing_plan_id":"cebpf4jnsgd1na2vs0mg"},{"bike_id":"b0d90b77-72f2-4111-9766-7670ebfc5477","system_id":"levelo_inurba_marseille","lat":43.330442,"lon":5.389148,"is_reserved":false,"is_disabled":false,"rental_uris":{"android":"levelo://app?vid=b0d90b77-72f2-4111-9766-7670ebfc5477","ios":"levelo://app?vid=b0d90b77-72f2-4111-9766-7670ebfc5477"},"vehicle_type_id":"4","last_reported":1725041484,"current_range_meters":2000,"station_id":"ce4bhr92rcd13ifvqhrg","pricing_plan_id":"cebpf4jnsgd1na2vs0mg"},{"bike_id":"f8fe13f1-f760-44cd-92a0-2351e9970b73","system_id":"levelo_inurba_marseille","lat":43.330442,"lon":5.389148,"is_reserved":false,"is_disabled":false,"rental_uris":{"android":"levelo://app?vid=f8fe13f1-f760-44cd-92a0-2351e9970b73","ios":"levelo://app?vid=f8fe13f1-f760-44cd-92a0-2351e9970b73"},"vehicle_type_id":"4","last_reported":1725041484,"current_range_meters":17600,"station_id":"ce4bhr92rcd13ifvqhrg","pricing_plan_id":"cebpf4jnsgd1na2vs0mg"},{"bike_id":"a1cac583-7694-4940-b2b0-74092d6fecc2","system_id":"levelo_inurba_marseille","lat":43.286961,"lon":5.373785,"is_reserved":false,"is_disabled":false,"rental_uris":{"android":"levelo://app?vid=a1cac583-7694-4940-b2b0-74092d6fecc2","ios":"levelo://app?vid=a1cac583-7694-4940-b2b0-74092d6fecc2"},"vehicle_type_id":"4","last_reported":1725041484,"current_range_meters":800,"station_id":"ce4bh3p2rcd13ifvqdq0","pricing_plan_id":"cebpf4jnsgd1na2vs0mg"},{"bike_id":"57b10fe7-0a2c-4ef4-91e2-34c44955f5cc","system_id":"levelo_inurba_marseille","lat":43.290094,"lon":5.381264,"is_reserved":false,"is_disabled":false,"rental_uris":{"android":"levelo://app?vid=57b10fe7-0a2c-4ef4-91e2-34c44955f5cc","ios":"levelo://app?vid=57b10fe7-0a2c-4ef4-91e2-34c44955f5cc"},"vehicle_type_id":"4","last_reported":1725041484,"current_range_meters":24400,"station_id":"ce4bh4p2rcd13ifvqe1g","pricing_plan_id":"cebpf4jnsgd1na2vs0mg"},{"bike_id":"9a95b8d9-ace0-46d6-8f00-d2156ccde629","system_id":"levelo_inurba_marseille","lat":43.301117,"lon":5.398795,"is_reserved":false,"is_disabled":false,"rental_uris":{"android":"levelo://app?vid=9a95b8d9-ace0-46d6-8f00-d2156ccde629","ios":"levelo://app?vid=9a95b8d9-ace0-46d6-8f00-d2156ccde629"},"vehicle_type_id":"4","last_reported":1725041484,"current_range_meters":25200,"station_id":"ce4bh0h2rcd13ifvqd40","pricing_plan_id":"cebpf4jnsgd1na2vs0mg"},{"bike_id":"8d7df992-bc0e-4439-9379-ea89d7f73eef","system_id":"levelo_inurba_marseille","lat":43.297163,"lon":5.365866,"is_reserved":false,"is_disabled":false,"rental_uris":{"android":"levelo://app?vid=8d7df992-bc0e-4439-9379-ea89d7f73eef","ios":"levelo://app?vid=8d7df992-bc0e-4439-9379-ea89d7f73eef"},"vehicle_type_id":"4","last_reported":1725041484,"current_range_meters":10400,"station_id":"ce4bgn12rcd13ifvqbt0","pricing_plan_id":"cebpf4jnsgd1na2vs0mg"},{"bike_id":"40b14f62-1032-41aa-99cc-4ce627a28f5a","system_id":"levelo_inurba_marseille","lat":43.33757,"lon":5.37485,"is_reserved":false,"is_disabled":false,"rental_uris":{"android":"levelo://app?vid=40b14f62-1032-41aa-99cc-4ce627a28f5a","ios":"levelo://app?vid=40b14f62-1032-41aa-99cc-4ce627a28f5a"},"vehicle_type_id":"4","last_reported":1725041484,"current_range_meters":6400,"station_id":"","pricing_plan_id":"cebpf4jnsgd1na2vs0mg"},{"bike_id":"dcd902bf-4104-42f7-a9ba-5fd772bd309d","system_id":"levelo_inurba_marseille","lat":43.30642,"lon":5.401031,"is_reserved":false,"is_disabled":false,"rental_uris":{"android":"levelo://app?vid=dcd902bf-4104-42f7-a9ba-5fd772bd309d","ios":"levelo://app?vid=dcd902bf-4104-42f7-a9ba-5fd772bd309d"},"vehicle_type_id":"4","last_reported":1725041484,"current_range_meters":0,"station_id":"ce4bh112rcd13ifvqda0","pricing_plan_id":"cebpf4jnsgd1na2vs0mg"},{"bike_id":"ef6b9a3b-5d82-44d6-9929-90d7e43af731","system_id":"levelo_inurba_marseille","lat":43.30695,"lon":5.40109,"is_reserved":false,"is_disabled":false,"rental_uris":{"android":"levelo://app?vid=ef6b9a3b-5d82-44d6-9929-90d7e43af731","ios":"levelo://app?vid=ef6b9a3b-5d82-44d6-9929-90d7e43af731"},"vehicle_type_id":"4","last_reported":1725041484,"current_range_meters":12400,"station_id":"","pricing_plan_id":"cebpf4jnsgd1na2vs0mg"},{"bike_id":"1e8f011e-d4a1-401d-a0ca-296787f25da0","system_id":"levelo_inurba_marseille","lat":43.33769,"lon":5.37446,"is_reserved":false,"is_disabled":false,"rental_uris":{"android":"levelo://app?vid=1e8f011e-d4a1-401d-a0ca-296787f25da0","ios":"levelo://app?vid=1e8f011e-d4a1-401d-a0ca-296787f25da0"},"vehicle_type_id":"4","last_reported":1725041484,"current_range_meters":12800,"station_id":"","pricing_plan_id":"cebpf4jnsgd1na2vs0mg"},{"bike_id":"f633866c-23d9-449b-a5c0-d4f4cce383cf","system_id":"levelo_inurba_marseille","lat":43.30642,"lon":5.401031,"is_reserved":false,"is_disabled":false,"rental_uris":{"android":"levelo://app?vid=f633866c-23d9-449b-a5c0-d4f4cce383cf","ios":"levelo://app?vid=f633866c-23d9-449b-a5c0-d4f4cce383cf"},"vehicle_type_id":"4","last_reported":1725041484,"current_range_meters":6000,"station_id":"ce4bh112rcd13ifvqda0","pricing_plan_id":"cebpf4jnsgd1na2vs0mg"},{"bike_id":"483f177c-9d60-4a93-9e42-959cc9151fae","system_id":"levelo_inurba_marseille","lat":43.301117,"lon":5.398795,"is_reserved":false,"is_disabled":false,"rental_uris":{"android":"levelo://app?vid=483f177c-9d60-4a93-9e42-959cc9151fae","ios":"levelo://app?vid=483f177c-9d60-4a93-9e42-959cc9151fae"},"vehicle_type_id":"4","last_reported":1725041484,"current_range_meters":30800,"station_id":"ce4bh0h2rcd13ifvqd40","pricing_plan_id":"cebpf4jnsgd1na2vs0mg"},{"bike_id":"201d4174-6115-45dd-b0f4-ebb409a473dd","system_id":"levelo_inurba_marseille","lat":43.298681,"lon":5.397225,"is_reserved":false,"is_disabled":false,"rental_uris":{"android":"levelo://app?vid=201d4174-6115-45dd-b0f4-ebb409a473dd","ios":"levelo://app?vid=201d4174-6115-45dd-b0f4-ebb409a473dd"},"vehicle_type_id":"4","last_reported":1725041484,"current_range_meters":3200,"station_id":"ce4bh0h2rcd13ifvqd50","pricing_plan_id":"cebpf4jnsgd1na2vs0mg"},{"bike_id":"d5239c15-5ab5-4e29-90a6-5ac1bc62ff69","system_id":"levelo_inurba_marseille","lat":43.286591,"lon":5.363346,"is_reserved":false,"is_disabled":false,"rental_uris":{"android":"levelo://app?vid=d5239c15-5ab5-4e29-90a6-5ac1bc62ff69","ios":"levelo://app?vid=d5239c15-5ab5-4e29-90a6-5ac1bc62ff69"},"vehicle_type_id":"4","last_reported":1725041484,"current_range_meters":9600,"station_id":"ce4bhah2rcd13ifvqej0","pricing_plan_id":"cebpf4jnsgd1na2vs0mg"},{"bike_id":"8872a0ad-6b29-4a94-8cb7-3733d8b44bdb","system_id":"levelo_inurba_marseille","lat":43.286591,"lon":5.363346,"is_reserved":false,"is_disabled":false,"rental_uris":{"android":"levelo://app?vid=8872a0ad-6b29-4a94-8cb7-3733d8b44bdb","ios":"levelo://app?vid=8872a0ad-6b29-4a94-8cb7-3733d8b44bdb"},"vehicle_type_id":"4","last_reported":1725041484,"current_range_meters":1200,"station_id":"ce4bhah2rcd13ifvqej0","pricing_plan_id":"cebpf4jnsgd1na2vs0mg"},{"bike_id":"0307591d-f01a-4a8c-871f-1b333c973739","system_id":"levelo_inurba_marseille","lat":43.286591,"lon":5.363346,"is_reserved":false,"is_disabled":false,"rental_uris":{"android":"levelo://app?vid=0307591d-f01a-4a8c-871f-1b333c973739","ios":"levelo://app?vid=0307591d-f01a-4a8c-871f-1b333c973739"},"vehicle_type_id":"4","last_reported":1725041484,"current_range_meters":16800,"station_id":"ce4bhah2rcd13ifvqej0","pricing_plan_id":"cebpf4jnsgd1na2vs0mg"},{"bike_id":"fd2ffee0-8781-4aa1-8a35-f8ad54f15305","system_id":"levelo_inurba_marseille","lat":43.286751,"lon":5.362546,"is_reserved":false,"is_disabled":false,"rental_uris":{"android":"levelo://app?vid=fd2ffee0-8781-4aa1-8a35-f8ad54f15305","ios":"levelo://app?vid=fd2ffee0-8781-4aa1-8a35-f8ad54f15305"},"vehicle_type_id":"4","last_reported":1725041484,"current_range_meters":0,"station_id":"","pricing_plan_id":"cebpf4jnsgd1na2vs0mg"},{"bike_id":"6850258b-2cbe-4fa4-99f5-70574f2b8eef","system_id":"levelo_inurba_marseille","lat":43.286593,"lon":5.363346,"is_reserved":false,"is_disabled":false,"rental_uris":{"android":"levelo://app?vid=6850258b-2cbe-4fa4-99f5-70574f2b8eef","ios":"levelo://app?vid=6850258b-2cbe-4fa4-99f5-70574f2b8eef"},"vehicle_type_id":"4","last_reported":1725041484,"current_range_meters":24400,"station_id":"ce4bhah2rcd13ifvqej0","pricing_plan_id":"cebpf4jnsgd1na2vs0mg"},{"bike_id":"42b6d62e-d087-42c9-a396-6a2e93302264","system_id":"levelo_inurba_marseille","lat":43.286961,"lon":5.373785,"is_reserved":false,"is_disabled":false,"rental_uris":{"android":"levelo://app?vid=42b6d62e-d087-42c9-a396-6a2e93302264","ios":"levelo://app?vid=42b6d62e-d087-42c9-a396-6a2e93302264"},"vehicle_type_id":"4","last_reported":1725041484,"current_range_meters":800,"station_id":"ce4bh3p2rcd13ifvqdq0","pricing_plan_id":"cebpf4jnsgd1na2vs0mg"},{"bike_id":"5fcf2c1e-deae-43ea-a56e-56ebad6d16d2","system_id":"levelo_inurba_marseille","lat":43.286961,"lon":5.373785,"is_reserved":false,"is_disabled":false,"rental_uris":{"android":"levelo://app?vid=5fcf2c1e-deae-43ea-a56e-56ebad6d16d2","ios":"levelo://app?vid=5fcf2c1e-deae-43ea-a56e-56ebad6d16d2"},"vehicle_type_id":"4","last_reported":1725041484,"current_range_meters":22400,"station_id":"ce4bh3p2rcd13ifvqdq0","pricing_plan_id":"cebpf4jnsgd1na2vs0mg"},{"bike_id":"40fc2a6b-bb99-4c43-9626-9adeb7132855","system_id":"levelo_inurba_marseille","lat":43.2901,"lon":5.381269,"is_reserved":false,"is_disabled":false,"rental_uris":{"android":"levelo://app?vid=40fc2a6b-bb99-4c43-9626-9adeb7132855","ios":"levelo://app?vid=40fc2a6b-bb99-4c43-9626-9adeb7132855"},"vehicle_type_id":"4","last_reported":1725041484,"current_range_meters":26800,"station_id":"ce4bh4p2rcd13ifvqe1g","pricing_plan_id":"cebpf4jnsgd1na2vs0mg"},{"bike_id":"41942cc5-cf7d-40f4-a584-c9bb8fda102e","system_id":"levelo_inurba_marseille","lat":43.292644,"lon":5.384257,"is_reserved":false,"is_disabled":false,"rental_uris":{"android":"levelo://app?vid=41942cc5-cf7d-40f4-a584-c9bb8fda102e","ios":"levelo://app?vid=41942cc5-cf7d-40f4-a584-c9bb8fda102e"},"vehicle_type_id":"4","last_reported":1725041484,"current_range_meters":4800,"station_id":"ce4bh692rcd13ifvqea0","pricing_plan_id":"cebpf4jnsgd1na2vs0mg"},{"bike_id":"aa5e1a46-f7e7-4d3a-b1ce-3bcd37677f58","system_id":"levelo_inurba_marseille","lat":43.289307,"lon":5.38406,"is_reserved":false,"is_disabled":false,"rental_uris":{"android":"levelo://app?vid=aa5e1a46-f7e7-4d3a-b1ce-3bcd37677f58","ios":"levelo://app?vid=aa5e1a46-f7e7-4d3a-b1ce-3bcd37677f58"},"vehicle_type_id":"4","last_reported":1725041484,"current_range_meters":6000,"station_id":"ce4bh612rcd13ifvqe6g","pricing_plan_id":"cebpf4jnsgd1na2vs0mg"},{"bike_id":"32bd7784-d2e9-4dc0-a147-d36437ff017e","system_id":"levelo_inurba_marseille","lat":43.290345,"lon":5.38646,"is_reserved":false,"is_disabled":false,"rental_uris":{"android":"levelo://app?vid=32bd7784-d2e9-4dc0-a147-d36437ff017e","ios":"levelo://app?vid=32bd7784-d2e9-4dc0-a147-d36437ff017e"},"vehicle_type_id":"4","last_reported":1725041484,"current_range_meters":15600,"station_id":"ce4bh4p2rcd13ifvqe0g","pricing_plan_id":"cebpf4jnsgd1na2vs0mg"},{"bike_id":"78e0e894-9ea3-47ab-9d93-8b72ef026092","system_id":"levelo_inurba_marseille","lat":43.290344,"lon":5.38645,"is_reserved":false,"is_disabled":false,"rental_uris":{"android":"levelo://app?vid=78e0e894-9ea3-47ab-9d93-8b72ef026092","ios":"levelo://app?vid=78e0e894-9ea3-47ab-9d93-8b72ef026092"},"vehicle_type_id":"4","last_reported":1725041484,"current_range_meters":26800,"station_id":"ce4bh4p2rcd13ifvqe0g","pricing_plan_id":"cebpf4jnsgd1na2vs0mg"},{"bike_id":"8fa9a4ae-5ec2-4518-a5a7-34a822880473","system_id":"levelo_inurba_marseille","lat":43.289307,"lon":5.38406,"is_reserved":false,"is_disabled":false,"rental_uris":{"android":"levelo://app?vid=8fa9a4ae-5ec2-4518-a5a7-34a822880473","ios":"levelo://app?vid=8fa9a4ae-5ec2-4518-a5a7-34a822880473"},"vehicle_type_id":"4","last_reported":1725041484,"current_range_meters":0,"station_id":"ce4bh612rcd13ifvqe6g","pricing_plan_id":"cebpf4jnsgd1na2vs0mg"},{"bike_id":"2527f6ec-2691-49aa-80e2-71bdb9fafc77","system_id":"levelo_inurba_marseille","lat":43.290345,"lon":5.38646,"is_reserved":false,"is_disabled":false,"rental_uris":{"android":"levelo://app?vid=2527f6ec-2691-49aa-80e2-71bdb9fafc77","ios":"levelo://app?vid=2527f6ec-2691-49aa-80e2-71bdb9fafc77"},"vehicle_type_id":"4","last_reported":1725041484,"current_range_meters":4400,"station_id":"ce4bh4p2rcd13ifvqe0g","pricing_plan_id":"cebpf4jnsgd1na2vs0mg"},{"bike_id":"9781bd72-9e8f-417d-9d11-9ce288d66c64","system_id":"levelo_inurba_marseille","lat":43.2903,"lon":5.38658,"is_reserved":false,"is_disabled":false,"rental_uris":{"android":"levelo://app?vid=9781bd72-9e8f-417d-9d11-9ce288d66c64","ios":"levelo://app?vid=9781bd72-9e8f-417d-9d11-9ce288d66c64"},"vehicle_type_id":"4","last_reported":1725041484,"current_range_meters":0,"station_id":"ce4bh4p2rcd13ifvqe0g","pricing_plan_id":"cebpf4jnsgd1na2vs0mg"},{"bike_id":"faba53da-2d6a-49c4-97ef-5193a2083afd","system_id":"levelo_inurba_marseille","lat":43.30243,"lon":5.40073,"is_reserved":false,"is_disabled":false,"rental_uris":{"android":"levelo://app?vid=faba53da-2d6a-49c4-97ef-5193a2083afd","ios":"levelo://app?vid=faba53da-2d6a-49c4-97ef-5193a2083afd"},"vehicle_type_id":"4","last_reported":1725041484,"current_range_meters":0,"station_id":"ce4bgvh2rcd13ifvqcs0","pricing_plan_id":"cebpf4jnsgd1na2vs0mg"},{"bike_id":"e8a7038c-9f7f-4381-8586-45bc56ea9cbf","system_id":"levelo_inurba_marseille","lat":43.286039,"lon":5.370679,"is_reserved":false,"is_disabled":false,"rental_uris":{"android":"levelo://app?vid=e8a7038c-9f7f-4381-8586-45bc56ea9cbf","ios":"levelo://app?vid=e8a7038c-9f7f-4381-8586-45bc56ea9cbf"},"vehicle_type_id":"4","last_reported":1725041484,"current_range_meters":3200,"station_id":"ce4bht12rcd13ifvqi60","pricing_plan_id":"cebpf4jnsgd1na2vs0mg"},{"bike_id":"80e61312-a325-4f56-a0af-5509b721c69e","system_id":"levelo_inurba_marseille","lat":43.30301,"lon":5.40119,"is_reserved":false,"is_disabled":false,"rental_uris":{"android":"levelo://app?vid=80e61312-a325-4f56-a0af-5509b721c69e","ios":"levelo://app?vid=80e61312-a325-4f56-a0af-5509b721c69e"},"vehicle_type_id":"4","last_reported":1725041484,"current_range_meters":8400,"station_id":"ce4bgvh2rcd13ifvqcs0","pricing_plan_id":"cebpf4jnsgd1na2vs0mg"},{"bike_id":"4f7d1d2d-b360-4491-b9e1-58c99114e5b7","system_id":"levelo_inurba_marseille","lat":43.286039,"lon":5.370679,"is_reserved":false,"is_disabled":false,"rental_uris":{"android":"levelo://app?vid=4f7d1d2d-b360-4491-b9e1-58c99114e5b7","ios":"levelo://app?vid=4f7d1d2d-b360-4491-b9e1-58c99114e5b7"},"vehicle_type_id":"4","last_reported":1725041484,"current_range_meters":24000,"station_id":"ce4bht12rcd13ifvqi60","pricing_plan_id":"cebpf4jnsgd1na2vs0mg"},{"bike_id":"9a408f0f-5a5e-45d0-b08b-db7c1f2f88b6","system_id":"levelo_inurba_marseille","lat":43.28721,"lon":5.37946,"is_reserved":false,"is_disabled":false,"rental_uris":{"android":"levelo://app?vid=9a408f0f-5a5e-45d0-b08b-db7c1f2f88b6","ios":"levelo://app?vid=9a408f0f-5a5e-45d0-b08b-db7c1f2f88b6"},"vehicle_type_id":"4","last_reported":1725041484,"current_range_meters":0,"station_id":"ce4bh9p2rcd13ifvqec0","pricing_plan_id":"cebpf4jnsgd1na2vs0mg"},{"bike_id":"d785da2b-6149-4df5-8f39-506fd06a5d87","system_id":"levelo_inurba_marseille","lat":43.28723,"lon":5.37954,"is_reserved":false,"is_disabled":false,"rental_uris":{"android":"levelo://app?vid=d785da2b-6149-4df5-8f39-506fd06a5d87","ios":"levelo://app?vid=d785da2b-6149-4df5-8f39-506fd06a5d87"},"vehicle_type_id":"4","last_reported":1725041484,"current_range_meters":0,"station_id":"ce4bh9p2rcd13ifvqec0","pricing_plan_id":"cebpf4jnsgd1na2vs0mg"},{"bike_id":"4d010fd3-8a7d-4d7c-bc43-d4e07529a628","system_id":"levelo_inurba_marseille","lat":43.28717,"lon":5.37935,"is_reserved":false,"is_disabled":false,"rental_uris":{"android":"levelo://app?vid=4d010fd3-8a7d-4d7c-bc43-d4e07529a628","ios":"levelo://app?vid=4d010fd3-8a7d-4d7c-bc43-d4e07529a628"},"vehicle_type_id":"4","last_reported":1725041484,"current_range_meters":0,"station_id":"ce4bh9p2rcd13ifvqec0","pricing_plan_id":"cebpf4jnsgd1na2vs0mg"},{"bike_id":"64024308-3435-4567-b3f5-7f5922395ee3","system_id":"levelo_inurba_marseille","lat":43.287913,"lon":5.382628,"is_reserved":false,"is_disabled":false,"rental_uris":{"android":"levelo://app?vid=64024308-3435-4567-b3f5-7f5922395ee3","ios":"levelo://app?vid=64024308-3435-4567-b3f5-7f5922395ee3"},"vehicle_type_id":"4","last_reported":1725041484,"current_range_meters":23600,"station_id":"","pricing_plan_id":"cebpf4jnsgd1na2vs0mg"},{"bike_id":"09577932-f71d-4f78-ae86-0b520caa2464","system_id":"levelo_inurba_marseille","lat":43.31689,"lon":5.4048,"is_reserved":false,"is_disabled":false,"rental_uris":{"android":"levelo://app?vid=09577932-f71d-4f78-ae86-0b520caa2464","ios":"levelo://app?vid=09577932-f71d-4f78-ae86-0b520caa2464"},"vehicle_type_id":"4","last_reported":1725041484,"current_range_meters":20000,"station_id":"ce4bh012rcd13ifvqd00","pricing_plan_id":"cebpf4jnsgd1na2vs0mg"},{"bike_id":"2d73d766-6a1d-4dfc-a6cc-37fb4ebaa6c9","system_id":"levelo_inurba_marseille","lat":43.291994,"lon":5.392907,"is_reserved":false,"is_disabled":false,"rental_uris":{"android":"levelo://app?vid=2d73d766-6a1d-4dfc-a6cc-37fb4ebaa6c9","ios":"levelo://app?vid=2d73d766-6a1d-4dfc-a6cc-37fb4ebaa6c9"},"vehicle_type_id":"4","last_reported":1725041484,"current_range_meters":1200,"station_id":"ce4bh192rcd13ifvqdd0","pricing_plan_id":"cebpf4jnsgd1na2vs0mg"},{"bike_id":"4bee61e6-6dde-413b-8b2c-a2cb31023c0f","system_id":"levelo_inurba_marseille","lat":43.284534,"lon":5.358662,"is_reserved":false,"is_disabled":false,"rental_uris":{"android":"levelo://app?vid=4bee61e6-6dde-413b-8b2c-a2cb31023c0f","ios":"levelo://app?vid=4bee61e6-6dde-413b-8b2c-a2cb31023c0f"},"vehicle_type_id":"4","last_reported":1725041484,"current_range_meters":31200,"station_id":"ce4bhah2rcd13ifvqei0","pricing_plan_id":"cebpf4jnsgd1na2vs0mg"},{"bike_id":"1d8d0f22-cdb2-42df-8ff2-629da276daac","system_id":"levelo_inurba_marseille","lat":43.31762,"lon":5.405743,"is_reserved":false,"is_disabled":false,"rental_uris":{"android":"levelo://app?vid=1d8d0f22-cdb2-42df-8ff2-629da276daac","ios":"levelo://app?vid=1d8d0f22-cdb2-42df-8ff2-629da276daac"},"vehicle_type_id":"4","last_reported":1725041484,"current_range_meters":8800,"station_id":"","pricing_plan_id":"cebpf4jnsgd1na2vs0mg"},