{"last_updated":1749831172,"ttl":60,"version":"2.2","data":{"bikes":[{"bike_id":"b31f0139-170f-4194-984f-4386218a1e9d","system_id":"levelo_inurba_marseille","lat":43.33771,"lon":5.37424,"is_reserved":false,"is_disabled":true,"rental_uris":{"android":"levelo://app?vid=b31f0139-170f-4194-984f-4386218a1e9d","ios":"levelo://app?vid=b31f0139-170f-4194-984f-4386218a1e9d"},"vehicle_type_id":"4","last_reported":1749831173,"current_range_meters":0,"station_id":"","pricing_plan_id":"cebpf4jnsgd1na2vs0mg"},{"bike_id":"1acfb620-cad7-48c0-8901-d7a5b74a5b65","system_id":"levelo_inurba_marseille","lat":43.33751,"lon":5.37456,"is_reserved":false,"is_disabled":false,"rental_uris":{"android":"levelo://app?vid=1acfb620-cad7-48c0-8901-d7a5b74a5b65","ios":"levelo://app?vid=1acfb620-cad7-48c0-8901-d7a5b74a5b65"},"vehicle_type_id":"4","last_reported":1749831173,"current_range_meters":3200,"station_id":"","pricing_plan_id":"cebpf4jnsgd1na2vs0mg"},{"bike_id":"a5652db6-c4dd-41f1-afe5-06a93e19d8ff","system_id":"levelo_inurba_marseille","lat":43.24602,"lon":5.39328,"is_reserved":false,"is_disabled":true,"rental_uris":{"android":"levelo://app?vid=a5652db6-c4dd-41f1-afe5-06a93e19d8ff","ios":"levelo://app?vid=a5652db6-c4dd-41f1-afe5-06a93e19d8ff"},"vehicle_type_id":"4","last_reported":1749831173,"current_range_meters":0,"station_id":"","pricing_plan_id":"cebpf4jnsgd1na2vs0mg"},{"bike_id":"bf89d78c-eb96-40d5-beb0-f402ef102cc1","system_id":"levelo_inurba_marseille","lat":43.337444,"lon":5.374475,"is_reserved":false,"is_disabled":true,"rental_uris":{"android":"levelo://app?vid=bf89d78c-eb96-40d5-beb0-f402ef102cc1","ios":"levelo://app?vid=bf89d78c-eb96-40d5-beb0-f402ef102cc1"},"vehicle_type_id":"4","last_reported":1749831173,"current_range_meters":0,"station_id":"","pricing_plan_id":"cebpf4jnsgd1na2vs0mg"},{"bike_id":"5077581b-cebb-46fc-ba69-4fa8272d4810","system_id":"levelo_inurba_marseille","lat":43.21378,"lon":5.35519,"is_reserved":false,"is_disabled":true,"rental_uris":{"android":"levelo://app?vid=5077581b-cebb-46fc-ba69-4fa8272d4810","ios":"levelo://app?vid=5077581b-cebb-46fc-ba69-4fa8272d4810"},"vehicle_type_id":"4","last_reported":1749831173,"current_range_meters":0,"station_id":"","pricing_plan_id":"cebpf4jnsgd1na2vs0mg"},{"bike_id":"ff34c0f3-8c25-4dfe-a1c9-11838519013d","system_id":"levelo_inurba_marseille","lat":43.24362,"lon":5.40152,"is_reserved":false,"is_disabled":true,"rental_uris":{"android":"levelo://app?vid=ff34c0f3-8c25-4dfe-a1c9-11838519013d","ios":"levelo://app?vid=ff34c0f3-8c25-4dfe-a1c9-11838519013d"},"vehicle_type_id":"4","last_reported":1749831173,"current_range_meters":0,"station_id":"","pricing_plan_id":"cebpf4jnsgd1na2vs0mg"},{"bike_id":"7c6a9c32-3bbe-4d4c-8294-1969d0688a87","system_id":"levelo_inurba_marseille","lat":43.28457,"lon":5.42056,"is_reserved":false,"is_disabled":true,"rental_uris":{"android":"levelo://app?vid=7c6a9c32-3bbe-4d4c-8294-1969d0688a87","ios":"levelo://app?vid=7c6a9c32-3bbe-4d4c-8294-1969d0688a87"},"vehicle_type_id":"4","last_reported":1749831173,"current_range_meters":0,"station_id":"","pricing_plan_id":"cebpf4jnsgd1na2vs0mg"},{"bike_id":"66b1cbfb-c132-4ef4-922c-0beab9b5a350","system_id":"levelo_inurba_marseille","lat":43.29747,"lon":5.46031,"is_reserved":false,"is_disabled":true,"rental_uris":{"android":"levelo://app?vid=66b1cbfb-c132-4ef4-922c-0beab9b5a350","ios":"levelo://app?vid=66b1cbfb-c132-4ef4-922c-0beab9b5a350"},"vehicle_type_id":"4","last_reported":1749831173,"current_range_meters":0,"station_id":"","pricing_plan_id":"cebpf4jnsgd1na2vs0mg"},{"bike_id":"492f4bbd-1190-4ef2-b66a-479ffe91b09b","system_id":"levelo_inurba_marseille","lat":43.337444,"lon":5.374475,"is_reserved":false,"is_disabled":true,"rental_uris":{"android":"levelo://app?vid=492f4bbd-1190-4ef2-b66a-479ffe91b09b","ios":"levelo://app?vid=492f4bbd-1190-4ef2-b66a-479ffe91b09b"},"vehicle_type_id":"4","last_reported":1749831173,"current_range_meters":0,"station_id":"","pricing_plan_id":"cebpf4jnsgd1na2vs0mg"},{"bike_id":"a9b6bf99-4070-4437-bb20-72962ae30b90","system_id":"levelo_inurba_marseille","lat":43.27467,"lon":5.36382,"is_reserved":false,"is_disabled":true,"rental_uris":{"android":"levelo://app?vid=a9b6bf99-4070-4437-bb20-72962ae30b90","ios":"levelo://app?vid=a9b6bf99-4070-4437-bb20-72962ae30b90"},"vehicle_type_id":"4","last_reported":1749831173,"current_range_meters":0,"station_id":"","pricing_plan_id":"cebpf4jnsgd1na2vs0mg"},{"bike_id":"e1eaa03d-4a79-4507-8d87-1ffa7b8a1061","system_id":"levelo_inurba_marseille","lat":43.29535,"lon":5.38543,"is_reserved":false,"is_disabled":true,"rental_uris":{"android":"levelo://app?vid=e1eaa03d-4a79-4507-8d87-1ffa7b8a1061","ios":"levelo://app?vid=e1eaa03d-4a79-4507-8d87-1ffa7b8a1061"},"vehicle_type_id":"4","last_reported":1749831173,"current_range_meters":0,"station_id":"ce4bgih2rcd13ifvqba0","pricing_plan_id":"cebpf4jnsgd1na2vs0mg"},{"bike_id":"7d145cc0-2162-4e7c-85d5-26a1833ce9ff","system_id":"levelo_inurba_marseille","lat":43.29963,"lon":5.38509,"is_reserved":false,"is_disabled":true,"rental_uris":{"android":"levelo://app?vid=7d145cc0-2162-4e7c-85d5-26a1833ce9ff","ios":"levelo://app?vid=7d145cc0-2162-4e7c-85d5-26a1833ce9ff"},"vehicle_type_id":"4","last_reported":1749831173,"current_range_meters":0,"station_id":"ce4bgj92rcd13ifvqbd0","pricing_plan_id":"cebpf4jnsgd1na2vs0mg"},{"bike_id":"07b32a83-24e5-40ee-af1c-eb5047345ad1","system_id":"levelo_inurba_marseille","lat":43.302241,"lon":5.390163,"is_reserved":false,"is_disabled":true,"rental_uris":{"android":"levelo://app?vid=07b32a83-24e5-40ee-af1c-eb5047345ad1","ios":"levelo://app?vid=07b32a83-24e5-40ee-af1c-eb5047345ad1"},"vehicle_type_id":"4","last_reported":1749831173,"current_range_meters":0,"station_id":"ce4bgkh2rcd13ifvqbk0","pricing_plan_id":"cebpf4jnsgd1na2vs0mg"},{"bike_id":"97d89514-81c1-43e7-9721-c56bd96e7fa9","system_id":"levelo_inurba_marseille","lat":43.30252,"lon":5.40062,"is_reserved":false,"is_disabled":true,"rental_uris":{"android":"levelo://app?vid=97d89514-81c1-43e7-9721-c56bd96e7fa9","ios":"levelo://app?vid=97d89514-81c1-43e7-9721-c56bd96e7fa9"},"vehicle_type_id":"4","last_reported":1749831173,"current_range_meters":0,"station_id":"ce4bgvh2rcd13ifvqcs0","pricing_plan_id":"cebpf4jnsgd1na2vs0mg"},{"bike_id":"7801c8be-8d30-46e9-a16d-1e998fd8cd06","system_id":"levelo_inurba_marseille","lat":43.31326,"lon":5.39687,"is_reserved":false,"is_disabled":true,"rental_uris":{"android":"levelo://app?vid=7801c8be-8d30-46e9-a16d-1e998fd8cd06","ios":"levelo://app?vid=7801c8be-8d30-46e9-a16d-1e998fd8cd06"},"vehicle_type_id":"4","last_reported":1749831173,"current_range_meters":0,"station_id":"ce4bgvp2rcd13ifvqcu0","pricing_plan_id":"cebpf4jnsgd1na2vs0mg"},{"bike_id":"48bf2a8e-657c-4867-8dec-55682accb5cd","system_id":"levelo_inurba_marseille","lat":43.29521,"lon":5.39062,"is_reserved":false,"is_disabled":true,"rental_uris":{"android":"levelo://app?vid=48bf2a8e-657c-4867-8dec-55682accb5cd","ios":"levelo://app?vid=48bf2a8e-657c-4867-8dec-55682accb5cd"},"vehicle_type_id":"4","last_reported":1749831173,"current_range_meters":0,"station_id":"ce4bh3p2rcd13ifvqdp0","pricing_plan_id":"cebpf4jnsgd1na2vs0mg"},{"bike_id":"8a6530fe-7fd1-40d7-bf31-0275b9bc1c6f","system_id":"levelo_inurba_marseille","lat":43.29265,"lon":5.3843,"is_reserved":false,"is_disabled":true,"rental_uris":{"android":"levelo://app?vid=8a6530fe-7fd1-40d7-bf31-0275b9bc1c6f","ios":"levelo://app?vid=8a6530fe-7fd1-40d7-bf31-0275b9bc1c6f"},"vehicle_type_id":"4","last_reported":1749831173,"current_range_meters":0,"station_id":"ce4bh692rcd13ifvqea0","pricing_plan_id":"cebpf4jnsgd1na2vs0mg"},{"bike_id":"fd3db8d2-7d20-4447-8624-db4037c584e0","system_id":"levelo_inurba_marseille","lat":43.284815,"lon":5.385696,"is_reserved":false,"is_disabled":true,"rental_uris":{"android":"levelo://app?vid=fd3db8d2-7d20-4447-8624-db4037c584e0","ios":"levelo://app?vid=fd3db8d2-7d20-4447-8624-db4037c584e0"},"vehicle_type_id":"4","last_reported":1749831173,"current_range_meters":0,"station_id":"ce4bh8p2rcd13ifvqeb0","pricing_plan_id":"cebpf4jnsgd1na2vs0mg"},{"bike_id":"d8c18dc1-2ac8-4871-be02-db75e993b25f","system_id":"levelo_inurba_marseille","lat":43.26211,"lon":5.37444,"is_reserved":false,"is_disabled":true,"rental_uris":{"android":"levelo://app?vid=d8c18dc1-2ac8-4871-be02-db75e993b25f","ios":"levelo://app?vid=d8c18dc1-2ac8-4871-be02-db75e993b25f"},"vehicle_type_id":"4","last_reported":1749831173,"current_range_meters":0,"station_id":"ce4bhgp2rcd13ifvqfc0","pricing_plan_id":"cebpf4jnsgd1na2vs0mg"},{"bike_id":"627f692b-38e0-4323-9a78-841321533713","system_id":"levelo_inurba_marseille","lat":43.26211,"lon":5.37439,"is_reserved":false,"is_disabled":true,"rental_uris":{"android":"levelo://app?vid=627f692b-38e0-4323-9a78-841321533713","ios":"levelo://app?vid=627f692b-38e0-4323-9a78-841321533713"},"vehicle_type_id":"4","last_reported":1749831173,"current_range_meters":0,"station_id":"ce4bhgp2rcd13ifvqfc0","pricing_plan_id":"cebpf4jnsgd1na2vs0mg"},{"bike_id":"a2e67546-7da4-46be-82b5-f87fc0955c0c","system_id":"levelo_inurba_marseille","lat":43.27675,"lon":5.38865,"is_reserved":false,"is_disabled":true,"rental_uris":{"android":"levelo://app?vid=a2e67546-7da4-46be-82b5-f87fc0955c0c","ios":"levelo://app?vid=a2e67546-7da4-46be-82b5-f87fc0955c0c"},"vehicle_type_id":"4","last_reported":1749831173,"current_range_meters":0,"station_id":"ce4bhi12rcd13ifvqfo0","pricing_plan_id":"cebpf4jnsgd1na2vs0mg"},{"bike_id":"987989af-1951-46b5-989c-5a948313afc0","system_id":"levelo_inurba_marseille","lat":43.241812,"lon":5.397323,"is_reserved":false,"is_disabled":true,"rental_uris":{"android":"levelo://app?vid=987989af-1951-46b5-989c-5a948313afc0","ios":"levelo://app?vid=987989af-1951-46b5-989c-5a948313afc0"},"vehicle_type_id":"4","last_reported":1749831173,"current_range_meters":0,"station_id":"ce4bhn12rcd13ifvqgpg","pricing_plan_id":"cebpf4jnsgd1na2vs0mg"},{"bike_id":"7552c6f4-df46-4a59-993d-4e2d051d97f7","system_id":"levelo_inurba_marseille","lat":43.28136,"lon":5.42681,"is_reserved":false,"is_disabled":true,"rental_uris":{"android":"levelo://app?vid=7552c6f4-df46-4a59-993d-4e2d051d97f7","ios":"levelo://app?vid=7552c6f4-df46-4a59-993d-4e2d051d97f7"},"vehicle_type_id":"4","last_reported":1749831173,"current_range_meters":0,"station_id":"ce4bhnh2rcd13ifvqgug","pricing_plan_id":"cebpf4jnsgd1na2vs0mg"},{"bike_id":"0ada84b2-4975-4882-bfec-3404f169ccb0","system_id":"levelo_inurba_marseille","lat":43.27995,"lon":5.41667,"is_reserved":false,"is_disabled":true,"rental_uris":{"android":"levelo://app?vid=0ada84b2-4975-4882-bfec-3404f169ccb0","ios":"levelo://app?vid=0ada84b2-4975-4882-bfec-3404f169ccb0"},"vehicle_type_id":"4","last_reported":1749831173,"current_range_meters":0,"station_id":"ce4bho12rcd13ifvqh1g","pricing_plan_id":"cebpf4jnsgd1na2vs0mg"},{"bike_id":"e52668b5-ee1d-4bf2-9569-0bf5dba5a96c","system_id":"levelo_inurba_marseille","lat":43.30791,"lon":5.43517,"is_reserved":false,"is_disabled":true,"rental_uris":{"android":"levelo://app?vid=e52668b5-ee1d-4bf2-9569-0bf5dba5a96c","ios":"levelo://app?vid=e52668b5-ee1d-4bf2-9569-0bf5dba5a96c"},"vehicle_type_id":"4","last_reported":1749831173,"current_range_meters":0,"station_id":"ce4bhph2rcd13ifvqheg","pricing_plan_id":"cebpf4jnsgd1na2vs0mg"},{"bike_id":"5c219ba0-bd6f-4ec1-8199-9fc28d07f25c","system_id":"levelo_inurba_marseille","lat":43.32299,"lon":5.44689,"is_reserved":false,"is_disabled":true,"rental_uris":{"android":"levelo://app?vid=5c219ba0-bd6f-4ec1-8199-9fc28d07f25c","ios":"levelo://app?vid=5c219ba0-bd6f-4ec1-8199-9fc28d07f25c"},"vehicle_type_id":"4","last_reported":1749831173,"current_range_meters":400,"station_id":"","pricing_plan_id":"cebpf4jnsgd1na2vs0mg"},{"bike_id":"644f6f83-6b58-4609-b7ff-8a318c9e667b","system_id":"levelo_inurba_marseille","lat":43.29531,"lon":5.37548,"is_reserved":false,"is_disabled":true,"rental_uris":{"android":"levelo://app?vid=644f6f83-6b58-4609-b7ff-8a318c9e667b","ios":"levelo://app?vid=644f6f83-6b58-4609-b7ff-8a318c9e667b"},"vehicle_type_id":"4","last_reported":1749831173,"current_range_meters":400,"station_id":"ce4bgkp2rcd13ifvqbmg","pricing_plan_id":"cebpf4jnsgd1na2vs0mg"},{"bike_id":"ba2d87fa-8934-4ffd-a713-f1eabd4d8d30","system_id":"levelo_inurba_marseille","lat":43.31689,"lon":5.40479,"is_reserved":false,"is_disabled":true,"rental_uris":{"android":"levelo://app?vid=ba2d87fa-8934-4ffd-a713-f1eabd4d8d30","ios":"levelo://app?vid=ba2d87fa-8934-4ffd-a713-f1eabd4d8d30"},"vehicle_type_id":"4","last_reported":1749831173,"current_range_meters":400,"station_id":"ce4bh012rcd13ifvqd00","pricing_plan_id":"cebpf4jnsgd1na2vs0mg"},{"bike_id":"78239af2-2d3a-44dc-a554-d4ca27ec04f4","system_id":"levelo_inurba_marseille","lat":43.30604,"lon":5.39321,"is_reserved":false,"is_disabled":true,"rental_uris":{"android":"levelo://app?vid=78239af2-2d3a-44dc-a554-d4ca27ec04f4","ios":"levelo://app?vid=78239af2-2d3a-44dc-a554-d4ca27ec04f4"},"vehicle_type_id":"4","last_reported":1749831173,"current_range_meters":400,"station_id":"ce4bh0p2rcd13ifvqd80","pricing_plan_id":"cebpf4jnsgd1na2vs0mg"},{"bike_id":"b4a0909c-9730-4fae-8c9b-e6b8f9843c52","system_id":"levelo_inurba_marseille","lat":43.29444,"lon":5.38601,"is_reserved":false,"is_disabled":true,"rental_uris":{"android":"levelo://app?vid=b4a0909c-9730-4fae-8c9b-e6b8f9843c52","ios":"levelo://app?vid=b4a0909c-9730-4fae-8c9b-e6b8f9843c52"},"vehicle_type_id":"4","last_reported":1749831173,"current_range_meters":400,"station_id":"ce4bh2h2rcd13ifvqdh0","pricing_plan_id":"cebpf4jnsgd1na2vs0mg"},{"bike_id":"8d1cea11-a7f3-446a-bd64-a3d98dce441f","system_id":"levelo_inurba_marseille","lat":43.29029,"lon":5.38641,"is_reserved":false,"is_disabled":true,"rental_uris":{"android":"levelo://app?vid=8d1cea11-a7f3-446a-bd64-a3d98dce441f","ios":"levelo://app?vid=8d1cea11-a7f3-446a-bd64-a3d98dce441f"},"vehicle_type_id":"4","last_reported":1749831173,"current_range_meters":400,"station_id":"ce4bh4p2rcd13ifvqe0g","pricing_plan_id":"cebpf4jnsgd1na2vs0mg"},{"bike_id":"0777823e-9bf0-4c0d-9989-6cea4d918d54","system_id":"levelo_inurba_marseille","lat":43.28211,"lon":5.38611,"is_reserved":false,"is_disabled":true,"rental_uris":{"android":"levelo://app?vid=0777823e-9bf0-4c0d-9989-6cea4d918d54","ios":"levelo://app?vid=0777823e-9bf0-4c0d-9989-6cea4d918d54"},"vehicle_type_id":"4","last_reported":1749831173,"current_range_meters":800,"station_id":"","pricing_plan_id":"cebpf4jnsgd1na2vs0mg"},{"bike_id":"f38934d6-59da-4d15-bcae-7d7b225d7cec","system_id":"levelo_inurba_marseille","lat":43.27323,"lon":5.39076,"is_reserved":false,"is_disabled":true,"rental_uris":{"android":"levelo://app?vid=f38934d6-59da-4d15-bcae-7d7b225d7cec","ios":"levelo://app?vid=f38934d6-59da-4d15-bcae-7d7b225d7cec"},"vehicle_type_id":"4","last_reported":1749831173,"current_range_meters":800,"station_id":"ce4bhgp2rcd13ifvqfe0","pricing_plan_id":"cebpf4jnsgd1na2vs0mg"},{"bike_id":"97776c50-68a0-486e-82c8-12d7c2539985","system_id":"levelo_inurba_marseille","lat":43.29538,"lon":5.38546,"is_reserved":false,"is_disabled":true,"rental_uris":{"android":"levelo://app?vid=97776c50-68a0-486e-82c8-12d7c2539985","ios":"levelo://app?vid=97776c50-68a0-486e-82c8-12d7c2539985"},"vehicle_type_id":"4","last_reported":1749831173,"current_range_meters":1200,"station_id":"ce4bgih2rcd13ifvqba0","pricing_plan_id":"cebpf4jnsgd1na2vs0mg"},{"bike_id":"374d7df0-eee1-4e6b-8ca3-9132023e84c3","system_id":"levelo_inurba_marseille","lat":43.30568,"lon":5.36508,"is_reserved":false,"is_disabled":true,"rental_uris":{"android":"levelo://app?vid=374d7df0-eee1-4e6b-8ca3-9132023e84c3","ios":"levelo://app?vid=374d7df0-eee1-4e6b-8ca3-9132023e84c3"},"vehicle_type_id":"4","last_reported":1749831173,"current_range_meters":1200,"station_id":"ce4bgs12rcd13ifvqcag","pricing_plan_id":"cebpf4jnsgd1na2vs0mg"},{"bike_id":"831d3ffd-7299-4149-878c-a9bacead5a78","system_id":"levelo_inurba_marseille","lat":43.304279,"lon":5.397422,"is_reserved":false,"is_disabled":true,"rental_uris":{"android":"levelo://app?vid=831d3ffd-7299-4149-878c-a9bacead5a78","ios":"levelo://app?vid=831d3ffd-7299-4149-878c-a9bacead5a78"},"vehicle_type_id":"4","last_reported":1749831173,"current_range_meters":1200,"station_id":"ce4bh092rcd13ifvqd20","pricing_plan_id":"cebpf4jnsgd1na2vs0mg"},{"bike_id":"46d00718-5356-4c83-a093-396dc2dd6c85","system_id":"levelo_inurba_marseille","lat":43.27895,"lon":5.37988,"is_reserved":false,"is_disabled":true,"rental_uris":{"android":"levelo://app?vid=46d00718-5356-4c83-a093-396dc2dd6c85","ios":"levelo://app?vid=46d00718-5356-4c83-a093-396dc2dd6c85"},"vehicle_type_id":"4","last_reported":1749831173,"current_range_meters":1200,"station_id":"ce4bhf92rcd13ifvqf50","pricing_plan_id":"cebpf4jnsgd1na2vs0mg"},{"bike_id":"8b45d34c-b848-416c-9a36-9581c0267580","system_id":"levelo_inurba_marseille","lat":43.26029,"lon":5.37549,"is_reserved":false,"is_disabled":true,"rental_uris":{"android":"levelo://app?vid=8b45d34c-b848-416c-9a36-9581c0267580","ios":"levelo://app?vid=8b45d34c-b848-416c-9a36-9581c0267580"},"vehicle_type_id":"4","last_reported":1749831173,"current_range_meters":1200,"station_id":"ce4bhgh2rcd13ifvqfa0","pricing_plan_id":"cebpf4jnsgd1na2vs0mg"},{"bike_id":"4a891bb4-ce58-4c6e-bb71-e08532355b22","system_id":"levelo_inurba_marseille","lat":43.32489,"lon":5.36551,"is_reserved":false,"is_disabled":true,"rental_uris":{"android":"levelo://app?vid=4a891bb4-ce58-4c6e-bb71-e08532355b22","ios":"levelo://app?vid=4a891bb4-ce58-4c6e-bb71-e08532355b22"},"vehicle_type_id":"4","last_reported":1749831173,"current_range_meters":1200,"station_id":"ce4bhs12rcd13ifvqhvg","pricing_plan_id":"cebpf4jnsgd1na2vs0mg"},{"bike_id":"77e86a9d-4a23-4874-b0f8-7237bb506814","system_id":"levelo_inurba_marseille","lat":43.30647,"lon":5.40104,"is_reserved":false,"is_disabled":true,"rental_uris":{"android":"levelo://app?vid=77e86a9d-4a23-4874-b0f8-7237bb506814","ios":"levelo://app?vid=77e86a9d-4a23-4874-b0f8-7237bb506814"},"vehicle_type_id":"4","last_reported":1749831173,"current_range_meters":1600,"station_id":"ce4bh112rcd13ifvqda0","pricing_plan_id":"cebpf4jnsgd1na2vs0mg"},{"bike_id":"61ea9073-c615-4aa5-9794-fc2fe11e5251","system_id":"levelo_inurba_marseille","lat":43.29521,"lon":5.39058,"is_reserved":false,"is_disabled":true,"rental_uris":{"android":"levelo://app?vid=61ea9073-c615-4aa5-9794-fc2fe11e5251","ios":"levelo://app?vid=61ea9073-c615-4aa5-9794-fc2fe11e5251"},"vehicle_type_id":"4","last_reported":1749831173,"current_range_meters":1600,"station_id":"ce4bh3p2rcd13ifvqdp0","pricing_plan_id":"cebpf4jnsgd1na2vs0mg"},{"bike_id":"8e108a83-e2bf-43e0-9b41-3765b051abd1","system_id":"levelo_inurba_marseille","lat":43.28047,"lon":5.34954,"is_reserved":false,"is_disabled":true,"rental_uris":{"android":"levelo://app?vid=8e108a83-e2bf-43e0-9b41-3765b051abd1","ios":"levelo://app?vid=8e108a83-e2bf-43e0-9b41-3765b051abd1"},"vehicle_type_id":"4","last_reported":1749831173,"current_range_meters":2000,"station_id":"","pricing_plan_id":"cebpf4jnsgd1na2vs0mg"},{"bike_id":"84da51ef-5d5b-4470-993b-cc5f0d5372da","system_id":"levelo_inurba_marseille","lat":43.29097,"lon":5.38124,"is_reserved":false,"is_disabled":false,"rental_uris":{"android":"levelo://app?vid=84da51ef-5d5b-4470-993b-cc5f0d5372da","ios":"levelo://app?vid=84da51ef-5d5b-4470-993b-cc5f0d5372da"},"vehicle_type_id":"4","last_reported":1749831173,"current_range_meters":2000,"station_id":"ce4bh512rcd13ifvqe2g","pricing_plan_id":"cebpf4jnsgd1na2vs0mg"},{"bike_id":"ba595de7-6b52-44c9-9688-3de48c34bfe4","system_id":"levelo_inurba_marseille","lat":43.27164,"lon":5.39046,"is_reserved":false,"is_disabled":false,"rental_uris":{"android":"levelo://app?vid=ba595de7-6b52-44c9-9688-3de48c34bfe4","ios":"levelo://app?vid=ba595de7-6b52-44c9-9688-3de48c34bfe4"},"vehicle_type_id":"4","last_reported":1749831173,"current_range_meters":2800,"station_id":"","pricing_plan_id":"cebpf4jnsgd1na2vs0mg"},{"bike_id":"1fa9e82c-9452-4802-a8e2-f71b57487a7f","system_id":"levelo_inurba_marseille","lat":43.2986,"lon":5.36275,"is_reserved":false,"is_disabled":false,"rental_uris":{"android":"levelo://app?vid=1fa9e82c-9452-4802-a8e2-f71b57487a7f","ios":"levelo://app?vid=1fa9e82c-9452-4802-a8e2-f71b57487a7f"},"vehicle_type_id":"4","last_reported":1749831173,"current_range_meters":2800,"station_id":"ce4bgpp2rcd13ifvqc3g","pricing_plan_id":"cebpf4jnsgd1na2vs0mg"},{"bike_id":"f0932e21-89e8-4cb5-8df5-0a5df5288286","system_id":"levelo_inurba_marseille","lat":43.28945,"lon":5.36639,"is_reserved":false,"is_disabled":false,"rental_uris":{"android":"levelo://app?vid=f0932e21-89e8-4cb5-8df5-0a5df5288286","ios":"levelo://app?vid=f0932e21-89e8-4cb5-8df5-0a5df5288286"},"vehicle_type_id":"4","last_reported":1749831173,"current_range_meters":2800,"station_id":"ce4bhap2rcd13ifvqek0","pricing_plan_id":"cebpf4jnsgd1na2vs0mg"},{"bike_id":"0f21b5ad-ca83-4b81-8c3e-5f0ed64b2a99","system_id":"levelo_inurba_marseille","lat":43.26959,"lon":5.3863,"is_reserved":false,"is_disabled":false,"rental_uris":{"android":"levelo://app?vid=0f21b5ad-ca83-4b81-8c3e-5f0ed64b2a99","ios":"levelo://app?vid=0f21b5ad-ca83-4b81-8c3e-5f0ed64b2a99"},"vehicle_type_id":"4","last_reported":1749831173,"current_range_meters":2800,"station_id":"ce4bhh92rcd13ifvqfh0","pricing_plan_id":"cebpf4jnsgd1na2vs0mg"},{"bike_id":"c2ccfd68-03df-432c-b362-1ba3d74ddc20","system_id":"levelo_inurba_marseille","lat":43.27886,"lon":5.37996,"is_reserved":false,"is_disabled":false,"rental_uris":{"android":"levelo://app?vid=c2ccfd68-03df-432c-b362-1ba3d74ddc20","ios":"levelo://app?vid=c2ccfd68-03df-432c-b362-1ba3d74ddc20"},"vehicle_type_id":"4","last_reported":1749831173,"current_range_meters":3200,"station_id":"ce4bhf92rcd13ifvqf50","pricing_plan_id":"cebpf4jnsgd1na2vs0mg"},{"bike_id":"00b44479-406e-4d03-87ce-5ed9982e173c","system_id":"levelo_inurba_marseille","lat":43.27566,"lon":5.38427,"is_reserved":false,"is_disabled":false,"rental_uris":{"android":"levelo://app?vid=00b44479-406e-4d03-87ce-5ed9982e173c","ios":"levelo://app?vid=00b44479-406e-4d03-87ce-5ed9982e173c"},"vehicle_type_id":"4","last_reported":1749831173,"current_range_meters":3200,"station_id":"ce4bhh92rcd13ifvqfi0","pricing_plan_id":"cebpf4jnsgd1na2vs0mg"},{"bike_id":"a8af9e80-3034-4150-b83e-b1eef5afee7c","system_id":"levelo_inurba_marseille","lat":43.243917,"lon":5.370608,"is_reserved":false,"is_disabled":false,"rental_uris":{"android":"levelo://app?vid=a8af9e80-3034-4150-b83e-b1eef5afee7c","ios":"levelo://app?vid=a8af9e80-3034-4150-b83e-b1eef5afee7c"},"vehicle_type_id":"4","last_reported":1749831173,"current_range_meters":3600,"station_id":"ce4bhhh2rcd13ifvqfk0","pricing_plan_id":"cebpf4jnsgd1na2vs0mg"},{"bike_id":"cf104186-4c04-4be4-9ee2-4d4b1fa68fbd","system_id":"levelo_inurba_marseille","lat":43.25112,"lon":5.40328,"is_reserved":false,"is_disabled":false,"rental_uris":{"android":"levelo://app?vid=cf104186-4c04-4be4-9ee2-4d4b1fa68fbd","ios":"levelo://app?vid=cf104186-4c04-4be4-9ee2-4d4b1fa68fbd"},"vehicle_type_id":"4","last_reported":1749831173,"current_range_meters":3600,"station_id":"ce4bhlh2rcd13ifvqgig","pricing_plan_id":"cebpf4jnsgd1na2vs0mg"},{"bike_id":"36bb6181-813c-45d6-b75b-69b665d97c99","system_id":"levelo_inurba_marseille","lat":43.28662,"lon":5.35174,"is_reserved":false,"is_disabled":false,"rental_uris":{"android":"levelo://app?vid=36bb6181-813c-45d6-b75b-69b665d97c99","ios":"levelo://app?vid=36bb6181-813c-45d6-b75b-69b665d97c99"},"vehicle_type_id":"4","last_reported":1749831173,"current_range_meters":4000,"station_id":"","pricing_plan_id":"cebpf4jnsgd1na2vs0mg"},{"bike_id":"4b3dc6a8-e96e-42da-92f1-eb1a218979c1","system_id":"levelo_inurba_marseille","lat":43.308,"lon":5.38161,"is_reserved":false,"is_disabled":false,"rental_uris":{"android":"levelo://app?vid=4b3dc6a8-e96e-42da-92f1-eb1a218979c1","ios":"levelo://app?vid=4b3dc6a8-e96e-42da-92f1-eb1a218979c1"},"vehicle_type_id":"4","last_reported":1749831173,"current_range_meters":4000,"station_id":"ce4bgt12rcd13ifvqce0","pricing_plan_id":"cebpf4jnsgd1na2vs0mg"},{"bike_id":"4bf44686-accd-49b8-a645-3faafbacc2db","system_id":"levelo_inurba_marseille","lat":43.24396,"lon":5.37056,"is_reserved":false,"is_disabled":false,"rental_uris":{"android":"levelo://app?vid=4bf44686-accd-49b8-a645-3faafbacc2db","ios":"levelo://app?vid=4bf44686-accd-49b8-a645-3faafbacc2db"},"vehicle_type_id":"4","last_reported":1749831173,"current_range_meters":4000,"station_id":"ce4bhhh2rcd13ifvqfk0","pricing_plan_id":"cebpf4jnsgd1na2vs0mg"},{"bike_id":"fc93e0d0-de0c-4d7b-9f5d-17576eca3a47","system_id":"levelo_inurba_marseille","lat":43.31885,"lon":5.40739,"is_reserved":false,"is_disabled":false,"rental_uris":{"android":"levelo://app?vid=fc93e0d0-de0c-4d7b-9f5d-17576eca3a47","ios":"levelo://app?vid=fc93e0d0-de0c-4d7b-9f5d-17576eca3a47"},"vehicle_type_id":"4","last_reported":1749831173,"current_range_meters":4000,"station_id":"ce4bhq12rcd13ifvqhig","pricing_plan_id":"cebpf4jnsgd1na2vs0mg"},{"bike_id":"97c77fac-f65d-4f38-80c7-ae741574904e","system_id":"levelo_inurba_marseille","lat":43.23066,"lon":5.35497,"is_reserved":false,"is_disabled":false,"rental_uris":{"android":"levelo://app?vid=97c77fac-f65d-4f38-80c7-ae741574904e","ios":"levelo://app?vid=97c77fac-f65d-4f38-80c7-ae741574904e"},"vehicle_type_id":"4","last_reported":1749831173,"current_range_meters":4000,"station_id":"cpo3342slgdg3j2ifvpg","pricing_plan_id":"cebpf4jnsgd1na2vs0mg"},{"bike_id":"5e427bc2-1177-483e-9f17-81297759ec05","system_id":"levelo_inurba_marseille","lat":43.27934,"lon":5.37929,"is_reserved":false,"is_disabled":false,"rental_uris":{"android":"levelo://app?vid=5e427bc2-1177-483e-9f17-81297759ec05","ios":"levelo://app?vid=5e427bc2-1177-483e-9f17-81297759ec05"},"vehicle_type_id":"4","last_reported":1749831173,"current_range_meters":4400,"station_id":"","pricing_plan_id":"cebpf4jnsgd1na2vs0mg"},{"bike_id":"b23f62da-4228-4d19-a331-7478ef346471","system_id":"levelo_inurba_marseille","lat":43.26255,"lon":5.38773,"is_reserved":false,"is_disabled":false,"rental_uris":{"android":"levelo://app?vid=b23f62da-4228-4d19-a331-7478ef346471","ios":"levelo://app?vid=b23f62da-4228-4d19-a331-7478ef346471"},"vehicle_type_id":"4","last_reported":1749831173,"current_range_meters":4800,"station_id":"","pricing_plan_id":"cebpf4jnsgd1na2vs0mg"},{"bike_id":"e6829bd9-4029-4e0b-b0dc-325db8d54507","system_id":"levelo_inurba_marseille","lat":43.27424,"lon":5.39413,"is_reserved":false,"is_disabled":false,"rental_uris":{"android":"levelo://app?vid=e6829bd9-4029-4e0b-b0dc-325db8d54507","ios":"levelo://app?vid=e6829bd9-4029-4e0b-b0dc-325db8d54507"},"vehicle_type_id":"4","last_reported":1749831173,"current_range_meters":4800,"station_id":"ce4bhdp2rcd13ifvqf20","pricing_plan_id":"cebpf4jnsgd1na2vs0mg"},{"bike_id":"35e032d2-25f3-44da-b9dd-9841c9be8b51","system_id":"levelo_inurba_marseille","lat":43.27909,"lon":5.38018,"is_reserved":false,"is_disabled":false,"rental_uris":{"android":"levelo://app?vid=35e032d2-25f3-44da-b9dd-9841c9be8b51","ios":"levelo://app?vid=35e032d2-25f3-44da-b9dd-9841c9be8b51"},"vehicle_type_id":"4","last_reported":1749831173,"current_range_meters":4800,"station_id":"ce4bhf92rcd13ifvqf50","pricing_plan_id":"cebpf4jnsgd1na2vs0mg"},{"bike_id":"d2e4b8c1-23d6-49e3-b7ee-e820d09deb4d","system_id":"levelo_inurba_marseille","lat":43.30251,"lon":5.40065,"is_reserved":false,"is_disabled":false,"rental_uris":{"android":"levelo://app?vid=d2e4b8c1-23d6-49e3-b7ee-e820d09deb4d","ios":"levelo://app?vid=d2e4b8c1-23d6-49e3-b7ee-e820d09deb4d"},"vehicle_type_id":"4","last_reported":1749831173,"current_range_meters":5600,"station_id":"ce4bgvh2rcd13ifvqcs0","pricing_plan_id":"cebpf4jnsgd1na2vs0mg"},{"bike_id":"aa7e7dbe-3f83-4803-bf55-3fe3bb54318a","system_id":"levelo_inurba_marseille","lat":43.29524,"lon":5.39038,"is_reserved":false,"is_disabled":false,"rental_uris":{"android":"levelo://app?vid=aa7e7dbe-3f83-4803-bf55-3fe3bb54318a","ios":"levelo://app?vid=aa7e7dbe-3f83-4803-bf55-3fe3bb54318a"},"vehicle_type_id":"4","last_reported":1749831173,"current_range_meters":5600,"station_id":"ce4bh3p2rcd13ifvqdp0","pricing_plan_id":"cebpf4jnsgd1na2vs0mg"},{"bike_id":"f693520b-a703-439a-8e20-e615d33eeb9f","system_id":"levelo_inurba_marseille","lat":43.27493,"lon":5.42451,"is_reserved":false,"is_disabled":false,"rental_uris":{"android":"levelo://app?vid=f693520b-a703-439a-8e20-e615d33eeb9f","ios":"levelo://app?vid=f693520b-a703-439a-8e20-e615d33eeb9f"},"vehicle_type_id":"4","last_reported":1749831173,"current_range_meters":5600,"station_id":"ce4bhn92rcd13ifvqgrg","pricing_plan_id":"cebpf4jnsgd1na2vs0mg"},{"bike_id":"a723320b-1d89-4fa5-8670-f4c6d7c71a5c","system_id":"levelo_inurba_marseille","lat":43.26944,"lon":5.4025,"is_reserved":false,"is_disabled":false,"rental_uris":{"android":"levelo://app?vid=a723320b-1d89-4fa5-8670-f4c6d7c71a5c","ios":"levelo://app?vid=a723320b-1d89-4fa5-8670-f4c6d7c71a5c"},"vehicle_type_id":"4","last_reported":1749831173,"current_range_meters":6000,"station_id":"cjm6bp8fraef2m0cb0m0","pricing_plan_id":"cebpf4jnsgd1na2vs0mg"},{"bike_id":"b24893dd-461e-48f0-9a2a-0007ac044b3c","system_id":"levelo_inurba_marseille","lat":43.26365,"lon":5.3782,"is_reserved":false,"is_disabled":false,"rental_uris":{"android":"levelo://app?vid=b24893dd-461e-48f0-9a2a-0007ac044b3c","ios":"levelo://app?vid=b24893dd-461e-48f0-9a2a-0007ac044b3c"},"vehicle_type_id":"4","last_reported":1749831173,"current_range_meters":6400,"station_id":"","pricing_plan_id":"cebpf4jnsgd1na2vs0mg"},{"bike_id":"a426bcb6-9733-433a-b425-ccc13f254a65","system_id":"levelo_inurba_marseille","lat":43.29574,"lon":5.44252,"is_reserved":false,"is_disabled":false,"rental_uris":{"android":"levelo://app?vid=a426bcb6-9733-433a-b425-ccc13f254a65","ios":"levelo://app?vid=a426bcb6-9733-433a-b425-ccc13f254a65"},"vehicle_type_id":"4","last_reported":1749831173,"current_range_meters":6800,"station_id":"","pricing_plan_id":"cebpf4jnsgd1na2vs0mg"},{"bike_id":"501fe5cc-ec9f-4031-8e12-9c9a87dfd25d","system_id":"levelo_inurba_marseille","lat":43.31773,"lon":5.40598,"is_reserved":false,"is_disabled":false,"rental_uris":{"android":"levelo://app?vid=501fe5cc-ec9f-4031-8e12-9c9a87dfd25d","ios":"levelo://app?vid=501fe5cc-ec9f-4031-8e12-9c9a87dfd25d"},"vehicle_type_id":"4","last_reported":1749831173,"current_range_meters":6800,"station_id":"","pricing_plan_id":"cebpf4jnsgd1na2vs0mg"},{"bike_id":"ef4d3959-491b-4449-a7f0-cde6e67e1704","system_id":"levelo_inurba_marseille","lat":43.26582,"lon":5.373368,"is_reserved":false,"is_disabled":false,"rental_uris":{"android":"levelo://app?vid=ef4d3959-491b-4449-a7f0-cde6e67e1704","ios":"levelo://app?vid=ef4d3959-491b-4449-a7f0-cde6e67e1704"},"vehicle_type_id":"4","last_reported":1749831173,"current_range_meters":6800,"station_id":"ce4bhg12rcd13ifvqf70","pricing_plan_id":"cebpf4jnsgd1na2vs0mg"},{"bike_id":"b0c2fb24-752f-4b8c-bdb3-1aaf71ebb026","system_id":"levelo_inurba_marseille","lat":43.2815,"lon":5.42648,"is_reserved":false,"is_disabled":false,"rental_uris":{"android":"levelo://app?vid=b0c2fb24-752f-4b8c-bdb3-1aaf71ebb026","ios":"levelo://app?vid=b0c2fb24-752f-4b8c-bdb3-1aaf71ebb026"},"vehicle_type_id":"4","last_reported":1749831173,"current_range_meters":6800,"station_id":"ce4bhnh2rcd13ifvqgug","pricing_plan_id":"cebpf4jnsgd1na2vs0mg"},{"bike_id":"70a26471-70d7-4886-b2ba-39063f9abd73","system_id":"levelo_inurba_marseille","lat":43.21191,"lon":5.35071,"is_reserved":false,"is_disabled":false,"rental_uris":{"android":"levelo://app?vid=70a26471-70d7-4886-b2ba-39063f9abd73","ios":"levelo://app?vid=70a26471-70d7-4886-b2ba-39063f9abd73"},"vehicle_type_id":"4","last_reported":1749831173,"current_range_meters":6800,"station_id":"st_cvj6sg6p6f1abm77japg","pricing_plan_id":"cebpf4jnsgd1na2vs0mg"},{"bike_id":"a25b84b4-c252-4eda-97fb-1a1f22303c5d","system_id":"levelo_inurba_marseille","lat":43.31375,"lon":5.37436,"is_reserved":false,"is_disabled":false,"rental_uris":{"android":"levelo://app?vid=a25b84b4-c252-4eda-97fb-1a1f22303c5d","ios":"levelo://app?vid=a25b84b4-c252-4eda-97fb-1a1f22303c5d"},"vehicle_type_id":"4","last_reported":1749831173,"current_range_meters":7200,"station_id":"","pricing_plan_id":"cebpf4jnsgd1na2vs0mg"},{"bike_id":"41099562-77e1-4228-bb3f-012995b3f8de","system_id":"levelo_inurba_marseille","lat":43.3033,"lon":5.4044,"is_reserved":false,"is_disabled":false,"rental_uris":{"android":"levelo://app?vid=41099562-77e1-4228-bb3f-012995b3f8de","ios":"levelo://app?vid=41099562-77e1-4228-bb3f-012995b3f8de"},"vehicle_type_id":"4","last_reported":1749831173,"current_range_meters":7200,"station_id":"ce4bh012rcd13ifvqd10","pricing_plan_id":"cebpf4jnsgd1na2vs0mg"},{"bike_id":"42a0e456-4465-4562-bc7c-a47fca8a7d36","system_id":"levelo_inurba_marseille","lat":43.26212,"lon":5.37443,"is_reserved":false,"is_disabled":false,"rental_uris":{"android":"levelo://app?vid=42a0e456-4465-4562-bc7c-a47fca8a7d36","ios":"levelo://app?vid=42a0e456-4465-4562-bc7c-a47fca8a7d36"},"vehicle_type_id":"4","last_reported":1749831173,"current_range_meters":7200,"station_id":"ce4bhgp2rcd13ifvqfc0","pricing_plan_id":"cebpf4jnsgd1na2vs0mg"},{"bike_id":"eee36f74-8fb5-4605-be41-1c869d6e7398","system_id":"levelo_inurba_marseille","lat":43.321076,"lon":5.367683,"is_reserved":false,"is_disabled":false,"rental_uris":{"android":"levelo://app?vid=eee36f74-8fb5-4605-be41-1c869d6e7398","ios":"levelo://app?vid=eee36f74-8fb5-4605-be41-1c869d6e7398"},"vehicle_type_id":"4","last_reported":1749831173,"current_range_meters":7200,"station_id":"ce4bhrh2rcd13ifvqhug","pricing_plan_id":"cebpf4jnsgd1na2vs0mg"},{"bike_id":"97421c04-2630-4fc1-9da9-b17d88602c5f","system_id":"levelo_inurba_marseille","lat":43.337682,"lon":5.374519,"is_reserved":false,"is_disabled":false,"rental_uris":{"android":"levelo://app?vid=97421c04-2630-4fc1-9da9-b17d88602c5f","ios":"levelo://app?vid=97421c04-2630-4fc1-9da9-b17d88602c5f"},"vehicle_type_id":"4","last_reported":1749831173,"current_range_meters":8000,"station_id":"","pricing_plan_id":"cebpf4jnsgd1na2vs0mg"},{"bike_id":"388e1a3e-45cd-4957-a7cc-6417b527bb1a","system_id":"levelo_inurba_marseille","lat":43.30316,"lon":5.4043,"is_reserved":false,"is_disabled":false,"rental_uris":{"android":"levelo://app?vid=388e1a3e-45cd-4957-a7cc-6417b527bb1a","ios":"levelo://app?vid=388e1a3e-45cd-4957-a7cc-6417b527bb1a"},"vehicle_type_id":"4","last_reported":1749831173,"current_range_meters":8000,"station_id":"ce4bh012rcd13ifvqd10","pricing_plan_id":"cebpf4jnsgd1na2vs0mg"},{"bike_id":"6804c3c2-9cdb-4257-a6cf-a5c130f3e726","system_id":"levelo_inurba_marseille","lat":43.23964,"lon":5.36622,"is_reserved":false,"is_disabled":false,"rental_uris":{"android":"levelo://app?vid=6804c3c2-9cdb-4257-a6cf-a5c130f3e726","ios":"levelo://app?vid=6804c3c2-9cdb-4257-a6cf-a5c130f3e726"},"vehicle_type_id":"4","last_reported":1749831173,"current_range_meters":8000,"station_id":"ce4bhi12rcd13ifvqfp0","pricing_plan_id":"cebpf4jnsgd1na2vs0mg"},{"bike_id":"1268e070-f02d-4537-93df-0bfd5c4daa05","system_id":"levelo_inurba_marseille","lat":43.32693,"lon":5.37641,"is_reserved":false,"is_disabled":false,"rental_uris":{"android":"levelo://app?vid=1268e070-f02d-4537-93df-0bfd5c4daa05","ios":"levelo://app?vid=1268e070-f02d-4537-93df-0bfd5c4daa05"},"vehicle_type_id":"4","last_reported":1749831173,"current_range_meters":8400,"station_id":"","pricing_plan_id":"cebpf4jnsgd1na2vs0mg"},{"bike_id":"8d60347d-541c-40fb-90ca-203bf6bd520a","system_id":"levelo_inurba_marseille","lat":43.271213,"lon":5.363966,"is_reserved":false,"is_disabled":false,"rental_uris":{"android":"levelo://app?vid=8d60347d-541c-40fb-90ca-203bf6bd520a","ios":"levelo://app?vid=8d60347d-541c-40fb-90ca-203bf6bd520a"},"vehicle_type_id":"4","last_reported":1749831173,"current_range_meters":8400,"station_id":"","pricing_plan_id":"cebpf4jnsgd1na2vs0mg"},{"bike_id":"5b0508f4-15a7-4a0e-b8db-44536d8e89c4","system_id":"levelo_inurba_marseille","lat":43.26197,"lon":5.37452,"is_reserved":false,"is_disabled":false,"rental_uris":{"android":"levelo://app?vid=5b0508f4-15a7-4a0e-b8db-44536d8e89c4","ios":"levelo://app?vid=5b0508f4-15a7-4a0e-b8db-44536d8e89c4"},"vehicle_type_id":"4","last_reported":1749831173,"current_range_meters":8400,"station_id":"ce4bhgp2rcd13ifvqfc0","pricing_plan_id":"cebpf4jnsgd1na2vs0mg"},{"bike_id":"1781a774-0ee2-47ac-a687-70e252fb94d8","system_id":"levelo_inurba_marseille","lat":43.25112,"lon":5.40319,"is_reserved":false,"is_disabled":false,"rental_uris":{"android":"levelo://app?vid=1781a774-0ee2-47ac-a687-70e252fb94d8","ios":"levelo://app?vid=1781a774-0ee2-47ac-a687-70e252fb94d8"},"vehicle_type_id":"4","last_reported":1749831173,"current_range_meters":8400,"station_id":"ce4bhlh2rcd13ifvqgig","pricing_plan_id":"cebpf4jnsgd1na2vs0mg"},{"bike_id":"5d9c4594-b8c2-4889-9e31-da1cb8d0bc2e","system_id":"levelo_inurba_marseille","lat":43.22949,"lon":5.35376,"is_reserved":false,"is_disabled":false,"rental_uris":{"android":"levelo://app?vid=5d9c4594-b8c2-4889-9e31-da1cb8d0bc2e","ios":"levelo://app?vid=5d9c4594-b8c2-4889-9e31-da1cb8d0bc2e"},"vehicle_type_id":"4","last_reported":1749831173,"current_range_meters":8400,"station_id":"cpo3532slgdg3j2ikp40","pricing_plan_id":"cebpf4jnsgd1na2vs0mg"},{"bike_id":"5f977929-ccb4-449a-8fdc-f2bf323c78e2","system_id":"levelo_inurba_marseille","lat":43.24185,"lon":5.36398,"is_reserved":false,"is_disabled":false,"rental_uris":{"android":"levelo://app?vid=5f977929-ccb4-449a-8fdc-f2bf323c78e2","ios":"levelo://app?vid=5f977929-ccb4-449a-8fdc-f2bf323c78e2"},"vehicle_type_id":"4","last_reported":1749831173,"current_range_meters":8400,"station_id":"cpo36qri1sfpv3e86is0","pricing_plan_id":"cebpf4jnsgd1na2vs0mg"},{"bike_id":"f7ea5a1c-2a23-42b5-92eb-8e05bc4f0d28","system_id":"levelo_inurba_marseille","lat":43.26213,"lon":5.37444,"is_reserved":false,"is_disabled":false,"rental_uris":{"android":"levelo://app?vid=f7ea5a1c-2a23-42b5-92eb-8e05bc4f0d28","ios":"levelo://app?vid=f7ea5a1c-2a23-42b5-92eb-8e05bc4f0d28"},"vehicle_type_id":"4","last_reported":1749831173,"current_range_meters":9200,"station_id":"ce4bhgp2rcd13ifvqfc0","pricing_plan_id":"cebpf4jnsgd1na2vs0mg"},{"bike_id":"3a11c5a8-e636-4a8e-97c5-5f95a0b7cfbb","system_id":"levelo_inurba_marseille","lat":43.337728,"lon":5.392066,"is_reserved":false,"is_disabled":false,"rental_uris":{"android":"levelo://app?vid=3a11c5a8-e636-4a8e-97c5-5f95a0b7cfbb","ios":"levelo://app?vid=3a11c5a8-e636-4a8e-97c5-5f95a0b7cfbb"},"vehicle_type_id":"4","last_reported":1749831173,"current_range_meters":9600,"station_id":"","pricing_plan_id":"cebpf4jnsgd1na2vs0mg"},{"bike_id":"efef7ea9-dfe7-4a71-9a42-eb2cee9bc37e","system_id":"levelo_inurba_marseille","lat":43.31198,"lon":5.3723,"is_reserved":false,"is_disabled":false,"rental_uris":{"android":"levelo://app?vid=efef7ea9-dfe7-4a71-9a42-eb2cee9bc37e","ios":"levelo://app?vid=efef7ea9-dfe7-4a71-9a42-eb2cee9bc37e"},"vehicle_type_id":"4","last_reported":1749831173,"current_range_meters":9600,"station_id":"","pricing_plan_id":"cebpf4jnsgd1na2vs0mg"},{"bike_id":"e5ef7447-82af-477b-846f-d44631249354","system_id":"levelo_inurba_marseille","lat":43.32487,"lon":5.38832,"is_reserved":false,"is_disabled":false,"rental_uris":{"android":"levelo://app?vid=e5ef7447-82af-477b-846f-d44631249354","ios":"levelo://app?vid=e5ef7447-82af-477b-846f-d44631249354"},"vehicle_type_id":"4","last_reported":1749831173,"current_range_meters":9600,"station_id":"","pricing_plan_id":"cebpf4jnsgd1na2vs0mg"},{"bike_id":"092c36e3-ab84-42d6-b134-ecb3844c5258","system_id":"levelo_inurba_marseille","lat":43.28406,"lon":5.34994,"is_reserved":false,"is_disabled":false,"rental_uris":{"android":"levelo://app?vid=092c36e3-ab84-42d6-b134-ecb3844c5258","ios":"levelo://app?vid=092c36e3-ab84-42d6-b134-ecb3844c5258"},"vehicle_type_id":"4","last_reported":1749831173,"current_range_meters":9600,"station_id":"ce4bhbh2rcd13ifvqepg","pricing_plan_id":"cebpf4jnsgd1na2vs0mg"},{"bike_id":"97378f93-3cba-499f-9cd5-878dce555fa2","system_id":"levelo_inurba_marseille","lat":43.26217,"lon":5.37437,"is_reserved":false,"is_disabled":false,"rental_uris":{"android":"levelo://app?vid=97378f93-3cba-499f-9cd5-878dce555fa2","ios":"levelo://app?vid=97378f93-3cba-499f-9cd5-878dce555fa2"},"vehicle_type_id":"4","last_reported":1749831173,"current_range_meters":9600,"station_id":"ce4bhgp2rcd13ifvqfc0","pricing_plan_id":"cebpf4jnsgd1na2vs0mg"},{"bike_id":"d3172760-3719-4caf-b557-1b0794596bd1","system_id":"levelo_inurba_marseille","lat":43.28461,"lon":5.35883,"is_reserved":false,"is_disabled":false,"rental_uris":{"android":"levelo://app?vid=d3172760-3719-4caf-b557-1b0794596bd1","ios":"levelo://app?vid=d3172760-3719-4caf-b557-1b0794596bd1"},"vehicle_type_id":"4","last_reported":1749831173,"current_range_meters":10000,"station_id":"ce4bhah2rcd13ifvqei0","pricing_plan_id":"cebpf4jnsgd1na2vs0mg"},{"bike_id":"1a5bde47-bf3b-4cd4-b091-da658f66aa67","system_id":"levelo_inurba_marseille","lat":43.32536,"lon":5.41465,"is_reserved":false,"is_disabled":false,"rental_uris":{"android":"levelo://app?vid=1a5bde47-bf3b-4cd4-b091-da658f66aa67","ios":"levelo://app?vid=1a5bde47-bf3b-4cd4-b091-da658f66aa67"},"vehicle_type_id":"4","last_reported":1749831173,"current_range_meters":10000,"station_id":"ce4bhq12rcd13ifvqhhg","pricing_plan_id":"cebpf4jnsgd1na2vs0mg"},{"bike_id":"41902e46-3363-402b-89a9-77321257c96b","system_id":"levelo_inurba_marseille","lat":43.32352,"lon":5.36585,"is_reserved":false,"is_disabled":false,"rental_uris":{"android":"levelo://app?vid=41902e46-3363-402b-89a9-77321257c96b","ios":"levelo://app?vid=41902e46-3363-402b-89a9-77321257c96b"},"vehicle_type_id":"4","last_reported":1749831173,"current_range_meters":10800,"station_id":"ce4bhs12rcd13ifvqhvg","pricing_plan_id":"cebpf4jnsgd1na2vs0mg"},{"bike_id":"78e4331f-c67f-4812-a1cf-4af0acc5e2d6","system_id":"levelo_inurba_marseille","lat":43.323754,"lon":5.367683,"is_reserved":false,"is_disabled":false,"rental_uris":{"android":"levelo://app?vid=78e4331f-c67f-4812-a1cf-4af0acc5e2d6","ios":"levelo://app?vid=78e4331f-c67f-4812-a1cf-4af0acc5e2d6"},"vehicle_type_id":"4","last_reported":1749831173,"current_range_meters":10800,"station_id":"ce4bhsh2rcd13ifvqi2g","pricing_plan_id":"cebpf4jnsgd1na2vs0mg"},{"bike_id":"5b4f4be1-8774-4bbe-a656-f962745295cc","system_id":"levelo_inurba_marseille","lat":43.21753,"lon":5.34594,"is_reserved":false,"is_disabled":false,"rental_uris":{"android":"levelo://app?vid=5b4f4be1-8774-4bbe-a656-f962745295cc","ios":"levelo://app?vid=5b4f4be1-8774-4bbe-a656-f962745295cc"},"vehicle_type_id":"4","last_reported":1749831173,"current_range_meters":10800,"station_id":"st_cvj6r9ubvosntc0bgbag","pricing_plan_id":"cebpf4jnsgd1na2vs0mg"},{"bike_id":"346f3f80-6b15-4406-b905-bb78596f5bac","system_id":"levelo_inurba_marseille","lat":43.32385,"lon":5.36745,"is_reserved":false,"is_disabled":false,"rental_uris":{"android":"levelo://app?vid=346f3f80-6b15-4406-b905-bb78596f5bac","ios":"levelo://app?vid=346f3f80-6b15-4406-b905-bb78596f5bac"},"vehicle_type_id":"4","last_reported":1749831173,"current_range_meters":11200,"station_id":"","pricing_plan_id":"cebpf4jnsgd1na2vs0mg"},{"bike_id":"31f9feaa-43c3-46ec-9260-e27369d058bc","system_id":"levelo_inurba_marseille","lat":43.28407,"lon":5.34996,"is_reserved":false,"is_disabled":false,"rental_uris":{"android":"levelo://app?vid=31f9feaa-43c3-46ec-9260-e27369d058bc","ios":"levelo://app?vid=31f9feaa-43c3-46ec-9260-e27369d058bc"},"vehicle_type_id":"4","last_reported":1749831173,"current_range_meters":11200,"station_id":"ce4bhbh2rcd13ifvqepg","pricing_plan_id":"cebpf4jnsgd1na2vs0mg"},{"bike_id":"525def40-2923-4243-9313-78463db1e611","system_id":"levelo_inurba_marseille","lat":43.269436,"lon":5.386363,"is_reserved":false,"is_disabled":false,"rental_uris":{"android":"levelo://app?vid=525def40-2923-4243-9313-78463db1e611","ios":"levelo://app?vid=525def40-2923-4243-9313-78463db1e611"},"vehicle_type_id":"4","last_reported":1749831173,"current_range_meters":11200,"station_id":"ce4bhh92rcd13ifvqfh0","pricing_plan_id":"cebpf4jnsgd1na2vs0mg"},{"bike_id":"ed6aa713-2f8d-4c75-be9d-f27e5adc4662","system_id":"levelo_inurba_marseille","lat":43.29254,"lon":5.40901,"is_reserved":false,"is_disabled":false,"rental_uris":{"android":"levelo://app?vid=ed6aa713-2f8d-4c75-be9d-f27e5adc4662","ios":"levelo://app?vid=ed6aa713-2f8d-4c75-be9d-f27e5adc4662"},"vehicle_type_id":"4","last_reported":1749831173,"current_range_meters":11600,"station_id":"ce4bh192rcd13ifvqdc0","pricing_plan_id":"cebpf4jnsgd1na2vs0mg"},{"bike_id":"0ea252cb-e427-4f44-8948-3d1d5f3342ac","system_id":"levelo_inurba_marseille","lat":43.32462,"lon":5.36569,"is_reserved":false,"is_disabled":false,"rental_uris":{"android":"levelo://app?vid=0ea252cb-e427-4f44-8948-3d1d5f3342ac","ios":"levelo://app?vid=0ea252cb-e427-4f44-8948-3d1d5f3342ac"},"vehicle_type_id":"4","last_reported":1749831173,"current_range_meters":11600,"station_id":"ce4bhs12rcd13ifvqhvg","pricing_plan_id":"cebpf4jnsgd1na2vs0mg"},{"bike_id":"6213e075-56c2-4b65-a847-77431fe60e66","system_id":"levelo_inurba_marseille","lat":43.28417,"lon":5.34995,"is_reserved":false,"is_disabled":false,"rental_uris":{"android":"levelo://app?vid=6213e075-56c2-4b65-a847-77431fe60e66","ios":"levelo://app?vid=6213e075-56c2-4b65-a847-77431fe60e66"},"vehicle_type_id":"4","last_reported":1749831173,"current_range_meters":12000,"station_id":"ce4bhbh2rcd13ifvqepg","pricing_plan_id":"cebpf4jnsgd1na2vs0mg"},{"bike_id":"14becba6-a229-4136-8048-45e3b3d0cf03","system_id":"levelo_inurba_marseille","lat":43.28276,"lon":5.35088,"is_reserved":false,"is_disabled":false,"rental_uris":{"android":"levelo://app?vid=14becba6-a229-4136-8048-45e3b3d0cf03","ios":"levelo://app?vid=14becba6-a229-4136-8048-45e3b3d0cf03"},"vehicle_type_id":"4","last_reported":1749831173,"current_range_meters":12000,"station_id":"ce4bhbp2rcd13ifvqerg","pricing_plan_id":"cebpf4jnsgd1na2vs0mg"},{"bike_id":"87251a4d-b10a-4503-81d5-c63c79e47f2a","system_id":"levelo_inurba_marseille","lat":43.28619,"lon":5.35099,"is_reserved":false,"is_disabled":false,"rental_uris":{"android":"levelo://app?vid=87251a4d-b10a-4503-81d5-c63c79e47f2a","ios":"levelo://app?vid=87251a4d-b10a-4503-81d5-c63c79e47f2a"},"vehicle_type_id":"4","last_reported":1749831173,"current_range_meters":12000,"station_id":"ce4bhch2rcd13ifvqeug","pricing_plan_id":"cebpf4jnsgd1na2vs0mg"},{"bike_id":"66ef3741-7643-4775-9c4b-d58ed8f7406b","system_id":"levelo_inurba_marseille","lat":43.2791,"lon":5.38009,"is_reserved":false,"is_disabled":false,"rental_uris":{"android":"levelo://app?vid=66ef3741-7643-4775-9c4b-d58ed8f7406b","ios":"levelo://app?vid=66ef3741-7643-4775-9c4b-d58ed8f7406b"},"vehicle_type_id":"4","last_reported":1749831173,"current_range_meters":12000,"station_id":"ce4bhf92rcd13ifvqf50","pricing_plan_id":"cebpf4jnsgd1na2vs0mg"},{"bike_id":"a04c9cbd-ce09-4b21-bfb3-e31666f9f958","system_id":"levelo_inurba_marseille","lat":43.23972,"lon":5.36621,"is_reserved":false,"is_disabled":false,"rental_uris":{"android":"levelo://app?vid=a04c9cbd-ce09-4b21-bfb3-e31666f9f958","ios":"levelo://app?vid=a04c9cbd-ce09-4b21-bfb3-e31666f9f958"},"vehicle_type_id":"4","last_reported":1749831173,"current_range_meters":12000,"station_id":"ce4bhi12rcd13ifvqfp0","pricing_plan_id":"cebpf4jnsgd1na2vs0mg"},{"bike_id":"db5f4ba5-aecd-409b-af5b-416a607f782f","system_id":"levelo_inurba_marseille","lat":43.25113,"lon":5.40324,"is_reserved":false,"is_disabled":false,"rental_uris":{"android":"levelo://app?vid=db5f4ba5-aecd-409b-af5b-416a607f782f","ios":"levelo://app?vid=db5f4ba5-aecd-409b-af5b-416a607f782f"},"vehicle_type_id":"4","last_reported":1749831173,"current_range_meters":12000,"station_id":"ce4bhlh2rcd13ifvqgig","pricing_plan_id":"cebpf4jnsgd1na2vs0mg"},{"bike_id":"9ae0e6a4-e54f-4a0d-babf-1adedfb68f40","system_id":"levelo_inurba_marseille","lat":43.24071,"lon":5.37765,"is_reserved":false,"is_disabled":false,"rental_uris":{"android":"levelo://app?vid=9ae0e6a4-e54f-4a0d-babf-1adedfb68f40","ios":"levelo://app?vid=9ae0e6a4-e54f-4a0d-babf-1adedfb68f40"},"vehicle_type_id":"4","last_reported":1749831173,"current_range_meters":12000,"station_id":"ce4bhnp2rcd13ifvqgvg","pricing_plan_id":"cebpf4jnsgd1na2vs0mg"},{"bike_id":"c00adbf4-9246-42eb-9636-58e566f306bc","system_id":"levelo_inurba_marseille","lat":43.286125,"lon":5.370685,"is_reserved":false,"is_disabled":false,"rental_uris":{"android":"levelo://app?vid=c00adbf4-9246-42eb-9636-58e566f306bc","ios":"levelo://app?vid=c00adbf4-9246-42eb-9636-58e566f306bc"},"vehicle_type_id":"4","last_reported":1749831173,"current_range_meters":12000,"station_id":"ce4bht12rcd13ifvqi60","pricing_plan_id":"cebpf4jnsgd1na2vs0mg"},{"bike_id":"6facbc0d-f1b5-4dc3-86d4-5c1204834925","system_id":"levelo_inurba_marseille","lat":43.28074,"lon":5.34799,"is_reserved":false,"is_disabled":false,"rental_uris":{"android":"levelo://app?vid=6facbc0d-f1b5-4dc3-86d4-5c1204834925","ios":"levelo://app?vid=6facbc0d-f1b5-4dc3-86d4-5c1204834925"},"vehicle_type_id":"4","last_reported":1749831173,"current_range_meters":12400,"station_id":"","pricing_plan_id":"cebpf4jnsgd1na2vs0mg"},{"bike_id":"ad65f101-1c5d-45e6-be33-62417a01a3ae","system_id":"levelo_inurba_marseille","lat":43.28998,"lon":5.35613,"is_reserved":false,"is_disabled":false,"rental_uris":{"android":"levelo://app?vid=ad65f101-1c5d-45e6-be33-62417a01a3ae","ios":"levelo://app?vid=ad65f101-1c5d-45e6-be33-62417a01a3ae"},"vehicle_type_id":"4","last_reported":1749831173,"current_range_meters":12400,"station_id":"ce4bhb92rcd13ifvqen0","pricing_plan_id":"cebpf4jnsgd1na2vs0mg"},{"bike_id":"0da15182-bb95-4a3a-bd59-ed163678254a","system_id":"levelo_inurba_marseille","lat":43.26557,"lon":5.37285,"is_reserved":false,"is_disabled":false,"rental_uris":{"android":"levelo://app?vid=0da15182-bb95-4a3a-bd59-ed163678254a","ios":"levelo://app?vid=0da15182-bb95-4a3a-bd59-ed163678254a"},"vehicle_type_id":"4","last_reported":1749831173,"current_range_meters":12400,"station_id":"ce4bhg12rcd13ifvqf70","pricing_plan_id":"cebpf4jnsgd1na2vs0mg"},{"bike_id":"9d555611-e81c-4acf-b613-3c6c65c41fe2","system_id":"levelo_inurba_marseille","lat":43.29552,"lon":5.42287,"is_reserved":false,"is_disabled":false,"rental_uris":{"android":"levelo://app?vid=9d555611-e81c-4acf-b613-3c6c65c41fe2","ios":"levelo://app?vid=9d555611-e81c-4acf-b613-3c6c65c41fe2"},"vehicle_type_id":"4","last_reported":1749831173,"current_range_meters":12400,"station_id":"ce4bhph2rcd13ifvqhdg","pricing_plan_id":"cebpf4jnsgd1na2vs0mg"},{"bike_id":"724726ce-9123-4234-937a-f9739fec3740","system_id":"levelo_inurba_marseille","lat":43.23204,"lon":5.35547,"is_reserved":false,"is_disabled":false,"rental_uris":{"android":"levelo://app?vid=724726ce-9123-4234-937a-f9739fec3740","ios":"levelo://app?vid=724726ce-9123-4234-937a-f9739fec3740"},"vehicle_type_id":"4","last_reported":1749831173,"current_range_meters":12400,"station_id":"ce4bhu92rcd13ifvqi70","pricing_plan_id":"cebpf4jnsgd1na2vs0mg"},{"bike_id":"265cf8ba-08da-4806-a592-3b7139cda9cd","system_id":"levelo_inurba_marseille","lat":43.29922,"lon":5.38155,"is_reserved":false,"is_disabled":false,"rental_uris":{"android":"levelo://app?vid=265cf8ba-08da-4806-a592-3b7139cda9cd","ios":"levelo://app?vid=265cf8ba-08da-4806-a592-3b7139cda9cd"},"vehicle_type_id":"4","last_reported":1749831173,"current_range_meters":12800,"station_id":"ce4bgj12rcd13ifvqbc0","pricing_plan_id":"cebpf4jnsgd1na2vs0mg"},{"bike_id":"9d976042-67ae-47fb-ba93-fa1c7fb59790","system_id":"levelo_inurba_marseille","lat":43.305918,"lon":5.380358,"is_reserved":false,"is_disabled":false,"rental_uris":{"android":"levelo://app?vid=9d976042-67ae-47fb-ba93-fa1c7fb59790","ios":"levelo://app?vid=9d976042-67ae-47fb-ba93-fa1c7fb59790"},"vehicle_type_id":"4","last_reported":1749831173,"current_range_meters":12800,"station_id":"ce4bgv92rcd13ifvqcr0","pricing_plan_id":"cebpf4jnsgd1na2vs0mg"},{"bike_id":"c048e9aa-54eb-4aeb-98ed-0a372f597676","system_id":"levelo_inurba_marseille","lat":43.28421,"lon":5.34991,"is_reserved":false,"is_disabled":false,"rental_uris":{"android":"levelo://app?vid=c048e9aa-54eb-4aeb-98ed-0a372f597676","ios":"levelo://app?vid=c048e9aa-54eb-4aeb-98ed-0a372f597676"},"vehicle_type_id":"4","last_reported":1749831173,"current_range_meters":12800,"station_id":"ce4bhbh2rcd13ifvqepg","pricing_plan_id":"cebpf4jnsgd1na2vs0mg"},{"bike_id":"0769833d-6b94-4c5d-a196-dc7c07587e1b","system_id":"levelo_inurba_marseille","lat":43.28611,"lon":5.35102,"is_reserved":false,"is_disabled":false,"rental_uris":{"android":"levelo://app?vid=0769833d-6b94-4c5d-a196-dc7c07587e1b","ios":"levelo://app?vid=0769833d-6b94-4c5d-a196-dc7c07587e1b"},"vehicle_type_id":"4","last_reported":1749831173,"current_range_meters":12800,"station_id":"ce4bhch2rcd13ifvqeug","pricing_plan_id":"cebpf4jnsgd1na2vs0mg"},{"bike_id":"326cc913-bdbc-48c2-9a88-414846f09512","system_id":"levelo_inurba_marseille","lat":43.32363,"lon":5.36722,"is_reserved":false,"is_disabled":false,"rental_uris":{"android":"levelo://app?vid=326cc913-bdbc-48c2-9a88-414846f09512","ios":"levelo://app?vid=326cc913-bdbc-48c2-9a88-414846f09512"},"vehicle_type_id":"4","last_reported":1749831173,"current_range_meters":12800,"station_id":"ce4bhsh2rcd13ifvqi2g","pricing_plan_id":"cebpf4jnsgd1na2vs0mg"},{"bike_id":"bd49472a-a751-46d7-b720-71f481fc6438","system_id":"levelo_inurba_marseille","lat":43.22933,"lon":5.35378,"is_reserved":false,"is_disabled":false,"rental_uris":{"android":"levelo://app?vid=bd49472a-a751-46d7-b720-71f481fc6438","ios":"levelo://app?vid=bd49472a-a751-46d7-b720-71f481fc6438"},"vehicle_type_id":"4","last_reported":1749831173,"current_range_meters":12800,"station_id":"cpo3532slgdg3j2ikp40","pricing_plan_id":"cebpf4jnsgd1na2vs0mg"},{"bike_id":"ef4b8fb0-f841-4cbf-a136-243db3414115","system_id":"levelo_inurba_marseille","lat":43.29782,"lon":5.39338,"is_reserved":false,"is_disabled":false,"rental_uris":{"android":"levelo://app?vid=ef4b8fb0-f841-4cbf-a136-243db3414115","ios":"levelo://app?vid=ef4b8fb0-f841-4cbf-a136-243db3414115"},"vehicle_type_id":"4","last_reported":1749831173,"current_range_meters":13600,"station_id":"chh1huq6cuj3fo74tm60","pricing_plan_id":"cebpf4jnsgd1na2vs0mg"},{"bike_id":"b897fa51-cacb-489e-b37f-7aebbeb3563d","system_id":"levelo_inurba_marseille","lat":43.29068,"lon":5.37151,"is_reserved":false,"is_disabled":false,"rental_uris":{"android":"levelo://app?vid=b897fa51-cacb-489e-b37f-7aebbeb3563d","ios":"levelo://app?vid=b897fa51-cacb-489e-b37f-7aebbeb3563d"},"vehicle_type_id":"4","last_reported":1749831173,"current_range_meters":14400,"station_id":"ce4bh5p2rcd13ifvqe4g","pricing_plan_id":"cebpf4jnsgd1na2vs0mg"},{"bike_id":"a259f45d-cd4e-4907-a9bb-4887adc44621","system_id":"levelo_inurba_marseille","lat":43.28266,"lon":5.35063,"is_reserved":false,"is_disabled":false,"rental_uris":{"android":"levelo://app?vid=a259f45d-cd4e-4907-a9bb-4887adc44621","ios":"levelo://app?vid=a259f45d-cd4e-4907-a9bb-4887adc44621"},"vehicle_type_id":"4","last_reported":1749831173,"current_range_meters":14400,"station_id":"ce4bhbp2rcd13ifvqerg","pricing_plan_id":"cebpf4jnsgd1na2vs0mg"},{"bike_id":"0251cd4f-3e7c-4d7a-bec8-1dc03b790668","system_id":"levelo_inurba_marseille","lat":43.26209,"lon":5.37442,"is_reserved":false,"is_disabled":false,"rental_uris":{"android":"levelo://app?vid=0251cd4f-3e7c-4d7a-bec8-1dc03b790668","ios":"levelo://app?vid=0251cd4f-3e7c-4d7a-bec8-1dc03b790668"},"vehicle_type_id":"4","last_reported":1749831173,"current_range_meters":14400,"station_id":"ce4bhgp2rcd13ifvqfc0","pricing_plan_id":"cebpf4jnsgd1na2vs0mg"},{"bike_id":"f5fdc8a9-e2d2-490f-b80b-477b4d1a3335","system_id":"levelo_inurba_marseille","lat":43.245464,"lon":5.39522,"is_reserved":false,"is_disabled":false,"rental_uris":{"android":"levelo://app?vid=f5fdc8a9-e2d2-490f-b80b-477b4d1a3335","ios":"levelo://app?vid=f5fdc8a9-e2d2-490f-b80b-477b4d1a3335"},"vehicle_type_id":"4","last_reported":1749831173,"current_range_meters":14400,"station_id":"ce4bhlp2rcd13ifvqgjg","pricing_plan_id":"cebpf4jnsgd1na2vs0mg"},{"bike_id":"3b2851dc-cdc3-4c74-bb7a-6b50ea5674bc","system_id":"levelo_inurba_marseille","lat":43.30172,"lon":5.3803,"is_reserved":false,"is_disabled":false,"rental_uris":{"android":"levelo://app?vid=3b2851dc-cdc3-4c74-bb7a-6b50ea5674bc","ios":"levelo://app?vid=3b2851dc-cdc3-4c74-bb7a-6b50ea5674bc"},"vehicle_type_id":"4","last_reported":1749831173,"current_range_meters":14800,"station_id":"","pricing_plan_id":"cebpf4jnsgd1na2vs0mg"},{"bike_id":"80617982-ef38-423b-9c98-85a43669735f","system_id":"levelo_inurba_marseille","lat":43.26362,"lon":5.37821,"is_reserved":false,"is_disabled":false,"rental_uris":{"android":"levelo://app?vid=80617982-ef38-423b-9c98-85a43669735f","ios":"levelo://app?vid=80617982-ef38-423b-9c98-85a43669735f"},"vehicle_type_id":"4","last_reported":1749831173,"current_range_meters":14800,"station_id":"","pricing_plan_id":"cebpf4jnsgd1na2vs0mg"},{"bike_id":"8afe09b6-907b-429e-b650-b4fc21d4d515","system_id":"levelo_inurba_marseille","lat":43.280425,"lon":5.369331,"is_reserved":false,"is_disabled":false,"rental_uris":{"android":"levelo://app?vid=8afe09b6-907b-429e-b650-b4fc21d4d515","ios":"levelo://app?vid=8afe09b6-907b-429e-b650-b4fc21d4d515"},"vehicle_type_id":"4","last_reported":1749831173,"current_range_meters":14800,"station_id":"ce4bha12rcd13ifvqef0","pricing_plan_id":"cebpf4jnsgd1na2vs0mg"},{"bike_id":"94502b14-ff48-4cde-b2d3-edd6d6e7a52e","system_id":"levelo_inurba_marseille","lat":43.28416,"lon":5.34991,"is_reserved":false,"is_disabled":false,"rental_uris":{"android":"levelo://app?vid=94502b14-ff48-4cde-b2d3-edd6d6e7a52e","ios":"levelo://app?vid=94502b14-ff48-4cde-b2d3-edd6d6e7a52e"},"vehicle_type_id":"4","last_reported":1749831173,"current_range_meters":14800,"station_id":"ce4bhbh2rcd13ifvqepg","pricing_plan_id":"cebpf4jnsgd1na2vs0mg"},{"bike_id":"890877e9-2b2f-4874-b40f-a4f1f4504057","system_id":"levelo_inurba_marseille","lat":43.25571,"lon":5.38245,"is_reserved":false,"is_disabled":false,"rental_uris":{"android":"levelo://app?vid=890877e9-2b2f-4874-b40f-a4f1f4504057","ios":"levelo://app?vid=890877e9-2b2f-4874-b40f-a4f1f4504057"},"vehicle_type_id":"4","last_reported":1749831173,"current_range_meters":14800,"station_id":"ce4bhih2rcd13ifvqfs0","pricing_plan_id":"cebpf4jnsgd1na2vs0mg"},{"bike_id":"106b3561-f6bb-45ee-97f6-1d725dd2de3c","system_id":"levelo_inurba_marseille","lat":43.248045,"lon":5.374488,"is_reserved":false,"is_disabled":false,"rental_uris":{"android":"levelo://app?vid=106b3561-f6bb-45ee-97f6-1d725dd2de3c","ios":"levelo://app?vid=106b3561-f6bb-45ee-97f6-1d725dd2de3c"},"vehicle_type_id":"4","last_reported":1749831173,"current_range_meters":14800,"station_id":"ce4bhnp2rcd13ifvqgvg","pricing_plan_id":"cebpf4jnsgd1na2vs0mg"},{"bike_id":"0afcb599-3d9f-4bc3-a6eb-ed35bcfdac84","system_id":"levelo_inurba_marseille","lat":43.23189,"lon":5.35556,"is_reserved":false,"is_disabled":false,"rental_uris":{"android":"levelo://app?vid=0afcb599-3d9f-4bc3-a6eb-ed35bcfdac84","ios":"levelo://app?vid=0afcb599-3d9f-4bc3-a6eb-ed35bcfdac84"},"vehicle_type_id":"4","last_reported":1749831173,"current_range_meters":14800,"station_id":"ce4bhu92rcd13ifvqi70","pricing_plan_id":"cebpf4jnsgd1na2vs0mg"},{"bike_id":"07f6d741-3c48-41f5-906d-cbbd6198eca6","system_id":"levelo_inurba_marseille","lat":43.23194,"lon":5.35554,"is_reserved":false,"is_disabled":false,"rental_uris":{"android":"levelo://app?vid=07f6d741-3c48-41f5-906d-cbbd6198eca6","ios":"levelo://app?vid=07f6d741-3c48-41f5-906d-cbbd6198eca6"},"vehicle_type_id":"4","last_reported":1749831173,"current_range_meters":14800,"station_id":"ce4bhu92rcd13ifvqi70","pricing_plan_id":"cebpf4jnsgd1na2vs0mg"},{"bike_id":"ebe59bec-f743-4761-9b95-7d2394f1338d","system_id":"levelo_inurba_marseille","lat":43.2636,"lon":5.37811,"is_reserved":false,"is_disabled":false,"rental_uris":{"android":"levelo://app?vid=ebe59bec-f743-4761-9b95-7d2394f1338d","ios":"levelo://app?vid=ebe59bec-f743-4761-9b95-7d2394f1338d"},"vehicle_type_id":"4","last_reported":1749831173,"current_range_meters":14800,"station_id":"st_d163nis0mtpqnht9uue0","pricing_plan_id":"cebpf4jnsgd1na2vs0mg"},{"bike_id":"75644a6b-fa59-445b-95cd-0a1d10df6ca3","system_id":"levelo_inurba_marseille","lat":43.280858,"lon":5.368879,"is_reserved":false,"is_disabled":false,"rental_uris":{"android":"levelo://app?vid=75644a6b-fa59-445b-95cd-0a1d10df6ca3","ios":"levelo://app?vid=75644a6b-fa59-445b-95cd-0a1d10df6ca3"},"vehicle_type_id":"4","last_reported":1749831173,"current_range_meters":15200,"station_id":"ce4bha12rcd13ifvqef0","pricing_plan_id":"cebpf4jnsgd1na2vs0mg"},{"bike_id":"5f23fe13-259f-4adc-a3cd-4601854ebc11","system_id":"levelo_inurba_marseille","lat":43.28402,"lon":5.35001,"is_reserved":false,"is_disabled":false,"rental_uris":{"android":"levelo://app?vid=5f23fe13-259f-4adc-a3cd-4601854ebc11","ios":"levelo://app?vid=5f23fe13-259f-4adc-a3cd-4601854ebc11"},"vehicle_type_id":"4","last_reported":1749831173,"current_range_meters":15200,"station_id":"ce4bhbh2rcd13ifvqepg","pricing_plan_id":"cebpf4jnsgd1na2vs0mg"},{"bike_id":"a8c9b254-b1fc-4ef2-994e-7a37760fe237","system_id":"levelo_inurba_marseille","lat":43.26951,"lon":5.38624,"is_reserved":false,"is_disabled":false,"rental_uris":{"android":"levelo://app?vid=a8c9b254-b1fc-4ef2-994e-7a37760fe237","ios":"levelo://app?vid=a8c9b254-b1fc-4ef2-994e-7a37760fe237"},"vehicle_type_id":"4","last_reported":1749831173,"current_range_meters":15200,"station_id":"ce4bhh92rcd13ifvqfh0","pricing_plan_id":"cebpf4jnsgd1na2vs0mg"},{"bike_id":"9969095f-9c0e-4613-a80d-8c2c55d8e1e7","system_id":"levelo_inurba_marseille","lat":43.29202,"lon":5.35823,"is_reserved":false,"is_disabled":false,"rental_uris":{"android":"levelo://app?vid=9969095f-9c0e-4613-a80d-8c2c55d8e1e7","ios":"levelo://app?vid=9969095f-9c0e-4613-a80d-8c2c55d8e1e7"},"vehicle_type_id":"4","last_reported":1749831173,"current_range_meters":16000,"station_id":"ce4bhb12rcd13ifvqel0","pricing_plan_id":"cebpf4jnsgd1na2vs0mg"},{"bike_id":"715478fd-76c6-4ef8-b993-75b351929d64","system_id":"levelo_inurba_marseille","lat":43.28275,"lon":5.3507,"is_reserved":false,"is_disabled":false,"rental_uris":{"android":"levelo://app?vid=715478fd-76c6-4ef8-b993-75b351929d64","ios":"levelo://app?vid=715478fd-76c6-4ef8-b993-75b351929d64"},"vehicle_type_id":"4","last_reported":1749831173,"current_range_meters":16000,"station_id":"ce4bhbp2rcd13ifvqerg","pricing_plan_id":"cebpf4jnsgd1na2vs0mg"},{"bike_id":"5fe476ae-0bb1-4152-ac74-2330e9a4d97c","system_id":"levelo_inurba_marseille","lat":43.253542,"lon":5.393566,"is_reserved":false,"is_disabled":false,"rental_uris":{"android":"levelo://app?vid=5fe476ae-0bb1-4152-ac74-2330e9a4d97c","ios":"levelo://app?vid=5fe476ae-0bb1-4152-ac74-2330e9a4d97c"},"vehicle_type_id":"4","last_reported":1749831173,"current_range_meters":16000,"station_id":"ce4bhg12rcd13ifvqf60","pricing_plan_id":"cebpf4jnsgd1na2vs0mg"},{"bike_id":"26e2572d-2d9b-4252-a754-e30587914fc4","system_id":"levelo_inurba_marseille","lat":43.23192,"lon":5.35562,"is_reserved":false,"is_disabled":false,"rental_uris":{"android":"levelo://app?vid=26e2572d-2d9b-4252-a754-e30587914fc4","ios":"levelo://app?vid=26e2572d-2d9b-4252-a754-e30587914fc4"},"vehicle_type_id":"4","last_reported":1749831173,"current_range_meters":16000,"station_id":"ce4bhu92rcd13ifvqi70","pricing_plan_id":"cebpf4jnsgd1na2vs0mg"},{"bike_id":"2ab31527-f915-4286-b3a0-0beafd2cdd50","system_id":"levelo_inurba_marseille","lat":43.3003,"lon":5.37032,"is_reserved":false,"is_disabled":false,"rental_uris":{"android":"levelo://app?vid=2ab31527-f915-4286-b3a0-0beafd2cdd50","ios":"levelo://app?vid=2ab31527-f915-4286-b3a0-0beafd2cdd50"},"vehicle_type_id":"4","last_reported":1749831173,"current_range_meters":16400,"station_id":"","pricing_plan_id":"cebpf4jnsgd1na2vs0mg"},{"bike_id":"1e0cab37-b54a-4356-a6b1-df9b91a7c88c","system_id":"levelo_inurba_marseille","lat":43.28106,"lon":5.37844,"is_reserved":false,"is_disabled":false,"rental_uris":{"android":"levelo://app?vid=1e0cab37-b54a-4356-a6b1-df9b91a7c88c","ios":"levelo://app?vid=1e0cab37-b54a-4356-a6b1-df9b91a7c88c"},"vehicle_type_id":"4","last_reported":1749831173,"current_range_meters":16400,"station_id":"ce4bha12rcd13ifvqee0","pricing_plan_id":"cebpf4jnsgd1na2vs0mg"},{"bike_id":"7b4b91ba-b664-47ac-8822-2de6bb5c357d","system_id":"levelo_inurba_marseille","lat":43.28412,"lon":5.34997,"is_reserved":false,"is_disabled":false,"rental_uris":{"android":"levelo://app?vid=7b4b91ba-b664-47ac-8822-2de6bb5c357d","ios":"levelo://app?vid=7b4b91ba-b664-47ac-8822-2de6bb5c357d"},"vehicle_type_id":"4","last_reported":1749831173,"current_range_meters":16400,"station_id":"ce4bhbh2rcd13ifvqepg","pricing_plan_id":"cebpf4jnsgd1na2vs0mg"},{"bike_id":"134173f2-e1c0-48a3-b21e-4f5766509157","system_id":"levelo_inurba_marseille","lat":43.28416,"lon":5.34992,"is_reserved":false,"is_disabled":false,"rental_uris":{"android":"levelo://app?vid=134173f2-e1c0-48a3-b21e-4f5766509157","ios":"levelo://app?vid=134173f2-e1c0-48a3-b21e-4f5766509157"},"vehicle_type_id":"4","last_reported":1749831173,"current_range_meters":16400,"station_id":"ce4bhbh2rcd13ifvqepg","pricing_plan_id":"cebpf4jnsgd1na2vs0mg"},{"bike_id":"2bbed242-3d5f-4c43-a4d4-36390aeaf22d","system_id":"levelo_inurba_marseille","lat":43.28398,"lon":5.34995,"is_reserved":false,"is_disabled":false,"rental_uris":{"android":"levelo://app?vid=2bbed242-3d5f-4c43-a4d4-36390aeaf22d","ios":"levelo://app?vid=2bbed242-3d5f-4c43-a4d4-36390aeaf22d"},"vehicle_type_id":"4","last_reported":1749831173,"current_range_meters":16400,"station_id":"ce4bhbh2rcd13ifvqepg","pricing_plan_id":"cebpf4jnsgd1na2vs0mg"},{"bike_id":"80f019d5-2f82-45f2-9396-8e774bf21f94","system_id":"levelo_inurba_marseille","lat":43.28284,"lon":5.35066,"is_reserved":false,"is_disabled":false,"rental_uris":{"android":"levelo://app?vid=80f019d5-2f82-45f2-9396-8e774bf21f94","ios":"levelo://app?vid=80f019d5-2f82-45f2-9396-8e774bf21f94"},"vehicle_type_id":"4","last_reported":1749831173,"current_range_meters":16400,"station_id":"ce4bhbp2rcd13ifvqerg","pricing_plan_id":"cebpf4jnsgd1na2vs0mg"},{"bike_id":"f9ef8687-e3cc-4d50-b3ac-9fda23eac3bc","system_id":"levelo_inurba_marseille","lat":43.28273,"lon":5.35062,"is_reserved":false,"is_disabled":false,"rental_uris":{"android":"levelo://app?vid=f9ef8687-e3cc-4d50-b3ac-9fda23eac3bc","ios":"levelo://app?vid=f9ef8687-e3cc-4d50-b3ac-9fda23eac3bc"},"vehicle_type_id":"4","last_reported":1749831173,"current_range_meters":16400,"station_id":"ce4bhbp2rcd13ifvqerg","pricing_plan_id":"cebpf4jnsgd1na2vs0mg"},{"bike_id":"0097c665-8c6a-42b7-80fe-daf5b821603a","system_id":"levelo_inurba_marseille","lat":43.28278,"lon":5.35071,"is_reserved":false,"is_disabled":false,"rental_uris":{"android":"levelo://app?vid=0097c665-8c6a-42b7-80fe-daf5b821603a","ios":"levelo://app?vid=0097c665-8c6a-42b7-80fe-daf5b821603a"},"vehicle_type_id":"4","last_reported":1749831173,"current_range_meters":16400,"station_id":"ce4bhbp2rcd13ifvqerg","pricing_plan_id":"cebpf4jnsgd1na2vs0mg"},{"bike_id":"d77bec4b-2818-4f3d-a024-80f5aa37204b","system_id":"levelo_inurba_marseille","lat":43.26211,"lon":5.37442,"is_reserved":false,"is_disabled":false,"rental_uris":{"android":"levelo://app?vid=d77bec4b-2818-4f3d-a024-80f5aa37204b","ios":"levelo://app?vid=d77bec4b-2818-4f3d-a024-80f5aa37204b"},"vehicle_type_id":"4","last_reported":1749831173,"current_range_meters":16400,"station_id":"ce4bhgp2rcd13ifvqfc0","pricing_plan_id":"cebpf4jnsgd1na2vs0mg"},{"bike_id":"ef8cd878-4200-4514-9177-a8c6a06efe85","system_id":"levelo_inurba_marseille","lat":43.23971,"lon":5.36621,"is_reserved":false,"is_disabled":false,"rental_uris":{"android":"levelo://app?vid=ef8cd878-4200-4514-9177-a8c6a06efe85","ios":"levelo://app?vid=ef8cd878-4200-4514-9177-a8c6a06efe85"},"vehicle_type_id":"4","last_reported":1749831173,"current_range_meters":16400,"station_id":"ce4bhi12rcd13ifvqfp0","pricing_plan_id":"cebpf4jnsgd1na2vs0mg"},{"bike_id":"9e9e6492-ca64-49e9-8f21-909fdd2acb19","system_id":"levelo_inurba_marseille","lat":43.27065,"lon":5.4227,"is_reserved":false,"is_disabled":false,"rental_uris":{"android":"levelo://app?vid=9e9e6492-ca64-49e9-8f21-909fdd2acb19","ios":"levelo://app?vid=9e9e6492-ca64-49e9-8f21-909fdd2acb19"},"vehicle_type_id":"4","last_reported":1749831173,"current_range_meters":16400,"station_id":"ce4bhk92rcd13ifvqgb0","pricing_plan_id":"cebpf4jnsgd1na2vs0mg"},{"bike_id":"35ecbde9-f982-43dd-8dcb-bcdaf2169d8e","system_id":"levelo_inurba_marseille","lat":43.2407,"lon":5.3777,"is_reserved":false,"is_disabled":false,"rental_uris":{"android":"levelo://app?vid=35ecbde9-f982-43dd-8dcb-bcdaf2169d8e","ios":"levelo://app?vid=35ecbde9-f982-43dd-8dcb-bcdaf2169d8e"},"vehicle_type_id":"4","last_reported":1749831173,"current_range_meters":16400,"station_id":"ce4bhnp2rcd13ifvqgvg","pricing_plan_id":"cebpf4jnsgd1na2vs0mg"},{"bike_id":"aceafc3d-e36a-4386-973a-c97b10397a24","system_id":"levelo_inurba_marseille","lat":43.28709,"lon":5.39989,"is_reserved":false,"is_disabled":false,"rental_uris":{"android":"levelo://app?vid=aceafc3d-e36a-4386-973a-c97b10397a24","ios":"levelo://app?vid=aceafc3d-e36a-4386-973a-c97b10397a24"},"vehicle_type_id":"4","last_reported":1749831173,"current_range_meters":16400,"station_id":"ce4bho92rcd13ifvqh3g","pricing_plan_id":"cebpf4jnsgd1na2vs0mg"},{"bike_id":"250cb1db-9b0a-4a16-bbea-f0bf6e1a394a","system_id":"levelo_inurba_marseille","lat":43.23203,"lon":5.35552,"is_reserved":false,"is_disabled":false,"rental_uris":{"android":"levelo://app?vid=250cb1db-9b0a-4a16-bbea-f0bf6e1a394a","ios":"levelo://app?vid=250cb1db-9b0a-4a16-bbea-f0bf6e1a394a"},"vehicle_type_id":"4","last_reported":1749831173,"current_range_meters":16400,"station_id":"ce4bhu92rcd13ifvqi70","pricing_plan_id":"cebpf4jnsgd1na2vs0mg"},{"bike_id":"027d7d4a-bd12-4465-afe5-6e4f0afa23c1","system_id":"levelo_inurba_marseille","lat":43.263633,"lon":5.378078,"is_reserved":false,"is_disabled":false,"rental_uris":{"android":"levelo://app?vid=027d7d4a-bd12-4465-afe5-6e4f0afa23c1","ios":"levelo://app?vid=027d7d4a-bd12-4465-afe5-6e4f0afa23c1"},"vehicle_type_id":"4","last_reported":1749831173,"current_range_meters":16400,"station_id":"st_d163nis0mtpqnht9uue0","pricing_plan_id":"cebpf4jnsgd1na2vs0mg"},{"bike_id":"c39a21b3-db6b-4d81-8f61-cc3ac9739a45","system_id":"levelo_inurba_marseille","lat":43.29623,"lon":5.40598,"is_reserved":false,"is_disabled":false,"rental_uris":{"android":"levelo://app?vid=c39a21b3-db6b-4d81-8f61-cc3ac9739a45","ios":"levelo://app?vid=c39a21b3-db6b-4d81-8f61-cc3ac9739a45"},"vehicle_type_id":"4","last_reported":1749831173,"current_range_meters":16800,"station_id":"ce4bh0h2rcd13ifvqd60","pricing_plan_id":"cebpf4jnsgd1na2vs0mg"},{"bike_id":"a3d8ed61-ad96-4794-9377-3745ebafc863","system_id":"levelo_inurba_marseille","lat":43.29106,"lon":5.38088,"is_reserved":false,"is_disabled":false,"rental_uris":{"android":"levelo://app?vid=a3d8ed61-ad96-4794-9377-3745ebafc863","ios":"levelo://app?vid=a3d8ed61-ad96-4794-9377-3745ebafc863"},"vehicle_type_id":"4","last_reported":1749831173,"current_range_meters":16800,"station_id":"ce4bh512rcd13ifvqe2g","pricing_plan_id":"cebpf4jnsgd1na2vs0mg"},{"bike_id":"beea2adb-db35-414a-9139-f5b9b4a843de","system_id":"levelo_inurba_marseille","lat":43.28268,"lon":5.35063,"is_reserved":false,"is_disabled":false,"rental_uris":{"android":"levelo://app?vid=beea2adb-db35-414a-9139-f5b9b4a843de","ios":"levelo://app?vid=beea2adb-db35-414a-9139-f5b9b4a843de"},"vehicle_type_id":"4","last_reported":1749831173,"current_range_meters":16800,"station_id":"ce4bhbp2rcd13ifvqerg","pricing_plan_id":"cebpf4jnsgd1na2vs0mg"},{"bike_id":"c097900e-983f-4795-ace3-c19f65c43e55","system_id":"levelo_inurba_marseille","lat":43.27903,"lon":5.38016,"is_reserved":false,"is_disabled":false,"rental_uris":{"android":"levelo://app?vid=c097900e-983f-4795-ace3-c19f65c43e55","ios":"levelo://app?vid=c097900e-983f-4795-ace3-c19f65c43e55"},"vehicle_type_id":"4","last_reported":1749831173,"current_range_meters":16800,"station_id":"ce4bhf92rcd13ifvqf50","pricing_plan_id":"cebpf4jnsgd1na2vs0mg"},{"bike_id":"eca06870-ab5c-48df-a706-94f7ef617c30","system_id":"levelo_inurba_marseille","lat":43.26215,"lon":5.37438,"is_reserved":false,"is_disabled":false,"rental_uris":{"android":"levelo://app?vid=eca06870-ab5c-48df-a706-94f7ef617c30","ios":"levelo://app?vid=eca06870-ab5c-48df-a706-94f7ef617c30"},"vehicle_type_id":"4","last_reported":1749831173,"current_range_meters":16800,"station_id":"ce4bhgp2rcd13ifvqfc0","pricing_plan_id":"cebpf4jnsgd1na2vs0mg"},{"bike_id":"6712de93-b637-46f7-98ea-5027d9940292","system_id":"levelo_inurba_marseille","lat":43.24073,"lon":5.37762,"is_reserved":false,"is_disabled":false,"rental_uris":{"android":"levelo://app?vid=6712de93-b637-46f7-98ea-5027d9940292","ios":"levelo://app?vid=6712de93-b637-46f7-98ea-5027d9940292"},"vehicle_type_id":"4","last_reported":1749831173,"current_range_meters":16800,"station_id":"ce4bhnp2rcd13ifvqgvg","pricing_plan_id":"cebpf4jnsgd1na2vs0mg"},{"bike_id":"aeab871f-5ed4-4305-8519-adb83b54863d","system_id":"levelo_inurba_marseille","lat":43.24073,"lon":5.37762,"is_reserved":false,"is_disabled":false,"rental_uris":{"android":"levelo://app?vid=aeab871f-5ed4-4305-8519-adb83b54863d","ios":"levelo://app?vid=aeab871f-5ed4-4305-8519-adb83b54863d"},"vehicle_type_id":"4","last_reported":1749831173,"current_range_meters":16800,"station_id":"ce4bhnp2rcd13ifvqgvg","pricing_plan_id":"cebpf4jnsgd1na2vs0mg"},{"bike_id":"274f2541-9bed-4681-bd47-87022968705f","system_id":"levelo_inurba_marseille","lat":43.28,"lon":5.41665,"is_reserved":false,"is_disabled":false,"rental_uris":{"android":"levelo://app?vid=274f2541-9bed-4681-bd47-87022968705f","ios":"levelo://app?vid=274f2541-9bed-4681-bd47-87022968705f"},"vehicle_type_id":"4","last_reported":1749831173,"current_range_meters":16800,"station_id":"ce4bho12rcd13ifvqh1g","pricing_plan_id":"cebpf4jnsgd1na2vs0mg"},{"bike_id":"f3ec16b2-8afd-4ecb-8d58-15a6a90ff603","system_id":"levelo_inurba_marseille","lat":43.32358,"lon":5.36764,"is_reserved":false,"is_disabled":false,"rental_uris":{"android":"levelo://app?vid=f3ec16b2-8afd-4ecb-8d58-15a6a90ff603","ios":"levelo://app?vid=f3ec16b2-8afd-4ecb-8d58-15a6a90ff603"},"vehicle_type_id":"4","last_reported":1749831173,"current_range_meters":16800,"station_id":"ce4bhsh2rcd13ifvqi2g","pricing_plan_id":"cebpf4jnsgd1na2vs0mg"},{"bike_id":"4ee97cf1-7f69-4ef0-81f5-7b013aa88d5c","system_id":"levelo_inurba_marseille","lat":43.23193,"lon":5.3556,"is_reserved":false,"is_disabled":false,"rental_uris":{"android":"levelo://app?vid=4ee97cf1-7f69-4ef0-81f5-7b013aa88d5c","ios":"levelo://app?vid=4ee97cf1-7f69-4ef0-81f5-7b013aa88d5c"},"vehicle_type_id":"4","last_reported":1749831173,"current_range_meters":16800,"station_id":"ce4bhu92rcd13ifvqi70","pricing_plan_id":"cebpf4jnsgd1na2vs0mg"},{"bike_id":"0790896b-dac5-42b7-81bd-e5dfc9a82cf8","system_id":"levelo_inurba_marseille","lat":43.30785,"lon":5.38148,"is_reserved":false,"is_disabled":false,"rental_uris":{"android":"levelo://app?vid=0790896b-dac5-42b7-81bd-e5dfc9a82cf8","ios":"levelo://app?vid=0790896b-dac5-42b7-81bd-e5dfc9a82cf8"},"vehicle_type_id":"4","last_reported":1749831173,"current_range_meters":17200,"station_id":"ce4bgt12rcd13ifvqce0","pricing_plan_id":"cebpf4jnsgd1na2vs0mg"},{"bike_id":"e9482f21-26d7-4315-903f-6ef357628c43","system_id":"levelo_inurba_marseille","lat":43.27436,"lon":5.39408,"is_reserved":false,"is_disabled":false,"rental_uris":{"android":"levelo://app?vid=e9482f21-26d7-4315-903f-6ef357628c43","ios":"levelo://app?vid=e9482f21-26d7-4315-903f-6ef357628c43"},"vehicle_type_id":"4","last_reported":1749831173,"current_range_meters":17200,"station_id":"ce4bhdp2rcd13ifvqf20","pricing_plan_id":"cebpf4jnsgd1na2vs0mg"},{"bike_id":"36185db3-3213-4897-9453-e5d0bfc11b0a","system_id":"levelo_inurba_marseille","lat":43.21748,"lon":5.34599,"is_reserved":false,"is_disabled":false,"rental_uris":{"android":"levelo://app?vid=36185db3-3213-4897-9453-e5d0bfc11b0a","ios":"levelo://app?vid=36185db3-3213-4897-9453-e5d0bfc11b0a"},"vehicle_type_id":"4","last_reported":1749831173,"current_range_meters":17200,"station_id":"st_cvj6r9ubvosntc0bgbag","pricing_plan_id":"cebpf4jnsgd1na2vs0mg"},{"bike_id":"b4eaa219-6eb5-4a58-b0c7-04e029cac587","system_id":"levelo_inurba_marseille","lat":43.28586,"lon":5.35034,"is_reserved":false,"is_disabled":false,"rental_uris":{"android":"levelo://app?vid=b4eaa219-6eb5-4a58-b0c7-04e029cac587","ios":"levelo://app?vid=b4eaa219-6eb5-4a58-b0c7-04e029cac587"},"vehicle_type_id":"4","last_reported":1749831173,"current_range_meters":17600,"station_id":"","pricing_plan_id":"cebpf4jnsgd1na2vs0mg"},{"bike_id":"e1fa2d8c-2244-4cb7-9bcc-1fdf09779b03","system_id":"levelo_inurba_marseille","lat":43.30328,"lon":5.40449,"is_reserved":false,"is_disabled":false,"rental_uris":{"android":"levelo://app?vid=e1fa2d8c-2244-4cb7-9bcc-1fdf09779b03","ios":"levelo://app?vid=e1fa2d8c-2244-4cb7-9bcc-1fdf09779b03"},"vehicle_type_id":"4","last_reported":1749831173,"current_range_meters":17600,"station_id":"ce4bh012rcd13ifvqd10","pricing_plan_id":"cebpf4jnsgd1na2vs0mg"},{"bike_id":"252936d9-311e-427f-a7b2-263d434d5296","system_id":"levelo_inurba_marseille","lat":43.27907,"lon":5.38013,"is_reserved":false,"is_disabled":false,"rental_uris":{"android":"levelo://app?vid=252936d9-311e-427f-a7b2-263d434d5296","ios":"levelo://app?vid=252936d9-311e-427f-a7b2-263d434d5296"},"vehicle_type_id":"4","last_reported":1749831173,"current_range_meters":17600,"station_id":"ce4bhf92rcd13ifvqf50","pricing_plan_id":"cebpf4jnsgd1na2vs0mg"},{"bike_id":"2338d771-c82d-48c0-9444-2e20e4dc9abd","system_id":"levelo_inurba_marseille","lat":43.26212,"lon":5.37441,"is_reserved":false,"is_disabled":false,"rental_uris":{"android":"levelo://app?vid=2338d771-c82d-48c0-9444-2e20e4dc9abd","ios":"levelo://app?vid=2338d771-c82d-48c0-9444-2e20e4dc9abd"},"vehicle_type_id":"4","last_reported":1749831173,"current_range_meters":17600,"station_id":"ce4bhgp2rcd13ifvqfc0","pricing_plan_id":"cebpf4jnsgd1na2vs0mg"},{"bike_id":"24079c92-b2bf-4998-b137-0c488db6e421","system_id":"levelo_inurba_marseille","lat":43.28495,"lon":5.38567,"is_reserved":false,"is_disabled":false,"rental_uris":{"android":"levelo://app?vid=24079c92-b2bf-4998-b137-0c488db6e421","ios":"levelo://app?vid=24079c92-b2bf-4998-b137-0c488db6e421"},"vehicle_type_id":"4","last_reported":1749831173,"current_range_meters":18000,"station_id":"ce4bh8p2rcd13ifvqeb0","pricing_plan_id":"cebpf4jnsgd1na2vs0mg"},{"bike_id":"89488120-8b38-44b9-85e6-2a2cfa2b4c9e","system_id":"levelo_inurba_marseille","lat":43.28287,"lon":5.35066,"is_reserved":false,"is_disabled":false,"rental_uris":{"android":"levelo://app?vid=89488120-8b38-44b9-85e6-2a2cfa2b4c9e","ios":"levelo://app?vid=89488120-8b38-44b9-85e6-2a2cfa2b4c9e"},"vehicle_type_id":"4","last_reported":1749831173,"current_range_meters":18000,"station_id":"ce4bhbp2rcd13ifvqerg","pricing_plan_id":"cebpf4jnsgd1na2vs0mg"},{"bike_id":"b6b00f3d-b6dd-4a00-a49a-c700818d248b","system_id":"levelo_inurba_marseille","lat":43.28622,"lon":5.35089,"is_reserved":false,"is_disabled":false,"rental_uris":{"android":"levelo://app?vid=b6b00f3d-b6dd-4a00-a49a-c700818d248b","ios":"levelo://app?vid=b6b00f3d-b6dd-4a00-a49a-c700818d248b"},"vehicle_type_id":"4","last_reported":1749831173,"current_range_meters":18000,"station_id":"ce4bhch2rcd13ifvqeug","pricing_plan_id":"cebpf4jnsgd1na2vs0mg"},{"bike_id":"31f64a3f-64af-4dd3-83e8-560a22fd693e","system_id":"levelo_inurba_marseille","lat":43.24811,"lon":5.37459,"is_reserved":false,"is_disabled":false,"rental_uris":{"android":"levelo://app?vid=31f64a3f-64af-4dd3-83e8-560a22fd693e","ios":"levelo://app?vid=31f64a3f-64af-4dd3-83e8-560a22fd693e"},"vehicle_type_id":"4","last_reported":1749831173,"current_range_meters":18000,"station_id":"ce4bhgh2rcd13ifvqfb0","pricing_plan_id":"cebpf4jnsgd1na2vs0mg"},{"bike_id":"049b2a9b-a690-4f7f-8581-5385f95d295c","system_id":"levelo_inurba_marseille","lat":43.2587,"lon":5.39898,"is_reserved":false,"is_disabled":false,"rental_uris":{"android":"levelo://app?vid=049b2a9b-a690-4f7f-8581-5385f95d295c","ios":"levelo://app?vid=049b2a9b-a690-4f7f-8581-5385f95d295c"},"vehicle_type_id":"4","last_reported":1749831173,"current_range_meters":18000,"station_id":"ce4bhl92rcd13ifvqghg","pricing_plan_id":"cebpf4jnsgd1na2vs0mg"},{"bike_id":"def545f2-dee1-41f1-a3dc-7b5a0d2ef216","system_id":"levelo_inurba_marseille","lat":43.25107,"lon":5.40322,"is_reserved":false,"is_disabled":false,"rental_uris":{"android":"levelo://app?vid=def545f2-dee1-41f1-a3dc-7b5a0d2ef216","ios":"levelo://app?vid=def545f2-dee1-41f1-a3dc-7b5a0d2ef216"},"vehicle_type_id":"4","last_reported":1749831173,"current_range_meters":18000,"station_id":"ce4bhlh2rcd13ifvqgig","pricing_plan_id":"cebpf4jnsgd1na2vs0mg"},{"bike_id":"d0e0617d-5016-40ba-b4c5-1a83d3add731","system_id":"levelo_inurba_marseille","lat":43.32375,"lon":5.36751,"is_reserved":false,"is_disabled":false,"rental_uris":{"android":"levelo://app?vid=d0e0617d-5016-40ba-b4c5-1a83d3add731","ios":"levelo://app?vid=d0e0617d-5016-40ba-b4c5-1a83d3add731"},"vehicle_type_id":"4","last_reported":1749831173,"current_range_meters":18000,"station_id":"ce4bhsh2rcd13ifvqi2g","pricing_plan_id":"cebpf4jnsgd1na2vs0mg"},{"bike_id":"ccb9975b-34a8-47da-b755-e17344ae18d3","system_id":"levelo_inurba_marseille","lat":43.23195,"lon":5.35553,"is_reserved":false,"is_disabled":false,"rental_uris":{"android":"levelo://app?vid=ccb9975b-34a8-47da-b755-e17344ae18d3","ios":"levelo://app?vid=ccb9975b-34a8-47da-b755-e17344ae18d3"},"vehicle_type_id":"4","last_reported":1749831173,"current_range_meters":18000,"station_id":"ce4bhu92rcd13ifvqi70","pricing_plan_id":"cebpf4jnsgd1na2vs0mg"},{"bike_id":"a025437d-d905-4581-a812-0c2f72b00469","system_id":"levelo_inurba_marseille","lat":43.32639,"lon":5.40974,"is_reserved":false,"is_disabled":false,"rental_uris":{"android":"levelo://app?vid=a025437d-d905-4581-a812-0c2f72b00469","ios":"levelo://app?vid=a025437d-d905-4581-a812-0c2f72b00469"},"vehicle_type_id":"4","last_reported":1749831173,"current_range_meters":18800,"station_id":"ce4bhpp2rcd13ifvqhgg","pricing_plan_id":"cebpf4jnsgd1na2vs0mg"},{"bike_id":"c5190fa1-87d9-4880-9cce-6d9a8d41cc43","system_id":"levelo_inurba_marseille","lat":43.29584,"lon":5.36746,"is_reserved":false,"is_disabled":false,"rental_uris":{"android":"levelo://app?vid=c5190fa1-87d9-4880-9cce-6d9a8d41cc43","ios":"levelo://app?vid=c5190fa1-87d9-4880-9cce-6d9a8d41cc43"},"vehicle_type_id":"4","last_reported":1749831173,"current_range_meters":19200,"station_id":"ce4bgph2rcd13ifvqc2g","pricing_plan_id":"cebpf4jnsgd1na2vs0mg"},{"bike_id":"76520fbe-aa41-4eb6-8a9e-1a3b0e411af2","system_id":"levelo_inurba_marseille","lat":43.30136,"lon":5.39871,"is_reserved":false,"is_disabled":false,"rental_uris":{"android":"levelo://app?vid=76520fbe-aa41-4eb6-8a9e-1a3b0e411af2","ios":"levelo://app?vid=76520fbe-aa41-4eb6-8a9e-1a3b0e411af2"},"vehicle_type_id":"4","last_reported":1749831173,"current_range_meters":19200,"station_id":"ce4bh0h2rcd13ifvqd40","pricing_plan_id":"cebpf4jnsgd1na2vs0mg"},{"bike_id":"51204135-fe1e-4ebc-8ed0-332020267afb","system_id":"levelo_inurba_marseille","lat":43.28424,"lon":5.34994,"is_reserved":false,"is_disabled":false,"rental_uris":{"android":"levelo://app?vid=51204135-fe1e-4ebc-8ed0-332020267afb","ios":"levelo://app?vid=51204135-fe1e-4ebc-8ed0-332020267afb"},"vehicle_type_id":"4","last_reported":1749831173,"current_range_meters":19200,"station_id":"ce4bhbh2rcd13ifvqepg","pricing_plan_id":"cebpf4jnsgd1na2vs0mg"},{"bike_id":"bd8c8bbc-0fd9-4e6c-ab25-20dbf001223c","system_id":"levelo_inurba_marseille","lat":43.279477,"lon":5.41025,"is_reserved":false,"is_disabled":false,"rental_uris":{"android":"levelo://app?vid=bd8c8bbc-0fd9-4e6c-ab25-20dbf001223c","ios":"levelo://app?vid=bd8c8bbc-0fd9-4e6c-ab25-20dbf001223c"},"vehicle_type_id":"4","last_reported":1749831173,"current_range_meters":19200,"station_id":"ce4bhnp2rcd13ifvqh0g","pricing_plan_id":"cebpf4jnsgd1na2vs0mg"},{"bike_id":"72395eeb-1444-4a0b-955d-2fde0f7ec1d4","system_id":"levelo_inurba_marseille","lat":43.27945,"lon":5.41055,"is_reserved":false,"is_disabled":false,"rental_uris":{"android":"levelo://app?vid=72395eeb-1444-4a0b-955d-2fde0f7ec1d4","ios":"levelo://app?vid=72395eeb-1444-4a0b-955d-2fde0f7ec1d4"},"vehicle_type_id":"4","last_reported":1749831173,"current_range_meters":19200,"station_id":"ce4bhnp2rcd13ifvqh0g","pricing_plan_id":"cebpf4jnsgd1na2vs0mg"},{"bike_id":"d8c030fa-bebc-4212-901a-186c9b5d764f","system_id":"levelo_inurba_marseille","lat":43.31714,"lon":5.43703,"is_reserved":false,"is_disabled":false,"rental_uris":{"android":"levelo://app?vid=d8c030fa-bebc-4212-901a-186c9b5d764f","ios":"levelo://app?vid=d8c030fa-bebc-4212-901a-186c9b5d764f"},"vehicle_type_id":"4","last_reported":1749831173,"current_range_meters":19200,"station_id":"ce4bhp92rcd13ifvqhcg","pricing_plan_id":"cebpf4jnsgd1na2vs0mg"},{"bike_id":"fde5d727-d1b4-4859-8d52-424400ca0ed9","system_id":"levelo_inurba_marseille","lat":43.23198,"lon":5.35568,"is_reserved":false,"is_disabled":false,"rental_uris":{"android":"levelo://app?vid=fde5d727-d1b4-4859-8d52-424400ca0ed9","ios":"levelo://app?vid=fde5d727-d1b4-4859-8d52-424400ca0ed9"},"vehicle_type_id":"4","last_reported":1749831173,"current_range_meters":19200,"station_id":"ce4bhu92rcd13ifvqi70","pricing_plan_id":"cebpf4jnsgd1na2vs0mg"},{"bike_id":"65e007e7-79f9-4d82-936b-ef1255ec5063","system_id":"levelo_inurba_marseille","lat":43.26373,"lon":5.37812,"is_reserved":false,"is_disabled":false,"rental_uris":{"android":"levelo://app?vid=65e007e7-79f9-4d82-936b-ef1255ec5063","ios":"levelo://app?vid=65e007e7-79f9-4d82-936b-ef1255ec5063"},"vehicle_type_id":"4","last_reported":1749831173,"current_range_meters":19200,"station_id":"st_d163nis0mtpqnht9uue0","pricing_plan_id":"cebpf4jnsgd1na2vs0mg"},{"bike_id":"bd9cc34a-ebeb-4058-9ab8-6d0d3fa88d0c","system_id":"levelo_inurba_marseille","lat":43.28743,"lon":5.35219,"is_reserved":false,"is_disabled":false,"rental_uris":{"android":"levelo://app?vid=bd9cc34a-ebeb-4058-9ab8-6d0d3fa88d0c","ios":"levelo://app?vid=bd9cc34a-ebeb-4058-9ab8-6d0d3fa88d0c"},"vehicle_type_id":"4","last_reported":1749831173,"current_range_meters":19600,"station_id":"","pricing_plan_id":"cebpf4jnsgd1na2vs0mg"},{"bike_id":"0c8d7a3a-9a3d-42ef-a000-ba2c7dcd440d","system_id":"levelo_inurba_marseille","lat":43.27617,"lon":5.36107,"is_reserved":false,"is_disabled":false,"rental_uris":{"android":"levelo://app?vid=0c8d7a3a-9a3d-42ef-a000-ba2c7dcd440d","ios":"levelo://app?vid=0c8d7a3a-9a3d-42ef-a000-ba2c7dcd440d"},"vehicle_type_id":"4","last_reported":1749831173,"current_range_meters":19600,"station_id":"ce4bgj92rcd13ifvqbe0","pricing_plan_id":"cebpf4jnsgd1na2vs0mg"},{"bike_id":"10f66477-76c3-45db-ad71-d4a9c35a2189","system_id":"levelo_inurba_marseille","lat":43.28404,"lon":5.34996,"is_reserved":false,"is_disabled":false,"rental_uris":{"android":"levelo://app?vid=10f66477-76c3-45db-ad71-d4a9c35a2189","ios":"levelo://app?vid=10f66477-76c3-45db-ad71-d4a9c35a2189"},"vehicle_type_id":"4","last_reported":1749831173,"current_range_meters":19600,"station_id":"ce4bhbh2rcd13ifvqepg","pricing_plan_id":"cebpf4jnsgd1na2vs0mg"},{"bike_id":"14d7feea-ee99-43e2-bdf5-63473614991c","system_id":"levelo_inurba_marseille","lat":43.25824,"lon":5.39438,"is_reserved":false,"is_disabled":false,"rental_uris":{"android":"levelo://app?vid=14d7feea-ee99-43e2-bdf5-63473614991c","ios":"levelo://app?vid=14d7feea-ee99-43e2-bdf5-63473614991c"},"vehicle_type_id":"4","last_reported":1749831173,"current_range_meters":19600,"station_id":"ce4bhip2rcd13ifvqft0","pricing_plan_id":"cebpf4jnsgd1na2vs0mg"},{"bike_id":"679d881d-2dfe-4ec2-babb-8b09d0832382","system_id":"levelo_inurba_marseille","lat":43.32785,"lon":5.39148,"is_reserved":false,"is_disabled":false,"rental_uris":{"android":"levelo://app?vid=679d881d-2dfe-4ec2-babb-8b09d0832382","ios":"levelo://app?vid=679d881d-2dfe-4ec2-babb-8b09d0832382"},"vehicle_type_id":"4","last_reported":1749831173,"current_range_meters":20000,"station_id":"","pricing_plan_id":"cebpf4jnsgd1na2vs0mg"},{"bike_id":"bf015f3e-0cd8-4223-84cd-b98de4df2b4e","system_id":"levelo_inurba_marseille","lat":43.29513,"lon":5.39044,"is_reserved":false,"is_disabled":false,"rental_uris":{"android":"levelo://app?vid=bf015f3e-0cd8-4223-84cd-b98de4df2b4e","ios":"levelo://app?vid=bf015f3e-0cd8-4223-84cd-b98de4df2b4e"},"vehicle_type_id":"4","last_reported":1749831173,"current_range_meters":20000,"station_id":"ce4bh3p2rcd13ifvqdp0","pricing_plan_id":"cebpf4jnsgd1na2vs0mg"},{"bike_id":"6b807d5a-7bf1-4a5d-a37a-bcd41918c93d","system_id":"levelo_inurba_marseille","lat":43.27375,"lon":5.36259,"is_reserved":false,"is_disabled":false,"rental_uris":{"android":"levelo://app?vid=6b807d5a-7bf1-4a5d-a37a-bcd41918c93d","ios":"levelo://app?vid=6b807d5a-7bf1-4a5d-a37a-bcd41918c93d"},"vehicle_type_id":"4","last_reported":1749831173,"current_range_meters":20000,"station_id":"ce4bhbh2rcd13ifvqeo0","pricing_plan_id":"cebpf4jnsgd1na2vs0mg"},{"bike_id":"2783e6a8-37cb-4711-b8ed-2fd6dbb1cb23","system_id":"levelo_inurba_marseille","lat":43.28411,"lon":5.34993,"is_reserved":false,"is_disabled":false,"rental_uris":{"android":"levelo://app?vid=2783e6a8-37cb-4711-b8ed-2fd6dbb1cb23","ios":"levelo://app?vid=2783e6a8-37cb-4711-b8ed-2fd6dbb1cb23"},"vehicle_type_id":"4","last_reported":1749831173,"current_range_meters":20000,"station_id":"ce4bhbh2rcd13ifvqepg","pricing_plan_id":"cebpf4jnsgd1na2vs0mg"},{"bike_id":"7240a984-bb6d-4c3b-ab8d-aef55ac0bce8","system_id":"levelo_inurba_marseille","lat":43.212,"lon":5.35099,"is_reserved":false,"is_disabled":false,"rental_uris":{"android":"levelo://app?vid=7240a984-bb6d-4c3b-ab8d-aef55ac0bce8","ios":"levelo://app?vid=7240a984-bb6d-4c3b-ab8d-aef55ac0bce8"},"vehicle_type_id":"4","last_reported":1749831173,"current_range_meters":20000,"station_id":"st_cvj6sg6p6f1abm77japg","pricing_plan_id":"cebpf4jnsgd1na2vs0mg"},{"bike_id":"c82f75f2-635c-40da-9f67-77d82cb74c97","system_id":"levelo_inurba_marseille","lat":43.21182,"lon":5.35093,"is_reserved":false,"is_disabled":false,"rental_uris":{"android":"levelo://app?vid=c82f75f2-635c-40da-9f67-77d82cb74c97","ios":"levelo://app?vid=c82f75f2-635c-40da-9f67-77d82cb74c97"},"vehicle_type_id":"4","last_reported":1749831173,"current_range_meters":20000,"station_id":"st_cvj6sg6p6f1abm77japg","pricing_plan_id":"cebpf4jnsgd1na2vs0mg"},{"bike_id":"b87665d3-834b-4835-b895-064f88298246","system_id":"levelo_inurba_marseille","lat":43.26364,"lon":5.37824,"is_reserved":false,"is_disabled":false,"rental_uris":{"android":"levelo://app?vid=b87665d3-834b-4835-b895-064f88298246","ios":"levelo://app?vid=b87665d3-834b-4835-b895-064f88298246"},"vehicle_type_id":"4","last_reported":1749831173,"current_range_meters":20000,"station_id":"st_d163nis0mtpqnht9uue0","pricing_plan_id":"cebpf4jnsgd1na2vs0mg"},{"bike_id":"a8283606-6fdf-49b2-991a-62bc6fc9988a","system_id":"levelo_inurba_marseille","lat":43.22505,"lon":5.34787,"is_reserved":false,"is_disabled":false,"rental_uris":{"android":"levelo://app?vid=a8283606-6fdf-49b2-991a-62bc6fc9988a","ios":"levelo://app?vid=a8283606-6fdf-49b2-991a-62bc6fc9988a"},"vehicle_type_id":"4","last_reported":1749831173,"current_range_meters":20400,"station_id":"","pricing_plan_id":"cebpf4jnsgd1na2vs0mg"},{"bike_id":"5c8896aa-7767-45a9-8952-5086e5afc8df","system_id":"levelo_inurba_marseille","lat":43.263657,"lon":5.378067,"is_reserved":false,"is_disabled":false,"rental_uris":{"android":"levelo://app?vid=5c8896aa-7767-45a9-8952-5086e5afc8df","ios":"levelo://app?vid=5c8896aa-7767-45a9-8952-5086e5afc8df"},"vehicle_type_id":"4","last_reported":1749831173,"current_range_meters":20400,"station_id":"st_d163nis0mtpqnht9uue0","pricing_plan_id":"cebpf4jnsgd1na2vs0mg"},{"bike_id":"0834cf59-1cc7-4878-b502-86beeba0e0f4","system_id":"levelo_inurba_marseille","lat":43.26365,"lon":5.37814,"is_reserved":false,"is_disabled":false,"rental_uris":{"android":"levelo://app?vid=0834cf59-1cc7-4878-b502-86beeba0e0f4","ios":"levelo://app?vid=0834cf59-1cc7-4878-b502-86beeba0e0f4"},"vehicle_type_id":"4","last_reported":1749831173,"current_range_meters":20400,"station_id":"st_d163nis0mtpqnht9uue0","pricing_plan_id":"cebpf4jnsgd1na2vs0mg"},{"bike_id":"67aeb570-d5d3-4dfd-b2fe-5371cbf739f5","system_id":"levelo_inurba_marseille","lat":43.28409,"lon":5.35017,"is_reserved":false,"is_disabled":false,"rental_uris":{"android":"levelo://app?vid=67aeb570-d5d3-4dfd-b2fe-5371cbf739f5","ios":"levelo://app?vid=67aeb570-d5d3-4dfd-b2fe-5371cbf739f5"},"vehicle_type_id":"4","last_reported":1749831173,"current_range_meters":20800,"station_id":"ce4bhbh2rcd13ifvqepg","pricing_plan_id":"cebpf4jnsgd1na2vs0mg"},{"bike_id":"9145c2a5-8440-4fb2-a044-a388068ff0bc","system_id":"levelo_inurba_marseille","lat":43.28632,"lon":5.35084,"is_reserved":false,"is_disabled":false,"rental_uris":{"android":"levelo://app?vid=9145c2a5-8440-4fb2-a044-a388068ff0bc","ios":"levelo://app?vid=9145c2a5-8440-4fb2-a044-a388068ff0bc"},"vehicle_type_id":"4","last_reported":1749831173,"current_range_meters":20800,"station_id":"ce4bhch2rcd13ifvqeug","pricing_plan_id":"cebpf4jnsgd1na2vs0mg"},{"bike_id":"81bb33bf-491b-48bd-b1fc-5cada4fbebb3","system_id":"levelo_inurba_marseille","lat":43.26553,"lon":5.37289,"is_reserved":false,"is_disabled":false,"rental_uris":{"android":"levelo://app?vid=81bb33bf-491b-48bd-b1fc-5cada4fbebb3","ios":"levelo://app?vid=81bb33bf-491b-48bd-b1fc-5cada4fbebb3"},"vehicle_type_id":"4","last_reported":1749831173,"current_range_meters":20800,"station_id":"ce4bhg12rcd13ifvqf70","pricing_plan_id":"cebpf4jnsgd1na2vs0mg"},{"bike_id":"0aa971a1-83cb-4b29-8176-65986212db0b","system_id":"levelo_inurba_marseille","lat":43.2512,"lon":5.40326,"is_reserved":false,"is_disabled":false,"rental_uris":{"android":"levelo://app?vid=0aa971a1-83cb-4b29-8176-65986212db0b","ios":"levelo://app?vid=0aa971a1-83cb-4b29-8176-65986212db0b"},"vehicle_type_id":"4","last_reported":1749831173,"current_range_meters":20800,"station_id":"ce4bhlh2rcd13ifvqgig","pricing_plan_id":"cebpf4jnsgd1na2vs0mg"},{"bike_id":"1f685c96-2a8e-4e3f-9a5e-b3235f296b96","system_id":"levelo_inurba_marseille","lat":43.24077,"lon":5.3775,"is_reserved":false,"is_disabled":false,"rental_uris":{"android":"levelo://app?vid=1f685c96-2a8e-4e3f-9a5e-b3235f296b96","ios":"levelo://app?vid=1f685c96-2a8e-4e3f-9a5e-b3235f296b96"},"vehicle_type_id":"4","last_reported":1749831173,"current_range_meters":20800,"station_id":"ce4bhnp2rcd13ifvqgvg","pricing_plan_id":"cebpf4jnsgd1na2vs0mg"},{"bike_id":"e07237e1-21e1-4c8e-89ec-d69e5cd00949","system_id":"levelo_inurba_marseille","lat":43.2173,"lon":5.34591,"is_reserved":false,"is_disabled":false,"rental_uris":{"android":"levelo://app?vid=e07237e1-21e1-4c8e-89ec-d69e5cd00949","ios":"levelo://app?vid=e07237e1-21e1-4c8e-89ec-d69e5cd00949"},"vehicle_type_id":"4","last_reported":1749831173,"current_range_meters":20800,"station_id":"st_cvj6r9ubvosntc0bgbag","pricing_plan_id":"cebpf4jnsgd1na2vs0mg"},{"bike_id":"ca181593-a606-4570-ae2b-e9bbf3c694e2","system_id":"levelo_inurba_marseille","lat":43.255748,"lon":5.382262,"is_reserved":false,"is_disabled":false,"rental_uris":{"android":"levelo://app?vid=ca181593-a606-4570-ae2b-e9bbf3c694e2","ios":"levelo://app?vid=ca181593-a606-4570-ae2b-e9bbf3c694e2"},"vehicle_type_id":"4","last_reported":1749831173,"current_range_meters":21600,"station_id":"","pricing_plan_id":"cebpf4jnsgd1na2vs0mg"},{"bike_id":"d81ebef1-def3-4b3b-8a2c-e915262efa10","system_id":"levelo_inurba_marseille","lat":43.3288,"lon":5.391633,"is_reserved":false,"is_disabled":false,"rental_uris":{"android":"levelo://app?vid=d81ebef1-def3-4b3b-8a2c-e915262efa10","ios":"levelo://app?vid=d81ebef1-def3-4b3b-8a2c-e915262efa10"},"vehicle_type_id":"4","last_reported":1749831173,"current_range_meters":21600,"station_id":"","pricing_plan_id":"cebpf4jnsgd1na2vs0mg"},{"bike_id":"353472f3-8208-45e4-942e-6f93816fb866","system_id":"levelo_inurba_marseille","lat":43.25628,"lon":5.38315,"is_reserved":false,"is_disabled":false,"rental_uris":{"android":"levelo://app?vid=353472f3-8208-45e4-942e-6f93816fb866","ios":"levelo://app?vid=353472f3-8208-45e4-942e-6f93816fb866"},"vehicle_type_id":"4","last_reported":1749831173,"current_range_meters":21600,"station_id":"","pricing_plan_id":"cebpf4jnsgd1na2vs0mg"},{"bike_id":"a58cd50b-fd0e-4042-a4a6-8abbae14fbe8","system_id":"levelo_inurba_marseille","lat":43.3134,"lon":5.39673,"is_reserved":false,"is_disabled":false,"rental_uris":{"android":"levelo://app?vid=a58cd50b-fd0e-4042-a4a6-8abbae14fbe8","ios":"levelo://app?vid=a58cd50b-fd0e-4042-a4a6-8abbae14fbe8"},"vehicle_type_id":"4","last_reported":1749831173,"current_range_meters":21600,"station_id":"ce4bgvp2rcd13ifvqcu0","pricing_plan_id":"cebpf4jnsgd1na2vs0mg"},{"bike_id":"81b60ae3-0fe3-49f3-9264-afe2182480e2","system_id":"levelo_inurba_marseille","lat":43.29579,"lon":5.3999,"is_reserved":false,"is_disabled":false,"rental_uris":{"android":"levelo://app?vid=81b60ae3-0fe3-49f3-9264-afe2182480e2","ios":"levelo://app?vid=81b60ae3-0fe3-49f3-9264-afe2182480e2"},"vehicle_type_id":"4","last_reported":1749831173,"current_range_meters":21600,"station_id":"ce4bh312rcd13ifvqdj0","pricing_plan_id":"cebpf4jnsgd1na2vs0mg"},{"bike_id":"5563c237-ee16-4552-b830-7b5d85638248","system_id":"levelo_inurba_marseille","lat":43.24807,"lon":5.3746,"is_reserved":false,"is_disabled":false,"rental_uris":{"android":"levelo://app?vid=5563c237-ee16-4552-b830-7b5d85638248","ios":"levelo://app?vid=5563c237-ee16-4552-b830-7b5d85638248"},"vehicle_type_id":"4","last_reported":1749831173,"current_range_meters":21600,"station_id":"ce4bhgh2rcd13ifvqfb0","pricing_plan_id":"cebpf4jnsgd1na2vs0mg"},{"bike_id":"96a6e1c5-89fe-41c1-824f-86be1aa3c668","system_id":"levelo_inurba_marseille","lat":43.29891,"lon":5.4366,"is_reserved":false,"is_disabled":false,"rental_uris":{"android":"levelo://app?vid=96a6e1c5-89fe-41c1-824f-86be1aa3c668","ios":"levelo://app?vid=96a6e1c5-89fe-41c1-824f-86be1aa3c668"},"vehicle_type_id":"4","last_reported":1749831173,"current_range_meters":21600,"station_id":"ce4bhpp2rcd13ifvqhfg","pricing_plan_id":"cebpf4jnsgd1na2vs0mg"},{"bike_id":"40a9ef07-b42b-4aa0-8516-e56d1f3fd267","system_id":"levelo_inurba_marseille","lat":43.33003,"lon":5.38994,"is_reserved":false,"is_disabled":false,"rental_uris":{"android":"levelo://app?vid=40a9ef07-b42b-4aa0-8516-e56d1f3fd267","ios":"levelo://app?vid=40a9ef07-b42b-4aa0-8516-e56d1f3fd267"},"vehicle_type_id":"4","last_reported":1749831173,"current_range_meters":21600,"station_id":"ce4bhr92rcd13ifvqhrg","pricing_plan_id":"cebpf4jnsgd1na2vs0mg"},{"bike_id":"25638e98-9a31-4b5b-91d1-35ecce5a10fd","system_id":"levelo_inurba_marseille","lat":43.241677,"lon":5.363938,"is_reserved":false,"is_disabled":false,"rental_uris":{"android":"levelo://app?vid=25638e98-9a31-4b5b-91d1-35ecce5a10fd","ios":"levelo://app?vid=25638e98-9a31-4b5b-91d1-35ecce5a10fd"},"vehicle_type_id":"4","last_reported":1749831173,"current_range_meters":21600,"station_id":"cpo36qri1sfpv3e86is0","pricing_plan_id":"cebpf4jnsgd1na2vs0mg"},{"bike_id":"2e555dff-22c0-4d51-9ade-e3168fb145c7","system_id":"levelo_inurba_marseille","lat":43.24176,"lon":5.36388,"is_reserved":false,"is_disabled":false,"rental_uris":{"android":"levelo://app?vid=2e555dff-22c0-4d51-9ade-e3168fb145c7","ios":"levelo://app?vid=2e555dff-22c0-4d51-9ade-e3168fb145c7"},"vehicle_type_id":"4","last_reported":1749831173,"current_range_meters":21600,"station_id":"cpo36qri1sfpv3e86is0","pricing_plan_id":"cebpf4jnsgd1na2vs0mg"},{"bike_id":"a7b026ab-7e1a-436f-a6ba-fdca1bd5cb67","system_id":"levelo_inurba_marseille","lat":43.29884,"lon":5.38296,"is_reserved":false,"is_disabled":false,"rental_uris":{"android":"levelo://app?vid=a7b026ab-7e1a-436f-a6ba-fdca1bd5cb67","ios":"levelo://app?vid=a7b026ab-7e1a-436f-a6ba-fdca1bd5cb67"},"vehicle_type_id":"4","last_reported":1749831173,"current_range_meters":22000,"station_id":"","pricing_plan_id":"cebpf4jnsgd1na2vs0mg"},{"bike_id":"ae642fb2-76f1-4ae4-82d3-023ae8d94fb0","system_id":"levelo_inurba_marseille","lat":43.29889,"lon":5.38893,"is_reserved":false,"is_disabled":false,"rental_uris":{"android":"levelo://app?vid=ae642fb2-76f1-4ae4-82d3-023ae8d94fb0","ios":"levelo://app?vid=ae642fb2-76f1-4ae4-82d3-023ae8d94fb0"},"vehicle_type_id":"4","last_reported":1749831173,"current_range_meters":22000,"station_id":"ce4bh392rcd13ifvqdl0","pricing_plan_id":"cebpf4jnsgd1na2vs0mg"},{"bike_id":"9fad3d43-b855-4f2f-bb2a-3cf0f629709e","system_id":"levelo_inurba_marseille","lat":43.25569,"lon":5.38242,"is_reserved":false,"is_disabled":false,"rental_uris":{"android":"levelo://app?vid=9fad3d43-b855-4f2f-bb2a-3cf0f629709e","ios":"levelo://app?vid=9fad3d43-b855-4f2f-bb2a-3cf0f629709e"},