{"last_updated":1702138076,"ttl":30,"version":"2.2","data":{"bikes":[{"bike_id":"e9a8aa8b-3859-426e-a4e5-df3effdb8b6c","system_id":"levelo_inurba_marseille","lat":43.314811,"lon":5.373104,"is_reserved":false,"is_disabled":false,"rental_uris":{"android":"levelo://app?vid=e9a8aa8b-3859-426e-a4e5-df3effdb8b6c","ios":"levelo://app?vid=e9a8aa8b-3859-426e-a4e5-df3effdb8b6c"},"vehicle_type_id":"4","last_reported":1702138076,"current_range_meters":2400,"station_id":"ce4bgt12rcd13ifvqcd0","pricing_plan_id":"free"},{"bike_id":"60039538-f589-4759-9f1d-9b0bb523ab55","system_id":"levelo_inurba_marseille","lat":43.314811,"lon":5.373104,"is_reserved":false,"is_disabled":false,"rental_uris":{"android":"levelo://app?vid=60039538-f589-4759-9f1d-9b0bb523ab55","ios":"levelo://app?vid=60039538-f589-4759-9f1d-9b0bb523ab55"},"vehicle_type_id":"4","last_reported":1702138076,"current_range_meters":0,"station_id":"ce4bgt12rcd13ifvqcd0","pricing_plan_id":"free"},{"bike_id":"8213fb51-6ca0-4f12-9e9a-b9f26db97a3d","system_id":"levelo_inurba_marseille","lat":43.31502,"lon":5.37317,"is_reserved":false,"is_disabled":false,"rental_uris":{"android":"levelo://app?vid=8213fb51-6ca0-4f12-9e9a-b9f26db97a3d","ios":"levelo://app?vid=8213fb51-6ca0-4f12-9e9a-b9f26db97a3d"},"vehicle_type_id":"4","last_reported":1702138076,"current_range_meters":26000,"station_id":"ce4bgt12rcd13ifvqcd0","pricing_plan_id":"free"},{"bike_id":"c5821e97-4ba6-4d85-a3df-c3ae2f0cb257","system_id":"levelo_inurba_marseille","lat":43.305714,"lon":5.365633,"is_reserved":false,"is_disabled":false,"rental_uris":{"android":"levelo://app?vid=c5821e97-4ba6-4d85-a3df-c3ae2f0cb257","ios":"levelo://app?vid=c5821e97-4ba6-4d85-a3df-c3ae2f0cb257"},"vehicle_type_id":"4","last_reported":1702138076,"current_range_meters":6400,"station_id":"ce4bgs12rcd13ifvqcag","pricing_plan_id":"free"},{"bike_id":"c4e49cb9-c4bb-410e-8588-ba27e7049f35","system_id":"levelo_inurba_marseille","lat":43.305712,"lon":5.365641,"is_reserved":false,"is_disabled":false,"rental_uris":{"android":"levelo://app?vid=c4e49cb9-c4bb-410e-8588-ba27e7049f35","ios":"levelo://app?vid=c4e49cb9-c4bb-410e-8588-ba27e7049f35"},"vehicle_type_id":"4","last_reported":1702138076,"current_range_meters":30400,"station_id":"ce4bgs12rcd13ifvqcag","pricing_plan_id":"free"},{"bike_id":"e7020339-50a0-4687-bf37-7a8045851bf1","system_id":"levelo_inurba_marseille","lat":43.305714,"lon":5.365633,"is_reserved":false,"is_disabled":false,"rental_uris":{"android":"levelo://app?vid=e7020339-50a0-4687-bf37-7a8045851bf1","ios":"levelo://app?vid=e7020339-50a0-4687-bf37-7a8045851bf1"},"vehicle_type_id":"4","last_reported":1702138076,"current_range_meters":20400,"station_id":"ce4bgs12rcd13ifvqcag","pricing_plan_id":"free"},{"bike_id":"10113f5c-693c-4a45-95bd-388b3ccbb72d","system_id":"levelo_inurba_marseille","lat":43.305368,"lon":5.367343,"is_reserved":false,"is_disabled":false,"rental_uris":{"android":"levelo://app?vid=10113f5c-693c-4a45-95bd-388b3ccbb72d","ios":"levelo://app?vid=10113f5c-693c-4a45-95bd-388b3ccbb72d"},"vehicle_type_id":"4","last_reported":1702138076,"current_range_meters":12800,"station_id":"ce4bgrp2rcd13ifvqc9g","pricing_plan_id":"free"},{"bike_id":"bc97863d-4864-43a8-8bd4-be8e70c0cb60","system_id":"levelo_inurba_marseille","lat":43.305368,"lon":5.367343,"is_reserved":false,"is_disabled":false,"rental_uris":{"android":"levelo://app?vid=bc97863d-4864-43a8-8bd4-be8e70c0cb60","ios":"levelo://app?vid=bc97863d-4864-43a8-8bd4-be8e70c0cb60"},"vehicle_type_id":"4","last_reported":1702138076,"current_range_meters":10800,"station_id":"ce4bgrp2rcd13ifvqc9g","pricing_plan_id":"free"},{"bike_id":"268365e1-d8d6-4e7f-9cd9-5b1ca64c2108","system_id":"levelo_inurba_marseille","lat":43.305706,"lon":5.365654,"is_reserved":false,"is_disabled":false,"rental_uris":{"android":"levelo://app?vid=268365e1-d8d6-4e7f-9cd9-5b1ca64c2108","ios":"levelo://app?vid=268365e1-d8d6-4e7f-9cd9-5b1ca64c2108"},"vehicle_type_id":"4","last_reported":1702138076,"current_range_meters":20400,"station_id":"ce4bgs12rcd13ifvqcag","pricing_plan_id":"free"},{"bike_id":"81bad8cb-0ae2-48fc-bb54-b5cf60a49073","system_id":"levelo_inurba_marseille","lat":43.305714,"lon":5.365633,"is_reserved":false,"is_disabled":false,"rental_uris":{"android":"levelo://app?vid=81bad8cb-0ae2-48fc-bb54-b5cf60a49073","ios":"levelo://app?vid=81bad8cb-0ae2-48fc-bb54-b5cf60a49073"},"vehicle_type_id":"4","last_reported":1702138076,"current_range_meters":14800,"station_id":"ce4bgs12rcd13ifvqcag","pricing_plan_id":"free"},{"bike_id":"a2fb94e9-7397-4786-92ff-0f4ec9fb21bf","system_id":"levelo_inurba_marseille","lat":43.305706,"lon":5.365654,"is_reserved":false,"is_disabled":false,"rental_uris":{"android":"levelo://app?vid=a2fb94e9-7397-4786-92ff-0f4ec9fb21bf","ios":"levelo://app?vid=a2fb94e9-7397-4786-92ff-0f4ec9fb21bf"},"vehicle_type_id":"4","last_reported":1702138076,"current_range_meters":22000,"station_id":"ce4bgs12rcd13ifvqcag","pricing_plan_id":"free"},{"bike_id":"2ec37f5e-f716-4784-ba62-5746d992d237","system_id":"levelo_inurba_marseille","lat":43.305706,"lon":5.365654,"is_reserved":false,"is_disabled":false,"rental_uris":{"android":"levelo://app?vid=2ec37f5e-f716-4784-ba62-5746d992d237","ios":"levelo://app?vid=2ec37f5e-f716-4784-ba62-5746d992d237"},"vehicle_type_id":"4","last_reported":1702138076,"current_range_meters":29200,"station_id":"ce4bgs12rcd13ifvqcag","pricing_plan_id":"free"},{"bike_id":"f4123058-fd35-4881-92d9-d15ea00ec315","system_id":"levelo_inurba_marseille","lat":43.305706,"lon":5.365654,"is_reserved":false,"is_disabled":false,"rental_uris":{"android":"levelo://app?vid=f4123058-fd35-4881-92d9-d15ea00ec315","ios":"levelo://app?vid=f4123058-fd35-4881-92d9-d15ea00ec315"},"vehicle_type_id":"4","last_reported":1702138076,"current_range_meters":12800,"station_id":"ce4bgs12rcd13ifvqcag","pricing_plan_id":"free"},{"bike_id":"b9a12923-2bc9-4e5b-abe4-2954ed61678e","system_id":"levelo_inurba_marseille","lat":43.305706,"lon":5.365654,"is_reserved":false,"is_disabled":false,"rental_uris":{"android":"levelo://app?vid=b9a12923-2bc9-4e5b-abe4-2954ed61678e","ios":"levelo://app?vid=b9a12923-2bc9-4e5b-abe4-2954ed61678e"},"vehicle_type_id":"4","last_reported":1702138076,"current_range_meters":10400,"station_id":"ce4bgs12rcd13ifvqcag","pricing_plan_id":"free"},{"bike_id":"fa56d76d-de05-4487-8fda-a5ec1053219f","system_id":"levelo_inurba_marseille","lat":43.305103,"lon":5.367247,"is_reserved":false,"is_disabled":false,"rental_uris":{"android":"levelo://app?vid=fa56d76d-de05-4487-8fda-a5ec1053219f","ios":"levelo://app?vid=fa56d76d-de05-4487-8fda-a5ec1053219f"},"vehicle_type_id":"4","last_reported":1702138076,"current_range_meters":18800,"station_id":"ce4bgrp2rcd13ifvqc9g","pricing_plan_id":"free"},{"bike_id":"8f8ca50b-9290-4ad5-9ab3-955dfdf6edee","system_id":"levelo_inurba_marseille","lat":43.306353,"lon":5.373187,"is_reserved":false,"is_disabled":false,"rental_uris":{"android":"levelo://app?vid=8f8ca50b-9290-4ad5-9ab3-955dfdf6edee","ios":"levelo://app?vid=8f8ca50b-9290-4ad5-9ab3-955dfdf6edee"},"vehicle_type_id":"4","last_reported":1702138076,"current_range_meters":20400,"station_id":"","pricing_plan_id":"free"},{"bike_id":"c1816696-101d-4814-b339-4386299ff88b","system_id":"levelo_inurba_marseille","lat":43.307945,"lon":5.376487,"is_reserved":false,"is_disabled":false,"rental_uris":{"android":"levelo://app?vid=c1816696-101d-4814-b339-4386299ff88b","ios":"levelo://app?vid=c1816696-101d-4814-b339-4386299ff88b"},"vehicle_type_id":"4","last_reported":1702138076,"current_range_meters":2400,"station_id":"ce4bgv92rcd13ifvqcq0","pricing_plan_id":"free"},{"bike_id":"f57112a7-80d9-4afc-b424-244b1e5ce648","system_id":"levelo_inurba_marseille","lat":43.301939,"lon":5.366286,"is_reserved":false,"is_disabled":false,"rental_uris":{"android":"levelo://app?vid=f57112a7-80d9-4afc-b424-244b1e5ce648","ios":"levelo://app?vid=f57112a7-80d9-4afc-b424-244b1e5ce648"},"vehicle_type_id":"4","last_reported":1702138076,"current_range_meters":22000,"station_id":"ce4bgrh2rcd13ifvqc8g","pricing_plan_id":"free"},{"bike_id":"1547c891-3f6e-49cc-9452-9d8f81f5c7ca","system_id":"levelo_inurba_marseille","lat":43.30809,"lon":5.38158,"is_reserved":false,"is_disabled":false,"rental_uris":{"android":"levelo://app?vid=1547c891-3f6e-49cc-9452-9d8f81f5c7ca","ios":"levelo://app?vid=1547c891-3f6e-49cc-9452-9d8f81f5c7ca"},"vehicle_type_id":"4","last_reported":1702138076,"current_range_meters":19600,"station_id":"ce4bgt12rcd13ifvqce0","pricing_plan_id":"free"},{"bike_id":"f82a34af-7760-47b9-86d5-eb19d04f4003","system_id":"levelo_inurba_marseille","lat":43.304606,"lon":5.379026,"is_reserved":false,"is_disabled":false,"rental_uris":{"android":"levelo://app?vid=f82a34af-7760-47b9-86d5-eb19d04f4003","ios":"levelo://app?vid=f82a34af-7760-47b9-86d5-eb19d04f4003"},"vehicle_type_id":"4","last_reported":1702138076,"current_range_meters":26400,"station_id":"ce4bgup2rcd13ifvqcn0","pricing_plan_id":"free"},{"bike_id":"065e5e0e-66f2-43e9-b053-2c436aee1268","system_id":"levelo_inurba_marseille","lat":43.302784,"lon":5.377158,"is_reserved":false,"is_disabled":false,"rental_uris":{"android":"levelo://app?vid=065e5e0e-66f2-43e9-b053-2c436aee1268","ios":"levelo://app?vid=065e5e0e-66f2-43e9-b053-2c436aee1268"},"vehicle_type_id":"4","last_reported":1702138076,"current_range_meters":27600,"station_id":"ce4bguh2rcd13ifvqcj0","pricing_plan_id":"free"},{"bike_id":"38c2c9f1-5b2b-4ecc-b4ca-9656c0218954","system_id":"levelo_inurba_marseille","lat":43.31996,"lon":5.38149,"is_reserved":false,"is_disabled":false,"rental_uris":{"android":"levelo://app?vid=38c2c9f1-5b2b-4ecc-b4ca-9656c0218954","ios":"levelo://app?vid=38c2c9f1-5b2b-4ecc-b4ca-9656c0218954"},"vehicle_type_id":"4","last_reported":1702138076,"current_range_meters":18000,"station_id":"ce4bhr12rcd13ifvqhpg","pricing_plan_id":"free"},{"bike_id":"bc5fbb97-360a-4591-ac4b-df0879d1eab4","system_id":"levelo_inurba_marseille","lat":43.31356,"lon":5.38493,"is_reserved":false,"is_disabled":false,"rental_uris":{"android":"levelo://app?vid=bc5fbb97-360a-4591-ac4b-df0879d1eab4","ios":"levelo://app?vid=bc5fbb97-360a-4591-ac4b-df0879d1eab4"},"vehicle_type_id":"4","last_reported":1702138076,"current_range_meters":23600,"station_id":"ce4bgt92rcd13ifvqcf0","pricing_plan_id":"free"},{"bike_id":"74a9ec74-7883-4d69-b673-bf48061f4e10","system_id":"levelo_inurba_marseille","lat":43.313571,"lon":5.384829,"is_reserved":false,"is_disabled":false,"rental_uris":{"android":"levelo://app?vid=74a9ec74-7883-4d69-b673-bf48061f4e10","ios":"levelo://app?vid=74a9ec74-7883-4d69-b673-bf48061f4e10"},"vehicle_type_id":"4","last_reported":1702138076,"current_range_meters":8400,"station_id":"ce4bgt92rcd13ifvqcf0","pricing_plan_id":"free"},{"bike_id":"4fc80d61-c99f-4309-9dc9-3b0a8aed798a","system_id":"levelo_inurba_marseille","lat":43.299222,"lon":5.365554,"is_reserved":false,"is_disabled":false,"rental_uris":{"android":"levelo://app?vid=4fc80d61-c99f-4309-9dc9-3b0a8aed798a","ios":"levelo://app?vid=4fc80d61-c99f-4309-9dc9-3b0a8aed798a"},"vehicle_type_id":"4","last_reported":1702138076,"current_range_meters":30400,"station_id":"ce4bgm92rcd13ifvqbr0","pricing_plan_id":"free"},{"bike_id":"f0ace676-01f6-4165-90f5-72899600b9a8","system_id":"levelo_inurba_marseille","lat":43.299735,"lon":5.374185,"is_reserved":false,"is_disabled":false,"rental_uris":{"android":"levelo://app?vid=f0ace676-01f6-4165-90f5-72899600b9a8","ios":"levelo://app?vid=f0ace676-01f6-4165-90f5-72899600b9a8"},"vehicle_type_id":"4","last_reported":1702138076,"current_range_meters":20000,"station_id":"","pricing_plan_id":"free"},{"bike_id":"41ffbfb5-7793-4fe1-ba98-ff9a3728de94","system_id":"levelo_inurba_marseille","lat":43.29977,"lon":5.37434,"is_reserved":false,"is_disabled":false,"rental_uris":{"android":"levelo://app?vid=41ffbfb5-7793-4fe1-ba98-ff9a3728de94","ios":"levelo://app?vid=41ffbfb5-7793-4fe1-ba98-ff9a3728de94"},"vehicle_type_id":"4","last_reported":1702138076,"current_range_meters":16800,"station_id":"","pricing_plan_id":"free"},{"bike_id":"5485b7db-030f-48ce-9321-52330d7617bc","system_id":"levelo_inurba_marseille","lat":43.305364,"lon":5.384119,"is_reserved":false,"is_disabled":false,"rental_uris":{"android":"levelo://app?vid=5485b7db-030f-48ce-9321-52330d7617bc","ios":"levelo://app?vid=5485b7db-030f-48ce-9321-52330d7617bc"},"vehicle_type_id":"4","last_reported":1702138076,"current_range_meters":4800,"station_id":"ce4bgg92rcd13ifvqb30","pricing_plan_id":"free"},{"bike_id":"38f1223e-a214-4eb0-9b54-a70de861d11b","system_id":"levelo_inurba_marseille","lat":43.3229,"lon":5.38262,"is_reserved":false,"is_disabled":false,"rental_uris":{"android":"levelo://app?vid=38f1223e-a214-4eb0-9b54-a70de861d11b","ios":"levelo://app?vid=38f1223e-a214-4eb0-9b54-a70de861d11b"},"vehicle_type_id":"4","last_reported":1702138076,"current_range_meters":22000,"station_id":"ce4bhr12rcd13ifvqhqg","pricing_plan_id":"free"},{"bike_id":"6ac675f1-e0be-498c-ad2f-b742a949d4b0","system_id":"levelo_inurba_marseille","lat":43.298218,"lon":5.374416,"is_reserved":false,"is_disabled":false,"rental_uris":{"android":"levelo://app?vid=6ac675f1-e0be-498c-ad2f-b742a949d4b0","ios":"levelo://app?vid=6ac675f1-e0be-498c-ad2f-b742a949d4b0"},"vehicle_type_id":"4","last_reported":1702138076,"current_range_meters":1600,"station_id":"","pricing_plan_id":"free"},{"bike_id":"a7395e94-15e6-400b-9b77-c4822faaabb2","system_id":"levelo_inurba_marseille","lat":43.328312,"lon":5.36688,"is_reserved":false,"is_disabled":false,"rental_uris":{"android":"levelo://app?vid=a7395e94-15e6-400b-9b77-c4822faaabb2","ios":"levelo://app?vid=a7395e94-15e6-400b-9b77-c4822faaabb2"},"vehicle_type_id":"4","last_reported":1702138076,"current_range_meters":0,"station_id":"ce4bhs92rcd13ifvqi0g","pricing_plan_id":"free"},{"bike_id":"92dc65d6-6823-4de3-93d4-056f738f090c","system_id":"levelo_inurba_marseille","lat":43.316538,"lon":5.38954,"is_reserved":false,"is_disabled":false,"rental_uris":{"android":"levelo://app?vid=92dc65d6-6823-4de3-93d4-056f738f090c","ios":"levelo://app?vid=92dc65d6-6823-4de3-93d4-056f738f090c"},"vehicle_type_id":"4","last_reported":1702138076,"current_range_meters":0,"station_id":"","pricing_plan_id":"free"},{"bike_id":"ea2d4f7c-c131-4f14-a7bc-f5c2879d4424","system_id":"levelo_inurba_marseille","lat":43.29639,"lon":5.37275,"is_reserved":false,"is_disabled":false,"rental_uris":{"android":"levelo://app?vid=ea2d4f7c-c131-4f14-a7bc-f5c2879d4424","ios":"levelo://app?vid=ea2d4f7c-c131-4f14-a7bc-f5c2879d4424"},"vehicle_type_id":"4","last_reported":1702138076,"current_range_meters":0,"station_id":"ce4bgk12rcd13ifvqbj0","pricing_plan_id":"free"},{"bike_id":"550a30fa-ac84-4f9d-9880-413f7f001d60","system_id":"levelo_inurba_marseille","lat":43.29573,"lon":5.367355,"is_reserved":false,"is_disabled":false,"rental_uris":{"android":"levelo://app?vid=550a30fa-ac84-4f9d-9880-413f7f001d60","ios":"levelo://app?vid=550a30fa-ac84-4f9d-9880-413f7f001d60"},"vehicle_type_id":"4","last_reported":1702138076,"current_range_meters":0,"station_id":"ce4bgph2rcd13ifvqc2g","pricing_plan_id":"free"},{"bike_id":"270aab4d-bc95-4bdc-8e43-342269843ce6","system_id":"levelo_inurba_marseille","lat":43.317557,"lon":5.390173,"is_reserved":false,"is_disabled":false,"rental_uris":{"android":"levelo://app?vid=270aab4d-bc95-4bdc-8e43-342269843ce6","ios":"levelo://app?vid=270aab4d-bc95-4bdc-8e43-342269843ce6"},"vehicle_type_id":"4","last_reported":1702138076,"current_range_meters":0,"station_id":"ce4bhqp2rcd13ifvqhng","pricing_plan_id":"free"},{"bike_id":"a2e0efc0-ec25-48e0-bcc6-f7ea629d350e","system_id":"levelo_inurba_marseille","lat":43.317557,"lon":5.390173,"is_reserved":false,"is_disabled":false,"rental_uris":{"android":"levelo://app?vid=a2e0efc0-ec25-48e0-bcc6-f7ea629d350e","ios":"levelo://app?vid=a2e0efc0-ec25-48e0-bcc6-f7ea629d350e"},"vehicle_type_id":"4","last_reported":1702138076,"current_range_meters":24000,"station_id":"ce4bhqp2rcd13ifvqhng","pricing_plan_id":"free"},{"bike_id":"5ed66215-e812-4934-8bd8-05fa06e2778c","system_id":"levelo_inurba_marseille","lat":43.330434,"lon":5.370144,"is_reserved":false,"is_disabled":false,"rental_uris":{"android":"levelo://app?vid=5ed66215-e812-4934-8bd8-05fa06e2778c","ios":"levelo://app?vid=5ed66215-e812-4934-8bd8-05fa06e2778c"},"vehicle_type_id":"4","last_reported":1702138076,"current_range_meters":28000,"station_id":"","pricing_plan_id":"free"},{"bike_id":"5c79bc93-8f13-4c40-8a8c-8f35d3902245","system_id":"levelo_inurba_marseille","lat":43.330491,"lon":5.370271,"is_reserved":false,"is_disabled":false,"rental_uris":{"android":"levelo://app?vid=5c79bc93-8f13-4c40-8a8c-8f35d3902245","ios":"levelo://app?vid=5c79bc93-8f13-4c40-8a8c-8f35d3902245"},"vehicle_type_id":"4","last_reported":1702138076,"current_range_meters":12800,"station_id":"","pricing_plan_id":"free"},{"bike_id":"5c69f4d9-a159-474d-a7e4-e9c95bdbd90f","system_id":"levelo_inurba_marseille","lat":43.299724,"lon":5.384848,"is_reserved":false,"is_disabled":false,"rental_uris":{"android":"levelo://app?vid=5c69f4d9-a159-474d-a7e4-e9c95bdbd90f","ios":"levelo://app?vid=5c69f4d9-a159-474d-a7e4-e9c95bdbd90f"},"vehicle_type_id":"4","last_reported":1702138076,"current_range_meters":0,"station_id":"ce4bgj92rcd13ifvqbd0","pricing_plan_id":"free"},{"bike_id":"e57ed6ea-9102-40cc-a0fc-5e40ee3267bb","system_id":"levelo_inurba_marseille","lat":43.29574,"lon":5.37507,"is_reserved":false,"is_disabled":false,"rental_uris":{"android":"levelo://app?vid=e57ed6ea-9102-40cc-a0fc-5e40ee3267bb","ios":"levelo://app?vid=e57ed6ea-9102-40cc-a0fc-5e40ee3267bb"},"vehicle_type_id":"4","last_reported":1702138076,"current_range_meters":0,"station_id":"ce4bgh92rcd13ifvqb50","pricing_plan_id":"free"},{"bike_id":"15cce60a-75cf-4c39-b338-18feb92881e6","system_id":"levelo_inurba_marseille","lat":43.29794,"lon":5.38112,"is_reserved":false,"is_disabled":false,"rental_uris":{"android":"levelo://app?vid=15cce60a-75cf-4c39-b338-18feb92881e6","ios":"levelo://app?vid=15cce60a-75cf-4c39-b338-18feb92881e6"},"vehicle_type_id":"4","last_reported":1702138076,"current_range_meters":16000,"station_id":"ce4bgip2rcd13ifvqbb0","pricing_plan_id":"free"},{"bike_id":"761d745e-2fbc-448c-928b-bc275c0321b3","system_id":"levelo_inurba_marseille","lat":43.296125,"lon":5.377202,"is_reserved":false,"is_disabled":false,"rental_uris":{"android":"levelo://app?vid=761d745e-2fbc-448c-928b-bc275c0321b3","ios":"levelo://app?vid=761d745e-2fbc-448c-928b-bc275c0321b3"},"vehicle_type_id":"4","last_reported":1702138076,"current_range_meters":18000,"station_id":"ce4bgi92rcd13ifvqb90","pricing_plan_id":"free"},{"bike_id":"823ec55d-b483-446a-b434-2dd781fca2e7","system_id":"levelo_inurba_marseille","lat":43.2959,"lon":5.38102,"is_reserved":false,"is_disabled":false,"rental_uris":{"android":"levelo://app?vid=823ec55d-b483-446a-b434-2dd781fca2e7","ios":"levelo://app?vid=823ec55d-b483-446a-b434-2dd781fca2e7"},"vehicle_type_id":"4","last_reported":1702138076,"current_range_meters":29200,"station_id":"ce4bgl12rcd13ifvqbo0","pricing_plan_id":"free"},{"bike_id":"5abb55b5-74f3-44ca-82e1-1be95a741b19","system_id":"levelo_inurba_marseille","lat":43.295194,"lon":5.39397,"is_reserved":false,"is_disabled":false,"rental_uris":{"android":"levelo://app?vid=5abb55b5-74f3-44ca-82e1-1be95a741b19","ios":"levelo://app?vid=5abb55b5-74f3-44ca-82e1-1be95a741b19"},"vehicle_type_id":"4","last_reported":1702138076,"current_range_meters":12400,"station_id":"ce4bh292rcd13ifvqdf0","pricing_plan_id":"free"},{"bike_id":"c5bf70e9-2c62-4626-8234-14efdbab86df","system_id":"levelo_inurba_marseille","lat":43.300852,"lon":5.390859,"is_reserved":false,"is_disabled":false,"rental_uris":{"android":"levelo://app?vid=c5bf70e9-2c62-4626-8234-14efdbab86df","ios":"levelo://app?vid=c5bf70e9-2c62-4626-8234-14efdbab86df"},"vehicle_type_id":"4","last_reported":1702138076,"current_range_meters":13600,"station_id":"ce4bh192rcd13ifvqdb0","pricing_plan_id":"free"},{"bike_id":"fac564d6-7a6c-419d-8937-1ffcb8b48b37","system_id":"levelo_inurba_marseille","lat":43.292643,"lon":5.376151,"is_reserved":false,"is_disabled":false,"rental_uris":{"android":"levelo://app?vid=fac564d6-7a6c-419d-8937-1ffcb8b48b37","ios":"levelo://app?vid=fac564d6-7a6c-419d-8937-1ffcb8b48b37"},"vehicle_type_id":"4","last_reported":1702138076,"current_range_meters":3200,"station_id":"ce4bgi12rcd13ifvqb80","pricing_plan_id":"free"},{"bike_id":"ffe8e861-9583-46be-9da3-462d5c1037ee","system_id":"levelo_inurba_marseille","lat":43.29264,"lon":5.37616,"is_reserved":false,"is_disabled":false,"rental_uris":{"android":"levelo://app?vid=ffe8e861-9583-46be-9da3-462d5c1037ee","ios":"levelo://app?vid=ffe8e861-9583-46be-9da3-462d5c1037ee"},"vehicle_type_id":"4","last_reported":1702138076,"current_range_meters":10800,"station_id":"ce4bgi12rcd13ifvqb80","pricing_plan_id":"free"},{"bike_id":"dfbd3411-9b58-438f-b740-8bbc50d70b2c","system_id":"levelo_inurba_marseille","lat":43.29187,"lon":5.35797,"is_reserved":false,"is_disabled":false,"rental_uris":{"android":"levelo://app?vid=dfbd3411-9b58-438f-b740-8bbc50d70b2c","ios":"levelo://app?vid=dfbd3411-9b58-438f-b740-8bbc50d70b2c"},"vehicle_type_id":"4","last_reported":1702138076,"current_range_meters":16400,"station_id":"ce4bhb12rcd13ifvqel0","pricing_plan_id":"free"},{"bike_id":"e4f1eba7-3533-43b5-ad35-4754c5bf55e1","system_id":"levelo_inurba_marseille","lat":43.309038,"lon":5.396546,"is_reserved":false,"is_disabled":false,"rental_uris":{"android":"levelo://app?vid=e4f1eba7-3533-43b5-ad35-4754c5bf55e1","ios":"levelo://app?vid=e4f1eba7-3533-43b5-ad35-4754c5bf55e1"},"vehicle_type_id":"4","last_reported":1702138076,"current_range_meters":4800,"station_id":"ce4bh012rcd13ifvqcv0","pricing_plan_id":"free"},{"bike_id":"d90e101f-be2e-40e8-8163-37c3a2c88b8e","system_id":"levelo_inurba_marseille","lat":43.302008,"lon":5.394694,"is_reserved":false,"is_disabled":false,"rental_uris":{"android":"levelo://app?vid=d90e101f-be2e-40e8-8163-37c3a2c88b8e","ios":"levelo://app?vid=d90e101f-be2e-40e8-8163-37c3a2c88b8e"},"vehicle_type_id":"4","last_reported":1702138076,"current_range_meters":21200,"station_id":"ce4bh0p2rcd13ifvqd70","pricing_plan_id":"free"},{"bike_id":"99eba0eb-f662-4c38-b2e0-40de859d7324","system_id":"levelo_inurba_marseille","lat":43.294153,"lon":5.386305,"is_reserved":false,"is_disabled":false,"rental_uris":{"android":"levelo://app?vid=99eba0eb-f662-4c38-b2e0-40de859d7324","ios":"levelo://app?vid=99eba0eb-f662-4c38-b2e0-40de859d7324"},"vehicle_type_id":"4","last_reported":1702138076,"current_range_meters":400,"station_id":"ce4bh2h2rcd13ifvqdh0","pricing_plan_id":"free"},{"bike_id":"86398b72-723d-40f7-9ac5-4b85d62db022","system_id":"levelo_inurba_marseille","lat":43.289184,"lon":5.366408,"is_reserved":false,"is_disabled":false,"rental_uris":{"android":"levelo://app?vid=86398b72-723d-40f7-9ac5-4b85d62db022","ios":"levelo://app?vid=86398b72-723d-40f7-9ac5-4b85d62db022"},"vehicle_type_id":"4","last_reported":1702138076,"current_range_meters":23600,"station_id":"ce4bhap2rcd13ifvqek0","pricing_plan_id":"free"},{"bike_id":"e4855bb4-1c12-4d82-acdd-075a280114c7","system_id":"levelo_inurba_marseille","lat":43.289184,"lon":5.366408,"is_reserved":false,"is_disabled":false,"rental_uris":{"android":"levelo://app?vid=e4855bb4-1c12-4d82-acdd-075a280114c7","ios":"levelo://app?vid=e4855bb4-1c12-4d82-acdd-075a280114c7"},"vehicle_type_id":"4","last_reported":1702138076,"current_range_meters":18800,"station_id":"ce4bhap2rcd13ifvqek0","pricing_plan_id":"free"},{"bike_id":"a02a1b20-1fb1-4951-988a-77389649024d","system_id":"levelo_inurba_marseille","lat":43.289259,"lon":5.366364,"is_reserved":false,"is_disabled":false,"rental_uris":{"android":"levelo://app?vid=a02a1b20-1fb1-4951-988a-77389649024d","ios":"levelo://app?vid=a02a1b20-1fb1-4951-988a-77389649024d"},"vehicle_type_id":"4","last_reported":1702138076,"current_range_meters":11600,"station_id":"","pricing_plan_id":"free"},{"bike_id":"5463bf11-19cf-41d7-a4d2-a6667d3c8820","system_id":"levelo_inurba_marseille","lat":43.292642,"lon":5.384254,"is_reserved":false,"is_disabled":false,"rental_uris":{"android":"levelo://app?vid=5463bf11-19cf-41d7-a4d2-a6667d3c8820","ios":"levelo://app?vid=5463bf11-19cf-41d7-a4d2-a6667d3c8820"},"vehicle_type_id":"4","last_reported":1702138076,"current_range_meters":24800,"station_id":"ce4bh692rcd13ifvqea0","pricing_plan_id":"free"},{"bike_id":"eb498db8-3410-4d1d-8395-8364d5eb383f","system_id":"levelo_inurba_marseille","lat":43.33043,"lon":5.38919,"is_reserved":false,"is_disabled":false,"rental_uris":{"android":"levelo://app?vid=eb498db8-3410-4d1d-8395-8364d5eb383f","ios":"levelo://app?vid=eb498db8-3410-4d1d-8395-8364d5eb383f"},"vehicle_type_id":"4","last_reported":1702138076,"current_range_meters":22800,"station_id":"ce4bhr92rcd13ifvqhrg","pricing_plan_id":"free"},{"bike_id":"35135757-a69e-46e0-95ab-c0737bfa4f35","system_id":"levelo_inurba_marseille","lat":43.295169,"lon":5.390426,"is_reserved":false,"is_disabled":false,"rental_uris":{"android":"levelo://app?vid=35135757-a69e-46e0-95ab-c0737bfa4f35","ios":"levelo://app?vid=35135757-a69e-46e0-95ab-c0737bfa4f35"},"vehicle_type_id":"4","last_reported":1702138076,"current_range_meters":14000,"station_id":"ce4bh3p2rcd13ifvqdp0","pricing_plan_id":"free"},{"bike_id":"8eb2d570-49df-4940-b081-c2591baf6964","system_id":"levelo_inurba_marseille","lat":43.28859,"lon":5.35844,"is_reserved":false,"is_disabled":false,"rental_uris":{"android":"levelo://app?vid=8eb2d570-49df-4940-b081-c2591baf6964","ios":"levelo://app?vid=8eb2d570-49df-4940-b081-c2591baf6964"},"vehicle_type_id":"4","last_reported":1702138076,"current_range_meters":0,"station_id":"ce4bhb12rcd13ifvqem0","pricing_plan_id":"free"},{"bike_id":"807ad22a-eec4-4434-9ca2-c80a7d89e70e","system_id":"levelo_inurba_marseille","lat":43.309399,"lon":5.401396,"is_reserved":false,"is_disabled":false,"rental_uris":{"android":"levelo://app?vid=807ad22a-eec4-4434-9ca2-c80a7d89e70e","ios":"levelo://app?vid=807ad22a-eec4-4434-9ca2-c80a7d89e70e"},"vehicle_type_id":"4","last_reported":1702138076,"current_range_meters":21200,"station_id":"ce4bgvp2rcd13ifvqct0","pricing_plan_id":"free"},{"bike_id":"f38dd1b5-7c36-4654-9f3f-58cf90b47258","system_id":"levelo_inurba_marseille","lat":43.298681,"lon":5.397225,"is_reserved":false,"is_disabled":false,"rental_uris":{"android":"levelo://app?vid=f38dd1b5-7c36-4654-9f3f-58cf90b47258","ios":"levelo://app?vid=f38dd1b5-7c36-4654-9f3f-58cf90b47258"},"vehicle_type_id":"4","last_reported":1702138076,"current_range_meters":19600,"station_id":"ce4bh0h2rcd13ifvqd50","pricing_plan_id":"free"},{"bike_id":"6b1fbb7b-e4f9-4efa-b456-d1b22aa258f2","system_id":"levelo_inurba_marseille","lat":43.286591,"lon":5.363346,"is_reserved":false,"is_disabled":false,"rental_uris":{"android":"levelo://app?vid=6b1fbb7b-e4f9-4efa-b456-d1b22aa258f2","ios":"levelo://app?vid=6b1fbb7b-e4f9-4efa-b456-d1b22aa258f2"},"vehicle_type_id":"4","last_reported":1702138076,"current_range_meters":27200,"station_id":"ce4bhah2rcd13ifvqej0","pricing_plan_id":"free"},{"bike_id":"00558526-e073-431e-bb1f-a1dd30e715e8","system_id":"levelo_inurba_marseille","lat":43.289307,"lon":5.38406,"is_reserved":false,"is_disabled":false,"rental_uris":{"android":"levelo://app?vid=00558526-e073-431e-bb1f-a1dd30e715e8","ios":"levelo://app?vid=00558526-e073-431e-bb1f-a1dd30e715e8"},"vehicle_type_id":"4","last_reported":1702138076,"current_range_meters":1200,"station_id":"ce4bh612rcd13ifvqe6g","pricing_plan_id":"free"},{"bike_id":"b5e27ca4-1dfd-45eb-a2db-e0cf75bf6578","system_id":"levelo_inurba_marseille","lat":43.290345,"lon":5.38646,"is_reserved":false,"is_disabled":false,"rental_uris":{"android":"levelo://app?vid=b5e27ca4-1dfd-45eb-a2db-e0cf75bf6578","ios":"levelo://app?vid=b5e27ca4-1dfd-45eb-a2db-e0cf75bf6578"},"vehicle_type_id":"4","last_reported":1702138076,"current_range_meters":18000,"station_id":"ce4bh4p2rcd13ifvqe0g","pricing_plan_id":"free"},{"bike_id":"89c16d9f-c967-4e78-94b5-a0a800dae998","system_id":"levelo_inurba_marseille","lat":43.302759,"lon":5.400793,"is_reserved":false,"is_disabled":false,"rental_uris":{"android":"levelo://app?vid=89c16d9f-c967-4e78-94b5-a0a800dae998","ios":"levelo://app?vid=89c16d9f-c967-4e78-94b5-a0a800dae998"},"vehicle_type_id":"4","last_reported":1702138076,"current_range_meters":6000,"station_id":"ce4bgvh2rcd13ifvqcs0","pricing_plan_id":"free"},{"bike_id":"27461232-3dbc-4f9f-bd79-12c0eba278ae","system_id":"levelo_inurba_marseille","lat":43.286039,"lon":5.370679,"is_reserved":false,"is_disabled":false,"rental_uris":{"android":"levelo://app?vid=27461232-3dbc-4f9f-bd79-12c0eba278ae","ios":"levelo://app?vid=27461232-3dbc-4f9f-bd79-12c0eba278ae"},"vehicle_type_id":"4","last_reported":1702138076,"current_range_meters":7200,"station_id":"ce4bht12rcd13ifvqi60","pricing_plan_id":"free"},{"bike_id":"49658399-508d-489c-8ecf-17152ba09692","system_id":"levelo_inurba_marseille","lat":43.286039,"lon":5.370679,"is_reserved":false,"is_disabled":false,"rental_uris":{"android":"levelo://app?vid=49658399-508d-489c-8ecf-17152ba09692","ios":"levelo://app?vid=49658399-508d-489c-8ecf-17152ba09692"},"vehicle_type_id":"4","last_reported":1702138076,"current_range_meters":31200,"station_id":"ce4bht12rcd13ifvqi60","pricing_plan_id":"free"},{"bike_id":"13a8d491-0d2d-4b79-aba0-944d2a4f313d","system_id":"levelo_inurba_marseille","lat":43.31692,"lon":5.40467,"is_reserved":false,"is_disabled":false,"rental_uris":{"android":"levelo://app?vid=13a8d491-0d2d-4b79-aba0-944d2a4f313d","ios":"levelo://app?vid=13a8d491-0d2d-4b79-aba0-944d2a4f313d"},"vehicle_type_id":"4","last_reported":1702138076,"current_range_meters":0,"station_id":"ce4bh012rcd13ifvqd00","pricing_plan_id":"free"},{"bike_id":"93b582b5-6fca-455b-8eec-64a2ef1549ae","system_id":"levelo_inurba_marseille","lat":43.291994,"lon":5.392907,"is_reserved":false,"is_disabled":false,"rental_uris":{"android":"levelo://app?vid=93b582b5-6fca-455b-8eec-64a2ef1549ae","ios":"levelo://app?vid=93b582b5-6fca-455b-8eec-64a2ef1549ae"},"vehicle_type_id":"4","last_reported":1702138076,"current_range_meters":0,"station_id":"ce4bh192rcd13ifvqdd0","pricing_plan_id":"free"},{"bike_id":"ce1c8088-d5c0-40c9-9a58-ff1c00f1865d","system_id":"levelo_inurba_marseille","lat":43.28457,"lon":5.35891,"is_reserved":false,"is_disabled":false,"rental_uris":{"android":"levelo://app?vid=ce1c8088-d5c0-40c9-9a58-ff1c00f1865d","ios":"levelo://app?vid=ce1c8088-d5c0-40c9-9a58-ff1c00f1865d"},"vehicle_type_id":"4","last_reported":1702138076,"current_range_meters":0,"station_id":"ce4bhah2rcd13ifvqei0","pricing_plan_id":"free"},{"bike_id":"1e20ff29-2ced-495b-80a4-4a24701365be","system_id":"levelo_inurba_marseille","lat":43.28616,"lon":5.35105,"is_reserved":false,"is_disabled":false,"rental_uris":{"android":"levelo://app?vid=1e20ff29-2ced-495b-80a4-4a24701365be","ios":"levelo://app?vid=1e20ff29-2ced-495b-80a4-4a24701365be"},"vehicle_type_id":"4","last_reported":1702138076,"current_range_meters":16400,"station_id":"ce4bhch2rcd13ifvqeug","pricing_plan_id":"free"},{"bike_id":"56071a7d-6a3c-41f5-a6f0-8e48345ca05a","system_id":"levelo_inurba_marseille","lat":43.28614,"lon":5.35105,"is_reserved":false,"is_disabled":false,"rental_uris":{"android":"levelo://app?vid=56071a7d-6a3c-41f5-a6f0-8e48345ca05a","ios":"levelo://app?vid=56071a7d-6a3c-41f5-a6f0-8e48345ca05a"},"vehicle_type_id":"4","last_reported":1702138076,"current_range_meters":26000,"station_id":"ce4bhch2rcd13ifvqeug","pricing_plan_id":"free"},{"bike_id":"57c01c7f-ce07-4f92-b942-40bd67d6254a","system_id":"levelo_inurba_marseille","lat":43.319179,"lon":5.407725,"is_reserved":false,"is_disabled":false,"rental_uris":{"android":"levelo://app?vid=57c01c7f-ce07-4f92-b942-40bd67d6254a","ios":"levelo://app?vid=57c01c7f-ce07-4f92-b942-40bd67d6254a"},"vehicle_type_id":"4","last_reported":1702138076,"current_range_meters":4000,"station_id":"ce4bhq12rcd13ifvqhig","pricing_plan_id":"free"},{"bike_id":"91159634-7ccb-4e33-8c52-ab85d5c58e3e","system_id":"levelo_inurba_marseille","lat":43.33724,"lon":5.39191,"is_reserved":false,"is_disabled":false,"rental_uris":{"android":"levelo://app?vid=91159634-7ccb-4e33-8c52-ab85d5c58e3e","ios":"levelo://app?vid=91159634-7ccb-4e33-8c52-ab85d5c58e3e"},"vehicle_type_id":"4","last_reported":1702138076,"current_range_meters":21600,"station_id":"ce4bhr92rcd13ifvqhsg","pricing_plan_id":"free"},{"bike_id":"00b636d5-ea6a-4a01-9e78-08053ab9b7fc","system_id":"levelo_inurba_marseille","lat":43.323464,"lon":5.406297,"is_reserved":false,"is_disabled":false,"rental_uris":{"android":"levelo://app?vid=00b636d5-ea6a-4a01-9e78-08053ab9b7fc","ios":"levelo://app?vid=00b636d5-ea6a-4a01-9e78-08053ab9b7fc"},"vehicle_type_id":"4","last_reported":1702138076,"current_range_meters":18400,"station_id":"ce4bhq92rcd13ifvqhjg","pricing_plan_id":"free"},{"bike_id":"efe9d2cc-d0eb-4e85-b313-6bf62b4d4d4c","system_id":"levelo_inurba_marseille","lat":43.33725,"lon":5.39195,"is_reserved":false,"is_disabled":false,"rental_uris":{"android":"levelo://app?vid=efe9d2cc-d0eb-4e85-b313-6bf62b4d4d4c","ios":"levelo://app?vid=efe9d2cc-d0eb-4e85-b313-6bf62b4d4d4c"},"vehicle_type_id":"4","last_reported":1702138076,"current_range_meters":0,"station_id":"ce4bhr92rcd13ifvqhsg","pricing_plan_id":"free"},{"bike_id":"c52c0a28-4aa5-4a69-9dbc-8eeae0ac9fb4","system_id":"levelo_inurba_marseille","lat":43.284793,"lon":5.384119,"is_reserved":false,"is_disabled":false,"rental_uris":{"android":"levelo://app?vid=c52c0a28-4aa5-4a69-9dbc-8eeae0ac9fb4","ios":"levelo://app?vid=c52c0a28-4aa5-4a69-9dbc-8eeae0ac9fb4"},"vehicle_type_id":"4","last_reported":1702138076,"current_range_meters":400,"station_id":"ce4bh512rcd13ifvqe3g","pricing_plan_id":"free"},{"bike_id":"a6cc9410-5620-4dba-9c30-3664ad051f70","system_id":"levelo_inurba_marseille","lat":43.283498,"lon":5.380948,"is_reserved":false,"is_disabled":false,"rental_uris":{"android":"levelo://app?vid=a6cc9410-5620-4dba-9c30-3664ad051f70","ios":"levelo://app?vid=a6cc9410-5620-4dba-9c30-3664ad051f70"},"vehicle_type_id":"4","last_reported":1702138076,"current_range_meters":18800,"station_id":"ce4bh412rcd13ifvqdr0","pricing_plan_id":"free"},{"bike_id":"6af8ba2a-20c5-4445-a800-54be314820a5","system_id":"levelo_inurba_marseille","lat":43.292724,"lon":5.401131,"is_reserved":false,"is_disabled":false,"rental_uris":{"android":"levelo://app?vid=6af8ba2a-20c5-4445-a800-54be314820a5","ios":"levelo://app?vid=6af8ba2a-20c5-4445-a800-54be314820a5"},"vehicle_type_id":"4","last_reported":1702138076,"current_range_meters":7600,"station_id":"ce4bh312rcd13ifvqdk0","pricing_plan_id":"free"},{"bike_id":"f938b2fd-9ecf-4b5d-8542-09b9baf2c99b","system_id":"levelo_inurba_marseille","lat":43.282754,"lon":5.350519,"is_reserved":false,"is_disabled":false,"rental_uris":{"android":"levelo://app?vid=f938b2fd-9ecf-4b5d-8542-09b9baf2c99b","ios":"levelo://app?vid=f938b2fd-9ecf-4b5d-8542-09b9baf2c99b"},"vehicle_type_id":"4","last_reported":1702138076,"current_range_meters":400,"station_id":"ce4bhbp2rcd13ifvqerg","pricing_plan_id":"free"},{"bike_id":"0f7880f3-75b1-4e4f-9f0c-ca5b4e38922f","system_id":"levelo_inurba_marseille","lat":43.280382,"lon":5.369291,"is_reserved":false,"is_disabled":false,"rental_uris":{"android":"levelo://app?vid=0f7880f3-75b1-4e4f-9f0c-ca5b4e38922f","ios":"levelo://app?vid=0f7880f3-75b1-4e4f-9f0c-ca5b4e38922f"},"vehicle_type_id":"4","last_reported":1702138076,"current_range_meters":15200,"station_id":"ce4bha12rcd13ifvqef0","pricing_plan_id":"free"},{"bike_id":"992a2922-d681-4adc-a4a0-48c92c471037","system_id":"levelo_inurba_marseille","lat":43.282754,"lon":5.350519,"is_reserved":false,"is_disabled":false,"rental_uris":{"android":"levelo://app?vid=992a2922-d681-4adc-a4a0-48c92c471037","ios":"levelo://app?vid=992a2922-d681-4adc-a4a0-48c92c471037"},"vehicle_type_id":"4","last_reported":1702138076,"current_range_meters":19600,"station_id":"ce4bhbp2rcd13ifvqerg","pricing_plan_id":"free"},{"bike_id":"73018dc1-e76a-40a3-902b-a4dcfe48e1a7","system_id":"levelo_inurba_marseille","lat":43.283502,"lon":5.386471,"is_reserved":false,"is_disabled":false,"rental_uris":{"android":"levelo://app?vid=73018dc1-e76a-40a3-902b-a4dcfe48e1a7","ios":"levelo://app?vid=73018dc1-e76a-40a3-902b-a4dcfe48e1a7"},"vehicle_type_id":"4","last_reported":1702138076,"current_range_meters":6000,"station_id":"ce4bh492rcd13ifvqdvg","pricing_plan_id":"free"},{"bike_id":"ab10de77-1186-4682-9120-d3edaf1ec35c","system_id":"levelo_inurba_marseille","lat":43.280382,"lon":5.369291,"is_reserved":false,"is_disabled":false,"rental_uris":{"android":"levelo://app?vid=ab10de77-1186-4682-9120-d3edaf1ec35c","ios":"levelo://app?vid=ab10de77-1186-4682-9120-d3edaf1ec35c"},"vehicle_type_id":"4","last_reported":1702138076,"current_range_meters":25600,"station_id":"ce4bha12rcd13ifvqef0","pricing_plan_id":"free"},{"bike_id":"5ea909dc-7b6e-4437-9336-775ad4dd4570","system_id":"levelo_inurba_marseille","lat":43.280382,"lon":5.369291,"is_reserved":false,"is_disabled":false,"rental_uris":{"android":"levelo://app?vid=5ea909dc-7b6e-4437-9336-775ad4dd4570","ios":"levelo://app?vid=5ea909dc-7b6e-4437-9336-775ad4dd4570"},"vehicle_type_id":"4","last_reported":1702138076,"current_range_meters":29200,"station_id":"ce4bha12rcd13ifvqef0","pricing_plan_id":"free"},{"bike_id":"3f3fdaf1-0f0b-406f-8e05-fca759406358","system_id":"levelo_inurba_marseille","lat":43.280382,"lon":5.369291,"is_reserved":false,"is_disabled":false,"rental_uris":{"android":"levelo://app?vid=3f3fdaf1-0f0b-406f-8e05-fca759406358","ios":"levelo://app?vid=3f3fdaf1-0f0b-406f-8e05-fca759406358"},"vehicle_type_id":"4","last_reported":1702138076,"current_range_meters":2400,"station_id":"ce4bha12rcd13ifvqef0","pricing_plan_id":"free"},{"bike_id":"0cf5e634-92cd-4666-a755-3ed4209b2c8f","system_id":"levelo_inurba_marseille","lat":43.28022,"lon":5.369347,"is_reserved":false,"is_disabled":false,"rental_uris":{"android":"levelo://app?vid=0cf5e634-92cd-4666-a755-3ed4209b2c8f","ios":"levelo://app?vid=0cf5e634-92cd-4666-a755-3ed4209b2c8f"},"vehicle_type_id":"4","last_reported":1702138076,"current_range_meters":16400,"station_id":"ce4bha12rcd13ifvqef0","pricing_plan_id":"free"},{"bike_id":"57572e40-0c5b-4242-8bfa-9a0d37b8eab6","system_id":"levelo_inurba_marseille","lat":43.284462,"lon":5.392121,"is_reserved":false,"is_disabled":false,"rental_uris":{"android":"levelo://app?vid=57572e40-0c5b-4242-8bfa-9a0d37b8eab6","ios":"levelo://app?vid=57572e40-0c5b-4242-8bfa-9a0d37b8eab6"},"vehicle_type_id":"4","last_reported":1702138076,"current_range_meters":3200,"station_id":"ce4bhoh2rcd13ifvqh5g","pricing_plan_id":"free"},{"bike_id":"c8ebab3d-42a0-4e5d-9e5a-963d77c46a6b","system_id":"levelo_inurba_marseille","lat":43.284462,"lon":5.392121,"is_reserved":false,"is_disabled":false,"rental_uris":{"android":"levelo://app?vid=c8ebab3d-42a0-4e5d-9e5a-963d77c46a6b","ios":"levelo://app?vid=c8ebab3d-42a0-4e5d-9e5a-963d77c46a6b"},"vehicle_type_id":"4","last_reported":1702138076,"current_range_meters":16800,"station_id":"ce4bhoh2rcd13ifvqh5g","pricing_plan_id":"free"},{"bike_id":"7963e1a9-0a40-4730-a065-6cabc9fdea57","system_id":"levelo_inurba_marseille","lat":43.304188,"lon":5.412904,"is_reserved":false,"is_disabled":false,"rental_uris":{"android":"levelo://app?vid=7963e1a9-0a40-4730-a065-6cabc9fdea57","ios":"levelo://app?vid=7963e1a9-0a40-4730-a065-6cabc9fdea57"},"vehicle_type_id":"4","last_reported":1702138076,"current_range_meters":28400,"station_id":"ce4bhop2rcd13ifvqh8g","pricing_plan_id":"free"},{"bike_id":"9060bd8d-0aa0-4a05-8118-4d0cecddc680","system_id":"levelo_inurba_marseille","lat":43.279087,"lon":5.380114,"is_reserved":false,"is_disabled":false,"rental_uris":{"android":"levelo://app?vid=9060bd8d-0aa0-4a05-8118-4d0cecddc680","ios":"levelo://app?vid=9060bd8d-0aa0-4a05-8118-4d0cecddc680"},"vehicle_type_id":"4","last_reported":1702138076,"current_range_meters":22400,"station_id":"ce4bhf92rcd13ifvqf50","pricing_plan_id":"free"},{"bike_id":"d0d8966d-9ca9-454d-a50b-732808682ecb","system_id":"levelo_inurba_marseille","lat":43.320045,"lon":5.415048,"is_reserved":false,"is_disabled":false,"rental_uris":{"android":"levelo://app?vid=d0d8966d-9ca9-454d-a50b-732808682ecb","ios":"levelo://app?vid=d0d8966d-9ca9-454d-a50b-732808682ecb"},"vehicle_type_id":"4","last_reported":1702138076,"current_range_meters":20400,"station_id":"ce4bhq92rcd13ifvqhkg","pricing_plan_id":"free"},{"bike_id":"42e7414e-f8ab-46d0-ac1e-77002569b24e","system_id":"levelo_inurba_marseille","lat":43.32045,"lon":5.41554,"is_reserved":false,"is_disabled":false,"rental_uris":{"android":"levelo://app?vid=42e7414e-f8ab-46d0-ac1e-77002569b24e","ios":"levelo://app?vid=42e7414e-f8ab-46d0-ac1e-77002569b24e"},"vehicle_type_id":"4","last_reported":1702138076,"current_range_meters":6000,"station_id":"ce4bhq92rcd13ifvqhkg","pricing_plan_id":"free"},{"bike_id":"e296b2cc-a91a-4046-92f1-1ee9a220bd47","system_id":"levelo_inurba_marseille","lat":43.320045,"lon":5.415048,"is_reserved":false,"is_disabled":false,"rental_uris":{"android":"levelo://app?vid=e296b2cc-a91a-4046-92f1-1ee9a220bd47","ios":"levelo://app?vid=e296b2cc-a91a-4046-92f1-1ee9a220bd47"},"vehicle_type_id":"4","last_reported":1702138076,"current_range_meters":30800,"station_id":"ce4bhq92rcd13ifvqhkg","pricing_plan_id":"free"},{"bike_id":"dfa590ab-5f53-4aa2-a0b8-f348112f5b84","system_id":"levelo_inurba_marseille","lat":43.292571,"lon":5.409107,"is_reserved":false,"is_disabled":false,"rental_uris":{"android":"levelo://app?vid=dfa590ab-5f53-4aa2-a0b8-f348112f5b84","ios":"levelo://app?vid=dfa590ab-5f53-4aa2-a0b8-f348112f5b84"},"vehicle_type_id":"4","last_reported":1702138076,"current_range_meters":25200,"station_id":"ce4bh192rcd13ifvqdc0","pricing_plan_id":"free"},{"bike_id":"a148b3ad-4229-40c7-b578-15b32d72e96b","system_id":"levelo_inurba_marseille","lat":43.325243,"lon":5.414326,"is_reserved":false,"is_disabled":false,"rental_uris":{"android":"levelo://app?vid=a148b3ad-4229-40c7-b578-15b32d72e96b","ios":"levelo://app?vid=a148b3ad-4229-40c7-b578-15b32d72e96b"},"vehicle_type_id":"4","last_reported":1702138076,"current_range_meters":25200,"station_id":"ce4bhq12rcd13ifvqhhg","pricing_plan_id":"free"},{"bike_id":"1e8ec147-5029-4c20-9271-453b888979f0","system_id":"levelo_inurba_marseille","lat":43.276179,"lon":5.361009,"is_reserved":false,"is_disabled":false,"rental_uris":{"android":"levelo://app?vid=1e8ec147-5029-4c20-9271-453b888979f0","ios":"levelo://app?vid=1e8ec147-5029-4c20-9271-453b888979f0"},"vehicle_type_id":"4","last_reported":1702138076,"current_range_meters":31200,"station_id":"ce4bgj92rcd13ifvqbe0","pricing_plan_id":"free"},{"bike_id":"02704652-9445-4767-a983-830254e00179","system_id":"levelo_inurba_marseille","lat":43.30356,"lon":5.41881,"is_reserved":false,"is_disabled":false,"rental_uris":{"android":"levelo://app?vid=02704652-9445-4767-a983-830254e00179","ios":"levelo://app?vid=02704652-9445-4767-a983-830254e00179"},"vehicle_type_id":"4","last_reported":1702138076,"current_range_meters":25600,"station_id":"ce4bhop2rcd13ifvqh7g","pricing_plan_id":"free"},{"bike_id":"48f80df2-ec3f-43b5-8d3d-22d084181f3f","system_id":"levelo_inurba_marseille","lat":43.27378,"lon":5.36247,"is_reserved":false,"is_disabled":false,"rental_uris":{"android":"levelo://app?vid=48f80df2-ec3f-43b5-8d3d-22d084181f3f","ios":"levelo://app?vid=48f80df2-ec3f-43b5-8d3d-22d084181f3f"},"vehicle_type_id":"4","last_reported":1702138076,"current_range_meters":23600,"station_id":"ce4bhbh2rcd13ifvqeo0","pricing_plan_id":"free"},{"bike_id":"6654779c-0b00-4995-ac89-5c3d32c80a97","system_id":"levelo_inurba_marseille","lat":43.273613,"lon":5.362705,"is_reserved":false,"is_disabled":false,"rental_uris":{"android":"levelo://app?vid=6654779c-0b00-4995-ac89-5c3d32c80a97","ios":"levelo://app?vid=6654779c-0b00-4995-ac89-5c3d32c80a97"},"vehicle_type_id":"4","last_reported":1702138076,"current_range_meters":3200,"station_id":"ce4bhbh2rcd13ifvqeo0","pricing_plan_id":"free"},{"bike_id":"872e2412-816d-4000-bb92-e62b7cf499f1","system_id":"levelo_inurba_marseille","lat":43.273613,"lon":5.362705,"is_reserved":false,"is_disabled":false,"rental_uris":{"android":"levelo://app?vid=872e2412-816d-4000-bb92-e62b7cf499f1","ios":"levelo://app?vid=872e2412-816d-4000-bb92-e62b7cf499f1"},"vehicle_type_id":"4","last_reported":1702138076,"current_range_meters":18000,"station_id":"ce4bhbh2rcd13ifvqeo0","pricing_plan_id":"free"},{"bike_id":"ac1af8d2-9cdd-4a46-b1a5-3a53c4b5ef6b","system_id":"levelo_inurba_marseille","lat":43.27883,"lon":5.39513,"is_reserved":false,"is_disabled":false,"rental_uris":{"android":"levelo://app?vid=ac1af8d2-9cdd-4a46-b1a5-3a53c4b5ef6b","ios":"levelo://app?vid=ac1af8d2-9cdd-4a46-b1a5-3a53c4b5ef6b"},"vehicle_type_id":"4","last_reported":1702138076,"current_range_meters":17600,"station_id":"","pricing_plan_id":"free"},{"bike_id":"fce8ef5a-0f61-4cfb-b8bb-9e1b28bf23ad","system_id":"levelo_inurba_marseille","lat":43.3172,"lon":5.42397,"is_reserved":false,"is_disabled":false,"rental_uris":{"android":"levelo://app?vid=fce8ef5a-0f61-4cfb-b8bb-9e1b28bf23ad","ios":"levelo://app?vid=fce8ef5a-0f61-4cfb-b8bb-9e1b28bf23ad"},"vehicle_type_id":"4","last_reported":1702138076,"current_range_meters":28800,"station_id":"ce4bhp92rcd13ifvqhbg","pricing_plan_id":"free"},{"bike_id":"02791883-a925-42a0-9dd3-b7193f6a574b","system_id":"levelo_inurba_marseille","lat":43.31712,"lon":5.424,"is_reserved":false,"is_disabled":false,"rental_uris":{"android":"levelo://app?vid=02791883-a925-42a0-9dd3-b7193f6a574b","ios":"levelo://app?vid=02791883-a925-42a0-9dd3-b7193f6a574b"},"vehicle_type_id":"4","last_reported":1702138076,"current_range_meters":30400,"station_id":"ce4bhp92rcd13ifvqhbg","pricing_plan_id":"free"},{"bike_id":"88e59060-d458-48a8-8abe-8a1913097d92","system_id":"levelo_inurba_marseille","lat":43.31716,"lon":5.42402,"is_reserved":false,"is_disabled":false,"rental_uris":{"android":"levelo://app?vid=88e59060-d458-48a8-8abe-8a1913097d92","ios":"levelo://app?vid=88e59060-d458-48a8-8abe-8a1913097d92"},"vehicle_type_id":"4","last_reported":1702138076,"current_range_meters":24800,"station_id":"ce4bhp92rcd13ifvqhbg","pricing_plan_id":"free"},{"bike_id":"fc4bcc5b-5f4e-42a1-8cca-78d5c651475f","system_id":"levelo_inurba_marseille","lat":43.317121,"lon":5.423936,"is_reserved":false,"is_disabled":false,"rental_uris":{"android":"levelo://app?vid=fc4bcc5b-5f4e-42a1-8cca-78d5c651475f","ios":"levelo://app?vid=fc4bcc5b-5f4e-42a1-8cca-78d5c651475f"},"vehicle_type_id":"4","last_reported":1702138076,"current_range_meters":28400,"station_id":"ce4bhp92rcd13ifvqhbg","pricing_plan_id":"free"},{"bike_id":"80038031-3601-4c51-b66a-c6c9131d41d1","system_id":"levelo_inurba_marseille","lat":43.310785,"lon":5.424305,"is_reserved":false,"is_disabled":false,"rental_uris":{"android":"levelo://app?vid=80038031-3601-4c51-b66a-c6c9131d41d1","ios":"levelo://app?vid=80038031-3601-4c51-b66a-c6c9131d41d1"},"vehicle_type_id":"4","last_reported":1702138076,"current_range_meters":30800,"station_id":"ce4bhp92rcd13ifvqhag","pricing_plan_id":"free"},{"bike_id":"e6ff414d-6f05-44d2-b7c6-4a89a6fc64e2","system_id":"levelo_inurba_marseille","lat":43.31079,"lon":5.42429,"is_reserved":false,"is_disabled":false,"rental_uris":{"android":"levelo://app?vid=e6ff414d-6f05-44d2-b7c6-4a89a6fc64e2","ios":"levelo://app?vid=e6ff414d-6f05-44d2-b7c6-4a89a6fc64e2"},"vehicle_type_id":"4","last_reported":1702138076,"current_range_meters":5200,"station_id":"ce4bhp92rcd13ifvqhag","pricing_plan_id":"free"},{"bike_id":"e7bd1e73-4f86-473d-905c-a7b0f3d6ad8a","system_id":"levelo_inurba_marseille","lat":43.31723,"lon":5.42405,"is_reserved":false,"is_disabled":false,"rental_uris":{"android":"levelo://app?vid=e7bd1e73-4f86-473d-905c-a7b0f3d6ad8a","ios":"levelo://app?vid=e7bd1e73-4f86-473d-905c-a7b0f3d6ad8a"},"vehicle_type_id":"4","last_reported":1702138076,"current_range_meters":16800,"station_id":"ce4bhp92rcd13ifvqhbg","pricing_plan_id":"free"},{"bike_id":"48e3df08-57dc-434d-a06c-f6f751cd351f","system_id":"levelo_inurba_marseille","lat":43.310785,"lon":5.424305,"is_reserved":false,"is_disabled":false,"rental_uris":{"android":"levelo://app?vid=48e3df08-57dc-434d-a06c-f6f751cd351f","ios":"levelo://app?vid=48e3df08-57dc-434d-a06c-f6f751cd351f"},"vehicle_type_id":"4","last_reported":1702138076,"current_range_meters":19600,"station_id":"ce4bhp92rcd13ifvqhag","pricing_plan_id":"free"},{"bike_id":"63133364-316e-458e-b234-bbd4926c63fc","system_id":"levelo_inurba_marseille","lat":43.27583,"lon":5.39474,"is_reserved":false,"is_disabled":false,"rental_uris":{"android":"levelo://app?vid=63133364-316e-458e-b234-bbd4926c63fc","ios":"levelo://app?vid=63133364-316e-458e-b234-bbd4926c63fc"},"vehicle_type_id":"4","last_reported":1702138076,"current_range_meters":6800,"station_id":"","pricing_plan_id":"free"},{"bike_id":"059df2f5-e5a3-4ff7-bda3-7a8dac760b37","system_id":"levelo_inurba_marseille","lat":43.273129,"lon":5.390725,"is_reserved":false,"is_disabled":false,"rental_uris":{"android":"levelo://app?vid=059df2f5-e5a3-4ff7-bda3-7a8dac760b37","ios":"levelo://app?vid=059df2f5-e5a3-4ff7-bda3-7a8dac760b37"},"vehicle_type_id":"4","last_reported":1702138076,"current_range_meters":13200,"station_id":"ce4bhgp2rcd13ifvqfe0","pricing_plan_id":"free"},{"bike_id":"b81ba75a-e387-4087-a32a-750a7002e552","system_id":"levelo_inurba_marseille","lat":43.30413,"lon":5.42542,"is_reserved":false,"is_disabled":false,"rental_uris":{"android":"levelo://app?vid=b81ba75a-e387-4087-a32a-750a7002e552","ios":"levelo://app?vid=b81ba75a-e387-4087-a32a-750a7002e552"},"vehicle_type_id":"4","last_reported":1702138076,"current_range_meters":20400,"station_id":"ce4bhoh2rcd13ifvqh6g","pricing_plan_id":"free"},{"bike_id":"350dd4e5-cc9e-4183-8e6a-7241f01c6528","system_id":"levelo_inurba_marseille","lat":43.304096,"lon":5.425385,"is_reserved":false,"is_disabled":false,"rental_uris":{"android":"levelo://app?vid=350dd4e5-cc9e-4183-8e6a-7241f01c6528","ios":"levelo://app?vid=350dd4e5-cc9e-4183-8e6a-7241f01c6528"},"vehicle_type_id":"4","last_reported":1702138076,"current_range_meters":29600,"station_id":"ce4bhoh2rcd13ifvqh6g","pricing_plan_id":"free"},{"bike_id":"fc6794cf-495d-453d-b822-fc2923d07b21","system_id":"levelo_inurba_marseille","lat":43.30413,"lon":5.42544,"is_reserved":false,"is_disabled":false,"rental_uris":{"android":"levelo://app?vid=fc6794cf-495d-453d-b822-fc2923d07b21","ios":"levelo://app?vid=fc6794cf-495d-453d-b822-fc2923d07b21"},"vehicle_type_id":"4","last_reported":1702138076,"current_range_meters":31200,"station_id":"ce4bhoh2rcd13ifvqh6g","pricing_plan_id":"free"},{"bike_id":"4f9e48a0-eacd-4e63-bd3c-330b19e5c041","system_id":"levelo_inurba_marseille","lat":43.295511,"lon":5.422926,"is_reserved":false,"is_disabled":false,"rental_uris":{"android":"levelo://app?vid=4f9e48a0-eacd-4e63-bd3c-330b19e5c041","ios":"levelo://app?vid=4f9e48a0-eacd-4e63-bd3c-330b19e5c041"},"vehicle_type_id":"4","last_reported":1702138076,"current_range_meters":31200,"station_id":"ce4bhph2rcd13ifvqhdg","pricing_plan_id":"free"},{"bike_id":"8f021145-48f8-459b-aef0-f8921e18b0a0","system_id":"levelo_inurba_marseille","lat":43.27214,"lon":5.3925,"is_reserved":false,"is_disabled":false,"rental_uris":{"android":"levelo://app?vid=8f021145-48f8-459b-aef0-f8921e18b0a0","ios":"levelo://app?vid=8f021145-48f8-459b-aef0-f8921e18b0a0"},"vehicle_type_id":"4","last_reported":1702138076,"current_range_meters":1200,"station_id":"","pricing_plan_id":"free"},{"bike_id":"36c69bfa-6825-4183-a080-0574f4d5b33e","system_id":"levelo_inurba_marseille","lat":43.269319,"lon":5.389397,"is_reserved":false,"is_disabled":false,"rental_uris":{"android":"levelo://app?vid=36c69bfa-6825-4183-a080-0574f4d5b33e","ios":"levelo://app?vid=36c69bfa-6825-4183-a080-0574f4d5b33e"},"vehicle_type_id":"4","last_reported":1702138076,"current_range_meters":27600,"station_id":"ce4bhhh2rcd13ifvqfl0","pricing_plan_id":"free"},{"bike_id":"b92b5360-b821-4da6-ae2c-a0ccfef7873e","system_id":"levelo_inurba_marseille","lat":43.269945,"lon":5.39309,"is_reserved":false,"is_disabled":false,"rental_uris":{"android":"levelo://app?vid=b92b5360-b821-4da6-ae2c-a0ccfef7873e","ios":"levelo://app?vid=b92b5360-b821-4da6-ae2c-a0ccfef7873e"},"vehicle_type_id":"4","last_reported":1702138076,"current_range_meters":12800,"station_id":"","pricing_plan_id":"free"},{"bike_id":"2d77ace0-c7be-4371-ab79-2aa8ea6529aa","system_id":"levelo_inurba_marseille","lat":43.265714,"lon":5.372891,"is_reserved":false,"is_disabled":false,"rental_uris":{"android":"levelo://app?vid=2d77ace0-c7be-4371-ab79-2aa8ea6529aa","ios":"levelo://app?vid=2d77ace0-c7be-4371-ab79-2aa8ea6529aa"},"vehicle_type_id":"4","last_reported":1702138076,"current_range_meters":18000,"station_id":"ce4bhg12rcd13ifvqf70","pricing_plan_id":"free"},{"bike_id":"19cc942f-ece9-40d3-8083-cccfba7fe5b1","system_id":"levelo_inurba_marseille","lat":43.279881,"lon":5.416579,"is_reserved":false,"is_disabled":false,"rental_uris":{"android":"levelo://app?vid=19cc942f-ece9-40d3-8083-cccfba7fe5b1","ios":"levelo://app?vid=19cc942f-ece9-40d3-8083-cccfba7fe5b1"},"vehicle_type_id":"4","last_reported":1702138076,"current_range_meters":2800,"station_id":"ce4bho12rcd13ifvqh1g","pricing_plan_id":"free"},{"bike_id":"cdc8f291-804b-4eb4-b892-a4bdb4b412cd","system_id":"levelo_inurba_marseille","lat":43.265714,"lon":5.372891,"is_reserved":false,"is_disabled":false,"rental_uris":{"android":"levelo://app?vid=cdc8f291-804b-4eb4-b892-a4bdb4b412cd","ios":"levelo://app?vid=cdc8f291-804b-4eb4-b892-a4bdb4b412cd"},"vehicle_type_id":"4","last_reported":1702138076,"current_range_meters":5200,"station_id":"ce4bhg12rcd13ifvqf70","pricing_plan_id":"free"},{"bike_id":"050a9556-b225-4d75-8d17-c9dd7f0b2284","system_id":"levelo_inurba_marseille","lat":43.267966,"lon":5.393976,"is_reserved":false,"is_disabled":false,"rental_uris":{"android":"levelo://app?vid=050a9556-b225-4d75-8d17-c9dd7f0b2284","ios":"levelo://app?vid=050a9556-b225-4d75-8d17-c9dd7f0b2284"},"vehicle_type_id":"4","last_reported":1702138076,"current_range_meters":2000,"station_id":"ce4bhh12rcd13ifvqfg0","pricing_plan_id":"free"},{"bike_id":"d3c244be-7318-40cb-a50d-f749eda85bc1","system_id":"levelo_inurba_marseille","lat":43.26184,"lon":5.37445,"is_reserved":false,"is_disabled":false,"rental_uris":{"android":"levelo://app?vid=d3c244be-7318-40cb-a50d-f749eda85bc1","ios":"levelo://app?vid=d3c244be-7318-40cb-a50d-f749eda85bc1"},"vehicle_type_id":"4","last_reported":1702138076,"current_range_meters":18000,"station_id":"ce4bhgp2rcd13ifvqfc0","pricing_plan_id":"free"},{"bike_id":"10bd98e0-d0a2-4a25-a407-cc97034aa68c","system_id":"levelo_inurba_marseille","lat":43.31712,"lon":5.43705,"is_reserved":false,"is_disabled":false,"rental_uris":{"android":"levelo://app?vid=10bd98e0-d0a2-4a25-a407-cc97034aa68c","ios":"levelo://app?vid=10bd98e0-d0a2-4a25-a407-cc97034aa68c"},"vehicle_type_id":"4","last_reported":1702138076,"current_range_meters":30800,"station_id":"ce4bhp92rcd13ifvqhcg","pricing_plan_id":"free"},{"bike_id":"69076829-2fd0-4c1f-baeb-ef580b29c4df","system_id":"levelo_inurba_marseille","lat":43.26181,"lon":5.37448,"is_reserved":false,"is_disabled":false,"rental_uris":{"android":"levelo://app?vid=69076829-2fd0-4c1f-baeb-ef580b29c4df","ios":"levelo://app?vid=69076829-2fd0-4c1f-baeb-ef580b29c4df"},"vehicle_type_id":"4","last_reported":1702138076,"current_range_meters":16000,"station_id":"ce4bhgp2rcd13ifvqfc0","pricing_plan_id":"free"},{"bike_id":"c4a32d8b-8a0b-4189-aa9f-2983a413dfe8","system_id":"levelo_inurba_marseille","lat":43.299,"lon":5.43662,"is_reserved":false,"is_disabled":false,"rental_uris":{"android":"levelo://app?vid=c4a32d8b-8a0b-4189-aa9f-2983a413dfe8","ios":"levelo://app?vid=c4a32d8b-8a0b-4189-aa9f-2983a413dfe8"},"vehicle_type_id":"4","last_reported":1702138076,"current_range_meters":30000,"station_id":"ce4bhpp2rcd13ifvqhfg","pricing_plan_id":"free"},{"bike_id":"83e2018e-7127-4415-8bbf-2e347a9c6750","system_id":"levelo_inurba_marseille","lat":43.29894,"lon":5.43662,"is_reserved":false,"is_disabled":false,"rental_uris":{"android":"levelo://app?vid=83e2018e-7127-4415-8bbf-2e347a9c6750","ios":"levelo://app?vid=83e2018e-7127-4415-8bbf-2e347a9c6750"},"vehicle_type_id":"4","last_reported":1702138076,"current_range_meters":29200,"station_id":"ce4bhpp2rcd13ifvqhfg","pricing_plan_id":"free"},{"bike_id":"4f68f183-a711-4386-a731-e8ea8e2f115e","system_id":"levelo_inurba_marseille","lat":43.298768,"lon":5.43643,"is_reserved":false,"is_disabled":false,"rental_uris":{"android":"levelo://app?vid=4f68f183-a711-4386-a731-e8ea8e2f115e","ios":"levelo://app?vid=4f68f183-a711-4386-a731-e8ea8e2f115e"},"vehicle_type_id":"4","last_reported":1702138076,"current_range_meters":25600,"station_id":"ce4bhpp2rcd13ifvqhfg","pricing_plan_id":"free"},{"bike_id":"70c52fa1-91be-4fbd-9217-7a0c668f9310","system_id":"levelo_inurba_marseille","lat":43.29899,"lon":5.43665,"is_reserved":false,"is_disabled":false,"rental_uris":{"android":"levelo://app?vid=70c52fa1-91be-4fbd-9217-7a0c668f9310","ios":"levelo://app?vid=70c52fa1-91be-4fbd-9217-7a0c668f9310"},"vehicle_type_id":"4","last_reported":1702138076,"current_range_meters":25200,"station_id":"ce4bhpp2rcd13ifvqhfg","pricing_plan_id":"free"},{"bike_id":"ca4db8a8-5b98-4b78-bc3d-514f38028a3d","system_id":"levelo_inurba_marseille","lat":43.298768,"lon":5.43643,"is_reserved":false,"is_disabled":false,"rental_uris":{"android":"levelo://app?vid=ca4db8a8-5b98-4b78-bc3d-514f38028a3d","ios":"levelo://app?vid=ca4db8a8-5b98-4b78-bc3d-514f38028a3d"},"vehicle_type_id":"4","last_reported":1702138076,"current_range_meters":31200,"station_id":"ce4bhpp2rcd13ifvqhfg","pricing_plan_id":"free"},{"bike_id":"6b17b896-99f2-456b-929e-df3811eeb274","system_id":"levelo_inurba_marseille","lat":43.298768,"lon":5.43643,"is_reserved":false,"is_disabled":false,"rental_uris":{"android":"levelo://app?vid=6b17b896-99f2-456b-929e-df3811eeb274","ios":"levelo://app?vid=6b17b896-99f2-456b-929e-df3811eeb274"},"vehicle_type_id":"4","last_reported":1702138076,"current_range_meters":28400,"station_id":"ce4bhpp2rcd13ifvqhfg","pricing_plan_id":"free"},{"bike_id":"4243e07a-32f6-4b2f-8237-cf06b7812931","system_id":"levelo_inurba_marseille","lat":43.260219,"lon":5.37546,"is_reserved":false,"is_disabled":false,"rental_uris":{"android":"levelo://app?vid=4243e07a-32f6-4b2f-8237-cf06b7812931","ios":"levelo://app?vid=4243e07a-32f6-4b2f-8237-cf06b7812931"},"vehicle_type_id":"4","last_reported":1702138076,"current_range_meters":3200,"station_id":"ce4bhgh2rcd13ifvqfa0","pricing_plan_id":"free"},{"bike_id":"2d70b9fc-8d42-4ce5-98c1-cdfca249cc2c","system_id":"levelo_inurba_marseille","lat":43.2815,"lon":5.4264,"is_reserved":false,"is_disabled":false,"rental_uris":{"android":"levelo://app?vid=2d70b9fc-8d42-4ce5-98c1-cdfca249cc2c","ios":"levelo://app?vid=2d70b9fc-8d42-4ce5-98c1-cdfca249cc2c"},"vehicle_type_id":"4","last_reported":1702138076,"current_range_meters":27200,"station_id":"ce4bhnh2rcd13ifvqgug","pricing_plan_id":"free"},{"bike_id":"1320f19c-b9ac-43d6-bd76-793b2fad30c7","system_id":"levelo_inurba_marseille","lat":43.281548,"lon":5.42643,"is_reserved":false,"is_disabled":false,"rental_uris":{"android":"levelo://app?vid=1320f19c-b9ac-43d6-bd76-793b2fad30c7","ios":"levelo://app?vid=1320f19c-b9ac-43d6-bd76-793b2fad30c7"},"vehicle_type_id":"4","last_reported":1702138076,"current_range_meters":30000,"station_id":"ce4bhnh2rcd13ifvqgug","pricing_plan_id":"free"},{"bike_id":"f48996eb-6260-4d94-89bc-c2cb738c65bc","system_id":"levelo_inurba_marseille","lat":43.281548,"lon":5.42643,"is_reserved":false,"is_disabled":false,"rental_uris":{"android":"levelo://app?vid=f48996eb-6260-4d94-89bc-c2cb738c65bc","ios":"levelo://app?vid=f48996eb-6260-4d94-89bc-c2cb738c65bc"},"vehicle_type_id":"4","last_reported":1702138076,"current_range_meters":27200,"station_id":"ce4bhnh2rcd13ifvqgug","pricing_plan_id":"free"},{"bike_id":"b20c71b6-1830-4a40-8340-eafd301c1e2e","system_id":"levelo_inurba_marseille","lat":43.2607,"lon":5.393983,"is_reserved":false,"is_disabled":false,"rental_uris":{"android":"levelo://app?vid=b20c71b6-1830-4a40-8340-eafd301c1e2e","ios":"levelo://app?vid=b20c71b6-1830-4a40-8340-eafd301c1e2e"},"vehicle_type_id":"4","last_reported":1702138076,"current_range_meters":13200,"station_id":"ce4bhh92rcd13ifvqfj0","pricing_plan_id":"free"},{"bike_id":"6aa92329-8ea2-4377-9156-1cc2922c8412","system_id":"levelo_inurba_marseille","lat":43.2607,"lon":5.393983,"is_reserved":false,"is_disabled":false,"rental_uris":{"android":"levelo://app?vid=6aa92329-8ea2-4377-9156-1cc2922c8412","ios":"levelo://app?vid=6aa92329-8ea2-4377-9156-1cc2922c8412"},"vehicle_type_id":"4","last_reported":1702138076,"current_range_meters":20000,"station_id":"ce4bhh92rcd13ifvqfj0","pricing_plan_id":"free"},{"bike_id":"c729edd5-5231-437f-a50e-56fb2c821a1b","system_id":"levelo_inurba_marseille","lat":43.274875,"lon":5.424499,"is_reserved":false,"is_disabled":false,"rental_uris":{"android":"levelo://app?vid=c729edd5-5231-437f-a50e-56fb2c821a1b","ios":"levelo://app?vid=c729edd5-5231-437f-a50e-56fb2c821a1b"},"vehicle_type_id":"4","last_reported":1702138076,"current_range_meters":20800,"station_id":"","pricing_plan_id":"free"},{"bike_id":"e9a23148-ea63-448e-8189-1ee0e20e4523","system_id":"levelo_inurba_marseille","lat":43.27414,"lon":5.42391,"is_reserved":false,"is_disabled":false,"rental_uris":{"android":"levelo://app?vid=e9a23148-ea63-448e-8189-1ee0e20e4523","ios":"levelo://app?vid=e9a23148-ea63-448e-8189-1ee0e20e4523"},"vehicle_type_id":"4","last_reported":1702138076,"current_range_meters":4400,"station_id":"","pricing_plan_id":"free"},{"bike_id":"c91356eb-2381-447e-88dd-54a1fe0a3e30","system_id":"levelo_inurba_marseille","lat":43.25586,"lon":5.38234,"is_reserved":false,"is_disabled":false,"rental_uris":{"android":"levelo://app?vid=c91356eb-2381-447e-88dd-54a1fe0a3e30","ios":"levelo://app?vid=c91356eb-2381-447e-88dd-54a1fe0a3e30"},"vehicle_type_id":"4","last_reported":1702138076,"current_range_meters":31200,"station_id":"ce4bhih2rcd13ifvqfs0","pricing_plan_id":"free"},{"bike_id":"6a8bc17f-1bbc-4cda-af93-b226c6ac7460","system_id":"levelo_inurba_marseille","lat":43.259013,"lon":5.409301,"is_reserved":false,"is_disabled":false,"rental_uris":{"android":"levelo://app?vid=6a8bc17f-1bbc-4cda-af93-b226c6ac7460","ios":"levelo://app?vid=6a8bc17f-1bbc-4cda-af93-b226c6ac7460"},"vehicle_type_id":"4","last_reported":1702138076,"current_range_meters":24000,"station_id":"ce4bhm92rcd13ifvqglg","pricing_plan_id":"free"},{"bike_id":"458f4b82-cb21-478b-aa18-56c69ef73bed","system_id":"levelo_inurba_marseille","lat":43.259331,"lon":5.409126,"is_reserved":false,"is_disabled":false,"rental_uris":{"android":"levelo://app?vid=458f4b82-cb21-478b-aa18-56c69ef73bed","ios":"levelo://app?vid=458f4b82-cb21-478b-aa18-56c69ef73bed"},"vehicle_type_id":"4","last_reported":1702138076,"current_range_meters":16400,"station_id":"","pricing_plan_id":"free"},{"bike_id":"f08d203e-5538-4308-a034-c427ab815977","system_id":"levelo_inurba_marseille","lat":43.257079,"lon":5.411051,"is_reserved":false,"is_disabled":false,"rental_uris":{"android":"levelo://app?vid=f08d203e-5538-4308-a034-c427ab815977","ios":"levelo://app?vid=f08d203e-5538-4308-a034-c427ab815977"},"vehicle_type_id":"4","last_reported":1702138076,"current_range_meters":31200,"station_id":"ce4bhkp2rcd13ifvqgd0","pricing_plan_id":"free"},{"bike_id":"c3a22c05-a1c3-4ea5-b3b1-a554929cce64","system_id":"levelo_inurba_marseille","lat":43.250009,"lon":5.389195,"is_reserved":false,"is_disabled":false,"rental_uris":{"android":"levelo://app?vid=c3a22c05-a1c3-4ea5-b3b1-a554929cce64","ios":"levelo://app?vid=c3a22c05-a1c3-4ea5-b3b1-a554929cce64"},"vehicle_type_id":"4","last_reported":1702138076,"current_range_meters":23600,"station_id":"ce4bhgp2rcd13ifvqfd0","pricing_plan_id":"free"},{"bike_id":"6704b4f5-77e3-4ff4-b585-5626678ad6ee","system_id":"levelo_inurba_marseille","lat":43.24667,"lon":5.38168,"is_reserved":false,"is_disabled":false,"rental_uris":{"android":"levelo://app?vid=6704b4f5-77e3-4ff4-b585-5626678ad6ee","ios":"levelo://app?vid=6704b4f5-77e3-4ff4-b585-5626678ad6ee"},"vehicle_type_id":"4","last_reported":1702138076,"current_range_meters":0,"station_id":"ce4bhih2rcd13ifvqfr0","pricing_plan_id":"free"},{"bike_id":"6e7f2663-edbd-4b41-8aa2-5cac5ef14b73","system_id":"levelo_inurba_marseille","lat":43.25102,"lon":5.403214,"is_reserved":false,"is_disabled":false,"rental_uris":{"android":"levelo://app?vid=6e7f2663-edbd-4b41-8aa2-5cac5ef14b73","ios":"levelo://app?vid=6e7f2663-edbd-4b41-8aa2-5cac5ef14b73"},"vehicle_type_id":"4","last_reported":1702138076,"current_range_meters":400,"station_id":"ce4bhlh2rcd13ifvqgig","pricing_plan_id":"free"},{"bike_id":"6ffa404c-bd43-4ef5-aa2c-7350849e4cbf","system_id":"levelo_inurba_marseille","lat":43.246467,"lon":5.388984,"is_reserved":false,"is_disabled":false,"rental_uris":{"android":"levelo://app?vid=6ffa404c-bd43-4ef5-aa2c-7350849e4cbf","ios":"levelo://app?vid=6ffa404c-bd43-4ef5-aa2c-7350849e4cbf"},"vehicle_type_id":"4","last_reported":1702138076,"current_range_meters":8000,"station_id":"ce4bhg12rcd13ifvqf60","pricing_plan_id":"free"},{"bike_id":"f8b9bc80-cdfe-457f-a106-4de946ca59e1","system_id":"levelo_inurba_marseille","lat":43.23969,"lon":5.36632,"is_reserved":false,"is_disabled":false,"rental_uris":{"android":"levelo://app?vid=f8b9bc80-cdfe-457f-a106-4de946ca59e1","ios":"levelo://app?vid=f8b9bc80-cdfe-457f-a106-4de946ca59e1"},"vehicle_type_id":"4","last_reported":1702138076,"current_range_meters":31200,"station_id":"ce4bhi12rcd13ifvqfp0","pricing_plan_id":"free"},{"bike_id":"2528f41f-088f-40db-a837-9ca56a315a1a","system_id":"levelo_inurba_marseille","lat":43.239588,"lon":5.366238,"is_reserved":false,"is_disabled":false,"rental_uris":{"android":"levelo://app?vid=2528f41f-088f-40db-a837-9ca56a315a1a","ios":"levelo://app?vid=2528f41f-088f-40db-a837-9ca56a315a1a"},"vehicle_type_id":"4","last_reported":1702138076,"current_range_meters":20000,"station_id":"ce4bhi12rcd13ifvqfp0","pricing_plan_id":"free"},{"bike_id":"cae3bc82-bf79-42ee-8f0f-0e0c5df4a093","system_id":"levelo_inurba_marseille","lat":43.239588,"lon":5.366238,"is_reserved":false,"is_disabled":false,"rental_uris":{"android":"levelo://app?vid=cae3bc82-bf79-42ee-8f0f-0e0c5df4a093","ios":"levelo://app?vid=cae3bc82-bf79-42ee-8f0f-0e0c5df4a093"},"vehicle_type_id":"4","last_reported":1702138076,"current_range_meters":27600,"station_id":"ce4bhi12rcd13ifvqfp0","pricing_plan_id":"free"},{"bike_id":"7e5340d3-2d3d-427b-b1f3-3fa92009086b","system_id":"levelo_inurba_marseille","lat":43.231919,"lon":5.355532,"is_reserved":false,"is_disabled":false,"rental_uris":{"android":"levelo://app?vid=7e5340d3-2d3d-427b-b1f3-3fa92009086b","ios":"levelo://app?vid=7e5340d3-2d3d-427b-b1f3-3fa92009086b"},"vehicle_type_id":"4","last_reported":1702138076,"current_range_meters":26800,"station_id":"ce4bhu92rcd13ifvqi70","pricing_plan_id":"free"},{"bike_id":"529449ae-9bd0-4a42-b2ad-b913b1c62c25","system_id":"levelo_inurba_marseille","lat":43.23195,"lon":5.3555,"is_reserved":false,"is_disabled":false,"rental_uris":{"android":"levelo://app?vid=529449ae-9bd0-4a42-b2ad-b913b1c62c25","ios":"levelo://app?vid=529449ae-9bd0-4a42-b2ad-b913b1c62c25"},"vehicle_type_id":"4","last_reported":1702138076,"current_range_meters":14000,"station_id":"ce4bhu92rcd13ifvqi70","pricing_plan_id":"free"},{"bike_id":"bc30196d-481a-46dc-a914-cfd942fdc26d","system_id":"levelo_inurba_marseille","lat":43.231923,"lon":5.355545,"is_reserved":false,"is_disabled":false,"rental_uris":{"android":"levelo://app?vid=bc30196d-481a-46dc-a914-cfd942fdc26d","ios":"levelo://app?vid=bc30196d-481a-46dc-a914-cfd942fdc26d"},"vehicle_type_id":"4","last_reported":1702138076,"current_range_meters":12000,"station_id":"ce4bhu92rcd13ifvqi70","pricing_plan_id":"free"},{"bike_id":"d688d1de-99db-4179-8f44-98396df69166","system_id":"levelo_inurba_marseille","lat":43.23193,"lon":5.35554,"is_reserved":false,"is_disabled":false,"rental_uris":{"android":"levelo://app?vid=d688d1de-99db-4179-8f44-98396df69166","ios":"levelo://app?vid=d688d1de-99db-4179-8f44-98396df69166"},"vehicle_type_id":"4","last_reported":1702138076,"current_range_meters":19200,"station_id":"ce4bhu92rcd13ifvqi70","pricing_plan_id":"free"},{"bike_id":"31cbfc4f-2255-4703-9974-915d9fe18526","system_id":"levelo_inurba_marseille","lat":43.231919,"lon":5.355532,"is_reserved":false,"is_disabled":false,"rental_uris":{"android":"levelo://app?vid=31cbfc4f-2255-4703-9974-915d9fe18526","ios":"levelo://app?vid=31cbfc4f-2255-4703-9974-915d9fe18526"},"vehicle_type_id":"4","last_reported":1702138076,"current_range_meters":17200,"station_id":"ce4bhu92rcd13ifvqi70","pricing_plan_id":"free"},{"bike_id":"213e257d-882b-47d8-908b-4cb65412d074","system_id":"levelo_inurba_marseille","lat":43.231919,"lon":5.355532,"is_reserved":false,"is_disabled":false,"rental_uris":{"android":"levelo://app?vid=213e257d-882b-47d8-908b-4cb65412d074","ios":"levelo://app?vid=213e257d-882b-47d8-908b-4cb65412d074"},"vehicle_type_id":"4","last_reported":1702138076,"current_range_meters":20800,"station_id":"ce4bhu92rcd13ifvqi70","pricing_plan_id":"free"},{"bike_id":"82161704-d2ba-4ae2-9baf-c0f02651c2f5","system_id":"levelo_inurba_marseille","lat":43.231919,"lon":5.355532,"is_reserved":false,"is_disabled":false,"rental_uris":{"android":"levelo://app?vid=82161704-d2ba-4ae2-9baf-c0f02651c2f5","ios":"levelo://app?vid=82161704-d2ba-4ae2-9baf-c0f02651c2f5"},"vehicle_type_id":"4","last_reported":1702138076,"current_range_meters":4800,"station_id":"ce4bhu92rcd13ifvqi70","pricing_plan_id":"free"},{"bike_id":"db837267-81e3-439e-98cb-2684c730942d","system_id":"levelo_inurba_marseille","lat":43.23192,"lon":5.35546,"is_reserved":false,"is_disabled":false,"rental_uris":{"android":"levelo://app?vid=db837267-81e3-439e-98cb-2684c730942d","ios":"levelo://app?vid=db837267-81e3-439e-98cb-2684c730942d"},"vehicle_type_id":"4","last_reported":1702138076,"current_range_meters":20000,"station_id":"ce4bhu92rcd13ifvqi70","pricing_plan_id":"free"},{"bike_id":"c8e6b5a0-c088-4389-bf32-2c53c3a9eb1c","system_id":"levelo_inurba_marseille","lat":43.231793,"lon":5.400044,"is_reserved":false,"is_disabled":false,"rental_uris":{"android":"levelo://app?vid=c8e6b5a0-c088-4389-bf32-2c53c3a9eb1c","ios":"levelo://app?vid=c8e6b5a0-c088-4389-bf32-2c53c3a9eb1c"},"vehicle_type_id":"4","last_reported":1702138076,"current_range_meters":31200,"station_id":"ce4bhn12rcd13ifvqgqg","pricing_plan_id":"free"},{"bike_id":"86173674-661e-4b10-ab9d-d74cde6ac685","system_id":"levelo_inurba_marseille","lat":43.231562,"lon":5.436933,"is_reserved":false,"is_disabled":false,"rental_uris":{"android":"levelo://app?vid=86173674-661e-4b10-ab9d-d74cde6ac685","ios":"levelo://app?vid=86173674-661e-4b10-ab9d-d74cde6ac685"},"vehicle_type_id":"4","last_reported":1702138076,"current_range_meters":0,"station_id":"ce4bhmp2rcd13ifvqgog","pricing_plan_id":"free"}]}}