{"last_updated":1710277633,"ttl":30,"version":"2.2","data":{"bikes":[{"bike_id":"04e0f233-b284-4cd4-8c50-71c156db7347","system_id":"levelo_inurba_marseille","lat":43.313391,"lon":5.36706,"is_reserved":false,"is_disabled":false,"rental_uris":{"android":"levelo://app?vid=04e0f233-b284-4cd4-8c50-71c156db7347","ios":"levelo://app?vid=04e0f233-b284-4cd4-8c50-71c156db7347"},"vehicle_type_id":"4","last_reported":1710277633,"current_range_meters":9200,"station_id":"ce4bgr92rcd13ifvqc6g","pricing_plan_id":"cebpf4jnsgd1na2vs0mg"},{"bike_id":"79707b9a-fbde-4357-8070-2888da6aef45","system_id":"levelo_inurba_marseille","lat":43.312239,"lon":5.368562,"is_reserved":false,"is_disabled":false,"rental_uris":{"android":"levelo://app?vid=79707b9a-fbde-4357-8070-2888da6aef45","ios":"levelo://app?vid=79707b9a-fbde-4357-8070-2888da6aef45"},"vehicle_type_id":"4","last_reported":1710277633,"current_range_meters":6000,"station_id":"ce4bgl92rcd13ifvqbq0","pricing_plan_id":"cebpf4jnsgd1na2vs0mg"},{"bike_id":"324fb61a-9f8c-41b3-b50b-306bee7cc2fb","system_id":"levelo_inurba_marseille","lat":43.314811,"lon":5.373104,"is_reserved":false,"is_disabled":false,"rental_uris":{"android":"levelo://app?vid=324fb61a-9f8c-41b3-b50b-306bee7cc2fb","ios":"levelo://app?vid=324fb61a-9f8c-41b3-b50b-306bee7cc2fb"},"vehicle_type_id":"4","last_reported":1710277633,"current_range_meters":20400,"station_id":"ce4bgt12rcd13ifvqcd0","pricing_plan_id":"cebpf4jnsgd1na2vs0mg"},{"bike_id":"32ba194e-99a5-4c1b-9631-5a313671a8ff","system_id":"levelo_inurba_marseille","lat":43.309039,"lon":5.371797,"is_reserved":false,"is_disabled":false,"rental_uris":{"android":"levelo://app?vid=32ba194e-99a5-4c1b-9631-5a313671a8ff","ios":"levelo://app?vid=32ba194e-99a5-4c1b-9631-5a313671a8ff"},"vehicle_type_id":"4","last_reported":1710277633,"current_range_meters":14400,"station_id":"ce4bguh2rcd13ifvqckg","pricing_plan_id":"cebpf4jnsgd1na2vs0mg"},{"bike_id":"38510b23-dc6b-4aaf-8eeb-42ee78472a39","system_id":"levelo_inurba_marseille","lat":43.309034,"lon":5.371783,"is_reserved":false,"is_disabled":false,"rental_uris":{"android":"levelo://app?vid=38510b23-dc6b-4aaf-8eeb-42ee78472a39","ios":"levelo://app?vid=38510b23-dc6b-4aaf-8eeb-42ee78472a39"},"vehicle_type_id":"4","last_reported":1710277633,"current_range_meters":26400,"station_id":"ce4bguh2rcd13ifvqckg","pricing_plan_id":"cebpf4jnsgd1na2vs0mg"},{"bike_id":"217c3f17-0eb7-4a4b-8761-d8bc9bd7e4bc","system_id":"levelo_inurba_marseille","lat":43.309039,"lon":5.371797,"is_reserved":false,"is_disabled":false,"rental_uris":{"android":"levelo://app?vid=217c3f17-0eb7-4a4b-8761-d8bc9bd7e4bc","ios":"levelo://app?vid=217c3f17-0eb7-4a4b-8761-d8bc9bd7e4bc"},"vehicle_type_id":"4","last_reported":1710277633,"current_range_meters":26400,"station_id":"ce4bguh2rcd13ifvqckg","pricing_plan_id":"cebpf4jnsgd1na2vs0mg"},{"bike_id":"ef3497ea-4c20-4e06-95e4-68a33dd27667","system_id":"levelo_inurba_marseille","lat":43.305972,"lon":5.367474,"is_reserved":false,"is_disabled":false,"rental_uris":{"android":"levelo://app?vid=ef3497ea-4c20-4e06-95e4-68a33dd27667","ios":"levelo://app?vid=ef3497ea-4c20-4e06-95e4-68a33dd27667"},"vehicle_type_id":"4","last_reported":1710277633,"current_range_meters":0,"station_id":"","pricing_plan_id":"cebpf4jnsgd1na2vs0mg"},{"bike_id":"09883660-0408-4f0e-8c85-c3f88d856d62","system_id":"levelo_inurba_marseille","lat":43.305714,"lon":5.365633,"is_reserved":false,"is_disabled":false,"rental_uris":{"android":"levelo://app?vid=09883660-0408-4f0e-8c85-c3f88d856d62","ios":"levelo://app?vid=09883660-0408-4f0e-8c85-c3f88d856d62"},"vehicle_type_id":"4","last_reported":1710277633,"current_range_meters":23200,"station_id":"ce4bgs12rcd13ifvqcag","pricing_plan_id":"cebpf4jnsgd1na2vs0mg"},{"bike_id":"4d7dc08b-4fd2-48d5-82ce-a72b40ec6855","system_id":"levelo_inurba_marseille","lat":43.305714,"lon":5.365633,"is_reserved":false,"is_disabled":false,"rental_uris":{"android":"levelo://app?vid=4d7dc08b-4fd2-48d5-82ce-a72b40ec6855","ios":"levelo://app?vid=4d7dc08b-4fd2-48d5-82ce-a72b40ec6855"},"vehicle_type_id":"4","last_reported":1710277633,"current_range_meters":15200,"station_id":"ce4bgs12rcd13ifvqcag","pricing_plan_id":"cebpf4jnsgd1na2vs0mg"},{"bike_id":"4bf403a4-3cb6-4fcc-b755-6282f2d6a0c4","system_id":"levelo_inurba_marseille","lat":43.305989,"lon":5.37225,"is_reserved":false,"is_disabled":false,"rental_uris":{"android":"levelo://app?vid=4bf403a4-3cb6-4fcc-b755-6282f2d6a0c4","ios":"levelo://app?vid=4bf403a4-3cb6-4fcc-b755-6282f2d6a0c4"},"vehicle_type_id":"4","last_reported":1710277633,"current_range_meters":31200,"station_id":"ce4bgqh2rcd13ifvqc4g","pricing_plan_id":"cebpf4jnsgd1na2vs0mg"},{"bike_id":"41ba0621-9131-4dc5-b21a-dc227ca01766","system_id":"levelo_inurba_marseille","lat":43.305989,"lon":5.37225,"is_reserved":false,"is_disabled":false,"rental_uris":{"android":"levelo://app?vid=41ba0621-9131-4dc5-b21a-dc227ca01766","ios":"levelo://app?vid=41ba0621-9131-4dc5-b21a-dc227ca01766"},"vehicle_type_id":"4","last_reported":1710277633,"current_range_meters":8000,"station_id":"ce4bgqh2rcd13ifvqc4g","pricing_plan_id":"cebpf4jnsgd1na2vs0mg"},{"bike_id":"c2fbdfbe-33ce-4649-a0cf-caa8b61023b9","system_id":"levelo_inurba_marseille","lat":43.305989,"lon":5.37225,"is_reserved":false,"is_disabled":false,"rental_uris":{"android":"levelo://app?vid=c2fbdfbe-33ce-4649-a0cf-caa8b61023b9","ios":"levelo://app?vid=c2fbdfbe-33ce-4649-a0cf-caa8b61023b9"},"vehicle_type_id":"4","last_reported":1710277633,"current_range_meters":18800,"station_id":"ce4bgqh2rcd13ifvqc4g","pricing_plan_id":"cebpf4jnsgd1na2vs0mg"},{"bike_id":"58f6e681-1572-4158-8827-c9e8dab9f25c","system_id":"levelo_inurba_marseille","lat":43.311125,"lon":5.377624,"is_reserved":false,"is_disabled":false,"rental_uris":{"android":"levelo://app?vid=58f6e681-1572-4158-8827-c9e8dab9f25c","ios":"levelo://app?vid=58f6e681-1572-4158-8827-c9e8dab9f25c"},"vehicle_type_id":"4","last_reported":1710277633,"current_range_meters":26400,"station_id":"ce4bgt92rcd13ifvqcg0","pricing_plan_id":"cebpf4jnsgd1na2vs0mg"},{"bike_id":"adfe6c7f-d3f5-4cee-8b03-21a1c828f85d","system_id":"levelo_inurba_marseille","lat":43.311201,"lon":5.377634,"is_reserved":false,"is_disabled":false,"rental_uris":{"android":"levelo://app?vid=adfe6c7f-d3f5-4cee-8b03-21a1c828f85d","ios":"levelo://app?vid=adfe6c7f-d3f5-4cee-8b03-21a1c828f85d"},"vehicle_type_id":"4","last_reported":1710277633,"current_range_meters":6000,"station_id":"ce4bgt92rcd13ifvqcg0","pricing_plan_id":"cebpf4jnsgd1na2vs0mg"},{"bike_id":"53598c9f-5212-4e17-802d-4fdb54114dc3","system_id":"levelo_inurba_marseille","lat":43.311131,"lon":5.377651,"is_reserved":false,"is_disabled":false,"rental_uris":{"android":"levelo://app?vid=53598c9f-5212-4e17-802d-4fdb54114dc3","ios":"levelo://app?vid=53598c9f-5212-4e17-802d-4fdb54114dc3"},"vehicle_type_id":"4","last_reported":1710277633,"current_range_meters":15600,"station_id":"ce4bgt92rcd13ifvqcg0","pricing_plan_id":"cebpf4jnsgd1na2vs0mg"},{"bike_id":"046b09ea-80d7-406b-a829-ec49847059e4","system_id":"levelo_inurba_marseille","lat":43.30458,"lon":5.36715,"is_reserved":false,"is_disabled":false,"rental_uris":{"android":"levelo://app?vid=046b09ea-80d7-406b-a829-ec49847059e4","ios":"levelo://app?vid=046b09ea-80d7-406b-a829-ec49847059e4"},"vehicle_type_id":"4","last_reported":1710277633,"current_range_meters":6400,"station_id":"","pricing_plan_id":"cebpf4jnsgd1na2vs0mg"},{"bike_id":"3e79629e-4212-409d-9740-597589f5ae69","system_id":"levelo_inurba_marseille","lat":43.307945,"lon":5.376487,"is_reserved":false,"is_disabled":false,"rental_uris":{"android":"levelo://app?vid=3e79629e-4212-409d-9740-597589f5ae69","ios":"levelo://app?vid=3e79629e-4212-409d-9740-597589f5ae69"},"vehicle_type_id":"4","last_reported":1710277633,"current_range_meters":10000,"station_id":"ce4bgv92rcd13ifvqcq0","pricing_plan_id":"cebpf4jnsgd1na2vs0mg"},{"bike_id":"e80e6c7b-0166-4899-9f67-0ffb28048a72","system_id":"levelo_inurba_marseille","lat":43.307795,"lon":5.376582,"is_reserved":false,"is_disabled":false,"rental_uris":{"android":"levelo://app?vid=e80e6c7b-0166-4899-9f67-0ffb28048a72","ios":"levelo://app?vid=e80e6c7b-0166-4899-9f67-0ffb28048a72"},"vehicle_type_id":"4","last_reported":1710277633,"current_range_meters":13200,"station_id":"ce4bgv92rcd13ifvqcq0","pricing_plan_id":"cebpf4jnsgd1na2vs0mg"},{"bike_id":"0492a2d5-8ac9-48f3-a48a-179facd32fc1","system_id":"levelo_inurba_marseille","lat":43.317075,"lon":5.377367,"is_reserved":false,"is_disabled":false,"rental_uris":{"android":"levelo://app?vid=0492a2d5-8ac9-48f3-a48a-179facd32fc1","ios":"levelo://app?vid=0492a2d5-8ac9-48f3-a48a-179facd32fc1"},"vehicle_type_id":"4","last_reported":1710277633,"current_range_meters":12800,"station_id":"ce4bgth2rcd13ifvqch0","pricing_plan_id":"cebpf4jnsgd1na2vs0mg"},{"bike_id":"6df8a519-a704-46e9-b3eb-42b1fb917e85","system_id":"levelo_inurba_marseille","lat":43.317075,"lon":5.377367,"is_reserved":false,"is_disabled":false,"rental_uris":{"android":"levelo://app?vid=6df8a519-a704-46e9-b3eb-42b1fb917e85","ios":"levelo://app?vid=6df8a519-a704-46e9-b3eb-42b1fb917e85"},"vehicle_type_id":"4","last_reported":1710277633,"current_range_meters":21600,"station_id":"ce4bgth2rcd13ifvqch0","pricing_plan_id":"cebpf4jnsgd1na2vs0mg"},{"bike_id":"bd9805f3-7327-4bcb-9c4d-1dae4dc06cf2","system_id":"levelo_inurba_marseille","lat":43.303046,"lon":5.368981,"is_reserved":false,"is_disabled":false,"rental_uris":{"android":"levelo://app?vid=bd9805f3-7327-4bcb-9c4d-1dae4dc06cf2","ios":"levelo://app?vid=bd9805f3-7327-4bcb-9c4d-1dae4dc06cf2"},"vehicle_type_id":"4","last_reported":1710277633,"current_range_meters":23600,"station_id":"ce4bgqh2rcd13ifvqc5g","pricing_plan_id":"cebpf4jnsgd1na2vs0mg"},{"bike_id":"707fdbf0-6ca8-4a21-85b7-bbb6dece8b1d","system_id":"levelo_inurba_marseille","lat":43.303046,"lon":5.368981,"is_reserved":false,"is_disabled":false,"rental_uris":{"android":"levelo://app?vid=707fdbf0-6ca8-4a21-85b7-bbb6dece8b1d","ios":"levelo://app?vid=707fdbf0-6ca8-4a21-85b7-bbb6dece8b1d"},"vehicle_type_id":"4","last_reported":1710277633,"current_range_meters":3600,"station_id":"ce4bgqh2rcd13ifvqc5g","pricing_plan_id":"cebpf4jnsgd1na2vs0mg"},{"bike_id":"61859987-7b84-4e41-927c-d18f8893db63","system_id":"levelo_inurba_marseille","lat":43.315293,"lon":5.380349,"is_reserved":false,"is_disabled":false,"rental_uris":{"android":"levelo://app?vid=61859987-7b84-4e41-927c-d18f8893db63","ios":"levelo://app?vid=61859987-7b84-4e41-927c-d18f8893db63"},"vehicle_type_id":"4","last_reported":1710277633,"current_range_meters":22000,"station_id":"ce4bhsp2rcd13ifvqi50","pricing_plan_id":"cebpf4jnsgd1na2vs0mg"},{"bike_id":"b7afe2fb-06c2-4eb1-b260-8478efd06d5d","system_id":"levelo_inurba_marseille","lat":43.315295,"lon":5.380373,"is_reserved":false,"is_disabled":false,"rental_uris":{"android":"levelo://app?vid=b7afe2fb-06c2-4eb1-b260-8478efd06d5d","ios":"levelo://app?vid=b7afe2fb-06c2-4eb1-b260-8478efd06d5d"},"vehicle_type_id":"4","last_reported":1710277633,"current_range_meters":15200,"station_id":"ce4bhsp2rcd13ifvqi50","pricing_plan_id":"cebpf4jnsgd1na2vs0mg"},{"bike_id":"0db652da-1c43-4f0f-ba6f-40fa1d707a78","system_id":"levelo_inurba_marseille","lat":43.31552,"lon":5.38057,"is_reserved":false,"is_disabled":false,"rental_uris":{"android":"levelo://app?vid=0db652da-1c43-4f0f-ba6f-40fa1d707a78","ios":"levelo://app?vid=0db652da-1c43-4f0f-ba6f-40fa1d707a78"},"vehicle_type_id":"4","last_reported":1710277633,"current_range_meters":0,"station_id":"ce4bhsp2rcd13ifvqi50","pricing_plan_id":"cebpf4jnsgd1na2vs0mg"},{"bike_id":"43adc589-8e4a-48b4-9327-874fbd1883ce","system_id":"levelo_inurba_marseille","lat":43.301939,"lon":5.366286,"is_reserved":false,"is_disabled":false,"rental_uris":{"android":"levelo://app?vid=43adc589-8e4a-48b4-9327-874fbd1883ce","ios":"levelo://app?vid=43adc589-8e4a-48b4-9327-874fbd1883ce"},"vehicle_type_id":"4","last_reported":1710277633,"current_range_meters":2800,"station_id":"ce4bgrh2rcd13ifvqc8g","pricing_plan_id":"cebpf4jnsgd1na2vs0mg"},{"bike_id":"785b6a9e-eb8c-4e9c-80ae-45dd2b05bf9a","system_id":"levelo_inurba_marseille","lat":43.308012,"lon":5.381511,"is_reserved":false,"is_disabled":false,"rental_uris":{"android":"levelo://app?vid=785b6a9e-eb8c-4e9c-80ae-45dd2b05bf9a","ios":"levelo://app?vid=785b6a9e-eb8c-4e9c-80ae-45dd2b05bf9a"},"vehicle_type_id":"4","last_reported":1710277633,"current_range_meters":30800,"station_id":"ce4bgt12rcd13ifvqce0","pricing_plan_id":"cebpf4jnsgd1na2vs0mg"},{"bike_id":"cce57029-b38c-454c-b28b-3fe5785e7c52","system_id":"levelo_inurba_marseille","lat":43.308012,"lon":5.381511,"is_reserved":false,"is_disabled":false,"rental_uris":{"android":"levelo://app?vid=cce57029-b38c-454c-b28b-3fe5785e7c52","ios":"levelo://app?vid=cce57029-b38c-454c-b28b-3fe5785e7c52"},"vehicle_type_id":"4","last_reported":1710277633,"current_range_meters":400,"station_id":"ce4bgt12rcd13ifvqce0","pricing_plan_id":"cebpf4jnsgd1na2vs0mg"},{"bike_id":"f5f6dc5c-e0f6-4ddf-b94f-83919ce43176","system_id":"levelo_inurba_marseille","lat":43.308012,"lon":5.381511,"is_reserved":false,"is_disabled":false,"rental_uris":{"android":"levelo://app?vid=f5f6dc5c-e0f6-4ddf-b94f-83919ce43176","ios":"levelo://app?vid=f5f6dc5c-e0f6-4ddf-b94f-83919ce43176"},"vehicle_type_id":"4","last_reported":1710277633,"current_range_meters":20800,"station_id":"ce4bgt12rcd13ifvqce0","pricing_plan_id":"cebpf4jnsgd1na2vs0mg"},{"bike_id":"256206e9-a5a4-41b6-833d-00584a2382b9","system_id":"levelo_inurba_marseille","lat":43.308012,"lon":5.381511,"is_reserved":false,"is_disabled":false,"rental_uris":{"android":"levelo://app?vid=256206e9-a5a4-41b6-833d-00584a2382b9","ios":"levelo://app?vid=256206e9-a5a4-41b6-833d-00584a2382b9"},"vehicle_type_id":"4","last_reported":1710277633,"current_range_meters":25200,"station_id":"ce4bgt12rcd13ifvqce0","pricing_plan_id":"cebpf4jnsgd1na2vs0mg"},{"bike_id":"8b6d1cdf-069e-45df-b036-05d6aeba8015","system_id":"levelo_inurba_marseille","lat":43.308012,"lon":5.381511,"is_reserved":false,"is_disabled":false,"rental_uris":{"android":"levelo://app?vid=8b6d1cdf-069e-45df-b036-05d6aeba8015","ios":"levelo://app?vid=8b6d1cdf-069e-45df-b036-05d6aeba8015"},"vehicle_type_id":"4","last_reported":1710277633,"current_range_meters":26800,"station_id":"ce4bgt12rcd13ifvqce0","pricing_plan_id":"cebpf4jnsgd1na2vs0mg"},{"bike_id":"5c119374-59c5-4903-a4cb-869f244452b9","system_id":"levelo_inurba_marseille","lat":43.30105,"lon":5.37012,"is_reserved":false,"is_disabled":false,"rental_uris":{"android":"levelo://app?vid=5c119374-59c5-4903-a4cb-869f244452b9","ios":"levelo://app?vid=5c119374-59c5-4903-a4cb-869f244452b9"},"vehicle_type_id":"4","last_reported":1710277633,"current_range_meters":21200,"station_id":"","pricing_plan_id":"cebpf4jnsgd1na2vs0mg"},{"bike_id":"3ca98abd-fcb5-49e9-bb2a-9894daa335f6","system_id":"levelo_inurba_marseille","lat":43.304606,"lon":5.379026,"is_reserved":false,"is_disabled":false,"rental_uris":{"android":"levelo://app?vid=3ca98abd-fcb5-49e9-bb2a-9894daa335f6","ios":"levelo://app?vid=3ca98abd-fcb5-49e9-bb2a-9894daa335f6"},"vehicle_type_id":"4","last_reported":1710277633,"current_range_meters":26400,"station_id":"ce4bgup2rcd13ifvqcn0","pricing_plan_id":"cebpf4jnsgd1na2vs0mg"},{"bike_id":"49f2117d-bbb1-42e5-80a2-7a881aecf261","system_id":"levelo_inurba_marseille","lat":43.324771,"lon":5.36557,"is_reserved":false,"is_disabled":false,"rental_uris":{"android":"levelo://app?vid=49f2117d-bbb1-42e5-80a2-7a881aecf261","ios":"levelo://app?vid=49f2117d-bbb1-42e5-80a2-7a881aecf261"},"vehicle_type_id":"4","last_reported":1710277633,"current_range_meters":15200,"station_id":"ce4bhs12rcd13ifvqhvg","pricing_plan_id":"cebpf4jnsgd1na2vs0mg"},{"bike_id":"36b9805d-1b04-4ec6-8f80-ae352e34369c","system_id":"levelo_inurba_marseille","lat":43.324771,"lon":5.36557,"is_reserved":false,"is_disabled":false,"rental_uris":{"android":"levelo://app?vid=36b9805d-1b04-4ec6-8f80-ae352e34369c","ios":"levelo://app?vid=36b9805d-1b04-4ec6-8f80-ae352e34369c"},"vehicle_type_id":"4","last_reported":1710277633,"current_range_meters":5600,"station_id":"ce4bhs12rcd13ifvqhvg","pricing_plan_id":"cebpf4jnsgd1na2vs0mg"},{"bike_id":"69f16bc0-91b1-4cad-91b5-51ae8c8ba203","system_id":"levelo_inurba_marseille","lat":43.32474,"lon":5.36568,"is_reserved":false,"is_disabled":false,"rental_uris":{"android":"levelo://app?vid=69f16bc0-91b1-4cad-91b5-51ae8c8ba203","ios":"levelo://app?vid=69f16bc0-91b1-4cad-91b5-51ae8c8ba203"},"vehicle_type_id":"4","last_reported":1710277633,"current_range_meters":10000,"station_id":"ce4bhs12rcd13ifvqhvg","pricing_plan_id":"cebpf4jnsgd1na2vs0mg"},{"bike_id":"75737f94-0aac-466c-878e-f5152ecd0234","system_id":"levelo_inurba_marseille","lat":43.324771,"lon":5.36557,"is_reserved":false,"is_disabled":false,"rental_uris":{"android":"levelo://app?vid=75737f94-0aac-466c-878e-f5152ecd0234","ios":"levelo://app?vid=75737f94-0aac-466c-878e-f5152ecd0234"},"vehicle_type_id":"4","last_reported":1710277633,"current_range_meters":6400,"station_id":"ce4bhs12rcd13ifvqhvg","pricing_plan_id":"cebpf4jnsgd1na2vs0mg"},{"bike_id":"ed2f200f-86c1-4eb8-ad3b-d4ae2c5298fd","system_id":"levelo_inurba_marseille","lat":43.324771,"lon":5.36557,"is_reserved":false,"is_disabled":false,"rental_uris":{"android":"levelo://app?vid=ed2f200f-86c1-4eb8-ad3b-d4ae2c5298fd","ios":"levelo://app?vid=ed2f200f-86c1-4eb8-ad3b-d4ae2c5298fd"},"vehicle_type_id":"4","last_reported":1710277633,"current_range_meters":28000,"station_id":"ce4bhs12rcd13ifvqhvg","pricing_plan_id":"cebpf4jnsgd1na2vs0mg"},{"bike_id":"3e493ae2-c51c-41da-a0b8-fbd174ae9e18","system_id":"levelo_inurba_marseille","lat":43.32477,"lon":5.36578,"is_reserved":false,"is_disabled":false,"rental_uris":{"android":"levelo://app?vid=3e493ae2-c51c-41da-a0b8-fbd174ae9e18","ios":"levelo://app?vid=3e493ae2-c51c-41da-a0b8-fbd174ae9e18"},"vehicle_type_id":"4","last_reported":1710277633,"current_range_meters":8000,"station_id":"ce4bhs12rcd13ifvqhvg","pricing_plan_id":"cebpf4jnsgd1na2vs0mg"},{"bike_id":"b735f631-99f5-4034-8269-a86a4a969537","system_id":"levelo_inurba_marseille","lat":43.324771,"lon":5.36557,"is_reserved":false,"is_disabled":false,"rental_uris":{"android":"levelo://app?vid=b735f631-99f5-4034-8269-a86a4a969537","ios":"levelo://app?vid=b735f631-99f5-4034-8269-a86a4a969537"},"vehicle_type_id":"4","last_reported":1710277633,"current_range_meters":8400,"station_id":"ce4bhs12rcd13ifvqhvg","pricing_plan_id":"cebpf4jnsgd1na2vs0mg"},{"bike_id":"edbe2cfa-849d-4314-a9ca-5d359d74710f","system_id":"levelo_inurba_marseille","lat":43.324771,"lon":5.36557,"is_reserved":false,"is_disabled":false,"rental_uris":{"android":"levelo://app?vid=edbe2cfa-849d-4314-a9ca-5d359d74710f","ios":"levelo://app?vid=edbe2cfa-849d-4314-a9ca-5d359d74710f"},"vehicle_type_id":"4","last_reported":1710277633,"current_range_meters":9600,"station_id":"ce4bhs12rcd13ifvqhvg","pricing_plan_id":"cebpf4jnsgd1na2vs0mg"},{"bike_id":"fbd7e0ad-934f-48b9-8d4b-791b9136643d","system_id":"levelo_inurba_marseille","lat":43.324785,"lon":5.365773,"is_reserved":false,"is_disabled":false,"rental_uris":{"android":"levelo://app?vid=fbd7e0ad-934f-48b9-8d4b-791b9136643d","ios":"levelo://app?vid=fbd7e0ad-934f-48b9-8d4b-791b9136643d"},"vehicle_type_id":"4","last_reported":1710277633,"current_range_meters":11600,"station_id":"ce4bhs12rcd13ifvqhvg","pricing_plan_id":"cebpf4jnsgd1na2vs0mg"},{"bike_id":"2cbe4754-8bed-4fb8-ac7d-a2dfa79db6a5","system_id":"levelo_inurba_marseille","lat":43.324771,"lon":5.36557,"is_reserved":false,"is_disabled":false,"rental_uris":{"android":"levelo://app?vid=2cbe4754-8bed-4fb8-ac7d-a2dfa79db6a5","ios":"levelo://app?vid=2cbe4754-8bed-4fb8-ac7d-a2dfa79db6a5"},"vehicle_type_id":"4","last_reported":1710277633,"current_range_meters":11200,"station_id":"ce4bhs12rcd13ifvqhvg","pricing_plan_id":"cebpf4jnsgd1na2vs0mg"},{"bike_id":"f3d79d43-27a2-4f76-a9a3-60d2c9c48864","system_id":"levelo_inurba_marseille","lat":43.324771,"lon":5.36557,"is_reserved":false,"is_disabled":false,"rental_uris":{"android":"levelo://app?vid=f3d79d43-27a2-4f76-a9a3-60d2c9c48864","ios":"levelo://app?vid=f3d79d43-27a2-4f76-a9a3-60d2c9c48864"},"vehicle_type_id":"4","last_reported":1710277633,"current_range_meters":16000,"station_id":"ce4bhs12rcd13ifvqhvg","pricing_plan_id":"cebpf4jnsgd1na2vs0mg"},{"bike_id":"2e3cabf9-3880-4d07-ae3b-af234e57884b","system_id":"levelo_inurba_marseille","lat":43.324771,"lon":5.36557,"is_reserved":false,"is_disabled":false,"rental_uris":{"android":"levelo://app?vid=2e3cabf9-3880-4d07-ae3b-af234e57884b","ios":"levelo://app?vid=2e3cabf9-3880-4d07-ae3b-af234e57884b"},"vehicle_type_id":"4","last_reported":1710277633,"current_range_meters":9200,"station_id":"ce4bhs12rcd13ifvqhvg","pricing_plan_id":"cebpf4jnsgd1na2vs0mg"},{"bike_id":"a2e74eda-9d8a-4004-a1ab-61e01c9e2c75","system_id":"levelo_inurba_marseille","lat":43.324771,"lon":5.36557,"is_reserved":false,"is_disabled":false,"rental_uris":{"android":"levelo://app?vid=a2e74eda-9d8a-4004-a1ab-61e01c9e2c75","ios":"levelo://app?vid=a2e74eda-9d8a-4004-a1ab-61e01c9e2c75"},"vehicle_type_id":"4","last_reported":1710277633,"current_range_meters":8400,"station_id":"ce4bhs12rcd13ifvqhvg","pricing_plan_id":"cebpf4jnsgd1na2vs0mg"},{"bike_id":"4fb0e6c2-fad3-4593-9a87-ff1b8149e5f9","system_id":"levelo_inurba_marseille","lat":43.324771,"lon":5.36557,"is_reserved":false,"is_disabled":false,"rental_uris":{"android":"levelo://app?vid=4fb0e6c2-fad3-4593-9a87-ff1b8149e5f9","ios":"levelo://app?vid=4fb0e6c2-fad3-4593-9a87-ff1b8149e5f9"},"vehicle_type_id":"4","last_reported":1710277633,"current_range_meters":14800,"station_id":"ce4bhs12rcd13ifvqhvg","pricing_plan_id":"cebpf4jnsgd1na2vs0mg"},{"bike_id":"a9f07a80-f181-4512-9f56-cc15be82141e","system_id":"levelo_inurba_marseille","lat":43.324771,"lon":5.36557,"is_reserved":false,"is_disabled":false,"rental_uris":{"android":"levelo://app?vid=a9f07a80-f181-4512-9f56-cc15be82141e","ios":"levelo://app?vid=a9f07a80-f181-4512-9f56-cc15be82141e"},"vehicle_type_id":"4","last_reported":1710277633,"current_range_meters":16400,"station_id":"ce4bhs12rcd13ifvqhvg","pricing_plan_id":"cebpf4jnsgd1na2vs0mg"},{"bike_id":"c6e0b42d-b3ae-4eb4-b768-bf8eab774750","system_id":"levelo_inurba_marseille","lat":43.324771,"lon":5.36557,"is_reserved":false,"is_disabled":false,"rental_uris":{"android":"levelo://app?vid=c6e0b42d-b3ae-4eb4-b768-bf8eab774750","ios":"levelo://app?vid=c6e0b42d-b3ae-4eb4-b768-bf8eab774750"},"vehicle_type_id":"4","last_reported":1710277633,"current_range_meters":5600,"station_id":"ce4bhs12rcd13ifvqhvg","pricing_plan_id":"cebpf4jnsgd1na2vs0mg"},{"bike_id":"9b276fa3-5a51-41ed-a9f9-f6da8273c3a6","system_id":"levelo_inurba_marseille","lat":43.324771,"lon":5.36557,"is_reserved":false,"is_disabled":false,"rental_uris":{"android":"levelo://app?vid=9b276fa3-5a51-41ed-a9f9-f6da8273c3a6","ios":"levelo://app?vid=9b276fa3-5a51-41ed-a9f9-f6da8273c3a6"},"vehicle_type_id":"4","last_reported":1710277633,"current_range_meters":25600,"station_id":"ce4bhs12rcd13ifvqhvg","pricing_plan_id":"cebpf4jnsgd1na2vs0mg"},{"bike_id":"823878ac-06c6-4c85-9c1a-ecb0fa47872c","system_id":"levelo_inurba_marseille","lat":43.324771,"lon":5.36557,"is_reserved":false,"is_disabled":false,"rental_uris":{"android":"levelo://app?vid=823878ac-06c6-4c85-9c1a-ecb0fa47872c","ios":"levelo://app?vid=823878ac-06c6-4c85-9c1a-ecb0fa47872c"},"vehicle_type_id":"4","last_reported":1710277633,"current_range_meters":11200,"station_id":"ce4bhs12rcd13ifvqhvg","pricing_plan_id":"cebpf4jnsgd1na2vs0mg"},{"bike_id":"62e77525-6871-4a97-83a2-808fce6e0996","system_id":"levelo_inurba_marseille","lat":43.32491,"lon":5.36573,"is_reserved":false,"is_disabled":false,"rental_uris":{"android":"levelo://app?vid=62e77525-6871-4a97-83a2-808fce6e0996","ios":"levelo://app?vid=62e77525-6871-4a97-83a2-808fce6e0996"},"vehicle_type_id":"4","last_reported":1710277633,"current_range_meters":10400,"station_id":"ce4bhs12rcd13ifvqhvg","pricing_plan_id":"cebpf4jnsgd1na2vs0mg"},{"bike_id":"7e7a1182-b6a0-4c15-bc7f-cea6e36c78c5","system_id":"levelo_inurba_marseille","lat":43.31078,"lon":5.38353,"is_reserved":false,"is_disabled":false,"rental_uris":{"android":"levelo://app?vid=7e7a1182-b6a0-4c15-bc7f-cea6e36c78c5","ios":"levelo://app?vid=7e7a1182-b6a0-4c15-bc7f-cea6e36c78c5"},"vehicle_type_id":"4","last_reported":1710277633,"current_range_meters":7600,"station_id":"ce4bgv92rcd13ifvqcr0","pricing_plan_id":"cebpf4jnsgd1na2vs0mg"},{"bike_id":"6788731e-dab8-45e6-8ccd-183571cf036e","system_id":"levelo_inurba_marseille","lat":43.310716,"lon":5.383552,"is_reserved":false,"is_disabled":false,"rental_uris":{"android":"levelo://app?vid=6788731e-dab8-45e6-8ccd-183571cf036e","ios":"levelo://app?vid=6788731e-dab8-45e6-8ccd-183571cf036e"},"vehicle_type_id":"4","last_reported":1710277633,"current_range_meters":0,"station_id":"ce4bgv92rcd13ifvqcr0","pricing_plan_id":"cebpf4jnsgd1na2vs0mg"},{"bike_id":"66237a3a-5204-4eeb-84b7-34e7f327bd78","system_id":"levelo_inurba_marseille","lat":43.31056,"lon":5.38353,"is_reserved":false,"is_disabled":false,"rental_uris":{"android":"levelo://app?vid=66237a3a-5204-4eeb-84b7-34e7f327bd78","ios":"levelo://app?vid=66237a3a-5204-4eeb-84b7-34e7f327bd78"},"vehicle_type_id":"4","last_reported":1710277633,"current_range_meters":10000,"station_id":"ce4bgv92rcd13ifvqcr0","pricing_plan_id":"cebpf4jnsgd1na2vs0mg"},{"bike_id":"0607e0f9-eef5-4f3a-a725-c4fd09931bbf","system_id":"levelo_inurba_marseille","lat":43.310804,"lon":5.38359,"is_reserved":false,"is_disabled":false,"rental_uris":{"android":"levelo://app?vid=0607e0f9-eef5-4f3a-a725-c4fd09931bbf","ios":"levelo://app?vid=0607e0f9-eef5-4f3a-a725-c4fd09931bbf"},"vehicle_type_id":"4","last_reported":1710277633,"current_range_meters":19600,"station_id":"ce4bgv92rcd13ifvqcr0","pricing_plan_id":"cebpf4jnsgd1na2vs0mg"},{"bike_id":"ea4e3b0b-7652-462a-93cf-89cfdf444f55","system_id":"levelo_inurba_marseille","lat":43.302784,"lon":5.377158,"is_reserved":false,"is_disabled":false,"rental_uris":{"android":"levelo://app?vid=ea4e3b0b-7652-462a-93cf-89cfdf444f55","ios":"levelo://app?vid=ea4e3b0b-7652-462a-93cf-89cfdf444f55"},"vehicle_type_id":"4","last_reported":1710277633,"current_range_meters":4000,"station_id":"ce4bguh2rcd13ifvqcj0","pricing_plan_id":"cebpf4jnsgd1na2vs0mg"},{"bike_id":"2c5ef85b-3d93-4596-a128-6b13f73fb2a7","system_id":"levelo_inurba_marseille","lat":43.302784,"lon":5.377158,"is_reserved":false,"is_disabled":false,"rental_uris":{"android":"levelo://app?vid=2c5ef85b-3d93-4596-a128-6b13f73fb2a7","ios":"levelo://app?vid=2c5ef85b-3d93-4596-a128-6b13f73fb2a7"},"vehicle_type_id":"4","last_reported":1710277633,"current_range_meters":26800,"station_id":"ce4bguh2rcd13ifvqcj0","pricing_plan_id":"cebpf4jnsgd1na2vs0mg"},{"bike_id":"c4275db9-e1a7-417c-bac4-770d440c202d","system_id":"levelo_inurba_marseille","lat":43.302784,"lon":5.377158,"is_reserved":false,"is_disabled":false,"rental_uris":{"android":"levelo://app?vid=c4275db9-e1a7-417c-bac4-770d440c202d","ios":"levelo://app?vid=c4275db9-e1a7-417c-bac4-770d440c202d"},"vehicle_type_id":"4","last_reported":1710277633,"current_range_meters":28000,"station_id":"ce4bguh2rcd13ifvqcj0","pricing_plan_id":"cebpf4jnsgd1na2vs0mg"},{"bike_id":"85eda4d1-a65b-42be-a857-9368ff5a9ffd","system_id":"levelo_inurba_marseille","lat":43.302784,"lon":5.377158,"is_reserved":false,"is_disabled":false,"rental_uris":{"android":"levelo://app?vid=85eda4d1-a65b-42be-a857-9368ff5a9ffd","ios":"levelo://app?vid=85eda4d1-a65b-42be-a857-9368ff5a9ffd"},"vehicle_type_id":"4","last_reported":1710277633,"current_range_meters":22800,"station_id":"ce4bguh2rcd13ifvqcj0","pricing_plan_id":"cebpf4jnsgd1na2vs0mg"},{"bike_id":"8f7d2388-61e0-4533-baec-5a576bdd49d5","system_id":"levelo_inurba_marseille","lat":43.302784,"lon":5.377158,"is_reserved":false,"is_disabled":false,"rental_uris":{"android":"levelo://app?vid=8f7d2388-61e0-4533-baec-5a576bdd49d5","ios":"levelo://app?vid=8f7d2388-61e0-4533-baec-5a576bdd49d5"},"vehicle_type_id":"4","last_reported":1710277633,"current_range_meters":13600,"station_id":"ce4bguh2rcd13ifvqcj0","pricing_plan_id":"cebpf4jnsgd1na2vs0mg"},{"bike_id":"8f31c532-dc42-48e0-893f-3b6c2fa61454","system_id":"levelo_inurba_marseille","lat":43.319935,"lon":5.381699,"is_reserved":false,"is_disabled":false,"rental_uris":{"android":"levelo://app?vid=8f31c532-dc42-48e0-893f-3b6c2fa61454","ios":"levelo://app?vid=8f31c532-dc42-48e0-893f-3b6c2fa61454"},"vehicle_type_id":"4","last_reported":1710277633,"current_range_meters":26400,"station_id":"ce4bhr12rcd13ifvqhpg","pricing_plan_id":"cebpf4jnsgd1na2vs0mg"},{"bike_id":"ceb14724-9318-4a41-b333-c341bb4f50ad","system_id":"levelo_inurba_marseille","lat":43.319935,"lon":5.381699,"is_reserved":false,"is_disabled":false,"rental_uris":{"android":"levelo://app?vid=ceb14724-9318-4a41-b333-c341bb4f50ad","ios":"levelo://app?vid=ceb14724-9318-4a41-b333-c341bb4f50ad"},"vehicle_type_id":"4","last_reported":1710277633,"current_range_meters":8400,"station_id":"ce4bhr12rcd13ifvqhpg","pricing_plan_id":"cebpf4jnsgd1na2vs0mg"},{"bike_id":"b558e990-cc06-4de7-a55b-351947a17a2e","system_id":"levelo_inurba_marseille","lat":43.319935,"lon":5.381699,"is_reserved":false,"is_disabled":false,"rental_uris":{"android":"levelo://app?vid=b558e990-cc06-4de7-a55b-351947a17a2e","ios":"levelo://app?vid=b558e990-cc06-4de7-a55b-351947a17a2e"},"vehicle_type_id":"4","last_reported":1710277633,"current_range_meters":0,"station_id":"ce4bhr12rcd13ifvqhpg","pricing_plan_id":"cebpf4jnsgd1na2vs0mg"},{"bike_id":"2af5c0b9-0082-4655-92eb-03a7bc97c72f","system_id":"levelo_inurba_marseille","lat":43.319935,"lon":5.381699,"is_reserved":false,"is_disabled":false,"rental_uris":{"android":"levelo://app?vid=2af5c0b9-0082-4655-92eb-03a7bc97c72f","ios":"levelo://app?vid=2af5c0b9-0082-4655-92eb-03a7bc97c72f"},"vehicle_type_id":"4","last_reported":1710277633,"current_range_meters":8000,"station_id":"ce4bhr12rcd13ifvqhpg","pricing_plan_id":"cebpf4jnsgd1na2vs0mg"},{"bike_id":"1dcc8183-b7cf-4237-af50-833418ba40b6","system_id":"levelo_inurba_marseille","lat":43.319935,"lon":5.381699,"is_reserved":false,"is_disabled":false,"rental_uris":{"android":"levelo://app?vid=1dcc8183-b7cf-4237-af50-833418ba40b6","ios":"levelo://app?vid=1dcc8183-b7cf-4237-af50-833418ba40b6"},"vehicle_type_id":"4","last_reported":1710277633,"current_range_meters":6800,"station_id":"ce4bhr12rcd13ifvqhpg","pricing_plan_id":"cebpf4jnsgd1na2vs0mg"},{"bike_id":"65c1e1c9-bcac-4fbb-b4ec-b8584f431ae0","system_id":"levelo_inurba_marseille","lat":43.319935,"lon":5.381699,"is_reserved":false,"is_disabled":false,"rental_uris":{"android":"levelo://app?vid=65c1e1c9-bcac-4fbb-b4ec-b8584f431ae0","ios":"levelo://app?vid=65c1e1c9-bcac-4fbb-b4ec-b8584f431ae0"},"vehicle_type_id":"4","last_reported":1710277633,"current_range_meters":0,"station_id":"ce4bhr12rcd13ifvqhpg","pricing_plan_id":"cebpf4jnsgd1na2vs0mg"},{"bike_id":"0062f7a8-2b25-4cb5-a510-fa1e68dd9616","system_id":"levelo_inurba_marseille","lat":43.31998,"lon":5.38153,"is_reserved":false,"is_disabled":false,"rental_uris":{"android":"levelo://app?vid=0062f7a8-2b25-4cb5-a510-fa1e68dd9616","ios":"levelo://app?vid=0062f7a8-2b25-4cb5-a510-fa1e68dd9616"},"vehicle_type_id":"4","last_reported":1710277633,"current_range_meters":11600,"station_id":"ce4bhr12rcd13ifvqhpg","pricing_plan_id":"cebpf4jnsgd1na2vs0mg"},{"bike_id":"6ef83bb3-8210-47a1-b19b-6f4439ec0e37","system_id":"levelo_inurba_marseille","lat":43.32001,"lon":5.38154,"is_reserved":false,"is_disabled":false,"rental_uris":{"android":"levelo://app?vid=6ef83bb3-8210-47a1-b19b-6f4439ec0e37","ios":"levelo://app?vid=6ef83bb3-8210-47a1-b19b-6f4439ec0e37"},"vehicle_type_id":"4","last_reported":1710277633,"current_range_meters":2400,"station_id":"ce4bhr12rcd13ifvqhpg","pricing_plan_id":"cebpf4jnsgd1na2vs0mg"},{"bike_id":"38f94dce-4194-47fa-82db-0ba8c0295546","system_id":"levelo_inurba_marseille","lat":43.319955,"lon":5.381593,"is_reserved":false,"is_disabled":false,"rental_uris":{"android":"levelo://app?vid=38f94dce-4194-47fa-82db-0ba8c0295546","ios":"levelo://app?vid=38f94dce-4194-47fa-82db-0ba8c0295546"},"vehicle_type_id":"4","last_reported":1710277633,"current_range_meters":16400,"station_id":"ce4bhr12rcd13ifvqhpg","pricing_plan_id":"cebpf4jnsgd1na2vs0mg"},{"bike_id":"48a85b7a-4ef3-4f76-af0e-81ce2bc34e1c","system_id":"levelo_inurba_marseille","lat":43.31996,"lon":5.381593,"is_reserved":false,"is_disabled":false,"rental_uris":{"android":"levelo://app?vid=48a85b7a-4ef3-4f76-af0e-81ce2bc34e1c","ios":"levelo://app?vid=48a85b7a-4ef3-4f76-af0e-81ce2bc34e1c"},"vehicle_type_id":"4","last_reported":1710277633,"current_range_meters":800,"station_id":"ce4bhr12rcd13ifvqhpg","pricing_plan_id":"cebpf4jnsgd1na2vs0mg"},{"bike_id":"1fc5b0ba-584c-4241-99c3-639c71c63456","system_id":"levelo_inurba_marseille","lat":43.31994,"lon":5.381648,"is_reserved":false,"is_disabled":false,"rental_uris":{"android":"levelo://app?vid=1fc5b0ba-584c-4241-99c3-639c71c63456","ios":"levelo://app?vid=1fc5b0ba-584c-4241-99c3-639c71c63456"},"vehicle_type_id":"4","last_reported":1710277633,"current_range_meters":2800,"station_id":"ce4bhr12rcd13ifvqhpg","pricing_plan_id":"cebpf4jnsgd1na2vs0mg"},{"bike_id":"95b8c1a2-880f-4aea-abf9-32567ea0cf56","system_id":"levelo_inurba_marseille","lat":43.32,"lon":5.38166,"is_reserved":false,"is_disabled":false,"rental_uris":{"android":"levelo://app?vid=95b8c1a2-880f-4aea-abf9-32567ea0cf56","ios":"levelo://app?vid=95b8c1a2-880f-4aea-abf9-32567ea0cf56"},"vehicle_type_id":"4","last_reported":1710277633,"current_range_meters":16800,"station_id":"ce4bhr12rcd13ifvqhpg","pricing_plan_id":"cebpf4jnsgd1na2vs0mg"},{"bike_id":"3b856737-8faf-4a6b-aae3-1891a1b447a6","system_id":"levelo_inurba_marseille","lat":43.313571,"lon":5.384829,"is_reserved":false,"is_disabled":false,"rental_uris":{"android":"levelo://app?vid=3b856737-8faf-4a6b-aae3-1891a1b447a6","ios":"levelo://app?vid=3b856737-8faf-4a6b-aae3-1891a1b447a6"},"vehicle_type_id":"4","last_reported":1710277633,"current_range_meters":24000,"station_id":"ce4bgt92rcd13ifvqcf0","pricing_plan_id":"cebpf4jnsgd1na2vs0mg"},{"bike_id":"55ad3a62-911d-4ed7-9ab0-7a0376a76139","system_id":"levelo_inurba_marseille","lat":43.313571,"lon":5.384829,"is_reserved":false,"is_disabled":false,"rental_uris":{"android":"levelo://app?vid=55ad3a62-911d-4ed7-9ab0-7a0376a76139","ios":"levelo://app?vid=55ad3a62-911d-4ed7-9ab0-7a0376a76139"},"vehicle_type_id":"4","last_reported":1710277633,"current_range_meters":22000,"station_id":"ce4bgt92rcd13ifvqcf0","pricing_plan_id":"cebpf4jnsgd1na2vs0mg"},{"bike_id":"05b39e20-22bc-45d7-a926-17702cad886d","system_id":"levelo_inurba_marseille","lat":43.313571,"lon":5.384829,"is_reserved":false,"is_disabled":false,"rental_uris":{"android":"levelo://app?vid=05b39e20-22bc-45d7-a926-17702cad886d","ios":"levelo://app?vid=05b39e20-22bc-45d7-a926-17702cad886d"},"vehicle_type_id":"4","last_reported":1710277633,"current_range_meters":14400,"station_id":"ce4bgt92rcd13ifvqcf0","pricing_plan_id":"cebpf4jnsgd1na2vs0mg"},{"bike_id":"23318d55-0a29-4428-a2ab-072f1d7b3ac2","system_id":"levelo_inurba_marseille","lat":43.31355,"lon":5.38501,"is_reserved":false,"is_disabled":false,"rental_uris":{"android":"levelo://app?vid=23318d55-0a29-4428-a2ab-072f1d7b3ac2","ios":"levelo://app?vid=23318d55-0a29-4428-a2ab-072f1d7b3ac2"},"vehicle_type_id":"4","last_reported":1710277633,"current_range_meters":20800,"station_id":"ce4bgt92rcd13ifvqcf0","pricing_plan_id":"cebpf4jnsgd1na2vs0mg"},{"bike_id":"ff7ca092-6db1-4eff-8dcc-950b106fda46","system_id":"levelo_inurba_marseille","lat":43.299724,"lon":5.371829,"is_reserved":false,"is_disabled":false,"rental_uris":{"android":"levelo://app?vid=ff7ca092-6db1-4eff-8dcc-950b106fda46","ios":"levelo://app?vid=ff7ca092-6db1-4eff-8dcc-950b106fda46"},"vehicle_type_id":"4","last_reported":1710277633,"current_range_meters":22800,"station_id":"ce4bgr92rcd13ifvqc7g","pricing_plan_id":"cebpf4jnsgd1na2vs0mg"},{"bike_id":"d0c105f7-3b68-4f43-b5b3-21464cafe980","system_id":"levelo_inurba_marseille","lat":43.299462,"lon":5.365469,"is_reserved":false,"is_disabled":false,"rental_uris":{"android":"levelo://app?vid=d0c105f7-3b68-4f43-b5b3-21464cafe980","ios":"levelo://app?vid=d0c105f7-3b68-4f43-b5b3-21464cafe980"},"vehicle_type_id":"4","last_reported":1710277633,"current_range_meters":25200,"station_id":"ce4bgm92rcd13ifvqbr0","pricing_plan_id":"cebpf4jnsgd1na2vs0mg"},{"bike_id":"fa73f1e6-cedd-476a-8569-625a1fbd8c3a","system_id":"levelo_inurba_marseille","lat":43.299724,"lon":5.371829,"is_reserved":false,"is_disabled":false,"rental_uris":{"android":"levelo://app?vid=fa73f1e6-cedd-476a-8569-625a1fbd8c3a","ios":"levelo://app?vid=fa73f1e6-cedd-476a-8569-625a1fbd8c3a"},"vehicle_type_id":"4","last_reported":1710277633,"current_range_meters":29200,"station_id":"ce4bgr92rcd13ifvqc7g","pricing_plan_id":"cebpf4jnsgd1na2vs0mg"},{"bike_id":"00e004ce-ffc5-4d44-bd7d-0fb4ff2d45bd","system_id":"levelo_inurba_marseille","lat":43.299222,"lon":5.365554,"is_reserved":false,"is_disabled":false,"rental_uris":{"android":"levelo://app?vid=00e004ce-ffc5-4d44-bd7d-0fb4ff2d45bd","ios":"levelo://app?vid=00e004ce-ffc5-4d44-bd7d-0fb4ff2d45bd"},"vehicle_type_id":"4","last_reported":1710277633,"current_range_meters":28000,"station_id":"ce4bgm92rcd13ifvqbr0","pricing_plan_id":"cebpf4jnsgd1na2vs0mg"},{"bike_id":"1cd09613-67f2-413d-ba4a-f82ecc40c248","system_id":"levelo_inurba_marseille","lat":43.299222,"lon":5.365554,"is_reserved":false,"is_disabled":false,"rental_uris":{"android":"levelo://app?vid=1cd09613-67f2-413d-ba4a-f82ecc40c248","ios":"levelo://app?vid=1cd09613-67f2-413d-ba4a-f82ecc40c248"},"vehicle_type_id":"4","last_reported":1710277633,"current_range_meters":27200,"station_id":"ce4bgm92rcd13ifvqbr0","pricing_plan_id":"cebpf4jnsgd1na2vs0mg"},{"bike_id":"6e3fb4c9-1372-472e-9b78-3a677beafeed","system_id":"levelo_inurba_marseille","lat":43.305525,"lon":5.384325,"is_reserved":false,"is_disabled":false,"rental_uris":{"android":"levelo://app?vid=6e3fb4c9-1372-472e-9b78-3a677beafeed","ios":"levelo://app?vid=6e3fb4c9-1372-472e-9b78-3a677beafeed"},"vehicle_type_id":"4","last_reported":1710277633,"current_range_meters":22800,"station_id":"ce4bgg92rcd13ifvqb30","pricing_plan_id":"cebpf4jnsgd1na2vs0mg"},{"bike_id":"2256365b-2448-42af-89d2-d113d8782795","system_id":"levelo_inurba_marseille","lat":43.305364,"lon":5.384119,"is_reserved":false,"is_disabled":false,"rental_uris":{"android":"levelo://app?vid=2256365b-2448-42af-89d2-d113d8782795","ios":"levelo://app?vid=2256365b-2448-42af-89d2-d113d8782795"},"vehicle_type_id":"4","last_reported":1710277633,"current_range_meters":4800,"station_id":"ce4bgg92rcd13ifvqb30","pricing_plan_id":"cebpf4jnsgd1na2vs0mg"},{"bike_id":"3f98625c-5dbe-48ef-905b-94215ca4f878","system_id":"levelo_inurba_marseille","lat":43.298433,"lon":5.362774,"is_reserved":false,"is_disabled":false,"rental_uris":{"android":"levelo://app?vid=3f98625c-5dbe-48ef-905b-94215ca4f878","ios":"levelo://app?vid=3f98625c-5dbe-48ef-905b-94215ca4f878"},"vehicle_type_id":"4","last_reported":1710277633,"current_range_meters":22000,"station_id":"ce4bgpp2rcd13ifvqc3g","pricing_plan_id":"cebpf4jnsgd1na2vs0mg"},{"bike_id":"ab5b1ceb-c846-42a1-8bd8-4be32516ab57","system_id":"levelo_inurba_marseille","lat":43.305364,"lon":5.384119,"is_reserved":false,"is_disabled":false,"rental_uris":{"android":"levelo://app?vid=ab5b1ceb-c846-42a1-8bd8-4be32516ab57","ios":"levelo://app?vid=ab5b1ceb-c846-42a1-8bd8-4be32516ab57"},"vehicle_type_id":"4","last_reported":1710277633,"current_range_meters":10800,"station_id":"ce4bgg92rcd13ifvqb30","pricing_plan_id":"cebpf4jnsgd1na2vs0mg"},{"bike_id":"16033d10-25fe-462c-adec-60cb963bc728","system_id":"levelo_inurba_marseille","lat":43.299243,"lon":5.37481,"is_reserved":false,"is_disabled":false,"rental_uris":{"android":"levelo://app?vid=16033d10-25fe-462c-adec-60cb963bc728","ios":"levelo://app?vid=16033d10-25fe-462c-adec-60cb963bc728"},"vehicle_type_id":"4","last_reported":1710277633,"current_range_meters":28800,"station_id":"ce4bgjh2rcd13ifvqbg0","pricing_plan_id":"cebpf4jnsgd1na2vs0mg"},{"bike_id":"4e1e0641-d193-44b0-a8ae-4f6442c32175","system_id":"levelo_inurba_marseille","lat":43.311722,"lon":5.387247,"is_reserved":false,"is_disabled":false,"rental_uris":{"android":"levelo://app?vid=4e1e0641-d193-44b0-a8ae-4f6442c32175","ios":"levelo://app?vid=4e1e0641-d193-44b0-a8ae-4f6442c32175"},"vehicle_type_id":"4","last_reported":1710277633,"current_range_meters":7200,"station_id":"ce4bgv12rcd13ifvqcp0","pricing_plan_id":"cebpf4jnsgd1na2vs0mg"},{"bike_id":"136241a6-7aff-47df-a087-1a8b82034b6d","system_id":"levelo_inurba_marseille","lat":43.311722,"lon":5.387247,"is_reserved":false,"is_disabled":false,"rental_uris":{"android":"levelo://app?vid=136241a6-7aff-47df-a087-1a8b82034b6d","ios":"levelo://app?vid=136241a6-7aff-47df-a087-1a8b82034b6d"},"vehicle_type_id":"4","last_reported":1710277633,"current_range_meters":24000,"station_id":"ce4bgv12rcd13ifvqcp0","pricing_plan_id":"cebpf4jnsgd1na2vs0mg"},{"bike_id":"7613bd40-1975-4c11-a5d9-597016b499bc","system_id":"levelo_inurba_marseille","lat":43.299243,"lon":5.374807,"is_reserved":false,"is_disabled":false,"rental_uris":{"android":"levelo://app?vid=7613bd40-1975-4c11-a5d9-597016b499bc","ios":"levelo://app?vid=7613bd40-1975-4c11-a5d9-597016b499bc"},"vehicle_type_id":"4","last_reported":1710277633,"current_range_meters":5600,"station_id":"ce4bgjh2rcd13ifvqbg0","pricing_plan_id":"cebpf4jnsgd1na2vs0mg"},{"bike_id":"0e0c891c-f340-491a-9a87-e21e3a82c9f5","system_id":"levelo_inurba_marseille","lat":43.311722,"lon":5.387247,"is_reserved":false,"is_disabled":false,"rental_uris":{"android":"levelo://app?vid=0e0c891c-f340-491a-9a87-e21e3a82c9f5","ios":"levelo://app?vid=0e0c891c-f340-491a-9a87-e21e3a82c9f5"},"vehicle_type_id":"4","last_reported":1710277633,"current_range_meters":0,"station_id":"ce4bgv12rcd13ifvqcp0","pricing_plan_id":"cebpf4jnsgd1na2vs0mg"},{"bike_id":"a14ec13e-690b-456f-9264-ebb480084a54","system_id":"levelo_inurba_marseille","lat":43.311722,"lon":5.387247,"is_reserved":false,"is_disabled":false,"rental_uris":{"android":"levelo://app?vid=a14ec13e-690b-456f-9264-ebb480084a54","ios":"levelo://app?vid=a14ec13e-690b-456f-9264-ebb480084a54"},"vehicle_type_id":"4","last_reported":1710277633,"current_range_meters":1600,"station_id":"ce4bgv12rcd13ifvqcp0","pricing_plan_id":"cebpf4jnsgd1na2vs0mg"},{"bike_id":"6c710798-48b4-4985-955c-e691cc2f4d49","system_id":"levelo_inurba_marseille","lat":43.311722,"lon":5.387247,"is_reserved":false,"is_disabled":false,"rental_uris":{"android":"levelo://app?vid=6c710798-48b4-4985-955c-e691cc2f4d49","ios":"levelo://app?vid=6c710798-48b4-4985-955c-e691cc2f4d49"},"vehicle_type_id":"4","last_reported":1710277633,"current_range_meters":30400,"station_id":"ce4bgv12rcd13ifvqcp0","pricing_plan_id":"cebpf4jnsgd1na2vs0mg"},{"bike_id":"42590370-bcda-4fd7-a9aa-54cbc59a3429","system_id":"levelo_inurba_marseille","lat":43.311722,"lon":5.387247,"is_reserved":false,"is_disabled":false,"rental_uris":{"android":"levelo://app?vid=42590370-bcda-4fd7-a9aa-54cbc59a3429","ios":"levelo://app?vid=42590370-bcda-4fd7-a9aa-54cbc59a3429"},"vehicle_type_id":"4","last_reported":1710277633,"current_range_meters":0,"station_id":"ce4bgv12rcd13ifvqcp0","pricing_plan_id":"cebpf4jnsgd1na2vs0mg"},{"bike_id":"956814b8-927a-4699-897e-f5fdf1818305","system_id":"levelo_inurba_marseille","lat":43.311722,"lon":5.387247,"is_reserved":false,"is_disabled":false,"rental_uris":{"android":"levelo://app?vid=956814b8-927a-4699-897e-f5fdf1818305","ios":"levelo://app?vid=956814b8-927a-4699-897e-f5fdf1818305"},"vehicle_type_id":"4","last_reported":1710277633,"current_range_meters":0,"station_id":"ce4bgv12rcd13ifvqcp0","pricing_plan_id":"cebpf4jnsgd1na2vs0mg"},{"bike_id":"b8292b93-da15-4043-aeb3-331191bad188","system_id":"levelo_inurba_marseille","lat":43.311722,"lon":5.387247,"is_reserved":false,"is_disabled":false,"rental_uris":{"android":"levelo://app?vid=b8292b93-da15-4043-aeb3-331191bad188","ios":"levelo://app?vid=b8292b93-da15-4043-aeb3-331191bad188"},"vehicle_type_id":"4","last_reported":1710277633,"current_range_meters":0,"station_id":"ce4bgv12rcd13ifvqcp0","pricing_plan_id":"cebpf4jnsgd1na2vs0mg"},{"bike_id":"1e34ccd3-1de0-45b5-9306-879526fa373c","system_id":"levelo_inurba_marseille","lat":43.299243,"lon":5.374807,"is_reserved":false,"is_disabled":false,"rental_uris":{"android":"levelo://app?vid=1e34ccd3-1de0-45b5-9306-879526fa373c","ios":"levelo://app?vid=1e34ccd3-1de0-45b5-9306-879526fa373c"},"vehicle_type_id":"4","last_reported":1710277633,"current_range_meters":15200,"station_id":"ce4bgjh2rcd13ifvqbg0","pricing_plan_id":"cebpf4jnsgd1na2vs0mg"},{"bike_id":"14bbc7e6-5dc4-4b54-8b53-a787c50c7380","system_id":"levelo_inurba_marseille","lat":43.311722,"lon":5.387247,"is_reserved":false,"is_disabled":false,"rental_uris":{"android":"levelo://app?vid=14bbc7e6-5dc4-4b54-8b53-a787c50c7380","ios":"levelo://app?vid=14bbc7e6-5dc4-4b54-8b53-a787c50c7380"},"vehicle_type_id":"4","last_reported":1710277633,"current_range_meters":24800,"station_id":"ce4bgv12rcd13ifvqcp0","pricing_plan_id":"cebpf4jnsgd1na2vs0mg"},{"bike_id":"ea4c97e8-f80a-4c77-94e1-ad29e7424c86","system_id":"levelo_inurba_marseille","lat":43.311722,"lon":5.387247,"is_reserved":false,"is_disabled":false,"rental_uris":{"android":"levelo://app?vid=ea4c97e8-f80a-4c77-94e1-ad29e7424c86","ios":"levelo://app?vid=ea4c97e8-f80a-4c77-94e1-ad29e7424c86"},"vehicle_type_id":"4","last_reported":1710277633,"current_range_meters":11200,"station_id":"ce4bgv12rcd13ifvqcp0","pricing_plan_id":"cebpf4jnsgd1na2vs0mg"},{"bike_id":"7eab0b16-b557-4858-ab79-ad731e475ba4","system_id":"levelo_inurba_marseille","lat":43.311722,"lon":5.387247,"is_reserved":false,"is_disabled":false,"rental_uris":{"android":"levelo://app?vid=7eab0b16-b557-4858-ab79-ad731e475ba4","ios":"levelo://app?vid=7eab0b16-b557-4858-ab79-ad731e475ba4"},"vehicle_type_id":"4","last_reported":1710277633,"current_range_meters":18000,"station_id":"ce4bgv12rcd13ifvqcp0","pricing_plan_id":"cebpf4jnsgd1na2vs0mg"},{"bike_id":"8bf00889-df94-4b68-b6cc-4762b8b0acba","system_id":"levelo_inurba_marseille","lat":43.311722,"lon":5.387247,"is_reserved":false,"is_disabled":false,"rental_uris":{"android":"levelo://app?vid=8bf00889-df94-4b68-b6cc-4762b8b0acba","ios":"levelo://app?vid=8bf00889-df94-4b68-b6cc-4762b8b0acba"},"vehicle_type_id":"4","last_reported":1710277633,"current_range_meters":14800,"station_id":"ce4bgv12rcd13ifvqcp0","pricing_plan_id":"cebpf4jnsgd1na2vs0mg"},{"bike_id":"eaf5350b-08e3-4231-8a58-3cf3fba26ee0","system_id":"levelo_inurba_marseille","lat":43.322872,"lon":5.382756,"is_reserved":false,"is_disabled":false,"rental_uris":{"android":"levelo://app?vid=eaf5350b-08e3-4231-8a58-3cf3fba26ee0","ios":"levelo://app?vid=eaf5350b-08e3-4231-8a58-3cf3fba26ee0"},"vehicle_type_id":"4","last_reported":1710277633,"current_range_meters":30400,"station_id":"ce4bhr12rcd13ifvqhqg","pricing_plan_id":"cebpf4jnsgd1na2vs0mg"},{"bike_id":"e2f24066-a9da-4ac3-9953-f3c0e9a735d9","system_id":"levelo_inurba_marseille","lat":43.322872,"lon":5.382756,"is_reserved":false,"is_disabled":false,"rental_uris":{"android":"levelo://app?vid=e2f24066-a9da-4ac3-9953-f3c0e9a735d9","ios":"levelo://app?vid=e2f24066-a9da-4ac3-9953-f3c0e9a735d9"},"vehicle_type_id":"4","last_reported":1710277633,"current_range_meters":13600,"station_id":"ce4bhr12rcd13ifvqhqg","pricing_plan_id":"cebpf4jnsgd1na2vs0mg"},{"bike_id":"530e4e62-aa4c-46d4-9fd4-ba19ae344b80","system_id":"levelo_inurba_marseille","lat":43.322872,"lon":5.382756,"is_reserved":false,"is_disabled":false,"rental_uris":{"android":"levelo://app?vid=530e4e62-aa4c-46d4-9fd4-ba19ae344b80","ios":"levelo://app?vid=530e4e62-aa4c-46d4-9fd4-ba19ae344b80"},"vehicle_type_id":"4","last_reported":1710277633,"current_range_meters":12800,"station_id":"ce4bhr12rcd13ifvqhqg","pricing_plan_id":"cebpf4jnsgd1na2vs0mg"},{"bike_id":"e17f286e-276a-477a-ad66-3e999f055e4c","system_id":"levelo_inurba_marseille","lat":43.322872,"lon":5.382756,"is_reserved":false,"is_disabled":false,"rental_uris":{"android":"levelo://app?vid=e17f286e-276a-477a-ad66-3e999f055e4c","ios":"levelo://app?vid=e17f286e-276a-477a-ad66-3e999f055e4c"},"vehicle_type_id":"4","last_reported":1710277633,"current_range_meters":29200,"station_id":"ce4bhr12rcd13ifvqhqg","pricing_plan_id":"cebpf4jnsgd1na2vs0mg"},{"bike_id":"01a414e2-05ea-49ad-a361-f245c868803b","system_id":"levelo_inurba_marseille","lat":43.322872,"lon":5.382756,"is_reserved":false,"is_disabled":false,"rental_uris":{"android":"levelo://app?vid=01a414e2-05ea-49ad-a361-f245c868803b","ios":"levelo://app?vid=01a414e2-05ea-49ad-a361-f245c868803b"},"vehicle_type_id":"4","last_reported":1710277633,"current_range_meters":1200,"station_id":"ce4bhr12rcd13ifvqhqg","pricing_plan_id":"cebpf4jnsgd1na2vs0mg"},{"bike_id":"ed37ae78-cbc6-4433-8c3f-5cda0c9ea3c4","system_id":"levelo_inurba_marseille","lat":43.322872,"lon":5.382756,"is_reserved":false,"is_disabled":false,"rental_uris":{"android":"levelo://app?vid=ed37ae78-cbc6-4433-8c3f-5cda0c9ea3c4","ios":"levelo://app?vid=ed37ae78-cbc6-4433-8c3f-5cda0c9ea3c4"},"vehicle_type_id":"4","last_reported":1710277633,"current_range_meters":1600,"station_id":"ce4bhr12rcd13ifvqhqg","pricing_plan_id":"cebpf4jnsgd1na2vs0mg"},{"bike_id":"a1ea46c0-4921-4767-a801-a177044432f3","system_id":"levelo_inurba_marseille","lat":43.322872,"lon":5.382756,"is_reserved":false,"is_disabled":false,"rental_uris":{"android":"levelo://app?vid=a1ea46c0-4921-4767-a801-a177044432f3","ios":"levelo://app?vid=a1ea46c0-4921-4767-a801-a177044432f3"},"vehicle_type_id":"4","last_reported":1710277633,"current_range_meters":31200,"station_id":"ce4bhr12rcd13ifvqhqg","pricing_plan_id":"cebpf4jnsgd1na2vs0mg"},{"bike_id":"7d711117-8f24-4ca5-af35-2d207110a750","system_id":"levelo_inurba_marseille","lat":43.322872,"lon":5.382756,"is_reserved":false,"is_disabled":false,"rental_uris":{"android":"levelo://app?vid=7d711117-8f24-4ca5-af35-2d207110a750","ios":"levelo://app?vid=7d711117-8f24-4ca5-af35-2d207110a750"},"vehicle_type_id":"4","last_reported":1710277633,"current_range_meters":31200,"station_id":"ce4bhr12rcd13ifvqhqg","pricing_plan_id":"cebpf4jnsgd1na2vs0mg"},{"bike_id":"36727d06-0af4-4c64-88de-4193d3d2494b","system_id":"levelo_inurba_marseille","lat":43.322872,"lon":5.382756,"is_reserved":false,"is_disabled":false,"rental_uris":{"android":"levelo://app?vid=36727d06-0af4-4c64-88de-4193d3d2494b","ios":"levelo://app?vid=36727d06-0af4-4c64-88de-4193d3d2494b"},"vehicle_type_id":"4","last_reported":1710277633,"current_range_meters":22800,"station_id":"ce4bhr12rcd13ifvqhqg","pricing_plan_id":"cebpf4jnsgd1na2vs0mg"},{"bike_id":"f2491452-d17d-4fd1-b87c-31e465894cd3","system_id":"levelo_inurba_marseille","lat":43.322872,"lon":5.382756,"is_reserved":false,"is_disabled":false,"rental_uris":{"android":"levelo://app?vid=f2491452-d17d-4fd1-b87c-31e465894cd3","ios":"levelo://app?vid=f2491452-d17d-4fd1-b87c-31e465894cd3"},"vehicle_type_id":"4","last_reported":1710277633,"current_range_meters":14800,"station_id":"ce4bhr12rcd13ifvqhqg","pricing_plan_id":"cebpf4jnsgd1na2vs0mg"},{"bike_id":"3ff125a5-dff1-4591-b6cc-449dc2424878","system_id":"levelo_inurba_marseille","lat":43.322872,"lon":5.382756,"is_reserved":false,"is_disabled":false,"rental_uris":{"android":"levelo://app?vid=3ff125a5-dff1-4591-b6cc-449dc2424878","ios":"levelo://app?vid=3ff125a5-dff1-4591-b6cc-449dc2424878"},"vehicle_type_id":"4","last_reported":1710277633,"current_range_meters":25200,"station_id":"ce4bhr12rcd13ifvqhqg","pricing_plan_id":"cebpf4jnsgd1na2vs0mg"},{"bike_id":"3abca3f8-73a4-4a83-9f7a-e9df11291bf3","system_id":"levelo_inurba_marseille","lat":43.322872,"lon":5.382756,"is_reserved":false,"is_disabled":false,"rental_uris":{"android":"levelo://app?vid=3abca3f8-73a4-4a83-9f7a-e9df11291bf3","ios":"levelo://app?vid=3abca3f8-73a4-4a83-9f7a-e9df11291bf3"},"vehicle_type_id":"4","last_reported":1710277633,"current_range_meters":30400,"station_id":"ce4bhr12rcd13ifvqhqg","pricing_plan_id":"cebpf4jnsgd1na2vs0mg"},{"bike_id":"a0cd80de-0cc6-446b-beaf-fbd46032954f","system_id":"levelo_inurba_marseille","lat":43.322872,"lon":5.382756,"is_reserved":false,"is_disabled":false,"rental_uris":{"android":"levelo://app?vid=a0cd80de-0cc6-446b-beaf-fbd46032954f","ios":"levelo://app?vid=a0cd80de-0cc6-446b-beaf-fbd46032954f"},"vehicle_type_id":"4","last_reported":1710277633,"current_range_meters":8800,"station_id":"ce4bhr12rcd13ifvqhqg","pricing_plan_id":"cebpf4jnsgd1na2vs0mg"},{"bike_id":"9f86adce-c024-4cd4-a9d5-249d4c358c2f","system_id":"levelo_inurba_marseille","lat":43.322872,"lon":5.382756,"is_reserved":false,"is_disabled":false,"rental_uris":{"android":"levelo://app?vid=9f86adce-c024-4cd4-a9d5-249d4c358c2f","ios":"levelo://app?vid=9f86adce-c024-4cd4-a9d5-249d4c358c2f"},"vehicle_type_id":"4","last_reported":1710277633,"current_range_meters":1600,"station_id":"ce4bhr12rcd13ifvqhqg","pricing_plan_id":"cebpf4jnsgd1na2vs0mg"},{"bike_id":"ed552ac3-02fb-4aa2-affb-b40980efb627","system_id":"levelo_inurba_marseille","lat":43.297696,"lon":5.371041,"is_reserved":false,"is_disabled":false,"rental_uris":{"android":"levelo://app?vid=ed552ac3-02fb-4aa2-affb-b40980efb627","ios":"levelo://app?vid=ed552ac3-02fb-4aa2-affb-b40980efb627"},"vehicle_type_id":"4","last_reported":1710277633,"current_range_meters":26000,"station_id":"ce4bgop2rcd13ifvqc1g","pricing_plan_id":"cebpf4jnsgd1na2vs0mg"},{"bike_id":"f03ab1ee-c5a2-4eef-b1d3-ac71c819aba1","system_id":"levelo_inurba_marseille","lat":43.322872,"lon":5.382756,"is_reserved":false,"is_disabled":false,"rental_uris":{"android":"levelo://app?vid=f03ab1ee-c5a2-4eef-b1d3-ac71c819aba1","ios":"levelo://app?vid=f03ab1ee-c5a2-4eef-b1d3-ac71c819aba1"},"vehicle_type_id":"4","last_reported":1710277633,"current_range_meters":21200,"station_id":"ce4bhr12rcd13ifvqhqg","pricing_plan_id":"cebpf4jnsgd1na2vs0mg"},{"bike_id":"60bd0879-7262-48a6-9d23-84e78ab6dba1","system_id":"levelo_inurba_marseille","lat":43.297163,"lon":5.365866,"is_reserved":false,"is_disabled":false,"rental_uris":{"android":"levelo://app?vid=60bd0879-7262-48a6-9d23-84e78ab6dba1","ios":"levelo://app?vid=60bd0879-7262-48a6-9d23-84e78ab6dba1"},"vehicle_type_id":"4","last_reported":1710277633,"current_range_meters":8800,"station_id":"ce4bgn12rcd13ifvqbt0","pricing_plan_id":"cebpf4jnsgd1na2vs0mg"},{"bike_id":"1d0b593e-456a-4331-a98a-b3ffe80763f5","system_id":"levelo_inurba_marseille","lat":43.2968,"lon":5.37291,"is_reserved":false,"is_disabled":false,"rental_uris":{"android":"levelo://app?vid=1d0b593e-456a-4331-a98a-b3ffe80763f5","ios":"levelo://app?vid=1d0b593e-456a-4331-a98a-b3ffe80763f5"},"vehicle_type_id":"4","last_reported":1710277633,"current_range_meters":17200,"station_id":"ce4bgk12rcd13ifvqbj0","pricing_plan_id":"cebpf4jnsgd1na2vs0mg"},{"bike_id":"9c496ce4-6a96-4f2e-a9b5-87c18455e133","system_id":"levelo_inurba_marseille","lat":43.29585,"lon":5.36747,"is_reserved":false,"is_disabled":false,"rental_uris":{"android":"levelo://app?vid=9c496ce4-6a96-4f2e-a9b5-87c18455e133","ios":"levelo://app?vid=9c496ce4-6a96-4f2e-a9b5-87c18455e133"},"vehicle_type_id":"4","last_reported":1710277633,"current_range_meters":27200,"station_id":"ce4bgph2rcd13ifvqc2g","pricing_plan_id":"cebpf4jnsgd1na2vs0mg"},{"bike_id":"e8212787-dbd3-4fa1-8301-1af9194ce85d","system_id":"levelo_inurba_marseille","lat":43.299028,"lon":5.381509,"is_reserved":false,"is_disabled":false,"rental_uris":{"android":"levelo://app?vid=e8212787-dbd3-4fa1-8301-1af9194ce85d","ios":"levelo://app?vid=e8212787-dbd3-4fa1-8301-1af9194ce85d"},"vehicle_type_id":"4","last_reported":1710277633,"current_range_meters":0,"station_id":"ce4bgj12rcd13ifvqbc0","pricing_plan_id":"cebpf4jnsgd1na2vs0mg"},{"bike_id":"644de45e-18f4-4e00-9554-6b8feda79a0b","system_id":"levelo_inurba_marseille","lat":43.309589,"lon":5.390258,"is_reserved":false,"is_disabled":false,"rental_uris":{"android":"levelo://app?vid=644de45e-18f4-4e00-9554-6b8feda79a0b","ios":"levelo://app?vid=644de45e-18f4-4e00-9554-6b8feda79a0b"},"vehicle_type_id":"4","last_reported":1710277633,"current_range_meters":14400,"station_id":"ce4bgup2rcd13ifvqco0","pricing_plan_id":"cebpf4jnsgd1na2vs0mg"},{"bike_id":"94968f40-89e9-4cdd-b156-96403ee16f54","system_id":"levelo_inurba_marseille","lat":43.309589,"lon":5.390258,"is_reserved":false,"is_disabled":false,"rental_uris":{"android":"levelo://app?vid=94968f40-89e9-4cdd-b156-96403ee16f54","ios":"levelo://app?vid=94968f40-89e9-4cdd-b156-96403ee16f54"},"vehicle_type_id":"4","last_reported":1710277633,"current_range_meters":800,"station_id":"ce4bgup2rcd13ifvqco0","pricing_plan_id":"cebpf4jnsgd1na2vs0mg"},{"bike_id":"c853386d-332a-44e1-b8f3-c868b7c4a285","system_id":"levelo_inurba_marseille","lat":43.317582,"lon":5.39009,"is_reserved":false,"is_disabled":false,"rental_uris":{"android":"levelo://app?vid=c853386d-332a-44e1-b8f3-c868b7c4a285","ios":"levelo://app?vid=c853386d-332a-44e1-b8f3-c868b7c4a285"},"vehicle_type_id":"4","last_reported":1710277633,"current_range_meters":15600,"station_id":"ce4bhqp2rcd13ifvqhng","pricing_plan_id":"cebpf4jnsgd1na2vs0mg"},{"bike_id":"a7e9409e-d196-40a9-8913-2226e2a94e30","system_id":"levelo_inurba_marseille","lat":43.317557,"lon":5.390173,"is_reserved":false,"is_disabled":false,"rental_uris":{"android":"levelo://app?vid=a7e9409e-d196-40a9-8913-2226e2a94e30","ios":"levelo://app?vid=a7e9409e-d196-40a9-8913-2226e2a94e30"},"vehicle_type_id":"4","last_reported":1710277633,"current_range_meters":31600,"station_id":"ce4bhqp2rcd13ifvqhng","pricing_plan_id":"cebpf4jnsgd1na2vs0mg"},{"bike_id":"ce238f82-8f48-4a8d-b737-650fb0d8c434","system_id":"levelo_inurba_marseille","lat":43.317557,"lon":5.390173,"is_reserved":false,"is_disabled":false,"rental_uris":{"android":"levelo://app?vid=ce238f82-8f48-4a8d-b737-650fb0d8c434","ios":"levelo://app?vid=ce238f82-8f48-4a8d-b737-650fb0d8c434"},"vehicle_type_id":"4","last_reported":1710277633,"current_range_meters":4000,"station_id":"ce4bhqp2rcd13ifvqhng","pricing_plan_id":"cebpf4jnsgd1na2vs0mg"},{"bike_id":"4f6e7b93-22c1-4710-9326-6e037b82c387","system_id":"levelo_inurba_marseille","lat":43.317557,"lon":5.390173,"is_reserved":false,"is_disabled":false,"rental_uris":{"android":"levelo://app?vid=4f6e7b93-22c1-4710-9326-6e037b82c387","ios":"levelo://app?vid=4f6e7b93-22c1-4710-9326-6e037b82c387"},"vehicle_type_id":"4","last_reported":1710277633,"current_range_meters":26000,"station_id":"ce4bhqp2rcd13ifvqhng","pricing_plan_id":"cebpf4jnsgd1na2vs0mg"},{"bike_id":"77143e07-9a56-4df7-8659-5c80a8c15c48","system_id":"levelo_inurba_marseille","lat":43.31754,"lon":5.39015,"is_reserved":false,"is_disabled":false,"rental_uris":{"android":"levelo://app?vid=77143e07-9a56-4df7-8659-5c80a8c15c48","ios":"levelo://app?vid=77143e07-9a56-4df7-8659-5c80a8c15c48"},"vehicle_type_id":"4","last_reported":1710277633,"current_range_meters":7200,"station_id":"ce4bhqp2rcd13ifvqhng","pricing_plan_id":"cebpf4jnsgd1na2vs0mg"},{"bike_id":"e7635339-4a3c-42a4-a346-f89d0509c084","system_id":"levelo_inurba_marseille","lat":43.317557,"lon":5.390173,"is_reserved":false,"is_disabled":false,"rental_uris":{"android":"levelo://app?vid=e7635339-4a3c-42a4-a346-f89d0509c084","ios":"levelo://app?vid=e7635339-4a3c-42a4-a346-f89d0509c084"},"vehicle_type_id":"4","last_reported":1710277633,"current_range_meters":28400,"station_id":"ce4bhqp2rcd13ifvqhng","pricing_plan_id":"cebpf4jnsgd1na2vs0mg"},{"bike_id":"f63c0e12-1219-43b7-8ae3-7050aa802158","system_id":"levelo_inurba_marseille","lat":43.31763,"lon":5.39013,"is_reserved":false,"is_disabled":false,"rental_uris":{"android":"levelo://app?vid=f63c0e12-1219-43b7-8ae3-7050aa802158","ios":"levelo://app?vid=f63c0e12-1219-43b7-8ae3-7050aa802158"},"vehicle_type_id":"4","last_reported":1710277633,"current_range_meters":25600,"station_id":"ce4bhqp2rcd13ifvqhng","pricing_plan_id":"cebpf4jnsgd1na2vs0mg"},{"bike_id":"1088c83b-edd1-487f-ba9c-9b4dd7f4efbe","system_id":"levelo_inurba_marseille","lat":43.317557,"lon":5.390173,"is_reserved":false,"is_disabled":false,"rental_uris":{"android":"levelo://app?vid=1088c83b-edd1-487f-ba9c-9b4dd7f4efbe","ios":"levelo://app?vid=1088c83b-edd1-487f-ba9c-9b4dd7f4efbe"},"vehicle_type_id":"4","last_reported":1710277633,"current_range_meters":30000,"station_id":"ce4bhqp2rcd13ifvqhng","pricing_plan_id":"cebpf4jnsgd1na2vs0mg"},{"bike_id":"dcd86476-3d35-4395-92fc-b795fd587b84","system_id":"levelo_inurba_marseille","lat":43.317557,"lon":5.390173,"is_reserved":false,"is_disabled":false,"rental_uris":{"android":"levelo://app?vid=dcd86476-3d35-4395-92fc-b795fd587b84","ios":"levelo://app?vid=dcd86476-3d35-4395-92fc-b795fd587b84"},"vehicle_type_id":"4","last_reported":1710277633,"current_range_meters":31600,"station_id":"ce4bhqp2rcd13ifvqhng","pricing_plan_id":"cebpf4jnsgd1na2vs0mg"},{"bike_id":"15e2991d-aea9-4dea-887a-fc4583d6a5ca","system_id":"levelo_inurba_marseille","lat":43.317557,"lon":5.390173,"is_reserved":false,"is_disabled":false,"rental_uris":{"android":"levelo://app?vid=15e2991d-aea9-4dea-887a-fc4583d6a5ca","ios":"levelo://app?vid=15e2991d-aea9-4dea-887a-fc4583d6a5ca"},"vehicle_type_id":"4","last_reported":1710277633,"current_range_meters":31600,"station_id":"ce4bhqp2rcd13ifvqhng","pricing_plan_id":"cebpf4jnsgd1na2vs0mg"},{"bike_id":"0f9707ac-47dc-491a-a829-442c8d5213b9","system_id":"levelo_inurba_marseille","lat":43.317557,"lon":5.390173,"is_reserved":false,"is_disabled":false,"rental_uris":{"android":"levelo://app?vid=0f9707ac-47dc-491a-a829-442c8d5213b9","ios":"levelo://app?vid=0f9707ac-47dc-491a-a829-442c8d5213b9"},"vehicle_type_id":"4","last_reported":1710277633,"current_range_meters":31600,"station_id":"ce4bhqp2rcd13ifvqhng","pricing_plan_id":"cebpf4jnsgd1na2vs0mg"},{"bike_id":"ba3a545d-9fec-4e88-b08a-c63ce08c8c4a","system_id":"levelo_inurba_marseille","lat":43.317557,"lon":5.390173,"is_reserved":false,"is_disabled":false,"rental_uris":{"android":"levelo://app?vid=ba3a545d-9fec-4e88-b08a-c63ce08c8c4a","ios":"levelo://app?vid=ba3a545d-9fec-4e88-b08a-c63ce08c8c4a"},"vehicle_type_id":"4","last_reported":1710277633,"current_range_meters":26000,"station_id":"ce4bhqp2rcd13ifvqhng","pricing_plan_id":"cebpf4jnsgd1na2vs0mg"},{"bike_id":"96deb974-7bf1-4c47-8037-c8fc31afb35b","system_id":"levelo_inurba_marseille","lat":43.317557,"lon":5.390173,"is_reserved":false,"is_disabled":false,"rental_uris":{"android":"levelo://app?vid=96deb974-7bf1-4c47-8037-c8fc31afb35b","ios":"levelo://app?vid=96deb974-7bf1-4c47-8037-c8fc31afb35b"},"vehicle_type_id":"4","last_reported":1710277633,"current_range_meters":31200,"station_id":"ce4bhqp2rcd13ifvqhng","pricing_plan_id":"cebpf4jnsgd1na2vs0mg"},{"bike_id":"e1a3b241-8cf0-48c9-9e0f-90a97e78eae0","system_id":"levelo_inurba_marseille","lat":43.317557,"lon":5.390173,"is_reserved":false,"is_disabled":false,"rental_uris":{"android":"levelo://app?vid=e1a3b241-8cf0-48c9-9e0f-90a97e78eae0","ios":"levelo://app?vid=e1a3b241-8cf0-48c9-9e0f-90a97e78eae0"},"vehicle_type_id":"4","last_reported":1710277633,"current_range_meters":31600,"station_id":"ce4bhqp2rcd13ifvqhng","pricing_plan_id":"cebpf4jnsgd1na2vs0mg"},{"bike_id":"9f1aa5ff-5bd0-47a5-926d-3f994a36e3c5","system_id":"levelo_inurba_marseille","lat":43.29582,"lon":5.37509,"is_reserved":false,"is_disabled":false,"rental_uris":{"android":"levelo://app?vid=9f1aa5ff-5bd0-47a5-926d-3f994a36e3c5","ios":"levelo://app?vid=9f1aa5ff-5bd0-47a5-926d-3f994a36e3c5"},"vehicle_type_id":"4","last_reported":1710277633,"current_range_meters":0,"station_id":"ce4bgh92rcd13ifvqb50","pricing_plan_id":"cebpf4jnsgd1na2vs0mg"},{"bike_id":"77f6fa04-d60f-4771-b53a-9f29c61efe53","system_id":"levelo_inurba_marseille","lat":43.3044,"lon":5.38887,"is_reserved":false,"is_disabled":false,"rental_uris":{"android":"levelo://app?vid=77f6fa04-d60f-4771-b53a-9f29c61efe53","ios":"levelo://app?vid=77f6fa04-d60f-4771-b53a-9f29c61efe53"},"vehicle_type_id":"4","last_reported":1710277633,"current_range_meters":24800,"station_id":"ce4bgk12rcd13ifvqbi0","pricing_plan_id":"cebpf4jnsgd1na2vs0mg"},{"bike_id":"2e499c14-08e6-49c8-bcdc-24595dd57d0c","system_id":"levelo_inurba_marseille","lat":43.3043,"lon":5.38896,"is_reserved":false,"is_disabled":false,"rental_uris":{"android":"levelo://app?vid=2e499c14-08e6-49c8-bcdc-24595dd57d0c","ios":"levelo://app?vid=2e499c14-08e6-49c8-bcdc-24595dd57d0c"},"vehicle_type_id":"4","last_reported":1710277633,"current_range_meters":0,"station_id":"ce4bgk12rcd13ifvqbi0","pricing_plan_id":"cebpf4jnsgd1na2vs0mg"},{"bike_id":"e0b6bc7e-2afc-4d23-9c88-ee6eebb68d90","system_id":"levelo_inurba_marseille","lat":43.304279,"lon":5.388966,"is_reserved":false,"is_disabled":false,"rental_uris":{"android":"levelo://app?vid=e0b6bc7e-2afc-4d23-9c88-ee6eebb68d90","ios":"levelo://app?vid=e0b6bc7e-2afc-4d23-9c88-ee6eebb68d90"},"vehicle_type_id":"4","last_reported":1710277633,"current_range_meters":12400,"station_id":"ce4bgk12rcd13ifvqbi0","pricing_plan_id":"cebpf4jnsgd1na2vs0mg"},{"bike_id":"fe4126c5-8558-4241-b5f5-b24dd94c91ca","system_id":"levelo_inurba_marseille","lat":43.299707,"lon":5.384859,"is_reserved":false,"is_disabled":false,"rental_uris":{"android":"levelo://app?vid=fe4126c5-8558-4241-b5f5-b24dd94c91ca","ios":"levelo://app?vid=fe4126c5-8558-4241-b5f5-b24dd94c91ca"},"vehicle_type_id":"4","last_reported":1710277633,"current_range_meters":6800,"station_id":"ce4bgj92rcd13ifvqbd0","pricing_plan_id":"cebpf4jnsgd1na2vs0mg"},{"bike_id":"c623da6a-a969-46b8-9bcb-c5ff99456ce6","system_id":"levelo_inurba_marseille","lat":43.323653,"lon":5.388567,"is_reserved":false,"is_disabled":false,"rental_uris":{"android":"levelo://app?vid=c623da6a-a969-46b8-9bcb-c5ff99456ce6","ios":"levelo://app?vid=c623da6a-a969-46b8-9bcb-c5ff99456ce6"},"vehicle_type_id":"4","last_reported":1710277633,"current_range_meters":22000,"station_id":"ce4bhqp2rcd13ifvqhog","pricing_plan_id":"cebpf4jnsgd1na2vs0mg"},{"bike_id":"991d7feb-dcd7-453d-a499-fd702ced26e1","system_id":"levelo_inurba_marseille","lat":43.32364,"lon":5.38878,"is_reserved":false,"is_disabled":false,"rental_uris":{"android":"levelo://app?vid=991d7feb-dcd7-453d-a499-fd702ced26e1","ios":"levelo://app?vid=991d7feb-dcd7-453d-a499-fd702ced26e1"},"vehicle_type_id":"4","last_reported":1710277633,"current_range_meters":8000,"station_id":"ce4bhqp2rcd13ifvqhog","pricing_plan_id":"cebpf4jnsgd1na2vs0mg"},{"bike_id":"85208358-1d9c-42e8-98c3-73b8b13c7ee8","system_id":"levelo_inurba_marseille","lat":43.32368,"lon":5.3888,"is_reserved":false,"is_disabled":false,"rental_uris":{"android":"levelo://app?vid=85208358-1d9c-42e8-98c3-73b8b13c7ee8","ios":"levelo://app?vid=85208358-1d9c-42e8-98c3-73b8b13c7ee8"},"vehicle_type_id":"4","last_reported":1710277633,"current_range_meters":4400,"station_id":"ce4bhqp2rcd13ifvqhog","pricing_plan_id":"cebpf4jnsgd1na2vs0mg"},{"bike_id":"5f70cb05-85da-40e4-b112-7c8a8792d0e0","system_id":"levelo_inurba_marseille","lat":43.32367,"lon":5.388836,"is_reserved":false,"is_disabled":false,"rental_uris":{"android":"levelo://app?vid=5f70cb05-85da-40e4-b112-7c8a8792d0e0","ios":"levelo://app?vid=5f70cb05-85da-40e4-b112-7c8a8792d0e0"},"vehicle_type_id":"4","last_reported":1710277633,"current_range_meters":3600,"station_id":"ce4bhqp2rcd13ifvqhog","pricing_plan_id":"cebpf4jnsgd1na2vs0mg"},{"bike_id":"f551462c-c5ac-4d50-a562-0a36841c15c1","system_id":"levelo_inurba_marseille","lat":43.32367,"lon":5.388836,"is_reserved":false,"is_disabled":false,"rental_uris":{"android":"levelo://app?vid=f551462c-c5ac-4d50-a562-0a36841c15c1","ios":"levelo://app?vid=f551462c-c5ac-4d50-a562-0a36841c15c1"},"vehicle_type_id":"4","last_reported":1710277633,"current_range_meters":8000,"station_id":"ce4bhqp2rcd13ifvqhog","pricing_plan_id":"cebpf4jnsgd1na2vs0mg"},{"bike_id":"214513c2-0f8d-4a35-aa55-ac50aeaa598a","system_id":"levelo_inurba_marseille","lat":43.32365,"lon":5.38886,"is_reserved":false,"is_disabled":false,"rental_uris":{"android":"levelo://app?vid=214513c2-0f8d-4a35-aa55-ac50aeaa598a","ios":"levelo://app?vid=214513c2-0f8d-4a35-aa55-ac50aeaa598a"},"vehicle_type_id":"4","last_reported":1710277633,"current_range_meters":28000,"station_id":"ce4bhqp2rcd13ifvqhog","pricing_plan_id":"cebpf4jnsgd1na2vs0mg"},{"bike_id":"0baecd5e-0049-4b19-8872-834ba1edcdb4","system_id":"levelo_inurba_marseille","lat":43.32367,"lon":5.388836,"is_reserved":false,"is_disabled":false,"rental_uris":{"android":"levelo://app?vid=0baecd5e-0049-4b19-8872-834ba1edcdb4","ios":"levelo://app?vid=0baecd5e-0049-4b19-8872-834ba1edcdb4"},"vehicle_type_id":"4","last_reported":1710277633,"current_range_meters":19200,"station_id":"ce4bhqp2rcd13ifvqhog","pricing_plan_id":"cebpf4jnsgd1na2vs0mg"},{"bike_id":"18fedca0-c3a1-4a72-b12c-2c57f42cd0fd","system_id":"levelo_inurba_marseille","lat":43.32367,"lon":5.388836,"is_reserved":false,"is_disabled":false,"rental_uris":{"android":"levelo://app?vid=18fedca0-c3a1-4a72-b12c-2c57f42cd0fd","ios":"levelo://app?vid=18fedca0-c3a1-4a72-b12c-2c57f42cd0fd"},"vehicle_type_id":"4","last_reported":1710277633,"current_range_meters":3200,"station_id":"ce4bhqp2rcd13ifvqhog","pricing_plan_id":"cebpf4jnsgd1na2vs0mg"},{"bike_id":"f9d8fe70-a8de-437f-8109-ffd6464bca85","system_id":"levelo_inurba_marseille","lat":43.323685,"lon":5.388873,"is_reserved":false,"is_disabled":false,"rental_uris":{"android":"levelo://app?vid=f9d8fe70-a8de-437f-8109-ffd6464bca85","ios":"levelo://app?vid=f9d8fe70-a8de-437f-8109-ffd6464bca85"},"vehicle_type_id":"4","last_reported":1710277633,"current_range_meters":20800,"station_id":"ce4bhqp2rcd13ifvqhog","pricing_plan_id":"cebpf4jnsgd1na2vs0mg"},{"bike_id":"dee4390e-5c14-42d1-a352-f49dae20ced9","system_id":"levelo_inurba_marseille","lat":43.32371,"lon":5.38887,"is_reserved":false,"is_disabled":false,"rental_uris":{"android":"levelo://app?vid=dee4390e-5c14-42d1-a352-f49dae20ced9","ios":"levelo://app?vid=dee4390e-5c14-42d1-a352-f49dae20ced9"},"vehicle_type_id":"4","last_reported":1710277633,"current_range_meters":28400,"station_id":"ce4bhqp2rcd13ifvqhog","pricing_plan_id":"cebpf4jnsgd1na2vs0mg"},{"bike_id":"f14c9a56-6115-4cb7-8920-5b14ab230a3d","system_id":"levelo_inurba_marseille","lat":43.3237,"lon":5.3889,"is_reserved":false,"is_disabled":false,"rental_uris":{"android":"levelo://app?vid=f14c9a56-6115-4cb7-8920-5b14ab230a3d","ios":"levelo://app?vid=f14c9a56-6115-4cb7-8920-5b14ab230a3d"},"vehicle_type_id":"4","last_reported":1710277633,"current_range_meters":12400,"station_id":"ce4bhqp2rcd13ifvqhog","pricing_plan_id":"cebpf4jnsgd1na2vs0mg"},{"bike_id":"96691e80-0109-4001-8063-f3a18f5f5bde","system_id":"levelo_inurba_marseille","lat":43.29602,"lon":5.381084,"is_reserved":false,"is_disabled":false,"rental_uris":{"android":"levelo://app?vid=96691e80-0109-4001-8063-f3a18f5f5bde","ios":"levelo://app?vid=96691e80-0109-4001-8063-f3a18f5f5bde"},"vehicle_type_id":"4","last_reported":1710277633,"current_range_meters":23600,"station_id":"ce4bgl12rcd13ifvqbo0","pricing_plan_id":"cebpf4jnsgd1na2vs0mg"},{"bike_id":"265ae117-12c6-495d-a6dc-1f69d1fa5fb9","system_id":"levelo_inurba_marseille","lat":43.293259,"lon":5.371586,"is_reserved":false,"is_disabled":false,"rental_uris":{"android":"levelo://app?vid=265ae117-12c6-495d-a6dc-1f69d1fa5fb9","ios":"levelo://app?vid=265ae117-12c6-495d-a6dc-1f69d1fa5fb9"},"vehicle_type_id":"4","last_reported":1710277633,"current_range_meters":0,"station_id":"ce4bgh92rcd13ifvqb40","pricing_plan_id":"cebpf4jnsgd1na2vs0mg"},{"bike_id":"1d211ef3-a35a-48e8-b6c7-fe7e7da6914e","system_id":"levelo_inurba_marseille","lat":43.29264,"lon":5.36849,"is_reserved":false,"is_disabled":false,"rental_uris":{"android":"levelo://app?vid=1d211ef3-a35a-48e8-b6c7-fe7e7da6914e","ios":"levelo://app?vid=1d211ef3-a35a-48e8-b6c7-fe7e7da6914e"},"vehicle_type_id":"4","last_reported":1710277633,"current_range_meters":29600,"station_id":"ce4bhbp2rcd13ifvqesg","pricing_plan_id":"cebpf4jnsgd1na2vs0mg"},{"bike_id":"1a7071dd-93dc-4f6e-aeda-803774104702","system_id":"levelo_inurba_marseille","lat":43.305994,"lon":5.393687,"is_reserved":false,"is_disabled":false,"rental_uris":{"android":"levelo://app?vid=1a7071dd-93dc-4f6e-aeda-803774104702","ios":"levelo://app?vid=1a7071dd-93dc-4f6e-aeda-803774104702"},"vehicle_type_id":"4","last_reported":1710277633,"current_range_meters":8000,"station_id":"ce4bh0p2rcd13ifvqd80","pricing_plan_id":"cebpf4jnsgd1na2vs0mg"},{"bike_id":"fabdf53a-8489-4167-ba16-c6a88e5a4965","system_id":"levelo_inurba_marseille","lat":43.305994,"lon":5.393687,"is_reserved":false,"is_disabled":false,"rental_uris":{"android":"levelo://app?vid=fabdf53a-8489-4167-ba16-c6a88e5a4965","ios":"levelo://app?vid=fabdf53a-8489-4167-ba16-c6a88e5a4965"},"vehicle_type_id":"4","last_reported":1710277633,"current_range_meters":4000,"station_id":"ce4bh0p2rcd13ifvqd80","pricing_plan_id":"cebpf4jnsgd1na2vs0mg"},{"bike_id":"0d074efd-eab8-498c-af7c-62576c3be2c2","system_id":"levelo_inurba_marseille","lat":43.293009,"lon":5.374584,"is_reserved":false,"is_disabled":false,"rental_uris":{"android":"levelo://app?vid=0d074efd-eab8-498c-af7c-62576c3be2c2","ios":"levelo://app?vid=0d074efd-eab8-498c-af7c-62576c3be2c2"},"vehicle_type_id":"4","last_reported":1710277633,"current_range_meters":1600,"station_id":"ce4bgi12rcd13ifvqb70","pricing_plan_id":"cebpf4jnsgd1na2vs0mg"},{"bike_id":"54b653d1-9a23-40ac-abd9-b4b6396e6744","system_id":"levelo_inurba_marseille","lat":43.305994,"lon":5.393687,"is_reserved":false,"is_disabled":false,"rental_uris":{"android":"levelo://app?vid=54b653d1-9a23-40ac-abd9-b4b6396e6744","ios":"levelo://app?vid=54b653d1-9a23-40ac-abd9-b4b6396e6744"},"vehicle_type_id":"4","last_reported":1710277633,"current_range_meters":0,"station_id":"ce4bh0p2rcd13ifvqd80","pricing_plan_id":"cebpf4jnsgd1na2vs0mg"},{"bike_id":"5fda421b-ab05-4c64-8521-0298f6ebc52d","system_id":"levelo_inurba_marseille","lat":43.305994,"lon":5.393687,"is_reserved":false,"is_disabled":false,"rental_uris":{"android":"levelo://app?vid=5fda421b-ab05-4c64-8521-0298f6ebc52d","ios":"levelo://app?vid=5fda421b-ab05-4c64-8521-0298f6ebc52d"},"vehicle_type_id":"4","last_reported":1710277633,"current_range_meters":20800,"station_id":"ce4bh0p2rcd13ifvqd80","pricing_plan_id":"cebpf4jnsgd1na2vs0mg"},{"bike_id":"84c27cf9-527b-412a-90b8-116bb5fe9a4d","system_id":"levelo_inurba_marseille","lat":43.305994,"lon":5.393687,"is_reserved":false,"is_disabled":false,"rental_uris":{"android":"levelo://app?vid=84c27cf9-527b-412a-90b8-116bb5fe9a4d","ios":"levelo://app?vid=84c27cf9-527b-412a-90b8-116bb5fe9a4d"},"vehicle_type_id":"4","last_reported":1710277633,"current_range_meters":19600,"station_id":"ce4bh0p2rcd13ifvqd80","pricing_plan_id":"cebpf4jnsgd1na2vs0mg"},{"bike_id":"506b5396-6ee4-4acf-a475-548494400670","system_id":"levelo_inurba_marseille","lat":43.305994,"lon":5.393687,"is_reserved":false,"is_disabled":false,"rental_uris":{"android":"levelo://app?vid=506b5396-6ee4-4acf-a475-548494400670","ios":"levelo://app?vid=506b5396-6ee4-4acf-a475-548494400670"},"vehicle_type_id":"4","last_reported":1710277633,"current_range_meters":9200,"station_id":"ce4bh0p2rcd13ifvqd80","pricing_plan_id":"cebpf4jnsgd1na2vs0mg"},{"bike_id":"98d0daa7-46a1-4b76-b9dc-02e8b67f71e5","system_id":"levelo_inurba_marseille","lat":43.305994,"lon":5.393687,"is_reserved":false,"is_disabled":false,"rental_uris":{"android":"levelo://app?vid=98d0daa7-46a1-4b76-b9dc-02e8b67f71e5","ios":"levelo://app?vid=98d0daa7-46a1-4b76-b9dc-02e8b67f71e5"},"vehicle_type_id":"4","last_reported":1710277633,"current_range_meters":16800,"station_id":"ce4bh0p2rcd13ifvqd80","pricing_plan_id":"cebpf4jnsgd1na2vs0mg"},{"bike_id":"77523b10-16c1-4716-a068-17d94c26d2c3","system_id":"levelo_inurba_marseille","lat":43.305994,"lon":5.393687,"is_reserved":false,"is_disabled":false,"rental_uris":{"android":"levelo://app?vid=77523b10-16c1-4716-a068-17d94c26d2c3","ios":"levelo://app?vid=77523b10-16c1-4716-a068-17d94c26d2c3"},"vehicle_type_id":"4","last_reported":1710277633,"current_range_meters":14000,"station_id":"ce4bh0p2rcd13ifvqd80","pricing_plan_id":"cebpf4jnsgd1na2vs0mg"},{"bike_id":"60102562-1236-4e85-8020-cbd3276b6a21","system_id":"levelo_inurba_marseille","lat":43.302992,"lon":5.392136,"is_reserved":false,"is_disabled":false,"rental_uris":{"android":"levelo://app?vid=60102562-1236-4e85-8020-cbd3276b6a21","ios":"levelo://app?vid=60102562-1236-4e85-8020-cbd3276b6a21"},"vehicle_type_id":"4","last_reported":1710277633,"current_range_meters":26400,"station_id":"ce4bgkh2rcd13ifvqbk0","pricing_plan_id":"cebpf4jnsgd1na2vs0mg"},{"bike_id":"3e277ddb-ebdf-45b5-9ca9-25824a2fffb3","system_id":"levelo_inurba_marseille","lat":43.293009,"lon":5.374584,"is_reserved":false,"is_disabled":false,"rental_uris":{"android":"levelo://app?vid=3e277ddb-ebdf-45b5-9ca9-25824a2fffb3","ios":"levelo://app?vid=3e277ddb-ebdf-45b5-9ca9-25824a2fffb3"},"vehicle_type_id":"4","last_reported":1710277633,"current_range_meters":12800,"station_id":"ce4bgi12rcd13ifvqb70","pricing_plan_id":"cebpf4jnsgd1na2vs0mg"},{"bike_id":"e6e8b49e-7f25-40c9-af2e-51bd7aceb027","system_id":"levelo_inurba_marseille","lat":43.302992,"lon":5.392136,"is_reserved":false,"is_disabled":false,"rental_uris":{"android":"levelo://app?vid=e6e8b49e-7f25-40c9-af2e-51bd7aceb027","ios":"levelo://app?vid=e6e8b49e-7f25-40c9-af2e-51bd7aceb027"},"vehicle_type_id":"4","last_reported":1710277633,"current_range_meters":8000,"station_id":"ce4bgkh2rcd13ifvqbk0","pricing_plan_id":"cebpf4jnsgd1na2vs0mg"},{"bike_id":"cc1105af-a685-49a2-bca6-8bf9690807d6","system_id":"levelo_inurba_marseille","lat":43.292311,"lon":5.360731,"is_reserved":false,"is_disabled":false,"rental_uris":{"android":"levelo://app?vid=cc1105af-a685-49a2-bca6-8bf9690807d6","ios":"levelo://app?vid=cc1105af-a685-49a2-bca6-8bf9690807d6"},"vehicle_type_id":"4","last_reported":1710277633,"current_range_meters":22800,"station_id":"ce4bhbh2rcd13ifvqeqg","pricing_plan_id":"cebpf4jnsgd1na2vs0mg"},{"bike_id":"8b68725b-516f-4cf5-b178-cb3fabc21f4c","system_id":"levelo_inurba_marseille","lat":43.300852,"lon":5.390859,"is_reserved":false,"is_disabled":false,"rental_uris":{"android":"levelo://app?vid=8b68725b-516f-4cf5-b178-cb3fabc21f4c","ios":"levelo://app?vid=8b68725b-516f-4cf5-b178-cb3fabc21f4c"},"vehicle_type_id":"4","last_reported":1710277633,"current_range_meters":0,"station_id":"ce4bh192rcd13ifvqdb0","pricing_plan_id":"cebpf4jnsgd1na2vs0mg"},{"bike_id":"5d0543aa-7e02-4dfd-b407-408119c6d3d9","system_id":"levelo_inurba_marseille","lat":43.292311,"lon":5.360731,"is_reserved":false,"is_disabled":false,"rental_uris":{"android":"levelo://app?vid=5d0543aa-7e02-4dfd-b407-408119c6d3d9","ios":"levelo://app?vid=5d0543aa-7e02-4dfd-b407-408119c6d3d9"},"vehicle_type_id":"4","last_reported":1710277633,"current_range_meters":5600,"station_id":"ce4bhbh2rcd13ifvqeqg","pricing_plan_id":"cebpf4jnsgd1na2vs0mg"},{"bike_id":"42a2137e-07ae-4940-b6e0-e4a98c9e1307","system_id":"levelo_inurba_marseille","lat":43.29212,"lon":5.36044,"is_reserved":false,"is_disabled":false,"rental_uris":{"android":"levelo://app?vid=42a2137e-07ae-4940-b6e0-e4a98c9e1307","ios":"levelo://app?vid=42a2137e-07ae-4940-b6e0-e4a98c9e1307"},"vehicle_type_id":"4","last_reported":1710277633,"current_range_meters":22800,"station_id":"ce4bhbh2rcd13ifvqeqg","pricing_plan_id":"cebpf4jnsgd1na2vs0mg"},{"bike_id":"f1afda29-d2fa-4e83-91a2-23c2b96f6b36","system_id":"levelo_inurba_marseille","lat":43.29892,"lon":5.38897,"is_reserved":false,"is_disabled":false,"rental_uris":{"android":"levelo://app?vid=f1afda29-d2fa-4e83-91a2-23c2b96f6b36","ios":"levelo://app?vid=f1afda29-d2fa-4e83-91a2-23c2b96f6b36"},"vehicle_type_id":"4","last_reported":1710277633,"current_range_meters":4000,"station_id":"","pricing_plan_id":"cebpf4jnsgd1na2vs0mg"},{"bike_id":"1a666943-d138-42e4-89e5-dd61fcfeb5d2","system_id":"levelo_inurba_marseille","lat":43.298764,"lon":5.388973,"is_reserved":false,"is_disabled":false,"rental_uris":{"android":"levelo://app?vid=1a666943-d138-42e4-89e5-dd61fcfeb5d2","ios":"levelo://app?vid=1a666943-d138-42e4-89e5-dd61fcfeb5d2"},"vehicle_type_id":"4","last_reported":1710277633,"current_range_meters":19600,"station_id":"ce4bh392rcd13ifvqdl0","pricing_plan_id":"cebpf4jnsgd1na2vs0mg"},{"bike_id":"844cf98f-0b27-462f-9de8-74968bde69ad","system_id":"levelo_inurba_marseille","lat":43.29884,"lon":5.389,"is_reserved":false,"is_disabled":false,"rental_uris":{"android":"levelo://app?vid=844cf98f-0b27-462f-9de8-74968bde69ad","ios":"levelo://app?vid=844cf98f-0b27-462f-9de8-74968bde69ad"},"vehicle_type_id":"4","last_reported":1710277633,"current_range_meters":8400,"station_id":"ce4bh392rcd13ifvqdl0","pricing_plan_id":"cebpf4jnsgd1na2vs0mg"},{"bike_id":"dd9492fb-b3cf-493a-b0f4-cbbe34312086","system_id":"levelo_inurba_marseille","lat":43.298764,"lon":5.388973,"is_reserved":false,"is_disabled":false,"rental_uris":{"android":"levelo://app?vid=dd9492fb-b3cf-493a-b0f4-cbbe34312086","ios":"levelo://app?vid=dd9492fb-b3cf-493a-b0f4-cbbe34312086"},"vehicle_type_id":"4","last_reported":1710277633,"current_range_meters":7600,"station_id":"ce4bh392rcd13ifvqdl0","pricing_plan_id":"cebpf4jnsgd1na2vs0mg"},{"bike_id":"e7517404-5cb0-4967-98ea-be72e637278e","system_id":"levelo_inurba_marseille","lat":43.29887,"lon":5.38904,"is_reserved":false,"is_disabled":false,"rental_uris":{"android":"levelo://app?vid=e7517404-5cb0-4967-98ea-be72e637278e","ios":"levelo://app?vid=e7517404-5cb0-4967-98ea-be72e637278e"},"vehicle_type_id":"4","last_reported":1710277633,"current_range_meters":9600,"station_id":"ce4bh392rcd13ifvqdl0","pricing_plan_id":"cebpf4jnsgd1na2vs0mg"},{"bike_id":"c4c28176-88fb-467e-9d38-a0261114cbd5","system_id":"levelo_inurba_marseille","lat":43.298764,"lon":5.388973,"is_reserved":false,"is_disabled":false,"rental_uris":{"android":"levelo://app?vid=c4c28176-88fb-467e-9d38-a0261114cbd5","ios":"levelo://app?vid=c4c28176-88fb-467e-9d38-a0261114cbd5"},"vehicle_type_id":"4","last_reported":1710277633,"current_range_meters":7200,"station_id":"ce4bh392rcd13ifvqdl0","pricing_plan_id":"cebpf4jnsgd1na2vs0mg"},{"bike_id":"d9b00658-65b5-467c-ba6f-b5c43e05fe92","system_id":"levelo_inurba_marseille","lat":43.2988,"lon":5.38916,"is_reserved":false,"is_disabled":false,"rental_uris":{"android":"levelo://app?vid=d9b00658-65b5-467c-ba6f-b5c43e05fe92","ios":"levelo://app?vid=d9b00658-65b5-467c-ba6f-b5c43e05fe92"},"vehicle_type_id":"4","last_reported":1710277633,"current_range_meters":23200,"station_id":"ce4bh392rcd13ifvqdl0","pricing_plan_id":"cebpf4jnsgd1na2vs0mg"},{"bike_id":"cf60c048-b696-4e18-a2c2-9e2f87729c7d","system_id":"levelo_inurba_marseille","lat":43.29874,"lon":5.38909,"is_reserved":false,"is_disabled":false,"rental_uris":{"android":"levelo://app?vid=cf60c048-b696-4e18-a2c2-9e2f87729c7d","ios":"levelo://app?vid=cf60c048-b696-4e18-a2c2-9e2f87729c7d"},"vehicle_type_id":"4","last_reported":1710277633,"current_range_meters":2800,"station_id":"ce4bh392rcd13ifvqdl0","pricing_plan_id":"cebpf4jnsgd1na2vs0mg"},{"bike_id":"61899b7b-fe4d-4a2d-850a-2754193ef35b","system_id":"levelo_inurba_marseille","lat":43.298764,"lon":5.388973,"is_reserved":false,"is_disabled":false,"rental_uris":{"android":"levelo://app?vid=61899b7b-fe4d-4a2d-850a-2754193ef35b","ios":"levelo://app?vid=61899b7b-fe4d-4a2d-850a-2754193ef35b"},"vehicle_type_id":"4","last_reported":1710277633,"current_range_meters":16000,"station_id":"ce4bh392rcd13ifvqdl0","pricing_plan_id":"cebpf4jnsgd1na2vs0mg"},{"bike_id":"f82aa563-4604-447c-8485-38673d5ea23c","system_id":"levelo_inurba_marseille","lat":43.298764,"lon":5.388973,"is_reserved":false,"is_disabled":false,"rental_uris":{"android":"levelo://app?vid=f82aa563-4604-447c-8485-38673d5ea23c","ios":"levelo://app?vid=f82aa563-4604-447c-8485-38673d5ea23c"},"vehicle_type_id":"4","last_reported":1710277633,"current_range_meters":0,"station_id":"ce4bh392rcd13ifvqdl0","pricing_plan_id":"cebpf4jnsgd1na2vs0mg"},{"bike_id":"17949769-d4c7-44ba-9ca2-39a46e446778","system_id":"levelo_inurba_marseille","lat":43.298764,"lon":5.388973,"is_reserved":false,"is_disabled":false,"rental_uris":{"android":"levelo://app?vid=17949769-d4c7-44ba-9ca2-39a46e446778","ios":"levelo://app?vid=17949769-d4c7-44ba-9ca2-39a46e446778"},"vehicle_type_id":"4","last_reported":1710277633,"current_range_meters":30400,"station_id":"ce4bh392rcd13ifvqdl0","pricing_plan_id":"cebpf4jnsgd1na2vs0mg"},{"bike_id":"85c38f34-8d00-40af-b5ab-ab0d37f035e0","system_id":"levelo_inurba_marseille","lat":43.298764,"lon":5.388973,"is_reserved":false,"is_disabled":false,"rental_uris":{"android":"levelo://app?vid=85c38f34-8d00-40af-b5ab-ab0d37f035e0","ios":"levelo://app?vid=85c38f34-8d00-40af-b5ab-ab0d37f035e0"},"vehicle_type_id":"4","last_reported":1710277633,"current_range_meters":24000,"station_id":"ce4bh392rcd13ifvqdl0","pricing_plan_id":"cebpf4jnsgd1na2vs0mg"},{"bike_id":"cd288816-d6d3-4c14-86a9-73516232301a","system_id":"levelo_inurba_marseille","lat":43.298764,"lon":5.388973,"is_reserved":false,"is_disabled":false,"rental_uris":{"android":"levelo://app?vid=cd288816-d6d3-4c14-86a9-73516232301a","ios":"levelo://app?vid=cd288816-d6d3-4c14-86a9-73516232301a"},"vehicle_type_id":"4","last_reported":1710277633,"current_range_meters":1200,"station_id":"ce4bh392rcd13ifvqdl0","pricing_plan_id":"cebpf4jnsgd1na2vs0mg"},{"bike_id":"05d96b88-ba98-42ad-833d-18de5d4547b3","system_id":"levelo_inurba_marseille","lat":43.291994,"lon":5.357886,"is_reserved":false,"is_disabled":false,"rental_uris":{"android":"levelo://app?vid=05d96b88-ba98-42ad-833d-18de5d4547b3","ios":"levelo://app?vid=05d96b88-ba98-42ad-833d-18de5d4547b3"},"vehicle_type_id":"4","last_reported":1710277633,"current_range_meters":16800,"station_id":"ce4bhb12rcd13ifvqel0","pricing_plan_id":"cebpf4jnsgd1na2vs0mg"},{"bike_id":"897cde76-06fb-4cd6-bbb4-a802ea2e0aca","system_id":"levelo_inurba_marseille","lat":43.309038,"lon":5.396546,"is_reserved":false,"is_disabled":false,"rental_uris":{"android":"levelo://app?vid=897cde76-06fb-4cd6-bbb4-a802ea2e0aca","ios":"levelo://app?vid=897cde76-06fb-4cd6-bbb4-a802ea2e0aca"},"vehicle_type_id":"4","last_reported":1710277633,"current_range_meters":12400,"station_id":"ce4bh012rcd13ifvqcv0","pricing_plan_id":"cebpf4jnsgd1na2vs0mg"},{"bike_id":"4bb21d05-3fc8-4bcf-81d8-35508a88ae10","system_id":"levelo_inurba_marseille","lat":43.291994,"lon":5.357886,"is_reserved":false,"is_disabled":false,"rental_uris":{"android":"levelo://app?vid=4bb21d05-3fc8-4bcf-81d8-35508a88ae10","ios":"levelo://app?vid=4bb21d05-3fc8-4bcf-81d8-35508a88ae10"},"vehicle_type_id":"4","last_reported":1710277633,"current_range_meters":30400,"station_id":"ce4bhb12rcd13ifvqel0","pricing_plan_id":"cebpf4jnsgd1na2vs0mg"},{"bike_id":"49b4fac3-8ecd-40b0-bdd6-db04c41e14c6","system_id":"levelo_inurba_marseille","lat":43.309047,"lon":5.396551,"is_reserved":false,"is_disabled":false,"rental_uris":{"android":"levelo://app?vid=49b4fac3-8ecd-40b0-bdd6-db04c41e14c6","ios":"levelo://app?vid=49b4fac3-8ecd-40b0-bdd6-db04c41e14c6"},"vehicle_type_id":"4","last_reported":1710277633,"current_range_meters":24000,"station_id":"ce4bh012rcd13ifvqcv0","pricing_plan_id":"cebpf4jnsgd1na2vs0mg"},{"bike_id":"cffb32ac-789c-4267-9c7a-76d76c386814","system_id":"levelo_inurba_marseille","lat":43.309047,"lon":5.396551,"is_reserved":false,"is_disabled":false,"rental_uris":{"android":"levelo://app?vid=cffb32ac-789c-4267-9c7a-76d76c386814","ios":"levelo://app?vid=cffb32ac-789c-4267-9c7a-76d76c386814"},"vehicle_type_id":"4","last_reported":1710277633,"current_range_meters":8000,"station_id":"ce4bh012rcd13ifvqcv0","pricing_plan_id":"cebpf4jnsgd1na2vs0mg"},{"bike_id":"e27331b6-1df3-48fc-96bd-513c6a5c9602","system_id":"levelo_inurba_marseille","lat":43.308961,"lon":5.39644,"is_reserved":false,"is_disabled":false,"rental_uris":{"android":"levelo://app?vid=e27331b6-1df3-48fc-96bd-513c6a5c9602","ios":"levelo://app?vid=e27331b6-1df3-48fc-96bd-513c6a5c9602"},"vehicle_type_id":"4","last_reported":1710277633,"current_range_meters":0,"station_id":"ce4bh012rcd13ifvqcv0","pricing_plan_id":"cebpf4jnsgd1na2vs0mg"},{"bike_id":"46e3d7c2-dfd5-40b3-9f52-113d30ce5a50","system_id":"levelo_inurba_marseille","lat":43.309038,"lon":5.396546,"is_reserved":false,"is_disabled":false,"rental_uris":{"android":"levelo://app?vid=46e3d7c2-dfd5-40b3-9f52-113d30ce5a50","ios":"levelo://app?vid=46e3d7c2-dfd5-40b3-9f52-113d30ce5a50"},"vehicle_type_id":"4","last_reported":1710277633,"current_range_meters":11600,"station_id":"ce4bh012rcd13ifvqcv0","pricing_plan_id":"cebpf4jnsgd1na2vs0mg"},{"bike_id":"c224aa07-d0eb-4312-9e9e-5c7c2eb54efb","system_id":"levelo_inurba_marseille","lat":43.313291,"lon":5.396838,"is_reserved":false,"is_disabled":false,"rental_uris":{"android":"levelo://app?vid=c224aa07-d0eb-4312-9e9e-5c7c2eb54efb","ios":"levelo://app?vid=c224aa07-d0eb-4312-9e9e-5c7c2eb54efb"},"vehicle_type_id":"4","last_reported":1710277633,"current_range_meters":20000,"station_id":"ce4bgvp2rcd13ifvqcu0","pricing_plan_id":"cebpf4jnsgd1na2vs0mg"},{"bike_id":"f20f2f81-486f-4b44-9b3f-0f78797836cd","system_id":"levelo_inurba_marseille","lat":43.309047,"lon":5.396551,"is_reserved":false,"is_disabled":false,"rental_uris":{"android":"levelo://app?vid=f20f2f81-486f-4b44-9b3f-0f78797836cd","ios":"levelo://app?vid=f20f2f81-486f-4b44-9b3f-0f78797836cd"},"vehicle_type_id":"4","last_reported":1710277633,"current_range_meters":19600,"station_id":"ce4bh012rcd13ifvqcv0","pricing_plan_id":"cebpf4jnsgd1na2vs0mg"},{"bike_id":"2255f357-a3ea-42c2-bcf9-87dea8ba507a","system_id":"levelo_inurba_marseille","lat":43.313291,"lon":5.396838,"is_reserved":false,"is_disabled":false,"rental_uris":{"android":"levelo://app?vid=2255f357-a3ea-42c2-bcf9-87dea8ba507a","ios":"levelo://app?vid=2255f357-a3ea-42c2-bcf9-87dea8ba507a"},"vehicle_type_id":"4","last_reported":1710277633,"current_range_meters":30800,"station_id":"ce4bgvp2rcd13ifvqcu0","pricing_plan_id":"cebpf4jnsgd1na2vs0mg"},{"bike_id":"fb31eec0-d86b-4865-b572-79793fc892bf","system_id":"levelo_inurba_marseille","lat":43.29193,"lon":5.3579,"is_reserved":false,"is_disabled":false,"rental_uris":{"android":"levelo://app?vid=fb31eec0-d86b-4865-b572-79793fc892bf","ios":"levelo://app?vid=fb31eec0-d86b-4865-b572-79793fc892bf"},"vehicle_type_id":"4","last_reported":1710277633,"current_range_meters":18000,"station_id":"ce4bhb12rcd13ifvqel0","pricing_plan_id":"cebpf4jnsgd1na2vs0mg"},{"bike_id":"6c93dcaa-ebb3-474a-8657-a20c2d084f51","system_id":"levelo_inurba_marseille","lat":43.309047,"lon":5.396551,"is_reserved":false,"is_disabled":false,"rental_uris":{"android":"levelo://app?vid=6c93dcaa-ebb3-474a-8657-a20c2d084f51","ios":"levelo://app?vid=6c93dcaa-ebb3-474a-8657-a20c2d084f51"},"vehicle_type_id":"4","last_reported":1710277633,"current_range_meters":18400,"station_id":"ce4bh012rcd13ifvqcv0","pricing_plan_id":"cebpf4jnsgd1na2vs0mg"},{"bike_id":"2d75176e-f98b-4d7d-805f-01f1977a7212","system_id":"levelo_inurba_marseille","lat":43.313291,"lon":5.396838,"is_reserved":false,"is_disabled":false,"rental_uris":{"android":"levelo://app?vid=2d75176e-f98b-4d7d-805f-01f1977a7212","ios":"levelo://app?vid=2d75176e-f98b-4d7d-805f-01f1977a7212"},"vehicle_type_id":"4","last_reported":1710277633,"current_range_meters":0,"station_id":"ce4bgvp2rcd13ifvqcu0","pricing_plan_id":"cebpf4jnsgd1na2vs0mg"},{"bike_id":"ac671284-8629-4fdc-956b-ac70e2976aeb","system_id":"levelo_inurba_marseille","lat":43.313291,"lon":5.396838,"is_reserved":false,"is_disabled":false,"rental_uris":{"android":"levelo://app?vid=ac671284-8629-4fdc-956b-ac70e2976aeb","ios":"levelo://app?vid=ac671284-8629-4fdc-956b-ac70e2976aeb"},"vehicle_type_id":"4","last_reported":1710277633,"current_range_meters":31600,"station_id":"ce4bgvp2rcd13ifvqcu0","pricing_plan_id":"cebpf4jnsgd1na2vs0mg"},{"bike_id":"f54c14b2-c741-4890-b9ea-e7274265a003","system_id":"levelo_inurba_marseille","lat":43.29651,"lon":5.38699,"is_reserved":false,"is_disabled":false,"rental_uris":{"android":"levelo://app?vid=f54c14b2-c741-4890-b9ea-e7274265a003","ios":"levelo://app?vid=f54c14b2-c741-4890-b9ea-e7274265a003"},"vehicle_type_id":"4","last_reported":1710277633,"current_range_meters":0,"station_id":"","pricing_plan_id":"cebpf4jnsgd1na2vs0mg"},{"bike_id":"b13cacb0-dad5-43c7-a106-78ae87a3d092","system_id":"levelo_inurba_marseille","lat":43.29189,"lon":5.35798,"is_reserved":false,"is_disabled":false,"rental_uris":{"android":"levelo://app?vid=b13cacb0-dad5-43c7-a106-78ae87a3d092","ios":"levelo://app?vid=b13cacb0-dad5-43c7-a106-78ae87a3d092"},"vehicle_type_id":"4","last_reported":1710277633,"current_range_meters":31200,"station_id":"ce4bhb12rcd13ifvqel0","pricing_plan_id":"cebpf4jnsgd1na2vs0mg"},{"bike_id":"0e9d35e4-abed-4201-b3ed-177d54b4fecd","system_id":"levelo_inurba_marseille","lat":43.313291,"lon":5.396838,"is_reserved":false,"is_disabled":false,"rental_uris":{"android":"levelo://app?vid=0e9d35e4-abed-4201-b3ed-177d54b4fecd","ios":"levelo://app?vid=0e9d35e4-abed-4201-b3ed-177d54b4fecd"},"vehicle_type_id":"4","last_reported":1710277633,"current_range_meters":16400,"station_id":"ce4bgvp2rcd13ifvqcu0","pricing_plan_id":"cebpf4jnsgd1na2vs0mg"},{"bike_id":"4085db47-8b23-47a8-b151-9faf33cea302","system_id":"levelo_inurba_marseille","lat":43.29189,"lon":5.35794,"is_reserved":false,"is_disabled":false,"rental_uris":{"android":"levelo://app?vid=4085db47-8b23-47a8-b151-9faf33cea302","ios":"levelo://app?vid=4085db47-8b23-47a8-b151-9faf33cea302"},"vehicle_type_id":"4","last_reported":1710277633,"current_range_meters":7600,"station_id":"ce4bhb12rcd13ifvqel0","pricing_plan_id":"cebpf4jnsgd1na2vs0mg"},{"bike_id":"ad20211b-40d0-4bc8-bf8d-f98a8f60b504","system_id":"levelo_inurba_marseille","lat":43.29187,"lon":5.35794,"is_reserved":false,"is_disabled":false,"rental_uris":{"android":"levelo://app?vid=ad20211b-40d0-4bc8-bf8d-f98a8f60b504","ios":"levelo://app?vid=ad20211b-40d0-4bc8-bf8d-f98a8f60b504"},"vehicle_type_id":"4","last_reported":1710277633,"current_range_meters":17200,"station_id":"ce4bhb12rcd13ifvqel0","pricing_plan_id":"cebpf4jnsgd1na2vs0mg"},{"bike_id":"8020108a-5c03-4e58-81c8-accc636240b4","system_id":"levelo_inurba_marseille","lat":43.313291,"lon":5.396838,"is_reserved":false,"is_disabled":false,"rental_uris":{"android":"levelo://app?vid=8020108a-5c03-4e58-81c8-accc636240b4","ios":"levelo://app?vid=8020108a-5c03-4e58-81c8-accc636240b4"},"vehicle_type_id":"4","last_reported":1710277633,"current_range_meters":9600,"station_id":"ce4bgvp2rcd13ifvqcu0","pricing_plan_id":"cebpf4jnsgd1na2vs0mg"},{"bike_id":"62c71a07-d5d3-4bf5-ae68-0f3aa6c29c4b","system_id":"levelo_inurba_marseille","lat":43.313291,"lon":5.396838,"is_reserved":false,"is_disabled":false,"rental_uris":{"android":"levelo://app?vid=62c71a07-d5d3-4bf5-ae68-0f3aa6c29c4b","ios":"levelo://app?vid=62c71a07-d5d3-4bf5-ae68-0f3aa6c29c4b"},"vehicle_type_id":"4","last_reported":1710277633,"current_range_meters":14400,"station_id":"ce4bgvp2rcd13ifvqcu0","pricing_plan_id":"cebpf4jnsgd1na2vs0mg"},{"bike_id":"b025f6c6-5ce3-4b35-9e86-8cf17332d584","system_id":"levelo_inurba_marseille","lat":43.291994,"lon":5.357886,"is_reserved":false,"is_disabled":false,"rental_uris":{"android":"levelo://app?vid=b025f6c6-5ce3-4b35-9e86-8cf17332d584","ios":"levelo://app?vid=b025f6c6-5ce3-4b35-9e86-8cf17332d584"},"vehicle_type_id":"4","last_reported":1710277633,"current_range_meters":2000,"station_id":"ce4bhb12rcd13ifvqel0","pricing_plan_id":"cebpf4jnsgd1na2vs0mg"},{"bike_id":"cc7e798b-6299-4d8c-8b8d-3cc5e204ed3b","system_id":"levelo_inurba_marseille","lat":43.313291,"lon":5.396838,"is_reserved":false,"is_disabled":false,"rental_uris":{"android":"levelo://app?vid=cc7e798b-6299-4d8c-8b8d-3cc5e204ed3b","ios":"levelo://app?vid=cc7e798b-6299-4d8c-8b8d-3cc5e204ed3b"},"vehicle_type_id":"4","last_reported":1710277633,"current_range_meters":12000,"station_id":"ce4bgvp2rcd13ifvqcu0","pricing_plan_id":"cebpf4jnsgd1na2vs0mg"},{"bike_id":"e48a28a0-bb47-45d6-bad8-8f6a5ec8aa05","system_id":"levelo_inurba_marseille","lat":43.309038,"lon":5.396546,"is_reserved":false,"is_disabled":false,"rental_uris":{"android":"levelo://app?vid=e48a28a0-bb47-45d6-bad8-8f6a5ec8aa05","ios":"levelo://app?vid=e48a28a0-bb47-45d6-bad8-8f6a5ec8aa05"},"vehicle_type_id":"4","last_reported":1710277633,"current_range_meters":4400,"station_id":"ce4bh012rcd13ifvqcv0","pricing_plan_id":"cebpf4jnsgd1na2vs0mg"},{"bike_id":"9387245c-dcda-472d-85f4-d60a77ad8a04","system_id":"levelo_inurba_marseille","lat":43.313291,"lon":5.396838,"is_reserved":false,"is_disabled":false,"rental_uris":{"android":"levelo://app?vid=9387245c-dcda-472d-85f4-d60a77ad8a04","ios":"levelo://app?vid=9387245c-dcda-472d-85f4-d60a77ad8a04"},"vehicle_type_id":"4","last_reported":1710277633,"current_range_meters":5200,"station_id":"ce4bgvp2rcd13ifvqcu0","pricing_plan_id":"cebpf4jnsgd1na2vs0mg"},{"bike_id":"45d89716-ddf4-4a57-96ac-34e66e5e9f76","system_id":"levelo_inurba_marseille","lat":43.309038,"lon":5.396546,"is_reserved":false,"is_disabled":false,"rental_uris":{"android":"levelo://app?vid=45d89716-ddf4-4a57-96ac-34e66e5e9f76","ios":"levelo://app?vid=45d89716-ddf4-4a57-96ac-34e66e5e9f76"},"vehicle_type_id":"4","last_reported":1710277633,"current_range_meters":22000,"station_id":"ce4bh012rcd13ifvqcv0","pricing_plan_id":"cebpf4jnsgd1na2vs0mg"},{"bike_id":"3d1fe542-364b-43e3-a31c-7f9aaaa3c504","system_id":"levelo_inurba_marseille","lat":43.309038,"lon":5.396546,"is_reserved":false,"is_disabled":false,"rental_uris":{"android":"levelo://app?vid=3d1fe542-364b-43e3-a31c-7f9aaaa3c504","ios":"levelo://app?vid=3d1fe542-364b-43e3-a31c-7f9aaaa3c504"},"vehicle_type_id":"4","last_reported":1710277633,"current_range_meters":18800,"station_id":"ce4bh012rcd13ifvqcv0","pricing_plan_id":"cebpf4jnsgd1na2vs0mg"},{"bike_id":"ed2eff42-8574-4952-9f28-b6199880ab6a","system_id":"levelo_inurba_marseille","lat":43.309038,"lon":5.396546,"is_reserved":false,"is_disabled":false,"rental_uris":{"android":"levelo://app?vid=ed2eff42-8574-4952-9f28-b6199880ab6a","ios":"levelo://app?vid=ed2eff42-8574-4952-9f28-b6199880ab6a"},"vehicle_type_id":"4","last_reported":1710277633,"current_range_meters":18800,"station_id":"ce4bh012rcd13ifvqcv0","pricing_plan_id":"cebpf4jnsgd1na2vs0mg"},{"bike_id":"2f1f0812-1577-4b03-a57d-a960b0ed48a2","system_id":"levelo_inurba_marseille","lat":43.309038,"lon":5.396546,"is_reserved":false,"is_disabled":false,"rental_uris":{"android":"levelo://app?vid=2f1f0812-1577-4b03-a57d-a960b0ed48a2","ios":"levelo://app?vid=2f1f0812-1577-4b03-a57d-a960b0ed48a2"},"vehicle_type_id":"4","last_reported":1710277633,"current_range_meters":0,"station_id":"ce4bh012rcd13ifvqcv0","pricing_plan_id":"cebpf4jnsgd1na2vs0mg"},{"bike_id":"119a2015-608a-445b-823a-f4eacdac8729","system_id":"levelo_inurba_marseille","lat":43.309047,"lon":5.396551,"is_reserved":false,"is_disabled":false,"rental_uris":{"android":"levelo://app?vid=119a2015-608a-445b-823a-f4eacdac8729","ios":"levelo://app?vid=119a2015-608a-445b-823a-f4eacdac8729"},"vehicle_type_id":"4","last_reported":1710277633,"current_range_meters":9200,"station_id":"ce4bh012rcd13ifvqcv0","pricing_plan_id":"cebpf4jnsgd1na2vs0mg"},{"bike_id":"d185fb55-6946-4297-afba-a73a1a284a0a","system_id":"levelo_inurba_marseille","lat":43.309047,"lon":5.396551,"is_reserved":false,"is_disabled":false,"rental_uris":{"android":"levelo://app?vid=d185fb55-6946-4297-afba-a73a1a284a0a","ios":"levelo://app?vid=d185fb55-6946-4297-afba-a73a1a284a0a"},"vehicle_type_id":"4","last_reported":1710277633,"current_range_meters":8000,"station_id":"ce4bh012rcd13ifvqcv0","pricing_plan_id":"cebpf4jnsgd1na2vs0mg"},{"bike_id":"67ef9c7c-6f23-4183-89b3-f70d4844bd5e","system_id":"levelo_inurba_marseille","lat":43.309047,"lon":5.396551,"is_reserved":false,"is_disabled":false,"rental_uris":{"android":"levelo://app?vid=67ef9c7c-6f23-4183-89b3-f70d4844bd5e","ios":"levelo://app?vid=67ef9c7c-6f23-4183-89b3-f70d4844bd5e"},"vehicle_type_id":"4","last_reported":1710277633,"current_range_meters":20400,"station_id":"ce4bh012rcd13ifvqcv0","pricing_plan_id":"cebpf4jnsgd1na2vs0mg"},{"bike_id":"3f3bd7cd-e3d0-45b4-aff5-913c2bd0a10d","system_id":"levelo_inurba_marseille","lat":43.29535,"lon":5.38541,"is_reserved":false,"is_disabled":false,"rental_uris":{"android":"levelo://app?vid=3f3bd7cd-e3d0-45b4-aff5-913c2bd0a10d","ios":"levelo://app?vid=3f3bd7cd-e3d0-45b4-aff5-913c2bd0a10d"},"vehicle_type_id":"4","last_reported":1710277633,"current_range_meters":16400,"station_id":"ce4bgih2rcd13ifvqba0","pricing_plan_id":"cebpf4jnsgd1na2vs0mg"},