{"last_updated":1734199917,"ttl":60,"version":"2.2","data":{"bikes":[{"bike_id":"45c22bfb-3859-46ca-bbdd-b43970628095","system_id":"levelo_inurba_marseille","lat":43.23178,"lon":5.39997,"is_reserved":false,"is_disabled":false,"rental_uris":{"android":"levelo://app?vid=45c22bfb-3859-46ca-bbdd-b43970628095","ios":"levelo://app?vid=45c22bfb-3859-46ca-bbdd-b43970628095"},"vehicle_type_id":"4","last_reported":1734199917,"current_range_meters":20800,"station_id":"ce4bhn12rcd13ifvqgqg","pricing_plan_id":"cebpf4jnsgd1na2vs0mg"},{"bike_id":"646d615d-b8ef-4796-822a-34bd6dbc380a","system_id":"levelo_inurba_marseille","lat":43.26788,"lon":5.39408,"is_reserved":false,"is_disabled":true,"rental_uris":{"android":"levelo://app?vid=646d615d-b8ef-4796-822a-34bd6dbc380a","ios":"levelo://app?vid=646d615d-b8ef-4796-822a-34bd6dbc380a"},"vehicle_type_id":"4","last_reported":1734199917,"current_range_meters":800,"station_id":"ce4bhh12rcd13ifvqfg0","pricing_plan_id":"cebpf4jnsgd1na2vs0mg"},{"bike_id":"e6c834f4-b2d8-4825-ba19-e82c4d349082","system_id":"levelo_inurba_marseille","lat":43.29529,"lon":5.39035,"is_reserved":false,"is_disabled":false,"rental_uris":{"android":"levelo://app?vid=e6c834f4-b2d8-4825-ba19-e82c4d349082","ios":"levelo://app?vid=e6c834f4-b2d8-4825-ba19-e82c4d349082"},"vehicle_type_id":"4","last_reported":1734199917,"current_range_meters":17600,"station_id":"ce4bh3p2rcd13ifvqdp0","pricing_plan_id":"cebpf4jnsgd1na2vs0mg"},{"bike_id":"50b3a443-a67d-4bc4-85df-95f6908841be","system_id":"levelo_inurba_marseille","lat":43.23193,"lon":5.3555,"is_reserved":false,"is_disabled":false,"rental_uris":{"android":"levelo://app?vid=50b3a443-a67d-4bc4-85df-95f6908841be","ios":"levelo://app?vid=50b3a443-a67d-4bc4-85df-95f6908841be"},"vehicle_type_id":"4","last_reported":1734199917,"current_range_meters":18000,"station_id":"ce4bhu92rcd13ifvqi70","pricing_plan_id":"cebpf4jnsgd1na2vs0mg"},{"bike_id":"9f21aecd-4871-471d-97c8-136ec57537c8","system_id":"levelo_inurba_marseille","lat":43.28872,"lon":5.35867,"is_reserved":false,"is_disabled":false,"rental_uris":{"android":"levelo://app?vid=9f21aecd-4871-471d-97c8-136ec57537c8","ios":"levelo://app?vid=9f21aecd-4871-471d-97c8-136ec57537c8"},"vehicle_type_id":"4","last_reported":1734199917,"current_range_meters":24000,"station_id":"ce4bhb12rcd13ifvqem0","pricing_plan_id":"cebpf4jnsgd1na2vs0mg"},{"bike_id":"41f420f3-26ec-43c8-aa26-9346a9d65155","system_id":"levelo_inurba_marseille","lat":43.27561,"lon":5.38428,"is_reserved":false,"is_disabled":false,"rental_uris":{"android":"levelo://app?vid=41f420f3-26ec-43c8-aa26-9346a9d65155","ios":"levelo://app?vid=41f420f3-26ec-43c8-aa26-9346a9d65155"},"vehicle_type_id":"4","last_reported":1734199917,"current_range_meters":36400,"station_id":"ce4bhh92rcd13ifvqfi0","pricing_plan_id":"cebpf4jnsgd1na2vs0mg"},{"bike_id":"35642114-ba9f-4cd0-9d6f-a2edaa6e597b","system_id":"levelo_inurba_marseille","lat":43.30453,"lon":5.37909,"is_reserved":false,"is_disabled":false,"rental_uris":{"android":"levelo://app?vid=35642114-ba9f-4cd0-9d6f-a2edaa6e597b","ios":"levelo://app?vid=35642114-ba9f-4cd0-9d6f-a2edaa6e597b"},"vehicle_type_id":"4","last_reported":1734199917,"current_range_meters":12000,"station_id":"ce4bgup2rcd13ifvqcn0","pricing_plan_id":"cebpf4jnsgd1na2vs0mg"},{"bike_id":"0768ea44-a1fc-4735-923f-442ec18258ce","system_id":"levelo_inurba_marseille","lat":43.29784,"lon":5.381,"is_reserved":false,"is_disabled":false,"rental_uris":{"android":"levelo://app?vid=0768ea44-a1fc-4735-923f-442ec18258ce","ios":"levelo://app?vid=0768ea44-a1fc-4735-923f-442ec18258ce"},"vehicle_type_id":"4","last_reported":1734199917,"current_range_meters":12400,"station_id":"ce4bgip2rcd13ifvqbb0","pricing_plan_id":"cebpf4jnsgd1na2vs0mg"},{"bike_id":"94f17d1d-d388-40ec-921c-c2d854595657","system_id":"levelo_inurba_marseille","lat":43.27955,"lon":5.41039,"is_reserved":false,"is_disabled":false,"rental_uris":{"android":"levelo://app?vid=94f17d1d-d388-40ec-921c-c2d854595657","ios":"levelo://app?vid=94f17d1d-d388-40ec-921c-c2d854595657"},"vehicle_type_id":"4","last_reported":1734199917,"current_range_meters":38800,"station_id":"ce4bhnp2rcd13ifvqh0g","pricing_plan_id":"cebpf4jnsgd1na2vs0mg"},{"bike_id":"bc0a1e45-8f3e-4aff-8f5f-85f66d60ff97","system_id":"levelo_inurba_marseille","lat":43.28699,"lon":5.374,"is_reserved":false,"is_disabled":false,"rental_uris":{"android":"levelo://app?vid=bc0a1e45-8f3e-4aff-8f5f-85f66d60ff97","ios":"levelo://app?vid=bc0a1e45-8f3e-4aff-8f5f-85f66d60ff97"},"vehicle_type_id":"4","last_reported":1734199917,"current_range_meters":4800,"station_id":"ce4bh3p2rcd13ifvqdq0","pricing_plan_id":"cebpf4jnsgd1na2vs0mg"},{"bike_id":"212f1b13-d787-4daa-8e7d-ba4b7d8b6e8f","system_id":"levelo_inurba_marseille","lat":43.26943,"lon":5.40255,"is_reserved":false,"is_disabled":true,"rental_uris":{"android":"levelo://app?vid=212f1b13-d787-4daa-8e7d-ba4b7d8b6e8f","ios":"levelo://app?vid=212f1b13-d787-4daa-8e7d-ba4b7d8b6e8f"},"vehicle_type_id":"4","last_reported":1734199917,"current_range_meters":800,"station_id":"cjm6bp8fraef2m0cb0m0","pricing_plan_id":"cebpf4jnsgd1na2vs0mg"},{"bike_id":"707fb3ca-9aaa-4891-90ae-4a971299a89a","system_id":"levelo_inurba_marseille","lat":43.29891,"lon":5.38896,"is_reserved":false,"is_disabled":false,"rental_uris":{"android":"levelo://app?vid=707fb3ca-9aaa-4891-90ae-4a971299a89a","ios":"levelo://app?vid=707fb3ca-9aaa-4891-90ae-4a971299a89a"},"vehicle_type_id":"4","last_reported":1734199917,"current_range_meters":24000,"station_id":"ce4bh392rcd13ifvqdl0","pricing_plan_id":"cebpf4jnsgd1na2vs0mg"},{"bike_id":"66201c9c-a7d8-4840-ad6c-05c74b675bbe","system_id":"levelo_inurba_marseille","lat":43.27302,"lon":5.39079,"is_reserved":false,"is_disabled":true,"rental_uris":{"android":"levelo://app?vid=66201c9c-a7d8-4840-ad6c-05c74b675bbe","ios":"levelo://app?vid=66201c9c-a7d8-4840-ad6c-05c74b675bbe"},"vehicle_type_id":"4","last_reported":1734199917,"current_range_meters":1600,"station_id":"ce4bhgp2rcd13ifvqfe0","pricing_plan_id":"cebpf4jnsgd1na2vs0mg"},{"bike_id":"a839feba-19e0-43dc-accc-15584f393366","system_id":"levelo_inurba_marseille","lat":43.28458,"lon":5.35887,"is_reserved":false,"is_disabled":false,"rental_uris":{"android":"levelo://app?vid=a839feba-19e0-43dc-accc-15584f393366","ios":"levelo://app?vid=a839feba-19e0-43dc-accc-15584f393366"},"vehicle_type_id":"4","last_reported":1734199917,"current_range_meters":36400,"station_id":"ce4bhah2rcd13ifvqei0","pricing_plan_id":"cebpf4jnsgd1na2vs0mg"},{"bike_id":"3595e955-9243-4ebf-a4ff-5df2907e8d74","system_id":"levelo_inurba_marseille","lat":43.32288,"lon":5.38273,"is_reserved":false,"is_disabled":false,"rental_uris":{"android":"levelo://app?vid=3595e955-9243-4ebf-a4ff-5df2907e8d74","ios":"levelo://app?vid=3595e955-9243-4ebf-a4ff-5df2907e8d74"},"vehicle_type_id":"4","last_reported":1734199917,"current_range_meters":39200,"station_id":"ce4bhr12rcd13ifvqhqg","pricing_plan_id":"cebpf4jnsgd1na2vs0mg"},{"bike_id":"73ed82a8-baa8-4f52-8613-9c18abda0d77","system_id":"levelo_inurba_marseille","lat":43.33019,"lon":5.39042,"is_reserved":false,"is_disabled":false,"rental_uris":{"android":"levelo://app?vid=73ed82a8-baa8-4f52-8613-9c18abda0d77","ios":"levelo://app?vid=73ed82a8-baa8-4f52-8613-9c18abda0d77"},"vehicle_type_id":"4","last_reported":1734199917,"current_range_meters":27600,"station_id":"ce4bhr92rcd13ifvqhrg","pricing_plan_id":"cebpf4jnsgd1na2vs0mg"},{"bike_id":"496b9119-850a-49b3-bf98-295bb079ca7c","system_id":"levelo_inurba_marseille","lat":43.28197,"lon":5.44579,"is_reserved":false,"is_disabled":false,"rental_uris":{"android":"levelo://app?vid=496b9119-850a-49b3-bf98-295bb079ca7c","ios":"levelo://app?vid=496b9119-850a-49b3-bf98-295bb079ca7c"},"vehicle_type_id":"4","last_reported":1734199917,"current_range_meters":8800,"station_id":"","pricing_plan_id":"cebpf4jnsgd1na2vs0mg"},{"bike_id":"a69c5411-492e-42df-a8b6-8bc1c611aeb2","system_id":"levelo_inurba_marseille","lat":43.27999,"lon":5.41659,"is_reserved":false,"is_disabled":false,"rental_uris":{"android":"levelo://app?vid=a69c5411-492e-42df-a8b6-8bc1c611aeb2","ios":"levelo://app?vid=a69c5411-492e-42df-a8b6-8bc1c611aeb2"},"vehicle_type_id":"4","last_reported":1734199917,"current_range_meters":36800,"station_id":"ce4bho12rcd13ifvqh1g","pricing_plan_id":"cebpf4jnsgd1na2vs0mg"},{"bike_id":"03ff3e32-27a0-4629-8f34-4101ea444023","system_id":"levelo_inurba_marseille","lat":43.28415,"lon":5.37508,"is_reserved":false,"is_disabled":false,"rental_uris":{"android":"levelo://app?vid=03ff3e32-27a0-4629-8f34-4101ea444023","ios":"levelo://app?vid=03ff3e32-27a0-4629-8f34-4101ea444023"},"vehicle_type_id":"4","last_reported":1734199917,"current_range_meters":26800,"station_id":"ce4bh412rcd13ifvqds0","pricing_plan_id":"cebpf4jnsgd1na2vs0mg"},{"bike_id":"c6d5932a-448c-49a6-accb-dd10fee6b243","system_id":"levelo_inurba_marseille","lat":43.24544,"lon":5.39529,"is_reserved":false,"is_disabled":true,"rental_uris":{"android":"levelo://app?vid=c6d5932a-448c-49a6-accb-dd10fee6b243","ios":"levelo://app?vid=c6d5932a-448c-49a6-accb-dd10fee6b243"},"vehicle_type_id":"4","last_reported":1734199917,"current_range_meters":0,"station_id":"ce4bhlp2rcd13ifvqgjg","pricing_plan_id":"cebpf4jnsgd1na2vs0mg"},{"bike_id":"c2d73d9a-a75e-4567-83ca-9b3ad9c335b7","system_id":"levelo_inurba_marseille","lat":43.28154,"lon":5.42643,"is_reserved":false,"is_disabled":true,"rental_uris":{"android":"levelo://app?vid=c2d73d9a-a75e-4567-83ca-9b3ad9c335b7","ios":"levelo://app?vid=c2d73d9a-a75e-4567-83ca-9b3ad9c335b7"},"vehicle_type_id":"4","last_reported":1734199917,"current_range_meters":0,"station_id":"ce4bhnh2rcd13ifvqgug","pricing_plan_id":"cebpf4jnsgd1na2vs0mg"},{"bike_id":"f95d2ed5-e588-4150-ad87-c1ec9c838300","system_id":"levelo_inurba_marseille","lat":43.301563,"lon":5.380893,"is_reserved":false,"is_disabled":false,"rental_uris":{"android":"levelo://app?vid=f95d2ed5-e588-4150-ad87-c1ec9c838300","ios":"levelo://app?vid=f95d2ed5-e588-4150-ad87-c1ec9c838300"},"vehicle_type_id":"4","last_reported":1734199917,"current_range_meters":23200,"station_id":"ce4bgjp2rcd13ifvqbh0","pricing_plan_id":"cebpf4jnsgd1na2vs0mg"},{"bike_id":"d5c89c1f-3bad-4af2-9449-e04c277a4696","system_id":"levelo_inurba_marseille","lat":43.29983,"lon":5.41336,"is_reserved":false,"is_disabled":true,"rental_uris":{"android":"levelo://app?vid=d5c89c1f-3bad-4af2-9449-e04c277a4696","ios":"levelo://app?vid=d5c89c1f-3bad-4af2-9449-e04c277a4696"},"vehicle_type_id":"4","last_reported":1734199917,"current_range_meters":38800,"station_id":"ce4bhp12rcd13ifvqh9g","pricing_plan_id":"cebpf4jnsgd1na2vs0mg"},{"bike_id":"e6c17fa1-6fd0-4ca1-9951-48e979ee6abc","system_id":"levelo_inurba_marseille","lat":43.2656,"lon":5.37282,"is_reserved":false,"is_disabled":true,"rental_uris":{"android":"levelo://app?vid=e6c17fa1-6fd0-4ca1-9951-48e979ee6abc","ios":"levelo://app?vid=e6c17fa1-6fd0-4ca1-9951-48e979ee6abc"},"vehicle_type_id":"4","last_reported":1734199917,"current_range_meters":0,"station_id":"ce4bhg12rcd13ifvqf70","pricing_plan_id":"cebpf4jnsgd1na2vs0mg"},{"bike_id":"5dcb142e-3766-4e2c-b1fe-c9ebbc5d3c50","system_id":"levelo_inurba_marseille","lat":43.31991,"lon":5.38159,"is_reserved":false,"is_disabled":false,"rental_uris":{"android":"levelo://app?vid=5dcb142e-3766-4e2c-b1fe-c9ebbc5d3c50","ios":"levelo://app?vid=5dcb142e-3766-4e2c-b1fe-c9ebbc5d3c50"},"vehicle_type_id":"4","last_reported":1734199917,"current_range_meters":38800,"station_id":"ce4bhr12rcd13ifvqhpg","pricing_plan_id":"cebpf4jnsgd1na2vs0mg"},{"bike_id":"af84f0d6-0da8-41c2-b16a-2d81040dffb1","system_id":"levelo_inurba_marseille","lat":43.2468,"lon":5.39933,"is_reserved":false,"is_disabled":false,"rental_uris":{"android":"levelo://app?vid=af84f0d6-0da8-41c2-b16a-2d81040dffb1","ios":"levelo://app?vid=af84f0d6-0da8-41c2-b16a-2d81040dffb1"},"vehicle_type_id":"4","last_reported":1734199917,"current_range_meters":28400,"station_id":"ce4bhn12rcd13ifvqgpg","pricing_plan_id":"cebpf4jnsgd1na2vs0mg"},{"bike_id":"7be2cf89-7264-43dc-9295-485475aa90d4","system_id":"levelo_inurba_marseille","lat":43.28409,"lon":5.37512,"is_reserved":false,"is_disabled":false,"rental_uris":{"android":"levelo://app?vid=7be2cf89-7264-43dc-9295-485475aa90d4","ios":"levelo://app?vid=7be2cf89-7264-43dc-9295-485475aa90d4"},"vehicle_type_id":"4","last_reported":1734199917,"current_range_meters":6000,"station_id":"ce4bh412rcd13ifvqds0","pricing_plan_id":"cebpf4jnsgd1na2vs0mg"},{"bike_id":"89c28168-9e53-422f-a68c-5ee6ccf55d1e","system_id":"levelo_inurba_marseille","lat":43.29715,"lon":5.3766,"is_reserved":false,"is_disabled":false,"rental_uris":{"android":"levelo://app?vid=89c28168-9e53-422f-a68c-5ee6ccf55d1e","ios":"levelo://app?vid=89c28168-9e53-422f-a68c-5ee6ccf55d1e"},"vehicle_type_id":"4","last_reported":1734199917,"current_range_meters":38800,"station_id":"ce4bgkh2rcd13ifvqbl0","pricing_plan_id":"cebpf4jnsgd1na2vs0mg"},{"bike_id":"595ce88a-34cb-4990-9769-b15c51d16d43","system_id":"levelo_inurba_marseille","lat":43.29278,"lon":5.36838,"is_reserved":false,"is_disabled":false,"rental_uris":{"android":"levelo://app?vid=595ce88a-34cb-4990-9769-b15c51d16d43","ios":"levelo://app?vid=595ce88a-34cb-4990-9769-b15c51d16d43"},"vehicle_type_id":"4","last_reported":1734199917,"current_range_meters":38400,"station_id":"ce4bhbp2rcd13ifvqesg","pricing_plan_id":"cebpf4jnsgd1na2vs0mg"},{"bike_id":"ca868530-a93d-4f29-b0ed-0b4bf0b8d8f5","system_id":"levelo_inurba_marseille","lat":43.30911,"lon":5.40178,"is_reserved":false,"is_disabled":false,"rental_uris":{"android":"levelo://app?vid=ca868530-a93d-4f29-b0ed-0b4bf0b8d8f5","ios":"levelo://app?vid=ca868530-a93d-4f29-b0ed-0b4bf0b8d8f5"},"vehicle_type_id":"4","last_reported":1734199917,"current_range_meters":29600,"station_id":"ce4bgvp2rcd13ifvqct0","pricing_plan_id":"cebpf4jnsgd1na2vs0mg"},{"bike_id":"1e8c67c9-df75-48a4-8fbf-8a662f9b8db0","system_id":"levelo_inurba_marseille","lat":43.31683,"lon":5.4048,"is_reserved":false,"is_disabled":false,"rental_uris":{"android":"levelo://app?vid=1e8c67c9-df75-48a4-8fbf-8a662f9b8db0","ios":"levelo://app?vid=1e8c67c9-df75-48a4-8fbf-8a662f9b8db0"},"vehicle_type_id":"4","last_reported":1734199917,"current_range_meters":9200,"station_id":"ce4bh012rcd13ifvqd00","pricing_plan_id":"cebpf4jnsgd1na2vs0mg"},{"bike_id":"d73fd242-71d9-4951-a797-6f754b8a00c6","system_id":"levelo_inurba_marseille","lat":43.31357,"lon":5.36735,"is_reserved":false,"is_disabled":false,"rental_uris":{"android":"levelo://app?vid=d73fd242-71d9-4951-a797-6f754b8a00c6","ios":"levelo://app?vid=d73fd242-71d9-4951-a797-6f754b8a00c6"},"vehicle_type_id":"4","last_reported":1734199917,"current_range_meters":38000,"station_id":"ce4bh0p2rcd13ifvqd70","pricing_plan_id":"cebpf4jnsgd1na2vs0mg"},{"bike_id":"b6f421b1-3fe8-4110-ba05-58f4276bc64e","system_id":"levelo_inurba_marseille","lat":43.29555,"lon":5.42294,"is_reserved":false,"is_disabled":false,"rental_uris":{"android":"levelo://app?vid=b6f421b1-3fe8-4110-ba05-58f4276bc64e","ios":"levelo://app?vid=b6f421b1-3fe8-4110-ba05-58f4276bc64e"},"vehicle_type_id":"4","last_reported":1734199917,"current_range_meters":10800,"station_id":"ce4bhph2rcd13ifvqhdg","pricing_plan_id":"cebpf4jnsgd1na2vs0mg"},{"bike_id":"5567f64e-3519-49f5-b446-06d52ee1a2f1","system_id":"levelo_inurba_marseille","lat":43.29993,"lon":5.38471,"is_reserved":false,"is_disabled":false,"rental_uris":{"android":"levelo://app?vid=5567f64e-3519-49f5-b446-06d52ee1a2f1","ios":"levelo://app?vid=5567f64e-3519-49f5-b446-06d52ee1a2f1"},"vehicle_type_id":"4","last_reported":1734199917,"current_range_meters":38800,"station_id":"ce4bgj92rcd13ifvqbd0","pricing_plan_id":"cebpf4jnsgd1na2vs0mg"},{"bike_id":"d00e22b9-ba50-4a88-8098-6245728b7554","system_id":"levelo_inurba_marseille","lat":43.29041,"lon":5.39957,"is_reserved":false,"is_disabled":false,"rental_uris":{"android":"levelo://app?vid=d00e22b9-ba50-4a88-8098-6245728b7554","ios":"levelo://app?vid=d00e22b9-ba50-4a88-8098-6245728b7554"},"vehicle_type_id":"4","last_reported":1734199917,"current_range_meters":4400,"station_id":"ce4bh392rcd13ifvqdm0","pricing_plan_id":"cebpf4jnsgd1na2vs0mg"},{"bike_id":"83481095-909d-446d-9ecf-b790b0925c05","system_id":"levelo_inurba_marseille","lat":43.29788,"lon":5.38112,"is_reserved":false,"is_disabled":false,"rental_uris":{"android":"levelo://app?vid=83481095-909d-446d-9ecf-b790b0925c05","ios":"levelo://app?vid=83481095-909d-446d-9ecf-b790b0925c05"},"vehicle_type_id":"4","last_reported":1734199917,"current_range_meters":36800,"station_id":"ce4bgip2rcd13ifvqbb0","pricing_plan_id":"cebpf4jnsgd1na2vs0mg"},{"bike_id":"aea71e1a-c17a-481b-9532-250f70db16f3","system_id":"levelo_inurba_marseille","lat":43.34136,"lon":5.40904,"is_reserved":false,"is_disabled":false,"rental_uris":{"android":"levelo://app?vid=aea71e1a-c17a-481b-9532-250f70db16f3","ios":"levelo://app?vid=aea71e1a-c17a-481b-9532-250f70db16f3"},"vehicle_type_id":"4","last_reported":1734199917,"current_range_meters":38000,"station_id":"ce4bhqh2rcd13ifvqhlg","pricing_plan_id":"cebpf4jnsgd1na2vs0mg"},{"bike_id":"02ab9755-1e00-423a-8dea-c05782210caf","system_id":"levelo_inurba_marseille","lat":43.31492,"lon":5.37301,"is_reserved":false,"is_disabled":false,"rental_uris":{"android":"levelo://app?vid=02ab9755-1e00-423a-8dea-c05782210caf","ios":"levelo://app?vid=02ab9755-1e00-423a-8dea-c05782210caf"},"vehicle_type_id":"4","last_reported":1734199917,"current_range_meters":8000,"station_id":"ce4bgt12rcd13ifvqcd0","pricing_plan_id":"cebpf4jnsgd1na2vs0mg"},{"bike_id":"e00d66cc-b150-49e8-ae6d-e9090bf6d114","system_id":"levelo_inurba_marseille","lat":43.29069,"lon":5.3716,"is_reserved":false,"is_disabled":false,"rental_uris":{"android":"levelo://app?vid=e00d66cc-b150-49e8-ae6d-e9090bf6d114","ios":"levelo://app?vid=e00d66cc-b150-49e8-ae6d-e9090bf6d114"},"vehicle_type_id":"4","last_reported":1734199917,"current_range_meters":14400,"station_id":"ce4bh5p2rcd13ifvqe4g","pricing_plan_id":"cebpf4jnsgd1na2vs0mg"},{"bike_id":"edaea664-24e0-4d6c-aa7a-497f5c5f88f6","system_id":"levelo_inurba_marseille","lat":43.27008,"lon":5.39153,"is_reserved":false,"is_disabled":true,"rental_uris":{"android":"levelo://app?vid=edaea664-24e0-4d6c-aa7a-497f5c5f88f6","ios":"levelo://app?vid=edaea664-24e0-4d6c-aa7a-497f5c5f88f6"},"vehicle_type_id":"4","last_reported":1734199917,"current_range_meters":0,"station_id":"","pricing_plan_id":"cebpf4jnsgd1na2vs0mg"},{"bike_id":"637f7e23-be3b-4aa9-87cb-5d394800192c","system_id":"levelo_inurba_marseille","lat":43.31713,"lon":5.43711,"is_reserved":false,"is_disabled":true,"rental_uris":{"android":"levelo://app?vid=637f7e23-be3b-4aa9-87cb-5d394800192c","ios":"levelo://app?vid=637f7e23-be3b-4aa9-87cb-5d394800192c"},"vehicle_type_id":"4","last_reported":1734199917,"current_range_meters":1200,"station_id":"ce4bhp92rcd13ifvqhcg","pricing_plan_id":"cebpf4jnsgd1na2vs0mg"},{"bike_id":"6cdc2da3-8b8e-407e-86d8-59f7e346ad62","system_id":"levelo_inurba_marseille","lat":43.27169,"lon":5.40995,"is_reserved":false,"is_disabled":false,"rental_uris":{"android":"levelo://app?vid=6cdc2da3-8b8e-407e-86d8-59f7e346ad62","ios":"levelo://app?vid=6cdc2da3-8b8e-407e-86d8-59f7e346ad62"},"vehicle_type_id":"4","last_reported":1734199917,"current_range_meters":34000,"station_id":"ce4bhl12rcd13ifvqgf0","pricing_plan_id":"cebpf4jnsgd1na2vs0mg"},{"bike_id":"d7b4c304-2f32-4102-93f1-61474e720172","system_id":"levelo_inurba_marseille","lat":43.29706,"lon":5.3661,"is_reserved":false,"is_disabled":false,"rental_uris":{"android":"levelo://app?vid=d7b4c304-2f32-4102-93f1-61474e720172","ios":"levelo://app?vid=d7b4c304-2f32-4102-93f1-61474e720172"},"vehicle_type_id":"4","last_reported":1734199917,"current_range_meters":35600,"station_id":"ce4bgn12rcd13ifvqbt0","pricing_plan_id":"cebpf4jnsgd1na2vs0mg"},{"bike_id":"09d5b529-195d-4043-8749-313a6a70d5ec","system_id":"levelo_inurba_marseille","lat":43.26948,"lon":5.38648,"is_reserved":false,"is_disabled":false,"rental_uris":{"android":"levelo://app?vid=09d5b529-195d-4043-8749-313a6a70d5ec","ios":"levelo://app?vid=09d5b529-195d-4043-8749-313a6a70d5ec"},"vehicle_type_id":"4","last_reported":1734199917,"current_range_meters":6400,"station_id":"ce4bhh92rcd13ifvqfh0","pricing_plan_id":"cebpf4jnsgd1na2vs0mg"},{"bike_id":"a5283d6f-a724-4464-95fb-daaae8de5389","system_id":"levelo_inurba_marseille","lat":43.30362,"lon":5.41889,"is_reserved":false,"is_disabled":true,"rental_uris":{"android":"levelo://app?vid=a5283d6f-a724-4464-95fb-daaae8de5389","ios":"levelo://app?vid=a5283d6f-a724-4464-95fb-daaae8de5389"},"vehicle_type_id":"4","last_reported":1734199917,"current_range_meters":0,"station_id":"ce4bhop2rcd13ifvqh7g","pricing_plan_id":"cebpf4jnsgd1na2vs0mg"},{"bike_id":"82d2deac-e154-4bd7-b34d-957379fd607c","system_id":"levelo_inurba_marseille","lat":43.32281,"lon":5.38286,"is_reserved":false,"is_disabled":false,"rental_uris":{"android":"levelo://app?vid=82d2deac-e154-4bd7-b34d-957379fd607c","ios":"levelo://app?vid=82d2deac-e154-4bd7-b34d-957379fd607c"},"vehicle_type_id":"4","last_reported":1734199917,"current_range_meters":11600,"station_id":"ce4bhr12rcd13ifvqhqg","pricing_plan_id":"cebpf4jnsgd1na2vs0mg"},{"bike_id":"623d3fa7-759b-45ca-83a9-1e272575d5f9","system_id":"levelo_inurba_marseille","lat":43.32487,"lon":5.36554,"is_reserved":false,"is_disabled":false,"rental_uris":{"android":"levelo://app?vid=623d3fa7-759b-45ca-83a9-1e272575d5f9","ios":"levelo://app?vid=623d3fa7-759b-45ca-83a9-1e272575d5f9"},"vehicle_type_id":"4","last_reported":1734199917,"current_range_meters":32000,"station_id":"ce4bhs12rcd13ifvqhvg","pricing_plan_id":"cebpf4jnsgd1na2vs0mg"},{"bike_id":"4fe5b802-6d4a-478f-80f7-e4f6837b7ef9","system_id":"levelo_inurba_marseille","lat":43.26941,"lon":5.40252,"is_reserved":false,"is_disabled":true,"rental_uris":{"android":"levelo://app?vid=4fe5b802-6d4a-478f-80f7-e4f6837b7ef9","ios":"levelo://app?vid=4fe5b802-6d4a-478f-80f7-e4f6837b7ef9"},"vehicle_type_id":"4","last_reported":1734199917,"current_range_meters":0,"station_id":"cjm6bp8fraef2m0cb0m0","pricing_plan_id":"cebpf4jnsgd1na2vs0mg"},{"bike_id":"fd4efec3-03a9-456d-9f3e-04aeb194cc68","system_id":"levelo_inurba_marseille","lat":43.25817,"lon":5.39431,"is_reserved":false,"is_disabled":false,"rental_uris":{"android":"levelo://app?vid=fd4efec3-03a9-456d-9f3e-04aeb194cc68","ios":"levelo://app?vid=fd4efec3-03a9-456d-9f3e-04aeb194cc68"},"vehicle_type_id":"4","last_reported":1734199917,"current_range_meters":34000,"station_id":"ce4bhip2rcd13ifvqft0","pricing_plan_id":"cebpf4jnsgd1na2vs0mg"},{"bike_id":"9e25212c-cbb7-4bbb-b0ef-530024be3d7e","system_id":"levelo_inurba_marseille","lat":43.32482,"lon":5.36561,"is_reserved":false,"is_disabled":false,"rental_uris":{"android":"levelo://app?vid=9e25212c-cbb7-4bbb-b0ef-530024be3d7e","ios":"levelo://app?vid=9e25212c-cbb7-4bbb-b0ef-530024be3d7e"},"vehicle_type_id":"4","last_reported":1734199917,"current_range_meters":38800,"station_id":"ce4bhs12rcd13ifvqhvg","pricing_plan_id":"cebpf4jnsgd1na2vs0mg"},{"bike_id":"dfdefa1a-36e5-482a-aafa-f01de140dff1","system_id":"levelo_inurba_marseille","lat":43.28458,"lon":5.359,"is_reserved":false,"is_disabled":false,"rental_uris":{"android":"levelo://app?vid=dfdefa1a-36e5-482a-aafa-f01de140dff1","ios":"levelo://app?vid=dfdefa1a-36e5-482a-aafa-f01de140dff1"},"vehicle_type_id":"4","last_reported":1734199917,"current_range_meters":28400,"station_id":"ce4bhah2rcd13ifvqei0","pricing_plan_id":"cebpf4jnsgd1na2vs0mg"},{"bike_id":"598cd91e-5725-4aa4-92f6-620ea21032c5","system_id":"levelo_inurba_marseille","lat":43.30469,"lon":5.37898,"is_reserved":false,"is_disabled":false,"rental_uris":{"android":"levelo://app?vid=598cd91e-5725-4aa4-92f6-620ea21032c5","ios":"levelo://app?vid=598cd91e-5725-4aa4-92f6-620ea21032c5"},"vehicle_type_id":"4","last_reported":1734199917,"current_range_meters":33600,"station_id":"ce4bgup2rcd13ifvqcn0","pricing_plan_id":"cebpf4jnsgd1na2vs0mg"},{"bike_id":"adc4ecf9-5f4c-49e0-915f-2787f3778b82","system_id":"levelo_inurba_marseille","lat":43.32306,"lon":5.38237,"is_reserved":false,"is_disabled":false,"rental_uris":{"android":"levelo://app?vid=adc4ecf9-5f4c-49e0-915f-2787f3778b82","ios":"levelo://app?vid=adc4ecf9-5f4c-49e0-915f-2787f3778b82"},"vehicle_type_id":"4","last_reported":1734199917,"current_range_meters":38800,"station_id":"ce4bhr12rcd13ifvqhqg","pricing_plan_id":"cebpf4jnsgd1na2vs0mg"},{"bike_id":"0d895078-dc15-4f70-84ce-e09208baeda4","system_id":"levelo_inurba_marseille","lat":43.31586,"lon":5.37936,"is_reserved":false,"is_disabled":false,"rental_uris":{"android":"levelo://app?vid=0d895078-dc15-4f70-84ce-e09208baeda4","ios":"levelo://app?vid=0d895078-dc15-4f70-84ce-e09208baeda4"},"vehicle_type_id":"4","last_reported":1734199917,"current_range_meters":17600,"station_id":"","pricing_plan_id":"cebpf4jnsgd1na2vs0mg"},{"bike_id":"41e6bb54-f50e-4833-b7c7-db6543f6bc2a","system_id":"levelo_inurba_marseille","lat":43.30463,"lon":5.37916,"is_reserved":false,"is_disabled":false,"rental_uris":{"android":"levelo://app?vid=41e6bb54-f50e-4833-b7c7-db6543f6bc2a","ios":"levelo://app?vid=41e6bb54-f50e-4833-b7c7-db6543f6bc2a"},"vehicle_type_id":"4","last_reported":1734199917,"current_range_meters":28400,"station_id":"ce4bgup2rcd13ifvqcn0","pricing_plan_id":"cebpf4jnsgd1na2vs0mg"},{"bike_id":"5ff3a727-92b6-4366-86df-fcdbb4ab9812","system_id":"levelo_inurba_marseille","lat":43.28707,"lon":5.4,"is_reserved":false,"is_disabled":true,"rental_uris":{"android":"levelo://app?vid=5ff3a727-92b6-4366-86df-fcdbb4ab9812","ios":"levelo://app?vid=5ff3a727-92b6-4366-86df-fcdbb4ab9812"},"vehicle_type_id":"4","last_reported":1734199917,"current_range_meters":800,"station_id":"ce4bho92rcd13ifvqh3g","pricing_plan_id":"cebpf4jnsgd1na2vs0mg"},{"bike_id":"ea122cdb-8a0f-4a0d-965c-5a5ea7f764f1","system_id":"levelo_inurba_marseille","lat":43.27905,"lon":5.38012,"is_reserved":false,"is_disabled":false,"rental_uris":{"android":"levelo://app?vid=ea122cdb-8a0f-4a0d-965c-5a5ea7f764f1","ios":"levelo://app?vid=ea122cdb-8a0f-4a0d-965c-5a5ea7f764f1"},"vehicle_type_id":"4","last_reported":1734199917,"current_range_meters":26800,"station_id":"ce4bhf92rcd13ifvqf50","pricing_plan_id":"cebpf4jnsgd1na2vs0mg"},{"bike_id":"84991ddc-dca6-4eaa-8f5b-d79c435b43df","system_id":"levelo_inurba_marseille","lat":43.25863,"lon":5.39901,"is_reserved":false,"is_disabled":false,"rental_uris":{"android":"levelo://app?vid=84991ddc-dca6-4eaa-8f5b-d79c435b43df","ios":"levelo://app?vid=84991ddc-dca6-4eaa-8f5b-d79c435b43df"},"vehicle_type_id":"4","last_reported":1734199917,"current_range_meters":38400,"station_id":"ce4bhl92rcd13ifvqghg","pricing_plan_id":"cebpf4jnsgd1na2vs0mg"},{"bike_id":"ae0bdd7b-187c-409c-b2b3-37aac32d4db3","system_id":"levelo_inurba_marseille","lat":43.32365,"lon":5.36756,"is_reserved":false,"is_disabled":false,"rental_uris":{"android":"levelo://app?vid=ae0bdd7b-187c-409c-b2b3-37aac32d4db3","ios":"levelo://app?vid=ae0bdd7b-187c-409c-b2b3-37aac32d4db3"},"vehicle_type_id":"4","last_reported":1734199917,"current_range_meters":38800,"station_id":"ce4bhsh2rcd13ifvqi2g","pricing_plan_id":"cebpf4jnsgd1na2vs0mg"},{"bike_id":"8cf0d3bd-e310-4319-ad37-50b72dcbcdd4","system_id":"levelo_inurba_marseille","lat":43.30466,"lon":5.37895,"is_reserved":false,"is_disabled":false,"rental_uris":{"android":"levelo://app?vid=8cf0d3bd-e310-4319-ad37-50b72dcbcdd4","ios":"levelo://app?vid=8cf0d3bd-e310-4319-ad37-50b72dcbcdd4"},"vehicle_type_id":"4","last_reported":1734199917,"current_range_meters":36000,"station_id":"ce4bgup2rcd13ifvqcn0","pricing_plan_id":"cebpf4jnsgd1na2vs0mg"},{"bike_id":"d77a8efa-c32c-4944-a395-125a3b59c993","system_id":"levelo_inurba_marseille","lat":43.29568,"lon":5.38103,"is_reserved":false,"is_disabled":false,"rental_uris":{"android":"levelo://app?vid=d77a8efa-c32c-4944-a395-125a3b59c993","ios":"levelo://app?vid=d77a8efa-c32c-4944-a395-125a3b59c993"},"vehicle_type_id":"4","last_reported":1734199917,"current_range_meters":24000,"station_id":"ce4bgl12rcd13ifvqbo0","pricing_plan_id":"cebpf4jnsgd1na2vs0mg"},{"bike_id":"9ad311dd-c450-4f09-933a-ef53d4559dc3","system_id":"levelo_inurba_marseille","lat":43.26985,"lon":5.39868,"is_reserved":false,"is_disabled":false,"rental_uris":{"android":"levelo://app?vid=9ad311dd-c450-4f09-933a-ef53d4559dc3","ios":"levelo://app?vid=9ad311dd-c450-4f09-933a-ef53d4559dc3"},"vehicle_type_id":"4","last_reported":1734199917,"current_range_meters":26000,"station_id":"","pricing_plan_id":"cebpf4jnsgd1na2vs0mg"},{"bike_id":"0ab20b9c-1087-4e7c-b501-1f172dd3b5a4","system_id":"levelo_inurba_marseille","lat":43.30512,"lon":5.36699,"is_reserved":false,"is_disabled":true,"rental_uris":{"android":"levelo://app?vid=0ab20b9c-1087-4e7c-b501-1f172dd3b5a4","ios":"levelo://app?vid=0ab20b9c-1087-4e7c-b501-1f172dd3b5a4"},"vehicle_type_id":"4","last_reported":1734199917,"current_range_meters":0,"station_id":"ce4bgrp2rcd13ifvqc9g","pricing_plan_id":"cebpf4jnsgd1na2vs0mg"},{"bike_id":"123e146a-854c-4e79-886f-1db5d5371d0c","system_id":"levelo_inurba_marseille","lat":43.31993,"lon":5.3814,"is_reserved":false,"is_disabled":false,"rental_uris":{"android":"levelo://app?vid=123e146a-854c-4e79-886f-1db5d5371d0c","ios":"levelo://app?vid=123e146a-854c-4e79-886f-1db5d5371d0c"},"vehicle_type_id":"4","last_reported":1734199917,"current_range_meters":38800,"station_id":"ce4bhr12rcd13ifvqhpg","pricing_plan_id":"cebpf4jnsgd1na2vs0mg"},{"bike_id":"3787bba6-8a43-4277-afd7-a70b2fecfb32","system_id":"levelo_inurba_marseille","lat":43.27328,"lon":5.39122,"is_reserved":false,"is_disabled":false,"rental_uris":{"android":"levelo://app?vid=3787bba6-8a43-4277-afd7-a70b2fecfb32","ios":"levelo://app?vid=3787bba6-8a43-4277-afd7-a70b2fecfb32"},"vehicle_type_id":"4","last_reported":1734199917,"current_range_meters":38800,"station_id":"ce4bhgp2rcd13ifvqfe0","pricing_plan_id":"cebpf4jnsgd1na2vs0mg"},{"bike_id":"af67ac53-ba21-4ff0-8334-95679e9ff2cc","system_id":"levelo_inurba_marseille","lat":43.278805,"lon":5.388003,"is_reserved":false,"is_disabled":true,"rental_uris":{"android":"levelo://app?vid=af67ac53-ba21-4ff0-8334-95679e9ff2cc","ios":"levelo://app?vid=af67ac53-ba21-4ff0-8334-95679e9ff2cc"},"vehicle_type_id":"4","last_reported":1734199917,"current_range_meters":1200,"station_id":"","pricing_plan_id":"cebpf4jnsgd1na2vs0mg"},{"bike_id":"cc792cf1-5419-459c-a85e-0d5c0d4fbc94","system_id":"levelo_inurba_marseille","lat":43.29303,"lon":5.3745,"is_reserved":false,"is_disabled":false,"rental_uris":{"android":"levelo://app?vid=cc792cf1-5419-459c-a85e-0d5c0d4fbc94","ios":"levelo://app?vid=cc792cf1-5419-459c-a85e-0d5c0d4fbc94"},"vehicle_type_id":"4","last_reported":1734199917,"current_range_meters":12400,"station_id":"ce4bgi12rcd13ifvqb70","pricing_plan_id":"cebpf4jnsgd1na2vs0mg"},{"bike_id":"7cb6d63f-c9e6-4a3e-bae1-3e4c57ada061","system_id":"levelo_inurba_marseille","lat":43.26806,"lon":5.40262,"is_reserved":false,"is_disabled":true,"rental_uris":{"android":"levelo://app?vid=7cb6d63f-c9e6-4a3e-bae1-3e4c57ada061","ios":"levelo://app?vid=7cb6d63f-c9e6-4a3e-bae1-3e4c57ada061"},"vehicle_type_id":"4","last_reported":1734199917,"current_range_meters":0,"station_id":"ce501612rcd8frsf0b60","pricing_plan_id":"cebpf4jnsgd1na2vs0mg"},{"bike_id":"0232408d-292c-41d3-b181-663261afd040","system_id":"levelo_inurba_marseille","lat":43.27475,"lon":5.40914,"is_reserved":false,"is_disabled":false,"rental_uris":{"android":"levelo://app?vid=0232408d-292c-41d3-b181-663261afd040","ios":"levelo://app?vid=0232408d-292c-41d3-b181-663261afd040"},"vehicle_type_id":"4","last_reported":1734199917,"current_range_meters":33200,"station_id":"","pricing_plan_id":"cebpf4jnsgd1na2vs0mg"},{"bike_id":"b5c7fdbb-0259-453f-b81e-9cf2bdee2258","system_id":"levelo_inurba_marseille","lat":43.26808,"lon":5.39377,"is_reserved":false,"is_disabled":false,"rental_uris":{"android":"levelo://app?vid=b5c7fdbb-0259-453f-b81e-9cf2bdee2258","ios":"levelo://app?vid=b5c7fdbb-0259-453f-b81e-9cf2bdee2258"},"vehicle_type_id":"4","last_reported":1734199917,"current_range_meters":11600,"station_id":"ce4bhh12rcd13ifvqfg0","pricing_plan_id":"cebpf4jnsgd1na2vs0mg"},{"bike_id":"38c261c9-964b-4c6d-b402-3bb721e698e1","system_id":"levelo_inurba_marseille","lat":43.27995,"lon":5.383859,"is_reserved":false,"is_disabled":false,"rental_uris":{"android":"levelo://app?vid=38c261c9-964b-4c6d-b402-3bb721e698e1","ios":"levelo://app?vid=38c261c9-964b-4c6d-b402-3bb721e698e1"},"vehicle_type_id":"4","last_reported":1734199917,"current_range_meters":24000,"station_id":"","pricing_plan_id":"cebpf4jnsgd1na2vs0mg"},{"bike_id":"d65fcea9-51ba-41f0-86fd-e798dfdd6f09","system_id":"levelo_inurba_marseille","lat":43.28698,"lon":5.38295,"is_reserved":false,"is_disabled":true,"rental_uris":{"android":"levelo://app?vid=d65fcea9-51ba-41f0-86fd-e798dfdd6f09","ios":"levelo://app?vid=d65fcea9-51ba-41f0-86fd-e798dfdd6f09"},"vehicle_type_id":"4","last_reported":1734199917,"current_range_meters":0,"station_id":"","pricing_plan_id":"cebpf4jnsgd1na2vs0mg"},{"bike_id":"656d8740-9b85-4a93-86ce-9d32a0e761f7","system_id":"levelo_inurba_marseille","lat":43.31071,"lon":5.38345,"is_reserved":false,"is_disabled":true,"rental_uris":{"android":"levelo://app?vid=656d8740-9b85-4a93-86ce-9d32a0e761f7","ios":"levelo://app?vid=656d8740-9b85-4a93-86ce-9d32a0e761f7"},"vehicle_type_id":"4","last_reported":1734199917,"current_range_meters":29600,"station_id":"ce4bgv92rcd13ifvqcr0","pricing_plan_id":"cebpf4jnsgd1na2vs0mg"},{"bike_id":"30b09c14-5db6-4bdd-8ec0-8d8fd355bef3","system_id":"levelo_inurba_marseille","lat":43.29872,"lon":5.39739,"is_reserved":false,"is_disabled":true,"rental_uris":{"android":"levelo://app?vid=30b09c14-5db6-4bdd-8ec0-8d8fd355bef3","ios":"levelo://app?vid=30b09c14-5db6-4bdd-8ec0-8d8fd355bef3"},"vehicle_type_id":"4","last_reported":1734199917,"current_range_meters":36800,"station_id":"ce4bh0h2rcd13ifvqd50","pricing_plan_id":"cebpf4jnsgd1na2vs0mg"},{"bike_id":"f08c808c-af08-40b8-81c3-97739c995b77","system_id":"levelo_inurba_marseille","lat":43.30138,"lon":5.39882,"is_reserved":false,"is_disabled":true,"rental_uris":{"android":"levelo://app?vid=f08c808c-af08-40b8-81c3-97739c995b77","ios":"levelo://app?vid=f08c808c-af08-40b8-81c3-97739c995b77"},"vehicle_type_id":"4","last_reported":1734199917,"current_range_meters":31200,"station_id":"ce4bh0h2rcd13ifvqd40","pricing_plan_id":"cebpf4jnsgd1na2vs0mg"},{"bike_id":"86970bbe-b814-43c9-89a2-85f507f309fa","system_id":"levelo_inurba_marseille","lat":43.30526,"lon":5.38425,"is_reserved":false,"is_disabled":true,"rental_uris":{"android":"levelo://app?vid=86970bbe-b814-43c9-89a2-85f507f309fa","ios":"levelo://app?vid=86970bbe-b814-43c9-89a2-85f507f309fa"},"vehicle_type_id":"4","last_reported":1734199917,"current_range_meters":7200,"station_id":"ce4bgg92rcd13ifvqb30","pricing_plan_id":"cebpf4jnsgd1na2vs0mg"},{"bike_id":"11daf8cf-713b-4298-9ce0-01b806b7ebea","system_id":"levelo_inurba_marseille","lat":43.29257,"lon":5.40898,"is_reserved":false,"is_disabled":true,"rental_uris":{"android":"levelo://app?vid=11daf8cf-713b-4298-9ce0-01b806b7ebea","ios":"levelo://app?vid=11daf8cf-713b-4298-9ce0-01b806b7ebea"},"vehicle_type_id":"4","last_reported":1734199917,"current_range_meters":800,"station_id":"ce4bh192rcd13ifvqdc0","pricing_plan_id":"cebpf4jnsgd1na2vs0mg"},{"bike_id":"64203de9-e72b-4d66-9a84-7a315c7ed37f","system_id":"levelo_inurba_marseille","lat":43.29443,"lon":5.3744,"is_reserved":false,"is_disabled":true,"rental_uris":{"android":"levelo://app?vid=64203de9-e72b-4d66-9a84-7a315c7ed37f","ios":"levelo://app?vid=64203de9-e72b-4d66-9a84-7a315c7ed37f"},"vehicle_type_id":"4","last_reported":1734199917,"current_range_meters":0,"station_id":"","pricing_plan_id":"cebpf4jnsgd1na2vs0mg"},{"bike_id":"43a2fa1d-314c-4a4d-b7c9-aa2f198eb73b","system_id":"levelo_inurba_marseille","lat":43.30132,"lon":5.387875,"is_reserved":false,"is_disabled":true,"rental_uris":{"android":"levelo://app?vid=43a2fa1d-314c-4a4d-b7c9-aa2f198eb73b","ios":"levelo://app?vid=43a2fa1d-314c-4a4d-b7c9-aa2f198eb73b"},"vehicle_type_id":"4","last_reported":1734199917,"current_range_meters":34000,"station_id":"ce4bghh2rcd13ifvqb60","pricing_plan_id":"cebpf4jnsgd1na2vs0mg"},{"bike_id":"0b576875-d569-4be9-bbd4-0ba69ae584e7","system_id":"levelo_inurba_marseille","lat":43.28463,"lon":5.38414,"is_reserved":false,"is_disabled":false,"rental_uris":{"android":"levelo://app?vid=0b576875-d569-4be9-bbd4-0ba69ae584e7","ios":"levelo://app?vid=0b576875-d569-4be9-bbd4-0ba69ae584e7"},"vehicle_type_id":"4","last_reported":1734199917,"current_range_meters":6800,"station_id":"ce4bh512rcd13ifvqe3g","pricing_plan_id":"cebpf4jnsgd1na2vs0mg"},{"bike_id":"8b52de6a-28c9-4388-91b4-28a135c75aef","system_id":"levelo_inurba_marseille","lat":43.29531,"lon":5.39407,"is_reserved":false,"is_disabled":false,"rental_uris":{"android":"levelo://app?vid=8b52de6a-28c9-4388-91b4-28a135c75aef","ios":"levelo://app?vid=8b52de6a-28c9-4388-91b4-28a135c75aef"},"vehicle_type_id":"4","last_reported":1734199917,"current_range_meters":8400,"station_id":"ce4bh292rcd13ifvqdf0","pricing_plan_id":"cebpf4jnsgd1na2vs0mg"},{"bike_id":"136b099e-f94d-4c2d-b9ed-19073facbc8d","system_id":"levelo_inurba_marseille","lat":43.29709,"lon":5.36614,"is_reserved":false,"is_disabled":false,"rental_uris":{"android":"levelo://app?vid=136b099e-f94d-4c2d-b9ed-19073facbc8d","ios":"levelo://app?vid=136b099e-f94d-4c2d-b9ed-19073facbc8d"},"vehicle_type_id":"4","last_reported":1734199917,"current_range_meters":4000,"station_id":"ce4bgn12rcd13ifvqbt0","pricing_plan_id":"cebpf4jnsgd1na2vs0mg"},{"bike_id":"1b56a118-291e-47f1-8492-aecfffffcf3b","system_id":"levelo_inurba_marseille","lat":43.29572,"lon":5.39982,"is_reserved":false,"is_disabled":false,"rental_uris":{"android":"levelo://app?vid=1b56a118-291e-47f1-8492-aecfffffcf3b","ios":"levelo://app?vid=1b56a118-291e-47f1-8492-aecfffffcf3b"},"vehicle_type_id":"4","last_reported":1734199917,"current_range_meters":38000,"station_id":"ce4bh312rcd13ifvqdj0","pricing_plan_id":"cebpf4jnsgd1na2vs0mg"},{"bike_id":"8f50c113-8ce0-4bd4-b5e3-5354a7c24326","system_id":"levelo_inurba_marseille","lat":43.28845,"lon":5.35835,"is_reserved":false,"is_disabled":false,"rental_uris":{"android":"levelo://app?vid=8f50c113-8ce0-4bd4-b5e3-5354a7c24326","ios":"levelo://app?vid=8f50c113-8ce0-4bd4-b5e3-5354a7c24326"},"vehicle_type_id":"4","last_reported":1734199917,"current_range_meters":25200,"station_id":"ce4bhb12rcd13ifvqem0","pricing_plan_id":"cebpf4jnsgd1na2vs0mg"},{"bike_id":"07154a6e-1aad-4b6f-8cd5-49a1da2b8e24","system_id":"levelo_inurba_marseille","lat":43.23144,"lon":5.43712,"is_reserved":false,"is_disabled":false,"rental_uris":{"android":"levelo://app?vid=07154a6e-1aad-4b6f-8cd5-49a1da2b8e24","ios":"levelo://app?vid=07154a6e-1aad-4b6f-8cd5-49a1da2b8e24"},"vehicle_type_id":"4","last_reported":1734199917,"current_range_meters":32000,"station_id":"ce4bhmp2rcd13ifvqgog","pricing_plan_id":"cebpf4jnsgd1na2vs0mg"},{"bike_id":"74d8508d-87f1-4ad2-bc34-dd5bb1522db9","system_id":"levelo_inurba_marseille","lat":43.28337,"lon":5.38134,"is_reserved":false,"is_disabled":false,"rental_uris":{"android":"levelo://app?vid=74d8508d-87f1-4ad2-bc34-dd5bb1522db9","ios":"levelo://app?vid=74d8508d-87f1-4ad2-bc34-dd5bb1522db9"},"vehicle_type_id":"4","last_reported":1734199917,"current_range_meters":31200,"station_id":"ce4bh412rcd13ifvqdr0","pricing_plan_id":"cebpf4jnsgd1na2vs0mg"},{"bike_id":"2fab9758-d6b5-43b2-a79b-bdec82a587fa","system_id":"levelo_inurba_marseille","lat":43.28364,"lon":5.37505,"is_reserved":false,"is_disabled":false,"rental_uris":{"android":"levelo://app?vid=2fab9758-d6b5-43b2-a79b-bdec82a587fa","ios":"levelo://app?vid=2fab9758-d6b5-43b2-a79b-bdec82a587fa"},"vehicle_type_id":"4","last_reported":1734199917,"current_range_meters":19600,"station_id":"ce4bh412rcd13ifvqds0","pricing_plan_id":"cebpf4jnsgd1na2vs0mg"},{"bike_id":"899c5fb4-7868-4646-bd4c-f66aa6a989c8","system_id":"levelo_inurba_marseille","lat":43.30254,"lon":5.37478,"is_reserved":false,"is_disabled":false,"rental_uris":{"android":"levelo://app?vid=899c5fb4-7868-4646-bd4c-f66aa6a989c8","ios":"levelo://app?vid=899c5fb4-7868-4646-bd4c-f66aa6a989c8"},"vehicle_type_id":"4","last_reported":1734199917,"current_range_meters":8000,"station_id":"","pricing_plan_id":"cebpf4jnsgd1na2vs0mg"},{"bike_id":"3b41faaf-c4fc-4138-996e-220fdfbb16fb","system_id":"levelo_inurba_marseille","lat":43.25108,"lon":5.4032,"is_reserved":false,"is_disabled":false,"rental_uris":{"android":"levelo://app?vid=3b41faaf-c4fc-4138-996e-220fdfbb16fb","ios":"levelo://app?vid=3b41faaf-c4fc-4138-996e-220fdfbb16fb"},"vehicle_type_id":"4","last_reported":1734199917,"current_range_meters":4400,"station_id":"ce4bhlh2rcd13ifvqgig","pricing_plan_id":"cebpf4jnsgd1na2vs0mg"},{"bike_id":"6b10d37b-3846-4f7e-8b9d-57ca79bbb675","system_id":"levelo_inurba_marseille","lat":43.29528,"lon":5.38541,"is_reserved":false,"is_disabled":true,"rental_uris":{"android":"levelo://app?vid=6b10d37b-3846-4f7e-8b9d-57ca79bbb675","ios":"levelo://app?vid=6b10d37b-3846-4f7e-8b9d-57ca79bbb675"},"vehicle_type_id":"4","last_reported":1734199917,"current_range_meters":36800,"station_id":"ce4bgih2rcd13ifvqba0","pricing_plan_id":"cebpf4jnsgd1na2vs0mg"},{"bike_id":"9703c418-561c-4947-909b-5280aa1605c3","system_id":"levelo_inurba_marseille","lat":43.24177,"lon":5.39724,"is_reserved":false,"is_disabled":false,"rental_uris":{"android":"levelo://app?vid=9703c418-561c-4947-909b-5280aa1605c3","ios":"levelo://app?vid=9703c418-561c-4947-909b-5280aa1605c3"},"vehicle_type_id":"4","last_reported":1734199917,"current_range_meters":6800,"station_id":"ce4bhn12rcd13ifvqgpg","pricing_plan_id":"cebpf4jnsgd1na2vs0mg"},{"bike_id":"248a32bf-196b-4007-b0db-77fb47540c8c","system_id":"levelo_inurba_marseille","lat":43.27424,"lon":5.39418,"is_reserved":false,"is_disabled":false,"rental_uris":{"android":"levelo://app?vid=248a32bf-196b-4007-b0db-77fb47540c8c","ios":"levelo://app?vid=248a32bf-196b-4007-b0db-77fb47540c8c"},"vehicle_type_id":"4","last_reported":1734199917,"current_range_meters":3200,"station_id":"ce4bhdp2rcd13ifvqf20","pricing_plan_id":"cebpf4jnsgd1na2vs0mg"},{"bike_id":"377ad416-b0ae-445f-b4f6-76ea4fd47056","system_id":"levelo_inurba_marseille","lat":43.27907,"lon":5.38011,"is_reserved":false,"is_disabled":false,"rental_uris":{"android":"levelo://app?vid=377ad416-b0ae-445f-b4f6-76ea4fd47056","ios":"levelo://app?vid=377ad416-b0ae-445f-b4f6-76ea4fd47056"},"vehicle_type_id":"4","last_reported":1734199917,"current_range_meters":4400,"station_id":"ce4bhf92rcd13ifvqf50","pricing_plan_id":"cebpf4jnsgd1na2vs0mg"},{"bike_id":"68ac001f-d461-4264-ae4c-847d5d8319b3","system_id":"levelo_inurba_marseille","lat":43.26199,"lon":5.37918,"is_reserved":false,"is_disabled":false,"rental_uris":{"android":"levelo://app?vid=68ac001f-d461-4264-ae4c-847d5d8319b3","ios":"levelo://app?vid=68ac001f-d461-4264-ae4c-847d5d8319b3"},"vehicle_type_id":"4","last_reported":1734199917,"current_range_meters":33200,"station_id":"ce4bhjp2rcd13ifvqg90","pricing_plan_id":"cebpf4jnsgd1na2vs0mg"},{"bike_id":"c7100cf8-cc8e-43c5-9619-3c289e92afef","system_id":"levelo_inurba_marseille","lat":43.29165,"lon":5.37152,"is_reserved":false,"is_disabled":false,"rental_uris":{"android":"levelo://app?vid=c7100cf8-cc8e-43c5-9619-3c289e92afef","ios":"levelo://app?vid=c7100cf8-cc8e-43c5-9619-3c289e92afef"},"vehicle_type_id":"4","last_reported":1734199917,"current_range_meters":38000,"station_id":"ce4bha92rcd13ifvqeh0","pricing_plan_id":"cebpf4jnsgd1na2vs0mg"},{"bike_id":"605ce9bb-d413-4ab8-b4d3-57f594b00fd4","system_id":"levelo_inurba_marseille","lat":43.27313,"lon":5.39073,"is_reserved":false,"is_disabled":false,"rental_uris":{"android":"levelo://app?vid=605ce9bb-d413-4ab8-b4d3-57f594b00fd4","ios":"levelo://app?vid=605ce9bb-d413-4ab8-b4d3-57f594b00fd4"},"vehicle_type_id":"4","last_reported":1734199917,"current_range_meters":36800,"station_id":"ce4bhgp2rcd13ifvqfe0","pricing_plan_id":"cebpf4jnsgd1na2vs0mg"},{"bike_id":"6e3fd83e-e2f6-48b7-923a-ba6068a911e4","system_id":"levelo_inurba_marseille","lat":43.33018,"lon":5.39048,"is_reserved":false,"is_disabled":false,"rental_uris":{"android":"levelo://app?vid=6e3fd83e-e2f6-48b7-923a-ba6068a911e4","ios":"levelo://app?vid=6e3fd83e-e2f6-48b7-923a-ba6068a911e4"},"vehicle_type_id":"4","last_reported":1734199917,"current_range_meters":28400,"station_id":"ce4bhr92rcd13ifvqhrg","pricing_plan_id":"cebpf4jnsgd1na2vs0mg"},{"bike_id":"b4f28572-e9c3-4d89-a9c6-b22627fb6aff","system_id":"levelo_inurba_marseille","lat":43.32542,"lon":5.41439,"is_reserved":false,"is_disabled":false,"rental_uris":{"android":"levelo://app?vid=b4f28572-e9c3-4d89-a9c6-b22627fb6aff","ios":"levelo://app?vid=b4f28572-e9c3-4d89-a9c6-b22627fb6aff"},"vehicle_type_id":"4","last_reported":1734199917,"current_range_meters":24400,"station_id":"ce4bhq12rcd13ifvqhhg","pricing_plan_id":"cebpf4jnsgd1na2vs0mg"},{"bike_id":"f98e7e7f-5920-4770-8e6a-e1e9626c2cb5","system_id":"levelo_inurba_marseille","lat":43.258067,"lon":5.394375,"is_reserved":false,"is_disabled":false,"rental_uris":{"android":"levelo://app?vid=f98e7e7f-5920-4770-8e6a-e1e9626c2cb5","ios":"levelo://app?vid=f98e7e7f-5920-4770-8e6a-e1e9626c2cb5"},"vehicle_type_id":"4","last_reported":1734199917,"current_range_meters":10800,"station_id":"ce4bhip2rcd13ifvqft0","pricing_plan_id":"cebpf4jnsgd1na2vs0mg"},{"bike_id":"23ce538d-4333-446a-ad4d-78cef8979d96","system_id":"levelo_inurba_marseille","lat":43.29076,"lon":5.37169,"is_reserved":false,"is_disabled":false,"rental_uris":{"android":"levelo://app?vid=23ce538d-4333-446a-ad4d-78cef8979d96","ios":"levelo://app?vid=23ce538d-4333-446a-ad4d-78cef8979d96"},"vehicle_type_id":"4","last_reported":1734199917,"current_range_meters":21600,"station_id":"ce4bh5p2rcd13ifvqe4g","pricing_plan_id":"cebpf4jnsgd1na2vs0mg"},{"bike_id":"6e7f8132-61da-4d19-aac5-ad7b510c5bfc","system_id":"levelo_inurba_marseille","lat":43.27613,"lon":5.38949,"is_reserved":false,"is_disabled":false,"rental_uris":{"android":"levelo://app?vid=6e7f8132-61da-4d19-aac5-ad7b510c5bfc","ios":"levelo://app?vid=6e7f8132-61da-4d19-aac5-ad7b510c5bfc"},"vehicle_type_id":"4","last_reported":1734199917,"current_range_meters":38800,"station_id":"","pricing_plan_id":"cebpf4jnsgd1na2vs0mg"},{"bike_id":"32e3b289-7b8f-464c-9e0f-36fb6c957ae6","system_id":"levelo_inurba_marseille","lat":43.287,"lon":5.37388,"is_reserved":false,"is_disabled":false,"rental_uris":{"android":"levelo://app?vid=32e3b289-7b8f-464c-9e0f-36fb6c957ae6","ios":"levelo://app?vid=32e3b289-7b8f-464c-9e0f-36fb6c957ae6"},"vehicle_type_id":"4","last_reported":1734199917,"current_range_meters":25200,"station_id":"ce4bh3p2rcd13ifvqdq0","pricing_plan_id":"cebpf4jnsgd1na2vs0mg"},{"bike_id":"eb1496f4-67ed-47fd-8660-60023378367f","system_id":"levelo_inurba_marseille","lat":43.294212,"lon":5.374322,"is_reserved":false,"is_disabled":true,"rental_uris":{"android":"levelo://app?vid=eb1496f4-67ed-47fd-8660-60023378367f","ios":"levelo://app?vid=eb1496f4-67ed-47fd-8660-60023378367f"},"vehicle_type_id":"4","last_reported":1734199917,"current_range_meters":0,"station_id":"","pricing_plan_id":"cebpf4jnsgd1na2vs0mg"},{"bike_id":"31c7c931-55e2-482c-9ee5-63e523f58659","system_id":"levelo_inurba_marseille","lat":43.29975,"lon":5.37135,"is_reserved":false,"is_disabled":false,"rental_uris":{"android":"levelo://app?vid=31c7c931-55e2-482c-9ee5-63e523f58659","ios":"levelo://app?vid=31c7c931-55e2-482c-9ee5-63e523f58659"},"vehicle_type_id":"4","last_reported":1734199917,"current_range_meters":38000,"station_id":"ce4bgr92rcd13ifvqc7g","pricing_plan_id":"cebpf4jnsgd1na2vs0mg"},{"bike_id":"638784b9-da8f-42f9-89d0-0955e7c31e8f","system_id":"levelo_inurba_marseille","lat":43.29979,"lon":5.3719,"is_reserved":false,"is_disabled":false,"rental_uris":{"android":"levelo://app?vid=638784b9-da8f-42f9-89d0-0955e7c31e8f","ios":"levelo://app?vid=638784b9-da8f-42f9-89d0-0955e7c31e8f"},"vehicle_type_id":"4","last_reported":1734199917,"current_range_meters":22000,"station_id":"ce4bgr92rcd13ifvqc7g","pricing_plan_id":"cebpf4jnsgd1na2vs0mg"},{"bike_id":"02431a13-421b-4def-970e-646349f2b813","system_id":"levelo_inurba_marseille","lat":43.29634,"lon":5.37706,"is_reserved":false,"is_disabled":false,"rental_uris":{"android":"levelo://app?vid=02431a13-421b-4def-970e-646349f2b813","ios":"levelo://app?vid=02431a13-421b-4def-970e-646349f2b813"},"vehicle_type_id":"4","last_reported":1734199917,"current_range_meters":38400,"station_id":"ce4bgi92rcd13ifvqb90","pricing_plan_id":"cebpf4jnsgd1na2vs0mg"},{"bike_id":"960966d7-6ca3-4198-857a-18810fd78a47","system_id":"levelo_inurba_marseille","lat":43.29432,"lon":5.39745,"is_reserved":false,"is_disabled":false,"rental_uris":{"android":"levelo://app?vid=960966d7-6ca3-4198-857a-18810fd78a47","ios":"levelo://app?vid=960966d7-6ca3-4198-857a-18810fd78a47"},"vehicle_type_id":"4","last_reported":1734199917,"current_range_meters":37600,"station_id":"ce4bh3h2rcd13ifvqdo0","pricing_plan_id":"cebpf4jnsgd1na2vs0mg"},{"bike_id":"83713eb5-d128-4fec-bee3-1133ba56177d","system_id":"levelo_inurba_marseille","lat":43.2929,"lon":5.37447,"is_reserved":false,"is_disabled":false,"rental_uris":{"android":"levelo://app?vid=83713eb5-d128-4fec-bee3-1133ba56177d","ios":"levelo://app?vid=83713eb5-d128-4fec-bee3-1133ba56177d"},"vehicle_type_id":"4","last_reported":1734199917,"current_range_meters":18800,"station_id":"ce4bgi12rcd13ifvqb70","pricing_plan_id":"cebpf4jnsgd1na2vs0mg"},{"bike_id":"a03f1e38-c8fe-4577-808d-d1848a3485a5","system_id":"levelo_inurba_marseille","lat":43.29099,"lon":5.38136,"is_reserved":false,"is_disabled":false,"rental_uris":{"android":"levelo://app?vid=a03f1e38-c8fe-4577-808d-d1848a3485a5","ios":"levelo://app?vid=a03f1e38-c8fe-4577-808d-d1848a3485a5"},"vehicle_type_id":"4","last_reported":1734199917,"current_range_meters":36800,"station_id":"ce4bh512rcd13ifvqe2g","pricing_plan_id":"cebpf4jnsgd1na2vs0mg"},{"bike_id":"e171553a-d499-40c6-b158-4c1c9a0d09dc","system_id":"levelo_inurba_marseille","lat":43.27179,"lon":5.40988,"is_reserved":false,"is_disabled":false,"rental_uris":{"android":"levelo://app?vid=e171553a-d499-40c6-b158-4c1c9a0d09dc","ios":"levelo://app?vid=e171553a-d499-40c6-b158-4c1c9a0d09dc"},"vehicle_type_id":"4","last_reported":1734199917,"current_range_meters":39200,"station_id":"ce4bhl12rcd13ifvqgf0","pricing_plan_id":"cebpf4jnsgd1na2vs0mg"},{"bike_id":"d0f616d3-4e1b-4801-b6b7-5762445f0e8a","system_id":"levelo_inurba_marseille","lat":43.25891,"lon":5.39891,"is_reserved":false,"is_disabled":false,"rental_uris":{"android":"levelo://app?vid=d0f616d3-4e1b-4801-b6b7-5762445f0e8a","ios":"levelo://app?vid=d0f616d3-4e1b-4801-b6b7-5762445f0e8a"},"vehicle_type_id":"4","last_reported":1734199917,"current_range_meters":6400,"station_id":"ce4bhl92rcd13ifvqghg","pricing_plan_id":"cebpf4jnsgd1na2vs0mg"},{"bike_id":"647913a4-9924-489e-9774-5a18d8421da2","system_id":"levelo_inurba_marseille","lat":43.3127,"lon":5.40175,"is_reserved":false,"is_disabled":false,"rental_uris":{"android":"levelo://app?vid=647913a4-9924-489e-9774-5a18d8421da2","ios":"levelo://app?vid=647913a4-9924-489e-9774-5a18d8421da2"},"vehicle_type_id":"4","last_reported":1734199917,"current_range_meters":8800,"station_id":"ce4bh092rcd13ifvqd30","pricing_plan_id":"cebpf4jnsgd1na2vs0mg"},{"bike_id":"a910ba8d-1e92-4db8-95c4-a99289f194af","system_id":"levelo_inurba_marseille","lat":43.27964,"lon":5.38768,"is_reserved":false,"is_disabled":false,"rental_uris":{"android":"levelo://app?vid=a910ba8d-1e92-4db8-95c4-a99289f194af","ios":"levelo://app?vid=a910ba8d-1e92-4db8-95c4-a99289f194af"},"vehicle_type_id":"4","last_reported":1734199917,"current_range_meters":21600,"station_id":"ce4bhg12rcd13ifvqf80","pricing_plan_id":"cebpf4jnsgd1na2vs0mg"},{"bike_id":"3cc8694d-c27d-4d4a-ba3f-e4e25bedc974","system_id":"levelo_inurba_marseille","lat":43.29981,"lon":5.37189,"is_reserved":false,"is_disabled":false,"rental_uris":{"android":"levelo://app?vid=3cc8694d-c27d-4d4a-ba3f-e4e25bedc974","ios":"levelo://app?vid=3cc8694d-c27d-4d4a-ba3f-e4e25bedc974"},"vehicle_type_id":"4","last_reported":1734199917,"current_range_meters":38800,"station_id":"ce4bgr92rcd13ifvqc7g","pricing_plan_id":"cebpf4jnsgd1na2vs0mg"},{"bike_id":"7bdde0b3-b592-41fc-9649-9bd6fe6ae294","system_id":"levelo_inurba_marseille","lat":43.29945,"lon":5.37156,"is_reserved":false,"is_disabled":false,"rental_uris":{"android":"levelo://app?vid=7bdde0b3-b592-41fc-9649-9bd6fe6ae294","ios":"levelo://app?vid=7bdde0b3-b592-41fc-9649-9bd6fe6ae294"},"vehicle_type_id":"4","last_reported":1734199917,"current_range_meters":38800,"station_id":"ce4bgr92rcd13ifvqc7g","pricing_plan_id":"cebpf4jnsgd1na2vs0mg"},{"bike_id":"0d5b1b0c-54d0-463e-8e32-441120da14e0","system_id":"levelo_inurba_marseille","lat":43.26943,"lon":5.40245,"is_reserved":false,"is_disabled":false,"rental_uris":{"android":"levelo://app?vid=0d5b1b0c-54d0-463e-8e32-441120da14e0","ios":"levelo://app?vid=0d5b1b0c-54d0-463e-8e32-441120da14e0"},"vehicle_type_id":"4","last_reported":1734199917,"current_range_meters":24400,"station_id":"cjm6bp8fraef2m0cb0m0","pricing_plan_id":"cebpf4jnsgd1na2vs0mg"},{"bike_id":"b89cd02a-44c8-4fbb-83be-fee20ca926ec","system_id":"levelo_inurba_marseille","lat":43.2512,"lon":5.40326,"is_reserved":false,"is_disabled":false,"rental_uris":{"android":"levelo://app?vid=b89cd02a-44c8-4fbb-83be-fee20ca926ec","ios":"levelo://app?vid=b89cd02a-44c8-4fbb-83be-fee20ca926ec"},"vehicle_type_id":"4","last_reported":1734199917,"current_range_meters":9200,"station_id":"ce4bhlh2rcd13ifvqgig","pricing_plan_id":"cebpf4jnsgd1na2vs0mg"},{"bike_id":"6347dac2-3384-4d85-977c-86b023f83fa8","system_id":"levelo_inurba_marseille","lat":43.29051,"lon":5.37615,"is_reserved":false,"is_disabled":false,"rental_uris":{"android":"levelo://app?vid=6347dac2-3384-4d85-977c-86b023f83fa8","ios":"levelo://app?vid=6347dac2-3384-4d85-977c-86b023f83fa8"},"vehicle_type_id":"4","last_reported":1734199917,"current_range_meters":27600,"station_id":"ce4bh3p2rcd13ifvqdq0","pricing_plan_id":"cebpf4jnsgd1na2vs0mg"},{"bike_id":"298e3061-f404-471b-b9f5-17aeada00da1","system_id":"levelo_inurba_marseille","lat":43.30133,"lon":5.39869,"is_reserved":false,"is_disabled":false,"rental_uris":{"android":"levelo://app?vid=298e3061-f404-471b-b9f5-17aeada00da1","ios":"levelo://app?vid=298e3061-f404-471b-b9f5-17aeada00da1"},"vehicle_type_id":"4","last_reported":1734199917,"current_range_meters":28000,"station_id":"ce4bh0h2rcd13ifvqd40","pricing_plan_id":"cebpf4jnsgd1na2vs0mg"},{"bike_id":"c51154b5-1034-4fc0-8fac-d1d2e91dba39","system_id":"levelo_inurba_marseille","lat":43.23057,"lon":5.35494,"is_reserved":false,"is_disabled":false,"rental_uris":{"android":"levelo://app?vid=c51154b5-1034-4fc0-8fac-d1d2e91dba39","ios":"levelo://app?vid=c51154b5-1034-4fc0-8fac-d1d2e91dba39"},"vehicle_type_id":"4","last_reported":1734199917,"current_range_meters":9600,"station_id":"cpo3342slgdg3j2ifvpg","pricing_plan_id":"cebpf4jnsgd1na2vs0mg"},{"bike_id":"9898497d-08a8-4f3f-896d-f939d7b3fae3","system_id":"levelo_inurba_marseille","lat":43.29729,"lon":5.3769,"is_reserved":false,"is_disabled":false,"rental_uris":{"android":"levelo://app?vid=9898497d-08a8-4f3f-896d-f939d7b3fae3","ios":"levelo://app?vid=9898497d-08a8-4f3f-896d-f939d7b3fae3"},"vehicle_type_id":"4","last_reported":1734199917,"current_range_meters":26800,"station_id":"ce4bgkh2rcd13ifvqbl0","pricing_plan_id":"cebpf4jnsgd1na2vs0mg"},{"bike_id":"266f7fca-62d8-462d-83ba-67663ab9bbef","system_id":"levelo_inurba_marseille","lat":43.25099,"lon":5.40326,"is_reserved":false,"is_disabled":false,"rental_uris":{"android":"levelo://app?vid=266f7fca-62d8-462d-83ba-67663ab9bbef","ios":"levelo://app?vid=266f7fca-62d8-462d-83ba-67663ab9bbef"},"vehicle_type_id":"4","last_reported":1734199917,"current_range_meters":38400,"station_id":"ce4bhlh2rcd13ifvqgig","pricing_plan_id":"cebpf4jnsgd1na2vs0mg"},{"bike_id":"abe250a1-3d26-47a1-bae8-73bf3354b17a","system_id":"levelo_inurba_marseille","lat":43.27199,"lon":5.4099,"is_reserved":false,"is_disabled":false,"rental_uris":{"android":"levelo://app?vid=abe250a1-3d26-47a1-bae8-73bf3354b17a","ios":"levelo://app?vid=abe250a1-3d26-47a1-bae8-73bf3354b17a"},"vehicle_type_id":"4","last_reported":1734199917,"current_range_meters":9600,"station_id":"ce4bhl12rcd13ifvqgf0","pricing_plan_id":"cebpf4jnsgd1na2vs0mg"},{"bike_id":"42a5732c-ae1e-42b7-9859-c5ac1484a526","system_id":"levelo_inurba_marseille","lat":43.286673,"lon":5.386563,"is_reserved":false,"is_disabled":false,"rental_uris":{"android":"levelo://app?vid=42a5732c-ae1e-42b7-9859-c5ac1484a526","ios":"levelo://app?vid=42a5732c-ae1e-42b7-9859-c5ac1484a526"},"vehicle_type_id":"4","last_reported":1734199917,"current_range_meters":29600,"station_id":"ce4bh492rcd13ifvqdug","pricing_plan_id":"cebpf4jnsgd1na2vs0mg"},{"bike_id":"fabc0430-593f-48af-8609-5df6565dc6c4","system_id":"levelo_inurba_marseille","lat":43.25117,"lon":5.40324,"is_reserved":false,"is_disabled":false,"rental_uris":{"android":"levelo://app?vid=fabc0430-593f-48af-8609-5df6565dc6c4","ios":"levelo://app?vid=fabc0430-593f-48af-8609-5df6565dc6c4"},"vehicle_type_id":"4","last_reported":1734199917,"current_range_meters":8000,"station_id":"ce4bhlh2rcd13ifvqgig","pricing_plan_id":"cebpf4jnsgd1na2vs0mg"},{"bike_id":"bdc801a8-2cce-41e6-ab9c-dde240d99a86","system_id":"levelo_inurba_marseille","lat":43.28843,"lon":5.3931,"is_reserved":false,"is_disabled":false,"rental_uris":{"android":"levelo://app?vid=bdc801a8-2cce-41e6-ab9c-dde240d99a86","ios":"levelo://app?vid=bdc801a8-2cce-41e6-ab9c-dde240d99a86"},"vehicle_type_id":"4","last_reported":1734199917,"current_range_meters":12000,"station_id":"ce4bh2p2rcd13ifvqdi0","pricing_plan_id":"cebpf4jnsgd1na2vs0mg"},{"bike_id":"f105fd49-fa2d-4e09-8242-7e46187098b9","system_id":"levelo_inurba_marseille","lat":43.29277,"lon":5.36843,"is_reserved":false,"is_disabled":false,"rental_uris":{"android":"levelo://app?vid=f105fd49-fa2d-4e09-8242-7e46187098b9","ios":"levelo://app?vid=f105fd49-fa2d-4e09-8242-7e46187098b9"},"vehicle_type_id":"4","last_reported":1734199917,"current_range_meters":12000,"station_id":"ce4bhbp2rcd13ifvqesg","pricing_plan_id":"cebpf4jnsgd1na2vs0mg"},{"bike_id":"99dd0b01-1504-4286-9d63-b785ac1602ce","system_id":"levelo_inurba_marseille","lat":43.24804,"lon":5.37454,"is_reserved":false,"is_disabled":false,"rental_uris":{"android":"levelo://app?vid=99dd0b01-1504-4286-9d63-b785ac1602ce","ios":"levelo://app?vid=99dd0b01-1504-4286-9d63-b785ac1602ce"},"vehicle_type_id":"4","last_reported":1734199917,"current_range_meters":36400,"station_id":"ce4bhgh2rcd13ifvqfb0","pricing_plan_id":"cebpf4jnsgd1na2vs0mg"},{"bike_id":"b9fd8210-1762-40eb-87aa-8f4b603c6aad","system_id":"levelo_inurba_marseille","lat":43.26032,"lon":5.37547,"is_reserved":false,"is_disabled":false,"rental_uris":{"android":"levelo://app?vid=b9fd8210-1762-40eb-87aa-8f4b603c6aad","ios":"levelo://app?vid=b9fd8210-1762-40eb-87aa-8f4b603c6aad"},"vehicle_type_id":"4","last_reported":1734199917,"current_range_meters":38800,"station_id":"ce4bhgh2rcd13ifvqfa0","pricing_plan_id":"cebpf4jnsgd1na2vs0mg"},{"bike_id":"d8d4198f-8e56-4c60-8308-15fa3cdf320a","system_id":"levelo_inurba_marseille","lat":43.24661,"lon":5.38167,"is_reserved":true,"is_disabled":false,"rental_uris":{"android":"levelo://app?vid=d8d4198f-8e56-4c60-8308-15fa3cdf320a","ios":"levelo://app?vid=d8d4198f-8e56-4c60-8308-15fa3cdf320a"},"vehicle_type_id":"4","last_reported":1734199917,"current_range_meters":17200,"station_id":"ce4bhih2rcd13ifvqfr0","pricing_plan_id":"cebpf4jnsgd1na2vs0mg"},{"bike_id":"7ae78273-1be1-4db7-b870-5fc6be0106da","system_id":"levelo_inurba_marseille","lat":43.26953,"lon":5.38639,"is_reserved":false,"is_disabled":false,"rental_uris":{"android":"levelo://app?vid=7ae78273-1be1-4db7-b870-5fc6be0106da","ios":"levelo://app?vid=7ae78273-1be1-4db7-b870-5fc6be0106da"},"vehicle_type_id":"4","last_reported":1734199917,"current_range_meters":36400,"station_id":"ce4bhh92rcd13ifvqfh0","pricing_plan_id":"cebpf4jnsgd1na2vs0mg"},{"bike_id":"af5005fc-d058-4152-a2f0-a599ec2fe143","system_id":"levelo_inurba_marseille","lat":43.32293,"lon":5.38271,"is_reserved":false,"is_disabled":false,"rental_uris":{"android":"levelo://app?vid=af5005fc-d058-4152-a2f0-a599ec2fe143","ios":"levelo://app?vid=af5005fc-d058-4152-a2f0-a599ec2fe143"},"vehicle_type_id":"4","last_reported":1734199917,"current_range_meters":38800,"station_id":"ce4bhr12rcd13ifvqhqg","pricing_plan_id":"cebpf4jnsgd1na2vs0mg"},{"bike_id":"3650d84c-d2fd-4728-abeb-b9accdfa7210","system_id":"levelo_inurba_marseille","lat":43.3023,"lon":5.4006,"is_reserved":false,"is_disabled":true,"rental_uris":{"android":"levelo://app?vid=3650d84c-d2fd-4728-abeb-b9accdfa7210","ios":"levelo://app?vid=3650d84c-d2fd-4728-abeb-b9accdfa7210"},"vehicle_type_id":"4","last_reported":1734199917,"current_range_meters":26000,"station_id":"ce4bgvh2rcd13ifvqcs0","pricing_plan_id":"cebpf4jnsgd1na2vs0mg"},{"bike_id":"b76bfadb-6288-4939-8ca7-fc00e8227f70","system_id":"levelo_inurba_marseille","lat":43.31065,"lon":5.38342,"is_reserved":false,"is_disabled":true,"rental_uris":{"android":"levelo://app?vid=b76bfadb-6288-4939-8ca7-fc00e8227f70","ios":"levelo://app?vid=b76bfadb-6288-4939-8ca7-fc00e8227f70"},"vehicle_type_id":"4","last_reported":1734199917,"current_range_meters":0,"station_id":"ce4bgv92rcd13ifvqcr0","pricing_plan_id":"cebpf4jnsgd1na2vs0mg"},{"bike_id":"878233b7-8dfb-45a7-93b0-d10d53cc4f59","system_id":"levelo_inurba_marseille","lat":43.29799,"lon":5.40389,"is_reserved":false,"is_disabled":false,"rental_uris":{"android":"levelo://app?vid=878233b7-8dfb-45a7-93b0-d10d53cc4f59","ios":"levelo://app?vid=878233b7-8dfb-45a7-93b0-d10d53cc4f59"},"vehicle_type_id":"4","last_reported":1734199917,"current_range_meters":12000,"station_id":"ce4bh112rcd13ifvqd90","pricing_plan_id":"cebpf4jnsgd1na2vs0mg"},{"bike_id":"425f721e-4481-4245-9dd4-65f65f07aa6c","system_id":"levelo_inurba_marseille","lat":43.28457,"lon":5.35895,"is_reserved":false,"is_disabled":false,"rental_uris":{"android":"levelo://app?vid=425f721e-4481-4245-9dd4-65f65f07aa6c","ios":"levelo://app?vid=425f721e-4481-4245-9dd4-65f65f07aa6c"},"vehicle_type_id":"4","last_reported":1734199917,"current_range_meters":27600,"station_id":"ce4bhah2rcd13ifvqei0","pricing_plan_id":"cebpf4jnsgd1na2vs0mg"},{"bike_id":"ab5c0b8b-1e60-424c-9881-b6c2af8578b6","system_id":"levelo_inurba_marseille","lat":43.32048,"lon":5.41546,"is_reserved":false,"is_disabled":false,"rental_uris":{"android":"levelo://app?vid=ab5c0b8b-1e60-424c-9881-b6c2af8578b6","ios":"levelo://app?vid=ab5c0b8b-1e60-424c-9881-b6c2af8578b6"},"vehicle_type_id":"4","last_reported":1734199917,"current_range_meters":11200,"station_id":"ce4bhq92rcd13ifvqhkg","pricing_plan_id":"cebpf4jnsgd1na2vs0mg"},{"bike_id":"d6c8d178-bab2-411e-a9f4-5b947451e9ae","system_id":"levelo_inurba_marseille","lat":43.28651,"lon":5.36345,"is_reserved":false,"is_disabled":false,"rental_uris":{"android":"levelo://app?vid=d6c8d178-bab2-411e-a9f4-5b947451e9ae","ios":"levelo://app?vid=d6c8d178-bab2-411e-a9f4-5b947451e9ae"},"vehicle_type_id":"4","last_reported":1734199917,"current_range_meters":38800,"station_id":"ce4bhah2rcd13ifvqej0","pricing_plan_id":"cebpf4jnsgd1na2vs0mg"},{"bike_id":"6cb5f94f-eade-4b7c-b995-84c805be74f9","system_id":"levelo_inurba_marseille","lat":43.33779,"lon":5.37414,"is_reserved":false,"is_disabled":false,"rental_uris":{"android":"levelo://app?vid=6cb5f94f-eade-4b7c-b995-84c805be74f9","ios":"levelo://app?vid=6cb5f94f-eade-4b7c-b995-84c805be74f9"},"vehicle_type_id":"4","last_reported":1734199917,"current_range_meters":38400,"station_id":"","pricing_plan_id":"cebpf4jnsgd1na2vs0mg"},{"bike_id":"2bc5ea5c-9745-4398-9fc5-e119c46faa0c","system_id":"levelo_inurba_marseille","lat":43.29314,"lon":5.41178,"is_reserved":false,"is_disabled":false,"rental_uris":{"android":"levelo://app?vid=2bc5ea5c-9745-4398-9fc5-e119c46faa0c","ios":"levelo://app?vid=2bc5ea5c-9745-4398-9fc5-e119c46faa0c"},"vehicle_type_id":"4","last_reported":1734199917,"current_range_meters":22400,"station_id":"","pricing_plan_id":"cebpf4jnsgd1na2vs0mg"},{"bike_id":"380c9a62-9355-46ea-aba6-5d39cd47ad4b","system_id":"levelo_inurba_marseille","lat":43.31374,"lon":5.40613,"is_reserved":false,"is_disabled":true,"rental_uris":{"android":"levelo://app?vid=380c9a62-9355-46ea-aba6-5d39cd47ad4b","ios":"levelo://app?vid=380c9a62-9355-46ea-aba6-5d39cd47ad4b"},"vehicle_type_id":"4","last_reported":1734199917,"current_range_meters":0,"station_id":"","pricing_plan_id":"cebpf4jnsgd1na2vs0mg"},{"bike_id":"dc382634-aed8-493e-8590-bf7f7a19747b","system_id":"levelo_inurba_marseille","lat":43.273146,"lon":5.390979,"is_reserved":false,"is_disabled":false,"rental_uris":{"android":"levelo://app?vid=dc382634-aed8-493e-8590-bf7f7a19747b","ios":"levelo://app?vid=dc382634-aed8-493e-8590-bf7f7a19747b"},"vehicle_type_id":"4","last_reported":1734199917,"current_range_meters":36800,"station_id":"ce4bhgp2rcd13ifvqfe0","pricing_plan_id":"cebpf4jnsgd1na2vs0mg"},{"bike_id":"5698604e-aaa5-42b6-9f56-06778c2d2e5a","system_id":"levelo_inurba_marseille","lat":43.25109,"lon":5.40331,"is_reserved":false,"is_disabled":true,"rental_uris":{"android":"levelo://app?vid=5698604e-aaa5-42b6-9f56-06778c2d2e5a","ios":"levelo://app?vid=5698604e-aaa5-42b6-9f56-06778c2d2e5a"},"vehicle_type_id":"4","last_reported":1734199917,"current_range_meters":0,"station_id":"ce4bhlh2rcd13ifvqgig","pricing_plan_id":"cebpf4jnsgd1na2vs0mg"},{"bike_id":"d4401c05-142e-4a3b-9584-a2db6ad30252","system_id":"levelo_inurba_marseille","lat":43.33019,"lon":5.39051,"is_reserved":false,"is_disabled":false,"rental_uris":{"android":"levelo://app?vid=d4401c05-142e-4a3b-9584-a2db6ad30252","ios":"levelo://app?vid=d4401c05-142e-4a3b-9584-a2db6ad30252"},"vehicle_type_id":"4","last_reported":1734199917,"current_range_meters":35600,"station_id":"ce4bhr92rcd13ifvqhrg","pricing_plan_id":"cebpf4jnsgd1na2vs0mg"},{"bike_id":"6a0e7c7f-91b3-41f8-98bb-e28b5d23bd1d","system_id":"levelo_inurba_marseille","lat":43.27314,"lon":5.39081,"is_reserved":false,"is_disabled":false,"rental_uris":{"android":"levelo://app?vid=6a0e7c7f-91b3-41f8-98bb-e28b5d23bd1d","ios":"levelo://app?vid=6a0e7c7f-91b3-41f8-98bb-e28b5d23bd1d"},"vehicle_type_id":"4","last_reported":1734199917,"current_range_meters":30400,"station_id":"ce4bhgp2rcd13ifvqfe0","pricing_plan_id":"cebpf4jnsgd1na2vs0mg"},{"bike_id":"3f3e1612-6ce1-459c-8bcc-2b14c38bd32a","system_id":"levelo_inurba_marseille","lat":43.29371,"lon":5.37848,"is_reserved":false,"is_disabled":false,"rental_uris":{"android":"levelo://app?vid=3f3e1612-6ce1-459c-8bcc-2b14c38bd32a","ios":"levelo://app?vid=3f3e1612-6ce1-459c-8bcc-2b14c38bd32a"},"vehicle_type_id":"4","last_reported":1734199917,"current_range_meters":20800,"station_id":"ce4bgjh2rcd13ifvqbf0","pricing_plan_id":"cebpf4jnsgd1na2vs0mg"},{"bike_id":"ca59d865-1951-4846-a717-a349b9e50e7c","system_id":"levelo_inurba_marseille","lat":43.27608,"lon":5.36114,"is_reserved":false,"is_disabled":true,"rental_uris":{"android":"levelo://app?vid=ca59d865-1951-4846-a717-a349b9e50e7c","ios":"levelo://app?vid=ca59d865-1951-4846-a717-a349b9e50e7c"},"vehicle_type_id":"4","last_reported":1734199917,"current_range_meters":36000,"station_id":"ce4bgj92rcd13ifvqbe0","pricing_plan_id":"cebpf4jnsgd1na2vs0mg"},{"bike_id":"bd42838f-97de-4366-ac15-bed82afa7174","system_id":"levelo_inurba_marseille","lat":43.22927,"lon":5.35376,"is_reserved":false,"is_disabled":false,"rental_uris":{"android":"levelo://app?vid=bd42838f-97de-4366-ac15-bed82afa7174","ios":"levelo://app?vid=bd42838f-97de-4366-ac15-bed82afa7174"},"vehicle_type_id":"4","last_reported":1734199917,"current_range_meters":11200,"station_id":"cpo3532slgdg3j2ikp40","pricing_plan_id":"cebpf4jnsgd1na2vs0mg"},{"bike_id":"18be673a-b259-4e40-8a7c-3a4ca5892e9f","system_id":"levelo_inurba_marseille","lat":43.24077,"lon":5.37756,"is_reserved":false,"is_disabled":false,"rental_uris":{"android":"levelo://app?vid=18be673a-b259-4e40-8a7c-3a4ca5892e9f","ios":"levelo://app?vid=18be673a-b259-4e40-8a7c-3a4ca5892e9f"},"vehicle_type_id":"4","last_reported":1734199917,"current_range_meters":20000,"station_id":"ce4bhm12rcd13ifvqgkg","pricing_plan_id":"cebpf4jnsgd1na2vs0mg"},{"bike_id":"283ec910-2b59-4ffd-bbff-9867d116f826","system_id":"levelo_inurba_marseille","lat":43.337444,"lon":5.374475,"is_reserved":false,"is_disabled":true,"rental_uris":{"android":"levelo://app?vid=283ec910-2b59-4ffd-bbff-9867d116f826","ios":"levelo://app?vid=283ec910-2b59-4ffd-bbff-9867d116f826"},"vehicle_type_id":"4","last_reported":1734199917,"current_range_meters":0,"station_id":"","pricing_plan_id":"cebpf4jnsgd1na2vs0mg"},{"bike_id":"44bb1ee1-6608-426b-ad9e-5efdc1a7eac0","system_id":"levelo_inurba_marseille","lat":43.33753,"lon":5.37434,"is_reserved":false,"is_disabled":false,"rental_uris":{"android":"levelo://app?vid=44bb1ee1-6608-426b-ad9e-5efdc1a7eac0","ios":"levelo://app?vid=44bb1ee1-6608-426b-ad9e-5efdc1a7eac0"},"vehicle_type_id":"4","last_reported":1734199917,"current_range_meters":24800,"station_id":"","pricing_plan_id":"cebpf4jnsgd1na2vs0mg"},{"bike_id":"6d0b5d20-1880-40c5-a27b-5db51c2c2e73","system_id":"levelo_inurba_marseille","lat":43.29631,"lon":5.37742,"is_reserved":false,"is_disabled":false,"rental_uris":{"android":"levelo://app?vid=6d0b5d20-1880-40c5-a27b-5db51c2c2e73","ios":"levelo://app?vid=6d0b5d20-1880-40c5-a27b-5db51c2c2e73"},"vehicle_type_id":"4","last_reported":1734199917,"current_range_meters":38800,"station_id":"ce4bgi92rcd13ifvqb90","pricing_plan_id":"cebpf4jnsgd1na2vs0mg"},{"bike_id":"5dceb185-a0e9-479c-b536-1cede23b2d70","system_id":"levelo_inurba_marseille","lat":43.269501,"lon":5.402403,"is_reserved":false,"is_disabled":true,"rental_uris":{"android":"levelo://app?vid=5dceb185-a0e9-479c-b536-1cede23b2d70","ios":"levelo://app?vid=5dceb185-a0e9-479c-b536-1cede23b2d70"},"vehicle_type_id":"4","last_reported":1734199917,"current_range_meters":400,"station_id":"cjm6bp8fraef2m0cb0m0","pricing_plan_id":"cebpf4jnsgd1na2vs0mg"},{"bike_id":"bbffd889-750b-4762-ae94-78458d50ea91","system_id":"levelo_inurba_marseille","lat":43.33716,"lon":5.39188,"is_reserved":false,"is_disabled":false,"rental_uris":{"android":"levelo://app?vid=bbffd889-750b-4762-ae94-78458d50ea91","ios":"levelo://app?vid=bbffd889-750b-4762-ae94-78458d50ea91"},"vehicle_type_id":"4","last_reported":1734199917,"current_range_meters":27200,"station_id":"ce4bhr92rcd13ifvqhsg","pricing_plan_id":"cebpf4jnsgd1na2vs0mg"},{"bike_id":"2e86ace3-42cf-4fd4-9f85-c26d2f415cf5","system_id":"levelo_inurba_marseille","lat":43.28417,"lon":5.34978,"is_reserved":false,"is_disabled":false,"rental_uris":{"android":"levelo://app?vid=2e86ace3-42cf-4fd4-9f85-c26d2f415cf5","ios":"levelo://app?vid=2e86ace3-42cf-4fd4-9f85-c26d2f415cf5"},"vehicle_type_id":"4","last_reported":1734199917,"current_range_meters":11200,"station_id":"ce4bhbh2rcd13ifvqepg","pricing_plan_id":"cebpf4jnsgd1na2vs0mg"},{"bike_id":"ae9e5a78-cbce-4bd0-994c-75427e955cfa","system_id":"levelo_inurba_marseille","lat":43.28703,"lon":5.39985,"is_reserved":false,"is_disabled":false,"rental_uris":{"android":"levelo://app?vid=ae9e5a78-cbce-4bd0-994c-75427e955cfa","ios":"levelo://app?vid=ae9e5a78-cbce-4bd0-994c-75427e955cfa"},"vehicle_type_id":"4","last_reported":1734199917,"current_range_meters":38800,"station_id":"ce4bho92rcd13ifvqh3g","pricing_plan_id":"cebpf4jnsgd1na2vs0mg"},{"bike_id":"f8c95c36-0dd0-4298-85b4-2fd2a38ad288","system_id":"levelo_inurba_marseille","lat":43.27933,"lon":5.3959,"is_reserved":false,"is_disabled":false,"rental_uris":{"android":"levelo://app?vid=f8c95c36-0dd0-4298-85b4-2fd2a38ad288","ios":"levelo://app?vid=f8c95c36-0dd0-4298-85b4-2fd2a38ad288"},"vehicle_type_id":"4","last_reported":1734199917,"current_range_meters":36400,"station_id":"ce4bhf92rcd13ifvqf40","pricing_plan_id":"cebpf4jnsgd1na2vs0mg"},{"bike_id":"c6234abb-f24f-4e51-8203-a434dd5a5cf7","system_id":"levelo_inurba_marseille","lat":43.27183,"lon":5.40996,"is_reserved":false,"is_disabled":false,"rental_uris":{"android":"levelo://app?vid=c6234abb-f24f-4e51-8203-a434dd5a5cf7","ios":"levelo://app?vid=c6234abb-f24f-4e51-8203-a434dd5a5cf7"},"vehicle_type_id":"4","last_reported":1734199917,"current_range_meters":37600,"station_id":"ce4bhl12rcd13ifvqgf0","pricing_plan_id":"cebpf4jnsgd1na2vs0mg"},{"bike_id":"6e6a004b-462d-4b03-aeaa-2611256f0d89","system_id":"levelo_inurba_marseille","lat":43.28118,"lon":5.38937,"is_reserved":false,"is_disabled":true,"rental_uris":{"android":"levelo://app?vid=6e6a004b-462d-4b03-aeaa-2611256f0d89","ios":"levelo://app?vid=6e6a004b-462d-4b03-aeaa-2611256f0d89"},"vehicle_type_id":"4","last_reported":1734199917,"current_range_meters":0,"station_id":"","pricing_plan_id":"cebpf4jnsgd1na2vs0mg"},{"bike_id":"1ebed0d7-c0dc-47e3-91ba-f1032d321b83","system_id":"levelo_inurba_marseille","lat":43.30129,"lon":5.39864,"is_reserved":false,"is_disabled":false,"rental_uris":{"android":"levelo://app?vid=1ebed0d7-c0dc-47e3-91ba-f1032d321b83","ios":"levelo://app?vid=1ebed0d7-c0dc-47e3-91ba-f1032d321b83"},"vehicle_type_id":"4","last_reported":1734199917,"current_range_meters":33600,"station_id":"ce4bh0h2rcd13ifvqd40","pricing_plan_id":"cebpf4jnsgd1na2vs0mg"},{"bike_id":"a42f5994-229b-4ba6-b3f2-7045ec6149a1","system_id":"levelo_inurba_marseille","lat":43.24647,"lon":5.38889,"is_reserved":false,"is_disabled":false,"rental_uris":{"android":"levelo://app?vid=a42f5994-229b-4ba6-b3f2-7045ec6149a1","ios":"levelo://app?vid=a42f5994-229b-4ba6-b3f2-7045ec6149a1"},"vehicle_type_id":"4","last_reported":1734199917,"current_range_meters":11200,"station_id":"ce4bhg12rcd13ifvqf60","pricing_plan_id":"cebpf4jnsgd1na2vs0mg"},{"bike_id":"d5d9ac08-9e53-4bb5-aaf2-22cc3515faf5","system_id":"levelo_inurba_marseille","lat":43.28706,"lon":5.37395,"is_reserved":false,"is_disabled":false,"rental_uris":{"android":"levelo://app?vid=d5d9ac08-9e53-4bb5-aaf2-22cc3515faf5","ios":"levelo://app?vid=d5d9ac08-9e53-4bb5-aaf2-22cc3515faf5"},"vehicle_type_id":"4","last_reported":1734199917,"current_range_meters":8800,"station_id":"ce4bh3p2rcd13ifvqdq0","pricing_plan_id":"cebpf4jnsgd1na2vs0mg"},{"bike_id":"c47d7261-e3b5-46c3-92f2-9eaab2ccf51f","system_id":"levelo_inurba_marseille","lat":43.2737,"lon":5.36258,"is_reserved":false,"is_disabled":false,"rental_uris":{"android":"levelo://app?vid=c47d7261-e3b5-46c3-92f2-9eaab2ccf51f","ios":"levelo://app?vid=c47d7261-e3b5-46c3-92f2-9eaab2ccf51f"},"vehicle_type_id":"4","last_reported":1734199917,"current_range_meters":38800,"station_id":"ce4bhbh2rcd13ifvqeo0","pricing_plan_id":"cebpf4jnsgd1na2vs0mg"},{"bike_id":"d98beb47-c187-4a89-bbee-f8677ce326a6","system_id":"levelo_inurba_marseille","lat":43.28481,"lon":5.38416,"is_reserved":false,"is_disabled":false,"rental_uris":{"android":"levelo://app?vid=d98beb47-c187-4a89-bbee-f8677ce326a6","ios":"levelo://app?vid=d98beb47-c187-4a89-bbee-f8677ce326a6"},"vehicle_type_id":"4","last_reported":1734199917,"current_range_meters":11200,"station_id":"ce4bh512rcd13ifvqe3g","pricing_plan_id":"cebpf4jnsgd1na2vs0mg"},{"bike_id":"2486d544-0292-4cbc-abc8-324d72621448","system_id":"levelo_inurba_marseille","lat":43.31495,"lon":5.37284,"is_reserved":false,"is_disabled":false,"rental_uris":{"android":"levelo://app?vid=2486d544-0292-4cbc-abc8-324d72621448","ios":"levelo://app?vid=2486d544-0292-4cbc-abc8-324d72621448"},"vehicle_type_id":"4","last_reported":1734199917,"current_range_meters":37600,"station_id":"ce4bgt12rcd13ifvqcd0","pricing_plan_id":"cebpf4jnsgd1na2vs0mg"},{"bike_id":"702fe746-2950-4d83-96ad-da74f787e42f","system_id":"levelo_inurba_marseille","lat":43.25862,"lon":5.39902,"is_reserved":false,"is_disabled":false,"rental_uris":{"android":"levelo://app?vid=702fe746-2950-4d83-96ad-da74f787e42f","ios":"levelo://app?vid=702fe746-2950-4d83-96ad-da74f787e42f"},"vehicle_type_id":"4","last_reported":1734199917,"current_range_meters":36000,"station_id":"ce4bhl92rcd13ifvqghg","pricing_plan_id":"cebpf4jnsgd1na2vs0mg"},{"bike_id":"7965bd8b-65b9-4460-9e65-36f253ebc53b","system_id":"levelo_inurba_marseille","lat":43.32058,"lon":5.4152,"is_reserved":false,"is_disabled":false,"rental_uris":{"android":"levelo://app?vid=7965bd8b-65b9-4460-9e65-36f253ebc53b","ios":"levelo://app?vid=7965bd8b-65b9-4460-9e65-36f253ebc53b"},"vehicle_type_id":"4","last_reported":1734199917,"current_range_meters":18800,"station_id":"ce4bhq92rcd13ifvqhkg","pricing_plan_id":"cebpf4jnsgd1na2vs0mg"},{"bike_id":"aebbc641-aa4e-45bf-8759-b91a8081deab","system_id":"levelo_inurba_marseille","lat":43.29021,"lon":5.38124,"is_reserved":false,"is_disabled":false,"rental_uris":{"android":"levelo://app?vid=aebbc641-aa4e-45bf-8759-b91a8081deab","ios":"levelo://app?vid=aebbc641-aa4e-45bf-8759-b91a8081deab"},"vehicle_type_id":"4","last_reported":1734199917,"current_range_meters":12400,"station_id":"ce4bh4p2rcd13ifvqe1g","pricing_plan_id":"cebpf4jnsgd1na2vs0mg"},{"bike_id":"e3232f36-cc5e-49f8-95d7-5f54850f2e7d","system_id":"levelo_inurba_marseille","lat":43.29514,"lon":5.39404,"is_reserved":false,"is_disabled":false,"rental_uris":{"android":"levelo://app?vid=e3232f36-cc5e-49f8-95d7-5f54850f2e7d","ios":"levelo://app?vid=e3232f36-cc5e-49f8-95d7-5f54850f2e7d"},"vehicle_type_id":"4","last_reported":1734199917,"current_range_meters":8400,"station_id":"ce4bh292rcd13ifvqdf0","pricing_plan_id":"cebpf4jnsgd1na2vs0mg"},{"bike_id":"e5192aff-1008-4e7e-b82a-23b5df79d920","system_id":"levelo_inurba_marseille","lat":43.30867,"lon":5.37417,"is_reserved":false,"is_disabled":false,"rental_uris":{"android":"levelo://app?vid=e5192aff-1008-4e7e-b82a-23b5df79d920","ios":"levelo://app?vid=e5192aff-1008-4e7e-b82a-23b5df79d920"},"vehicle_type_id":"4","last_reported":1734199917,"current_range_meters":23200,"station_id":"","pricing_plan_id":"cebpf4jnsgd1na2vs0mg"},{"bike_id":"a7bdb0f9-f5a6-464f-9551-b706f6882dbb","system_id":"levelo_inurba_marseille","lat":43.27937,"lon":5.41044,"is_reserved":false,"is_disabled":false,"rental_uris":{"android":"levelo://app?vid=a7bdb0f9-f5a6-464f-9551-b706f6882dbb","ios":"levelo://app?vid=a7bdb0f9-f5a6-464f-9551-b706f6882dbb"},"vehicle_type_id":"4","last_reported":1734199917,"current_range_meters":30800,"station_id":"ce4bhnp2rcd13ifvqh0g","pricing_plan_id":"cebpf4jnsgd1na2vs0mg"},{"bike_id":"07aaffff-6c5a-4390-a6e5-b91a437396ec","system_id":"levelo_inurba_marseille","lat":43.24165,"lon":5.3639,"is_reserved":false,"is_disabled":false,"rental_uris":{"android":"levelo://app?vid=07aaffff-6c5a-4390-a6e5-b91a437396ec","ios":"levelo://app?vid=07aaffff-6c5a-4390-a6e5-b91a437396ec"},"vehicle_type_id":"4","last_reported":1734199917,"current_range_meters":9600,"station_id":"cpo36qri1sfpv3e86is0","pricing_plan_id":"cebpf4jnsgd1na2vs0mg"},{"bike_id":"171f5513-5f2f-4ab3-8b50-ea5fa30dcecc","system_id":"levelo_inurba_marseille","lat":43.29059,"lon":5.37152,"is_reserved":false,"is_disabled":false,"rental_uris":{"android":"levelo://app?vid=171f5513-5f2f-4ab3-8b50-ea5fa30dcecc","ios":"levelo://app?vid=171f5513-5f2f-4ab3-8b50-ea5fa30dcecc"},"vehicle_type_id":"4","last_reported":1734199917,"current_range_meters":38800,"station_id":"ce4bh5p2rcd13ifvqe4g","pricing_plan_id":"cebpf4jnsgd1na2vs0mg"},{"bike_id":"193206c5-8645-4f57-a430-5f18b76368bd","system_id":"levelo_inurba_marseille","lat":43.29198,"lon":5.35789,"is_reserved":false,"is_disabled":false,"rental_uris":{"android":"levelo://app?vid=193206c5-8645-4f57-a430-5f18b76368bd","ios":"levelo://app?vid=193206c5-8645-4f57-a430-5f18b76368bd"},"vehicle_type_id":"4","last_reported":1734199917,"current_range_meters":17600,"station_id":"ce4bhb12rcd13ifvqel0","pricing_plan_id":"cebpf4jnsgd1na2vs0mg"},{"bike_id":"5f575d05-ec72-4058-8d97-1322363420bd","system_id":"levelo_inurba_marseille","lat":43.28667,"lon":5.38666,"is_reserved":false,"is_disabled":false,"rental_uris":{"android":"levelo://app?vid=5f575d05-ec72-4058-8d97-1322363420bd","ios":"levelo://app?vid=5f575d05-ec72-4058-8d97-1322363420bd"},"vehicle_type_id":"4","last_reported":1734199917,"current_range_meters":6000,"station_id":"ce4bh492rcd13ifvqdug","pricing_plan_id":"cebpf4jnsgd1na2vs0mg"},{"bike_id":"1fd137ec-b2df-45ff-8b23-50f37290448d","system_id":"levelo_inurba_marseille","lat":43.27304,"lon":5.39077,"is_reserved":false,"is_disabled":true,"rental_uris":{"android":"levelo://app?vid=1fd137ec-b2df-45ff-8b23-50f37290448d","ios":"levelo://app?vid=1fd137ec-b2df-45ff-8b23-50f37290448d"},"vehicle_type_id":"4","last_reported":1734199917,"current_range_meters":0,"station_id":"ce4bhgp2rcd13ifvqfe0","pricing_plan_id":"cebpf4jnsgd1na2vs0mg"},{"bike_id":"d187580b-68ea-4e8d-80cf-1e9c8892794c","system_id":"levelo_inurba_marseille","lat":43.26796,"lon":5.40262,"is_reserved":false,"is_disabled":false,"rental_uris":{"android":"levelo://app?vid=d187580b-68ea-4e8d-80cf-1e9c8892794c","ios":"levelo://app?vid=d187580b-68ea-4e8d-80cf-1e9c8892794c"},"vehicle_type_id":"4","last_reported":1734199917,"current_range_meters":8400,"station_id":"ce501612rcd8frsf0b60","pricing_plan_id":"cebpf4jnsgd1na2vs0mg"},{"bike_id":"0f4eef30-7e29-408b-8ee3-419dc1a14b44","system_id":"levelo_inurba_marseille","lat":43.26786,"lon":5.39416,"is_reserved":false,"is_disabled":false,"rental_uris":{"android":"levelo://app?vid=0f4eef30-7e29-408b-8ee3-419dc1a14b44","ios":"levelo://app?vid=0f4eef30-7e29-408b-8ee3-419dc1a14b44"},"vehicle_type_id":"4","last_reported":1734199917,"current_range_meters":23200,"station_id":"ce4bhh12rcd13ifvqfg0","pricing_plan_id":"cebpf4jnsgd1na2vs0mg"},{"bike_id":"1db2f970-5265-4d1c-9409-dcb94368126a","system_id":"levelo_inurba_marseille","lat":43.30135,"lon":5.39867,"is_reserved":false,"is_disabled":false,"rental_uris":{"android":"levelo://app?vid=1db2f970-5265-4d1c-9409-dcb94368126a","ios":"levelo://app?vid=1db2f970-5265-4d1c-9409-dcb94368126a"},"vehicle_type_id":"4","last_reported":1734199917,"current_range_meters":7200,"station_id":"ce4bh0h2rcd13ifvqd40","pricing_plan_id":"cebpf4jnsgd1na2vs0mg"},{"bike_id":"ca3bf6a0-806c-4046-b219-bbea4c2ba646","system_id":"levelo_inurba_marseille","lat":43.23197,"lon":5.3555,"is_reserved":false,"is_disabled":false,"rental_uris":{"android":"levelo://app?vid=ca3bf6a0-806c-4046-b219-bbea4c2ba646","ios":"levelo://app?vid=ca3bf6a0-806c-4046-b219-bbea4c2ba646"},"vehicle_type_id":"4","last_reported":1734199917,"current_range_meters":39200,"station_id":"ce4bhu92rcd13ifvqi70","pricing_plan_id":"cebpf4jnsgd1na2vs0mg"},{"bike_id":"166ac817-001a-4993-9d7c-99ef7f3463aa","system_id":"levelo_inurba_marseille","lat":43.29255,"lon":5.38435,"is_reserved":false,"is_disabled":true,"rental_uris":{"android":"levelo://app?vid=166ac817-001a-4993-9d7c-99ef7f3463aa","ios":"levelo://app?vid=166ac817-001a-4993-9d7c-99ef7f3463aa"},"vehicle_type_id":"4","last_reported":1734199917,"current_range_meters":22800,"station_id":"ce4bh692rcd13ifvqea0","pricing_plan_id":"cebpf4jnsgd1na2vs0mg"},{"bike_id":"f899fe25-c462-4e5f-90d6-dc9402b06a1d","system_id":"levelo_inurba_marseille","lat":43.23958,"lon":5.36625,"is_reserved":false,"is_disabled":true,"rental_uris":{"android":"levelo://app?vid=f899fe25-c462-4e5f-90d6-dc9402b06a1d","ios":"levelo://app?vid=f899fe25-c462-4e5f-90d6-dc9402b06a1d"},"vehicle_type_id":"4","last_reported":1734199917,"current_range_meters":1200,"station_id":"ce4bhi12rcd13ifvqfp0","pricing_plan_id":"cebpf4jnsgd1na2vs0mg"},{"bike_id":"46b2fdec-0870-4ae2-84dc-b1f57512351e","system_id":"levelo_inurba_marseille","lat":43.337444,"lon":5.374475,"is_reserved":false,"is_disabled":true,"rental_uris":{"android":"levelo://app?vid=46b2fdec-0870-4ae2-84dc-b1f57512351e","ios":"levelo://app?vid=46b2fdec-0870-4ae2-84dc-b1f57512351e"},"vehicle_type_id":"4","last_reported":1734199917,"current_range_meters":0,"station_id":"","pricing_plan_id":"cebpf4jnsgd1na2vs0mg"},{"bike_id":"e07f8927-8121-4133-911c-f4fdbcb240cf","system_id":"levelo_inurba_marseille","lat":43.33769,"lon":5.37422,"is_reserved":false,"is_disabled":true,"rental_uris":{"android":"levelo://app?vid=e07f8927-8121-4133-911c-f4fdbcb240cf","ios":"levelo://app?vid=e07f8927-8121-4133-911c-f4fdbcb240cf"},"vehicle_type_id":"4","last_reported":1734199917,"current_range_meters":0,"station_id":"","pricing_plan_id":"cebpf4jnsgd1na2vs0mg"},{"bike_id":"4e7ee24a-cfb2-422e-b3c8-cbadc8f786cc","system_id":"levelo_inurba_marseille","lat":43.30253,"lon":5.40048,"is_reserved":false,"is_disabled":false,"rental_uris":{"android":"levelo://app?vid=4e7ee24a-cfb2-422e-b3c8-cbadc8f786cc","ios":"levelo://app?vid=4e7ee24a-cfb2-422e-b3c8-cbadc8f786cc"},"vehicle_type_id":"4","last_reported":1734199917,"current_range_meters":2800,"station_id":"ce4bgvh2rcd13ifvqcs0","pricing_plan_id":"cebpf4jnsgd1na2vs0mg"},{"bike_id":"a5d687de-d8b2-4ae6-b607-1f2d777eef2b","system_id":"levelo_inurba_marseille","lat":43.25864,"lon":5.39892,"is_reserved":false,"is_disabled":false,"rental_uris":{"android":"levelo://app?vid=a5d687de-d8b2-4ae6-b607-1f2d777eef2b","ios":"levelo://app?vid=a5d687de-d8b2-4ae6-b607-1f2d777eef2b"},"vehicle_type_id":"4","last_reported":1734199917,"current_range_meters":28400,"station_id":"ce4bhl92rcd13ifvqghg","pricing_plan_id":"cebpf4jnsgd1na2vs0mg"},{"bike_id":"8f443446-4ce3-411b-8d27-476e1c0af428","system_id":"levelo_inurba_marseille","lat":43.25086,"lon":5.39507,"is_reserved":false,"is_disabled":false,"rental_uris":{"android":"levelo://app?vid=8f443446-4ce3-411b-8d27-476e1c0af428","ios":"levelo://app?vid=8f443446-4ce3-411b-8d27-476e1c0af428"},"vehicle_type_id":"4","last_reported":1734199917,"current_range_meters":38000,"station_id":"ce4bhm12rcd13ifvqgkg","pricing_plan_id":"cebpf4jnsgd1na2vs0mg"},{"bike_id":"c14aec5a-e622-4633-a711-4f98660f47b9","system_id":"levelo_inurba_marseille","lat":43.27989,"lon":5.41654,"is_reserved":false,"is_disabled":false,"rental_uris":{"android":"levelo://app?vid=c14aec5a-e622-4633-a711-4f98660f47b9","ios":"levelo://app?vid=c14aec5a-e622-4633-a711-4f98660f47b9"},"vehicle_type_id":"4","last_reported":1734199917,"current_range_meters":36000,"station_id":"ce4bho12rcd13ifvqh1g","pricing_plan_id":"cebpf4jnsgd1na2vs0mg"},{"bike_id":"9a270530-17e4-4702-8326-5274e60a68c9","system_id":"levelo_inurba_marseille","lat":43.29991,"lon":5.37177,"is_reserved":false,"is_disabled":false,"rental_uris":{"android":"levelo://app?vid=9a270530-17e4-4702-8326-5274e60a68c9","ios":"levelo://app?vid=9a270530-17e4-4702-8326-5274e60a68c9"},"vehicle_type_id":"4","last_reported":1734199917,"current_range_meters":17200,"station_id":"ce4bgr92rcd13ifvqc7g","pricing_plan_id":"cebpf4jnsgd1na2vs0mg"},{"bike_id":"5f11fdd9-45f0-4d70-8224-eef136d43616","system_id":"levelo_inurba_marseille","lat":43.27203,"lon":5.40983,"is_reserved":false,"is_disabled":false,"rental_uris":{"android":"levelo://app?vid=5f11fdd9-45f0-4d70-8224-eef136d43616","ios":"levelo://app?vid=5f11fdd9-45f0-4d70-8224-eef136d43616"},"vehicle_type_id":"4","last_reported":1734199917,"current_range_meters":32800,"station_id":"ce4bhl12rcd13ifvqgf0","pricing_plan_id":"cebpf4jnsgd1na2vs0mg"},{"bike_id":"554afc20-c73a-4ace-ac12-144dcede64be","system_id":"levelo_inurba_marseille","lat":43.2917,"lon":5.37139,"is_reserved":false,"is_disabled":false,"rental_uris":{"android":"levelo://app?vid=554afc20-c73a-4ace-ac12-144dcede64be","ios":"levelo://app?vid=554afc20-c73a-4ace-ac12-144dcede64be"},"vehicle_type_id":"4","last_reported":1734199917,"current_range_meters":3600,"station_id":"ce4bha92rcd13ifvqeh0","pricing_plan_id":"cebpf4jnsgd1na2vs0mg"},{"bike_id":"0e7799bf-b3f4-4748-a553-10a881d636ec","system_id":"levelo_inurba_marseille","lat":43.27944,"lon":5.41048,"is_reserved":false,"is_disabled":true,"rental_uris":{"android":"levelo://app?vid=0e7799bf-b3f4-4748-a553-10a881d636ec","ios":"levelo://app?vid=0e7799bf-b3f4-4748-a553-10a881d636ec"},"vehicle_type_id":"4","last_reported":1734199917,"current_range_meters":0,"station_id":"ce4bhnp2rcd13ifvqh0g","pricing_plan_id":"cebpf4jnsgd1na2vs0mg"},{"bike_id":"e046a9ad-69c3-4bd6-bc6e-fef962789027","system_id":"levelo_inurba_marseille","lat":43.29525,"lon":5.39049,"is_reserved":false,"is_disabled":false,"rental_uris":{"android":"levelo://app?vid=e046a9ad-69c3-4bd6-bc6e-fef962789027","ios":"levelo://app?vid=e046a9ad-69c3-4bd6-bc6e-fef962789027"},"vehicle_type_id":"4","last_reported":1734199917,"current_range_meters":30800,"station_id":"ce4bh3p2rcd13ifvqdp0","pricing_plan_id":"cebpf4jnsgd1na2vs0mg"},{"bike_id":"97a9e1ed-92d5-43d0-bcfb-e2719b9f7727","system_id":"levelo_inurba_marseille","lat":43.28938,"lon":5.39627,"is_reserved":false,"is_disabled":false,"rental_uris":{"android":"levelo://app?vid=97a9e1ed-92d5-43d0-bcfb-e2719b9f7727","ios":"levelo://app?vid=97a9e1ed-92d5-43d0-bcfb-e2719b9f7727"},"vehicle_type_id":"4","last_reported":1734199917,"current_range_meters":19200,"station_id":"ce4bh3h2rcd13ifvqdn0","pricing_plan_id":"cebpf4jnsgd1na2vs0mg"},{"bike_id":"ffd97b5b-ca47-4f84-9a9f-e7fe9e97517d","system_id":"levelo_inurba_marseille","lat":43.3046,"lon":5.37903,"is_reserved":false,"is_disabled":false,"rental_uris":{"android":"levelo://app?vid=ffd97b5b-ca47-4f84-9a9f-e7fe9e97517d","ios":"levelo://app?vid=ffd97b5b-ca47-4f84-9a9f-e7fe9e97517d"},"vehicle_type_id":"4","last_reported":1734199917,"current_range_meters":20000,"station_id":"ce4bgup2rcd13ifvqcn0","pricing_plan_id":"cebpf4jnsgd1na2vs0mg"},{"bike_id":"643822bb-6901-45e7-929b-0b1c28554b19","system_id":"levelo_inurba_marseille","lat":43.2994,"lon":5.38132,"is_reserved":false,"is_disabled":false,"rental_uris":{"android":"levelo://app?vid=643822bb-6901-45e7-929b-0b1c28554b19","ios":"levelo://app?vid=643822bb-6901-45e7-929b-0b1c28554b19"},"vehicle_type_id":"4","last_reported":1734199917,"current_range_meters":28800,"station_id":"ce4bgj12rcd13ifvqbc0","pricing_plan_id":"cebpf4jnsgd1na2vs0mg"},{"bike_id":"126f1b95-5003-427a-b87e-0aaaba9de4f6","system_id":"levelo_inurba_marseille","lat":43.30949,"lon":5.39027,"is_reserved":false,"is_disabled":false,"rental_uris":{"android":"levelo://app?vid=126f1b95-5003-427a-b87e-0aaaba9de4f6","ios":"levelo://app?vid=126f1b95-5003-427a-b87e-0aaaba9de4f6"},"vehicle_type_id":"4","last_reported":1734199917,"current_range_meters":16800,"station_id":"ce4bgt12rcd13ifvqce0","pricing_plan_id":"cebpf4jnsgd1na2vs0mg"},{"bike_id":"56507b90-3fc2-4a31-8b06-2733830cfd4a","system_id":"levelo_inurba_marseille","lat":43.26942,"lon":5.40256,"is_reserved":false,"is_disabled":true,"rental_uris":{"android":"levelo://app?vid=56507b90-3fc2-4a31-8b06-2733830cfd4a","ios":"levelo://app?vid=56507b90-3fc2-4a31-8b06-2733830cfd4a"},"vehicle_type_id":"4","last_reported":1734199917,"current_range_meters":0,"station_id":"cjm6bp8fraef2m0cb0m0","pricing_plan_id":"cebpf4jnsgd1na2vs0mg"},{"bike_id":"6d05f7ba-808a-4403-b1f3-f8483fec843c","system_id":"levelo_inurba_marseille","lat":43.23196,"lon":5.35562,"is_reserved":false,"is_disabled":false,"rental_uris":{"android":"levelo://app?vid=6d05f7ba-808a-4403-b1f3-f8483fec843c","ios":"levelo://app?vid=6d05f7ba-808a-4403-b1f3-f8483fec843c"},"vehicle_type_id":"4","last_reported":1734199917,"current_range_meters":21600,"station_id":"ce4bhu92rcd13ifvqi70","pricing_plan_id":"cebpf4jnsgd1na2vs0mg"},{"bike_id":"a0b89159-70a1-4f4a-b88f-d6f74fb0338c","system_id":"levelo_inurba_marseille","lat":43.304634,"lon":5.379016,"is_reserved":false,"is_disabled":false,"rental_uris":{"android":"levelo://app?vid=a0b89159-70a1-4f4a-b88f-d6f74fb0338c","ios":"levelo://app?vid=a0b89159-70a1-4f4a-b88f-d6f74fb0338c"},"vehicle_type_id":"4","last_reported":1734199917,"current_range_meters":24400,"station_id":"ce4bgup2rcd13ifvqcn0","pricing_plan_id":"cebpf4jnsgd1na2vs0mg"},{"bike_id":"186b5924-54c0-427c-b1b1-f15aed0a8f8e","system_id":"levelo_inurba_marseille","lat":43.28262,"lon":5.35057,"is_reserved":false,"is_disabled":false,"rental_uris":{"android":"levelo://app?vid=186b5924-54c0-427c-b1b1-f15aed0a8f8e","ios":"levelo://app?vid=186b5924-54c0-427c-b1b1-f15aed0a8f8e"},"vehicle_type_id":"4","last_reported":1734199917,"current_range_meters":12400,"station_id":"ce4bhbp2rcd13ifvqerg","pricing_plan_id":"cebpf4jnsgd1na2vs0mg"},{"bike_id":"bf49b0fe-3e5d-47ba-91ea-90696956dd1e","system_id":"levelo_inurba_marseille","lat":43.25862,"lon":5.39894,"is_reserved":false,"is_disabled":false,"rental_uris":{"android":"levelo://app?vid=bf49b0fe-3e5d-47ba-91ea-90696956dd1e","ios":"levelo://app?vid=bf49b0fe-3e5d-47ba-91ea-90696956dd1e"},"vehicle_type_id":"4","last_reported":1734199917,"current_range_meters":38800,"station_id":"ce4bhl92rcd13ifvqghg","pricing_plan_id":"cebpf4jnsgd1na2vs0mg"},{"bike_id":"a5397efa-629d-4917-8594-0532aea74fe2","system_id":"levelo_inurba_marseille","lat":43.28461,"lon":5.35891,"is_reserved":false,"is_disabled":true,"rental_uris":{"android":"levelo://app?vid=a5397efa-629d-4917-8594-0532aea74fe2","ios":"levelo://app?vid=a5397efa-629d-4917-8594-0532aea74fe2"},"vehicle_type_id":"4","last_reported":1734199917,"current_range_meters":11200,"station_id":"ce4bhah2rcd13ifvqei0","pricing_plan_id":"cebpf4jnsgd1na2vs0mg"},{"bike_id":"4185ff30-f319-41a9-a844-9c74d0f4818d","system_id":"levelo_inurba_marseille","lat":43.2988,"lon":5.36387,"is_reserved":false,"is_disabled":false,"rental_uris":{"android":"levelo://app?vid=4185ff30-f319-41a9-a844-9c74d0f4818d","ios":"levelo://app?vid=4185ff30-f319-41a9-a844-9c74d0f4818d"},"vehicle_type_id":"4","last_reported":1734199917,"current_range_meters":27600,"station_id":"","pricing_plan_id":"cebpf4jnsgd1na2vs0mg"},{"bike_id":"0357af79-fc6a-40c3-84b6-80121574d3a7","system_id":"levelo_inurba_marseille","lat":43.27913,"lon":5.39583,"is_reserved":false,"is_disabled":true,"rental_uris":{"android":"levelo://app?vid=0357af79-fc6a-40c3-84b6-80121574d3a7","ios":"levelo://app?vid=0357af79-fc6a-40c3-84b6-80121574d3a7"},"vehicle_type_id":"4","last_reported":1734199917,"current_range_meters":0,"station_id":"ce4bhf92rcd13ifvqf40","pricing_plan_id":"cebpf4jnsgd1na2vs0mg"},{"bike_id":"9c8c1480-9ffa-4086-913c-c2125a6eb848","system_id":"levelo_inurba_marseille","lat":43.22933,"lon":5.35377,"is_reserved":false,"is_disabled":false,"rental_uris":{"android":"levelo://app?vid=9c8c1480-9ffa-4086-913c-c2125a6eb848","ios":"levelo://app?vid=9c8c1480-9ffa-4086-913c-c2125a6eb848"},"vehicle_type_id":"4","last_reported":1734199917,"current_range_meters":27200,"station_id":"cpo3532slgdg3j2ikp40","pricing_plan_id":"cebpf4jnsgd1na2vs0mg"},{"bike_id":"bcf74671-8c62-40b9-aa07-77db84144656","system_id":"levelo_inurba_marseille","lat":43.22928,"lon":5.35375,"is_reserved":false,"is_disabled":false,"rental_uris":{"android":"levelo://app?vid=bcf74671-8c62-40b9-aa07-77db84144656","ios":"levelo://app?vid=bcf74671-8c62-40b9-aa07-77db84144656"},"vehicle_type_id":"4","last_reported":1734199917,"current_range_meters":39200,"station_id":"cpo3532slgdg3j2ikp40","pricing_plan_id":"cebpf4jnsgd1na2vs0mg"},{"bike_id":"27543ea0-5848-42ce-937a-9e296c92949a","system_id":"levelo_inurba_marseille","lat":43.30597,"lon":5.37211,"is_reserved":false,"is_disabled":false,"rental_uris":{"android":"levelo://app?vid=27543ea0-5848-42ce-937a-9e296c92949a","ios":"levelo://app?vid=27543ea0-5848-42ce-937a-9e296c92949a"},"vehicle_type_id":"4","last_reported":1734199917,"current_range_meters":17200,"station_id":"ce4bgqh2rcd13ifvqc4g","pricing_plan_id":"cebpf4jnsgd1na2vs0mg"},{"bike_id":"2f02d2ff-2539-48ba-b3e2-a88aa6a9880c","system_id":"levelo_inurba_marseille","lat":43.29511,"lon":5.39397,"is_reserved":false,"is_disabled":false,"rental_uris":{"android":"levelo://app?vid=2f02d2ff-2539-48ba-b3e2-a88aa6a9880c","ios":"levelo://app?vid=2f02d2ff-2539-48ba-b3e2-a88aa6a9880c"},"vehicle_type_id":"4","last_reported":1734199917,"current_range_meters":30000,"station_id":"ce4bh292rcd13ifvqdf0","pricing_plan_id":"cebpf4jnsgd1na2vs0mg"},{"bike_id":"6787b92d-2fd8-48b3-bc52-9b2ec5d0c5d4","system_id":"levelo_inurba_marseille","lat":43.30481,"lon":5.36576,"is_reserved":false,"is_disabled":true,"rental_uris":{"android":"levelo://app?vid=6787b92d-2fd8-48b3-bc52-9b2ec5d0c5d4","ios":"levelo://app?vid=6787b92d-2fd8-48b3-bc52-9b2ec5d0c5d4"},"vehicle_type_id":"4","last_reported":1734199917,"current_range_meters":0,"station_id":"","pricing_plan_id":"cebpf4jnsgd1na2vs0mg"},{"bike_id":"9d5f11ae-e28b-41c9-9497-65a3dd46a68e","system_id":"levelo_inurba_marseille","lat":43.29486,"lon":5.3747,"is_reserved":false,"is_disabled":false,"rental_uris":{"android":"levelo://app?vid=9d5f11ae-e28b-41c9-9497-65a3dd46a68e","ios":"levelo://app?vid=9d5f11ae-e28b-41c9-9497-65a3dd46a68e"},"vehicle_type_id":"4","last_reported":1734199917,"current_range_meters":33200,"station_id":"","pricing_plan_id":"cebpf4jnsgd1na2vs0mg"},{"bike_id":"a49c8a43-6aa0-466a-aafc-992b9b807122","system_id":"levelo_inurba_marseille","lat":43.24175,"lon":5.36412,"is_reserved":false,"is_disabled":false,"rental_uris":{"android":"levelo://app?vid=a49c8a43-6aa0-466a-aafc-992b9b807122","ios":"levelo://app?vid=a49c8a43-6aa0-466a-aafc-992b9b807122"},"vehicle_type_id":"4","last_reported":1734199917,"current_range_meters":34000,"station_id":"cpo36qri1sfpv3e86is0","pricing_plan_id":"cebpf4jnsgd1na2vs0mg"},{"bike_id":"2af0499f-49de-4fbc-8b9a-293fd4ad3823","system_id":"levelo_inurba_marseille","lat":43.30258,"lon":5.40087,"is_reserved":false,"is_disabled":false,"rental_uris":{"android":"levelo://app?vid=2af0499f-49de-4fbc-8b9a-293fd4ad3823","ios":"levelo://app?vid=2af0499f-49de-4fbc-8b9a-293fd4ad3823"},"vehicle_type_id":"4","last_reported":1734199917,"current_range_meters":12400,"station_id":"ce4bgvh2rcd13ifvqcs0","pricing_plan_id":"cebpf4jnsgd1na2vs0mg"},{"bike_id":"fa23f5ed-073a-4bbe-8ac6-8e0b3f714056","system_id":"levelo_inurba_marseille","lat":43.30467,"lon":5.37917,"is_reserved":false,"is_disabled":false,"rental_uris":{"android":"levelo://app?vid=fa23f5ed-073a-4bbe-8ac6-8e0b3f714056","ios":"levelo://app?vid=fa23f5ed-073a-4bbe-8ac6-8e0b3f714056"},"vehicle_type_id":"4","last_reported":1734199917,"current_range_meters":39200,"station_id":"ce4bgup2rcd13ifvqcn0","pricing_plan_id":"cebpf4jnsgd1na2vs0mg"},{"bike_id":"bb898b36-76c9-44d8-bbe0-9ef12884fa74","system_id":"levelo_inurba_marseille","lat":43.32335,"lon":5.40624,"is_reserved":false,"is_disabled":false,"rental_uris":{"android":"levelo://app?vid=bb898b36-76c9-44d8-bbe0-9ef12884fa74","ios":"levelo://app?vid=bb898b36-76c9-44d8-bbe0-9ef12884fa74"},"vehicle_type_id":"4","last_reported":1734199917,"current_range_meters":35200,"station_id":"ce4bhq92rcd13ifvqhjg","pricing_plan_id":"cebpf4jnsgd1na2vs0mg"},{"bike_id":"9f5e97a0-5e48-48fb-8bca-35f6f13ae034","system_id":"levelo_inurba_marseille","lat":43.29888,"lon":5.38905,"is_reserved":false,"is_disabled":true,"rental_uris":{"android":"levelo://app?vid=9f5e97a0-5e48-48fb-8bca-35f6f13ae034","ios":"levelo://app?vid=9f5e97a0-5e48-48fb-8bca-35f6f13ae034"},"vehicle_type_id":"4","last_reported":1734199917,"current_range_meters":0,"station_id":"ce4bh392rcd13ifvqdl0","pricing_plan_id":"cebpf4jnsgd1na2vs0mg"},{"bike_id":"2b1f85eb-86bb-49c3-ab76-1e8dce8944ef","system_id":"levelo_inurba_marseille","lat":43.28929,"lon":5.39625,"is_reserved":false,"is_disabled":false,"rental_uris":{"android":"levelo://app?vid=2b1f85eb-86bb-49c3-ab76-1e8dce8944ef","ios":"levelo://app?vid=2b1f85eb-86bb-49c3-ab76-1e8dce8944ef"},"vehicle_type_id":"4","last_reported":1734199917,"current_range_meters":20800,"station_id":"ce4bh3h2rcd13ifvqdn0","pricing_plan_id":"cebpf4jnsgd1na2vs0mg"},{"bike_id":"71862716-c1e1-4038-968a-34bc10830750","system_id":"levelo_inurba_marseille","lat":43.29217,"lon":5.36065,"is_reserved":false,"is_disabled":true,"rental_uris":{"android":"levelo://app?vid=71862716-c1e1-4038-968a-34bc10830750","ios":"levelo://app?vid=71862716-c1e1-4038-968a-34bc10830750"},"vehicle_type_id":"4","last_reported":1734199917,"current_range_meters":0,"station_id":"ce4bhbh2rcd13ifvqeqg","pricing_plan_id":"cebpf4jnsgd1na2vs0mg"},{"bike_id":"86e7eccb-88b3-47a3-8c2d-6b025b037a8f","system_id":"levelo_inurba_marseille","lat":43.2928,"lon":5.36843,"is_reserved":false,"is_disabled":false,"rental_uris":{"android":"levelo://app?vid=86e7eccb-88b3-47a3-8c2d-6b025b037a8f","ios":"levelo://app?vid=86e7eccb-88b3-47a3-8c2d-6b025b037a8f"},"vehicle_type_id":"4","last_reported":1734199917,"current_range_meters":34000,"station_id":"ce4bhbp2rcd13ifvqesg","pricing_plan_id":"cebpf4jnsgd1na2vs0mg"},{"bike_id":"6bcce123-f4df-48f5-9642-2646a11b0022","system_id":"levelo_inurba_marseille","lat":43.29076,"lon":5.37155,"is_reserved":false,"is_disabled":false,"rental_uris":{"android":"levelo://app?vid=6bcce123-f4df-48f5-9642-2646a11b0022","ios":"levelo://app?vid=6bcce123-f4df-48f5-9642-2646a11b0022"},"vehicle_type_id":"4","last_reported":1734199917,"current_range_meters":24800,"station_id":"ce4bh5p2rcd13ifvqe4g","pricing_plan_id":"cebpf4jnsgd1na2vs0mg"},