{"last_updated":1750237924,"ttl":60,"version":"2.2","data":{"bikes":[{"bike_id":"3da29fb8-fc97-44c6-b9ac-31dd456b2fd4","system_id":"levelo_inurba_marseille","lat":43.33771,"lon":5.37424,"is_reserved":false,"is_disabled":true,"rental_uris":{"android":"levelo://app?vid=3da29fb8-fc97-44c6-b9ac-31dd456b2fd4","ios":"levelo://app?vid=3da29fb8-fc97-44c6-b9ac-31dd456b2fd4"},"vehicle_type_id":"4","last_reported":1750237925,"current_range_meters":0,"station_id":"","pricing_plan_id":"cebpf4jnsgd1na2vs0mg"},{"bike_id":"01861ad8-a8d7-4be6-816e-651927c87584","system_id":"levelo_inurba_marseille","lat":43.33751,"lon":5.37456,"is_reserved":false,"is_disabled":true,"rental_uris":{"android":"levelo://app?vid=01861ad8-a8d7-4be6-816e-651927c87584","ios":"levelo://app?vid=01861ad8-a8d7-4be6-816e-651927c87584"},"vehicle_type_id":"4","last_reported":1750237925,"current_range_meters":0,"station_id":"","pricing_plan_id":"cebpf4jnsgd1na2vs0mg"},{"bike_id":"dbfce7a3-3423-4296-b193-a177dea644ac","system_id":"levelo_inurba_marseille","lat":43.27289,"lon":5.41606,"is_reserved":false,"is_disabled":true,"rental_uris":{"android":"levelo://app?vid=dbfce7a3-3423-4296-b193-a177dea644ac","ios":"levelo://app?vid=dbfce7a3-3423-4296-b193-a177dea644ac"},"vehicle_type_id":"4","last_reported":1750237925,"current_range_meters":0,"station_id":"","pricing_plan_id":"cebpf4jnsgd1na2vs0mg"},{"bike_id":"8d297b38-f666-4a46-9dee-0132f800019c","system_id":"levelo_inurba_marseille","lat":43.322,"lon":5.38561,"is_reserved":false,"is_disabled":true,"rental_uris":{"android":"levelo://app?vid=8d297b38-f666-4a46-9dee-0132f800019c","ios":"levelo://app?vid=8d297b38-f666-4a46-9dee-0132f800019c"},"vehicle_type_id":"4","last_reported":1750237925,"current_range_meters":0,"station_id":"","pricing_plan_id":"cebpf4jnsgd1na2vs0mg"},{"bike_id":"d2bd57c8-6b64-48db-ad24-5398eb3fd9d6","system_id":"levelo_inurba_marseille","lat":43.337444,"lon":5.374475,"is_reserved":false,"is_disabled":true,"rental_uris":{"android":"levelo://app?vid=d2bd57c8-6b64-48db-ad24-5398eb3fd9d6","ios":"levelo://app?vid=d2bd57c8-6b64-48db-ad24-5398eb3fd9d6"},"vehicle_type_id":"4","last_reported":1750237925,"current_range_meters":0,"station_id":"","pricing_plan_id":"cebpf4jnsgd1na2vs0mg"},{"bike_id":"5170252d-8bbb-4100-a2df-8f8b2e5e53eb","system_id":"levelo_inurba_marseille","lat":43.337669,"lon":5.374828,"is_reserved":false,"is_disabled":true,"rental_uris":{"android":"levelo://app?vid=5170252d-8bbb-4100-a2df-8f8b2e5e53eb","ios":"levelo://app?vid=5170252d-8bbb-4100-a2df-8f8b2e5e53eb"},"vehicle_type_id":"4","last_reported":1750237925,"current_range_meters":0,"station_id":"","pricing_plan_id":"cebpf4jnsgd1na2vs0mg"},{"bike_id":"62a493c7-4534-4419-ad43-0582de34a72a","system_id":"levelo_inurba_marseille","lat":43.21366,"lon":5.355183,"is_reserved":false,"is_disabled":true,"rental_uris":{"android":"levelo://app?vid=62a493c7-4534-4419-ad43-0582de34a72a","ios":"levelo://app?vid=62a493c7-4534-4419-ad43-0582de34a72a"},"vehicle_type_id":"4","last_reported":1750237925,"current_range_meters":0,"station_id":"","pricing_plan_id":"cebpf4jnsgd1na2vs0mg"},{"bike_id":"b9e37238-9abe-4b8b-b932-edaee33a7e59","system_id":"levelo_inurba_marseille","lat":43.27496,"lon":5.3899,"is_reserved":false,"is_disabled":true,"rental_uris":{"android":"levelo://app?vid=b9e37238-9abe-4b8b-b932-edaee33a7e59","ios":"levelo://app?vid=b9e37238-9abe-4b8b-b932-edaee33a7e59"},"vehicle_type_id":"4","last_reported":1750237925,"current_range_meters":0,"station_id":"","pricing_plan_id":"cebpf4jnsgd1na2vs0mg"},{"bike_id":"cba28a02-9f06-41dd-8645-e3bd321e07ba","system_id":"levelo_inurba_marseille","lat":43.28799,"lon":5.38711,"is_reserved":false,"is_disabled":true,"rental_uris":{"android":"levelo://app?vid=cba28a02-9f06-41dd-8645-e3bd321e07ba","ios":"levelo://app?vid=cba28a02-9f06-41dd-8645-e3bd321e07ba"},"vehicle_type_id":"4","last_reported":1750237925,"current_range_meters":0,"station_id":"","pricing_plan_id":"cebpf4jnsgd1na2vs0mg"},{"bike_id":"dba623ec-664c-4621-8832-8f9cf82566ea","system_id":"levelo_inurba_marseille","lat":43.28018,"lon":5.36854,"is_reserved":false,"is_disabled":true,"rental_uris":{"android":"levelo://app?vid=dba623ec-664c-4621-8832-8f9cf82566ea","ios":"levelo://app?vid=dba623ec-664c-4621-8832-8f9cf82566ea"},"vehicle_type_id":"4","last_reported":1750237925,"current_range_meters":0,"station_id":"","pricing_plan_id":"cebpf4jnsgd1na2vs0mg"},{"bike_id":"8ad9234e-001a-4549-8bba-9baf2ef98804","system_id":"levelo_inurba_marseille","lat":43.27423,"lon":5.3977,"is_reserved":false,"is_disabled":true,"rental_uris":{"android":"levelo://app?vid=8ad9234e-001a-4549-8bba-9baf2ef98804","ios":"levelo://app?vid=8ad9234e-001a-4549-8bba-9baf2ef98804"},"vehicle_type_id":"4","last_reported":1750237925,"current_range_meters":0,"station_id":"","pricing_plan_id":"cebpf4jnsgd1na2vs0mg"},{"bike_id":"93af304b-67b5-47b8-a3fd-e0775f7cde8c","system_id":"levelo_inurba_marseille","lat":43.21535,"lon":5.34738,"is_reserved":false,"is_disabled":true,"rental_uris":{"android":"levelo://app?vid=93af304b-67b5-47b8-a3fd-e0775f7cde8c","ios":"levelo://app?vid=93af304b-67b5-47b8-a3fd-e0775f7cde8c"},"vehicle_type_id":"4","last_reported":1750237925,"current_range_meters":0,"station_id":"","pricing_plan_id":"cebpf4jnsgd1na2vs0mg"},{"bike_id":"d6609b4f-333b-43c1-9ebe-8726f5e76e88","system_id":"levelo_inurba_marseille","lat":43.337444,"lon":5.374475,"is_reserved":false,"is_disabled":true,"rental_uris":{"android":"levelo://app?vid=d6609b4f-333b-43c1-9ebe-8726f5e76e88","ios":"levelo://app?vid=d6609b4f-333b-43c1-9ebe-8726f5e76e88"},"vehicle_type_id":"4","last_reported":1750237925,"current_range_meters":0,"station_id":"","pricing_plan_id":"cebpf4jnsgd1na2vs0mg"},{"bike_id":"57c83ce1-960e-466a-b6c5-d93bc130c53a","system_id":"levelo_inurba_marseille","lat":43.24917,"lon":5.38965,"is_reserved":false,"is_disabled":true,"rental_uris":{"android":"levelo://app?vid=57c83ce1-960e-466a-b6c5-d93bc130c53a","ios":"levelo://app?vid=57c83ce1-960e-466a-b6c5-d93bc130c53a"},"vehicle_type_id":"4","last_reported":1750237925,"current_range_meters":0,"station_id":"","pricing_plan_id":"cebpf4jnsgd1na2vs0mg"},{"bike_id":"e4c622ee-e7b4-4a14-b6ed-380c43b0e622","system_id":"levelo_inurba_marseille","lat":43.29302,"lon":5.37426,"is_reserved":false,"is_disabled":true,"rental_uris":{"android":"levelo://app?vid=e4c622ee-e7b4-4a14-b6ed-380c43b0e622","ios":"levelo://app?vid=e4c622ee-e7b4-4a14-b6ed-380c43b0e622"},"vehicle_type_id":"4","last_reported":1750237925,"current_range_meters":0,"station_id":"ce4bgi12rcd13ifvqb70","pricing_plan_id":"cebpf4jnsgd1na2vs0mg"},{"bike_id":"a66f9a11-57f8-4332-804d-288df896e97d","system_id":"levelo_inurba_marseille","lat":43.29377,"lon":5.3787,"is_reserved":false,"is_disabled":true,"rental_uris":{"android":"levelo://app?vid=a66f9a11-57f8-4332-804d-288df896e97d","ios":"levelo://app?vid=a66f9a11-57f8-4332-804d-288df896e97d"},"vehicle_type_id":"4","last_reported":1750237925,"current_range_meters":0,"station_id":"ce4bgjh2rcd13ifvqbf0","pricing_plan_id":"cebpf4jnsgd1na2vs0mg"},{"bike_id":"a8fbb357-a0d3-405c-a985-77c937c6c773","system_id":"levelo_inurba_marseille","lat":43.30293,"lon":5.39208,"is_reserved":false,"is_disabled":true,"rental_uris":{"android":"levelo://app?vid=a8fbb357-a0d3-405c-a985-77c937c6c773","ios":"levelo://app?vid=a8fbb357-a0d3-405c-a985-77c937c6c773"},"vehicle_type_id":"4","last_reported":1750237925,"current_range_meters":0,"station_id":"ce4bgkh2rcd13ifvqbk0","pricing_plan_id":"cebpf4jnsgd1na2vs0mg"},{"bike_id":"5db0a1d6-b254-4b65-b638-b4da95add725","system_id":"levelo_inurba_marseille","lat":43.29868,"lon":5.39734,"is_reserved":false,"is_disabled":true,"rental_uris":{"android":"levelo://app?vid=5db0a1d6-b254-4b65-b638-b4da95add725","ios":"levelo://app?vid=5db0a1d6-b254-4b65-b638-b4da95add725"},"vehicle_type_id":"4","last_reported":1750237925,"current_range_meters":0,"station_id":"ce4bh0h2rcd13ifvqd50","pricing_plan_id":"cebpf4jnsgd1na2vs0mg"},{"bike_id":"da0a0ff6-80d3-469f-a9da-a30900a95528","system_id":"levelo_inurba_marseille","lat":43.25495,"lon":5.37647,"is_reserved":false,"is_disabled":true,"rental_uris":{"android":"levelo://app?vid=da0a0ff6-80d3-469f-a9da-a30900a95528","ios":"levelo://app?vid=da0a0ff6-80d3-469f-a9da-a30900a95528"},"vehicle_type_id":"4","last_reported":1750237925,"current_range_meters":0,"station_id":"ce4bhh12rcd13ifvqff0","pricing_plan_id":"cebpf4jnsgd1na2vs0mg"},{"bike_id":"e6940425-e858-4649-ab79-726043ecfe20","system_id":"levelo_inurba_marseille","lat":43.25503,"lon":5.3765,"is_reserved":false,"is_disabled":true,"rental_uris":{"android":"levelo://app?vid=e6940425-e858-4649-ab79-726043ecfe20","ios":"levelo://app?vid=e6940425-e858-4649-ab79-726043ecfe20"},"vehicle_type_id":"4","last_reported":1750237925,"current_range_meters":0,"station_id":"ce4bhh12rcd13ifvqff0","pricing_plan_id":"cebpf4jnsgd1na2vs0mg"},{"bike_id":"6ab1ca16-c4ac-44a0-8157-7fb72ffd7777","system_id":"levelo_inurba_marseille","lat":43.27078,"lon":5.42287,"is_reserved":false,"is_disabled":true,"rental_uris":{"android":"levelo://app?vid=6ab1ca16-c4ac-44a0-8157-7fb72ffd7777","ios":"levelo://app?vid=6ab1ca16-c4ac-44a0-8157-7fb72ffd7777"},"vehicle_type_id":"4","last_reported":1750237925,"current_range_meters":0,"station_id":"ce4bhk92rcd13ifvqgb0","pricing_plan_id":"cebpf4jnsgd1na2vs0mg"},{"bike_id":"ba33e5dd-6ebe-4e7d-9712-f84e1ebb7f95","system_id":"levelo_inurba_marseille","lat":43.32116,"lon":5.36761,"is_reserved":false,"is_disabled":true,"rental_uris":{"android":"levelo://app?vid=ba33e5dd-6ebe-4e7d-9712-f84e1ebb7f95","ios":"levelo://app?vid=ba33e5dd-6ebe-4e7d-9712-f84e1ebb7f95"},"vehicle_type_id":"4","last_reported":1750237925,"current_range_meters":0,"station_id":"ce4bhrh2rcd13ifvqhug","pricing_plan_id":"cebpf4jnsgd1na2vs0mg"},{"bike_id":"68075f5b-bfd6-439b-b675-f207ccaadd95","system_id":"levelo_inurba_marseille","lat":43.30141,"lon":5.38779,"is_reserved":false,"is_disabled":true,"rental_uris":{"android":"levelo://app?vid=68075f5b-bfd6-439b-b675-f207ccaadd95","ios":"levelo://app?vid=68075f5b-bfd6-439b-b675-f207ccaadd95"},"vehicle_type_id":"4","last_reported":1750237925,"current_range_meters":400,"station_id":"ce4bghh2rcd13ifvqb60","pricing_plan_id":"cebpf4jnsgd1na2vs0mg"},{"bike_id":"d4f28517-563b-48c1-9b0f-51f454f99191","system_id":"levelo_inurba_marseille","lat":43.30961,"lon":5.39035,"is_reserved":false,"is_disabled":true,"rental_uris":{"android":"levelo://app?vid=d4f28517-563b-48c1-9b0f-51f454f99191","ios":"levelo://app?vid=d4f28517-563b-48c1-9b0f-51f454f99191"},"vehicle_type_id":"4","last_reported":1750237925,"current_range_meters":400,"station_id":"ce4bgup2rcd13ifvqco0","pricing_plan_id":"cebpf4jnsgd1na2vs0mg"},{"bike_id":"283a31a4-3600-4412-89eb-37fbfa269584","system_id":"levelo_inurba_marseille","lat":43.29256,"lon":5.38451,"is_reserved":false,"is_disabled":true,"rental_uris":{"android":"levelo://app?vid=283a31a4-3600-4412-89eb-37fbfa269584","ios":"levelo://app?vid=283a31a4-3600-4412-89eb-37fbfa269584"},"vehicle_type_id":"4","last_reported":1750237925,"current_range_meters":800,"station_id":"ce4bh692rcd13ifvqea0","pricing_plan_id":"cebpf4jnsgd1na2vs0mg"},{"bike_id":"1735ae6b-d90f-410e-8910-4d7532a6ddd6","system_id":"levelo_inurba_marseille","lat":43.292664,"lon":5.384386,"is_reserved":false,"is_disabled":true,"rental_uris":{"android":"levelo://app?vid=1735ae6b-d90f-410e-8910-4d7532a6ddd6","ios":"levelo://app?vid=1735ae6b-d90f-410e-8910-4d7532a6ddd6"},"vehicle_type_id":"4","last_reported":1750237925,"current_range_meters":1600,"station_id":"ce4bh692rcd13ifvqea0","pricing_plan_id":"cebpf4jnsgd1na2vs0mg"},{"bike_id":"c63a9814-e6f5-4f32-83d8-419def890de5","system_id":"levelo_inurba_marseille","lat":43.31333,"lon":5.36713,"is_reserved":false,"is_disabled":false,"rental_uris":{"android":"levelo://app?vid=c63a9814-e6f5-4f32-83d8-419def890de5","ios":"levelo://app?vid=c63a9814-e6f5-4f32-83d8-419def890de5"},"vehicle_type_id":"4","last_reported":1750237925,"current_range_meters":2800,"station_id":"ce4bgr92rcd13ifvqc6g","pricing_plan_id":"cebpf4jnsgd1na2vs0mg"},{"bike_id":"e6c2d7d8-8613-47c5-9d10-cd92781466db","system_id":"levelo_inurba_marseille","lat":43.29196,"lon":5.39317,"is_reserved":false,"is_disabled":false,"rental_uris":{"android":"levelo://app?vid=e6c2d7d8-8613-47c5-9d10-cd92781466db","ios":"levelo://app?vid=e6c2d7d8-8613-47c5-9d10-cd92781466db"},"vehicle_type_id":"4","last_reported":1750237925,"current_range_meters":2800,"station_id":"ce4bh192rcd13ifvqdd0","pricing_plan_id":"cebpf4jnsgd1na2vs0mg"},{"bike_id":"2395248d-0fef-4e4f-ba8e-f8283c94ae53","system_id":"levelo_inurba_marseille","lat":43.31232,"lon":5.39495,"is_reserved":false,"is_disabled":false,"rental_uris":{"android":"levelo://app?vid=2395248d-0fef-4e4f-ba8e-f8283c94ae53","ios":"levelo://app?vid=2395248d-0fef-4e4f-ba8e-f8283c94ae53"},"vehicle_type_id":"4","last_reported":1750237925,"current_range_meters":3200,"station_id":"","pricing_plan_id":"cebpf4jnsgd1na2vs0mg"},{"bike_id":"0eb847d7-4aae-442a-857e-27d2ae6bcede","system_id":"levelo_inurba_marseille","lat":43.30143,"lon":5.3742,"is_reserved":false,"is_disabled":false,"rental_uris":{"android":"levelo://app?vid=0eb847d7-4aae-442a-857e-27d2ae6bcede","ios":"levelo://app?vid=0eb847d7-4aae-442a-857e-27d2ae6bcede"},"vehicle_type_id":"4","last_reported":1750237925,"current_range_meters":3200,"station_id":"ce4bgs92rcd13ifvqcc0","pricing_plan_id":"cebpf4jnsgd1na2vs0mg"},{"bike_id":"47196f00-388f-4b3b-a4de-3dba126cd107","system_id":"levelo_inurba_marseille","lat":43.24355,"lon":5.41148,"is_reserved":false,"is_disabled":false,"rental_uris":{"android":"levelo://app?vid=47196f00-388f-4b3b-a4de-3dba126cd107","ios":"levelo://app?vid=47196f00-388f-4b3b-a4de-3dba126cd107"},"vehicle_type_id":"4","last_reported":1750237925,"current_range_meters":3600,"station_id":"","pricing_plan_id":"cebpf4jnsgd1na2vs0mg"},{"bike_id":"6c61c240-75fa-4a9f-b754-f97932181eb0","system_id":"levelo_inurba_marseille","lat":43.2951,"lon":5.37503,"is_reserved":false,"is_disabled":false,"rental_uris":{"android":"levelo://app?vid=6c61c240-75fa-4a9f-b754-f97932181eb0","ios":"levelo://app?vid=6c61c240-75fa-4a9f-b754-f97932181eb0"},"vehicle_type_id":"4","last_reported":1750237925,"current_range_meters":3600,"station_id":"ce4bgkp2rcd13ifvqbmg","pricing_plan_id":"cebpf4jnsgd1na2vs0mg"},{"bike_id":"4704476b-c040-4c94-bb85-3888bee3246e","system_id":"levelo_inurba_marseille","lat":43.30241,"lon":5.40054,"is_reserved":false,"is_disabled":false,"rental_uris":{"android":"levelo://app?vid=4704476b-c040-4c94-bb85-3888bee3246e","ios":"levelo://app?vid=4704476b-c040-4c94-bb85-3888bee3246e"},"vehicle_type_id":"4","last_reported":1750237925,"current_range_meters":3600,"station_id":"ce4bgvh2rcd13ifvqcs0","pricing_plan_id":"cebpf4jnsgd1na2vs0mg"},{"bike_id":"7d5a1ef5-c109-4977-b182-4addb0e38b1d","system_id":"levelo_inurba_marseille","lat":43.30654,"lon":5.37272,"is_reserved":false,"is_disabled":false,"rental_uris":{"android":"levelo://app?vid=7d5a1ef5-c109-4977-b182-4addb0e38b1d","ios":"levelo://app?vid=7d5a1ef5-c109-4977-b182-4addb0e38b1d"},"vehicle_type_id":"4","last_reported":1750237925,"current_range_meters":4400,"station_id":"","pricing_plan_id":"cebpf4jnsgd1na2vs0mg"},{"bike_id":"afe9dc1b-2073-4f9b-97eb-fe03ec912911","system_id":"levelo_inurba_marseille","lat":43.30928,"lon":5.4014,"is_reserved":false,"is_disabled":false,"rental_uris":{"android":"levelo://app?vid=afe9dc1b-2073-4f9b-97eb-fe03ec912911","ios":"levelo://app?vid=afe9dc1b-2073-4f9b-97eb-fe03ec912911"},"vehicle_type_id":"4","last_reported":1750237925,"current_range_meters":4400,"station_id":"ce4bgvp2rcd13ifvqct0","pricing_plan_id":"cebpf4jnsgd1na2vs0mg"},{"bike_id":"76a4ffb4-dd9b-42c1-bb4d-e288ee651a30","system_id":"levelo_inurba_marseille","lat":43.24805,"lon":5.37447,"is_reserved":false,"is_disabled":false,"rental_uris":{"android":"levelo://app?vid=76a4ffb4-dd9b-42c1-bb4d-e288ee651a30","ios":"levelo://app?vid=76a4ffb4-dd9b-42c1-bb4d-e288ee651a30"},"vehicle_type_id":"4","last_reported":1750237925,"current_range_meters":4400,"station_id":"ce4bhgh2rcd13ifvqfb0","pricing_plan_id":"cebpf4jnsgd1na2vs0mg"},{"bike_id":"6077fb26-cc55-4cc9-84b6-5490e0d9eb92","system_id":"levelo_inurba_marseille","lat":43.23178,"lon":5.39995,"is_reserved":false,"is_disabled":false,"rental_uris":{"android":"levelo://app?vid=6077fb26-cc55-4cc9-84b6-5490e0d9eb92","ios":"levelo://app?vid=6077fb26-cc55-4cc9-84b6-5490e0d9eb92"},"vehicle_type_id":"4","last_reported":1750237925,"current_range_meters":4400,"station_id":"ce4bhn12rcd13ifvqgqg","pricing_plan_id":"cebpf4jnsgd1na2vs0mg"},{"bike_id":"193b9844-6817-4ad8-b3fa-f38c6da5fb55","system_id":"levelo_inurba_marseille","lat":43.2408,"lon":5.37769,"is_reserved":false,"is_disabled":false,"rental_uris":{"android":"levelo://app?vid=193b9844-6817-4ad8-b3fa-f38c6da5fb55","ios":"levelo://app?vid=193b9844-6817-4ad8-b3fa-f38c6da5fb55"},"vehicle_type_id":"4","last_reported":1750237925,"current_range_meters":4400,"station_id":"ce4bhnp2rcd13ifvqgvg","pricing_plan_id":"cebpf4jnsgd1na2vs0mg"},{"bike_id":"7e27b2fb-67be-40fa-b07d-5500d934d723","system_id":"levelo_inurba_marseille","lat":43.31323,"lon":5.39689,"is_reserved":false,"is_disabled":false,"rental_uris":{"android":"levelo://app?vid=7e27b2fb-67be-40fa-b07d-5500d934d723","ios":"levelo://app?vid=7e27b2fb-67be-40fa-b07d-5500d934d723"},"vehicle_type_id":"4","last_reported":1750237925,"current_range_meters":4800,"station_id":"ce4bgvp2rcd13ifvqcu0","pricing_plan_id":"cebpf4jnsgd1na2vs0mg"},{"bike_id":"7a5c5fcc-95ae-4f03-9774-df2adf3ed456","system_id":"levelo_inurba_marseille","lat":43.29214,"lon":5.360667,"is_reserved":false,"is_disabled":false,"rental_uris":{"android":"levelo://app?vid=7a5c5fcc-95ae-4f03-9774-df2adf3ed456","ios":"levelo://app?vid=7a5c5fcc-95ae-4f03-9774-df2adf3ed456"},"vehicle_type_id":"4","last_reported":1750237925,"current_range_meters":4800,"station_id":"ce4bhbh2rcd13ifvqeqg","pricing_plan_id":"cebpf4jnsgd1na2vs0mg"},{"bike_id":"8fb703ab-6a4d-426a-8ab7-0475ff1a3bd6","system_id":"levelo_inurba_marseille","lat":43.27495,"lon":5.42455,"is_reserved":false,"is_disabled":false,"rental_uris":{"android":"levelo://app?vid=8fb703ab-6a4d-426a-8ab7-0475ff1a3bd6","ios":"levelo://app?vid=8fb703ab-6a4d-426a-8ab7-0475ff1a3bd6"},"vehicle_type_id":"4","last_reported":1750237925,"current_range_meters":4800,"station_id":"ce4bhn92rcd13ifvqgrg","pricing_plan_id":"cebpf4jnsgd1na2vs0mg"},{"bike_id":"1c8dd34b-9d03-492f-aa85-8944da27fde3","system_id":"levelo_inurba_marseille","lat":43.28605,"lon":5.37068,"is_reserved":false,"is_disabled":false,"rental_uris":{"android":"levelo://app?vid=1c8dd34b-9d03-492f-aa85-8944da27fde3","ios":"levelo://app?vid=1c8dd34b-9d03-492f-aa85-8944da27fde3"},"vehicle_type_id":"4","last_reported":1750237925,"current_range_meters":4800,"station_id":"ce4bht12rcd13ifvqi60","pricing_plan_id":"cebpf4jnsgd1na2vs0mg"},{"bike_id":"3b739518-fe16-477b-9202-c6684639a600","system_id":"levelo_inurba_marseille","lat":43.31266,"lon":5.36865,"is_reserved":false,"is_disabled":false,"rental_uris":{"android":"levelo://app?vid=3b739518-fe16-477b-9202-c6684639a600","ios":"levelo://app?vid=3b739518-fe16-477b-9202-c6684639a600"},"vehicle_type_id":"4","last_reported":1750237925,"current_range_meters":5600,"station_id":"ce4bgl92rcd13ifvqbq0","pricing_plan_id":"cebpf4jnsgd1na2vs0mg"},{"bike_id":"718b78e0-2485-4a88-9282-39ce281b07d2","system_id":"levelo_inurba_marseille","lat":43.287043,"lon":5.373788,"is_reserved":false,"is_disabled":false,"rental_uris":{"android":"levelo://app?vid=718b78e0-2485-4a88-9282-39ce281b07d2","ios":"levelo://app?vid=718b78e0-2485-4a88-9282-39ce281b07d2"},"vehicle_type_id":"4","last_reported":1750237925,"current_range_meters":5600,"station_id":"ce4bh3p2rcd13ifvqdq0","pricing_plan_id":"cebpf4jnsgd1na2vs0mg"},{"bike_id":"2a34fcde-80d0-41d2-a178-558f57392b60","system_id":"levelo_inurba_marseille","lat":43.2971,"lon":5.37686,"is_reserved":false,"is_disabled":false,"rental_uris":{"android":"levelo://app?vid=2a34fcde-80d0-41d2-a178-558f57392b60","ios":"levelo://app?vid=2a34fcde-80d0-41d2-a178-558f57392b60"},"vehicle_type_id":"4","last_reported":1750237925,"current_range_meters":6000,"station_id":"ce4bgkh2rcd13ifvqbl0","pricing_plan_id":"cebpf4jnsgd1na2vs0mg"},{"bike_id":"25f718fb-6aa3-4f9f-8778-2e531876556d","system_id":"levelo_inurba_marseille","lat":43.30553,"lon":5.36553,"is_reserved":false,"is_disabled":false,"rental_uris":{"android":"levelo://app?vid=25f718fb-6aa3-4f9f-8778-2e531876556d","ios":"levelo://app?vid=25f718fb-6aa3-4f9f-8778-2e531876556d"},"vehicle_type_id":"4","last_reported":1750237925,"current_range_meters":6000,"station_id":"ce4bgs12rcd13ifvqcag","pricing_plan_id":"cebpf4jnsgd1na2vs0mg"},{"bike_id":"ec893ad1-cd34-42b3-a918-50518c985a41","system_id":"levelo_inurba_marseille","lat":43.31395,"lon":5.36679,"is_reserved":false,"is_disabled":false,"rental_uris":{"android":"levelo://app?vid=ec893ad1-cd34-42b3-a918-50518c985a41","ios":"levelo://app?vid=ec893ad1-cd34-42b3-a918-50518c985a41"},"vehicle_type_id":"4","last_reported":1750237925,"current_range_meters":6400,"station_id":"","pricing_plan_id":"cebpf4jnsgd1na2vs0mg"},{"bike_id":"6ba80795-26da-43fa-ab60-6831760385ff","system_id":"levelo_inurba_marseille","lat":43.3258,"lon":5.41966,"is_reserved":false,"is_disabled":false,"rental_uris":{"android":"levelo://app?vid=6ba80795-26da-43fa-ab60-6831760385ff","ios":"levelo://app?vid=6ba80795-26da-43fa-ab60-6831760385ff"},"vehicle_type_id":"4","last_reported":1750237925,"current_range_meters":6400,"station_id":"","pricing_plan_id":"cebpf4jnsgd1na2vs0mg"},{"bike_id":"d0f0a189-5111-4e44-9da9-645c982f81aa","system_id":"levelo_inurba_marseille","lat":43.3137,"lon":5.36715,"is_reserved":false,"is_disabled":false,"rental_uris":{"android":"levelo://app?vid=d0f0a189-5111-4e44-9da9-645c982f81aa","ios":"levelo://app?vid=d0f0a189-5111-4e44-9da9-645c982f81aa"},"vehicle_type_id":"4","last_reported":1750237925,"current_range_meters":6400,"station_id":"ce4bgr92rcd13ifvqc6g","pricing_plan_id":"cebpf4jnsgd1na2vs0mg"},{"bike_id":"1eb5fecf-8a88-4e0d-b063-8fb6caeb8aa5","system_id":"levelo_inurba_marseille","lat":43.28426,"lon":5.34986,"is_reserved":false,"is_disabled":false,"rental_uris":{"android":"levelo://app?vid=1eb5fecf-8a88-4e0d-b063-8fb6caeb8aa5","ios":"levelo://app?vid=1eb5fecf-8a88-4e0d-b063-8fb6caeb8aa5"},"vehicle_type_id":"4","last_reported":1750237925,"current_range_meters":6400,"station_id":"ce4bhbh2rcd13ifvqepg","pricing_plan_id":"cebpf4jnsgd1na2vs0mg"},{"bike_id":"ddee3ac8-2cab-49b6-a418-1fde9da47475","system_id":"levelo_inurba_marseille","lat":43.23138,"lon":5.43718,"is_reserved":false,"is_disabled":false,"rental_uris":{"android":"levelo://app?vid=ddee3ac8-2cab-49b6-a418-1fde9da47475","ios":"levelo://app?vid=ddee3ac8-2cab-49b6-a418-1fde9da47475"},"vehicle_type_id":"4","last_reported":1750237925,"current_range_meters":6400,"station_id":"ce4bhmp2rcd13ifvqgog","pricing_plan_id":"cebpf4jnsgd1na2vs0mg"},{"bike_id":"a7939fe5-3da2-4b6f-a2d9-6a57eb32137d","system_id":"levelo_inurba_marseille","lat":43.23147,"lon":5.43716,"is_reserved":false,"is_disabled":false,"rental_uris":{"android":"levelo://app?vid=a7939fe5-3da2-4b6f-a2d9-6a57eb32137d","ios":"levelo://app?vid=a7939fe5-3da2-4b6f-a2d9-6a57eb32137d"},"vehicle_type_id":"4","last_reported":1750237925,"current_range_meters":6400,"station_id":"ce4bhmp2rcd13ifvqgog","pricing_plan_id":"cebpf4jnsgd1na2vs0mg"},{"bike_id":"c67b9bb0-536d-4d3b-834a-9242964eb689","system_id":"levelo_inurba_marseille","lat":43.32115,"lon":5.3677,"is_reserved":false,"is_disabled":false,"rental_uris":{"android":"levelo://app?vid=c67b9bb0-536d-4d3b-834a-9242964eb689","ios":"levelo://app?vid=c67b9bb0-536d-4d3b-834a-9242964eb689"},"vehicle_type_id":"4","last_reported":1750237925,"current_range_meters":6400,"station_id":"ce4bhrh2rcd13ifvqhug","pricing_plan_id":"cebpf4jnsgd1na2vs0mg"},{"bike_id":"ae4a7bb6-19ec-4528-ba2f-4c58721d2ee8","system_id":"levelo_inurba_marseille","lat":43.23337,"lon":5.43596,"is_reserved":false,"is_disabled":false,"rental_uris":{"android":"levelo://app?vid=ae4a7bb6-19ec-4528-ba2f-4c58721d2ee8","ios":"levelo://app?vid=ae4a7bb6-19ec-4528-ba2f-4c58721d2ee8"},"vehicle_type_id":"4","last_reported":1750237925,"current_range_meters":6800,"station_id":"","pricing_plan_id":"cebpf4jnsgd1na2vs0mg"},{"bike_id":"f63a71f0-6134-4645-ad80-c81f1e773990","system_id":"levelo_inurba_marseille","lat":43.31582,"lon":5.37952,"is_reserved":false,"is_disabled":false,"rental_uris":{"android":"levelo://app?vid=f63a71f0-6134-4645-ad80-c81f1e773990","ios":"levelo://app?vid=f63a71f0-6134-4645-ad80-c81f1e773990"},"vehicle_type_id":"4","last_reported":1750237925,"current_range_meters":6800,"station_id":"","pricing_plan_id":"cebpf4jnsgd1na2vs0mg"},{"bike_id":"0ae659f9-3809-4540-b2ab-69a9b310bbc3","system_id":"levelo_inurba_marseille","lat":43.29017,"lon":5.355972,"is_reserved":false,"is_disabled":false,"rental_uris":{"android":"levelo://app?vid=0ae659f9-3809-4540-b2ab-69a9b310bbc3","ios":"levelo://app?vid=0ae659f9-3809-4540-b2ab-69a9b310bbc3"},"vehicle_type_id":"4","last_reported":1750237925,"current_range_meters":6800,"station_id":"ce4bhb12rcd13ifvqel0","pricing_plan_id":"cebpf4jnsgd1na2vs0mg"},{"bike_id":"6219e6c7-a5da-4698-a3db-6a09a65738bf","system_id":"levelo_inurba_marseille","lat":43.27213,"lon":5.39179,"is_reserved":false,"is_disabled":false,"rental_uris":{"android":"levelo://app?vid=6219e6c7-a5da-4698-a3db-6a09a65738bf","ios":"levelo://app?vid=6219e6c7-a5da-4698-a3db-6a09a65738bf"},"vehicle_type_id":"4","last_reported":1750237925,"current_range_meters":6800,"station_id":"ce4bhhp2rcd13ifvqfm0","pricing_plan_id":"cebpf4jnsgd1na2vs0mg"},{"bike_id":"857c245f-8ab5-4179-9a16-97db6aa6bebe","system_id":"levelo_inurba_marseille","lat":43.23146,"lon":5.43719,"is_reserved":false,"is_disabled":false,"rental_uris":{"android":"levelo://app?vid=857c245f-8ab5-4179-9a16-97db6aa6bebe","ios":"levelo://app?vid=857c245f-8ab5-4179-9a16-97db6aa6bebe"},"vehicle_type_id":"4","last_reported":1750237925,"current_range_meters":6800,"station_id":"ce4bhmp2rcd13ifvqgog","pricing_plan_id":"cebpf4jnsgd1na2vs0mg"},{"bike_id":"e03a6d42-f362-4878-ab56-4b5afba95b0c","system_id":"levelo_inurba_marseille","lat":43.31494,"lon":5.36918,"is_reserved":false,"is_disabled":false,"rental_uris":{"android":"levelo://app?vid=e03a6d42-f362-4878-ab56-4b5afba95b0c","ios":"levelo://app?vid=e03a6d42-f362-4878-ab56-4b5afba95b0c"},"vehicle_type_id":"4","last_reported":1750237925,"current_range_meters":7200,"station_id":"","pricing_plan_id":"cebpf4jnsgd1na2vs0mg"},{"bike_id":"d2026dd5-304f-4651-91f2-64ac3397fe97","system_id":"levelo_inurba_marseille","lat":43.29575,"lon":5.36737,"is_reserved":false,"is_disabled":false,"rental_uris":{"android":"levelo://app?vid=d2026dd5-304f-4651-91f2-64ac3397fe97","ios":"levelo://app?vid=d2026dd5-304f-4651-91f2-64ac3397fe97"},"vehicle_type_id":"4","last_reported":1750237925,"current_range_meters":7200,"station_id":"ce4bgph2rcd13ifvqc2g","pricing_plan_id":"cebpf4jnsgd1na2vs0mg"},{"bike_id":"60ca4c43-5838-45c6-b374-0be38bd5e145","system_id":"levelo_inurba_marseille","lat":43.30317,"lon":5.36883,"is_reserved":false,"is_disabled":false,"rental_uris":{"android":"levelo://app?vid=60ca4c43-5838-45c6-b374-0be38bd5e145","ios":"levelo://app?vid=60ca4c43-5838-45c6-b374-0be38bd5e145"},"vehicle_type_id":"4","last_reported":1750237925,"current_range_meters":7200,"station_id":"ce4bgqh2rcd13ifvqc5g","pricing_plan_id":"cebpf4jnsgd1na2vs0mg"},{"bike_id":"3b136301-d892-4bf1-aa15-695ec30464ca","system_id":"levelo_inurba_marseille","lat":43.32072,"lon":5.36758,"is_reserved":false,"is_disabled":false,"rental_uris":{"android":"levelo://app?vid=3b136301-d892-4bf1-aa15-695ec30464ca","ios":"levelo://app?vid=3b136301-d892-4bf1-aa15-695ec30464ca"},"vehicle_type_id":"4","last_reported":1750237925,"current_range_meters":7200,"station_id":"ce4bhrh2rcd13ifvqhug","pricing_plan_id":"cebpf4jnsgd1na2vs0mg"},{"bike_id":"599edd48-0a29-4db2-9ab4-b98d5514d266","system_id":"levelo_inurba_marseille","lat":43.31419,"lon":5.36668,"is_reserved":false,"is_disabled":false,"rental_uris":{"android":"levelo://app?vid=599edd48-0a29-4db2-9ab4-b98d5514d266","ios":"levelo://app?vid=599edd48-0a29-4db2-9ab4-b98d5514d266"},"vehicle_type_id":"4","last_reported":1750237925,"current_range_meters":8000,"station_id":"","pricing_plan_id":"cebpf4jnsgd1na2vs0mg"},{"bike_id":"4f40d319-ac49-41f6-a752-ac69cc32d84f","system_id":"levelo_inurba_marseille","lat":43.29373,"lon":5.37839,"is_reserved":false,"is_disabled":false,"rental_uris":{"android":"levelo://app?vid=4f40d319-ac49-41f6-a752-ac69cc32d84f","ios":"levelo://app?vid=4f40d319-ac49-41f6-a752-ac69cc32d84f"},"vehicle_type_id":"4","last_reported":1750237925,"current_range_meters":8000,"station_id":"ce4bgjh2rcd13ifvqbf0","pricing_plan_id":"cebpf4jnsgd1na2vs0mg"},{"bike_id":"58187134-e76c-42cd-9588-2be29e2f108d","system_id":"levelo_inurba_marseille","lat":43.26948,"lon":5.38623,"is_reserved":false,"is_disabled":false,"rental_uris":{"android":"levelo://app?vid=58187134-e76c-42cd-9588-2be29e2f108d","ios":"levelo://app?vid=58187134-e76c-42cd-9588-2be29e2f108d"},"vehicle_type_id":"4","last_reported":1750237925,"current_range_meters":8000,"station_id":"ce4bhh92rcd13ifvqfh0","pricing_plan_id":"cebpf4jnsgd1na2vs0mg"},{"bike_id":"6f01e9ee-8d16-4da6-aaee-0c2d6be14475","system_id":"levelo_inurba_marseille","lat":43.28422,"lon":5.34985,"is_reserved":false,"is_disabled":false,"rental_uris":{"android":"levelo://app?vid=6f01e9ee-8d16-4da6-aaee-0c2d6be14475","ios":"levelo://app?vid=6f01e9ee-8d16-4da6-aaee-0c2d6be14475"},"vehicle_type_id":"4","last_reported":1750237925,"current_range_meters":8400,"station_id":"","pricing_plan_id":"cebpf4jnsgd1na2vs0mg"},{"bike_id":"ae8524c6-7b10-43ef-8ed4-b8035f1213c1","system_id":"levelo_inurba_marseille","lat":43.33422,"lon":5.40047,"is_reserved":false,"is_disabled":false,"rental_uris":{"android":"levelo://app?vid=ae8524c6-7b10-43ef-8ed4-b8035f1213c1","ios":"levelo://app?vid=ae8524c6-7b10-43ef-8ed4-b8035f1213c1"},"vehicle_type_id":"4","last_reported":1750237925,"current_range_meters":8400,"station_id":"","pricing_plan_id":"cebpf4jnsgd1na2vs0mg"},{"bike_id":"13603010-4ba6-45d8-8742-faf7a41367fa","system_id":"levelo_inurba_marseille","lat":43.29206,"lon":5.383,"is_reserved":false,"is_disabled":false,"rental_uris":{"android":"levelo://app?vid=13603010-4ba6-45d8-8742-faf7a41367fa","ios":"levelo://app?vid=13603010-4ba6-45d8-8742-faf7a41367fa"},"vehicle_type_id":"4","last_reported":1750237925,"current_range_meters":8400,"station_id":"","pricing_plan_id":"cebpf4jnsgd1na2vs0mg"},{"bike_id":"a3c71096-a081-440f-9051-2c1952aac647","system_id":"levelo_inurba_marseille","lat":43.31221,"lon":5.3687,"is_reserved":false,"is_disabled":false,"rental_uris":{"android":"levelo://app?vid=a3c71096-a081-440f-9051-2c1952aac647","ios":"levelo://app?vid=a3c71096-a081-440f-9051-2c1952aac647"},"vehicle_type_id":"4","last_reported":1750237925,"current_range_meters":8400,"station_id":"ce4bgl92rcd13ifvqbq0","pricing_plan_id":"cebpf4jnsgd1na2vs0mg"},{"bike_id":"945320a5-2a71-422d-8feb-6f034f7f2bd7","system_id":"levelo_inurba_marseille","lat":43.29847,"lon":5.36288,"is_reserved":false,"is_disabled":false,"rental_uris":{"android":"levelo://app?vid=945320a5-2a71-422d-8feb-6f034f7f2bd7","ios":"levelo://app?vid=945320a5-2a71-422d-8feb-6f034f7f2bd7"},"vehicle_type_id":"4","last_reported":1750237925,"current_range_meters":8400,"station_id":"ce4bgpp2rcd13ifvqc3g","pricing_plan_id":"cebpf4jnsgd1na2vs0mg"},{"bike_id":"9cdc5a7e-0f7a-4645-b453-d2cba1eea3c3","system_id":"levelo_inurba_marseille","lat":43.31355,"lon":5.36722,"is_reserved":false,"is_disabled":false,"rental_uris":{"android":"levelo://app?vid=9cdc5a7e-0f7a-4645-b453-d2cba1eea3c3","ios":"levelo://app?vid=9cdc5a7e-0f7a-4645-b453-d2cba1eea3c3"},"vehicle_type_id":"4","last_reported":1750237925,"current_range_meters":8400,"station_id":"ce4bgr92rcd13ifvqc6g","pricing_plan_id":"cebpf4jnsgd1na2vs0mg"},{"bike_id":"ad347c14-931f-4261-ab3b-a1807595d5e4","system_id":"levelo_inurba_marseille","lat":43.31707,"lon":5.40445,"is_reserved":false,"is_disabled":false,"rental_uris":{"android":"levelo://app?vid=ad347c14-931f-4261-ab3b-a1807595d5e4","ios":"levelo://app?vid=ad347c14-931f-4261-ab3b-a1807595d5e4"},"vehicle_type_id":"4","last_reported":1750237925,"current_range_meters":8400,"station_id":"ce4bh012rcd13ifvqd00","pricing_plan_id":"cebpf4jnsgd1na2vs0mg"},{"bike_id":"228fabe7-5671-4f97-9c31-9eb37ab08a14","system_id":"levelo_inurba_marseille","lat":43.23145,"lon":5.43694,"is_reserved":false,"is_disabled":false,"rental_uris":{"android":"levelo://app?vid=228fabe7-5671-4f97-9c31-9eb37ab08a14","ios":"levelo://app?vid=228fabe7-5671-4f97-9c31-9eb37ab08a14"},"vehicle_type_id":"4","last_reported":1750237925,"current_range_meters":8400,"station_id":"ce4bhmp2rcd13ifvqgog","pricing_plan_id":"cebpf4jnsgd1na2vs0mg"},{"bike_id":"6f3a0055-18ce-456d-886f-5dd53c809fc5","system_id":"levelo_inurba_marseille","lat":43.26767,"lon":5.42535,"is_reserved":false,"is_disabled":false,"rental_uris":{"android":"levelo://app?vid=6f3a0055-18ce-456d-886f-5dd53c809fc5","ios":"levelo://app?vid=6f3a0055-18ce-456d-886f-5dd53c809fc5"},"vehicle_type_id":"4","last_reported":1750237925,"current_range_meters":8800,"station_id":"","pricing_plan_id":"cebpf4jnsgd1na2vs0mg"},{"bike_id":"7f0bfb00-5827-4480-a650-bffac3d20cea","system_id":"levelo_inurba_marseille","lat":43.30435,"lon":5.38903,"is_reserved":false,"is_disabled":false,"rental_uris":{"android":"levelo://app?vid=7f0bfb00-5827-4480-a650-bffac3d20cea","ios":"levelo://app?vid=7f0bfb00-5827-4480-a650-bffac3d20cea"},"vehicle_type_id":"4","last_reported":1750237925,"current_range_meters":8800,"station_id":"ce4bgk12rcd13ifvqbi0","pricing_plan_id":"cebpf4jnsgd1na2vs0mg"},{"bike_id":"a6826c5a-c2ad-4cbf-99a2-79a5bb91cdb7","system_id":"levelo_inurba_marseille","lat":43.30922,"lon":5.36801,"is_reserved":false,"is_disabled":false,"rental_uris":{"android":"levelo://app?vid=a6826c5a-c2ad-4cbf-99a2-79a5bb91cdb7","ios":"levelo://app?vid=a6826c5a-c2ad-4cbf-99a2-79a5bb91cdb7"},"vehicle_type_id":"4","last_reported":1750237925,"current_range_meters":8800,"station_id":"ce4bgn92rcd13ifvqbvg","pricing_plan_id":"cebpf4jnsgd1na2vs0mg"},{"bike_id":"820df921-69fc-426c-b325-82acf4918bb0","system_id":"levelo_inurba_marseille","lat":43.30604,"lon":5.372023,"is_reserved":false,"is_disabled":false,"rental_uris":{"android":"levelo://app?vid=820df921-69fc-426c-b325-82acf4918bb0","ios":"levelo://app?vid=820df921-69fc-426c-b325-82acf4918bb0"},"vehicle_type_id":"4","last_reported":1750237925,"current_range_meters":8800,"station_id":"ce4bgqh2rcd13ifvqc4g","pricing_plan_id":"cebpf4jnsgd1na2vs0mg"},{"bike_id":"8952fcea-34cf-4372-8b51-bbeb0fed4148","system_id":"levelo_inurba_marseille","lat":43.31347,"lon":5.36703,"is_reserved":false,"is_disabled":false,"rental_uris":{"android":"levelo://app?vid=8952fcea-34cf-4372-8b51-bbeb0fed4148","ios":"levelo://app?vid=8952fcea-34cf-4372-8b51-bbeb0fed4148"},"vehicle_type_id":"4","last_reported":1750237925,"current_range_meters":8800,"station_id":"ce4bgr92rcd13ifvqc6g","pricing_plan_id":"cebpf4jnsgd1na2vs0mg"},{"bike_id":"0236841f-d315-4698-8c72-cd71d700f9c8","system_id":"levelo_inurba_marseille","lat":43.31695,"lon":5.40466,"is_reserved":false,"is_disabled":false,"rental_uris":{"android":"levelo://app?vid=0236841f-d315-4698-8c72-cd71d700f9c8","ios":"levelo://app?vid=0236841f-d315-4698-8c72-cd71d700f9c8"},"vehicle_type_id":"4","last_reported":1750237925,"current_range_meters":8800,"station_id":"ce4bh012rcd13ifvqd00","pricing_plan_id":"cebpf4jnsgd1na2vs0mg"},{"bike_id":"2fc84838-7f9b-4751-bffb-a48b3058b522","system_id":"levelo_inurba_marseille","lat":43.24173,"lon":5.39724,"is_reserved":false,"is_disabled":false,"rental_uris":{"android":"levelo://app?vid=2fc84838-7f9b-4751-bffb-a48b3058b522","ios":"levelo://app?vid=2fc84838-7f9b-4751-bffb-a48b3058b522"},"vehicle_type_id":"4","last_reported":1750237925,"current_range_meters":8800,"station_id":"ce4bhn12rcd13ifvqgpg","pricing_plan_id":"cebpf4jnsgd1na2vs0mg"},{"bike_id":"3561babf-0bf4-4ae4-b838-e54edaaa378b","system_id":"levelo_inurba_marseille","lat":43.30565,"lon":5.3813,"is_reserved":false,"is_disabled":false,"rental_uris":{"android":"levelo://app?vid=3561babf-0bf4-4ae4-b838-e54edaaa378b","ios":"levelo://app?vid=3561babf-0bf4-4ae4-b838-e54edaaa378b"},"vehicle_type_id":"4","last_reported":1750237925,"current_range_meters":9200,"station_id":"","pricing_plan_id":"cebpf4jnsgd1na2vs0mg"},{"bike_id":"ad139bc1-e4f7-4395-bb1e-d9932b0a72b5","system_id":"levelo_inurba_marseille","lat":43.29368,"lon":5.37848,"is_reserved":false,"is_disabled":false,"rental_uris":{"android":"levelo://app?vid=ad139bc1-e4f7-4395-bb1e-d9932b0a72b5","ios":"levelo://app?vid=ad139bc1-e4f7-4395-bb1e-d9932b0a72b5"},"vehicle_type_id":"4","last_reported":1750237925,"current_range_meters":9200,"station_id":"ce4bgjh2rcd13ifvqbf0","pricing_plan_id":"cebpf4jnsgd1na2vs0mg"},{"bike_id":"0c16fa7a-87bf-462a-bbfa-4a5736265631","system_id":"levelo_inurba_marseille","lat":43.30545,"lon":5.36543,"is_reserved":false,"is_disabled":false,"rental_uris":{"android":"levelo://app?vid=0c16fa7a-87bf-462a-bbfa-4a5736265631","ios":"levelo://app?vid=0c16fa7a-87bf-462a-bbfa-4a5736265631"},"vehicle_type_id":"4","last_reported":1750237925,"current_range_meters":9200,"station_id":"ce4bgs12rcd13ifvqcag","pricing_plan_id":"cebpf4jnsgd1na2vs0mg"},{"bike_id":"fef203aa-c49d-4e52-b64f-044341d7d7e3","system_id":"levelo_inurba_marseille","lat":43.30132,"lon":5.37444,"is_reserved":false,"is_disabled":false,"rental_uris":{"android":"levelo://app?vid=fef203aa-c49d-4e52-b64f-044341d7d7e3","ios":"levelo://app?vid=fef203aa-c49d-4e52-b64f-044341d7d7e3"},"vehicle_type_id":"4","last_reported":1750237925,"current_range_meters":9200,"station_id":"ce4bgs92rcd13ifvqcc0","pricing_plan_id":"cebpf4jnsgd1na2vs0mg"},{"bike_id":"7404d021-7b1c-488c-984a-f030399807d6","system_id":"levelo_inurba_marseille","lat":43.30457,"lon":5.37907,"is_reserved":false,"is_disabled":false,"rental_uris":{"android":"levelo://app?vid=7404d021-7b1c-488c-984a-f030399807d6","ios":"levelo://app?vid=7404d021-7b1c-488c-984a-f030399807d6"},"vehicle_type_id":"4","last_reported":1750237925,"current_range_meters":9200,"station_id":"ce4bgup2rcd13ifvqcn0","pricing_plan_id":"cebpf4jnsgd1na2vs0mg"},{"bike_id":"0c9277e0-2179-4ecd-863c-23bf38ac9920","system_id":"levelo_inurba_marseille","lat":43.30932,"lon":5.39016,"is_reserved":false,"is_disabled":false,"rental_uris":{"android":"levelo://app?vid=0c9277e0-2179-4ecd-863c-23bf38ac9920","ios":"levelo://app?vid=0c9277e0-2179-4ecd-863c-23bf38ac9920"},"vehicle_type_id":"4","last_reported":1750237925,"current_range_meters":9200,"station_id":"ce4bgup2rcd13ifvqco0","pricing_plan_id":"cebpf4jnsgd1na2vs0mg"},{"bike_id":"188efddc-1135-465c-98dc-e9df1ac301cf","system_id":"levelo_inurba_marseille","lat":43.26219,"lon":5.4045,"is_reserved":false,"is_disabled":false,"rental_uris":{"android":"levelo://app?vid=188efddc-1135-465c-98dc-e9df1ac301cf","ios":"levelo://app?vid=188efddc-1135-465c-98dc-e9df1ac301cf"},"vehicle_type_id":"4","last_reported":1750237925,"current_range_meters":9200,"station_id":"ce4bhmh2rcd13ifvqgmg","pricing_plan_id":"cebpf4jnsgd1na2vs0mg"},{"bike_id":"998d0538-52e0-477f-8e72-1b383baadd73","system_id":"levelo_inurba_marseille","lat":43.23172,"lon":5.436492,"is_reserved":false,"is_disabled":false,"rental_uris":{"android":"levelo://app?vid=998d0538-52e0-477f-8e72-1b383baadd73","ios":"levelo://app?vid=998d0538-52e0-477f-8e72-1b383baadd73"},"vehicle_type_id":"4","last_reported":1750237925,"current_range_meters":9200,"station_id":"ce4bhmp2rcd13ifvqgog","pricing_plan_id":"cebpf4jnsgd1na2vs0mg"},{"bike_id":"b5002037-f4b0-4634-8bc4-796d0c74810e","system_id":"levelo_inurba_marseille","lat":43.24366,"lon":5.41159,"is_reserved":false,"is_disabled":false,"rental_uris":{"android":"levelo://app?vid=b5002037-f4b0-4634-8bc4-796d0c74810e","ios":"levelo://app?vid=b5002037-f4b0-4634-8bc4-796d0c74810e"},"vehicle_type_id":"4","last_reported":1750237925,"current_range_meters":9600,"station_id":"","pricing_plan_id":"cebpf4jnsgd1na2vs0mg"},{"bike_id":"fb3ccbc1-0741-48a0-9448-2f745b9cb801","system_id":"levelo_inurba_marseille","lat":43.29973,"lon":5.37191,"is_reserved":false,"is_disabled":false,"rental_uris":{"android":"levelo://app?vid=fb3ccbc1-0741-48a0-9448-2f745b9cb801","ios":"levelo://app?vid=fb3ccbc1-0741-48a0-9448-2f745b9cb801"},"vehicle_type_id":"4","last_reported":1750237925,"current_range_meters":9600,"station_id":"ce4bgr92rcd13ifvqc7g","pricing_plan_id":"cebpf4jnsgd1na2vs0mg"},{"bike_id":"624449c6-576f-4b34-b9ff-6f810fc2aa6e","system_id":"levelo_inurba_marseille","lat":43.24995,"lon":5.38934,"is_reserved":false,"is_disabled":false,"rental_uris":{"android":"levelo://app?vid=624449c6-576f-4b34-b9ff-6f810fc2aa6e","ios":"levelo://app?vid=624449c6-576f-4b34-b9ff-6f810fc2aa6e"},"vehicle_type_id":"4","last_reported":1750237925,"current_range_meters":9600,"station_id":"ce4bhgp2rcd13ifvqfd0","pricing_plan_id":"cebpf4jnsgd1na2vs0mg"},{"bike_id":"76a2cb98-224c-4a20-9528-fd104d864420","system_id":"levelo_inurba_marseille","lat":43.24177,"lon":5.39732,"is_reserved":false,"is_disabled":false,"rental_uris":{"android":"levelo://app?vid=76a2cb98-224c-4a20-9528-fd104d864420","ios":"levelo://app?vid=76a2cb98-224c-4a20-9528-fd104d864420"},"vehicle_type_id":"4","last_reported":1750237925,"current_range_meters":9600,"station_id":"ce4bhn12rcd13ifvqgpg","pricing_plan_id":"cebpf4jnsgd1na2vs0mg"},{"bike_id":"eca25bd6-1b44-4388-a7b0-074a85a4f502","system_id":"levelo_inurba_marseille","lat":43.31103,"lon":5.39757,"is_reserved":false,"is_disabled":false,"rental_uris":{"android":"levelo://app?vid=eca25bd6-1b44-4388-a7b0-074a85a4f502","ios":"levelo://app?vid=eca25bd6-1b44-4388-a7b0-074a85a4f502"},"vehicle_type_id":"4","last_reported":1750237925,"current_range_meters":10000,"station_id":"","pricing_plan_id":"cebpf4jnsgd1na2vs0mg"},{"bike_id":"300ca1f9-c608-4982-82af-3f268e1aada5","system_id":"levelo_inurba_marseille","lat":43.30529,"lon":5.36538,"is_reserved":false,"is_disabled":false,"rental_uris":{"android":"levelo://app?vid=300ca1f9-c608-4982-82af-3f268e1aada5","ios":"levelo://app?vid=300ca1f9-c608-4982-82af-3f268e1aada5"},"vehicle_type_id":"4","last_reported":1750237925,"current_range_meters":10000,"station_id":"ce4bgs12rcd13ifvqcag","pricing_plan_id":"cebpf4jnsgd1na2vs0mg"},{"bike_id":"0735ef8f-c526-4b7c-842a-40f2241dffb7","system_id":"levelo_inurba_marseille","lat":43.30143,"lon":5.37415,"is_reserved":false,"is_disabled":false,"rental_uris":{"android":"levelo://app?vid=0735ef8f-c526-4b7c-842a-40f2241dffb7","ios":"levelo://app?vid=0735ef8f-c526-4b7c-842a-40f2241dffb7"},"vehicle_type_id":"4","last_reported":1750237925,"current_range_meters":10000,"station_id":"ce4bgs92rcd13ifvqcc0","pricing_plan_id":"cebpf4jnsgd1na2vs0mg"},{"bike_id":"62370932-5de3-4da2-946b-c635903ec1a3","system_id":"levelo_inurba_marseille","lat":43.30804,"lon":5.38149,"is_reserved":false,"is_disabled":false,"rental_uris":{"android":"levelo://app?vid=62370932-5de3-4da2-946b-c635903ec1a3","ios":"levelo://app?vid=62370932-5de3-4da2-946b-c635903ec1a3"},"vehicle_type_id":"4","last_reported":1750237925,"current_range_meters":10000,"station_id":"ce4bgt12rcd13ifvqce0","pricing_plan_id":"cebpf4jnsgd1na2vs0mg"},{"bike_id":"1ba0c422-e2d0-42e2-b94c-581514c3d51e","system_id":"levelo_inurba_marseille","lat":43.31682,"lon":5.40451,"is_reserved":false,"is_disabled":false,"rental_uris":{"android":"levelo://app?vid=1ba0c422-e2d0-42e2-b94c-581514c3d51e","ios":"levelo://app?vid=1ba0c422-e2d0-42e2-b94c-581514c3d51e"},"vehicle_type_id":"4","last_reported":1750237925,"current_range_meters":10000,"station_id":"ce4bh012rcd13ifvqd00","pricing_plan_id":"cebpf4jnsgd1na2vs0mg"},{"bike_id":"c9008c86-0367-4e6b-9bd4-64aa06954017","system_id":"levelo_inurba_marseille","lat":43.28419,"lon":5.34978,"is_reserved":false,"is_disabled":false,"rental_uris":{"android":"levelo://app?vid=c9008c86-0367-4e6b-9bd4-64aa06954017","ios":"levelo://app?vid=c9008c86-0367-4e6b-9bd4-64aa06954017"},"vehicle_type_id":"4","last_reported":1750237925,"current_range_meters":10000,"station_id":"ce4bhbh2rcd13ifvqepg","pricing_plan_id":"cebpf4jnsgd1na2vs0mg"},{"bike_id":"3796ad63-3d1c-4d8a-89ff-ffee322ba259","system_id":"levelo_inurba_marseille","lat":43.24997,"lon":5.38937,"is_reserved":false,"is_disabled":false,"rental_uris":{"android":"levelo://app?vid=3796ad63-3d1c-4d8a-89ff-ffee322ba259","ios":"levelo://app?vid=3796ad63-3d1c-4d8a-89ff-ffee322ba259"},"vehicle_type_id":"4","last_reported":1750237925,"current_range_meters":10000,"station_id":"ce4bhgp2rcd13ifvqfd0","pricing_plan_id":"cebpf4jnsgd1na2vs0mg"},{"bike_id":"83cfee7d-980d-496a-98c8-745c7e44c68d","system_id":"levelo_inurba_marseille","lat":43.32876,"lon":5.39092,"is_reserved":false,"is_disabled":false,"rental_uris":{"android":"levelo://app?vid=83cfee7d-980d-496a-98c8-745c7e44c68d","ios":"levelo://app?vid=83cfee7d-980d-496a-98c8-745c7e44c68d"},"vehicle_type_id":"4","last_reported":1750237925,"current_range_meters":10800,"station_id":"","pricing_plan_id":"cebpf4jnsgd1na2vs0mg"},{"bike_id":"9e557493-317b-428f-a580-818ae8f52298","system_id":"levelo_inurba_marseille","lat":43.29776,"lon":5.37111,"is_reserved":false,"is_disabled":false,"rental_uris":{"android":"levelo://app?vid=9e557493-317b-428f-a580-818ae8f52298","ios":"levelo://app?vid=9e557493-317b-428f-a580-818ae8f52298"},"vehicle_type_id":"4","last_reported":1750237925,"current_range_meters":10800,"station_id":"ce4bgop2rcd13ifvqc1g","pricing_plan_id":"cebpf4jnsgd1na2vs0mg"},{"bike_id":"d30f880b-8118-45d2-aac3-136366f21bb5","system_id":"levelo_inurba_marseille","lat":43.29849,"lon":5.362861,"is_reserved":false,"is_disabled":false,"rental_uris":{"android":"levelo://app?vid=d30f880b-8118-45d2-aac3-136366f21bb5","ios":"levelo://app?vid=d30f880b-8118-45d2-aac3-136366f21bb5"},"vehicle_type_id":"4","last_reported":1750237925,"current_range_meters":10800,"station_id":"ce4bgpp2rcd13ifvqc3g","pricing_plan_id":"cebpf4jnsgd1na2vs0mg"},{"bike_id":"3d61168d-e43c-4deb-9b6a-9d4199cba290","system_id":"levelo_inurba_marseille","lat":43.30304,"lon":5.3688,"is_reserved":false,"is_disabled":false,"rental_uris":{"android":"levelo://app?vid=3d61168d-e43c-4deb-9b6a-9d4199cba290","ios":"levelo://app?vid=3d61168d-e43c-4deb-9b6a-9d4199cba290"},"vehicle_type_id":"4","last_reported":1750237925,"current_range_meters":10800,"station_id":"ce4bgqh2rcd13ifvqc5g","pricing_plan_id":"cebpf4jnsgd1na2vs0mg"},{"bike_id":"cbafb392-da27-4ba1-a00c-cd7cef1a6f1c","system_id":"levelo_inurba_marseille","lat":43.31734,"lon":5.3771,"is_reserved":false,"is_disabled":false,"rental_uris":{"android":"levelo://app?vid=cbafb392-da27-4ba1-a00c-cd7cef1a6f1c","ios":"levelo://app?vid=cbafb392-da27-4ba1-a00c-cd7cef1a6f1c"},"vehicle_type_id":"4","last_reported":1750237925,"current_range_meters":10800,"station_id":"ce4bgth2rcd13ifvqch0","pricing_plan_id":"cebpf4jnsgd1na2vs0mg"},{"bike_id":"bbd4d7c2-8d45-4b8d-a165-f26c00d90047","system_id":"levelo_inurba_marseille","lat":43.31708,"lon":5.4046,"is_reserved":false,"is_disabled":false,"rental_uris":{"android":"levelo://app?vid=bbd4d7c2-8d45-4b8d-a165-f26c00d90047","ios":"levelo://app?vid=bbd4d7c2-8d45-4b8d-a165-f26c00d90047"},"vehicle_type_id":"4","last_reported":1750237925,"current_range_meters":10800,"station_id":"ce4bh012rcd13ifvqd00","pricing_plan_id":"cebpf4jnsgd1na2vs0mg"},{"bike_id":"06f6abdf-d762-4325-a8f4-7ff719590e2a","system_id":"levelo_inurba_marseille","lat":43.2862,"lon":5.35102,"is_reserved":false,"is_disabled":false,"rental_uris":{"android":"levelo://app?vid=06f6abdf-d762-4325-a8f4-7ff719590e2a","ios":"levelo://app?vid=06f6abdf-d762-4325-a8f4-7ff719590e2a"},"vehicle_type_id":"4","last_reported":1750237925,"current_range_meters":10800,"station_id":"ce4bhch2rcd13ifvqeug","pricing_plan_id":"cebpf4jnsgd1na2vs0mg"},{"bike_id":"cbd4c147-dfb2-4a53-959f-84d2337345cf","system_id":"levelo_inurba_marseille","lat":43.26786,"lon":5.39408,"is_reserved":false,"is_disabled":false,"rental_uris":{"android":"levelo://app?vid=cbd4c147-dfb2-4a53-959f-84d2337345cf","ios":"levelo://app?vid=cbd4c147-dfb2-4a53-959f-84d2337345cf"},"vehicle_type_id":"4","last_reported":1750237925,"current_range_meters":10800,"station_id":"ce4bhh12rcd13ifvqfg0","pricing_plan_id":"cebpf4jnsgd1na2vs0mg"},{"bike_id":"3a0a03bd-930c-4579-a692-ca12ebc511ad","system_id":"levelo_inurba_marseille","lat":43.27489,"lon":5.4243,"is_reserved":false,"is_disabled":false,"rental_uris":{"android":"levelo://app?vid=3a0a03bd-930c-4579-a692-ca12ebc511ad","ios":"levelo://app?vid=3a0a03bd-930c-4579-a692-ca12ebc511ad"},"vehicle_type_id":"4","last_reported":1750237925,"current_range_meters":10800,"station_id":"ce4bhn92rcd13ifvqgrg","pricing_plan_id":"cebpf4jnsgd1na2vs0mg"},{"bike_id":"5604a672-a9f7-46e0-a102-d714c62a18e6","system_id":"levelo_inurba_marseille","lat":43.29188,"lon":5.35792,"is_reserved":false,"is_disabled":false,"rental_uris":{"android":"levelo://app?vid=5604a672-a9f7-46e0-a102-d714c62a18e6","ios":"levelo://app?vid=5604a672-a9f7-46e0-a102-d714c62a18e6"},"vehicle_type_id":"4","last_reported":1750237925,"current_range_meters":11200,"station_id":"ce4bhb12rcd13ifvqel0","pricing_plan_id":"cebpf4jnsgd1na2vs0mg"},{"bike_id":"960c85a1-5973-4697-9a13-ccb47f1e6891","system_id":"levelo_inurba_marseille","lat":43.229324,"lon":5.353698,"is_reserved":false,"is_disabled":false,"rental_uris":{"android":"levelo://app?vid=960c85a1-5973-4697-9a13-ccb47f1e6891","ios":"levelo://app?vid=960c85a1-5973-4697-9a13-ccb47f1e6891"},"vehicle_type_id":"4","last_reported":1750237925,"current_range_meters":11200,"station_id":"cpo3532slgdg3j2ikp40","pricing_plan_id":"cebpf4jnsgd1na2vs0mg"},{"bike_id":"c4202700-6411-4e1b-8142-1a1b0364dde3","system_id":"levelo_inurba_marseille","lat":43.29966,"lon":5.38494,"is_reserved":false,"is_disabled":false,"rental_uris":{"android":"levelo://app?vid=c4202700-6411-4e1b-8142-1a1b0364dde3","ios":"levelo://app?vid=c4202700-6411-4e1b-8142-1a1b0364dde3"},"vehicle_type_id":"4","last_reported":1750237925,"current_range_meters":11600,"station_id":"ce4bgj92rcd13ifvqbd0","pricing_plan_id":"cebpf4jnsgd1na2vs0mg"},{"bike_id":"9cbae64f-80bc-4e56-a450-0a17eaac7882","system_id":"levelo_inurba_marseille","lat":43.29764,"lon":5.37098,"is_reserved":false,"is_disabled":false,"rental_uris":{"android":"levelo://app?vid=9cbae64f-80bc-4e56-a450-0a17eaac7882","ios":"levelo://app?vid=9cbae64f-80bc-4e56-a450-0a17eaac7882"},"vehicle_type_id":"4","last_reported":1750237925,"current_range_meters":11600,"station_id":"ce4bgop2rcd13ifvqc1g","pricing_plan_id":"cebpf4jnsgd1na2vs0mg"},{"bike_id":"ec791070-eafa-4c06-b970-7958cef6417d","system_id":"levelo_inurba_marseille","lat":43.23193,"lon":5.35552,"is_reserved":false,"is_disabled":false,"rental_uris":{"android":"levelo://app?vid=ec791070-eafa-4c06-b970-7958cef6417d","ios":"levelo://app?vid=ec791070-eafa-4c06-b970-7958cef6417d"},"vehicle_type_id":"4","last_reported":1750237925,"current_range_meters":11600,"station_id":"ce4bhu92rcd13ifvqi70","pricing_plan_id":"cebpf4jnsgd1na2vs0mg"},{"bike_id":"1197e330-995f-4f41-954b-3eea58f2a4c0","system_id":"levelo_inurba_marseille","lat":43.21194,"lon":5.35069,"is_reserved":false,"is_disabled":false,"rental_uris":{"android":"levelo://app?vid=1197e330-995f-4f41-954b-3eea58f2a4c0","ios":"levelo://app?vid=1197e330-995f-4f41-954b-3eea58f2a4c0"},"vehicle_type_id":"4","last_reported":1750237925,"current_range_meters":11600,"station_id":"st_cvj6sg6p6f1abm77japg","pricing_plan_id":"cebpf4jnsgd1na2vs0mg"},{"bike_id":"de0f7c2b-5974-4035-a240-8ed367c0e3f3","system_id":"levelo_inurba_marseille","lat":43.319657,"lon":5.3762,"is_reserved":false,"is_disabled":false,"rental_uris":{"android":"levelo://app?vid=de0f7c2b-5974-4035-a240-8ed367c0e3f3","ios":"levelo://app?vid=de0f7c2b-5974-4035-a240-8ed367c0e3f3"},"vehicle_type_id":"4","last_reported":1750237925,"current_range_meters":12000,"station_id":"","pricing_plan_id":"cebpf4jnsgd1na2vs0mg"},{"bike_id":"43bd9e31-d7e3-425a-a949-2ef8eb6942ed","system_id":"levelo_inurba_marseille","lat":43.29837,"lon":5.3627,"is_reserved":false,"is_disabled":false,"rental_uris":{"android":"levelo://app?vid=43bd9e31-d7e3-425a-a949-2ef8eb6942ed","ios":"levelo://app?vid=43bd9e31-d7e3-425a-a949-2ef8eb6942ed"},"vehicle_type_id":"4","last_reported":1750237925,"current_range_meters":12000,"station_id":"ce4bgpp2rcd13ifvqc3g","pricing_plan_id":"cebpf4jnsgd1na2vs0mg"},{"bike_id":"71f2a7ba-794f-456c-b958-9ce7f690e362","system_id":"levelo_inurba_marseille","lat":43.28707,"lon":5.37375,"is_reserved":false,"is_disabled":false,"rental_uris":{"android":"levelo://app?vid=71f2a7ba-794f-456c-b958-9ce7f690e362","ios":"levelo://app?vid=71f2a7ba-794f-456c-b958-9ce7f690e362"},"vehicle_type_id":"4","last_reported":1750237925,"current_range_meters":12000,"station_id":"ce4bh3p2rcd13ifvqdq0","pricing_plan_id":"cebpf4jnsgd1na2vs0mg"},{"bike_id":"69ead46d-0a90-4390-a0ce-8a53ff6c3065","system_id":"levelo_inurba_marseille","lat":43.254904,"lon":5.376593,"is_reserved":false,"is_disabled":false,"rental_uris":{"android":"levelo://app?vid=69ead46d-0a90-4390-a0ce-8a53ff6c3065","ios":"levelo://app?vid=69ead46d-0a90-4390-a0ce-8a53ff6c3065"},"vehicle_type_id":"4","last_reported":1750237925,"current_range_meters":12000,"station_id":"ce4bhh12rcd13ifvqff0","pricing_plan_id":"cebpf4jnsgd1na2vs0mg"},{"bike_id":"de93363e-96ac-4c67-9fe7-e804bbb3d5c7","system_id":"levelo_inurba_marseille","lat":43.33612,"lon":5.41025,"is_reserved":false,"is_disabled":false,"rental_uris":{"android":"levelo://app?vid=de93363e-96ac-4c67-9fe7-e804bbb3d5c7","ios":"levelo://app?vid=de93363e-96ac-4c67-9fe7-e804bbb3d5c7"},"vehicle_type_id":"4","last_reported":1750237925,"current_range_meters":12000,"station_id":"ce4bhqh2rcd13ifvqhmg","pricing_plan_id":"cebpf4jnsgd1na2vs0mg"},{"bike_id":"08deb29c-ecb1-4769-9681-e3d0275f3304","system_id":"levelo_inurba_marseille","lat":43.31476,"lon":5.37281,"is_reserved":false,"is_disabled":false,"rental_uris":{"android":"levelo://app?vid=08deb29c-ecb1-4769-9681-e3d0275f3304","ios":"levelo://app?vid=08deb29c-ecb1-4769-9681-e3d0275f3304"},"vehicle_type_id":"4","last_reported":1750237925,"current_range_meters":12400,"station_id":"ce4bgt12rcd13ifvqcd0","pricing_plan_id":"cebpf4jnsgd1na2vs0mg"},{"bike_id":"f7fa858e-b7ee-404f-8191-6184cc003e2b","system_id":"levelo_inurba_marseille","lat":43.232,"lon":5.35554,"is_reserved":false,"is_disabled":false,"rental_uris":{"android":"levelo://app?vid=f7fa858e-b7ee-404f-8191-6184cc003e2b","ios":"levelo://app?vid=f7fa858e-b7ee-404f-8191-6184cc003e2b"},"vehicle_type_id":"4","last_reported":1750237925,"current_range_meters":12400,"station_id":"ce4bhu92rcd13ifvqi70","pricing_plan_id":"cebpf4jnsgd1na2vs0mg"},{"bike_id":"bb6816ed-abc5-49f6-8309-be5fd7258ba0","system_id":"levelo_inurba_marseille","lat":43.23202,"lon":5.3556,"is_reserved":false,"is_disabled":false,"rental_uris":{"android":"levelo://app?vid=bb6816ed-abc5-49f6-8309-be5fd7258ba0","ios":"levelo://app?vid=bb6816ed-abc5-49f6-8309-be5fd7258ba0"},"vehicle_type_id":"4","last_reported":1750237925,"current_range_meters":12400,"station_id":"ce4bhu92rcd13ifvqi70","pricing_plan_id":"cebpf4jnsgd1na2vs0mg"},{"bike_id":"b3afc617-92cc-4315-88cf-83af2bf0e167","system_id":"levelo_inurba_marseille","lat":43.21751,"lon":5.34596,"is_reserved":false,"is_disabled":false,"rental_uris":{"android":"levelo://app?vid=b3afc617-92cc-4315-88cf-83af2bf0e167","ios":"levelo://app?vid=b3afc617-92cc-4315-88cf-83af2bf0e167"},"vehicle_type_id":"4","last_reported":1750237925,"current_range_meters":12400,"station_id":"st_cvj6r9ubvosntc0bgbag","pricing_plan_id":"cebpf4jnsgd1na2vs0mg"},{"bike_id":"2f0f7865-53e4-4955-8eb9-1bb98bf95595","system_id":"levelo_inurba_marseille","lat":43.31763,"lon":5.37604,"is_reserved":false,"is_disabled":false,"rental_uris":{"android":"levelo://app?vid=2f0f7865-53e4-4955-8eb9-1bb98bf95595","ios":"levelo://app?vid=2f0f7865-53e4-4955-8eb9-1bb98bf95595"},"vehicle_type_id":"4","last_reported":1750237925,"current_range_meters":12800,"station_id":"","pricing_plan_id":"cebpf4jnsgd1na2vs0mg"},{"bike_id":"3518210a-6d90-482f-a11b-11cb7c94acd1","system_id":"levelo_inurba_marseille","lat":43.26473,"lon":5.39196,"is_reserved":false,"is_disabled":false,"rental_uris":{"android":"levelo://app?vid=3518210a-6d90-482f-a11b-11cb7c94acd1","ios":"levelo://app?vid=3518210a-6d90-482f-a11b-11cb7c94acd1"},"vehicle_type_id":"4","last_reported":1750237925,"current_range_meters":12800,"station_id":"","pricing_plan_id":"cebpf4jnsgd1na2vs0mg"},{"bike_id":"90200c32-65a7-4788-976c-d6f48d6f7789","system_id":"levelo_inurba_marseille","lat":43.30913,"lon":5.36841,"is_reserved":false,"is_disabled":false,"rental_uris":{"android":"levelo://app?vid=90200c32-65a7-4788-976c-d6f48d6f7789","ios":"levelo://app?vid=90200c32-65a7-4788-976c-d6f48d6f7789"},"vehicle_type_id":"4","last_reported":1750237925,"current_range_meters":12800,"station_id":"ce4bgn92rcd13ifvqbvg","pricing_plan_id":"cebpf4jnsgd1na2vs0mg"},{"bike_id":"640e5acd-a5d9-4baa-9e95-f1a82d8b5c03","system_id":"levelo_inurba_marseille","lat":43.27939,"lon":5.41041,"is_reserved":false,"is_disabled":false,"rental_uris":{"android":"levelo://app?vid=640e5acd-a5d9-4baa-9e95-f1a82d8b5c03","ios":"levelo://app?vid=640e5acd-a5d9-4baa-9e95-f1a82d8b5c03"},"vehicle_type_id":"4","last_reported":1750237925,"current_range_meters":12800,"station_id":"ce4bhnp2rcd13ifvqh0g","pricing_plan_id":"cebpf4jnsgd1na2vs0mg"},{"bike_id":"d2085f79-3ad9-4691-a510-c2dc1092909c","system_id":"levelo_inurba_marseille","lat":43.30416,"lon":5.41287,"is_reserved":false,"is_disabled":false,"rental_uris":{"android":"levelo://app?vid=d2085f79-3ad9-4691-a510-c2dc1092909c","ios":"levelo://app?vid=d2085f79-3ad9-4691-a510-c2dc1092909c"},"vehicle_type_id":"4","last_reported":1750237925,"current_range_meters":12800,"station_id":"ce4bhop2rcd13ifvqh8g","pricing_plan_id":"cebpf4jnsgd1na2vs0mg"},{"bike_id":"e0a889cf-2327-4278-9b67-453fc8c6ae2a","system_id":"levelo_inurba_marseille","lat":43.30259,"lon":5.37453,"is_reserved":false,"is_disabled":false,"rental_uris":{"android":"levelo://app?vid=e0a889cf-2327-4278-9b67-453fc8c6ae2a","ios":"levelo://app?vid=e0a889cf-2327-4278-9b67-453fc8c6ae2a"},"vehicle_type_id":"4","last_reported":1750237925,"current_range_meters":13600,"station_id":"","pricing_plan_id":"cebpf4jnsgd1na2vs0mg"},{"bike_id":"23473c5a-ff05-41d4-a194-b16ef02094df","system_id":"levelo_inurba_marseille","lat":43.30557,"lon":5.36565,"is_reserved":false,"is_disabled":false,"rental_uris":{"android":"levelo://app?vid=23473c5a-ff05-41d4-a194-b16ef02094df","ios":"levelo://app?vid=23473c5a-ff05-41d4-a194-b16ef02094df"},"vehicle_type_id":"4","last_reported":1750237925,"current_range_meters":13600,"station_id":"ce4bgs12rcd13ifvqcag","pricing_plan_id":"cebpf4jnsgd1na2vs0mg"},{"bike_id":"e5a3bf1b-7050-4502-973a-5bce6783c1bc","system_id":"levelo_inurba_marseille","lat":43.31761,"lon":5.37813,"is_reserved":false,"is_disabled":false,"rental_uris":{"android":"levelo://app?vid=e5a3bf1b-7050-4502-973a-5bce6783c1bc","ios":"levelo://app?vid=e5a3bf1b-7050-4502-973a-5bce6783c1bc"},"vehicle_type_id":"4","last_reported":1750237925,"current_range_meters":13600,"station_id":"ce4bgth2rcd13ifvqch0","pricing_plan_id":"cebpf4jnsgd1na2vs0mg"},{"bike_id":"1a9c122e-c061-40ad-9a64-f11e38bab186","system_id":"levelo_inurba_marseille","lat":43.30452,"lon":5.3791,"is_reserved":false,"is_disabled":false,"rental_uris":{"android":"levelo://app?vid=1a9c122e-c061-40ad-9a64-f11e38bab186","ios":"levelo://app?vid=1a9c122e-c061-40ad-9a64-f11e38bab186"},"vehicle_type_id":"4","last_reported":1750237925,"current_range_meters":13600,"station_id":"ce4bgup2rcd13ifvqcn0","pricing_plan_id":"cebpf4jnsgd1na2vs0mg"},{"bike_id":"3bd4f1f6-53d4-48d2-84f8-875902b29eb2","system_id":"levelo_inurba_marseille","lat":43.30961,"lon":5.3903,"is_reserved":false,"is_disabled":false,"rental_uris":{"android":"levelo://app?vid=3bd4f1f6-53d4-48d2-84f8-875902b29eb2","ios":"levelo://app?vid=3bd4f1f6-53d4-48d2-84f8-875902b29eb2"},"vehicle_type_id":"4","last_reported":1750237925,"current_range_meters":13600,"station_id":"ce4bgup2rcd13ifvqco0","pricing_plan_id":"cebpf4jnsgd1na2vs0mg"},{"bike_id":"439ed54d-6159-480b-a257-e7207677bd3a","system_id":"levelo_inurba_marseille","lat":43.25823,"lon":5.39441,"is_reserved":false,"is_disabled":false,"rental_uris":{"android":"levelo://app?vid=439ed54d-6159-480b-a257-e7207677bd3a","ios":"levelo://app?vid=439ed54d-6159-480b-a257-e7207677bd3a"},"vehicle_type_id":"4","last_reported":1750237925,"current_range_meters":13600,"station_id":"ce4bhip2rcd13ifvqft0","pricing_plan_id":"cebpf4jnsgd1na2vs0mg"},{"bike_id":"748b40b5-8f1c-4711-bade-847aefdb040d","system_id":"levelo_inurba_marseille","lat":43.31706,"lon":5.37309,"is_reserved":false,"is_disabled":false,"rental_uris":{"android":"levelo://app?vid=748b40b5-8f1c-4711-bade-847aefdb040d","ios":"levelo://app?vid=748b40b5-8f1c-4711-bade-847aefdb040d"},"vehicle_type_id":"4","last_reported":1750237925,"current_range_meters":14000,"station_id":"","pricing_plan_id":"cebpf4jnsgd1na2vs0mg"},{"bike_id":"4b8da722-ee9e-48a4-a5e5-3a8a10364708","system_id":"levelo_inurba_marseille","lat":43.312327,"lon":5.378125,"is_reserved":false,"is_disabled":false,"rental_uris":{"android":"levelo://app?vid=4b8da722-ee9e-48a4-a5e5-3a8a10364708","ios":"levelo://app?vid=4b8da722-ee9e-48a4-a5e5-3a8a10364708"},"vehicle_type_id":"4","last_reported":1750237925,"current_range_meters":14000,"station_id":"","pricing_plan_id":"cebpf4jnsgd1na2vs0mg"},{"bike_id":"f96fac91-fcd6-4cf6-94db-3fb959156263","system_id":"levelo_inurba_marseille","lat":43.282835,"lon":5.350632,"is_reserved":false,"is_disabled":false,"rental_uris":{"android":"levelo://app?vid=f96fac91-fcd6-4cf6-94db-3fb959156263","ios":"levelo://app?vid=f96fac91-fcd6-4cf6-94db-3fb959156263"},"vehicle_type_id":"4","last_reported":1750237925,"current_range_meters":14000,"station_id":"ce4bhbp2rcd13ifvqerg","pricing_plan_id":"cebpf4jnsgd1na2vs0mg"},{"bike_id":"ffd553d7-2210-49b3-ace7-75c5f82947d2","system_id":"levelo_inurba_marseille","lat":43.23184,"lon":5.39989,"is_reserved":false,"is_disabled":false,"rental_uris":{"android":"levelo://app?vid=ffd553d7-2210-49b3-ace7-75c5f82947d2","ios":"levelo://app?vid=ffd553d7-2210-49b3-ace7-75c5f82947d2"},"vehicle_type_id":"4","last_reported":1750237925,"current_range_meters":14000,"station_id":"ce4bhn12rcd13ifvqgqg","pricing_plan_id":"cebpf4jnsgd1na2vs0mg"},{"bike_id":"6461f011-c7a6-4b06-a33d-0590c4c7d91f","system_id":"levelo_inurba_marseille","lat":43.2844,"lon":5.39203,"is_reserved":false,"is_disabled":false,"rental_uris":{"android":"levelo://app?vid=6461f011-c7a6-4b06-a33d-0590c4c7d91f","ios":"levelo://app?vid=6461f011-c7a6-4b06-a33d-0590c4c7d91f"},"vehicle_type_id":"4","last_reported":1750237925,"current_range_meters":14000,"station_id":"ce4bhoh2rcd13ifvqh5g","pricing_plan_id":"cebpf4jnsgd1na2vs0mg"},{"bike_id":"49da1d70-8c28-4afa-8ea5-4ebf8e5e437a","system_id":"levelo_inurba_marseille","lat":43.33586,"lon":5.40988,"is_reserved":false,"is_disabled":false,"rental_uris":{"android":"levelo://app?vid=49da1d70-8c28-4afa-8ea5-4ebf8e5e437a","ios":"levelo://app?vid=49da1d70-8c28-4afa-8ea5-4ebf8e5e437a"},"vehicle_type_id":"4","last_reported":1750237925,"current_range_meters":14000,"station_id":"ce4bhqh2rcd13ifvqhmg","pricing_plan_id":"cebpf4jnsgd1na2vs0mg"},{"bike_id":"b9740617-416c-49ef-a593-d345aa13726b","system_id":"levelo_inurba_marseille","lat":43.27018,"lon":5.43137,"is_reserved":false,"is_disabled":false,"rental_uris":{"android":"levelo://app?vid=b9740617-416c-49ef-a593-d345aa13726b","ios":"levelo://app?vid=b9740617-416c-49ef-a593-d345aa13726b"},"vehicle_type_id":"4","last_reported":1750237925,"current_range_meters":14400,"station_id":"","pricing_plan_id":"cebpf4jnsgd1na2vs0mg"},{"bike_id":"0dedb6f6-6801-483b-bfb8-9cd4533d158f","system_id":"levelo_inurba_marseille","lat":43.31154,"lon":5.38075,"is_reserved":false,"is_disabled":false,"rental_uris":{"android":"levelo://app?vid=0dedb6f6-6801-483b-bfb8-9cd4533d158f","ios":"levelo://app?vid=0dedb6f6-6801-483b-bfb8-9cd4533d158f"},"vehicle_type_id":"4","last_reported":1750237925,"current_range_meters":14400,"station_id":"","pricing_plan_id":"cebpf4jnsgd1na2vs0mg"},{"bike_id":"2d7e1778-300e-4769-8854-305c49557808","system_id":"levelo_inurba_marseille","lat":43.29541,"lon":5.37511,"is_reserved":false,"is_disabled":false,"rental_uris":{"android":"levelo://app?vid=2d7e1778-300e-4769-8854-305c49557808","ios":"levelo://app?vid=2d7e1778-300e-4769-8854-305c49557808"},"vehicle_type_id":"4","last_reported":1750237925,"current_range_meters":14400,"station_id":"ce4bgkp2rcd13ifvqbmg","pricing_plan_id":"cebpf4jnsgd1na2vs0mg"},{"bike_id":"4823025e-a7f4-493e-8259-a890c4360df6","system_id":"levelo_inurba_marseille","lat":43.30299,"lon":5.36885,"is_reserved":false,"is_disabled":false,"rental_uris":{"android":"levelo://app?vid=4823025e-a7f4-493e-8259-a890c4360df6","ios":"levelo://app?vid=4823025e-a7f4-493e-8259-a890c4360df6"},"vehicle_type_id":"4","last_reported":1750237925,"current_range_meters":14400,"station_id":"ce4bgqh2rcd13ifvqc5g","pricing_plan_id":"cebpf4jnsgd1na2vs0mg"},{"bike_id":"a60724fd-2425-41c1-a369-875919c112ae","system_id":"levelo_inurba_marseille","lat":43.30549,"lon":5.36532,"is_reserved":false,"is_disabled":false,"rental_uris":{"android":"levelo://app?vid=a60724fd-2425-41c1-a369-875919c112ae","ios":"levelo://app?vid=a60724fd-2425-41c1-a369-875919c112ae"},"vehicle_type_id":"4","last_reported":1750237925,"current_range_meters":14400,"station_id":"ce4bgs12rcd13ifvqcag","pricing_plan_id":"cebpf4jnsgd1na2vs0mg"},{"bike_id":"bf926316-c2d2-4b23-8f2b-109a2206ed7c","system_id":"levelo_inurba_marseille","lat":43.30139,"lon":5.37421,"is_reserved":false,"is_disabled":false,"rental_uris":{"android":"levelo://app?vid=bf926316-c2d2-4b23-8f2b-109a2206ed7c","ios":"levelo://app?vid=bf926316-c2d2-4b23-8f2b-109a2206ed7c"},"vehicle_type_id":"4","last_reported":1750237925,"current_range_meters":14400,"station_id":"ce4bgs92rcd13ifvqcc0","pricing_plan_id":"cebpf4jnsgd1na2vs0mg"},{"bike_id":"0f15b751-12a5-4310-ae6b-7fbc9450f2e8","system_id":"levelo_inurba_marseille","lat":43.31331,"lon":5.39705,"is_reserved":false,"is_disabled":false,"rental_uris":{"android":"levelo://app?vid=0f15b751-12a5-4310-ae6b-7fbc9450f2e8","ios":"levelo://app?vid=0f15b751-12a5-4310-ae6b-7fbc9450f2e8"},"vehicle_type_id":"4","last_reported":1750237925,"current_range_meters":14400,"station_id":"ce4bgvp2rcd13ifvqcu0","pricing_plan_id":"cebpf4jnsgd1na2vs0mg"},{"bike_id":"c26c404f-4602-4ced-a562-c0df6f19d6ca","system_id":"levelo_inurba_marseille","lat":43.26211,"lon":5.3744,"is_reserved":false,"is_disabled":false,"rental_uris":{"android":"levelo://app?vid=c26c404f-4602-4ced-a562-c0df6f19d6ca","ios":"levelo://app?vid=c26c404f-4602-4ced-a562-c0df6f19d6ca"},"vehicle_type_id":"4","last_reported":1750237925,"current_range_meters":14400,"station_id":"ce4bhgp2rcd13ifvqfc0","pricing_plan_id":"cebpf4jnsgd1na2vs0mg"},{"bike_id":"4cda9327-46c6-426e-87dd-c291d5dc5ff7","system_id":"levelo_inurba_marseille","lat":43.211931,"lon":5.35071,"is_reserved":false,"is_disabled":false,"rental_uris":{"android":"levelo://app?vid=4cda9327-46c6-426e-87dd-c291d5dc5ff7","ios":"levelo://app?vid=4cda9327-46c6-426e-87dd-c291d5dc5ff7"},"vehicle_type_id":"4","last_reported":1750237925,"current_range_meters":14400,"station_id":"st_cvj6sg6p6f1abm77japg","pricing_plan_id":"cebpf4jnsgd1na2vs0mg"},{"bike_id":"ff6f66ae-3c6b-43fb-abac-1eb13f8fc86d","system_id":"levelo_inurba_marseille","lat":43.277393,"lon":5.354253,"is_reserved":false,"is_disabled":false,"rental_uris":{"android":"levelo://app?vid=ff6f66ae-3c6b-43fb-abac-1eb13f8fc86d","ios":"levelo://app?vid=ff6f66ae-3c6b-43fb-abac-1eb13f8fc86d"},"vehicle_type_id":"4","last_reported":1750237925,"current_range_meters":14800,"station_id":"","pricing_plan_id":"cebpf4jnsgd1na2vs0mg"},{"bike_id":"767338ff-0a3a-4d95-9206-cdd2549dc3b0","system_id":"levelo_inurba_marseille","lat":43.28276,"lon":5.35068,"is_reserved":false,"is_disabled":false,"rental_uris":{"android":"levelo://app?vid=767338ff-0a3a-4d95-9206-cdd2549dc3b0","ios":"levelo://app?vid=767338ff-0a3a-4d95-9206-cdd2549dc3b0"},"vehicle_type_id":"4","last_reported":1750237925,"current_range_meters":14800,"station_id":"ce4bhbp2rcd13ifvqerg","pricing_plan_id":"cebpf4jnsgd1na2vs0mg"},{"bike_id":"57329494-8234-4880-9d93-24bae749339b","system_id":"levelo_inurba_marseille","lat":43.32536,"lon":5.41428,"is_reserved":false,"is_disabled":false,"rental_uris":{"android":"levelo://app?vid=57329494-8234-4880-9d93-24bae749339b","ios":"levelo://app?vid=57329494-8234-4880-9d93-24bae749339b"},"vehicle_type_id":"4","last_reported":1750237925,"current_range_meters":14800,"station_id":"ce4bhq12rcd13ifvqhhg","pricing_plan_id":"cebpf4jnsgd1na2vs0mg"},{"bike_id":"9419eee2-4cbd-46ea-8a19-a98bf3b8c7ee","system_id":"levelo_inurba_marseille","lat":43.322472,"lon":5.382949,"is_reserved":false,"is_disabled":false,"rental_uris":{"android":"levelo://app?vid=9419eee2-4cbd-46ea-8a19-a98bf3b8c7ee","ios":"levelo://app?vid=9419eee2-4cbd-46ea-8a19-a98bf3b8c7ee"},"vehicle_type_id":"4","last_reported":1750237925,"current_range_meters":14800,"station_id":"ce4bhr12rcd13ifvqhqg","pricing_plan_id":"cebpf4jnsgd1na2vs0mg"},{"bike_id":"653a05d9-205d-420f-b0c9-a638667f0917","system_id":"levelo_inurba_marseille","lat":43.21193,"lon":5.35065,"is_reserved":false,"is_disabled":false,"rental_uris":{"android":"levelo://app?vid=653a05d9-205d-420f-b0c9-a638667f0917","ios":"levelo://app?vid=653a05d9-205d-420f-b0c9-a638667f0917"},"vehicle_type_id":"4","last_reported":1750237925,"current_range_meters":14800,"station_id":"st_cvj6sg6p6f1abm77japg","pricing_plan_id":"cebpf4jnsgd1na2vs0mg"},{"bike_id":"9e6b6795-72a7-4c2f-ae9a-06b58fcd1632","system_id":"levelo_inurba_marseille","lat":43.25923,"lon":5.409,"is_reserved":false,"is_disabled":false,"rental_uris":{"android":"levelo://app?vid=9e6b6795-72a7-4c2f-ae9a-06b58fcd1632","ios":"levelo://app?vid=9e6b6795-72a7-4c2f-ae9a-06b58fcd1632"},"vehicle_type_id":"4","last_reported":1750237925,"current_range_meters":15200,"station_id":"ce4bhm92rcd13ifvqglg","pricing_plan_id":"cebpf4jnsgd1na2vs0mg"},{"bike_id":"9fd7bb63-ff0e-4a0d-8f74-13d436406339","system_id":"levelo_inurba_marseille","lat":43.24173,"lon":5.39717,"is_reserved":false,"is_disabled":false,"rental_uris":{"android":"levelo://app?vid=9fd7bb63-ff0e-4a0d-8f74-13d436406339","ios":"levelo://app?vid=9fd7bb63-ff0e-4a0d-8f74-13d436406339"},"vehicle_type_id":"4","last_reported":1750237925,"current_range_meters":15200,"station_id":"ce4bhn12rcd13ifvqgpg","pricing_plan_id":"cebpf4jnsgd1na2vs0mg"},{"bike_id":"268aafb4-1331-426c-97bc-a7d6564caeb6","system_id":"levelo_inurba_marseille","lat":43.32933,"lon":5.37919,"is_reserved":false,"is_disabled":false,"rental_uris":{"android":"levelo://app?vid=268aafb4-1331-426c-97bc-a7d6564caeb6","ios":"levelo://app?vid=268aafb4-1331-426c-97bc-a7d6564caeb6"},"vehicle_type_id":"4","last_reported":1750237925,"current_range_meters":16000,"station_id":"","pricing_plan_id":"cebpf4jnsgd1na2vs0mg"},{"bike_id":"261b5fae-8e34-4cd2-91ab-712e590025c9","system_id":"levelo_inurba_marseille","lat":43.28273,"lon":5.35066,"is_reserved":false,"is_disabled":false,"rental_uris":{"android":"levelo://app?vid=261b5fae-8e34-4cd2-91ab-712e590025c9","ios":"levelo://app?vid=261b5fae-8e34-4cd2-91ab-712e590025c9"},"vehicle_type_id":"4","last_reported":1750237925,"current_range_meters":16000,"station_id":"ce4bhbp2rcd13ifvqerg","pricing_plan_id":"cebpf4jnsgd1na2vs0mg"},{"bike_id":"0724fb79-b5e9-4f08-96fd-f379850c7644","system_id":"levelo_inurba_marseille","lat":43.28275,"lon":5.35071,"is_reserved":false,"is_disabled":false,"rental_uris":{"android":"levelo://app?vid=0724fb79-b5e9-4f08-96fd-f379850c7644","ios":"levelo://app?vid=0724fb79-b5e9-4f08-96fd-f379850c7644"},"vehicle_type_id":"4","last_reported":1750237925,"current_range_meters":16000,"station_id":"ce4bhbp2rcd13ifvqerg","pricing_plan_id":"cebpf4jnsgd1na2vs0mg"},{"bike_id":"9187746d-3a7f-40d6-9159-622fd7582f93","system_id":"levelo_inurba_marseille","lat":43.26226,"lon":5.40461,"is_reserved":false,"is_disabled":false,"rental_uris":{"android":"levelo://app?vid=9187746d-3a7f-40d6-9159-622fd7582f93","ios":"levelo://app?vid=9187746d-3a7f-40d6-9159-622fd7582f93"},"vehicle_type_id":"4","last_reported":1750237925,"current_range_meters":16000,"station_id":"ce4bhmh2rcd13ifvqgmg","pricing_plan_id":"cebpf4jnsgd1na2vs0mg"},{"bike_id":"70a08be0-ce5b-4d19-9244-d18a8a4e00b3","system_id":"levelo_inurba_marseille","lat":43.24176,"lon":5.39733,"is_reserved":false,"is_disabled":false,"rental_uris":{"android":"levelo://app?vid=70a08be0-ce5b-4d19-9244-d18a8a4e00b3","ios":"levelo://app?vid=70a08be0-ce5b-4d19-9244-d18a8a4e00b3"},"vehicle_type_id":"4","last_reported":1750237925,"current_range_meters":16000,"station_id":"ce4bhn12rcd13ifvqgpg","pricing_plan_id":"cebpf4jnsgd1na2vs0mg"},{"bike_id":"1edd31f8-0128-4621-925e-4decf3aa47f1","system_id":"levelo_inurba_marseille","lat":43.21196,"lon":5.35056,"is_reserved":false,"is_disabled":false,"rental_uris":{"android":"levelo://app?vid=1edd31f8-0128-4621-925e-4decf3aa47f1","ios":"levelo://app?vid=1edd31f8-0128-4621-925e-4decf3aa47f1"},"vehicle_type_id":"4","last_reported":1750237925,"current_range_meters":16000,"station_id":"st_cvj6sg6p6f1abm77japg","pricing_plan_id":"cebpf4jnsgd1na2vs0mg"},{"bike_id":"3151b431-ae3a-411c-8189-09c45ab38d79","system_id":"levelo_inurba_marseille","lat":43.3086,"lon":5.37208,"is_reserved":false,"is_disabled":false,"rental_uris":{"android":"levelo://app?vid=3151b431-ae3a-411c-8189-09c45ab38d79","ios":"levelo://app?vid=3151b431-ae3a-411c-8189-09c45ab38d79"},"vehicle_type_id":"4","last_reported":1750237925,"current_range_meters":16400,"station_id":"","pricing_plan_id":"cebpf4jnsgd1na2vs0mg"},{"bike_id":"2d328219-5d0a-4cfc-829b-c48c09d27f58","system_id":"levelo_inurba_marseille","lat":43.21764,"lon":5.34602,"is_reserved":false,"is_disabled":false,"rental_uris":{"android":"levelo://app?vid=2d328219-5d0a-4cfc-829b-c48c09d27f58","ios":"levelo://app?vid=2d328219-5d0a-4cfc-829b-c48c09d27f58"},"vehicle_type_id":"4","last_reported":1750237925,"current_range_meters":16400,"station_id":"","pricing_plan_id":"cebpf4jnsgd1na2vs0mg"},{"bike_id":"cc7142c6-34ef-4b0c-a302-c657990c1b31","system_id":"levelo_inurba_marseille","lat":43.30541,"lon":5.36539,"is_reserved":false,"is_disabled":false,"rental_uris":{"android":"levelo://app?vid=cc7142c6-34ef-4b0c-a302-c657990c1b31","ios":"levelo://app?vid=cc7142c6-34ef-4b0c-a302-c657990c1b31"},"vehicle_type_id":"4","last_reported":1750237925,"current_range_meters":16400,"station_id":"ce4bgs12rcd13ifvqcag","pricing_plan_id":"cebpf4jnsgd1na2vs0mg"},{"bike_id":"60efa8c3-610b-48aa-a918-d33345220f70","system_id":"levelo_inurba_marseille","lat":43.29197,"lon":5.39299,"is_reserved":false,"is_disabled":false,"rental_uris":{"android":"levelo://app?vid=60efa8c3-610b-48aa-a918-d33345220f70","ios":"levelo://app?vid=60efa8c3-610b-48aa-a918-d33345220f70"},"vehicle_type_id":"4","last_reported":1750237925,"current_range_meters":16400,"station_id":"ce4bh192rcd13ifvqdd0","pricing_plan_id":"cebpf4jnsgd1na2vs0mg"},{"bike_id":"ca3f60fc-d88b-494b-9c31-61c90ed6775a","system_id":"levelo_inurba_marseille","lat":43.29018,"lon":5.35591,"is_reserved":false,"is_disabled":false,"rental_uris":{"android":"levelo://app?vid=ca3f60fc-d88b-494b-9c31-61c90ed6775a","ios":"levelo://app?vid=ca3f60fc-d88b-494b-9c31-61c90ed6775a"},"vehicle_type_id":"4","last_reported":1750237925,"current_range_meters":16400,"station_id":"ce4bhb92rcd13ifvqen0","pricing_plan_id":"cebpf4jnsgd1na2vs0mg"},{"bike_id":"94dd8816-3ad3-4e84-ac44-c628dd5f1d7c","system_id":"levelo_inurba_marseille","lat":43.23193,"lon":5.35554,"is_reserved":false,"is_disabled":false,"rental_uris":{"android":"levelo://app?vid=94dd8816-3ad3-4e84-ac44-c628dd5f1d7c","ios":"levelo://app?vid=94dd8816-3ad3-4e84-ac44-c628dd5f1d7c"},"vehicle_type_id":"4","last_reported":1750237925,"current_range_meters":16400,"station_id":"ce4bhu92rcd13ifvqi70","pricing_plan_id":"cebpf4jnsgd1na2vs0mg"},{"bike_id":"f025e0b0-8595-426c-b214-cb9b74c5fcfd","system_id":"levelo_inurba_marseille","lat":43.32185,"lon":5.40583,"is_reserved":false,"is_disabled":false,"rental_uris":{"android":"levelo://app?vid=f025e0b0-8595-426c-b214-cb9b74c5fcfd","ios":"levelo://app?vid=f025e0b0-8595-426c-b214-cb9b74c5fcfd"},"vehicle_type_id":"4","last_reported":1750237925,"current_range_meters":16800,"station_id":"","pricing_plan_id":"cebpf4jnsgd1na2vs0mg"},{"bike_id":"0af6827f-37b3-4b29-aa65-05e625b8db92","system_id":"levelo_inurba_marseille","lat":43.31352,"lon":5.36778,"is_reserved":false,"is_disabled":false,"rental_uris":{"android":"levelo://app?vid=0af6827f-37b3-4b29-aa65-05e625b8db92","ios":"levelo://app?vid=0af6827f-37b3-4b29-aa65-05e625b8db92"},"vehicle_type_id":"4","last_reported":1750237925,"current_range_meters":16800,"station_id":"","pricing_plan_id":"cebpf4jnsgd1na2vs0mg"},{"bike_id":"8b146626-23e4-4258-8262-90b3b385fd5a","system_id":"levelo_inurba_marseille","lat":43.301819,"lon":5.36624,"is_reserved":false,"is_disabled":false,"rental_uris":{"android":"levelo://app?vid=8b146626-23e4-4258-8262-90b3b385fd5a","ios":"levelo://app?vid=8b146626-23e4-4258-8262-90b3b385fd5a"},"vehicle_type_id":"4","last_reported":1750237925,"current_range_meters":16800,"station_id":"ce4bgrh2rcd13ifvqc8g","pricing_plan_id":"cebpf4jnsgd1na2vs0mg"},{"bike_id":"4f3842ae-753d-4560-bc4f-364adf58b7f8","system_id":"levelo_inurba_marseille","lat":43.25937,"lon":5.40899,"is_reserved":false,"is_disabled":false,"rental_uris":{"android":"levelo://app?vid=4f3842ae-753d-4560-bc4f-364adf58b7f8","ios":"levelo://app?vid=4f3842ae-753d-4560-bc4f-364adf58b7f8"},"vehicle_type_id":"4","last_reported":1750237925,"current_range_meters":16800,"station_id":"ce4bhm92rcd13ifvqglg","pricing_plan_id":"cebpf4jnsgd1na2vs0mg"},{"bike_id":"f32970a8-82b3-4c3b-9328-fe787216c5c0","system_id":"levelo_inurba_marseille","lat":43.26219,"lon":5.40454,"is_reserved":false,"is_disabled":false,"rental_uris":{"android":"levelo://app?vid=f32970a8-82b3-4c3b-9328-fe787216c5c0","ios":"levelo://app?vid=f32970a8-82b3-4c3b-9328-fe787216c5c0"},"vehicle_type_id":"4","last_reported":1750237925,"current_range_meters":16800,"station_id":"ce4bhmh2rcd13ifvqgmg","pricing_plan_id":"cebpf4jnsgd1na2vs0mg"},{"bike_id":"d1a40c3e-44a4-4b9a-97c3-90a5bd273762","system_id":"levelo_inurba_marseille","lat":43.24172,"lon":5.39737,"is_reserved":false,"is_disabled":false,"rental_uris":{"android":"levelo://app?vid=d1a40c3e-44a4-4b9a-97c3-90a5bd273762","ios":"levelo://app?vid=d1a40c3e-44a4-4b9a-97c3-90a5bd273762"},"vehicle_type_id":"4","last_reported":1750237925,"current_range_meters":16800,"station_id":"ce4bhn12rcd13ifvqgpg","pricing_plan_id":"cebpf4jnsgd1na2vs0mg"},{"bike_id":"d6b59448-6161-4e70-befd-235ecc0fb1fc","system_id":"levelo_inurba_marseille","lat":43.231943,"lon":5.355525,"is_reserved":false,"is_disabled":false,"rental_uris":{"android":"levelo://app?vid=d6b59448-6161-4e70-befd-235ecc0fb1fc","ios":"levelo://app?vid=d6b59448-6161-4e70-befd-235ecc0fb1fc"},"vehicle_type_id":"4","last_reported":1750237925,"current_range_meters":16800,"station_id":"ce4bhu92rcd13ifvqi70","pricing_plan_id":"cebpf4jnsgd1na2vs0mg"},{"bike_id":"e921cee3-b8ce-4c00-b7eb-8ab335b5e125","system_id":"levelo_inurba_marseille","lat":43.30153,"lon":5.42298,"is_reserved":false,"is_disabled":false,"rental_uris":{"android":"levelo://app?vid=e921cee3-b8ce-4c00-b7eb-8ab335b5e125","ios":"levelo://app?vid=e921cee3-b8ce-4c00-b7eb-8ab335b5e125"},"vehicle_type_id":"4","last_reported":1750237925,"current_range_meters":17200,"station_id":"","pricing_plan_id":"cebpf4jnsgd1na2vs0mg"},{"bike_id":"ae2fdae3-50bf-4bd1-ba6e-560530838045","system_id":"levelo_inurba_marseille","lat":43.2632,"lon":5.37394,"is_reserved":false,"is_disabled":false,"rental_uris":{"android":"levelo://app?vid=ae2fdae3-50bf-4bd1-ba6e-560530838045","ios":"levelo://app?vid=ae2fdae3-50bf-4bd1-ba6e-560530838045"},"vehicle_type_id":"4","last_reported":1750237925,"current_range_meters":17200,"station_id":"","pricing_plan_id":"cebpf4jnsgd1na2vs0mg"},{"bike_id":"a1400340-ade0-4e90-bc81-e640ea44a43b","system_id":"levelo_inurba_marseille","lat":43.25718,"lon":5.4109,"is_reserved":false,"is_disabled":false,"rental_uris":{"android":"levelo://app?vid=a1400340-ade0-4e90-bc81-e640ea44a43b","ios":"levelo://app?vid=a1400340-ade0-4e90-bc81-e640ea44a43b"},"vehicle_type_id":"4","last_reported":1750237925,"current_range_meters":17200,"station_id":"ce4bhkp2rcd13ifvqgd0","pricing_plan_id":"cebpf4jnsgd1na2vs0mg"},{"bike_id":"5c9878b4-89f1-4442-84b0-44598b017874","system_id":"levelo_inurba_marseille","lat":43.25903,"lon":5.4091,"is_reserved":false,"is_disabled":false,"rental_uris":{"android":"levelo://app?vid=5c9878b4-89f1-4442-84b0-44598b017874","ios":"levelo://app?vid=5c9878b4-89f1-4442-84b0-44598b017874"},"vehicle_type_id":"4","last_reported":1750237925,"current_range_meters":17200,"station_id":"ce4bhm92rcd13ifvqglg","pricing_plan_id":"cebpf4jnsgd1na2vs0mg"},{"bike_id":"d09a4a26-fc07-4a5b-bc6a-d28c68d91dbd","system_id":"levelo_inurba_marseille","lat":43.23185,"lon":5.39986,"is_reserved":false,"is_disabled":false,"rental_uris":{"android":"levelo://app?vid=d09a4a26-fc07-4a5b-bc6a-d28c68d91dbd","ios":"levelo://app?vid=d09a4a26-fc07-4a5b-bc6a-d28c68d91dbd"},"vehicle_type_id":"4","last_reported":1750237925,"current_range_meters":17200,"station_id":"ce4bhn12rcd13ifvqgqg","pricing_plan_id":"cebpf4jnsgd1na2vs0mg"},{"bike_id":"6b2eb2c1-fc21-4141-9e52-3d47d8b55b6c","system_id":"levelo_inurba_marseille","lat":43.301549,"lon":5.380714,"is_reserved":false,"is_disabled":false,"rental_uris":{"android":"levelo://app?vid=6b2eb2c1-fc21-4141-9e52-3d47d8b55b6c","ios":"levelo://app?vid=6b2eb2c1-fc21-4141-9e52-3d47d8b55b6c"},"vehicle_type_id":"4","last_reported":1750237925,"current_range_meters":17600,"station_id":"ce4bgjp2rcd13ifvqbh0","pricing_plan_id":"cebpf4jnsgd1na2vs0mg"},{"bike_id":"cfef7392-1433-476b-a989-3fb180315ec3","system_id":"levelo_inurba_marseille","lat":43.24174,"lon":5.39729,"is_reserved":false,"is_disabled":false,"rental_uris":{"android":"levelo://app?vid=cfef7392-1433-476b-a989-3fb180315ec3","ios":"levelo://app?vid=cfef7392-1433-476b-a989-3fb180315ec3"},"vehicle_type_id":"4","last_reported":1750237925,"current_range_meters":17600,"station_id":"ce4bhn12rcd13ifvqgpg","pricing_plan_id":"cebpf4jnsgd1na2vs0mg"},{"bike_id":"3a36c9f3-b80b-444d-90e6-1b15063ea03c","system_id":"levelo_inurba_marseille","lat":43.32112,"lon":5.3678,"is_reserved":false,"is_disabled":false,"rental_uris":{"android":"levelo://app?vid=3a36c9f3-b80b-444d-90e6-1b15063ea03c","ios":"levelo://app?vid=3a36c9f3-b80b-444d-90e6-1b15063ea03c"},"vehicle_type_id":"4","last_reported":1750237925,"current_range_meters":17600,"station_id":"ce4bhrh2rcd13ifvqhug","pricing_plan_id":"cebpf4jnsgd1na2vs0mg"},{"bike_id":"a7269e3f-e2c4-4028-b2ed-51436c8cf697","system_id":"levelo_inurba_marseille","lat":43.2118,"lon":5.35081,"is_reserved":false,"is_disabled":false,"rental_uris":{"android":"levelo://app?vid=a7269e3f-e2c4-4028-b2ed-51436c8cf697","ios":"levelo://app?vid=a7269e3f-e2c4-4028-b2ed-51436c8cf697"},"vehicle_type_id":"4","last_reported":1750237925,"current_range_meters":17600,"station_id":"st_cvj6sg6p6f1abm77japg","pricing_plan_id":"cebpf4jnsgd1na2vs0mg"},{"bike_id":"4b6b2a2b-d3c4-4663-8ea1-de4eff39b7b2","system_id":"levelo_inurba_marseille","lat":43.21202,"lon":5.35061,"is_reserved":false,"is_disabled":false,"rental_uris":{"android":"levelo://app?vid=4b6b2a2b-d3c4-4663-8ea1-de4eff39b7b2","ios":"levelo://app?vid=4b6b2a2b-d3c4-4663-8ea1-de4eff39b7b2"},"vehicle_type_id":"4","last_reported":1750237925,"current_range_meters":17600,"station_id":"st_cvj6sg6p6f1abm77japg","pricing_plan_id":"cebpf4jnsgd1na2vs0mg"},{"bike_id":"692ec672-50d2-4ad5-aba1-9c9616f65bee","system_id":"levelo_inurba_marseille","lat":43.301891,"lon":5.366275,"is_reserved":false,"is_disabled":false,"rental_uris":{"android":"levelo://app?vid=692ec672-50d2-4ad5-aba1-9c9616f65bee","ios":"levelo://app?vid=692ec672-50d2-4ad5-aba1-9c9616f65bee"},"vehicle_type_id":"4","last_reported":1750237925,"current_range_meters":18000,"station_id":"","pricing_plan_id":"cebpf4jnsgd1na2vs0mg"},{"bike_id":"a85b2000-e3ea-4c9d-8512-f632fbae13d6","system_id":"levelo_inurba_marseille","lat":43.30184,"lon":5.40065,"is_reserved":false,"is_disabled":false,"rental_uris":{"android":"levelo://app?vid=a85b2000-e3ea-4c9d-8512-f632fbae13d6","ios":"levelo://app?vid=a85b2000-e3ea-4c9d-8512-f632fbae13d6"},"vehicle_type_id":"4","last_reported":1750237925,"current_range_meters":18000,"station_id":"","pricing_plan_id":"cebpf4jnsgd1na2vs0mg"},{"bike_id":"77ac8037-3c3c-493a-82c2-904a9ad6c7d0","system_id":"levelo_inurba_marseille","lat":43.2681,"lon":5.3906,"is_reserved":false,"is_disabled":false,"rental_uris":{"android":"levelo://app?vid=77ac8037-3c3c-493a-82c2-904a9ad6c7d0","ios":"levelo://app?vid=77ac8037-3c3c-493a-82c2-904a9ad6c7d0"},"vehicle_type_id":"4","last_reported":1750237925,"current_range_meters":18000,"station_id":"","pricing_plan_id":"cebpf4jnsgd1na2vs0mg"},{"bike_id":"a43da8b1-54d1-4d4d-80a0-0d1413f9877c","system_id":"levelo_inurba_marseille","lat":43.3055,"lon":5.36537,"is_reserved":false,"is_disabled":false,"rental_uris":{"android":"levelo://app?vid=a43da8b1-54d1-4d4d-80a0-0d1413f9877c","ios":"levelo://app?vid=a43da8b1-54d1-4d4d-80a0-0d1413f9877c"},"vehicle_type_id":"4","last_reported":1750237925,"current_range_meters":18000,"station_id":"ce4bgs12rcd13ifvqcag","pricing_plan_id":"cebpf4jnsgd1na2vs0mg"},{"bike_id":"7f0f0495-51de-4cb3-a0c7-fb639cacd4f1","system_id":"levelo_inurba_marseille","lat":43.29198,"lon":5.35805,"is_reserved":false,"is_disabled":false,"rental_uris":{"android":"levelo://app?vid=7f0f0495-51de-4cb3-a0c7-fb639cacd4f1","ios":"levelo://app?vid=7f0f0495-51de-4cb3-a0c7-fb639cacd4f1"},"vehicle_type_id":"4","last_reported":1750237925,"current_range_meters":18000,"station_id":"ce4bhb12rcd13ifvqel0","pricing_plan_id":"cebpf4jnsgd1na2vs0mg"},{"bike_id":"1045cbb5-2783-402c-ba9b-01077b046095","system_id":"levelo_inurba_marseille","lat":43.28418,"lon":5.349776,"is_reserved":false,"is_disabled":false,"rental_uris":{"android":"levelo://app?vid=1045cbb5-2783-402c-ba9b-01077b046095","ios":"levelo://app?vid=1045cbb5-2783-402c-ba9b-01077b046095"},"vehicle_type_id":"4","last_reported":1750237925,"current_range_meters":18000,"station_id":"ce4bhbh2rcd13ifvqepg","pricing_plan_id":"cebpf4jnsgd1na2vs0mg"},{"bike_id":"cd6b0f39-6bc0-43fc-b665-ce02669d345a","system_id":"levelo_inurba_marseille","lat":43.282654,"lon":5.350602,"is_reserved":false,"is_disabled":false,"rental_uris":{"android":"levelo://app?vid=cd6b0f39-6bc0-43fc-b665-ce02669d345a","ios":"levelo://app?vid=cd6b0f39-6bc0-43fc-b665-ce02669d345a"},"vehicle_type_id":"4","last_reported":1750237925,"current_range_meters":18000,"station_id":"ce4bhbp2rcd13ifvqerg","pricing_plan_id":"cebpf4jnsgd1na2vs0mg"},{"bike_id":"7aeb9e5d-46cc-4fb2-89b7-7f55fa98e63b","system_id":"levelo_inurba_marseille","lat":43.26686,"lon":5.38263,"is_reserved":false,"is_disabled":false,"rental_uris":{"android":"levelo://app?vid=7aeb9e5d-46cc-4fb2-89b7-7f55fa98e63b","ios":"levelo://app?vid=7aeb9e5d-46cc-4fb2-89b7-7f55fa98e63b"},"vehicle_type_id":"4","last_reported":1750237925,"current_range_meters":18000,"station_id":"ce4bhg92rcd13ifvqf90","pricing_plan_id":"cebpf4jnsgd1na2vs0mg"},{"bike_id":"4037a0f6-4461-4c1e-bad0-03e7c1253ab3","system_id":"levelo_inurba_marseille","lat":43.2549,"lon":5.37642,"is_reserved":false,"is_disabled":false,"rental_uris":{"android":"levelo://app?vid=4037a0f6-4461-4c1e-bad0-03e7c1253ab3","ios":"levelo://app?vid=4037a0f6-4461-4c1e-bad0-03e7c1253ab3"},"vehicle_type_id":"4","last_reported":1750237925,"current_range_meters":18000,"station_id":"ce4bhh12rcd13ifvqff0","pricing_plan_id":"cebpf4jnsgd1na2vs0mg"},{"bike_id":"6ba4ca26-89c4-4664-a74d-96ac8f12e08f","system_id":"levelo_inurba_marseille","lat":43.270607,"lon":5.402564,"is_reserved":false,"is_disabled":false,"rental_uris":{"android":"levelo://app?vid=6ba4ca26-89c4-4664-a74d-96ac8f12e08f","ios":"levelo://app?vid=6ba4ca26-89c4-4664-a74d-96ac8f12e08f"},"vehicle_type_id":"4","last_reported":1750237925,"current_range_meters":18000,"station_id":"ce4bhk92rcd13ifvqgc0","pricing_plan_id":"cebpf4jnsgd1na2vs0mg"},{"bike_id":"a004d7f2-75e1-49e9-b073-ad13bcf23d1e","system_id":"levelo_inurba_marseille","lat":43.2319,"lon":5.3556,"is_reserved":false,"is_disabled":false,"rental_uris":{"android":"levelo://app?vid=a004d7f2-75e1-49e9-b073-ad13bcf23d1e","ios":"levelo://app?vid=a004d7f2-75e1-49e9-b073-ad13bcf23d1e"},"vehicle_type_id":"4","last_reported":1750237925,"current_range_meters":18000,"station_id":"ce4bhu92rcd13ifvqi70","pricing_plan_id":"cebpf4jnsgd1na2vs0mg"},{"bike_id":"e5863b13-0bb4-41ee-a7a1-72091c1036b5","system_id":"levelo_inurba_marseille","lat":43.31599,"lon":5.38368,"is_reserved":false,"is_disabled":false,"rental_uris":{"android":"levelo://app?vid=e5863b13-0bb4-41ee-a7a1-72091c1036b5","ios":"levelo://app?vid=e5863b13-0bb4-41ee-a7a1-72091c1036b5"},"vehicle_type_id":"4","last_reported":1750237925,"current_range_meters":18800,"station_id":"","pricing_plan_id":"cebpf4jnsgd1na2vs0mg"},{"bike_id":"52e10701-516d-49f8-b8f8-4528b496fe2e","system_id":"levelo_inurba_marseille","lat":43.29964,"lon":5.38493,"is_reserved":false,"is_disabled":false,"rental_uris":{"android":"levelo://app?vid=52e10701-516d-49f8-b8f8-4528b496fe2e","ios":"levelo://app?vid=52e10701-516d-49f8-b8f8-4528b496fe2e"},"vehicle_type_id":"4","last_reported":1750237925,"current_range_meters":18800,"station_id":"ce4bgj92rcd13ifvqbd0","pricing_plan_id":"cebpf4jnsgd1na2vs0mg"},{"bike_id":"78016a6c-3ca7-4eda-a2f7-853a8ae2c567","system_id":"levelo_inurba_marseille","lat":43.2936,"lon":5.37837,"is_reserved":false,"is_disabled":false,"rental_uris":{"android":"levelo://app?vid=78016a6c-3ca7-4eda-a2f7-853a8ae2c567","ios":"levelo://app?vid=78016a6c-3ca7-4eda-a2f7-853a8ae2c567"},"vehicle_type_id":"4","last_reported":1750237925,"current_range_meters":18800,"station_id":"ce4bgjh2rcd13ifvqbf0","pricing_plan_id":"cebpf4jnsgd1na2vs0mg"},{"bike_id":"f626679a-66ed-43af-825b-528207ab271c","system_id":"levelo_inurba_marseille","lat":43.28491,"lon":5.38572,"is_reserved":false,"is_disabled":false,"rental_uris":{"android":"levelo://app?vid=f626679a-66ed-43af-825b-528207ab271c","ios":"levelo://app?vid=f626679a-66ed-43af-825b-528207ab271c"},"vehicle_type_id":"4","last_reported":1750237925,"current_range_meters":18800,"station_id":"ce4bh8p2rcd13ifvqeb0","pricing_plan_id":"cebpf4jnsgd1na2vs0mg"},{"bike_id":"b3e2e833-a78a-42e5-af8b-5992790fc83e","system_id":"levelo_inurba_marseille","lat":43.29031,"lon":5.37472,"is_reserved":false,"is_disabled":false,"rental_uris":{"android":"levelo://app?vid=b3e2e833-a78a-42e5-af8b-5992790fc83e","ios":"levelo://app?vid=b3e2e833-a78a-42e5-af8b-5992790fc83e"},"vehicle_type_id":"4","last_reported":1750237925,"current_range_meters":18800,"station_id":"ce4bhb92rcd13ifvqen0","pricing_plan_id":"cebpf4jnsgd1na2vs0mg"},{"bike_id":"4db85639-d5fd-4347-93f4-e9c0f9595958","system_id":"levelo_inurba_marseille","lat":43.2668,"lon":5.38273,"is_reserved":false,"is_disabled":false,"rental_uris":{"android":"levelo://app?vid=4db85639-d5fd-4347-93f4-e9c0f9595958","ios":"levelo://app?vid=4db85639-d5fd-4347-93f4-e9c0f9595958"},"vehicle_type_id":"4","last_reported":1750237925,"current_range_meters":18800,"station_id":"ce4bhg92rcd13ifvqf90","pricing_plan_id":"cebpf4jnsgd1na2vs0mg"},{"bike_id":"8737eba2-0720-4e29-949e-0f8cab6bf39f","system_id":"levelo_inurba_marseille","lat":43.24669,"lon":5.38161,"is_reserved":false,"is_disabled":false,"rental_uris":{"android":"levelo://app?vid=8737eba2-0720-4e29-949e-0f8cab6bf39f","ios":"levelo://app?vid=8737eba2-0720-4e29-949e-0f8cab6bf39f"},"vehicle_type_id":"4","last_reported":1750237925,"current_range_meters":18800,"station_id":"ce4bhih2rcd13ifvqfr0","pricing_plan_id":"cebpf4jnsgd1na2vs0mg"},{"bike_id":"bcc573f7-4885-4e01-a82f-f27d067ecde3","system_id":"levelo_inurba_marseille","lat":43.241744,"lon":5.397319,"is_reserved":false,"is_disabled":false,"rental_uris":{"android":"levelo://app?vid=bcc573f7-4885-4e01-a82f-f27d067ecde3","ios":"levelo://app?vid=bcc573f7-4885-4e01-a82f-f27d067ecde3"},"vehicle_type_id":"4","last_reported":1750237925,"current_range_meters":18800,"station_id":"ce4bhn12rcd13ifvqgpg","pricing_plan_id":"cebpf4jnsgd1na2vs0mg"},{"bike_id":"b4c92d4f-5d69-41ad-a194-5e26a2aeb332","system_id":"levelo_inurba_marseille","lat":43.24167,"lon":5.39713,"is_reserved":false,"is_disabled":false,"rental_uris":{"android":"levelo://app?vid=b4c92d4f-5d69-41ad-a194-5e26a2aeb332","ios":"levelo://app?vid=b4c92d4f-5d69-41ad-a194-5e26a2aeb332"},"vehicle_type_id":"4","last_reported":1750237925,"current_range_meters":18800,"station_id":"ce4bhn12rcd13ifvqgpg","pricing_plan_id":"cebpf4jnsgd1na2vs0mg"},{"bike_id":"b792d1c2-8a9e-4afa-b07e-74b8daa2a6f8","system_id":"levelo_inurba_marseille","lat":43.32111,"lon":5.36764,"is_reserved":false,"is_disabled":false,"rental_uris":{"android":"levelo://app?vid=b792d1c2-8a9e-4afa-b07e-74b8daa2a6f8","ios":"levelo://app?vid=b792d1c2-8a9e-4afa-b07e-74b8daa2a6f8"},"vehicle_type_id":"4","last_reported":1750237925,"current_range_meters":18800,"station_id":"ce4bhrh2rcd13ifvqhug","pricing_plan_id":"cebpf4jnsgd1na2vs0mg"},{"bike_id":"833b16e1-97ec-4192-81e4-91877b340a52","system_id":"levelo_inurba_marseille","lat":43.32483,"lon":5.36534,"is_reserved":false,"is_disabled":false,"rental_uris":{"android":"levelo://app?vid=833b16e1-97ec-4192-81e4-91877b340a52","ios":"levelo://app?vid=833b16e1-97ec-4192-81e4-91877b340a52"},"vehicle_type_id":"4","last_reported":1750237925,"current_range_meters":18800,"station_id":"ce4bhs12rcd13ifvqhvg","pricing_plan_id":"cebpf4jnsgd1na2vs0mg"},{"bike_id":"4ce5b165-f22d-40cf-abd3-1cb294861955","system_id":"levelo_inurba_marseille","lat":43.21189,"lon":5.35079,"is_reserved":false,"is_disabled":false,"rental_uris":{"android":"levelo://app?vid=4ce5b165-f22d-40cf-abd3-1cb294861955","ios":"levelo://app?vid=4ce5b165-f22d-40cf-abd3-1cb294861955"},"vehicle_type_id":"4","last_reported":1750237925,"current_range_meters":19200,"station_id":"","pricing_plan_id":"cebpf4jnsgd1na2vs0mg"},{"bike_id":"37042aae-13ad-4dab-8c3e-4d60e5da14af","system_id":"levelo_inurba_marseille","lat":43.2971,"lon":5.36616,"is_reserved":false,"is_disabled":false,"rental_uris":{"android":"levelo://app?vid=37042aae-13ad-4dab-8c3e-4d60e5da14af","ios":"levelo://app?vid=37042aae-13ad-4dab-8c3e-4d60e5da14af"},"vehicle_type_id":"4","last_reported":1750237925,"current_range_meters":19200,"station_id":"ce4bgn12rcd13ifvqbt0","pricing_plan_id":"cebpf4jnsgd1na2vs0mg"},{"bike_id":"4e2c3ca8-2a28-4abe-87b1-e2a83a1bd755","system_id":"levelo_inurba_marseille","lat":43.29847,"lon":5.3627,"is_reserved":false,"is_disabled":false,"rental_uris":{"android":"levelo://app?vid=4e2c3ca8-2a28-4abe-87b1-e2a83a1bd755","ios":"levelo://app?vid=4e2c3ca8-2a28-4abe-87b1-e2a83a1bd755"},"vehicle_type_id":"4","last_reported":1750237925,"current_range_meters":19200,"station_id":"ce4bgpp2rcd13ifvqc3g","pricing_plan_id":"cebpf4jnsgd1na2vs0mg"},{"bike_id":"585259ad-ba2c-4ce6-8a01-013d223950d8","system_id":"levelo_inurba_marseille","lat":43.28428,"lon":5.34984,"is_reserved":false,"is_disabled":false,"rental_uris":{"android":"levelo://app?vid=585259ad-ba2c-4ce6-8a01-013d223950d8","ios":"levelo://app?vid=585259ad-ba2c-4ce6-8a01-013d223950d8"},"vehicle_type_id":"4","last_reported":1750237925,"current_range_meters":19200,"station_id":"ce4bhbh2rcd13ifvqepg","pricing_plan_id":"cebpf4jnsgd1na2vs0mg"},{"bike_id":"cfc3fef4-f93f-49bc-ba62-ea97fc2c8db8","system_id":"levelo_inurba_marseille","lat":43.28425,"lon":5.34984,"is_reserved":false,"is_disabled":false,"rental_uris":{"android":"levelo://app?vid=cfc3fef4-f93f-49bc-ba62-ea97fc2c8db8","ios":"levelo://app?vid=cfc3fef4-f93f-49bc-ba62-ea97fc2c8db8"},"vehicle_type_id":"4","last_reported":1750237925,"current_range_meters":19200,"station_id":"ce4bhbh2rcd13ifvqepg","pricing_plan_id":"cebpf4jnsgd1na2vs0mg"},{"bike_id":"222665bb-ebff-413c-b399-f8de6e68208b","system_id":"levelo_inurba_marseille","lat":43.28266,"lon":5.3506,"is_reserved":false,"is_disabled":false,"rental_uris":{"android":"levelo://app?vid=222665bb-ebff-413c-b399-f8de6e68208b","ios":"levelo://app?vid=222665bb-ebff-413c-b399-f8de6e68208b"},"vehicle_type_id":"4","last_reported":1750237925,"current_range_meters":19200,"station_id":"ce4bhbp2rcd13ifvqerg","pricing_plan_id":"cebpf4jnsgd1na2vs0mg"},{"bike_id":"6e531977-8264-4f8d-83ff-39e72b6d537f","system_id":"levelo_inurba_marseille","lat":43.27328,"lon":5.39084,"is_reserved":false,"is_disabled":false,"rental_uris":{"android":"levelo://app?vid=6e531977-8264-4f8d-83ff-39e72b6d537f","ios":"levelo://app?vid=6e531977-8264-4f8d-83ff-39e72b6d537f"},"vehicle_type_id":"4","last_reported":1750237925,"current_range_meters":19200,"station_id":"ce4bhgp2rcd13ifvqfe0","pricing_plan_id":"cebpf4jnsgd1na2vs0mg"},{"bike_id":"70ccf38c-f40f-449b-ae32-3edf990b03ac","system_id":"levelo_inurba_marseille","lat":43.27051,"lon":5.42274,"is_reserved":false,"is_disabled":false,"rental_uris":{"android":"levelo://app?vid=70ccf38c-f40f-449b-ae32-3edf990b03ac","ios":"levelo://app?vid=70ccf38c-f40f-449b-ae32-3edf990b03ac"},"vehicle_type_id":"4","last_reported":1750237925,"current_range_meters":19200,"station_id":"ce4bhk92rcd13ifvqgb0","pricing_plan_id":"cebpf4jnsgd1na2vs0mg"},{"bike_id":"452de6f5-dcc4-40e6-91d1-27952aacbf43","system_id":"levelo_inurba_marseille","lat":43.23188,"lon":5.39984,"is_reserved":false,"is_disabled":false,"rental_uris":{"android":"levelo://app?vid=452de6f5-dcc4-40e6-91d1-27952aacbf43","ios":"levelo://app?vid=452de6f5-dcc4-40e6-91d1-27952aacbf43"},"vehicle_type_id":"4","last_reported":1750237925,"current_range_meters":19200,"station_id":"ce4bhn12rcd13ifvqgqg","pricing_plan_id":"cebpf4jnsgd1na2vs0mg"},{"bike_id":"57194aa0-05f4-435c-9bf0-68cf0d29eea0","system_id":"levelo_inurba_marseille","lat":43.33722,"lon":5.39193,"is_reserved":false,"is_disabled":false,"rental_uris":{"android":"levelo://app?vid=57194aa0-05f4-435c-9bf0-68cf0d29eea0","ios":"levelo://app?vid=57194aa0-05f4-435c-9bf0-68cf0d29eea0"},"vehicle_type_id":"4","last_reported":1750237925,"current_range_meters":19200,"station_id":"ce4bhr92rcd13ifvqhsg","pricing_plan_id":"cebpf4jnsgd1na2vs0mg"},{"bike_id":"27cd7138-8b58-4d27-b6bb-d957b614e63b","system_id":"levelo_inurba_marseille","lat":43.30158,"lon":5.3699,"is_reserved":false,"is_disabled":false,"rental_uris":{"android":"levelo://app?vid=27cd7138-8b58-4d27-b6bb-d957b614e63b","ios":"levelo://app?vid=27cd7138-8b58-4d27-b6bb-d957b614e63b"},"vehicle_type_id":"4","last_reported":1750237925,"current_range_meters":19600,"station_id":"","pricing_plan_id":"cebpf4jnsgd1na2vs0mg"},{"bike_id":"03b64852-b343-4a41-a95d-964568f415a0","system_id":"levelo_inurba_marseille","lat":43.31391,"lon":5.36683,"is_reserved":false,"is_disabled":false,"rental_uris":{"android":"levelo://app?vid=03b64852-b343-4a41-a95d-964568f415a0","ios":"levelo://app?vid=03b64852-b343-4a41-a95d-964568f415a0"},"vehicle_type_id":"4","last_reported":1750237925,"current_range_meters":19600,"station_id":"","pricing_plan_id":"cebpf4jnsgd1na2vs0mg"},{"bike_id":"c0329f05-2989-4500-bb35-0af7d8049754","system_id":"levelo_inurba_marseille","lat":43.29684,"lon":5.37268,"is_reserved":false,"is_disabled":false,"rental_uris":{"android":"levelo://app?vid=c0329f05-2989-4500-bb35-0af7d8049754","ios":"levelo://app?vid=c0329f05-2989-4500-bb35-0af7d8049754"},"vehicle_type_id":"4","last_reported":1750237925,"current_range_meters":19600,"station_id":"ce4bgk12rcd13ifvqbj0","pricing_plan_id":"cebpf4jnsgd1na2vs0mg"},{"bike_id":"5654a528-9f83-4e01-8cee-bed7de331b3f","system_id":"levelo_inurba_marseille","lat":43.30942,"lon":5.39026,"is_reserved":false,"is_disabled":false,"rental_uris":{"android":"levelo://app?vid=5654a528-9f83-4e01-8cee-bed7de331b3f","ios":"levelo://app?vid=5654a528-9f83-4e01-8cee-bed7de331b3f"},"vehicle_type_id":"4","last_reported":1750237925,"current_range_meters":19600,"station_id":"ce4bgup2rcd13ifvqco0","pricing_plan_id":"cebpf4jnsgd1na2vs0mg"},