{"last_updated":1749748189,"ttl":60,"version":"2.2","data":{"bikes":[{"bike_id":"b31f0139-170f-4194-984f-4386218a1e9d","system_id":"levelo_inurba_marseille","lat":43.33771,"lon":5.37424,"is_reserved":false,"is_disabled":true,"rental_uris":{"android":"levelo://app?vid=b31f0139-170f-4194-984f-4386218a1e9d","ios":"levelo://app?vid=b31f0139-170f-4194-984f-4386218a1e9d"},"vehicle_type_id":"4","last_reported":1749748189,"current_range_meters":0,"station_id":"","pricing_plan_id":"cebpf4jnsgd1na2vs0mg"},{"bike_id":"1acfb620-cad7-48c0-8901-d7a5b74a5b65","system_id":"levelo_inurba_marseille","lat":43.33751,"lon":5.37456,"is_reserved":false,"is_disabled":false,"rental_uris":{"android":"levelo://app?vid=1acfb620-cad7-48c0-8901-d7a5b74a5b65","ios":"levelo://app?vid=1acfb620-cad7-48c0-8901-d7a5b74a5b65"},"vehicle_type_id":"4","last_reported":1749748189,"current_range_meters":7200,"station_id":"","pricing_plan_id":"cebpf4jnsgd1na2vs0mg"},{"bike_id":"bf89d78c-eb96-40d5-beb0-f402ef102cc1","system_id":"levelo_inurba_marseille","lat":43.337444,"lon":5.374475,"is_reserved":false,"is_disabled":true,"rental_uris":{"android":"levelo://app?vid=bf89d78c-eb96-40d5-beb0-f402ef102cc1","ios":"levelo://app?vid=bf89d78c-eb96-40d5-beb0-f402ef102cc1"},"vehicle_type_id":"4","last_reported":1749748189,"current_range_meters":0,"station_id":"","pricing_plan_id":"cebpf4jnsgd1na2vs0mg"},{"bike_id":"7c6a9c32-3bbe-4d4c-8294-1969d0688a87","system_id":"levelo_inurba_marseille","lat":43.28502,"lon":5.42299,"is_reserved":false,"is_disabled":true,"rental_uris":{"android":"levelo://app?vid=7c6a9c32-3bbe-4d4c-8294-1969d0688a87","ios":"levelo://app?vid=7c6a9c32-3bbe-4d4c-8294-1969d0688a87"},"vehicle_type_id":"4","last_reported":1749748189,"current_range_meters":0,"station_id":"","pricing_plan_id":"cebpf4jnsgd1na2vs0mg"},{"bike_id":"492f4bbd-1190-4ef2-b66a-479ffe91b09b","system_id":"levelo_inurba_marseille","lat":43.337444,"lon":5.374475,"is_reserved":false,"is_disabled":true,"rental_uris":{"android":"levelo://app?vid=492f4bbd-1190-4ef2-b66a-479ffe91b09b","ios":"levelo://app?vid=492f4bbd-1190-4ef2-b66a-479ffe91b09b"},"vehicle_type_id":"4","last_reported":1749748189,"current_range_meters":0,"station_id":"","pricing_plan_id":"cebpf4jnsgd1na2vs0mg"},{"bike_id":"a76bfa59-b731-46b4-a462-7fdbb44a5154","system_id":"levelo_inurba_marseille","lat":43.29767,"lon":5.42178,"is_reserved":false,"is_disabled":true,"rental_uris":{"android":"levelo://app?vid=a76bfa59-b731-46b4-a462-7fdbb44a5154","ios":"levelo://app?vid=a76bfa59-b731-46b4-a462-7fdbb44a5154"},"vehicle_type_id":"4","last_reported":1749748189,"current_range_meters":0,"station_id":"","pricing_plan_id":"cebpf4jnsgd1na2vs0mg"},{"bike_id":"ce526313-e4c7-47eb-856f-183916936663","system_id":"levelo_inurba_marseille","lat":43.26223,"lon":5.39575,"is_reserved":false,"is_disabled":true,"rental_uris":{"android":"levelo://app?vid=ce526313-e4c7-47eb-856f-183916936663","ios":"levelo://app?vid=ce526313-e4c7-47eb-856f-183916936663"},"vehicle_type_id":"4","last_reported":1749748189,"current_range_meters":0,"station_id":"","pricing_plan_id":"cebpf4jnsgd1na2vs0mg"},{"bike_id":"0f89a675-081d-4dca-9179-801243f8efdb","system_id":"levelo_inurba_marseille","lat":43.29969,"lon":5.38498,"is_reserved":false,"is_disabled":true,"rental_uris":{"android":"levelo://app?vid=0f89a675-081d-4dca-9179-801243f8efdb","ios":"levelo://app?vid=0f89a675-081d-4dca-9179-801243f8efdb"},"vehicle_type_id":"4","last_reported":1749748189,"current_range_meters":0,"station_id":"ce4bgj92rcd13ifvqbd0","pricing_plan_id":"cebpf4jnsgd1na2vs0mg"},{"bike_id":"337a7091-0b68-4bd0-a0b0-66b229c27711","system_id":"levelo_inurba_marseille","lat":43.30595,"lon":5.39359,"is_reserved":false,"is_disabled":true,"rental_uris":{"android":"levelo://app?vid=337a7091-0b68-4bd0-a0b0-66b229c27711","ios":"levelo://app?vid=337a7091-0b68-4bd0-a0b0-66b229c27711"},"vehicle_type_id":"4","last_reported":1749748189,"current_range_meters":0,"station_id":"ce4bh0p2rcd13ifvqd80","pricing_plan_id":"cebpf4jnsgd1na2vs0mg"},{"bike_id":"6a96c33d-5cb6-4657-8b6d-62afa97bf30c","system_id":"levelo_inurba_marseille","lat":43.29193,"lon":5.39321,"is_reserved":false,"is_disabled":true,"rental_uris":{"android":"levelo://app?vid=6a96c33d-5cb6-4657-8b6d-62afa97bf30c","ios":"levelo://app?vid=6a96c33d-5cb6-4657-8b6d-62afa97bf30c"},"vehicle_type_id":"4","last_reported":1749748189,"current_range_meters":0,"station_id":"ce4bh192rcd13ifvqdd0","pricing_plan_id":"cebpf4jnsgd1na2vs0mg"},{"bike_id":"6629291d-5742-4d6f-ba2d-12f15bdcd222","system_id":"levelo_inurba_marseille","lat":43.27558,"lon":5.38425,"is_reserved":false,"is_disabled":false,"rental_uris":{"android":"levelo://app?vid=6629291d-5742-4d6f-ba2d-12f15bdcd222","ios":"levelo://app?vid=6629291d-5742-4d6f-ba2d-12f15bdcd222"},"vehicle_type_id":"4","last_reported":1749748189,"current_range_meters":0,"station_id":"ce4bhh92rcd13ifvqfi0","pricing_plan_id":"cebpf4jnsgd1na2vs0mg"},{"bike_id":"ebbdeb94-0f77-40b9-8690-af159db84d67","system_id":"levelo_inurba_marseille","lat":43.24552,"lon":5.39523,"is_reserved":false,"is_disabled":true,"rental_uris":{"android":"levelo://app?vid=ebbdeb94-0f77-40b9-8690-af159db84d67","ios":"levelo://app?vid=ebbdeb94-0f77-40b9-8690-af159db84d67"},"vehicle_type_id":"4","last_reported":1749748189,"current_range_meters":0,"station_id":"ce4bhlp2rcd13ifvqgjg","pricing_plan_id":"cebpf4jnsgd1na2vs0mg"},{"bike_id":"0118c697-f249-477a-800a-62af013d0b10","system_id":"levelo_inurba_marseille","lat":43.29552,"lon":5.42295,"is_reserved":false,"is_disabled":true,"rental_uris":{"android":"levelo://app?vid=0118c697-f249-477a-800a-62af013d0b10","ios":"levelo://app?vid=0118c697-f249-477a-800a-62af013d0b10"},"vehicle_type_id":"4","last_reported":1749748189,"current_range_meters":0,"station_id":"ce4bhph2rcd13ifvqhdg","pricing_plan_id":"cebpf4jnsgd1na2vs0mg"},{"bike_id":"da0dc9d8-433a-4d43-aa66-3d89232d6864","system_id":"levelo_inurba_marseille","lat":43.28408,"lon":5.37496,"is_reserved":false,"is_disabled":true,"rental_uris":{"android":"levelo://app?vid=da0dc9d8-433a-4d43-aa66-3d89232d6864","ios":"levelo://app?vid=da0dc9d8-433a-4d43-aa66-3d89232d6864"},"vehicle_type_id":"4","last_reported":1749748189,"current_range_meters":400,"station_id":"ce4bh412rcd13ifvqds0","pricing_plan_id":"cebpf4jnsgd1na2vs0mg"},{"bike_id":"e268f5ae-ca46-4743-9516-f9a5a21cbba0","system_id":"levelo_inurba_marseille","lat":43.26931,"lon":5.40256,"is_reserved":false,"is_disabled":true,"rental_uris":{"android":"levelo://app?vid=e268f5ae-ca46-4743-9516-f9a5a21cbba0","ios":"levelo://app?vid=e268f5ae-ca46-4743-9516-f9a5a21cbba0"},"vehicle_type_id":"4","last_reported":1749748189,"current_range_meters":400,"station_id":"cjm6bp8fraef2m0cb0m0","pricing_plan_id":"cebpf4jnsgd1na2vs0mg"},{"bike_id":"a9b6bf99-4070-4437-bb20-72962ae30b90","system_id":"levelo_inurba_marseille","lat":43.27463,"lon":5.36456,"is_reserved":false,"is_disabled":true,"rental_uris":{"android":"levelo://app?vid=a9b6bf99-4070-4437-bb20-72962ae30b90","ios":"levelo://app?vid=a9b6bf99-4070-4437-bb20-72962ae30b90"},"vehicle_type_id":"4","last_reported":1749748189,"current_range_meters":800,"station_id":"","pricing_plan_id":"cebpf4jnsgd1na2vs0mg"},{"bike_id":"1732a20e-ea18-47b0-87e6-a75acd0f0a9c","system_id":"levelo_inurba_marseille","lat":43.29923,"lon":5.37453,"is_reserved":false,"is_disabled":true,"rental_uris":{"android":"levelo://app?vid=1732a20e-ea18-47b0-87e6-a75acd0f0a9c","ios":"levelo://app?vid=1732a20e-ea18-47b0-87e6-a75acd0f0a9c"},"vehicle_type_id":"4","last_reported":1749748189,"current_range_meters":800,"station_id":"ce4bgjh2rcd13ifvqbg0","pricing_plan_id":"cebpf4jnsgd1na2vs0mg"},{"bike_id":"d1e0af2d-301f-47bd-9008-7c8255911654","system_id":"levelo_inurba_marseille","lat":43.29708,"lon":5.36612,"is_reserved":false,"is_disabled":true,"rental_uris":{"android":"levelo://app?vid=d1e0af2d-301f-47bd-9008-7c8255911654","ios":"levelo://app?vid=d1e0af2d-301f-47bd-9008-7c8255911654"},"vehicle_type_id":"4","last_reported":1749748189,"current_range_meters":800,"station_id":"ce4bgn12rcd13ifvqbt0","pricing_plan_id":"cebpf4jnsgd1na2vs0mg"},{"bike_id":"06650830-66e3-423c-b4b4-cb2985e73c95","system_id":"levelo_inurba_marseille","lat":43.30924,"lon":5.4014,"is_reserved":false,"is_disabled":true,"rental_uris":{"android":"levelo://app?vid=06650830-66e3-423c-b4b4-cb2985e73c95","ios":"levelo://app?vid=06650830-66e3-423c-b4b4-cb2985e73c95"},"vehicle_type_id":"4","last_reported":1749748189,"current_range_meters":800,"station_id":"ce4bgvp2rcd13ifvqct0","pricing_plan_id":"cebpf4jnsgd1na2vs0mg"},{"bike_id":"5f040411-3eae-43ca-a5a0-2b1c1c7e3197","system_id":"levelo_inurba_marseille","lat":43.29572,"lon":5.39983,"is_reserved":false,"is_disabled":true,"rental_uris":{"android":"levelo://app?vid=5f040411-3eae-43ca-a5a0-2b1c1c7e3197","ios":"levelo://app?vid=5f040411-3eae-43ca-a5a0-2b1c1c7e3197"},"vehicle_type_id":"4","last_reported":1749748189,"current_range_meters":800,"station_id":"ce4bh312rcd13ifvqdj0","pricing_plan_id":"cebpf4jnsgd1na2vs0mg"},{"bike_id":"1e6c4ede-1e20-45dd-933e-0212c0f232d9","system_id":"levelo_inurba_marseille","lat":43.32353,"lon":5.4062,"is_reserved":false,"is_disabled":true,"rental_uris":{"android":"levelo://app?vid=1e6c4ede-1e20-45dd-933e-0212c0f232d9","ios":"levelo://app?vid=1e6c4ede-1e20-45dd-933e-0212c0f232d9"},"vehicle_type_id":"4","last_reported":1749748189,"current_range_meters":800,"station_id":"ce4bhq92rcd13ifvqhjg","pricing_plan_id":"cebpf4jnsgd1na2vs0mg"},{"bike_id":"48d34ad3-2644-46dd-82a0-47e5ff24cebe","system_id":"levelo_inurba_marseille","lat":43.30434,"lon":5.38888,"is_reserved":false,"is_disabled":true,"rental_uris":{"android":"levelo://app?vid=48d34ad3-2644-46dd-82a0-47e5ff24cebe","ios":"levelo://app?vid=48d34ad3-2644-46dd-82a0-47e5ff24cebe"},"vehicle_type_id":"4","last_reported":1749748189,"current_range_meters":1200,"station_id":"ce4bgk12rcd13ifvqbi0","pricing_plan_id":"cebpf4jnsgd1na2vs0mg"},{"bike_id":"cb45b335-736a-43ff-9674-caaec05734b0","system_id":"levelo_inurba_marseille","lat":43.29447,"lon":5.39748,"is_reserved":false,"is_disabled":true,"rental_uris":{"android":"levelo://app?vid=cb45b335-736a-43ff-9674-caaec05734b0","ios":"levelo://app?vid=cb45b335-736a-43ff-9674-caaec05734b0"},"vehicle_type_id":"4","last_reported":1749748189,"current_range_meters":1200,"station_id":"ce4bh3h2rcd13ifvqdo0","pricing_plan_id":"cebpf4jnsgd1na2vs0mg"},{"bike_id":"e6571b1c-6ce1-44b9-acf8-58c8869d9e95","system_id":"levelo_inurba_marseille","lat":43.25494,"lon":5.37651,"is_reserved":false,"is_disabled":true,"rental_uris":{"android":"levelo://app?vid=e6571b1c-6ce1-44b9-acf8-58c8869d9e95","ios":"levelo://app?vid=e6571b1c-6ce1-44b9-acf8-58c8869d9e95"},"vehicle_type_id":"4","last_reported":1749748189,"current_range_meters":1200,"station_id":"ce4bhh12rcd13ifvqff0","pricing_plan_id":"cebpf4jnsgd1na2vs0mg"},{"bike_id":"9fea1e66-523f-4435-88ef-efd1b61d2ab3","system_id":"levelo_inurba_marseille","lat":43.25123,"lon":5.40315,"is_reserved":false,"is_disabled":true,"rental_uris":{"android":"levelo://app?vid=9fea1e66-523f-4435-88ef-efd1b61d2ab3","ios":"levelo://app?vid=9fea1e66-523f-4435-88ef-efd1b61d2ab3"},"vehicle_type_id":"4","last_reported":1749748189,"current_range_meters":1200,"station_id":"ce4bhlh2rcd13ifvqgig","pricing_plan_id":"cebpf4jnsgd1na2vs0mg"},{"bike_id":"291d27bb-fd30-44dc-90f3-125c4828da1e","system_id":"levelo_inurba_marseille","lat":43.29798,"lon":5.38099,"is_reserved":false,"is_disabled":true,"rental_uris":{"android":"levelo://app?vid=291d27bb-fd30-44dc-90f3-125c4828da1e","ios":"levelo://app?vid=291d27bb-fd30-44dc-90f3-125c4828da1e"},"vehicle_type_id":"4","last_reported":1749748189,"current_range_meters":1600,"station_id":"ce4bgip2rcd13ifvqbb0","pricing_plan_id":"cebpf4jnsgd1na2vs0mg"},{"bike_id":"ed38e697-cb68-456b-bc29-998b3b4709d3","system_id":"levelo_inurba_marseille","lat":43.29594,"lon":5.38096,"is_reserved":false,"is_disabled":true,"rental_uris":{"android":"levelo://app?vid=ed38e697-cb68-456b-bc29-998b3b4709d3","ios":"levelo://app?vid=ed38e697-cb68-456b-bc29-998b3b4709d3"},"vehicle_type_id":"4","last_reported":1749748189,"current_range_meters":1600,"station_id":"ce4bgl12rcd13ifvqbo0","pricing_plan_id":"cebpf4jnsgd1na2vs0mg"},{"bike_id":"910ec8e9-0d5e-4fd1-94b9-331c9101b417","system_id":"levelo_inurba_marseille","lat":43.28696,"lon":5.37396,"is_reserved":false,"is_disabled":true,"rental_uris":{"android":"levelo://app?vid=910ec8e9-0d5e-4fd1-94b9-331c9101b417","ios":"levelo://app?vid=910ec8e9-0d5e-4fd1-94b9-331c9101b417"},"vehicle_type_id":"4","last_reported":1749748189,"current_range_meters":1600,"station_id":"ce4bh3p2rcd13ifvqdq0","pricing_plan_id":"cebpf4jnsgd1na2vs0mg"},{"bike_id":"54da1806-037c-4598-be7d-662af669d88c","system_id":"levelo_inurba_marseille","lat":43.28469,"lon":5.38553,"is_reserved":false,"is_disabled":true,"rental_uris":{"android":"levelo://app?vid=54da1806-037c-4598-be7d-662af669d88c","ios":"levelo://app?vid=54da1806-037c-4598-be7d-662af669d88c"},"vehicle_type_id":"4","last_reported":1749748189,"current_range_meters":1600,"station_id":"ce4bh8p2rcd13ifvqeb0","pricing_plan_id":"cebpf4jnsgd1na2vs0mg"},{"bike_id":"c0116a1e-cbce-416a-9a62-5119fc14f1af","system_id":"levelo_inurba_marseille","lat":43.28615,"lon":5.35105,"is_reserved":false,"is_disabled":true,"rental_uris":{"android":"levelo://app?vid=c0116a1e-cbce-416a-9a62-5119fc14f1af","ios":"levelo://app?vid=c0116a1e-cbce-416a-9a62-5119fc14f1af"},"vehicle_type_id":"4","last_reported":1749748189,"current_range_meters":2000,"station_id":"ce4bhch2rcd13ifvqeug","pricing_plan_id":"cebpf4jnsgd1na2vs0mg"},{"bike_id":"05ce6704-e5ab-4f48-807f-5e2509217aa7","system_id":"levelo_inurba_marseille","lat":43.29893,"lon":5.43673,"is_reserved":false,"is_disabled":true,"rental_uris":{"android":"levelo://app?vid=05ce6704-e5ab-4f48-807f-5e2509217aa7","ios":"levelo://app?vid=05ce6704-e5ab-4f48-807f-5e2509217aa7"},"vehicle_type_id":"4","last_reported":1749748189,"current_range_meters":2000,"station_id":"ce4bhpp2rcd13ifvqhfg","pricing_plan_id":"cebpf4jnsgd1na2vs0mg"},{"bike_id":"66b1cbfb-c132-4ef4-922c-0beab9b5a350","system_id":"levelo_inurba_marseille","lat":43.2978,"lon":5.46037,"is_reserved":false,"is_disabled":false,"rental_uris":{"android":"levelo://app?vid=66b1cbfb-c132-4ef4-922c-0beab9b5a350","ios":"levelo://app?vid=66b1cbfb-c132-4ef4-922c-0beab9b5a350"},"vehicle_type_id":"4","last_reported":1749748189,"current_range_meters":2800,"station_id":"","pricing_plan_id":"cebpf4jnsgd1na2vs0mg"},{"bike_id":"7c52ffbd-c44e-46b9-ac55-2b95e3219812","system_id":"levelo_inurba_marseille","lat":43.28627,"lon":5.35103,"is_reserved":false,"is_disabled":false,"rental_uris":{"android":"levelo://app?vid=7c52ffbd-c44e-46b9-ac55-2b95e3219812","ios":"levelo://app?vid=7c52ffbd-c44e-46b9-ac55-2b95e3219812"},"vehicle_type_id":"4","last_reported":1749748189,"current_range_meters":2800,"station_id":"ce4bhch2rcd13ifvqeug","pricing_plan_id":"cebpf4jnsgd1na2vs0mg"},{"bike_id":"e42baf3a-98e2-4755-b006-47c82cd188a6","system_id":"levelo_inurba_marseille","lat":43.22928,"lon":5.35377,"is_reserved":false,"is_disabled":false,"rental_uris":{"android":"levelo://app?vid=e42baf3a-98e2-4755-b006-47c82cd188a6","ios":"levelo://app?vid=e42baf3a-98e2-4755-b006-47c82cd188a6"},"vehicle_type_id":"4","last_reported":1749748189,"current_range_meters":2800,"station_id":"cpo3532slgdg3j2ikp40","pricing_plan_id":"cebpf4jnsgd1na2vs0mg"},{"bike_id":"853e9d90-8fb4-4c17-a762-9923b9fb02f0","system_id":"levelo_inurba_marseille","lat":43.25435,"lon":5.38112,"is_reserved":false,"is_disabled":false,"rental_uris":{"android":"levelo://app?vid=853e9d90-8fb4-4c17-a762-9923b9fb02f0","ios":"levelo://app?vid=853e9d90-8fb4-4c17-a762-9923b9fb02f0"},"vehicle_type_id":"4","last_reported":1749748189,"current_range_meters":3200,"station_id":"","pricing_plan_id":"cebpf4jnsgd1na2vs0mg"},{"bike_id":"6725529c-3b93-48d5-9cf8-d1bd854f182e","system_id":"levelo_inurba_marseille","lat":43.28275,"lon":5.35074,"is_reserved":false,"is_disabled":false,"rental_uris":{"android":"levelo://app?vid=6725529c-3b93-48d5-9cf8-d1bd854f182e","ios":"levelo://app?vid=6725529c-3b93-48d5-9cf8-d1bd854f182e"},"vehicle_type_id":"4","last_reported":1749748189,"current_range_meters":3200,"station_id":"ce4bhbp2rcd13ifvqerg","pricing_plan_id":"cebpf4jnsgd1na2vs0mg"},{"bike_id":"5077581b-cebb-46fc-ba69-4fa8272d4810","system_id":"levelo_inurba_marseille","lat":43.213645,"lon":5.35532,"is_reserved":false,"is_disabled":false,"rental_uris":{"android":"levelo://app?vid=5077581b-cebb-46fc-ba69-4fa8272d4810","ios":"levelo://app?vid=5077581b-cebb-46fc-ba69-4fa8272d4810"},"vehicle_type_id":"4","last_reported":1749748189,"current_range_meters":3600,"station_id":"","pricing_plan_id":"cebpf4jnsgd1na2vs0mg"},{"bike_id":"4b46de49-fc9e-423b-b68b-7bdf05a00e45","system_id":"levelo_inurba_marseille","lat":43.25305,"lon":5.39383,"is_reserved":false,"is_disabled":false,"rental_uris":{"android":"levelo://app?vid=4b46de49-fc9e-423b-b68b-7bdf05a00e45","ios":"levelo://app?vid=4b46de49-fc9e-423b-b68b-7bdf05a00e45"},"vehicle_type_id":"4","last_reported":1749748189,"current_range_meters":3600,"station_id":"","pricing_plan_id":"cebpf4jnsgd1na2vs0mg"},{"bike_id":"165a6ce2-f806-45b2-bf82-39d7bdd011fc","system_id":"levelo_inurba_marseille","lat":43.293794,"lon":5.385415,"is_reserved":false,"is_disabled":false,"rental_uris":{"android":"levelo://app?vid=165a6ce2-f806-45b2-bf82-39d7bdd011fc","ios":"levelo://app?vid=165a6ce2-f806-45b2-bf82-39d7bdd011fc"},"vehicle_type_id":"4","last_reported":1749748189,"current_range_meters":3600,"station_id":"","pricing_plan_id":"cebpf4jnsgd1na2vs0mg"},{"bike_id":"87d478b4-7691-4713-bb16-72bcac3b417e","system_id":"levelo_inurba_marseille","lat":43.29225,"lon":5.36063,"is_reserved":false,"is_disabled":false,"rental_uris":{"android":"levelo://app?vid=87d478b4-7691-4713-bb16-72bcac3b417e","ios":"levelo://app?vid=87d478b4-7691-4713-bb16-72bcac3b417e"},"vehicle_type_id":"4","last_reported":1749748189,"current_range_meters":3600,"station_id":"ce4bhbh2rcd13ifvqeqg","pricing_plan_id":"cebpf4jnsgd1na2vs0mg"},{"bike_id":"e5409686-44ae-4b6c-8b13-14b120820fd3","system_id":"levelo_inurba_marseille","lat":43.27072,"lon":5.42284,"is_reserved":false,"is_disabled":false,"rental_uris":{"android":"levelo://app?vid=e5409686-44ae-4b6c-8b13-14b120820fd3","ios":"levelo://app?vid=e5409686-44ae-4b6c-8b13-14b120820fd3"},"vehicle_type_id":"4","last_reported":1749748189,"current_range_meters":3600,"station_id":"ce4bhk92rcd13ifvqgb0","pricing_plan_id":"cebpf4jnsgd1na2vs0mg"},{"bike_id":"a8f2c207-a423-411d-89e6-426f0c77dab5","system_id":"levelo_inurba_marseille","lat":43.257971,"lon":5.38578,"is_reserved":false,"is_disabled":false,"rental_uris":{"android":"levelo://app?vid=a8f2c207-a423-411d-89e6-426f0c77dab5","ios":"levelo://app?vid=a8f2c207-a423-411d-89e6-426f0c77dab5"},"vehicle_type_id":"4","last_reported":1749748189,"current_range_meters":4000,"station_id":"","pricing_plan_id":"cebpf4jnsgd1na2vs0mg"},{"bike_id":"1e20f032-0f6a-40b2-ad29-e4d2225496fa","system_id":"levelo_inurba_marseille","lat":43.30308,"lon":5.37032,"is_reserved":false,"is_disabled":false,"rental_uris":{"android":"levelo://app?vid=1e20f032-0f6a-40b2-ad29-e4d2225496fa","ios":"levelo://app?vid=1e20f032-0f6a-40b2-ad29-e4d2225496fa"},"vehicle_type_id":"4","last_reported":1749748189,"current_range_meters":4000,"station_id":"","pricing_plan_id":"cebpf4jnsgd1na2vs0mg"},{"bike_id":"08c50c80-ac4a-4460-ad59-8995ba02c113","system_id":"levelo_inurba_marseille","lat":43.29682,"lon":5.37271,"is_reserved":false,"is_disabled":false,"rental_uris":{"android":"levelo://app?vid=08c50c80-ac4a-4460-ad59-8995ba02c113","ios":"levelo://app?vid=08c50c80-ac4a-4460-ad59-8995ba02c113"},"vehicle_type_id":"4","last_reported":1749748189,"current_range_meters":4000,"station_id":"ce4bgk12rcd13ifvqbj0","pricing_plan_id":"cebpf4jnsgd1na2vs0mg"},{"bike_id":"e2aa9202-7125-4c5e-a382-ab6f98da0601","system_id":"levelo_inurba_marseille","lat":43.30804,"lon":5.3817,"is_reserved":false,"is_disabled":false,"rental_uris":{"android":"levelo://app?vid=e2aa9202-7125-4c5e-a382-ab6f98da0601","ios":"levelo://app?vid=e2aa9202-7125-4c5e-a382-ab6f98da0601"},"vehicle_type_id":"4","last_reported":1749748189,"current_range_meters":4000,"station_id":"ce4bgt12rcd13ifvqce0","pricing_plan_id":"cebpf4jnsgd1na2vs0mg"},{"bike_id":"e4c26914-85f2-44c2-80e9-af4f8ffe81f2","system_id":"levelo_inurba_marseille","lat":43.29225,"lon":5.36073,"is_reserved":false,"is_disabled":false,"rental_uris":{"android":"levelo://app?vid=e4c26914-85f2-44c2-80e9-af4f8ffe81f2","ios":"levelo://app?vid=e4c26914-85f2-44c2-80e9-af4f8ffe81f2"},"vehicle_type_id":"4","last_reported":1749748189,"current_range_meters":4000,"station_id":"ce4bhbh2rcd13ifvqeqg","pricing_plan_id":"cebpf4jnsgd1na2vs0mg"},{"bike_id":"e6bae9ea-7eea-4b3a-8a75-001d73b8a7b8","system_id":"levelo_inurba_marseille","lat":43.27422,"lon":5.39414,"is_reserved":false,"is_disabled":false,"rental_uris":{"android":"levelo://app?vid=e6bae9ea-7eea-4b3a-8a75-001d73b8a7b8","ios":"levelo://app?vid=e6bae9ea-7eea-4b3a-8a75-001d73b8a7b8"},"vehicle_type_id":"4","last_reported":1749748189,"current_range_meters":4000,"station_id":"ce4bhdp2rcd13ifvqf20","pricing_plan_id":"cebpf4jnsgd1na2vs0mg"},{"bike_id":"2ce5e4e4-83de-45b5-9cb6-076ef08e7643","system_id":"levelo_inurba_marseille","lat":43.30946,"lon":5.39039,"is_reserved":false,"is_disabled":false,"rental_uris":{"android":"levelo://app?vid=2ce5e4e4-83de-45b5-9cb6-076ef08e7643","ios":"levelo://app?vid=2ce5e4e4-83de-45b5-9cb6-076ef08e7643"},"vehicle_type_id":"4","last_reported":1749748189,"current_range_meters":4400,"station_id":"ce4bgup2rcd13ifvqco0","pricing_plan_id":"cebpf4jnsgd1na2vs0mg"},{"bike_id":"5fe0637b-c974-4181-8c78-8b6e91e3e1eb","system_id":"levelo_inurba_marseille","lat":43.30203,"lon":5.39471,"is_reserved":false,"is_disabled":false,"rental_uris":{"android":"levelo://app?vid=5fe0637b-c974-4181-8c78-8b6e91e3e1eb","ios":"levelo://app?vid=5fe0637b-c974-4181-8c78-8b6e91e3e1eb"},"vehicle_type_id":"4","last_reported":1749748189,"current_range_meters":4400,"station_id":"ce4bh0p2rcd13ifvqd70","pricing_plan_id":"cebpf4jnsgd1na2vs0mg"},{"bike_id":"2f2f0f5c-ee2c-4e9f-8dfc-e11595bfd4e6","system_id":"levelo_inurba_marseille","lat":43.29055,"lon":5.38693,"is_reserved":false,"is_disabled":false,"rental_uris":{"android":"levelo://app?vid=2f2f0f5c-ee2c-4e9f-8dfc-e11595bfd4e6","ios":"levelo://app?vid=2f2f0f5c-ee2c-4e9f-8dfc-e11595bfd4e6"},"vehicle_type_id":"4","last_reported":1749748189,"current_range_meters":4400,"station_id":"ce4bh4p2rcd13ifvqe0g","pricing_plan_id":"cebpf4jnsgd1na2vs0mg"},{"bike_id":"9a57dc95-9814-403a-b3f4-57d69e6afa85","system_id":"levelo_inurba_marseille","lat":43.29192,"lon":5.35805,"is_reserved":false,"is_disabled":false,"rental_uris":{"android":"levelo://app?vid=9a57dc95-9814-403a-b3f4-57d69e6afa85","ios":"levelo://app?vid=9a57dc95-9814-403a-b3f4-57d69e6afa85"},"vehicle_type_id":"4","last_reported":1749748189,"current_range_meters":4400,"station_id":"ce4bhb12rcd13ifvqel0","pricing_plan_id":"cebpf4jnsgd1na2vs0mg"},{"bike_id":"85b30ec2-9844-488d-a126-a81934e70fbc","system_id":"levelo_inurba_marseille","lat":43.275583,"lon":5.384236,"is_reserved":false,"is_disabled":false,"rental_uris":{"android":"levelo://app?vid=85b30ec2-9844-488d-a126-a81934e70fbc","ios":"levelo://app?vid=85b30ec2-9844-488d-a126-a81934e70fbc"},"vehicle_type_id":"4","last_reported":1749748189,"current_range_meters":4400,"station_id":"ce4bhh92rcd13ifvqfi0","pricing_plan_id":"cebpf4jnsgd1na2vs0mg"},{"bike_id":"94b38268-aa5b-4d2d-84c1-508f718cbf39","system_id":"levelo_inurba_marseille","lat":43.29223,"lon":5.360617,"is_reserved":false,"is_disabled":false,"rental_uris":{"android":"levelo://app?vid=94b38268-aa5b-4d2d-84c1-508f718cbf39","ios":"levelo://app?vid=94b38268-aa5b-4d2d-84c1-508f718cbf39"},"vehicle_type_id":"4","last_reported":1749748189,"current_range_meters":4800,"station_id":"ce4bhbh2rcd13ifvqeqg","pricing_plan_id":"cebpf4jnsgd1na2vs0mg"},{"bike_id":"e5963713-a15d-4333-a76b-3d63f3ac2a3f","system_id":"levelo_inurba_marseille","lat":43.28615,"lon":5.35109,"is_reserved":false,"is_disabled":false,"rental_uris":{"android":"levelo://app?vid=e5963713-a15d-4333-a76b-3d63f3ac2a3f","ios":"levelo://app?vid=e5963713-a15d-4333-a76b-3d63f3ac2a3f"},"vehicle_type_id":"4","last_reported":1749748189,"current_range_meters":4800,"station_id":"ce4bhch2rcd13ifvqeug","pricing_plan_id":"cebpf4jnsgd1na2vs0mg"},{"bike_id":"5d31b6ab-967a-44fb-b8e4-327bc52d7bcf","system_id":"levelo_inurba_marseille","lat":43.26547,"lon":5.37271,"is_reserved":false,"is_disabled":false,"rental_uris":{"android":"levelo://app?vid=5d31b6ab-967a-44fb-b8e4-327bc52d7bcf","ios":"levelo://app?vid=5d31b6ab-967a-44fb-b8e4-327bc52d7bcf"},"vehicle_type_id":"4","last_reported":1749748189,"current_range_meters":4800,"station_id":"ce4bhg12rcd13ifvqf70","pricing_plan_id":"cebpf4jnsgd1na2vs0mg"},{"bike_id":"a445d45d-a10d-4f5c-a2cc-c22757cd9391","system_id":"levelo_inurba_marseille","lat":43.26209,"lon":5.37447,"is_reserved":false,"is_disabled":false,"rental_uris":{"android":"levelo://app?vid=a445d45d-a10d-4f5c-a2cc-c22757cd9391","ios":"levelo://app?vid=a445d45d-a10d-4f5c-a2cc-c22757cd9391"},"vehicle_type_id":"4","last_reported":1749748189,"current_range_meters":4800,"station_id":"ce4bhgp2rcd13ifvqfc0","pricing_plan_id":"cebpf4jnsgd1na2vs0mg"},{"bike_id":"8fdfeabf-f467-4095-892a-f8a3f24f26fe","system_id":"levelo_inurba_marseille","lat":43.25088,"lon":5.39527,"is_reserved":false,"is_disabled":false,"rental_uris":{"android":"levelo://app?vid=8fdfeabf-f467-4095-892a-f8a3f24f26fe","ios":"levelo://app?vid=8fdfeabf-f467-4095-892a-f8a3f24f26fe"},"vehicle_type_id":"4","last_reported":1749748189,"current_range_meters":4800,"station_id":"ce4bhm12rcd13ifvqgkg","pricing_plan_id":"cebpf4jnsgd1na2vs0mg"},{"bike_id":"e33e59e2-2829-42fe-8e79-2c7f98065117","system_id":"levelo_inurba_marseille","lat":43.29201,"lon":5.3932,"is_reserved":false,"is_disabled":false,"rental_uris":{"android":"levelo://app?vid=e33e59e2-2829-42fe-8e79-2c7f98065117","ios":"levelo://app?vid=e33e59e2-2829-42fe-8e79-2c7f98065117"},"vehicle_type_id":"4","last_reported":1749748189,"current_range_meters":5600,"station_id":"ce4bh192rcd13ifvqdd0","pricing_plan_id":"cebpf4jnsgd1na2vs0mg"},{"bike_id":"68d3371d-f3e6-4611-9901-652d8de9f98a","system_id":"levelo_inurba_marseille","lat":43.29008,"lon":5.35609,"is_reserved":false,"is_disabled":false,"rental_uris":{"android":"levelo://app?vid=68d3371d-f3e6-4611-9901-652d8de9f98a","ios":"levelo://app?vid=68d3371d-f3e6-4611-9901-652d8de9f98a"},"vehicle_type_id":"4","last_reported":1749748189,"current_range_meters":5600,"station_id":"ce4bhb92rcd13ifvqen0","pricing_plan_id":"cebpf4jnsgd1na2vs0mg"},{"bike_id":"9e2acdef-83bd-408a-b12d-f7d578bb4d88","system_id":"levelo_inurba_marseille","lat":43.25817,"lon":5.39421,"is_reserved":false,"is_disabled":false,"rental_uris":{"android":"levelo://app?vid=9e2acdef-83bd-408a-b12d-f7d578bb4d88","ios":"levelo://app?vid=9e2acdef-83bd-408a-b12d-f7d578bb4d88"},"vehicle_type_id":"4","last_reported":1749748189,"current_range_meters":5600,"station_id":"ce4bhip2rcd13ifvqft0","pricing_plan_id":"cebpf4jnsgd1na2vs0mg"},{"bike_id":"66314ca9-30a7-4c0a-8507-6f89f4c9b4e1","system_id":"levelo_inurba_marseille","lat":43.26178,"lon":5.37051,"is_reserved":false,"is_disabled":false,"rental_uris":{"android":"levelo://app?vid=66314ca9-30a7-4c0a-8507-6f89f4c9b4e1","ios":"levelo://app?vid=66314ca9-30a7-4c0a-8507-6f89f4c9b4e1"},"vehicle_type_id":"4","last_reported":1749748189,"current_range_meters":6000,"station_id":"","pricing_plan_id":"cebpf4jnsgd1na2vs0mg"},{"bike_id":"46b30c47-7b45-4790-9cb6-0fe270efb7c3","system_id":"levelo_inurba_marseille","lat":43.2937,"lon":5.37843,"is_reserved":false,"is_disabled":false,"rental_uris":{"android":"levelo://app?vid=46b30c47-7b45-4790-9cb6-0fe270efb7c3","ios":"levelo://app?vid=46b30c47-7b45-4790-9cb6-0fe270efb7c3"},"vehicle_type_id":"4","last_reported":1749748189,"current_range_meters":6000,"station_id":"ce4bgjh2rcd13ifvqbf0","pricing_plan_id":"cebpf4jnsgd1na2vs0mg"},{"bike_id":"fdb215eb-089c-4f59-8fe7-5ebaa4648dab","system_id":"levelo_inurba_marseille","lat":43.28717,"lon":5.37929,"is_reserved":false,"is_disabled":false,"rental_uris":{"android":"levelo://app?vid=fdb215eb-089c-4f59-8fe7-5ebaa4648dab","ios":"levelo://app?vid=fdb215eb-089c-4f59-8fe7-5ebaa4648dab"},"vehicle_type_id":"4","last_reported":1749748189,"current_range_meters":6000,"station_id":"ce4bh9p2rcd13ifvqec0","pricing_plan_id":"cebpf4jnsgd1na2vs0mg"},{"bike_id":"714fabf3-985e-462d-9826-5751fa3d8e41","system_id":"levelo_inurba_marseille","lat":43.29221,"lon":5.36066,"is_reserved":false,"is_disabled":false,"rental_uris":{"android":"levelo://app?vid=714fabf3-985e-462d-9826-5751fa3d8e41","ios":"levelo://app?vid=714fabf3-985e-462d-9826-5751fa3d8e41"},"vehicle_type_id":"4","last_reported":1749748189,"current_range_meters":6000,"station_id":"ce4bhbh2rcd13ifvqeqg","pricing_plan_id":"cebpf4jnsgd1na2vs0mg"},{"bike_id":"35235a4e-bb60-446f-9cfc-0cda4f52fb08","system_id":"levelo_inurba_marseille","lat":43.26211,"lon":5.3744,"is_reserved":false,"is_disabled":false,"rental_uris":{"android":"levelo://app?vid=35235a4e-bb60-446f-9cfc-0cda4f52fb08","ios":"levelo://app?vid=35235a4e-bb60-446f-9cfc-0cda4f52fb08"},"vehicle_type_id":"4","last_reported":1749748189,"current_range_meters":6000,"station_id":"ce4bhgp2rcd13ifvqfc0","pricing_plan_id":"cebpf4jnsgd1na2vs0mg"},{"bike_id":"d192e36e-e311-4129-85fe-6aeb120d5600","system_id":"levelo_inurba_marseille","lat":43.23194,"lon":5.35553,"is_reserved":false,"is_disabled":false,"rental_uris":{"android":"levelo://app?vid=d192e36e-e311-4129-85fe-6aeb120d5600","ios":"levelo://app?vid=d192e36e-e311-4129-85fe-6aeb120d5600"},"vehicle_type_id":"4","last_reported":1749748189,"current_range_meters":6000,"station_id":"ce4bhu92rcd13ifvqi70","pricing_plan_id":"cebpf4jnsgd1na2vs0mg"},{"bike_id":"a65610d2-25bc-44d0-bbd3-3e69717b1aca","system_id":"levelo_inurba_marseille","lat":43.30716,"lon":5.4016,"is_reserved":false,"is_disabled":false,"rental_uris":{"android":"levelo://app?vid=a65610d2-25bc-44d0-bbd3-3e69717b1aca","ios":"levelo://app?vid=a65610d2-25bc-44d0-bbd3-3e69717b1aca"},"vehicle_type_id":"4","last_reported":1749748189,"current_range_meters":6400,"station_id":"","pricing_plan_id":"cebpf4jnsgd1na2vs0mg"},{"bike_id":"6fec8452-9159-4284-a3cc-a0393f729100","system_id":"levelo_inurba_marseille","lat":43.21744,"lon":5.3461,"is_reserved":false,"is_disabled":false,"rental_uris":{"android":"levelo://app?vid=6fec8452-9159-4284-a3cc-a0393f729100","ios":"levelo://app?vid=6fec8452-9159-4284-a3cc-a0393f729100"},"vehicle_type_id":"4","last_reported":1749748189,"current_range_meters":6400,"station_id":"","pricing_plan_id":"cebpf4jnsgd1na2vs0mg"},{"bike_id":"ee9b9808-ba0a-4982-ba3d-17fd7add90aa","system_id":"levelo_inurba_marseille","lat":43.29531,"lon":5.39028,"is_reserved":false,"is_disabled":false,"rental_uris":{"android":"levelo://app?vid=ee9b9808-ba0a-4982-ba3d-17fd7add90aa","ios":"levelo://app?vid=ee9b9808-ba0a-4982-ba3d-17fd7add90aa"},"vehicle_type_id":"4","last_reported":1749748189,"current_range_meters":6400,"station_id":"ce4bh3p2rcd13ifvqdp0","pricing_plan_id":"cebpf4jnsgd1na2vs0mg"},{"bike_id":"02822da0-8e93-4377-87f4-e97f8f385b65","system_id":"levelo_inurba_marseille","lat":43.26936,"lon":5.40271,"is_reserved":false,"is_disabled":false,"rental_uris":{"android":"levelo://app?vid=02822da0-8e93-4377-87f4-e97f8f385b65","ios":"levelo://app?vid=02822da0-8e93-4377-87f4-e97f8f385b65"},"vehicle_type_id":"4","last_reported":1749748189,"current_range_meters":6400,"station_id":"cjm6bp8fraef2m0cb0m0","pricing_plan_id":"cebpf4jnsgd1na2vs0mg"},{"bike_id":"b8aea22b-8ad3-45eb-a36e-dc54e35095c0","system_id":"levelo_inurba_marseille","lat":43.27615,"lon":5.36123,"is_reserved":false,"is_disabled":false,"rental_uris":{"android":"levelo://app?vid=b8aea22b-8ad3-45eb-a36e-dc54e35095c0","ios":"levelo://app?vid=b8aea22b-8ad3-45eb-a36e-dc54e35095c0"},"vehicle_type_id":"4","last_reported":1749748189,"current_range_meters":6800,"station_id":"ce4bgj92rcd13ifvqbe0","pricing_plan_id":"cebpf4jnsgd1na2vs0mg"},{"bike_id":"278d0bde-3fdc-4b84-a1f3-7ea83adc936f","system_id":"levelo_inurba_marseille","lat":43.30934,"lon":5.40145,"is_reserved":false,"is_disabled":false,"rental_uris":{"android":"levelo://app?vid=278d0bde-3fdc-4b84-a1f3-7ea83adc936f","ios":"levelo://app?vid=278d0bde-3fdc-4b84-a1f3-7ea83adc936f"},"vehicle_type_id":"4","last_reported":1749748189,"current_range_meters":6800,"station_id":"ce4bgvp2rcd13ifvqct0","pricing_plan_id":"cebpf4jnsgd1na2vs0mg"},{"bike_id":"839abc9c-daa3-46cf-8253-8389956a32c0","system_id":"levelo_inurba_marseille","lat":43.30219,"lon":5.39461,"is_reserved":false,"is_disabled":false,"rental_uris":{"android":"levelo://app?vid=839abc9c-daa3-46cf-8253-8389956a32c0","ios":"levelo://app?vid=839abc9c-daa3-46cf-8253-8389956a32c0"},"vehicle_type_id":"4","last_reported":1749748189,"current_range_meters":6800,"station_id":"ce4bh0p2rcd13ifvqd70","pricing_plan_id":"cebpf4jnsgd1na2vs0mg"},{"bike_id":"ca7a47a8-a351-4cca-9fde-767dcb89ee3a","system_id":"levelo_inurba_marseille","lat":43.28271,"lon":5.35071,"is_reserved":false,"is_disabled":false,"rental_uris":{"android":"levelo://app?vid=ca7a47a8-a351-4cca-9fde-767dcb89ee3a","ios":"levelo://app?vid=ca7a47a8-a351-4cca-9fde-767dcb89ee3a"},"vehicle_type_id":"4","last_reported":1749748189,"current_range_meters":6800,"station_id":"ce4bhbp2rcd13ifvqerg","pricing_plan_id":"cebpf4jnsgd1na2vs0mg"},{"bike_id":"1155fe71-76a3-4a98-aaee-9e7a8191c5fe","system_id":"levelo_inurba_marseille","lat":43.28618,"lon":5.35107,"is_reserved":false,"is_disabled":false,"rental_uris":{"android":"levelo://app?vid=1155fe71-76a3-4a98-aaee-9e7a8191c5fe","ios":"levelo://app?vid=1155fe71-76a3-4a98-aaee-9e7a8191c5fe"},"vehicle_type_id":"4","last_reported":1749748189,"current_range_meters":6800,"station_id":"ce4bhch2rcd13ifvqeug","pricing_plan_id":"cebpf4jnsgd1na2vs0mg"},{"bike_id":"1ffd76fb-5157-42fc-ac79-77ff8c83cd0f","system_id":"levelo_inurba_marseille","lat":43.266792,"lon":5.382698,"is_reserved":false,"is_disabled":false,"rental_uris":{"android":"levelo://app?vid=1ffd76fb-5157-42fc-ac79-77ff8c83cd0f","ios":"levelo://app?vid=1ffd76fb-5157-42fc-ac79-77ff8c83cd0f"},"vehicle_type_id":"4","last_reported":1749748189,"current_range_meters":6800,"station_id":"ce4bhg92rcd13ifvqf90","pricing_plan_id":"cebpf4jnsgd1na2vs0mg"},{"bike_id":"d37f93ae-ccd9-4f40-b4e7-3fe0d98bc86a","system_id":"levelo_inurba_marseille","lat":43.231807,"lon":5.399809,"is_reserved":false,"is_disabled":false,"rental_uris":{"android":"levelo://app?vid=d37f93ae-ccd9-4f40-b4e7-3fe0d98bc86a","ios":"levelo://app?vid=d37f93ae-ccd9-4f40-b4e7-3fe0d98bc86a"},"vehicle_type_id":"4","last_reported":1749748189,"current_range_meters":6800,"station_id":"ce4bhn12rcd13ifvqgqg","pricing_plan_id":"cebpf4jnsgd1na2vs0mg"},{"bike_id":"c5f7e1f8-f66c-4638-9903-f25df9e54bd7","system_id":"levelo_inurba_marseille","lat":43.3205,"lon":5.41544,"is_reserved":false,"is_disabled":false,"rental_uris":{"android":"levelo://app?vid=c5f7e1f8-f66c-4638-9903-f25df9e54bd7","ios":"levelo://app?vid=c5f7e1f8-f66c-4638-9903-f25df9e54bd7"},"vehicle_type_id":"4","last_reported":1749748189,"current_range_meters":6800,"station_id":"ce4bhq92rcd13ifvqhkg","pricing_plan_id":"cebpf4jnsgd1na2vs0mg"},{"bike_id":"53b80a21-f17a-4d9f-bd18-3e29873298ca","system_id":"levelo_inurba_marseille","lat":43.30112,"lon":5.39869,"is_reserved":false,"is_disabled":false,"rental_uris":{"android":"levelo://app?vid=53b80a21-f17a-4d9f-bd18-3e29873298ca","ios":"levelo://app?vid=53b80a21-f17a-4d9f-bd18-3e29873298ca"},"vehicle_type_id":"4","last_reported":1749748189,"current_range_meters":7200,"station_id":"ce4bh0h2rcd13ifvqd40","pricing_plan_id":"cebpf4jnsgd1na2vs0mg"},{"bike_id":"21f4955e-84f0-431d-a1c1-54e8c273ade4","system_id":"levelo_inurba_marseille","lat":43.26922,"lon":5.38921,"is_reserved":false,"is_disabled":false,"rental_uris":{"android":"levelo://app?vid=21f4955e-84f0-431d-a1c1-54e8c273ade4","ios":"levelo://app?vid=21f4955e-84f0-431d-a1c1-54e8c273ade4"},"vehicle_type_id":"4","last_reported":1749748189,"current_range_meters":7200,"station_id":"ce4bhhh2rcd13ifvqfl0","pricing_plan_id":"cebpf4jnsgd1na2vs0mg"},{"bike_id":"84f5a926-1dd6-4535-b647-2764ce0ca103","system_id":"levelo_inurba_marseille","lat":43.32114,"lon":5.3679,"is_reserved":false,"is_disabled":false,"rental_uris":{"android":"levelo://app?vid=84f5a926-1dd6-4535-b647-2764ce0ca103","ios":"levelo://app?vid=84f5a926-1dd6-4535-b647-2764ce0ca103"},"vehicle_type_id":"4","last_reported":1749748189,"current_range_meters":7200,"station_id":"ce4bhrh2rcd13ifvqhug","pricing_plan_id":"cebpf4jnsgd1na2vs0mg"},{"bike_id":"9e59a544-9634-4830-a50c-88d11116e6bd","system_id":"levelo_inurba_marseille","lat":43.33016,"lon":5.39062,"is_reserved":false,"is_disabled":false,"rental_uris":{"android":"levelo://app?vid=9e59a544-9634-4830-a50c-88d11116e6bd","ios":"levelo://app?vid=9e59a544-9634-4830-a50c-88d11116e6bd"},"vehicle_type_id":"4","last_reported":1749748189,"current_range_meters":8000,"station_id":"ce4bhr92rcd13ifvqhrg","pricing_plan_id":"cebpf4jnsgd1na2vs0mg"},{"bike_id":"8105426e-eb6c-4b79-bfaa-254c1b037d55","system_id":"levelo_inurba_marseille","lat":43.32382,"lon":5.36785,"is_reserved":false,"is_disabled":false,"rental_uris":{"android":"levelo://app?vid=8105426e-eb6c-4b79-bfaa-254c1b037d55","ios":"levelo://app?vid=8105426e-eb6c-4b79-bfaa-254c1b037d55"},"vehicle_type_id":"4","last_reported":1749748189,"current_range_meters":8000,"station_id":"ce4bhsh2rcd13ifvqi2g","pricing_plan_id":"cebpf4jnsgd1na2vs0mg"},{"bike_id":"6dee85e8-f87d-4832-a30e-695f385c8649","system_id":"levelo_inurba_marseille","lat":43.31176,"lon":5.40702,"is_reserved":false,"is_disabled":false,"rental_uris":{"android":"levelo://app?vid=6dee85e8-f87d-4832-a30e-695f385c8649","ios":"levelo://app?vid=6dee85e8-f87d-4832-a30e-695f385c8649"},"vehicle_type_id":"4","last_reported":1749748189,"current_range_meters":8400,"station_id":"","pricing_plan_id":"cebpf4jnsgd1na2vs0mg"},{"bike_id":"6f4ef832-a8a5-4d24-ba8b-33794bb28854","system_id":"levelo_inurba_marseille","lat":43.31521,"lon":5.38038,"is_reserved":false,"is_disabled":false,"rental_uris":{"android":"levelo://app?vid=6f4ef832-a8a5-4d24-ba8b-33794bb28854","ios":"levelo://app?vid=6f4ef832-a8a5-4d24-ba8b-33794bb28854"},"vehicle_type_id":"4","last_reported":1749748189,"current_range_meters":8400,"station_id":"ce4bhsp2rcd13ifvqi50","pricing_plan_id":"cebpf4jnsgd1na2vs0mg"},{"bike_id":"5620393a-6a0c-4c54-b360-99721b0e20b4","system_id":"levelo_inurba_marseille","lat":43.28609,"lon":5.37064,"is_reserved":false,"is_disabled":false,"rental_uris":{"android":"levelo://app?vid=5620393a-6a0c-4c54-b360-99721b0e20b4","ios":"levelo://app?vid=5620393a-6a0c-4c54-b360-99721b0e20b4"},"vehicle_type_id":"4","last_reported":1749748189,"current_range_meters":8400,"station_id":"ce4bht12rcd13ifvqi60","pricing_plan_id":"cebpf4jnsgd1na2vs0mg"},{"bike_id":"308cbf69-b866-4a48-b377-e4f7d5e7c70b","system_id":"levelo_inurba_marseille","lat":43.32924,"lon":5.39039,"is_reserved":false,"is_disabled":false,"rental_uris":{"android":"levelo://app?vid=308cbf69-b866-4a48-b377-e4f7d5e7c70b","ios":"levelo://app?vid=308cbf69-b866-4a48-b377-e4f7d5e7c70b"},"vehicle_type_id":"4","last_reported":1749748189,"current_range_meters":8800,"station_id":"","pricing_plan_id":"cebpf4jnsgd1na2vs0mg"},{"bike_id":"918ce138-4392-4690-8e92-ad9ae09b384b","system_id":"levelo_inurba_marseille","lat":43.31329,"lon":5.39693,"is_reserved":false,"is_disabled":false,"rental_uris":{"android":"levelo://app?vid=918ce138-4392-4690-8e92-ad9ae09b384b","ios":"levelo://app?vid=918ce138-4392-4690-8e92-ad9ae09b384b"},"vehicle_type_id":"4","last_reported":1749748189,"current_range_meters":8800,"station_id":"ce4bgvp2rcd13ifvqcu0","pricing_plan_id":"cebpf4jnsgd1na2vs0mg"},{"bike_id":"a9f4ecb6-ad86-49f1-833b-e01527e0db4a","system_id":"levelo_inurba_marseille","lat":43.29868,"lon":5.39733,"is_reserved":false,"is_disabled":false,"rental_uris":{"android":"levelo://app?vid=a9f4ecb6-ad86-49f1-833b-e01527e0db4a","ios":"levelo://app?vid=a9f4ecb6-ad86-49f1-833b-e01527e0db4a"},"vehicle_type_id":"4","last_reported":1749748189,"current_range_meters":8800,"station_id":"ce4bh0h2rcd13ifvqd50","pricing_plan_id":"cebpf4jnsgd1na2vs0mg"},{"bike_id":"7c6bd994-3fbd-4191-9b6a-5da5d5831d44","system_id":"levelo_inurba_marseille","lat":43.29816,"lon":5.40406,"is_reserved":false,"is_disabled":false,"rental_uris":{"android":"levelo://app?vid=7c6bd994-3fbd-4191-9b6a-5da5d5831d44","ios":"levelo://app?vid=7c6bd994-3fbd-4191-9b6a-5da5d5831d44"},"vehicle_type_id":"4","last_reported":1749748189,"current_range_meters":8800,"station_id":"ce4bh112rcd13ifvqd90","pricing_plan_id":"cebpf4jnsgd1na2vs0mg"},{"bike_id":"9d6b83fc-44a1-4fb0-841c-35e87bc3a2db","system_id":"levelo_inurba_marseille","lat":43.28429,"lon":5.34985,"is_reserved":false,"is_disabled":false,"rental_uris":{"android":"levelo://app?vid=9d6b83fc-44a1-4fb0-841c-35e87bc3a2db","ios":"levelo://app?vid=9d6b83fc-44a1-4fb0-841c-35e87bc3a2db"},"vehicle_type_id":"4","last_reported":1749748189,"current_range_meters":8800,"station_id":"ce4bhbh2rcd13ifvqepg","pricing_plan_id":"cebpf4jnsgd1na2vs0mg"},{"bike_id":"90b3ea4a-f84e-47fc-a9f0-4e7e8c4c12c4","system_id":"levelo_inurba_marseille","lat":43.26567,"lon":5.39009,"is_reserved":false,"is_disabled":false,"rental_uris":{"android":"levelo://app?vid=90b3ea4a-f84e-47fc-a9f0-4e7e8c4c12c4","ios":"levelo://app?vid=90b3ea4a-f84e-47fc-a9f0-4e7e8c4c12c4"},"vehicle_type_id":"4","last_reported":1749748189,"current_range_meters":8800,"station_id":"ce4bhe12rcd13ifvqf30","pricing_plan_id":"cebpf4jnsgd1na2vs0mg"},{"bike_id":"3b770081-05b2-4c68-8be6-1f78ec3d06c3","system_id":"levelo_inurba_marseille","lat":43.24079,"lon":5.37757,"is_reserved":false,"is_disabled":false,"rental_uris":{"android":"levelo://app?vid=3b770081-05b2-4c68-8be6-1f78ec3d06c3","ios":"levelo://app?vid=3b770081-05b2-4c68-8be6-1f78ec3d06c3"},"vehicle_type_id":"4","last_reported":1749748189,"current_range_meters":8800,"station_id":"ce4bhnp2rcd13ifvqgvg","pricing_plan_id":"cebpf4jnsgd1na2vs0mg"},{"bike_id":"e5ff82fd-cc37-4e1f-aade-050998fb0f61","system_id":"levelo_inurba_marseille","lat":43.26285,"lon":5.37129,"is_reserved":false,"is_disabled":false,"rental_uris":{"android":"levelo://app?vid=e5ff82fd-cc37-4e1f-aade-050998fb0f61","ios":"levelo://app?vid=e5ff82fd-cc37-4e1f-aade-050998fb0f61"},"vehicle_type_id":"4","last_reported":1749748189,"current_range_meters":9200,"station_id":"","pricing_plan_id":"cebpf4jnsgd1na2vs0mg"},{"bike_id":"3d736392-7d05-456a-be5f-4b9e93b6120e","system_id":"levelo_inurba_marseille","lat":43.2894,"lon":5.36637,"is_reserved":false,"is_disabled":false,"rental_uris":{"android":"levelo://app?vid=3d736392-7d05-456a-be5f-4b9e93b6120e","ios":"levelo://app?vid=3d736392-7d05-456a-be5f-4b9e93b6120e"},"vehicle_type_id":"4","last_reported":1749748189,"current_range_meters":9200,"station_id":"ce4bhap2rcd13ifvqek0","pricing_plan_id":"cebpf4jnsgd1na2vs0mg"},{"bike_id":"01aea110-7b68-4941-b7de-b82f869af6ed","system_id":"levelo_inurba_marseille","lat":43.31086,"lon":5.42431,"is_reserved":false,"is_disabled":false,"rental_uris":{"android":"levelo://app?vid=01aea110-7b68-4941-b7de-b82f869af6ed","ios":"levelo://app?vid=01aea110-7b68-4941-b7de-b82f869af6ed"},"vehicle_type_id":"4","last_reported":1749748189,"current_range_meters":9200,"station_id":"ce4bhp92rcd13ifvqhag","pricing_plan_id":"cebpf4jnsgd1na2vs0mg"},{"bike_id":"cba74aa5-a611-4337-ba1e-56f08a74aa82","system_id":"levelo_inurba_marseille","lat":43.32538,"lon":5.41424,"is_reserved":false,"is_disabled":false,"rental_uris":{"android":"levelo://app?vid=cba74aa5-a611-4337-ba1e-56f08a74aa82","ios":"levelo://app?vid=cba74aa5-a611-4337-ba1e-56f08a74aa82"},"vehicle_type_id":"4","last_reported":1749748189,"current_range_meters":9200,"station_id":"ce4bhq12rcd13ifvqhhg","pricing_plan_id":"cebpf4jnsgd1na2vs0mg"},{"bike_id":"a4e9fc8f-1d9b-41a9-8a64-e860e8287420","system_id":"levelo_inurba_marseille","lat":43.298926,"lon":5.365294,"is_reserved":false,"is_disabled":false,"rental_uris":{"android":"levelo://app?vid=a4e9fc8f-1d9b-41a9-8a64-e860e8287420","ios":"levelo://app?vid=a4e9fc8f-1d9b-41a9-8a64-e860e8287420"},"vehicle_type_id":"4","last_reported":1749748189,"current_range_meters":9600,"station_id":"ce4bgm92rcd13ifvqbr0","pricing_plan_id":"cebpf4jnsgd1na2vs0mg"},{"bike_id":"b5aea97b-e491-44f2-83bd-9904bce8d6c9","system_id":"levelo_inurba_marseille","lat":43.29711,"lon":5.3661,"is_reserved":false,"is_disabled":false,"rental_uris":{"android":"levelo://app?vid=b5aea97b-e491-44f2-83bd-9904bce8d6c9","ios":"levelo://app?vid=b5aea97b-e491-44f2-83bd-9904bce8d6c9"},"vehicle_type_id":"4","last_reported":1749748189,"current_range_meters":9600,"station_id":"ce4bgn12rcd13ifvqbt0","pricing_plan_id":"cebpf4jnsgd1na2vs0mg"},{"bike_id":"4d71417b-a043-4e06-aa6b-d57c378d602b","system_id":"levelo_inurba_marseille","lat":43.28951,"lon":5.36394,"is_reserved":false,"is_disabled":false,"rental_uris":{"android":"levelo://app?vid=4d71417b-a043-4e06-aa6b-d57c378d602b","ios":"levelo://app?vid=4d71417b-a043-4e06-aa6b-d57c378d602b"},"vehicle_type_id":"4","last_reported":1749748189,"current_range_meters":9600,"station_id":"ce4bhc92rcd13ifvqetg","pricing_plan_id":"cebpf4jnsgd1na2vs0mg"},{"bike_id":"db1fb8e3-e820-4dfc-8a80-81806048c981","system_id":"levelo_inurba_marseille","lat":43.33036,"lon":5.3905,"is_reserved":false,"is_disabled":false,"rental_uris":{"android":"levelo://app?vid=db1fb8e3-e820-4dfc-8a80-81806048c981","ios":"levelo://app?vid=db1fb8e3-e820-4dfc-8a80-81806048c981"},"vehicle_type_id":"4","last_reported":1749748189,"current_range_meters":9600,"station_id":"ce4bhr92rcd13ifvqhrg","pricing_plan_id":"cebpf4jnsgd1na2vs0mg"},{"bike_id":"a2421370-e442-436f-a98a-844d44299694","system_id":"levelo_inurba_marseille","lat":43.32354,"lon":5.36733,"is_reserved":false,"is_disabled":false,"rental_uris":{"android":"levelo://app?vid=a2421370-e442-436f-a98a-844d44299694","ios":"levelo://app?vid=a2421370-e442-436f-a98a-844d44299694"},"vehicle_type_id":"4","last_reported":1749748189,"current_range_meters":9600,"station_id":"ce4bhsh2rcd13ifvqi2g","pricing_plan_id":"cebpf4jnsgd1na2vs0mg"},{"bike_id":"538be204-294c-44d3-be2e-ddd41840eef1","system_id":"levelo_inurba_marseille","lat":43.21759,"lon":5.34606,"is_reserved":false,"is_disabled":false,"rental_uris":{"android":"levelo://app?vid=538be204-294c-44d3-be2e-ddd41840eef1","ios":"levelo://app?vid=538be204-294c-44d3-be2e-ddd41840eef1"},"vehicle_type_id":"4","last_reported":1749748189,"current_range_meters":9600,"station_id":"st_cvj6r9ubvosntc0bgbag","pricing_plan_id":"cebpf4jnsgd1na2vs0mg"},{"bike_id":"287f909c-2708-4b69-8f31-66ec8f9d3dc7","system_id":"levelo_inurba_marseille","lat":43.29003,"lon":5.35606,"is_reserved":false,"is_disabled":false,"rental_uris":{"android":"levelo://app?vid=287f909c-2708-4b69-8f31-66ec8f9d3dc7","ios":"levelo://app?vid=287f909c-2708-4b69-8f31-66ec8f9d3dc7"},"vehicle_type_id":"4","last_reported":1749748189,"current_range_meters":10000,"station_id":"ce4bhb92rcd13ifvqen0","pricing_plan_id":"cebpf4jnsgd1na2vs0mg"},{"bike_id":"b9976ba6-16e5-4fca-8a0c-40eee7440a39","system_id":"levelo_inurba_marseille","lat":43.28931,"lon":5.36393,"is_reserved":false,"is_disabled":false,"rental_uris":{"android":"levelo://app?vid=b9976ba6-16e5-4fca-8a0c-40eee7440a39","ios":"levelo://app?vid=b9976ba6-16e5-4fca-8a0c-40eee7440a39"},"vehicle_type_id":"4","last_reported":1749748189,"current_range_meters":10000,"station_id":"ce4bhc92rcd13ifvqetg","pricing_plan_id":"cebpf4jnsgd1na2vs0mg"},{"bike_id":"9ef8e05c-3e47-4cc9-ac32-6c62481c06d6","system_id":"levelo_inurba_marseille","lat":43.2863,"lon":5.35098,"is_reserved":false,"is_disabled":false,"rental_uris":{"android":"levelo://app?vid=9ef8e05c-3e47-4cc9-ac32-6c62481c06d6","ios":"levelo://app?vid=9ef8e05c-3e47-4cc9-ac32-6c62481c06d6"},"vehicle_type_id":"4","last_reported":1749748189,"current_range_meters":10000,"station_id":"ce4bhch2rcd13ifvqeug","pricing_plan_id":"cebpf4jnsgd1na2vs0mg"},{"bike_id":"77e69ec7-6f80-4061-8733-52feb094915f","system_id":"levelo_inurba_marseille","lat":43.2511,"lon":5.40329,"is_reserved":false,"is_disabled":false,"rental_uris":{"android":"levelo://app?vid=77e69ec7-6f80-4061-8733-52feb094915f","ios":"levelo://app?vid=77e69ec7-6f80-4061-8733-52feb094915f"},"vehicle_type_id":"4","last_reported":1749748189,"current_range_meters":10000,"station_id":"ce4bhlh2rcd13ifvqgig","pricing_plan_id":"cebpf4jnsgd1na2vs0mg"},{"bike_id":"51c9c3d1-050f-47d1-8726-c1814cd19d79","system_id":"levelo_inurba_marseille","lat":43.31287,"lon":5.38933,"is_reserved":false,"is_disabled":false,"rental_uris":{"android":"levelo://app?vid=51c9c3d1-050f-47d1-8726-c1814cd19d79","ios":"levelo://app?vid=51c9c3d1-050f-47d1-8726-c1814cd19d79"},"vehicle_type_id":"4","last_reported":1749748189,"current_range_meters":10800,"station_id":"","pricing_plan_id":"cebpf4jnsgd1na2vs0mg"},{"bike_id":"b72ded49-711c-49ed-9b26-27d4f9bf278e","system_id":"levelo_inurba_marseille","lat":43.309119,"lon":5.368449,"is_reserved":false,"is_disabled":false,"rental_uris":{"android":"levelo://app?vid=b72ded49-711c-49ed-9b26-27d4f9bf278e","ios":"levelo://app?vid=b72ded49-711c-49ed-9b26-27d4f9bf278e"},"vehicle_type_id":"4","last_reported":1749748189,"current_range_meters":10800,"station_id":"ce4bgn92rcd13ifvqbvg","pricing_plan_id":"cebpf4jnsgd1na2vs0mg"},{"bike_id":"3ced17b6-22ba-4bee-aa66-7a2551f4849d","system_id":"levelo_inurba_marseille","lat":43.29249,"lon":5.38436,"is_reserved":false,"is_disabled":false,"rental_uris":{"android":"levelo://app?vid=3ced17b6-22ba-4bee-aa66-7a2551f4849d","ios":"levelo://app?vid=3ced17b6-22ba-4bee-aa66-7a2551f4849d"},"vehicle_type_id":"4","last_reported":1749748189,"current_range_meters":10800,"station_id":"ce4bh692rcd13ifvqea0","pricing_plan_id":"cebpf4jnsgd1na2vs0mg"},{"bike_id":"dedaf9d0-17ce-4150-886e-f171c61a3733","system_id":"levelo_inurba_marseille","lat":43.2895,"lon":5.36643,"is_reserved":false,"is_disabled":false,"rental_uris":{"android":"levelo://app?vid=dedaf9d0-17ce-4150-886e-f171c61a3733","ios":"levelo://app?vid=dedaf9d0-17ce-4150-886e-f171c61a3733"},"vehicle_type_id":"4","last_reported":1749748189,"current_range_meters":10800,"station_id":"ce4bhap2rcd13ifvqek0","pricing_plan_id":"cebpf4jnsgd1na2vs0mg"},{"bike_id":"e86ed052-5bc2-4535-b482-c1731679cd02","system_id":"levelo_inurba_marseille","lat":43.28414,"lon":5.34976,"is_reserved":false,"is_disabled":false,"rental_uris":{"android":"levelo://app?vid=e86ed052-5bc2-4535-b482-c1731679cd02","ios":"levelo://app?vid=e86ed052-5bc2-4535-b482-c1731679cd02"},"vehicle_type_id":"4","last_reported":1749748189,"current_range_meters":10800,"station_id":"ce4bhbh2rcd13ifvqepg","pricing_plan_id":"cebpf4jnsgd1na2vs0mg"},{"bike_id":"0e5cb6ed-5ebe-4558-8730-567494470596","system_id":"levelo_inurba_marseille","lat":43.28616,"lon":5.35107,"is_reserved":false,"is_disabled":false,"rental_uris":{"android":"levelo://app?vid=0e5cb6ed-5ebe-4558-8730-567494470596","ios":"levelo://app?vid=0e5cb6ed-5ebe-4558-8730-567494470596"},"vehicle_type_id":"4","last_reported":1749748189,"current_range_meters":10800,"station_id":"ce4bhch2rcd13ifvqeug","pricing_plan_id":"cebpf4jnsgd1na2vs0mg"},{"bike_id":"608dbf53-4bd7-4842-92d3-6444e235738b","system_id":"levelo_inurba_marseille","lat":43.26693,"lon":5.38257,"is_reserved":false,"is_disabled":false,"rental_uris":{"android":"levelo://app?vid=608dbf53-4bd7-4842-92d3-6444e235738b","ios":"levelo://app?vid=608dbf53-4bd7-4842-92d3-6444e235738b"},"vehicle_type_id":"4","last_reported":1749748189,"current_range_meters":10800,"station_id":"ce4bhg92rcd13ifvqf90","pricing_plan_id":"cebpf4jnsgd1na2vs0mg"},{"bike_id":"a4da5d44-67f7-4b38-9842-dcdd4554c1df","system_id":"levelo_inurba_marseille","lat":43.231904,"lon":5.355524,"is_reserved":false,"is_disabled":false,"rental_uris":{"android":"levelo://app?vid=a4da5d44-67f7-4b38-9842-dcdd4554c1df","ios":"levelo://app?vid=a4da5d44-67f7-4b38-9842-dcdd4554c1df"},"vehicle_type_id":"4","last_reported":1749748189,"current_range_meters":10800,"station_id":"ce4bhu92rcd13ifvqi70","pricing_plan_id":"cebpf4jnsgd1na2vs0mg"},{"bike_id":"500320f2-e4bb-4906-a414-ca67470055ab","system_id":"levelo_inurba_marseille","lat":43.25619,"lon":5.3866,"is_reserved":false,"is_disabled":false,"rental_uris":{"android":"levelo://app?vid=500320f2-e4bb-4906-a414-ca67470055ab","ios":"levelo://app?vid=500320f2-e4bb-4906-a414-ca67470055ab"},"vehicle_type_id":"4","last_reported":1749748189,"current_range_meters":11200,"station_id":"","pricing_plan_id":"cebpf4jnsgd1na2vs0mg"},{"bike_id":"501fe5cc-ec9f-4031-8e12-9c9a87dfd25d","system_id":"levelo_inurba_marseille","lat":43.31776,"lon":5.40619,"is_reserved":false,"is_disabled":false,"rental_uris":{"android":"levelo://app?vid=501fe5cc-ec9f-4031-8e12-9c9a87dfd25d","ios":"levelo://app?vid=501fe5cc-ec9f-4031-8e12-9c9a87dfd25d"},"vehicle_type_id":"4","last_reported":1749748189,"current_range_meters":11200,"station_id":"","pricing_plan_id":"cebpf4jnsgd1na2vs0mg"},{"bike_id":"684cca66-1b7f-4d56-97db-a6fb36692f06","system_id":"levelo_inurba_marseille","lat":43.2863,"lon":5.35101,"is_reserved":false,"is_disabled":false,"rental_uris":{"android":"levelo://app?vid=684cca66-1b7f-4d56-97db-a6fb36692f06","ios":"levelo://app?vid=684cca66-1b7f-4d56-97db-a6fb36692f06"},"vehicle_type_id":"4","last_reported":1749748189,"current_range_meters":11200,"station_id":"ce4bhch2rcd13ifvqeug","pricing_plan_id":"cebpf4jnsgd1na2vs0mg"},{"bike_id":"f29c919a-1f55-4434-bcc9-fbd781daf9bd","system_id":"levelo_inurba_marseille","lat":43.26197,"lon":5.37448,"is_reserved":false,"is_disabled":false,"rental_uris":{"android":"levelo://app?vid=f29c919a-1f55-4434-bcc9-fbd781daf9bd","ios":"levelo://app?vid=f29c919a-1f55-4434-bcc9-fbd781daf9bd"},"vehicle_type_id":"4","last_reported":1749748189,"current_range_meters":11200,"station_id":"ce4bhgp2rcd13ifvqfc0","pricing_plan_id":"cebpf4jnsgd1na2vs0mg"},{"bike_id":"743245d4-5457-49b9-9efc-d95c90d69b8e","system_id":"levelo_inurba_marseille","lat":43.314873,"lon":5.373081,"is_reserved":false,"is_disabled":false,"rental_uris":{"android":"levelo://app?vid=743245d4-5457-49b9-9efc-d95c90d69b8e","ios":"levelo://app?vid=743245d4-5457-49b9-9efc-d95c90d69b8e"},"vehicle_type_id":"4","last_reported":1749748189,"current_range_meters":11200,"station_id":"ce4bhip2rcd13ifvqft0","pricing_plan_id":"cebpf4jnsgd1na2vs0mg"},{"bike_id":"2791008c-2d47-4564-8064-85d127ad24b3","system_id":"levelo_inurba_marseille","lat":43.27816,"lon":5.40711,"is_reserved":false,"is_disabled":false,"rental_uris":{"android":"levelo://app?vid=2791008c-2d47-4564-8064-85d127ad24b3","ios":"levelo://app?vid=2791008c-2d47-4564-8064-85d127ad24b3"},"vehicle_type_id":"4","last_reported":1749748189,"current_range_meters":11200,"station_id":"ce4bhnh2rcd13ifvqgtg","pricing_plan_id":"cebpf4jnsgd1na2vs0mg"},{"bike_id":"06f9e144-6243-4095-9600-2faffa63a312","system_id":"levelo_inurba_marseille","lat":43.30261,"lon":5.4008,"is_reserved":false,"is_disabled":false,"rental_uris":{"android":"levelo://app?vid=06f9e144-6243-4095-9600-2faffa63a312","ios":"levelo://app?vid=06f9e144-6243-4095-9600-2faffa63a312"},"vehicle_type_id":"4","last_reported":1749748189,"current_range_meters":11600,"station_id":"ce4bgvh2rcd13ifvqcs0","pricing_plan_id":"cebpf4jnsgd1na2vs0mg"},{"bike_id":"4618eb3b-1a85-40ca-b351-621ab34ac8f3","system_id":"levelo_inurba_marseille","lat":43.2738,"lon":5.36268,"is_reserved":false,"is_disabled":false,"rental_uris":{"android":"levelo://app?vid=4618eb3b-1a85-40ca-b351-621ab34ac8f3","ios":"levelo://app?vid=4618eb3b-1a85-40ca-b351-621ab34ac8f3"},"vehicle_type_id":"4","last_reported":1749748189,"current_range_meters":11600,"station_id":"ce4bhbh2rcd13ifvqeo0","pricing_plan_id":"cebpf4jnsgd1na2vs0mg"},{"bike_id":"61c58cfe-1bdd-4257-98f3-1873c225f339","system_id":"levelo_inurba_marseille","lat":43.2481,"lon":5.37461,"is_reserved":false,"is_disabled":false,"rental_uris":{"android":"levelo://app?vid=61c58cfe-1bdd-4257-98f3-1873c225f339","ios":"levelo://app?vid=61c58cfe-1bdd-4257-98f3-1873c225f339"},"vehicle_type_id":"4","last_reported":1749748189,"current_range_meters":11600,"station_id":"ce4bhgh2rcd13ifvqfb0","pricing_plan_id":"cebpf4jnsgd1na2vs0mg"},{"bike_id":"1430684f-3128-42e5-b2e2-247a0b22ea04","system_id":"levelo_inurba_marseille","lat":43.24665,"lon":5.38169,"is_reserved":false,"is_disabled":false,"rental_uris":{"android":"levelo://app?vid=1430684f-3128-42e5-b2e2-247a0b22ea04","ios":"levelo://app?vid=1430684f-3128-42e5-b2e2-247a0b22ea04"},"vehicle_type_id":"4","last_reported":1749748189,"current_range_meters":11600,"station_id":"ce4bhih2rcd13ifvqfr0","pricing_plan_id":"cebpf4jnsgd1na2vs0mg"},{"bike_id":"e4424755-5b47-40b5-9293-916761fc38cd","system_id":"levelo_inurba_marseille","lat":43.25872,"lon":5.39898,"is_reserved":false,"is_disabled":false,"rental_uris":{"android":"levelo://app?vid=e4424755-5b47-40b5-9293-916761fc38cd","ios":"levelo://app?vid=e4424755-5b47-40b5-9293-916761fc38cd"},"vehicle_type_id":"4","last_reported":1749748189,"current_range_meters":11600,"station_id":"ce4bhl92rcd13ifvqghg","pricing_plan_id":"cebpf4jnsgd1na2vs0mg"},{"bike_id":"45cb9171-bb7e-418e-bf45-5916b7d21e5e","system_id":"levelo_inurba_marseille","lat":43.32107,"lon":5.36772,"is_reserved":false,"is_disabled":false,"rental_uris":{"android":"levelo://app?vid=45cb9171-bb7e-418e-bf45-5916b7d21e5e","ios":"levelo://app?vid=45cb9171-bb7e-418e-bf45-5916b7d21e5e"},"vehicle_type_id":"4","last_reported":1749748189,"current_range_meters":11600,"station_id":"ce4bhrh2rcd13ifvqhug","pricing_plan_id":"cebpf4jnsgd1na2vs0mg"},{"bike_id":"8fe91cc0-7e94-4c8e-ba14-077f7df3b78e","system_id":"levelo_inurba_marseille","lat":43.29011,"lon":5.35597,"is_reserved":false,"is_disabled":false,"rental_uris":{"android":"levelo://app?vid=8fe91cc0-7e94-4c8e-ba14-077f7df3b78e","ios":"levelo://app?vid=8fe91cc0-7e94-4c8e-ba14-077f7df3b78e"},"vehicle_type_id":"4","last_reported":1749748189,"current_range_meters":12000,"station_id":"ce4bhb92rcd13ifvqen0","pricing_plan_id":"cebpf4jnsgd1na2vs0mg"},{"bike_id":"3abc5074-3525-4b73-84a1-910243fe0020","system_id":"levelo_inurba_marseille","lat":43.26063,"lon":5.394,"is_reserved":false,"is_disabled":false,"rental_uris":{"android":"levelo://app?vid=3abc5074-3525-4b73-84a1-910243fe0020","ios":"levelo://app?vid=3abc5074-3525-4b73-84a1-910243fe0020"},"vehicle_type_id":"4","last_reported":1749748189,"current_range_meters":12000,"station_id":"ce4bhh92rcd13ifvqfj0","pricing_plan_id":"cebpf4jnsgd1na2vs0mg"},{"bike_id":"97421c04-2630-4fc1-9da9-b17d88602c5f","system_id":"levelo_inurba_marseille","lat":43.337687,"lon":5.37437,"is_reserved":false,"is_disabled":false,"rental_uris":{"android":"levelo://app?vid=97421c04-2630-4fc1-9da9-b17d88602c5f","ios":"levelo://app?vid=97421c04-2630-4fc1-9da9-b17d88602c5f"},"vehicle_type_id":"4","last_reported":1749748189,"current_range_meters":12400,"station_id":"","pricing_plan_id":"cebpf4jnsgd1na2vs0mg"},{"bike_id":"2676e0f2-8978-4433-8c2e-f7f8580a07b8","system_id":"levelo_inurba_marseille","lat":43.28618,"lon":5.35102,"is_reserved":false,"is_disabled":false,"rental_uris":{"android":"levelo://app?vid=2676e0f2-8978-4433-8c2e-f7f8580a07b8","ios":"levelo://app?vid=2676e0f2-8978-4433-8c2e-f7f8580a07b8"},"vehicle_type_id":"4","last_reported":1749748189,"current_range_meters":12400,"station_id":"ce4bhch2rcd13ifvqeug","pricing_plan_id":"cebpf4jnsgd1na2vs0mg"},{"bike_id":"aced54d9-88f5-4085-ac4e-5caab4b9a32f","system_id":"levelo_inurba_marseille","lat":43.27172,"lon":5.40995,"is_reserved":false,"is_disabled":false,"rental_uris":{"android":"levelo://app?vid=aced54d9-88f5-4085-ac4e-5caab4b9a32f","ios":"levelo://app?vid=aced54d9-88f5-4085-ac4e-5caab4b9a32f"},"vehicle_type_id":"4","last_reported":1749748189,"current_range_meters":12400,"station_id":"ce4bhl12rcd13ifvqgf0","pricing_plan_id":"cebpf4jnsgd1na2vs0mg"},{"bike_id":"a79504f6-f990-430c-86b9-83f3b5f003af","system_id":"levelo_inurba_marseille","lat":43.29129,"lon":5.369586,"is_reserved":false,"is_disabled":false,"rental_uris":{"android":"levelo://app?vid=a79504f6-f990-430c-86b9-83f3b5f003af","ios":"levelo://app?vid=a79504f6-f990-430c-86b9-83f3b5f003af"},"vehicle_type_id":"4","last_reported":1749748189,"current_range_meters":12400,"station_id":"cki0cbj6b192h4jlfktg","pricing_plan_id":"cebpf4jnsgd1na2vs0mg"},{"bike_id":"4cff69e8-991c-49c7-8032-92c85c87053b","system_id":"levelo_inurba_marseille","lat":43.29228,"lon":5.36073,"is_reserved":false,"is_disabled":false,"rental_uris":{"android":"levelo://app?vid=4cff69e8-991c-49c7-8032-92c85c87053b","ios":"levelo://app?vid=4cff69e8-991c-49c7-8032-92c85c87053b"},"vehicle_type_id":"4","last_reported":1749748189,"current_range_meters":12800,"station_id":"ce4bhbh2rcd13ifvqeqg","pricing_plan_id":"cebpf4jnsgd1na2vs0mg"},{"bike_id":"204e2e8f-0eda-4d6b-9925-4e042c1f7f5e","system_id":"levelo_inurba_marseille","lat":43.26554,"lon":5.37283,"is_reserved":false,"is_disabled":false,"rental_uris":{"android":"levelo://app?vid=204e2e8f-0eda-4d6b-9925-4e042c1f7f5e","ios":"levelo://app?vid=204e2e8f-0eda-4d6b-9925-4e042c1f7f5e"},"vehicle_type_id":"4","last_reported":1749748189,"current_range_meters":12800,"station_id":"ce4bhg12rcd13ifvqf70","pricing_plan_id":"cebpf4jnsgd1na2vs0mg"},{"bike_id":"3c45476a-b26f-4dec-a601-253ed5fa0cec","system_id":"levelo_inurba_marseille","lat":43.294891,"lon":5.423016,"is_reserved":false,"is_disabled":false,"rental_uris":{"android":"levelo://app?vid=3c45476a-b26f-4dec-a601-253ed5fa0cec","ios":"levelo://app?vid=3c45476a-b26f-4dec-a601-253ed5fa0cec"},"vehicle_type_id":"4","last_reported":1749748189,"current_range_meters":12800,"station_id":"ce4bhph2rcd13ifvqhdg","pricing_plan_id":"cebpf4jnsgd1na2vs0mg"},{"bike_id":"3e8dd9d7-3886-4327-b479-76ffdd06635b","system_id":"levelo_inurba_marseille","lat":43.29557,"lon":5.42293,"is_reserved":false,"is_disabled":false,"rental_uris":{"android":"levelo://app?vid=3e8dd9d7-3886-4327-b479-76ffdd06635b","ios":"levelo://app?vid=3e8dd9d7-3886-4327-b479-76ffdd06635b"},"vehicle_type_id":"4","last_reported":1749748189,"current_range_meters":12800,"station_id":"ce4bhph2rcd13ifvqhdg","pricing_plan_id":"cebpf4jnsgd1na2vs0mg"},{"bike_id":"abd0d78f-a5d4-4339-93f7-6b3fc51d77c5","system_id":"levelo_inurba_marseille","lat":43.36626,"lon":5.35554,"is_reserved":false,"is_disabled":false,"rental_uris":{"android":"levelo://app?vid=abd0d78f-a5d4-4339-93f7-6b3fc51d77c5","ios":"levelo://app?vid=abd0d78f-a5d4-4339-93f7-6b3fc51d77c5"},"vehicle_type_id":"4","last_reported":1749748189,"current_range_meters":13600,"station_id":"","pricing_plan_id":"cebpf4jnsgd1na2vs0mg"},{"bike_id":"dc997a80-0a70-4253-95d4-183bbb472c71","system_id":"levelo_inurba_marseille","lat":43.29199,"lon":5.35804,"is_reserved":false,"is_disabled":false,"rental_uris":{"android":"levelo://app?vid=dc997a80-0a70-4253-95d4-183bbb472c71","ios":"levelo://app?vid=dc997a80-0a70-4253-95d4-183bbb472c71"},"vehicle_type_id":"4","last_reported":1749748189,"current_range_meters":13600,"station_id":"ce4bhb12rcd13ifvqel0","pricing_plan_id":"cebpf4jnsgd1na2vs0mg"},{"bike_id":"19282de7-6c3e-4bab-a4d4-caa75e0a1ed3","system_id":"levelo_inurba_marseille","lat":43.28417,"lon":5.34978,"is_reserved":false,"is_disabled":false,"rental_uris":{"android":"levelo://app?vid=19282de7-6c3e-4bab-a4d4-caa75e0a1ed3","ios":"levelo://app?vid=19282de7-6c3e-4bab-a4d4-caa75e0a1ed3"},"vehicle_type_id":"4","last_reported":1749748189,"current_range_meters":13600,"station_id":"ce4bhbh2rcd13ifvqepg","pricing_plan_id":"cebpf4jnsgd1na2vs0mg"},{"bike_id":"bdd841d2-cba8-4919-816e-328a6ab57eeb","system_id":"levelo_inurba_marseille","lat":43.27421,"lon":5.39428,"is_reserved":false,"is_disabled":false,"rental_uris":{"android":"levelo://app?vid=bdd841d2-cba8-4919-816e-328a6ab57eeb","ios":"levelo://app?vid=bdd841d2-cba8-4919-816e-328a6ab57eeb"},"vehicle_type_id":"4","last_reported":1749748189,"current_range_meters":13600,"station_id":"ce4bhdp2rcd13ifvqf20","pricing_plan_id":"cebpf4jnsgd1na2vs0mg"},{"bike_id":"570eba0c-51e8-4bc1-a79d-9c865aad7dd3","system_id":"levelo_inurba_marseille","lat":43.24384,"lon":5.37057,"is_reserved":false,"is_disabled":false,"rental_uris":{"android":"levelo://app?vid=570eba0c-51e8-4bc1-a79d-9c865aad7dd3","ios":"levelo://app?vid=570eba0c-51e8-4bc1-a79d-9c865aad7dd3"},"vehicle_type_id":"4","last_reported":1749748189,"current_range_meters":13600,"station_id":"ce4bhhh2rcd13ifvqfk0","pricing_plan_id":"cebpf4jnsgd1na2vs0mg"},{"bike_id":"1268e070-f02d-4537-93df-0bfd5c4daa05","system_id":"levelo_inurba_marseille","lat":43.3269,"lon":5.37704,"is_reserved":false,"is_disabled":false,"rental_uris":{"android":"levelo://app?vid=1268e070-f02d-4537-93df-0bfd5c4daa05","ios":"levelo://app?vid=1268e070-f02d-4537-93df-0bfd5c4daa05"},"vehicle_type_id":"4","last_reported":1749748189,"current_range_meters":14000,"station_id":"","pricing_plan_id":"cebpf4jnsgd1na2vs0mg"},{"bike_id":"c0673d8e-ac84-45ac-bb5b-6ee5ef99d617","system_id":"levelo_inurba_marseille","lat":43.2972,"lon":5.36611,"is_reserved":false,"is_disabled":false,"rental_uris":{"android":"levelo://app?vid=c0673d8e-ac84-45ac-bb5b-6ee5ef99d617","ios":"levelo://app?vid=c0673d8e-ac84-45ac-bb5b-6ee5ef99d617"},"vehicle_type_id":"4","last_reported":1749748189,"current_range_meters":14000,"station_id":"ce4bgn12rcd13ifvqbt0","pricing_plan_id":"cebpf4jnsgd1na2vs0mg"},{"bike_id":"04dd4163-e1a5-4a08-8e0f-2d0ef465abd8","system_id":"levelo_inurba_marseille","lat":43.28854,"lon":5.35844,"is_reserved":false,"is_disabled":false,"rental_uris":{"android":"levelo://app?vid=04dd4163-e1a5-4a08-8e0f-2d0ef465abd8","ios":"levelo://app?vid=04dd4163-e1a5-4a08-8e0f-2d0ef465abd8"},"vehicle_type_id":"4","last_reported":1749748189,"current_range_meters":14000,"station_id":"ce4bhb12rcd13ifvqem0","pricing_plan_id":"cebpf4jnsgd1na2vs0mg"},{"bike_id":"e1259bdc-2fca-4f0a-8c39-8cf9d1a28f2e","system_id":"levelo_inurba_marseille","lat":43.26691,"lon":5.38281,"is_reserved":false,"is_disabled":false,"rental_uris":{"android":"levelo://app?vid=e1259bdc-2fca-4f0a-8c39-8cf9d1a28f2e","ios":"levelo://app?vid=e1259bdc-2fca-4f0a-8c39-8cf9d1a28f2e"},"vehicle_type_id":"4","last_reported":1749748189,"current_range_meters":14000,"station_id":"ce4bhg92rcd13ifvqf90","pricing_plan_id":"cebpf4jnsgd1na2vs0mg"},{"bike_id":"5d01c343-252f-485e-90bd-34846249cd81","system_id":"levelo_inurba_marseille","lat":43.25115,"lon":5.40317,"is_reserved":false,"is_disabled":false,"rental_uris":{"android":"levelo://app?vid=5d01c343-252f-485e-90bd-34846249cd81","ios":"levelo://app?vid=5d01c343-252f-485e-90bd-34846249cd81"},"vehicle_type_id":"4","last_reported":1749748189,"current_range_meters":14000,"station_id":"ce4bhlh2rcd13ifvqgig","pricing_plan_id":"cebpf4jnsgd1na2vs0mg"},{"bike_id":"059edbc4-e610-41eb-bb60-80e716055028","system_id":"levelo_inurba_marseille","lat":43.24167,"lon":5.36393,"is_reserved":false,"is_disabled":false,"rental_uris":{"android":"levelo://app?vid=059edbc4-e610-41eb-bb60-80e716055028","ios":"levelo://app?vid=059edbc4-e610-41eb-bb60-80e716055028"},"vehicle_type_id":"4","last_reported":1749748189,"current_range_meters":14000,"station_id":"cpo36qri1sfpv3e86is0","pricing_plan_id":"cebpf4jnsgd1na2vs0mg"},{"bike_id":"83ad8241-60c4-42de-b76a-fbfc2eb5a88b","system_id":"levelo_inurba_marseille","lat":43.29889,"lon":5.36426,"is_reserved":false,"is_disabled":false,"rental_uris":{"android":"levelo://app?vid=83ad8241-60c4-42de-b76a-fbfc2eb5a88b","ios":"levelo://app?vid=83ad8241-60c4-42de-b76a-fbfc2eb5a88b"},"vehicle_type_id":"4","last_reported":1749748189,"current_range_meters":14400,"station_id":"","pricing_plan_id":"cebpf4jnsgd1na2vs0mg"},{"bike_id":"6e464720-93b0-4699-80fe-881649eb71cd","system_id":"levelo_inurba_marseille","lat":43.23287,"lon":5.35584,"is_reserved":false,"is_disabled":false,"rental_uris":{"android":"levelo://app?vid=6e464720-93b0-4699-80fe-881649eb71cd","ios":"levelo://app?vid=6e464720-93b0-4699-80fe-881649eb71cd"},"vehicle_type_id":"4","last_reported":1749748189,"current_range_meters":14400,"station_id":"","pricing_plan_id":"cebpf4jnsgd1na2vs0mg"},{"bike_id":"e5ef7447-82af-477b-846f-d44631249354","system_id":"levelo_inurba_marseille","lat":43.32498,"lon":5.38809,"is_reserved":false,"is_disabled":false,"rental_uris":{"android":"levelo://app?vid=e5ef7447-82af-477b-846f-d44631249354","ios":"levelo://app?vid=e5ef7447-82af-477b-846f-d44631249354"},"vehicle_type_id":"4","last_reported":1749748189,"current_range_meters":14400,"station_id":"","pricing_plan_id":"cebpf4jnsgd1na2vs0mg"},{"bike_id":"1d6f9e15-76b3-4954-ba9f-99cc58b927b8","system_id":"levelo_inurba_marseille","lat":43.291703,"lon":5.371658,"is_reserved":false,"is_disabled":false,"rental_uris":{"android":"levelo://app?vid=1d6f9e15-76b3-4954-ba9f-99cc58b927b8","ios":"levelo://app?vid=1d6f9e15-76b3-4954-ba9f-99cc58b927b8"},"vehicle_type_id":"4","last_reported":1749748189,"current_range_meters":14400,"station_id":"ce4bha92rcd13ifvqeh0","pricing_plan_id":"cebpf4jnsgd1na2vs0mg"},{"bike_id":"dabd2d74-4f1c-440f-907b-3a815bc85a7a","system_id":"levelo_inurba_marseille","lat":43.25817,"lon":5.39434,"is_reserved":false,"is_disabled":false,"rental_uris":{"android":"levelo://app?vid=dabd2d74-4f1c-440f-907b-3a815bc85a7a","ios":"levelo://app?vid=dabd2d74-4f1c-440f-907b-3a815bc85a7a"},"vehicle_type_id":"4","last_reported":1749748189,"current_range_meters":14400,"station_id":"ce4bhip2rcd13ifvqft0","pricing_plan_id":"cebpf4jnsgd1na2vs0mg"},{"bike_id":"f47bed24-47fc-46bf-9fee-db0be7c20a6d","system_id":"levelo_inurba_marseille","lat":43.28442,"lon":5.39194,"is_reserved":false,"is_disabled":false,"rental_uris":{"android":"levelo://app?vid=f47bed24-47fc-46bf-9fee-db0be7c20a6d","ios":"levelo://app?vid=f47bed24-47fc-46bf-9fee-db0be7c20a6d"},"vehicle_type_id":"4","last_reported":1749748189,"current_range_meters":14400,"station_id":"ce4bhoh2rcd13ifvqh5g","pricing_plan_id":"cebpf4jnsgd1na2vs0mg"},{"bike_id":"c6395a4d-2e98-4305-947b-4622e883f253","system_id":"levelo_inurba_marseille","lat":43.32338,"lon":5.40629,"is_reserved":false,"is_disabled":false,"rental_uris":{"android":"levelo://app?vid=c6395a4d-2e98-4305-947b-4622e883f253","ios":"levelo://app?vid=c6395a4d-2e98-4305-947b-4622e883f253"},"vehicle_type_id":"4","last_reported":1749748189,"current_range_meters":14800,"station_id":"ce4bhq92rcd13ifvqhjg","pricing_plan_id":"cebpf4jnsgd1na2vs0mg"},{"bike_id":"e02dba56-42ff-4fe6-88d1-a91d3828b9f5","system_id":"levelo_inurba_marseille","lat":43.28407,"lon":5.37524,"is_reserved":false,"is_disabled":false,"rental_uris":{"android":"levelo://app?vid=e02dba56-42ff-4fe6-88d1-a91d3828b9f5","ios":"levelo://app?vid=e02dba56-42ff-4fe6-88d1-a91d3828b9f5"},"vehicle_type_id":"4","last_reported":1749748189,"current_range_meters":15200,"station_id":"ce4bh412rcd13ifvqds0","pricing_plan_id":"cebpf4jnsgd1na2vs0mg"},{"bike_id":"74ed8c3c-8bb5-4b8f-bdf4-3c25a44ca479","system_id":"levelo_inurba_marseille","lat":43.29072,"lon":5.37169,"is_reserved":false,"is_disabled":false,"rental_uris":{"android":"levelo://app?vid=74ed8c3c-8bb5-4b8f-bdf4-3c25a44ca479","ios":"levelo://app?vid=74ed8c3c-8bb5-4b8f-bdf4-3c25a44ca479"},"vehicle_type_id":"4","last_reported":1749748189,"current_range_meters":15200,"station_id":"ce4bh5p2rcd13ifvqe4g","pricing_plan_id":"cebpf4jnsgd1na2vs0mg"},{"bike_id":"81622fcd-5f72-465e-985c-cdb6ce9e07e0","system_id":"levelo_inurba_marseille","lat":43.2846,"lon":5.35898,"is_reserved":false,"is_disabled":false,"rental_uris":{"android":"levelo://app?vid=81622fcd-5f72-465e-985c-cdb6ce9e07e0","ios":"levelo://app?vid=81622fcd-5f72-465e-985c-cdb6ce9e07e0"},"vehicle_type_id":"4","last_reported":1749748189,"current_range_meters":15200,"station_id":"ce4bhah2rcd13ifvqei0","pricing_plan_id":"cebpf4jnsgd1na2vs0mg"},{"bike_id":"6aaf8bd5-91f6-4c17-935a-52716ff54961","system_id":"levelo_inurba_marseille","lat":43.29209,"lon":5.35777,"is_reserved":false,"is_disabled":false,"rental_uris":{"android":"levelo://app?vid=6aaf8bd5-91f6-4c17-935a-52716ff54961","ios":"levelo://app?vid=6aaf8bd5-91f6-4c17-935a-52716ff54961"},"vehicle_type_id":"4","last_reported":1749748189,"current_range_meters":15200,"station_id":"ce4bhb12rcd13ifvqel0","pricing_plan_id":"cebpf4jnsgd1na2vs0mg"},{"bike_id":"1f6b5940-c107-48dc-ae38-b30e8c22cf65","system_id":"levelo_inurba_marseille","lat":43.2587,"lon":5.39899,"is_reserved":false,"is_disabled":false,"rental_uris":{"android":"levelo://app?vid=1f6b5940-c107-48dc-ae38-b30e8c22cf65","ios":"levelo://app?vid=1f6b5940-c107-48dc-ae38-b30e8c22cf65"},"vehicle_type_id":"4","last_reported":1749748189,"current_range_meters":15200,"station_id":"ce4bhl92rcd13ifvqghg","pricing_plan_id":"cebpf4jnsgd1na2vs0mg"},{"bike_id":"c0bd4251-d527-48a7-9378-e4e80c1c274f","system_id":"levelo_inurba_marseille","lat":43.318112,"lon":5.374058,"is_reserved":false,"is_disabled":false,"rental_uris":{"android":"levelo://app?vid=c0bd4251-d527-48a7-9378-e4e80c1c274f","ios":"levelo://app?vid=c0bd4251-d527-48a7-9378-e4e80c1c274f"},"vehicle_type_id":"4","last_reported":1749748189,"current_range_meters":16000,"station_id":"","pricing_plan_id":"cebpf4jnsgd1na2vs0mg"},{"bike_id":"c8102abf-9227-4fcc-9174-09f9b0bcd8fa","system_id":"levelo_inurba_marseille","lat":43.31301,"lon":5.37265,"is_reserved":false,"is_disabled":false,"rental_uris":{"android":"levelo://app?vid=c8102abf-9227-4fcc-9174-09f9b0bcd8fa","ios":"levelo://app?vid=c8102abf-9227-4fcc-9174-09f9b0bcd8fa"},"vehicle_type_id":"4","last_reported":1749748189,"current_range_meters":16000,"station_id":"","pricing_plan_id":"cebpf4jnsgd1na2vs0mg"},{"bike_id":"c67ef85d-1aaa-4737-a385-65fdb7b24c9b","system_id":"levelo_inurba_marseille","lat":43.28412,"lon":5.35,"is_reserved":false,"is_disabled":false,"rental_uris":{"android":"levelo://app?vid=c67ef85d-1aaa-4737-a385-65fdb7b24c9b","ios":"levelo://app?vid=c67ef85d-1aaa-4737-a385-65fdb7b24c9b"},"vehicle_type_id":"4","last_reported":1749748189,"current_range_meters":16000,"station_id":"ce4bhbh2rcd13ifvqepg","pricing_plan_id":"cebpf4jnsgd1na2vs0mg"},{"bike_id":"2b3487c0-6d03-4c54-801f-a27aa1820b7e","system_id":"levelo_inurba_marseille","lat":43.2656,"lon":5.37312,"is_reserved":false,"is_disabled":false,"rental_uris":{"android":"levelo://app?vid=2b3487c0-6d03-4c54-801f-a27aa1820b7e","ios":"levelo://app?vid=2b3487c0-6d03-4c54-801f-a27aa1820b7e"},"vehicle_type_id":"4","last_reported":1749748189,"current_range_meters":16000,"station_id":"ce4bhg12rcd13ifvqf70","pricing_plan_id":"cebpf4jnsgd1na2vs0mg"},{"bike_id":"323f83ac-4655-44ef-96de-5adab8bedb0e","system_id":"levelo_inurba_marseille","lat":43.25498,"lon":5.37649,"is_reserved":false,"is_disabled":false,"rental_uris":{"android":"levelo://app?vid=323f83ac-4655-44ef-96de-5adab8bedb0e","ios":"levelo://app?vid=323f83ac-4655-44ef-96de-5adab8bedb0e"},"vehicle_type_id":"4","last_reported":1749748189,"current_range_meters":16000,"station_id":"ce4bhh12rcd13ifvqff0","pricing_plan_id":"cebpf4jnsgd1na2vs0mg"},{"bike_id":"78e4331f-c67f-4812-a1cf-4af0acc5e2d6","system_id":"levelo_inurba_marseille","lat":43.32345,"lon":5.36716,"is_reserved":false,"is_disabled":false,"rental_uris":{"android":"levelo://app?vid=78e4331f-c67f-4812-a1cf-4af0acc5e2d6","ios":"levelo://app?vid=78e4331f-c67f-4812-a1cf-4af0acc5e2d6"},"vehicle_type_id":"4","last_reported":1749748189,"current_range_meters":16000,"station_id":"ce4bhsh2rcd13ifvqi2g","pricing_plan_id":"cebpf4jnsgd1na2vs0mg"},{"bike_id":"13c243cd-9cd7-41ad-a6fc-cb8f0f4eabf6","system_id":"levelo_inurba_marseille","lat":43.21766,"lon":5.34625,"is_reserved":false,"is_disabled":false,"rental_uris":{"android":"levelo://app?vid=13c243cd-9cd7-41ad-a6fc-cb8f0f4eabf6","ios":"levelo://app?vid=13c243cd-9cd7-41ad-a6fc-cb8f0f4eabf6"},"vehicle_type_id":"4","last_reported":1749748189,"current_range_meters":16000,"station_id":"st_cvj6r9ubvosntc0bgbag","pricing_plan_id":"cebpf4jnsgd1na2vs0mg"},{"bike_id":"e0b035df-615f-4bab-9596-39da68e53fd2","system_id":"levelo_inurba_marseille","lat":43.26187,"lon":5.42079,"is_reserved":false,"is_disabled":false,"rental_uris":{"android":"levelo://app?vid=e0b035df-615f-4bab-9596-39da68e53fd2","ios":"levelo://app?vid=e0b035df-615f-4bab-9596-39da68e53fd2"},"vehicle_type_id":"4","last_reported":1749748189,"current_range_meters":16400,"station_id":"","pricing_plan_id":"cebpf4jnsgd1na2vs0mg"},{"bike_id":"346f3f80-6b15-4406-b905-bb78596f5bac","system_id":"levelo_inurba_marseille","lat":43.32386,"lon":5.36781,"is_reserved":false,"is_disabled":false,"rental_uris":{"android":"levelo://app?vid=346f3f80-6b15-4406-b905-bb78596f5bac","ios":"levelo://app?vid=346f3f80-6b15-4406-b905-bb78596f5bac"},"vehicle_type_id":"4","last_reported":1749748189,"current_range_meters":16400,"station_id":"","pricing_plan_id":"cebpf4jnsgd1na2vs0mg"},{"bike_id":"50e457f7-ace3-4f0f-9cfa-37f76a57091f","system_id":"levelo_inurba_marseille","lat":43.29595,"lon":5.38102,"is_reserved":false,"is_disabled":false,"rental_uris":{"android":"levelo://app?vid=50e457f7-ace3-4f0f-9cfa-37f76a57091f","ios":"levelo://app?vid=50e457f7-ace3-4f0f-9cfa-37f76a57091f"},"vehicle_type_id":"4","last_reported":1749748189,"current_range_meters":16400,"station_id":"ce4bgl12rcd13ifvqbo0","pricing_plan_id":"cebpf4jnsgd1na2vs0mg"},{"bike_id":"3237cf40-0a9b-4608-bbc9-f720e5d3b760","system_id":"levelo_inurba_marseille","lat":43.28466,"lon":5.38417,"is_reserved":false,"is_disabled":false,"rental_uris":{"android":"levelo://app?vid=3237cf40-0a9b-4608-bbc9-f720e5d3b760","ios":"levelo://app?vid=3237cf40-0a9b-4608-bbc9-f720e5d3b760"},"vehicle_type_id":"4","last_reported":1749748189,"current_range_meters":16400,"station_id":"ce4bh512rcd13ifvqe3g","pricing_plan_id":"cebpf4jnsgd1na2vs0mg"},{"bike_id":"4a65f4b5-e097-4212-bc7c-a33aaf7163b9","system_id":"levelo_inurba_marseille","lat":43.26207,"lon":5.37441,"is_reserved":false,"is_disabled":false,"rental_uris":{"android":"levelo://app?vid=4a65f4b5-e097-4212-bc7c-a33aaf7163b9","ios":"levelo://app?vid=4a65f4b5-e097-4212-bc7c-a33aaf7163b9"},"vehicle_type_id":"4","last_reported":1749748189,"current_range_meters":16400,"station_id":"ce4bhgp2rcd13ifvqfc0","pricing_plan_id":"cebpf4jnsgd1na2vs0mg"},{"bike_id":"92b40dd3-a2f8-4866-9e2f-eaf17743e8d5","system_id":"levelo_inurba_marseille","lat":43.27205,"lon":5.39187,"is_reserved":false,"is_disabled":false,"rental_uris":{"android":"levelo://app?vid=92b40dd3-a2f8-4866-9e2f-eaf17743e8d5","ios":"levelo://app?vid=92b40dd3-a2f8-4866-9e2f-eaf17743e8d5"},"vehicle_type_id":"4","last_reported":1749748189,"current_range_meters":16400,"station_id":"ce4bhhp2rcd13ifvqfm0","pricing_plan_id":"cebpf4jnsgd1na2vs0mg"},{"bike_id":"b2798195-4fce-46b6-9218-5d7d2f4fa6a6","system_id":"levelo_inurba_marseille","lat":43.29555,"lon":5.42279,"is_reserved":false,"is_disabled":false,"rental_uris":{"android":"levelo://app?vid=b2798195-4fce-46b6-9218-5d7d2f4fa6a6","ios":"levelo://app?vid=b2798195-4fce-46b6-9218-5d7d2f4fa6a6"},"vehicle_type_id":"4","last_reported":1749748189,"current_range_meters":16400,"station_id":"ce4bhph2rcd13ifvqhdg","pricing_plan_id":"cebpf4jnsgd1na2vs0mg"},{"bike_id":"41902e46-3363-402b-89a9-77321257c96b","system_id":"levelo_inurba_marseille","lat":43.32377,"lon":5.36742,"is_reserved":false,"is_disabled":false,"rental_uris":{"android":"levelo://app?vid=41902e46-3363-402b-89a9-77321257c96b","ios":"levelo://app?vid=41902e46-3363-402b-89a9-77321257c96b"},"vehicle_type_id":"4","last_reported":1749748189,"current_range_meters":16400,"station_id":"ce4bhsh2rcd13ifvqi2g","pricing_plan_id":"cebpf4jnsgd1na2vs0mg"},{"bike_id":"62c0da7f-aff9-4ffa-86b8-6966d8f0e555","system_id":"levelo_inurba_marseille","lat":43.21185,"lon":5.35073,"is_reserved":false,"is_disabled":false,"rental_uris":{"android":"levelo://app?vid=62c0da7f-aff9-4ffa-86b8-6966d8f0e555","ios":"levelo://app?vid=62c0da7f-aff9-4ffa-86b8-6966d8f0e555"},"vehicle_type_id":"4","last_reported":1749748189,"current_range_meters":16400,"station_id":"st_cvj6sg6p6f1abm77japg","pricing_plan_id":"cebpf4jnsgd1na2vs0mg"},{"bike_id":"445a0f1d-ebf4-446e-b532-2638218ed036","system_id":"levelo_inurba_marseille","lat":43.30948,"lon":5.3905,"is_reserved":false,"is_disabled":false,"rental_uris":{"android":"levelo://app?vid=445a0f1d-ebf4-446e-b532-2638218ed036","ios":"levelo://app?vid=445a0f1d-ebf4-446e-b532-2638218ed036"},"vehicle_type_id":"4","last_reported":1749748189,"current_range_meters":16800,"station_id":"ce4bgup2rcd13ifvqco0","pricing_plan_id":"cebpf4jnsgd1na2vs0mg"},{"bike_id":"cb84102b-ec5b-4405-9513-bbd05d2d2a41","system_id":"levelo_inurba_marseille","lat":43.30142,"lon":5.3986,"is_reserved":false,"is_disabled":false,"rental_uris":{"android":"levelo://app?vid=cb84102b-ec5b-4405-9513-bbd05d2d2a41","ios":"levelo://app?vid=cb84102b-ec5b-4405-9513-bbd05d2d2a41"},"vehicle_type_id":"4","last_reported":1749748189,"current_range_meters":16800,"station_id":"ce4bh0h2rcd13ifvqd40","pricing_plan_id":"cebpf4jnsgd1na2vs0mg"},{"bike_id":"81cc87f1-36fe-4474-a07f-943538ffedb8","system_id":"levelo_inurba_marseille","lat":43.28663,"lon":5.3636,"is_reserved":false,"is_disabled":false,"rental_uris":{"android":"levelo://app?vid=81cc87f1-36fe-4474-a07f-943538ffedb8","ios":"levelo://app?vid=81cc87f1-36fe-4474-a07f-943538ffedb8"},"vehicle_type_id":"4","last_reported":1749748189,"current_range_meters":16800,"station_id":"ce4bhah2rcd13ifvqej0","pricing_plan_id":"cebpf4jnsgd1na2vs0mg"},{"bike_id":"b211812f-6a1c-4a87-9630-f87d44035bd8","system_id":"levelo_inurba_marseille","lat":43.28401,"lon":5.34995,"is_reserved":false,"is_disabled":false,"rental_uris":{"android":"levelo://app?vid=b211812f-6a1c-4a87-9630-f87d44035bd8","ios":"levelo://app?vid=b211812f-6a1c-4a87-9630-f87d44035bd8"},"vehicle_type_id":"4","last_reported":1749748189,"current_range_meters":16800,"station_id":"ce4bhbh2rcd13ifvqepg","pricing_plan_id":"cebpf4jnsgd1na2vs0mg"},{"bike_id":"c05f49db-7581-42c0-8765-d0bc585bd13c","system_id":"levelo_inurba_marseille","lat":43.28419,"lon":5.34978,"is_reserved":false,"is_disabled":false,"rental_uris":{"android":"levelo://app?vid=c05f49db-7581-42c0-8765-d0bc585bd13c","ios":"levelo://app?vid=c05f49db-7581-42c0-8765-d0bc585bd13c"},"vehicle_type_id":"4","last_reported":1749748189,"current_range_meters":16800,"station_id":"ce4bhbh2rcd13ifvqepg","pricing_plan_id":"cebpf4jnsgd1na2vs0mg"},{"bike_id":"b2ae6296-192b-4828-a94a-63fabbf22523","system_id":"levelo_inurba_marseille","lat":43.29273,"lon":5.36845,"is_reserved":false,"is_disabled":false,"rental_uris":{"android":"levelo://app?vid=b2ae6296-192b-4828-a94a-63fabbf22523","ios":"levelo://app?vid=b2ae6296-192b-4828-a94a-63fabbf22523"},"vehicle_type_id":"4","last_reported":1749748189,"current_range_meters":16800,"station_id":"ce4bhbp2rcd13ifvqesg","pricing_plan_id":"cebpf4jnsgd1na2vs0mg"},{"bike_id":"dc8d791b-973d-4f6b-9b6b-43529331e2de","system_id":"levelo_inurba_marseille","lat":43.26553,"lon":5.37287,"is_reserved":false,"is_disabled":false,"rental_uris":{"android":"levelo://app?vid=dc8d791b-973d-4f6b-9b6b-43529331e2de","ios":"levelo://app?vid=dc8d791b-973d-4f6b-9b6b-43529331e2de"},"vehicle_type_id":"4","last_reported":1749748189,"current_range_meters":16800,"station_id":"ce4bhg12rcd13ifvqf70","pricing_plan_id":"cebpf4jnsgd1na2vs0mg"},{"bike_id":"4a1ebb57-de4c-466d-8a5a-f3907adc6246","system_id":"levelo_inurba_marseille","lat":43.2794,"lon":5.41035,"is_reserved":false,"is_disabled":false,"rental_uris":{"android":"levelo://app?vid=4a1ebb57-de4c-466d-8a5a-f3907adc6246","ios":"levelo://app?vid=4a1ebb57-de4c-466d-8a5a-f3907adc6246"},"vehicle_type_id":"4","last_reported":1749748189,"current_range_meters":16800,"station_id":"ce4bhnp2rcd13ifvqh0g","pricing_plan_id":"cebpf4jnsgd1na2vs0mg"},{"bike_id":"600da287-0374-4ee0-bea4-ba6902340b5e","system_id":"levelo_inurba_marseille","lat":43.27498,"lon":5.36013,"is_reserved":false,"is_disabled":false,"rental_uris":{"android":"levelo://app?vid=600da287-0374-4ee0-bea4-ba6902340b5e","ios":"levelo://app?vid=600da287-0374-4ee0-bea4-ba6902340b5e"},"vehicle_type_id":"4","last_reported":1749748189,"current_range_meters":17200,"station_id":"","pricing_plan_id":"cebpf4jnsgd1na2vs0mg"},{"bike_id":"b50a069e-ae16-493c-baed-c0215c8f56a8","system_id":"levelo_inurba_marseille","lat":43.29624,"lon":5.37168,"is_reserved":false,"is_disabled":false,"rental_uris":{"android":"levelo://app?vid=b50a069e-ae16-493c-baed-c0215c8f56a8","ios":"levelo://app?vid=b50a069e-ae16-493c-baed-c0215c8f56a8"},"vehicle_type_id":"4","last_reported":1749748189,"current_range_meters":17200,"station_id":"ce4bgnh2rcd13ifvqc0g","pricing_plan_id":"cebpf4jnsgd1na2vs0mg"},{"bike_id":"17a227e7-1b66-43fe-852b-da9a4d0eeb8e","system_id":"levelo_inurba_marseille","lat":43.29194,"lon":5.35802,"is_reserved":false,"is_disabled":false,"rental_uris":{"android":"levelo://app?vid=17a227e7-1b66-43fe-852b-da9a4d0eeb8e","ios":"levelo://app?vid=17a227e7-1b66-43fe-852b-da9a4d0eeb8e"},"vehicle_type_id":"4","last_reported":1749748189,"current_range_meters":17200,"station_id":"ce4bhb12rcd13ifvqel0","pricing_plan_id":"cebpf4jnsgd1na2vs0mg"},{"bike_id":"fbab353d-c351-4809-8f41-9640905d5e1e","system_id":"levelo_inurba_marseille","lat":43.26689,"lon":5.38268,"is_reserved":false,"is_disabled":false,"rental_uris":{"android":"levelo://app?vid=fbab353d-c351-4809-8f41-9640905d5e1e","ios":"levelo://app?vid=fbab353d-c351-4809-8f41-9640905d5e1e"},"vehicle_type_id":"4","last_reported":1749748189,"current_range_meters":17200,"station_id":"ce4bhg92rcd13ifvqf90","pricing_plan_id":"cebpf4jnsgd1na2vs0mg"},{"bike_id":"69e1a69b-4756-48eb-af3c-9de8ea852974","system_id":"levelo_inurba_marseille","lat":43.26212,"lon":5.37444,"is_reserved":false,"is_disabled":false,"rental_uris":{"android":"levelo://app?vid=69e1a69b-4756-48eb-af3c-9de8ea852974","ios":"levelo://app?vid=69e1a69b-4756-48eb-af3c-9de8ea852974"},"vehicle_type_id":"4","last_reported":1749748189,"current_range_meters":17200,"station_id":"ce4bhgp2rcd13ifvqfc0","pricing_plan_id":"cebpf4jnsgd1na2vs0mg"},{"bike_id":"4587a99f-f22e-444e-9fcf-f0a8adb85797","system_id":"levelo_inurba_marseille","lat":43.2621,"lon":5.37437,"is_reserved":false,"is_disabled":false,"rental_uris":{"android":"levelo://app?vid=4587a99f-f22e-444e-9fcf-f0a8adb85797","ios":"levelo://app?vid=4587a99f-f22e-444e-9fcf-f0a8adb85797"},"vehicle_type_id":"4","last_reported":1749748189,"current_range_meters":17200,"station_id":"ce4bhgp2rcd13ifvqfc0","pricing_plan_id":"cebpf4jnsgd1na2vs0mg"},{"bike_id":"28493cfb-ac31-4d8a-9497-8acdbe67b0e8","system_id":"levelo_inurba_marseille","lat":43.29557,"lon":5.42292,"is_reserved":false,"is_disabled":false,"rental_uris":{"android":"levelo://app?vid=28493cfb-ac31-4d8a-9497-8acdbe67b0e8","ios":"levelo://app?vid=28493cfb-ac31-4d8a-9497-8acdbe67b0e8"},"vehicle_type_id":"4","last_reported":1749748189,"current_range_meters":17200,"station_id":"ce4bhph2rcd13ifvqhdg","pricing_plan_id":"cebpf4jnsgd1na2vs0mg"},{"bike_id":"11a7710f-084d-413d-abc1-c587a947a05e","system_id":"levelo_inurba_marseille","lat":43.268139,"lon":5.390743,"is_reserved":false,"is_disabled":false,"rental_uris":{"android":"levelo://app?vid=11a7710f-084d-413d-abc1-c587a947a05e","ios":"levelo://app?vid=11a7710f-084d-413d-abc1-c587a947a05e"},"vehicle_type_id":"4","last_reported":1749748189,"current_range_meters":17600,"station_id":"","pricing_plan_id":"cebpf4jnsgd1na2vs0mg"},{"bike_id":"6facbc0d-f1b5-4dc3-86d4-5c1204834925","system_id":"levelo_inurba_marseille","lat":43.28059,"lon":5.34818,"is_reserved":false,"is_disabled":false,"rental_uris":{"android":"levelo://app?vid=6facbc0d-f1b5-4dc3-86d4-5c1204834925","ios":"levelo://app?vid=6facbc0d-f1b5-4dc3-86d4-5c1204834925"},"vehicle_type_id":"4","last_reported":1749748189,"current_range_meters":17600,"station_id":"","pricing_plan_id":"cebpf4jnsgd1na2vs0mg"},{"bike_id":"6c76769c-d22f-4c94-b3d2-29bfff44a306","system_id":"levelo_inurba_marseille","lat":43.2926,"lon":5.40899,"is_reserved":false,"is_disabled":false,"rental_uris":{"android":"levelo://app?vid=6c76769c-d22f-4c94-b3d2-29bfff44a306","ios":"levelo://app?vid=6c76769c-d22f-4c94-b3d2-29bfff44a306"},"vehicle_type_id":"4","last_reported":1749748189,"current_range_meters":17600,"station_id":"ce4bh192rcd13ifvqdc0","pricing_plan_id":"cebpf4jnsgd1na2vs0mg"},{"bike_id":"ef6259fd-c1c7-4102-aae3-db490b47b960","system_id":"levelo_inurba_marseille","lat":43.29217,"lon":5.39326,"is_reserved":false,"is_disabled":false,"rental_uris":{"android":"levelo://app?vid=ef6259fd-c1c7-4102-aae3-db490b47b960","ios":"levelo://app?vid=ef6259fd-c1c7-4102-aae3-db490b47b960"},"vehicle_type_id":"4","last_reported":1749748189,"current_range_meters":17600,"station_id":"ce4bh192rcd13ifvqdd0","pricing_plan_id":"cebpf4jnsgd1na2vs0mg"},{"bike_id":"52c422b9-ee8f-4a53-ba2d-bd9bdb6c9cb2","system_id":"levelo_inurba_marseille","lat":43.2826,"lon":5.35066,"is_reserved":false,"is_disabled":false,"rental_uris":{"android":"levelo://app?vid=52c422b9-ee8f-4a53-ba2d-bd9bdb6c9cb2","ios":"levelo://app?vid=52c422b9-ee8f-4a53-ba2d-bd9bdb6c9cb2"},"vehicle_type_id":"4","last_reported":1749748189,"current_range_meters":17600,"station_id":"ce4bhbp2rcd13ifvqerg","pricing_plan_id":"cebpf4jnsgd1na2vs0mg"},{"bike_id":"eb033ce6-a585-4e6e-b61e-8ddb3c04724d","system_id":"levelo_inurba_marseille","lat":43.286143,"lon":5.350963,"is_reserved":false,"is_disabled":false,"rental_uris":{"android":"levelo://app?vid=eb033ce6-a585-4e6e-b61e-8ddb3c04724d","ios":"levelo://app?vid=eb033ce6-a585-4e6e-b61e-8ddb3c04724d"},"vehicle_type_id":"4","last_reported":1749748189,"current_range_meters":17600,"station_id":"ce4bhch2rcd13ifvqeug","pricing_plan_id":"cebpf4jnsgd1na2vs0mg"},{"bike_id":"326cc913-bdbc-48c2-9a88-414846f09512","system_id":"levelo_inurba_marseille","lat":43.32369,"lon":5.36757,"is_reserved":false,"is_disabled":false,"rental_uris":{"android":"levelo://app?vid=326cc913-bdbc-48c2-9a88-414846f09512","ios":"levelo://app?vid=326cc913-bdbc-48c2-9a88-414846f09512"},"vehicle_type_id":"4","last_reported":1749748189,"current_range_meters":17600,"station_id":"ce4bhsh2rcd13ifvqi2g","pricing_plan_id":"cebpf4jnsgd1na2vs0mg"},{"bike_id":"075c05ec-b3c9-44c3-b57f-1083abf2ca61","system_id":"levelo_inurba_marseille","lat":43.27221,"lon":5.42587,"is_reserved":false,"is_disabled":false,"rental_uris":{"android":"levelo://app?vid=075c05ec-b3c9-44c3-b57f-1083abf2ca61","ios":"levelo://app?vid=075c05ec-b3c9-44c3-b57f-1083abf2ca61"},"vehicle_type_id":"4","last_reported":1749748189,"current_range_meters":18000,"station_id":"","pricing_plan_id":"cebpf4jnsgd1na2vs0mg"},{"bike_id":"e8639d85-2d2a-429d-bcfe-f3a304f2fccb","system_id":"levelo_inurba_marseille","lat":43.33747,"lon":5.37501,"is_reserved":false,"is_disabled":false,"rental_uris":{"android":"levelo://app?vid=e8639d85-2d2a-429d-bcfe-f3a304f2fccb","ios":"levelo://app?vid=e8639d85-2d2a-429d-bcfe-f3a304f2fccb"},"vehicle_type_id":"4","last_reported":1749748189,"current_range_meters":18000,"station_id":"","pricing_plan_id":"cebpf4jnsgd1na2vs0mg"},{"bike_id":"b59c32c2-482a-42c6-964a-d8f789bdc20d","system_id":"levelo_inurba_marseille","lat":43.29814,"lon":5.40406,"is_reserved":false,"is_disabled":false,"rental_uris":{"android":"levelo://app?vid=b59c32c2-482a-42c6-964a-d8f789bdc20d","ios":"levelo://app?vid=b59c32c2-482a-42c6-964a-d8f789bdc20d"},"vehicle_type_id":"4","last_reported":1749748189,"current_range_meters":18000,"station_id":"ce4bh112rcd13ifvqd90","pricing_plan_id":"cebpf4jnsgd1na2vs0mg"},{"bike_id":"c0cf52a6-a58f-4f9f-b648-5a6bd76385a1","system_id":"levelo_inurba_marseille","lat":43.29037,"lon":5.37568,"is_reserved":false,"is_disabled":false,"rental_uris":{"android":"levelo://app?vid=c0cf52a6-a58f-4f9f-b648-5a6bd76385a1","ios":"levelo://app?vid=c0cf52a6-a58f-4f9f-b648-5a6bd76385a1"},"vehicle_type_id":"4","last_reported":1749748189,"current_range_meters":18000,"station_id":"ce4bh692rcd13ifvqe90","pricing_plan_id":"cebpf4jnsgd1na2vs0mg"},{"bike_id":"cfe18185-7470-44c3-b999-38348e720db5","system_id":"levelo_inurba_marseille","lat":43.28427,"lon":5.34991,"is_reserved":false,"is_disabled":false,"rental_uris":{"android":"levelo://app?vid=cfe18185-7470-44c3-b999-38348e720db5","ios":"levelo://app?vid=cfe18185-7470-44c3-b999-38348e720db5"},"vehicle_type_id":"4","last_reported":1749748189,"current_range_meters":18000,"station_id":"ce4bhbh2rcd13ifvqepg","pricing_plan_id":"cebpf4jnsgd1na2vs0mg"},{"bike_id":"9a9d7caa-4194-4cc0-bd0f-0840187f6de3","system_id":"levelo_inurba_marseille","lat":43.28613,"lon":5.35108,"is_reserved":false,"is_disabled":false,"rental_uris":{"android":"levelo://app?vid=9a9d7caa-4194-4cc0-bd0f-0840187f6de3","ios":"levelo://app?vid=9a9d7caa-4194-4cc0-bd0f-0840187f6de3"},"vehicle_type_id":"4","last_reported":1749748189,"current_range_meters":18000,"station_id":"ce4bhch2rcd13ifvqeug","pricing_plan_id":"cebpf4jnsgd1na2vs0mg"},{"bike_id":"78b939cc-40ea-454e-8d3e-ca974f4e939c","system_id":"levelo_inurba_marseille","lat":43.28157,"lon":5.42639,"is_reserved":false,"is_disabled":false,"rental_uris":{"android":"levelo://app?vid=78b939cc-40ea-454e-8d3e-ca974f4e939c","ios":"levelo://app?vid=78b939cc-40ea-454e-8d3e-ca974f4e939c"},"vehicle_type_id":"4","last_reported":1749748189,"current_range_meters":18000,"station_id":"ce4bhnh2rcd13ifvqgug","pricing_plan_id":"cebpf4jnsgd1na2vs0mg"},{"bike_id":"4249d8a7-7c90-42a5-af5c-9415ad38fe72","system_id":"levelo_inurba_marseille","lat":43.22925,"lon":5.35392,"is_reserved":false,"is_disabled":false,"rental_uris":{"android":"levelo://app?vid=4249d8a7-7c90-42a5-af5c-9415ad38fe72","ios":"levelo://app?vid=4249d8a7-7c90-42a5-af5c-9415ad38fe72"},"vehicle_type_id":"4","last_reported":1749748189,"current_range_meters":18000,"station_id":"cpo3532slgdg3j2ikp40","pricing_plan_id":"cebpf4jnsgd1na2vs0mg"},{"bike_id":"713f94e3-c67e-4836-bdd5-cfe7bb1b1281","system_id":"levelo_inurba_marseille","lat":43.22509,"lon":5.34786,"is_reserved":false,"is_disabled":false,"rental_uris":{"android":"levelo://app?vid=713f94e3-c67e-4836-bdd5-cfe7bb1b1281","ios":"levelo://app?vid=713f94e3-c67e-4836-bdd5-cfe7bb1b1281"},"vehicle_type_id":"4","last_reported":1749748189,"current_range_meters":18800,"station_id":"","pricing_plan_id":"cebpf4jnsgd1na2vs0mg"},{"bike_id":"19a098e9-ffdf-4b67-b1ff-1d37a8fb59b8","system_id":"levelo_inurba_marseille","lat":43.29036,"lon":5.35933,"is_reserved":false,"is_disabled":false,"rental_uris":{"android":"levelo://app?vid=19a098e9-ffdf-4b67-b1ff-1d37a8fb59b8","ios":"levelo://app?vid=19a098e9-ffdf-4b67-b1ff-1d37a8fb59b8"},"vehicle_type_id":"4","last_reported":1749748189,"current_range_meters":18800,"station_id":"ce4bha92rcd13ifvqeg0","pricing_plan_id":"cebpf4jnsgd1na2vs0mg"},{"bike_id":"cc424f6d-19aa-4ebc-a4cf-45db676a764a","system_id":"levelo_inurba_marseille","lat":43.24802,"lon":5.37456,"is_reserved":false,"is_disabled":false,"rental_uris":{"android":"levelo://app?vid=cc424f6d-19aa-4ebc-a4cf-45db676a764a","ios":"levelo://app?vid=cc424f6d-19aa-4ebc-a4cf-45db676a764a"},"vehicle_type_id":"4","last_reported":1749748189,"current_range_meters":18800,"station_id":"ce4bhgh2rcd13ifvqfb0","pricing_plan_id":"cebpf4jnsgd1na2vs0mg"},{"bike_id":"0d1c9a4d-61f8-4705-99cc-f4205b6528f3","system_id":"levelo_inurba_marseille","lat":43.26803,"lon":5.39407,"is_reserved":false,"is_disabled":false,"rental_uris":{"android":"levelo://app?vid=0d1c9a4d-61f8-4705-99cc-f4205b6528f3","ios":"levelo://app?vid=0d1c9a4d-61f8-4705-99cc-f4205b6528f3"},"vehicle_type_id":"4","last_reported":1749748189,"current_range_meters":18800,"station_id":"ce4bhh12rcd13ifvqfg0","pricing_plan_id":"cebpf4jnsgd1na2vs0mg"},{"bike_id":"86dc398f-680e-48f1-97b1-49cbd1ed69a4","system_id":"levelo_inurba_marseille","lat":43.308,"lon":5.43531,"is_reserved":false,"is_disabled":false,"rental_uris":{"android":"levelo://app?vid=86dc398f-680e-48f1-97b1-49cbd1ed69a4","ios":"levelo://app?vid=86dc398f-680e-48f1-97b1-49cbd1ed69a4"},"vehicle_type_id":"4","last_reported":1749748189,"current_range_meters":18800,"station_id":"ce4bhph2rcd13ifvqheg","pricing_plan_id":"cebpf4jnsgd1na2vs0mg"},{"bike_id":"3b2851dc-cdc3-4c74-bb7a-6b50ea5674bc","system_id":"levelo_inurba_marseille","lat":43.31141,"lon":5.3803,"is_reserved":false,"is_disabled":false,"rental_uris":{"android":"levelo://app?vid=3b2851dc-cdc3-4c74-bb7a-6b50ea5674bc","ios":"levelo://app?vid=3b2851dc-cdc3-4c74-bb7a-6b50ea5674bc"},"vehicle_type_id":"4","last_reported":1749748189,"current_range_meters":19200,"station_id":"","pricing_plan_id":"cebpf4jnsgd1na2vs0mg"},{"bike_id":"5591c139-ba5a-4055-9b55-55fc37fc9777","system_id":"levelo_inurba_marseille","lat":43.28669,"lon":5.36354,"is_reserved":false,"is_disabled":false,"rental_uris":{"android":"levelo://app?vid=5591c139-ba5a-4055-9b55-55fc37fc9777","ios":"levelo://app?vid=5591c139-ba5a-4055-9b55-55fc37fc9777"},"vehicle_type_id":"4","last_reported":1749748189,"current_range_meters":19200,"station_id":"ce4bhah2rcd13ifvqej0","pricing_plan_id":"cebpf4jnsgd1na2vs0mg"},{"bike_id":"f4fbc027-fab9-44de-8ec6-ee76867b4c82","system_id":"levelo_inurba_marseille","lat":43.28934,"lon":5.36412,"is_reserved":false,"is_disabled":false,"rental_uris":{"android":"levelo://app?vid=f4fbc027-fab9-44de-8ec6-ee76867b4c82","ios":"levelo://app?vid=f4fbc027-fab9-44de-8ec6-ee76867b4c82"},"vehicle_type_id":"4","last_reported":1749748189,"current_range_meters":19200,"station_id":"ce4bhc92rcd13ifvqetg","pricing_plan_id":"cebpf4jnsgd1na2vs0mg"},{"bike_id":"00d4be56-3c1c-4500-aa98-808ce6c2ad63","system_id":"levelo_inurba_marseille","lat":43.27214,"lon":5.39179,"is_reserved":false,"is_disabled":false,"rental_uris":{"android":"levelo://app?vid=00d4be56-3c1c-4500-aa98-808ce6c2ad63","ios":"levelo://app?vid=00d4be56-3c1c-4500-aa98-808ce6c2ad63"},"vehicle_type_id":"4","last_reported":1749748189,"current_range_meters":19200,"station_id":"ce4bhhp2rcd13ifvqfm0","pricing_plan_id":"cebpf4jnsgd1na2vs0mg"},{"bike_id":"ebde0757-a94a-4915-8c86-60ad7ee049c4","system_id":"levelo_inurba_marseille","lat":43.23208,"lon":5.35551,"is_reserved":false,"is_disabled":false,"rental_uris":{"android":"levelo://app?vid=ebde0757-a94a-4915-8c86-60ad7ee049c4","ios":"levelo://app?vid=ebde0757-a94a-4915-8c86-60ad7ee049c4"},"vehicle_type_id":"4","last_reported":1749748189,"current_range_meters":19200,"station_id":"ce4bhu92rcd13ifvqi70","pricing_plan_id":"cebpf4jnsgd1na2vs0mg"},{"bike_id":"2d9eb491-ef60-4c87-8fa5-c0a977f848da","system_id":"levelo_inurba_marseille","lat":43.211929,"lon":5.350717,"is_reserved":false,"is_disabled":false,"rental_uris":{"android":"levelo://app?vid=2d9eb491-ef60-4c87-8fa5-c0a977f848da","ios":"levelo://app?vid=2d9eb491-ef60-4c87-8fa5-c0a977f848da"},"vehicle_type_id":"4","last_reported":1749748189,"current_range_meters":19200,"station_id":"st_cvj6sg6p6f1abm77japg","pricing_plan_id":"cebpf4jnsgd1na2vs0mg"},{"bike_id":"49bfba39-bd98-4313-a8d9-75703e7caacf","system_id":"levelo_inurba_marseille","lat":43.27374,"lon":5.36262,"is_reserved":false,"is_disabled":false,"rental_uris":{"android":"levelo://app?vid=49bfba39-bd98-4313-a8d9-75703e7caacf","ios":"levelo://app?vid=49bfba39-bd98-4313-a8d9-75703e7caacf"},"vehicle_type_id":"4","last_reported":1749748189,"current_range_meters":19600,"station_id":"ce4bhbh2rcd13ifvqeo0","pricing_plan_id":"cebpf4jnsgd1na2vs0mg"},{"bike_id":"35de1d40-1247-4744-afc7-6abf6227deee","system_id":"levelo_inurba_marseille","lat":43.28404,"lon":5.34987,"is_reserved":false,"is_disabled":false,"rental_uris":{"android":"levelo://app?vid=35de1d40-1247-4744-afc7-6abf6227deee","ios":"levelo://app?vid=35de1d40-1247-4744-afc7-6abf6227deee"},"vehicle_type_id":"4","last_reported":1749748189,"current_range_meters":19600,"station_id":"ce4bhbh2rcd13ifvqepg","pricing_plan_id":"cebpf4jnsgd1na2vs0mg"},{"bike_id":"ce252025-c1d2-470c-8a94-5d5fb9b4af26","system_id":"levelo_inurba_marseille","lat":43.28405,"lon":5.34981,"is_reserved":false,"is_disabled":false,"rental_uris":{"android":"levelo://app?vid=ce252025-c1d2-470c-8a94-5d5fb9b4af26","ios":"levelo://app?vid=ce252025-c1d2-470c-8a94-5d5fb9b4af26"},"vehicle_type_id":"4","last_reported":1749748189,"current_range_meters":19600,"station_id":"ce4bhbh2rcd13ifvqepg","pricing_plan_id":"cebpf4jnsgd1na2vs0mg"},{"bike_id":"78e5a94d-d744-4e01-a08d-729673117d90","system_id":"levelo_inurba_marseille","lat":43.24809,"lon":5.37447,"is_reserved":false,"is_disabled":false,"rental_uris":{"android":"levelo://app?vid=78e5a94d-d744-4e01-a08d-729673117d90","ios":"levelo://app?vid=78e5a94d-d744-4e01-a08d-729673117d90"},