{"last_updated":1770712701,"ttl":60,"version":"2.2","data":{"bikes":[{"bike_id":"0e75ad97-145b-4882-bf17-b1f9a4579c82","system_id":"levelo_inurba_marseille","lat":43.30146,"lon":5.38777,"is_reserved":false,"is_disabled":false,"rental_uris":{"android":"levelo://app?vid=0e75ad97-145b-4882-bf17-b1f9a4579c82","ios":"levelo://app?vid=0e75ad97-145b-4882-bf17-b1f9a4579c82"},"vehicle_type_id":"4","last_reported":1770712702,"current_range_meters":2800,"station_id":"ce4bghh2rcd13ifvqb60","pricing_plan_id":"cebpf4jnsgd1na2vs0mg"},{"bike_id":"9a623fd0-36c3-4d8d-8f38-4c8b3c2a3131","system_id":"levelo_inurba_marseille","lat":43.28279,"lon":5.35074,"is_reserved":false,"is_disabled":false,"rental_uris":{"android":"levelo://app?vid=9a623fd0-36c3-4d8d-8f38-4c8b3c2a3131","ios":"levelo://app?vid=9a623fd0-36c3-4d8d-8f38-4c8b3c2a3131"},"vehicle_type_id":"4","last_reported":1770712702,"current_range_meters":2800,"station_id":"ce4bhbp2rcd13ifvqerg","pricing_plan_id":"cebpf4jnsgd1na2vs0mg"},{"bike_id":"81f5a16d-a2f0-4cd2-a5c9-53e69bf4cd2c","system_id":"levelo_inurba_marseille","lat":43.29541,"lon":5.42256,"is_reserved":false,"is_disabled":false,"rental_uris":{"android":"levelo://app?vid=81f5a16d-a2f0-4cd2-a5c9-53e69bf4cd2c","ios":"levelo://app?vid=81f5a16d-a2f0-4cd2-a5c9-53e69bf4cd2c"},"vehicle_type_id":"4","last_reported":1770712702,"current_range_meters":2800,"station_id":"ce4bhph2rcd13ifvqhdg","pricing_plan_id":"cebpf4jnsgd1na2vs0mg"},{"bike_id":"707dd2c5-36da-401a-beac-91d3b45ec1bb","system_id":"levelo_inurba_marseille","lat":43.24685,"lon":5.38154,"is_reserved":false,"is_disabled":false,"rental_uris":{"android":"levelo://app?vid=707dd2c5-36da-401a-beac-91d3b45ec1bb","ios":"levelo://app?vid=707dd2c5-36da-401a-beac-91d3b45ec1bb"},"vehicle_type_id":"4","last_reported":1770712702,"current_range_meters":2800,"station_id":"ce4bhih2rcd13ifvqfr0","pricing_plan_id":"cebpf4jnsgd1na2vs0mg"},{"bike_id":"8726daee-67af-4bb6-984d-1e2017967960","system_id":"levelo_inurba_marseille","lat":43.26202,"lon":5.3792,"is_reserved":false,"is_disabled":false,"rental_uris":{"android":"levelo://app?vid=8726daee-67af-4bb6-984d-1e2017967960","ios":"levelo://app?vid=8726daee-67af-4bb6-984d-1e2017967960"},"vehicle_type_id":"4","last_reported":1770712702,"current_range_meters":2800,"station_id":"ce4bhjp2rcd13ifvqg90","pricing_plan_id":"cebpf4jnsgd1na2vs0mg"},{"bike_id":"b88113b2-d7f9-443a-929d-045e450942e9","system_id":"levelo_inurba_marseille","lat":43.29037,"lon":5.39977,"is_reserved":false,"is_disabled":false,"rental_uris":{"android":"levelo://app?vid=b88113b2-d7f9-443a-929d-045e450942e9","ios":"levelo://app?vid=b88113b2-d7f9-443a-929d-045e450942e9"},"vehicle_type_id":"4","last_reported":1770712702,"current_range_meters":2800,"station_id":"ce4bh392rcd13ifvqdm0","pricing_plan_id":"cebpf4jnsgd1na2vs0mg"},{"bike_id":"05280667-4306-4a3c-89fe-64debd7d10a7","system_id":"levelo_inurba_marseille","lat":43.25003,"lon":5.38928,"is_reserved":false,"is_disabled":false,"rental_uris":{"android":"levelo://app?vid=05280667-4306-4a3c-89fe-64debd7d10a7","ios":"levelo://app?vid=05280667-4306-4a3c-89fe-64debd7d10a7"},"vehicle_type_id":"4","last_reported":1770712702,"current_range_meters":2800,"station_id":"ce4bhgp2rcd13ifvqfd0","pricing_plan_id":"cebpf4jnsgd1na2vs0mg"},{"bike_id":"fa858abf-54bc-43f6-8d6e-edbb115bda1f","system_id":"levelo_inurba_marseille","lat":43.27896,"lon":5.37996,"is_reserved":false,"is_disabled":false,"rental_uris":{"android":"levelo://app?vid=fa858abf-54bc-43f6-8d6e-edbb115bda1f","ios":"levelo://app?vid=fa858abf-54bc-43f6-8d6e-edbb115bda1f"},"vehicle_type_id":"4","last_reported":1770712702,"current_range_meters":2800,"station_id":"ce4bhf92rcd13ifvqf50","pricing_plan_id":"cebpf4jnsgd1na2vs0mg"},{"bike_id":"c0d37677-e009-4056-b6f6-48ed1b725be4","system_id":"levelo_inurba_marseille","lat":43.27298,"lon":5.39088,"is_reserved":false,"is_disabled":true,"rental_uris":{"android":"levelo://app?vid=c0d37677-e009-4056-b6f6-48ed1b725be4","ios":"levelo://app?vid=c0d37677-e009-4056-b6f6-48ed1b725be4"},"vehicle_type_id":"4","last_reported":1770712702,"current_range_meters":3200,"station_id":"ce4bhgp2rcd13ifvqfe0","pricing_plan_id":"cebpf4jnsgd1na2vs0mg"},{"bike_id":"70519adb-911c-4120-b6a7-3660c44ac45b","system_id":"levelo_inurba_marseille","lat":43.24721,"lon":5.39285,"is_reserved":false,"is_disabled":false,"rental_uris":{"android":"levelo://app?vid=70519adb-911c-4120-b6a7-3660c44ac45b","ios":"levelo://app?vid=70519adb-911c-4120-b6a7-3660c44ac45b"},"vehicle_type_id":"4","last_reported":1770712702,"current_range_meters":3200,"station_id":"","pricing_plan_id":"cebpf4jnsgd1na2vs0mg"},{"bike_id":"485d7f30-1b01-4e67-af51-e14e47cdf9de","system_id":"levelo_inurba_marseille","lat":43.32477,"lon":5.36562,"is_reserved":false,"is_disabled":false,"rental_uris":{"android":"levelo://app?vid=485d7f30-1b01-4e67-af51-e14e47cdf9de","ios":"levelo://app?vid=485d7f30-1b01-4e67-af51-e14e47cdf9de"},"vehicle_type_id":"4","last_reported":1770712702,"current_range_meters":3200,"station_id":"ce4bhs12rcd13ifvqhvg","pricing_plan_id":"cebpf4jnsgd1na2vs0mg"},{"bike_id":"da676a87-9c6e-4ea8-9c26-32575f8257fe","system_id":"levelo_inurba_marseille","lat":43.29972,"lon":5.37485,"is_reserved":false,"is_disabled":false,"rental_uris":{"android":"levelo://app?vid=da676a87-9c6e-4ea8-9c26-32575f8257fe","ios":"levelo://app?vid=da676a87-9c6e-4ea8-9c26-32575f8257fe"},"vehicle_type_id":"4","last_reported":1770712702,"current_range_meters":3200,"station_id":"ce4bgjh2rcd13ifvqbg0","pricing_plan_id":"cebpf4jnsgd1na2vs0mg"},{"bike_id":"cb35cbae-644a-46b2-b5c2-58784e770e53","system_id":"levelo_inurba_marseille","lat":43.25928,"lon":5.40919,"is_reserved":false,"is_disabled":false,"rental_uris":{"android":"levelo://app?vid=cb35cbae-644a-46b2-b5c2-58784e770e53","ios":"levelo://app?vid=cb35cbae-644a-46b2-b5c2-58784e770e53"},"vehicle_type_id":"4","last_reported":1770712702,"current_range_meters":3200,"station_id":"ce4bhm92rcd13ifvqglg","pricing_plan_id":"cebpf4jnsgd1na2vs0mg"},{"bike_id":"53767430-1e5d-418a-9f66-707c051e693f","system_id":"levelo_inurba_marseille","lat":43.26802,"lon":5.40273,"is_reserved":false,"is_disabled":false,"rental_uris":{"android":"levelo://app?vid=53767430-1e5d-418a-9f66-707c051e693f","ios":"levelo://app?vid=53767430-1e5d-418a-9f66-707c051e693f"},"vehicle_type_id":"4","last_reported":1770712702,"current_range_meters":3200,"station_id":"ce501612rcd8frsf0b60","pricing_plan_id":"cebpf4jnsgd1na2vs0mg"},{"bike_id":"81089c31-0f23-400c-91cf-65461521d37b","system_id":"levelo_inurba_marseille","lat":43.25868,"lon":5.39588,"is_reserved":false,"is_disabled":false,"rental_uris":{"android":"levelo://app?vid=81089c31-0f23-400c-91cf-65461521d37b","ios":"levelo://app?vid=81089c31-0f23-400c-91cf-65461521d37b"},"vehicle_type_id":"4","last_reported":1770712702,"current_range_meters":3600,"station_id":"","pricing_plan_id":"cebpf4jnsgd1na2vs0mg"},{"bike_id":"cb2f13ce-034b-441a-a578-3d844ed9c8aa","system_id":"levelo_inurba_marseille","lat":43.25928,"lon":5.40925,"is_reserved":false,"is_disabled":false,"rental_uris":{"android":"levelo://app?vid=cb2f13ce-034b-441a-a578-3d844ed9c8aa","ios":"levelo://app?vid=cb2f13ce-034b-441a-a578-3d844ed9c8aa"},"vehicle_type_id":"4","last_reported":1770712702,"current_range_meters":3600,"station_id":"ce4bhm92rcd13ifvqglg","pricing_plan_id":"cebpf4jnsgd1na2vs0mg"},{"bike_id":"7405d636-e47f-4f2f-9178-938f60a998bd","system_id":"levelo_inurba_marseille","lat":43.30506,"lon":5.36728,"is_reserved":false,"is_disabled":false,"rental_uris":{"android":"levelo://app?vid=7405d636-e47f-4f2f-9178-938f60a998bd","ios":"levelo://app?vid=7405d636-e47f-4f2f-9178-938f60a998bd"},"vehicle_type_id":"4","last_reported":1770712702,"current_range_meters":3600,"station_id":"ce4bgrp2rcd13ifvqc9g","pricing_plan_id":"cebpf4jnsgd1na2vs0mg"},{"bike_id":"083d1d62-b1b0-4180-943d-f5177a631880","system_id":"levelo_inurba_marseille","lat":43.29044,"lon":5.39969,"is_reserved":false,"is_disabled":false,"rental_uris":{"android":"levelo://app?vid=083d1d62-b1b0-4180-943d-f5177a631880","ios":"levelo://app?vid=083d1d62-b1b0-4180-943d-f5177a631880"},"vehicle_type_id":"4","last_reported":1770712702,"current_range_meters":3600,"station_id":"ce4bh392rcd13ifvqdm0","pricing_plan_id":"cebpf4jnsgd1na2vs0mg"},{"bike_id":"ee56ad6c-b436-465d-9fa8-dc1d97243edc","system_id":"levelo_inurba_marseille","lat":43.28095,"lon":5.37833,"is_reserved":false,"is_disabled":false,"rental_uris":{"android":"levelo://app?vid=ee56ad6c-b436-465d-9fa8-dc1d97243edc","ios":"levelo://app?vid=ee56ad6c-b436-465d-9fa8-dc1d97243edc"},"vehicle_type_id":"4","last_reported":1770712702,"current_range_meters":3600,"station_id":"ce4bha12rcd13ifvqee0","pricing_plan_id":"cebpf4jnsgd1na2vs0mg"},{"bike_id":"b31e04ad-4c37-42a4-8831-472c0d77d41a","system_id":"levelo_inurba_marseille","lat":43.29207,"lon":5.36077,"is_reserved":false,"is_disabled":false,"rental_uris":{"android":"levelo://app?vid=b31e04ad-4c37-42a4-8831-472c0d77d41a","ios":"levelo://app?vid=b31e04ad-4c37-42a4-8831-472c0d77d41a"},"vehicle_type_id":"4","last_reported":1770712702,"current_range_meters":3600,"station_id":"ce4bhbh2rcd13ifvqeqg","pricing_plan_id":"cebpf4jnsgd1na2vs0mg"},{"bike_id":"d5d0ae74-54fa-4b09-99f0-8e82e1b973d1","system_id":"levelo_inurba_marseille","lat":43.2174,"lon":5.34649,"is_reserved":false,"is_disabled":false,"rental_uris":{"android":"levelo://app?vid=d5d0ae74-54fa-4b09-99f0-8e82e1b973d1","ios":"levelo://app?vid=d5d0ae74-54fa-4b09-99f0-8e82e1b973d1"},"vehicle_type_id":"4","last_reported":1770712702,"current_range_meters":3600,"station_id":"","pricing_plan_id":"cebpf4jnsgd1na2vs0mg"},{"bike_id":"aa2bf0cd-9661-4d84-8b59-aed68b60696e","system_id":"levelo_inurba_marseille","lat":43.21742,"lon":5.34602,"is_reserved":false,"is_disabled":false,"rental_uris":{"android":"levelo://app?vid=aa2bf0cd-9661-4d84-8b59-aed68b60696e","ios":"levelo://app?vid=aa2bf0cd-9661-4d84-8b59-aed68b60696e"},"vehicle_type_id":"4","last_reported":1770712702,"current_range_meters":3600,"station_id":"st_cvj6r9ubvosntc0bgbag","pricing_plan_id":"cebpf4jnsgd1na2vs0mg"},{"bike_id":"2a41a4e7-1277-4985-ba78-22bce5859488","system_id":"levelo_inurba_marseille","lat":43.25939,"lon":5.40918,"is_reserved":false,"is_disabled":false,"rental_uris":{"android":"levelo://app?vid=2a41a4e7-1277-4985-ba78-22bce5859488","ios":"levelo://app?vid=2a41a4e7-1277-4985-ba78-22bce5859488"},"vehicle_type_id":"4","last_reported":1770712702,"current_range_meters":3600,"station_id":"ce4bhm92rcd13ifvqglg","pricing_plan_id":"cebpf4jnsgd1na2vs0mg"},{"bike_id":"11362055-2532-43bc-accf-dec1dfa873dc","system_id":"levelo_inurba_marseille","lat":43.235136,"lon":5.410949,"is_reserved":false,"is_disabled":false,"rental_uris":{"android":"levelo://app?vid=11362055-2532-43bc-accf-dec1dfa873dc","ios":"levelo://app?vid=11362055-2532-43bc-accf-dec1dfa873dc"},"vehicle_type_id":"4","last_reported":1770712702,"current_range_meters":4000,"station_id":"","pricing_plan_id":"cebpf4jnsgd1na2vs0mg"},{"bike_id":"6051b31d-701e-49ad-8b8c-d5a67a21069c","system_id":"levelo_inurba_marseille","lat":43.279936,"lon":5.400114,"is_reserved":false,"is_disabled":false,"rental_uris":{"android":"levelo://app?vid=6051b31d-701e-49ad-8b8c-d5a67a21069c","ios":"levelo://app?vid=6051b31d-701e-49ad-8b8c-d5a67a21069c"},"vehicle_type_id":"4","last_reported":1770712702,"current_range_meters":4000,"station_id":"ce4bho92rcd13ifvqh4g","pricing_plan_id":"cebpf4jnsgd1na2vs0mg"},{"bike_id":"6ca2e118-7bd6-4ebc-b16c-273b054d8bfd","system_id":"levelo_inurba_marseille","lat":43.298767,"lon":5.389117,"is_reserved":false,"is_disabled":false,"rental_uris":{"android":"levelo://app?vid=6ca2e118-7bd6-4ebc-b16c-273b054d8bfd","ios":"levelo://app?vid=6ca2e118-7bd6-4ebc-b16c-273b054d8bfd"},"vehicle_type_id":"4","last_reported":1770712702,"current_range_meters":4000,"station_id":"ce4bh392rcd13ifvqdl0","pricing_plan_id":"cebpf4jnsgd1na2vs0mg"},{"bike_id":"036828b9-ac26-4bce-bf0f-52c0b013d993","system_id":"levelo_inurba_marseille","lat":43.265656,"lon":5.39044,"is_reserved":false,"is_disabled":false,"rental_uris":{"android":"levelo://app?vid=036828b9-ac26-4bce-bf0f-52c0b013d993","ios":"levelo://app?vid=036828b9-ac26-4bce-bf0f-52c0b013d993"},"vehicle_type_id":"4","last_reported":1770712702,"current_range_meters":4000,"station_id":"ce4bhe12rcd13ifvqf30","pricing_plan_id":"cebpf4jnsgd1na2vs0mg"},{"bike_id":"7b23c59a-e91f-4ebf-b287-e184212eaf2b","system_id":"levelo_inurba_marseille","lat":43.24636,"lon":5.38906,"is_reserved":false,"is_disabled":false,"rental_uris":{"android":"levelo://app?vid=7b23c59a-e91f-4ebf-b287-e184212eaf2b","ios":"levelo://app?vid=7b23c59a-e91f-4ebf-b287-e184212eaf2b"},"vehicle_type_id":"4","last_reported":1770712702,"current_range_meters":4000,"station_id":"ce4bhg12rcd13ifvqf60","pricing_plan_id":"cebpf4jnsgd1na2vs0mg"},{"bike_id":"b976da57-90fa-4b3b-98df-001885f7b440","system_id":"levelo_inurba_marseille","lat":43.31059,"lon":5.38356,"is_reserved":false,"is_disabled":false,"rental_uris":{"android":"levelo://app?vid=b976da57-90fa-4b3b-98df-001885f7b440","ios":"levelo://app?vid=b976da57-90fa-4b3b-98df-001885f7b440"},"vehicle_type_id":"4","last_reported":1770712702,"current_range_meters":4000,"station_id":"ce4bgv92rcd13ifvqcr0","pricing_plan_id":"cebpf4jnsgd1na2vs0mg"},{"bike_id":"286b6ff3-cad3-40cc-8457-9f3961da585f","system_id":"levelo_inurba_marseille","lat":43.26027,"lon":5.375657,"is_reserved":false,"is_disabled":false,"rental_uris":{"android":"levelo://app?vid=286b6ff3-cad3-40cc-8457-9f3961da585f","ios":"levelo://app?vid=286b6ff3-cad3-40cc-8457-9f3961da585f"},"vehicle_type_id":"4","last_reported":1770712702,"current_range_meters":4000,"station_id":"ce4bhgh2rcd13ifvqfa0","pricing_plan_id":"cebpf4jnsgd1na2vs0mg"},{"bike_id":"32224727-c6e8-4746-b07b-7875929388c0","system_id":"levelo_inurba_marseille","lat":43.31355,"lon":5.36735,"is_reserved":false,"is_disabled":false,"rental_uris":{"android":"levelo://app?vid=32224727-c6e8-4746-b07b-7875929388c0","ios":"levelo://app?vid=32224727-c6e8-4746-b07b-7875929388c0"},"vehicle_type_id":"4","last_reported":1770712702,"current_range_meters":4000,"station_id":"ce4bgr92rcd13ifvqc6g","pricing_plan_id":"cebpf4jnsgd1na2vs0mg"},{"bike_id":"c16e7033-c9b3-4957-a81e-905ce3e5d34b","system_id":"levelo_inurba_marseille","lat":43.3031,"lon":5.39198,"is_reserved":false,"is_disabled":false,"rental_uris":{"android":"levelo://app?vid=c16e7033-c9b3-4957-a81e-905ce3e5d34b","ios":"levelo://app?vid=c16e7033-c9b3-4957-a81e-905ce3e5d34b"},"vehicle_type_id":"4","last_reported":1770712702,"current_range_meters":4000,"station_id":"ce4bgkh2rcd13ifvqbk0","pricing_plan_id":"cebpf4jnsgd1na2vs0mg"},{"bike_id":"05021b42-3a25-4787-a8aa-184ed11f1746","system_id":"levelo_inurba_marseille","lat":43.2592,"lon":5.40897,"is_reserved":false,"is_disabled":false,"rental_uris":{"android":"levelo://app?vid=05021b42-3a25-4787-a8aa-184ed11f1746","ios":"levelo://app?vid=05021b42-3a25-4787-a8aa-184ed11f1746"},"vehicle_type_id":"4","last_reported":1770712702,"current_range_meters":4000,"station_id":"ce4bhm92rcd13ifvqglg","pricing_plan_id":"cebpf4jnsgd1na2vs0mg"},{"bike_id":"d97014a8-468d-4515-bbec-d61ba18157c8","system_id":"levelo_inurba_marseille","lat":43.29272,"lon":5.4089,"is_reserved":false,"is_disabled":false,"rental_uris":{"android":"levelo://app?vid=d97014a8-468d-4515-bbec-d61ba18157c8","ios":"levelo://app?vid=d97014a8-468d-4515-bbec-d61ba18157c8"},"vehicle_type_id":"4","last_reported":1770712702,"current_range_meters":4000,"station_id":"ce4bh192rcd13ifvqdc0","pricing_plan_id":"cebpf4jnsgd1na2vs0mg"},{"bike_id":"b0437b95-ba96-479d-b093-d1fdf30e7bf6","system_id":"levelo_inurba_marseille","lat":43.31441,"lon":5.4042,"is_reserved":false,"is_disabled":false,"rental_uris":{"android":"levelo://app?vid=b0437b95-ba96-479d-b093-d1fdf30e7bf6","ios":"levelo://app?vid=b0437b95-ba96-479d-b093-d1fdf30e7bf6"},"vehicle_type_id":"4","last_reported":1770712702,"current_range_meters":4000,"station_id":"","pricing_plan_id":"cebpf4jnsgd1na2vs0mg"},{"bike_id":"631ca18a-8f45-4674-bb51-5eec2347caad","system_id":"levelo_inurba_marseille","lat":43.24661,"lon":5.38164,"is_reserved":false,"is_disabled":false,"rental_uris":{"android":"levelo://app?vid=631ca18a-8f45-4674-bb51-5eec2347caad","ios":"levelo://app?vid=631ca18a-8f45-4674-bb51-5eec2347caad"},"vehicle_type_id":"4","last_reported":1770712702,"current_range_meters":4000,"station_id":"ce4bhih2rcd13ifvqfr0","pricing_plan_id":"cebpf4jnsgd1na2vs0mg"},{"bike_id":"70ef8f75-f00c-4abd-9943-9b0ad5308aa3","system_id":"levelo_inurba_marseille","lat":43.31334,"lon":5.3672,"is_reserved":false,"is_disabled":false,"rental_uris":{"android":"levelo://app?vid=70ef8f75-f00c-4abd-9943-9b0ad5308aa3","ios":"levelo://app?vid=70ef8f75-f00c-4abd-9943-9b0ad5308aa3"},"vehicle_type_id":"4","last_reported":1770712702,"current_range_meters":4000,"station_id":"ce4bgr92rcd13ifvqc6g","pricing_plan_id":"cebpf4jnsgd1na2vs0mg"},{"bike_id":"fe2c28ca-9c6c-493a-b559-70d11721b438","system_id":"levelo_inurba_marseille","lat":43.30146,"lon":5.37423,"is_reserved":false,"is_disabled":false,"rental_uris":{"android":"levelo://app?vid=fe2c28ca-9c6c-493a-b559-70d11721b438","ios":"levelo://app?vid=fe2c28ca-9c6c-493a-b559-70d11721b438"},"vehicle_type_id":"4","last_reported":1770712702,"current_range_meters":4400,"station_id":"ce4bgs92rcd13ifvqcc0","pricing_plan_id":"cebpf4jnsgd1na2vs0mg"},{"bike_id":"7d59f1f1-2621-4853-91a8-34ee2eea3bf8","system_id":"levelo_inurba_marseille","lat":43.24393,"lon":5.37074,"is_reserved":false,"is_disabled":false,"rental_uris":{"android":"levelo://app?vid=7d59f1f1-2621-4853-91a8-34ee2eea3bf8","ios":"levelo://app?vid=7d59f1f1-2621-4853-91a8-34ee2eea3bf8"},"vehicle_type_id":"4","last_reported":1770712702,"current_range_meters":4400,"station_id":"ce4bhhh2rcd13ifvqfk0","pricing_plan_id":"cebpf4jnsgd1na2vs0mg"},{"bike_id":"4ed74a89-631e-4f3d-9ffb-104dbcec7ce5","system_id":"levelo_inurba_marseille","lat":43.27996,"lon":5.40002,"is_reserved":false,"is_disabled":false,"rental_uris":{"android":"levelo://app?vid=4ed74a89-631e-4f3d-9ffb-104dbcec7ce5","ios":"levelo://app?vid=4ed74a89-631e-4f3d-9ffb-104dbcec7ce5"},"vehicle_type_id":"4","last_reported":1770712702,"current_range_meters":4400,"station_id":"ce4bho92rcd13ifvqh4g","pricing_plan_id":"cebpf4jnsgd1na2vs0mg"},{"bike_id":"8943fefa-1cbe-4ea5-b78c-bb08dbe9891c","system_id":"levelo_inurba_marseille","lat":43.26208,"lon":5.37928,"is_reserved":false,"is_disabled":false,"rental_uris":{"android":"levelo://app?vid=8943fefa-1cbe-4ea5-b78c-bb08dbe9891c","ios":"levelo://app?vid=8943fefa-1cbe-4ea5-b78c-bb08dbe9891c"},"vehicle_type_id":"4","last_reported":1770712702,"current_range_meters":4400,"station_id":"ce4bhjp2rcd13ifvqg90","pricing_plan_id":"cebpf4jnsgd1na2vs0mg"},{"bike_id":"7e01f57b-ade8-4cc3-81c3-76e88fac1321","system_id":"levelo_inurba_marseille","lat":43.28482,"lon":5.48404,"is_reserved":false,"is_disabled":false,"rental_uris":{"android":"levelo://app?vid=7e01f57b-ade8-4cc3-81c3-76e88fac1321","ios":"levelo://app?vid=7e01f57b-ade8-4cc3-81c3-76e88fac1321"},"vehicle_type_id":"4","last_reported":1770712702,"current_range_meters":4400,"station_id":"st_d3svhcjqgbts73a3dn0g","pricing_plan_id":"cebpf4jnsgd1na2vs0mg"},{"bike_id":"777f1f50-9ccf-46db-a1bf-cfe765ca1373","system_id":"levelo_inurba_marseille","lat":43.26059,"lon":5.39394,"is_reserved":false,"is_disabled":false,"rental_uris":{"android":"levelo://app?vid=777f1f50-9ccf-46db-a1bf-cfe765ca1373","ios":"levelo://app?vid=777f1f50-9ccf-46db-a1bf-cfe765ca1373"},"vehicle_type_id":"4","last_reported":1770712702,"current_range_meters":4400,"station_id":"ce4bhh92rcd13ifvqfj0","pricing_plan_id":"cebpf4jnsgd1na2vs0mg"},{"bike_id":"b4367700-4478-44ae-a581-da36856cfae6","system_id":"levelo_inurba_marseille","lat":43.30132,"lon":5.37429,"is_reserved":false,"is_disabled":false,"rental_uris":{"android":"levelo://app?vid=b4367700-4478-44ae-a581-da36856cfae6","ios":"levelo://app?vid=b4367700-4478-44ae-a581-da36856cfae6"},"vehicle_type_id":"4","last_reported":1770712702,"current_range_meters":4400,"station_id":"ce4bgs92rcd13ifvqcc0","pricing_plan_id":"cebpf4jnsgd1na2vs0mg"},{"bike_id":"40ca09fe-7866-480e-ac60-f7b7f539bb36","system_id":"levelo_inurba_marseille","lat":43.23339,"lon":5.41288,"is_reserved":false,"is_disabled":false,"rental_uris":{"android":"levelo://app?vid=40ca09fe-7866-480e-ac60-f7b7f539bb36","ios":"levelo://app?vid=40ca09fe-7866-480e-ac60-f7b7f539bb36"},"vehicle_type_id":"4","last_reported":1770712702,"current_range_meters":4400,"station_id":"","pricing_plan_id":"cebpf4jnsgd1na2vs0mg"},{"bike_id":"c3c00751-bdcd-4e66-bdbf-2d325a1a5646","system_id":"levelo_inurba_marseille","lat":43.301384,"lon":5.374103,"is_reserved":false,"is_disabled":false,"rental_uris":{"android":"levelo://app?vid=c3c00751-bdcd-4e66-bdbf-2d325a1a5646","ios":"levelo://app?vid=c3c00751-bdcd-4e66-bdbf-2d325a1a5646"},"vehicle_type_id":"4","last_reported":1770712702,"current_range_meters":4800,"station_id":"ce4bgs92rcd13ifvqcc0","pricing_plan_id":"cebpf4jnsgd1na2vs0mg"},{"bike_id":"e044e11a-6684-4879-96be-83a884cff981","system_id":"levelo_inurba_marseille","lat":43.27209,"lon":5.39179,"is_reserved":false,"is_disabled":false,"rental_uris":{"android":"levelo://app?vid=e044e11a-6684-4879-96be-83a884cff981","ios":"levelo://app?vid=e044e11a-6684-4879-96be-83a884cff981"},"vehicle_type_id":"4","last_reported":1770712702,"current_range_meters":4800,"station_id":"ce4bhhp2rcd13ifvqfm0","pricing_plan_id":"cebpf4jnsgd1na2vs0mg"},{"bike_id":"aaacbc4f-0774-4e48-9afc-538ab4950ed9","system_id":"levelo_inurba_marseille","lat":43.313,"lon":5.36734,"is_reserved":false,"is_disabled":false,"rental_uris":{"android":"levelo://app?vid=aaacbc4f-0774-4e48-9afc-538ab4950ed9","ios":"levelo://app?vid=aaacbc4f-0774-4e48-9afc-538ab4950ed9"},"vehicle_type_id":"4","last_reported":1770712702,"current_range_meters":4800,"station_id":"ce4bgr92rcd13ifvqc6g","pricing_plan_id":"cebpf4jnsgd1na2vs0mg"},{"bike_id":"36ac8fb1-1e6b-4c04-8e8e-9441a471d5f6","system_id":"levelo_inurba_marseille","lat":43.284838,"lon":5.484038,"is_reserved":false,"is_disabled":false,"rental_uris":{"android":"levelo://app?vid=36ac8fb1-1e6b-4c04-8e8e-9441a471d5f6","ios":"levelo://app?vid=36ac8fb1-1e6b-4c04-8e8e-9441a471d5f6"},"vehicle_type_id":"4","last_reported":1770712702,"current_range_meters":4800,"station_id":"st_d3svhcjqgbts73a3dn0g","pricing_plan_id":"cebpf4jnsgd1na2vs0mg"},{"bike_id":"e8bb3f15-b7c5-47d2-b9bc-e4535782c9ef","system_id":"levelo_inurba_marseille","lat":43.25571,"lon":5.38253,"is_reserved":false,"is_disabled":false,"rental_uris":{"android":"levelo://app?vid=e8bb3f15-b7c5-47d2-b9bc-e4535782c9ef","ios":"levelo://app?vid=e8bb3f15-b7c5-47d2-b9bc-e4535782c9ef"},"vehicle_type_id":"4","last_reported":1770712702,"current_range_meters":4800,"station_id":"ce4bhih2rcd13ifvqfs0","pricing_plan_id":"cebpf4jnsgd1na2vs0mg"},{"bike_id":"0f53bab6-9ee0-4a77-bf19-358006368b9f","system_id":"levelo_inurba_marseille","lat":43.29844,"lon":5.38078,"is_reserved":false,"is_disabled":false,"rental_uris":{"android":"levelo://app?vid=0f53bab6-9ee0-4a77-bf19-358006368b9f","ios":"levelo://app?vid=0f53bab6-9ee0-4a77-bf19-358006368b9f"},"vehicle_type_id":"4","last_reported":1770712702,"current_range_meters":4800,"station_id":"","pricing_plan_id":"cebpf4jnsgd1na2vs0mg"},{"bike_id":"ad9d377e-ddb2-4cc8-be5c-fbf4ada5de5c","system_id":"levelo_inurba_marseille","lat":43.31348,"lon":5.36741,"is_reserved":false,"is_disabled":false,"rental_uris":{"android":"levelo://app?vid=ad9d377e-ddb2-4cc8-be5c-fbf4ada5de5c","ios":"levelo://app?vid=ad9d377e-ddb2-4cc8-be5c-fbf4ada5de5c"},"vehicle_type_id":"4","last_reported":1770712702,"current_range_meters":4800,"station_id":"ce4bgr92rcd13ifvqc6g","pricing_plan_id":"cebpf4jnsgd1na2vs0mg"},{"bike_id":"5e3ee106-c871-47cc-954f-d940366db5d9","system_id":"levelo_inurba_marseille","lat":43.29225,"lon":5.38457,"is_reserved":false,"is_disabled":false,"rental_uris":{"android":"levelo://app?vid=5e3ee106-c871-47cc-954f-d940366db5d9","ios":"levelo://app?vid=5e3ee106-c871-47cc-954f-d940366db5d9"},"vehicle_type_id":"4","last_reported":1770712702,"current_range_meters":4800,"station_id":"","pricing_plan_id":"cebpf4jnsgd1na2vs0mg"},{"bike_id":"6e13e3c5-3269-4fe3-a85e-c250740ae7c8","system_id":"levelo_inurba_marseille","lat":43.28525,"lon":5.44106,"is_reserved":false,"is_disabled":true,"rental_uris":{"android":"levelo://app?vid=6e13e3c5-3269-4fe3-a85e-c250740ae7c8","ios":"levelo://app?vid=6e13e3c5-3269-4fe3-a85e-c250740ae7c8"},"vehicle_type_id":"4","last_reported":1770712702,"current_range_meters":4800,"station_id":"","pricing_plan_id":"cebpf4jnsgd1na2vs0mg"},{"bike_id":"727dafb8-a417-4d4d-9853-8dae6564212f","system_id":"levelo_inurba_marseille","lat":43.292,"lon":5.39313,"is_reserved":false,"is_disabled":false,"rental_uris":{"android":"levelo://app?vid=727dafb8-a417-4d4d-9853-8dae6564212f","ios":"levelo://app?vid=727dafb8-a417-4d4d-9853-8dae6564212f"},"vehicle_type_id":"4","last_reported":1770712702,"current_range_meters":5600,"station_id":"ce4bh192rcd13ifvqdd0","pricing_plan_id":"cebpf4jnsgd1na2vs0mg"},{"bike_id":"3054056f-0087-4970-8b85-acb9b9397b32","system_id":"levelo_inurba_marseille","lat":43.28509,"lon":5.38417,"is_reserved":false,"is_disabled":false,"rental_uris":{"android":"levelo://app?vid=3054056f-0087-4970-8b85-acb9b9397b32","ios":"levelo://app?vid=3054056f-0087-4970-8b85-acb9b9397b32"},"vehicle_type_id":"4","last_reported":1770712702,"current_range_meters":5600,"station_id":"ce4bh512rcd13ifvqe3g","pricing_plan_id":"cebpf4jnsgd1na2vs0mg"},{"bike_id":"ea5b640c-f9cc-4437-aff2-20b9a17b6db1","system_id":"levelo_inurba_marseille","lat":43.25935,"lon":5.40917,"is_reserved":false,"is_disabled":false,"rental_uris":{"android":"levelo://app?vid=ea5b640c-f9cc-4437-aff2-20b9a17b6db1","ios":"levelo://app?vid=ea5b640c-f9cc-4437-aff2-20b9a17b6db1"},"vehicle_type_id":"4","last_reported":1770712702,"current_range_meters":5600,"station_id":"ce4bhm92rcd13ifvqglg","pricing_plan_id":"cebpf4jnsgd1na2vs0mg"},{"bike_id":"6ee11a7a-bc33-49df-9cb2-56016579548a","system_id":"levelo_inurba_marseille","lat":43.32539,"lon":5.41459,"is_reserved":false,"is_disabled":false,"rental_uris":{"android":"levelo://app?vid=6ee11a7a-bc33-49df-9cb2-56016579548a","ios":"levelo://app?vid=6ee11a7a-bc33-49df-9cb2-56016579548a"},"vehicle_type_id":"4","last_reported":1770712702,"current_range_meters":5600,"station_id":"ce4bhq12rcd13ifvqhhg","pricing_plan_id":"cebpf4jnsgd1na2vs0mg"},{"bike_id":"0d435044-39b2-4402-857a-610b31675306","system_id":"levelo_inurba_marseille","lat":43.31073,"lon":5.37469,"is_reserved":false,"is_disabled":false,"rental_uris":{"android":"levelo://app?vid=0d435044-39b2-4402-857a-610b31675306","ios":"levelo://app?vid=0d435044-39b2-4402-857a-610b31675306"},"vehicle_type_id":"4","last_reported":1770712702,"current_range_meters":5600,"station_id":"","pricing_plan_id":"cebpf4jnsgd1na2vs0mg"},{"bike_id":"8d65ea59-159e-4e8e-8acb-244f43059bc9","system_id":"levelo_inurba_marseille","lat":43.24167,"lon":5.36445,"is_reserved":false,"is_disabled":false,"rental_uris":{"android":"levelo://app?vid=8d65ea59-159e-4e8e-8acb-244f43059bc9","ios":"levelo://app?vid=8d65ea59-159e-4e8e-8acb-244f43059bc9"},"vehicle_type_id":"4","last_reported":1770712702,"current_range_meters":5600,"station_id":"cpo36qri1sfpv3e86is0","pricing_plan_id":"cebpf4jnsgd1na2vs0mg"},{"bike_id":"1fa76a45-f289-437d-94cc-e8c22daeef5f","system_id":"levelo_inurba_marseille","lat":43.28871,"lon":5.42514,"is_reserved":false,"is_disabled":false,"rental_uris":{"android":"levelo://app?vid=1fa76a45-f289-437d-94cc-e8c22daeef5f","ios":"levelo://app?vid=1fa76a45-f289-437d-94cc-e8c22daeef5f"},"vehicle_type_id":"4","last_reported":1770712702,"current_range_meters":5600,"station_id":"st_d3b462108ojc7389ooeg","pricing_plan_id":"cebpf4jnsgd1na2vs0mg"},{"bike_id":"ffcfb0a6-be0d-4d3d-b9ec-3a4698a83e7b","system_id":"levelo_inurba_marseille","lat":43.259426,"lon":5.409005,"is_reserved":false,"is_disabled":false,"rental_uris":{"android":"levelo://app?vid=ffcfb0a6-be0d-4d3d-b9ec-3a4698a83e7b","ios":"levelo://app?vid=ffcfb0a6-be0d-4d3d-b9ec-3a4698a83e7b"},"vehicle_type_id":"4","last_reported":1770712702,"current_range_meters":5600,"station_id":"ce4bhm92rcd13ifvqglg","pricing_plan_id":"cebpf4jnsgd1na2vs0mg"},{"bike_id":"c0b6c3eb-4055-48c5-be4e-2f3633e2e95f","system_id":"levelo_inurba_marseille","lat":43.2261,"lon":5.41562,"is_reserved":false,"is_disabled":false,"rental_uris":{"android":"levelo://app?vid=c0b6c3eb-4055-48c5-be4e-2f3633e2e95f","ios":"levelo://app?vid=c0b6c3eb-4055-48c5-be4e-2f3633e2e95f"},"vehicle_type_id":"4","last_reported":1770712702,"current_range_meters":5600,"station_id":"","pricing_plan_id":"cebpf4jnsgd1na2vs0mg"},{"bike_id":"860fb966-7e63-4d5e-971d-abd68ce2f7a8","system_id":"levelo_inurba_marseille","lat":43.26776,"lon":5.39426,"is_reserved":false,"is_disabled":false,"rental_uris":{"android":"levelo://app?vid=860fb966-7e63-4d5e-971d-abd68ce2f7a8","ios":"levelo://app?vid=860fb966-7e63-4d5e-971d-abd68ce2f7a8"},"vehicle_type_id":"4","last_reported":1770712702,"current_range_meters":5600,"station_id":"ce4bhh12rcd13ifvqfg0","pricing_plan_id":"cebpf4jnsgd1na2vs0mg"},{"bike_id":"6316a440-6079-4cd7-8710-8e12c6c0a2b7","system_id":"levelo_inurba_marseille","lat":43.2991,"lon":5.43666,"is_reserved":false,"is_disabled":false,"rental_uris":{"android":"levelo://app?vid=6316a440-6079-4cd7-8710-8e12c6c0a2b7","ios":"levelo://app?vid=6316a440-6079-4cd7-8710-8e12c6c0a2b7"},"vehicle_type_id":"4","last_reported":1770712702,"current_range_meters":5600,"station_id":"ce4bhpp2rcd13ifvqhfg","pricing_plan_id":"cebpf4jnsgd1na2vs0mg"},{"bike_id":"b695daad-9e05-4143-b99c-0aa1fa9fb783","system_id":"levelo_inurba_marseille","lat":43.31054,"lon":5.37186,"is_reserved":false,"is_disabled":false,"rental_uris":{"android":"levelo://app?vid=b695daad-9e05-4143-b99c-0aa1fa9fb783","ios":"levelo://app?vid=b695daad-9e05-4143-b99c-0aa1fa9fb783"},"vehicle_type_id":"4","last_reported":1770712702,"current_range_meters":5600,"station_id":"st_d4kl2rp97mjs73e7tdfg","pricing_plan_id":"cebpf4jnsgd1na2vs0mg"},{"bike_id":"c47f9d06-e2e7-4f1a-9efa-21197e8b1082","system_id":"levelo_inurba_marseille","lat":43.28479,"lon":5.38556,"is_reserved":false,"is_disabled":false,"rental_uris":{"android":"levelo://app?vid=c47f9d06-e2e7-4f1a-9efa-21197e8b1082","ios":"levelo://app?vid=c47f9d06-e2e7-4f1a-9efa-21197e8b1082"},"vehicle_type_id":"4","last_reported":1770712702,"current_range_meters":5600,"station_id":"ce4bh8p2rcd13ifvqeb0","pricing_plan_id":"cebpf4jnsgd1na2vs0mg"},{"bike_id":"eaa5e5ee-a9c3-4ba5-bf63-871e73a7743b","system_id":"levelo_inurba_marseille","lat":43.26683,"lon":5.38268,"is_reserved":false,"is_disabled":false,"rental_uris":{"android":"levelo://app?vid=eaa5e5ee-a9c3-4ba5-bf63-871e73a7743b","ios":"levelo://app?vid=eaa5e5ee-a9c3-4ba5-bf63-871e73a7743b"},"vehicle_type_id":"4","last_reported":1770712702,"current_range_meters":5600,"station_id":"ce4bhg92rcd13ifvqf90","pricing_plan_id":"cebpf4jnsgd1na2vs0mg"},{"bike_id":"e43cbe13-67a5-40a1-8370-853fb6a5851b","system_id":"levelo_inurba_marseille","lat":43.3173,"lon":5.42381,"is_reserved":false,"is_disabled":false,"rental_uris":{"android":"levelo://app?vid=e43cbe13-67a5-40a1-8370-853fb6a5851b","ios":"levelo://app?vid=e43cbe13-67a5-40a1-8370-853fb6a5851b"},"vehicle_type_id":"4","last_reported":1770712702,"current_range_meters":6000,"station_id":"ce4bhp92rcd13ifvqhbg","pricing_plan_id":"cebpf4jnsgd1na2vs0mg"},{"bike_id":"16a1688f-c2f5-4bf5-96dc-0466fbc0522d","system_id":"levelo_inurba_marseille","lat":43.280017,"lon":5.386427,"is_reserved":false,"is_disabled":false,"rental_uris":{"android":"levelo://app?vid=16a1688f-c2f5-4bf5-96dc-0466fbc0522d","ios":"levelo://app?vid=16a1688f-c2f5-4bf5-96dc-0466fbc0522d"},"vehicle_type_id":"4","last_reported":1770712702,"current_range_meters":6000,"station_id":"","pricing_plan_id":"cebpf4jnsgd1na2vs0mg"},{"bike_id":"54bd52e6-912c-41e4-90a6-85e5c05a7d3d","system_id":"levelo_inurba_marseille","lat":43.22569,"lon":5.41616,"is_reserved":false,"is_disabled":false,"rental_uris":{"android":"levelo://app?vid=54bd52e6-912c-41e4-90a6-85e5c05a7d3d","ios":"levelo://app?vid=54bd52e6-912c-41e4-90a6-85e5c05a7d3d"},"vehicle_type_id":"4","last_reported":1770712702,"current_range_meters":6000,"station_id":"st_d2o4gvlbi1j2169b742g","pricing_plan_id":"cebpf4jnsgd1na2vs0mg"},{"bike_id":"abc82ae7-1fb1-4138-a05d-1f73df2b858f","system_id":"levelo_inurba_marseille","lat":43.31663,"lon":5.37784,"is_reserved":false,"is_disabled":false,"rental_uris":{"android":"levelo://app?vid=abc82ae7-1fb1-4138-a05d-1f73df2b858f","ios":"levelo://app?vid=abc82ae7-1fb1-4138-a05d-1f73df2b858f"},"vehicle_type_id":"4","last_reported":1770712702,"current_range_meters":6000,"station_id":"","pricing_plan_id":"cebpf4jnsgd1na2vs0mg"},{"bike_id":"2deb45fa-cb82-48cc-9169-0ddc074570fe","system_id":"levelo_inurba_marseille","lat":43.31154,"lon":5.44674,"is_reserved":false,"is_disabled":false,"rental_uris":{"android":"levelo://app?vid=2deb45fa-cb82-48cc-9169-0ddc074570fe","ios":"levelo://app?vid=2deb45fa-cb82-48cc-9169-0ddc074570fe"},"vehicle_type_id":"4","last_reported":1770712702,"current_range_meters":6000,"station_id":"","pricing_plan_id":"cebpf4jnsgd1na2vs0mg"},{"bike_id":"91fdd7ab-d339-4963-8616-9757378509a7","system_id":"levelo_inurba_marseille","lat":43.28602,"lon":5.37063,"is_reserved":false,"is_disabled":false,"rental_uris":{"android":"levelo://app?vid=91fdd7ab-d339-4963-8616-9757378509a7","ios":"levelo://app?vid=91fdd7ab-d339-4963-8616-9757378509a7"},"vehicle_type_id":"4","last_reported":1770712702,"current_range_meters":6000,"station_id":"ce4bht12rcd13ifvqi60","pricing_plan_id":"cebpf4jnsgd1na2vs0mg"},{"bike_id":"e5450084-9f1f-4747-99ba-d3f2c59ef956","system_id":"levelo_inurba_marseille","lat":43.28945,"lon":5.39641,"is_reserved":false,"is_disabled":false,"rental_uris":{"android":"levelo://app?vid=e5450084-9f1f-4747-99ba-d3f2c59ef956","ios":"levelo://app?vid=e5450084-9f1f-4747-99ba-d3f2c59ef956"},"vehicle_type_id":"4","last_reported":1770712702,"current_range_meters":6000,"station_id":"ce4bh3h2rcd13ifvqdn0","pricing_plan_id":"cebpf4jnsgd1na2vs0mg"},{"bike_id":"01d0de60-565b-4834-9c9b-2f6e86038604","system_id":"levelo_inurba_marseille","lat":43.30161,"lon":5.3809,"is_reserved":false,"is_disabled":false,"rental_uris":{"android":"levelo://app?vid=01d0de60-565b-4834-9c9b-2f6e86038604","ios":"levelo://app?vid=01d0de60-565b-4834-9c9b-2f6e86038604"},"vehicle_type_id":"4","last_reported":1770712702,"current_range_meters":6000,"station_id":"ce4bgjp2rcd13ifvqbh0","pricing_plan_id":"cebpf4jnsgd1na2vs0mg"},{"bike_id":"e4f26466-561b-4efa-8b1f-9ecb13a4d3b6","system_id":"levelo_inurba_marseille","lat":43.24168,"lon":5.36388,"is_reserved":false,"is_disabled":false,"rental_uris":{"android":"levelo://app?vid=e4f26466-561b-4efa-8b1f-9ecb13a4d3b6","ios":"levelo://app?vid=e4f26466-561b-4efa-8b1f-9ecb13a4d3b6"},"vehicle_type_id":"4","last_reported":1770712702,"current_range_meters":6000,"station_id":"cpo36qri1sfpv3e86is0","pricing_plan_id":"cebpf4jnsgd1na2vs0mg"},{"bike_id":"588af9cd-247e-4879-9fe2-4ffd05b64a15","system_id":"levelo_inurba_marseille","lat":43.29272,"lon":5.36845,"is_reserved":false,"is_disabled":false,"rental_uris":{"android":"levelo://app?vid=588af9cd-247e-4879-9fe2-4ffd05b64a15","ios":"levelo://app?vid=588af9cd-247e-4879-9fe2-4ffd05b64a15"},"vehicle_type_id":"4","last_reported":1770712702,"current_range_meters":6400,"station_id":"ce4bhbp2rcd13ifvqesg","pricing_plan_id":"cebpf4jnsgd1na2vs0mg"},{"bike_id":"a535dbb4-75fb-471e-82d5-b2f3ba0058ab","system_id":"levelo_inurba_marseille","lat":43.28508,"lon":5.38447,"is_reserved":false,"is_disabled":false,"rental_uris":{"android":"levelo://app?vid=a535dbb4-75fb-471e-82d5-b2f3ba0058ab","ios":"levelo://app?vid=a535dbb4-75fb-471e-82d5-b2f3ba0058ab"},"vehicle_type_id":"4","last_reported":1770712702,"current_range_meters":6400,"station_id":"ce4bh512rcd13ifvqe3g","pricing_plan_id":"cebpf4jnsgd1na2vs0mg"},{"bike_id":"7f6ef8fc-1579-4912-b00d-edf7547220b9","system_id":"levelo_inurba_marseille","lat":43.2706,"lon":5.42274,"is_reserved":false,"is_disabled":false,"rental_uris":{"android":"levelo://app?vid=7f6ef8fc-1579-4912-b00d-edf7547220b9","ios":"levelo://app?vid=7f6ef8fc-1579-4912-b00d-edf7547220b9"},"vehicle_type_id":"4","last_reported":1770712702,"current_range_meters":6400,"station_id":"ce4bhk92rcd13ifvqgb0","pricing_plan_id":"cebpf4jnsgd1na2vs0mg"},{"bike_id":"6568fe9c-fddd-4b10-90f8-cf9f1069acf5","system_id":"levelo_inurba_marseille","lat":43.3355,"lon":5.37465,"is_reserved":false,"is_disabled":false,"rental_uris":{"android":"levelo://app?vid=6568fe9c-fddd-4b10-90f8-cf9f1069acf5","ios":"levelo://app?vid=6568fe9c-fddd-4b10-90f8-cf9f1069acf5"},"vehicle_type_id":"4","last_reported":1770712702,"current_range_meters":6400,"station_id":"st_d46tts09ee8s73dlu43g","pricing_plan_id":"cebpf4jnsgd1na2vs0mg"},{"bike_id":"f23a5ea8-cccd-472e-abcc-91e4bbd449a7","system_id":"levelo_inurba_marseille","lat":43.30321,"lon":5.36917,"is_reserved":false,"is_disabled":true,"rental_uris":{"android":"levelo://app?vid=f23a5ea8-cccd-472e-abcc-91e4bbd449a7","ios":"levelo://app?vid=f23a5ea8-cccd-472e-abcc-91e4bbd449a7"},"vehicle_type_id":"4","last_reported":1770712702,"current_range_meters":6400,"station_id":"ce4bgqh2rcd13ifvqc5g","pricing_plan_id":"cebpf4jnsgd1na2vs0mg"},{"bike_id":"fe6f8294-65ba-45f1-a4f6-c1ee0f12ef18","system_id":"levelo_inurba_marseille","lat":43.22558,"lon":5.41637,"is_reserved":false,"is_disabled":false,"rental_uris":{"android":"levelo://app?vid=fe6f8294-65ba-45f1-a4f6-c1ee0f12ef18","ios":"levelo://app?vid=fe6f8294-65ba-45f1-a4f6-c1ee0f12ef18"},"vehicle_type_id":"4","last_reported":1770712702,"current_range_meters":6400,"station_id":"st_d2o4gvlbi1j2169b742g","pricing_plan_id":"cebpf4jnsgd1na2vs0mg"},{"bike_id":"85dd1ff3-48fb-473b-a6b8-2f438c995677","system_id":"levelo_inurba_marseille","lat":43.29896,"lon":5.43656,"is_reserved":false,"is_disabled":false,"rental_uris":{"android":"levelo://app?vid=85dd1ff3-48fb-473b-a6b8-2f438c995677","ios":"levelo://app?vid=85dd1ff3-48fb-473b-a6b8-2f438c995677"},"vehicle_type_id":"4","last_reported":1770712702,"current_range_meters":6400,"station_id":"ce4bhpp2rcd13ifvqhfg","pricing_plan_id":"cebpf4jnsgd1na2vs0mg"},{"bike_id":"d917330e-8029-461a-95c3-ed551a62a88f","system_id":"levelo_inurba_marseille","lat":43.22559,"lon":5.4162,"is_reserved":false,"is_disabled":false,"rental_uris":{"android":"levelo://app?vid=d917330e-8029-461a-95c3-ed551a62a88f","ios":"levelo://app?vid=d917330e-8029-461a-95c3-ed551a62a88f"},"vehicle_type_id":"4","last_reported":1770712702,"current_range_meters":6400,"station_id":"st_d2o4gvlbi1j2169b742g","pricing_plan_id":"cebpf4jnsgd1na2vs0mg"},{"bike_id":"07a8983d-5f9a-43d9-b148-241b2c2ab4b5","system_id":"levelo_inurba_marseille","lat":43.30984,"lon":5.39028,"is_reserved":false,"is_disabled":false,"rental_uris":{"android":"levelo://app?vid=07a8983d-5f9a-43d9-b148-241b2c2ab4b5","ios":"levelo://app?vid=07a8983d-5f9a-43d9-b148-241b2c2ab4b5"},"vehicle_type_id":"4","last_reported":1770712702,"current_range_meters":6400,"station_id":"ce4bgup2rcd13ifvqco0","pricing_plan_id":"cebpf4jnsgd1na2vs0mg"},{"bike_id":"83062ade-c076-467d-b125-720c7e101dca","system_id":"levelo_inurba_marseille","lat":43.29595,"lon":5.37701,"is_reserved":false,"is_disabled":true,"rental_uris":{"android":"levelo://app?vid=83062ade-c076-467d-b125-720c7e101dca","ios":"levelo://app?vid=83062ade-c076-467d-b125-720c7e101dca"},"vehicle_type_id":"4","last_reported":1770712702,"current_range_meters":6400,"station_id":"ce4bgi92rcd13ifvqb90","pricing_plan_id":"cebpf4jnsgd1na2vs0mg"},{"bike_id":"738ace95-69b5-422f-91a8-940bb61d6675","system_id":"levelo_inurba_marseille","lat":43.31945,"lon":5.36919,"is_reserved":false,"is_disabled":false,"rental_uris":{"android":"levelo://app?vid=738ace95-69b5-422f-91a8-940bb61d6675","ios":"levelo://app?vid=738ace95-69b5-422f-91a8-940bb61d6675"},"vehicle_type_id":"4","last_reported":1770712702,"current_range_meters":6400,"station_id":"","pricing_plan_id":"cebpf4jnsgd1na2vs0mg"},{"bike_id":"6e9da648-4518-4a3f-bb25-58200a56dbc5","system_id":"levelo_inurba_marseille","lat":43.25818,"lon":5.39438,"is_reserved":false,"is_disabled":false,"rental_uris":{"android":"levelo://app?vid=6e9da648-4518-4a3f-bb25-58200a56dbc5","ios":"levelo://app?vid=6e9da648-4518-4a3f-bb25-58200a56dbc5"},"vehicle_type_id":"4","last_reported":1770712702,"current_range_meters":6400,"station_id":"ce4bhip2rcd13ifvqft0","pricing_plan_id":"cebpf4jnsgd1na2vs0mg"},{"bike_id":"f566875e-5642-41c3-af4a-390fbf63f0fb","system_id":"levelo_inurba_marseille","lat":43.2833,"lon":5.38106,"is_reserved":false,"is_disabled":false,"rental_uris":{"android":"levelo://app?vid=f566875e-5642-41c3-af4a-390fbf63f0fb","ios":"levelo://app?vid=f566875e-5642-41c3-af4a-390fbf63f0fb"},"vehicle_type_id":"4","last_reported":1770712702,"current_range_meters":6400,"station_id":"ce4bh412rcd13ifvqdr0","pricing_plan_id":"cebpf4jnsgd1na2vs0mg"},{"bike_id":"8f91f29e-0897-43d8-a3cf-8b8240b92337","system_id":"levelo_inurba_marseille","lat":43.29897,"lon":5.43644,"is_reserved":false,"is_disabled":false,"rental_uris":{"android":"levelo://app?vid=8f91f29e-0897-43d8-a3cf-8b8240b92337","ios":"levelo://app?vid=8f91f29e-0897-43d8-a3cf-8b8240b92337"},"vehicle_type_id":"4","last_reported":1770712702,"current_range_meters":6400,"station_id":"ce4bhpp2rcd13ifvqhfg","pricing_plan_id":"cebpf4jnsgd1na2vs0mg"},{"bike_id":"351d292b-019b-4c50-9fcd-9cd171fbd2a1","system_id":"levelo_inurba_marseille","lat":43.26496,"lon":5.39545,"is_reserved":false,"is_disabled":false,"rental_uris":{"android":"levelo://app?vid=351d292b-019b-4c50-9fcd-9cd171fbd2a1","ios":"levelo://app?vid=351d292b-019b-4c50-9fcd-9cd171fbd2a1"},"vehicle_type_id":"4","last_reported":1770712702,"current_range_meters":6400,"station_id":"ce4bhi12rcd13ifvqfq0","pricing_plan_id":"cebpf4jnsgd1na2vs0mg"},{"bike_id":"0c19d373-6eb2-4333-8212-205e194a0e67","system_id":"levelo_inurba_marseille","lat":43.24396,"lon":5.37076,"is_reserved":false,"is_disabled":false,"rental_uris":{"android":"levelo://app?vid=0c19d373-6eb2-4333-8212-205e194a0e67","ios":"levelo://app?vid=0c19d373-6eb2-4333-8212-205e194a0e67"},"vehicle_type_id":"4","last_reported":1770712702,"current_range_meters":6400,"station_id":"ce4bhhh2rcd13ifvqfk0","pricing_plan_id":"cebpf4jnsgd1na2vs0mg"},{"bike_id":"f2bc4079-69dc-4c38-8ac6-9eac0b6ce250","system_id":"levelo_inurba_marseille","lat":43.25898,"lon":5.40945,"is_reserved":false,"is_disabled":false,"rental_uris":{"android":"levelo://app?vid=f2bc4079-69dc-4c38-8ac6-9eac0b6ce250","ios":"levelo://app?vid=f2bc4079-69dc-4c38-8ac6-9eac0b6ce250"},"vehicle_type_id":"4","last_reported":1770712702,"current_range_meters":6400,"station_id":"ce4bhm92rcd13ifvqglg","pricing_plan_id":"cebpf4jnsgd1na2vs0mg"},{"bike_id":"7ad07009-b55c-409c-99b6-32ac3d615572","system_id":"levelo_inurba_marseille","lat":43.32469,"lon":5.36577,"is_reserved":false,"is_disabled":false,"rental_uris":{"android":"levelo://app?vid=7ad07009-b55c-409c-99b6-32ac3d615572","ios":"levelo://app?vid=7ad07009-b55c-409c-99b6-32ac3d615572"},"vehicle_type_id":"4","last_reported":1770712702,"current_range_meters":6400,"station_id":"ce4bhs12rcd13ifvqhvg","pricing_plan_id":"cebpf4jnsgd1na2vs0mg"},{"bike_id":"b6ef09ed-d357-4465-bd2f-ee587e4263cc","system_id":"levelo_inurba_marseille","lat":43.28436,"lon":5.40993,"is_reserved":false,"is_disabled":false,"rental_uris":{"android":"levelo://app?vid=b6ef09ed-d357-4465-bd2f-ee587e4263cc","ios":"levelo://app?vid=b6ef09ed-d357-4465-bd2f-ee587e4263cc"},"vehicle_type_id":"4","last_reported":1770712702,"current_range_meters":6400,"station_id":"","pricing_plan_id":"cebpf4jnsgd1na2vs0mg"},{"bike_id":"db81a205-ff39-44ae-a1c3-5f6a468be0bf","system_id":"levelo_inurba_marseille","lat":43.31332,"lon":5.36712,"is_reserved":false,"is_disabled":false,"rental_uris":{"android":"levelo://app?vid=db81a205-ff39-44ae-a1c3-5f6a468be0bf","ios":"levelo://app?vid=db81a205-ff39-44ae-a1c3-5f6a468be0bf"},"vehicle_type_id":"4","last_reported":1770712702,"current_range_meters":6400,"station_id":"ce4bgr92rcd13ifvqc6g","pricing_plan_id":"cebpf4jnsgd1na2vs0mg"},{"bike_id":"a16c6b66-4681-4197-97de-590313da117d","system_id":"levelo_inurba_marseille","lat":43.2795,"lon":5.38732,"is_reserved":false,"is_disabled":false,"rental_uris":{"android":"levelo://app?vid=a16c6b66-4681-4197-97de-590313da117d","ios":"levelo://app?vid=a16c6b66-4681-4197-97de-590313da117d"},"vehicle_type_id":"4","last_reported":1770712702,"current_range_meters":6400,"station_id":"ce4bhg12rcd13ifvqf80","pricing_plan_id":"cebpf4jnsgd1na2vs0mg"},{"bike_id":"4926dc74-535e-4c80-bde7-fedf83ad3e9a","system_id":"levelo_inurba_marseille","lat":43.26395,"lon":5.41062,"is_reserved":false,"is_disabled":false,"rental_uris":{"android":"levelo://app?vid=4926dc74-535e-4c80-bde7-fedf83ad3e9a","ios":"levelo://app?vid=4926dc74-535e-4c80-bde7-fedf83ad3e9a"},"vehicle_type_id":"4","last_reported":1770712702,"current_range_meters":6800,"station_id":"st_d4e5ca6na9uc73bfl5fg","pricing_plan_id":"cebpf4jnsgd1na2vs0mg"},{"bike_id":"bc1aa15a-218e-4171-a385-2214dc163ef1","system_id":"levelo_inurba_marseille","lat":43.31482,"lon":5.37295,"is_reserved":false,"is_disabled":false,"rental_uris":{"android":"levelo://app?vid=bc1aa15a-218e-4171-a385-2214dc163ef1","ios":"levelo://app?vid=bc1aa15a-218e-4171-a385-2214dc163ef1"},"vehicle_type_id":"4","last_reported":1770712702,"current_range_meters":6800,"station_id":"ce4bgt12rcd13ifvqcd0","pricing_plan_id":"cebpf4jnsgd1na2vs0mg"},{"bike_id":"fd158031-c8ec-435b-b315-8360533800f5","system_id":"levelo_inurba_marseille","lat":43.26251,"lon":5.40395,"is_reserved":false,"is_disabled":true,"rental_uris":{"android":"levelo://app?vid=fd158031-c8ec-435b-b315-8360533800f5","ios":"levelo://app?vid=fd158031-c8ec-435b-b315-8360533800f5"},"vehicle_type_id":"4","last_reported":1770712702,"current_range_meters":6800,"station_id":"","pricing_plan_id":"cebpf4jnsgd1na2vs0mg"},{"bike_id":"c905e704-6f56-4fbe-8269-605a142ba243","system_id":"levelo_inurba_marseille","lat":43.24645,"lon":5.38891,"is_reserved":false,"is_disabled":true,"rental_uris":{"android":"levelo://app?vid=c905e704-6f56-4fbe-8269-605a142ba243","ios":"levelo://app?vid=c905e704-6f56-4fbe-8269-605a142ba243"},"vehicle_type_id":"4","last_reported":1770712702,"current_range_meters":6800,"station_id":"ce4bhg12rcd13ifvqf60","pricing_plan_id":"cebpf4jnsgd1na2vs0mg"},{"bike_id":"c0753566-8312-488e-8b9c-2e80228c855b","system_id":"levelo_inurba_marseille","lat":43.26566,"lon":5.39013,"is_reserved":false,"is_disabled":false,"rental_uris":{"android":"levelo://app?vid=c0753566-8312-488e-8b9c-2e80228c855b","ios":"levelo://app?vid=c0753566-8312-488e-8b9c-2e80228c855b"},"vehicle_type_id":"4","last_reported":1770712702,"current_range_meters":6800,"station_id":"ce4bhe12rcd13ifvqf30","pricing_plan_id":"cebpf4jnsgd1na2vs0mg"},{"bike_id":"33e820a0-6ed7-40f2-a570-387cfd6e2cce","system_id":"levelo_inurba_marseille","lat":43.30957,"lon":5.39025,"is_reserved":false,"is_disabled":false,"rental_uris":{"android":"levelo://app?vid=33e820a0-6ed7-40f2-a570-387cfd6e2cce","ios":"levelo://app?vid=33e820a0-6ed7-40f2-a570-387cfd6e2cce"},"vehicle_type_id":"4","last_reported":1770712702,"current_range_meters":6800,"station_id":"ce4bgup2rcd13ifvqco0","pricing_plan_id":"cebpf4jnsgd1na2vs0mg"},{"bike_id":"f3f6fbc6-43d5-47da-82b6-762e4e722ce6","system_id":"levelo_inurba_marseille","lat":43.27982,"lon":5.41331,"is_reserved":false,"is_disabled":false,"rental_uris":{"android":"levelo://app?vid=f3f6fbc6-43d5-47da-82b6-762e4e722ce6","ios":"levelo://app?vid=f3f6fbc6-43d5-47da-82b6-762e4e722ce6"},"vehicle_type_id":"4","last_reported":1770712702,"current_range_meters":6800,"station_id":"","pricing_plan_id":"cebpf4jnsgd1na2vs0mg"},{"bike_id":"0f0b794e-5bcc-4cbf-9c14-da03c4979ecb","system_id":"levelo_inurba_marseille","lat":43.29058,"lon":5.40097,"is_reserved":false,"is_disabled":false,"rental_uris":{"android":"levelo://app?vid=0f0b794e-5bcc-4cbf-9c14-da03c4979ecb","ios":"levelo://app?vid=0f0b794e-5bcc-4cbf-9c14-da03c4979ecb"},"vehicle_type_id":"4","last_reported":1770712702,"current_range_meters":6800,"station_id":"","pricing_plan_id":"cebpf4jnsgd1na2vs0mg"},{"bike_id":"c84f98ff-c4b0-498e-bd41-7b5647869b42","system_id":"levelo_inurba_marseille","lat":43.23376,"lon":5.41266,"is_reserved":false,"is_disabled":false,"rental_uris":{"android":"levelo://app?vid=c84f98ff-c4b0-498e-bd41-7b5647869b42","ios":"levelo://app?vid=c84f98ff-c4b0-498e-bd41-7b5647869b42"},"vehicle_type_id":"4","last_reported":1770712702,"current_range_meters":6800,"station_id":"","pricing_plan_id":"cebpf4jnsgd1na2vs0mg"},{"bike_id":"3cc0c911-ddf8-4be2-a584-aaba713fd3a2","system_id":"levelo_inurba_marseille","lat":43.29071,"lon":5.37136,"is_reserved":false,"is_disabled":false,"rental_uris":{"android":"levelo://app?vid=3cc0c911-ddf8-4be2-a584-aaba713fd3a2","ios":"levelo://app?vid=3cc0c911-ddf8-4be2-a584-aaba713fd3a2"},"vehicle_type_id":"4","last_reported":1770712702,"current_range_meters":6800,"station_id":"ce4bh5p2rcd13ifvqe4g","pricing_plan_id":"cebpf4jnsgd1na2vs0mg"},{"bike_id":"7aa88c9a-638c-4987-ac95-48a9be1eeb75","system_id":"levelo_inurba_marseille","lat":43.24063,"lon":5.37776,"is_reserved":false,"is_disabled":false,"rental_uris":{"android":"levelo://app?vid=7aa88c9a-638c-4987-ac95-48a9be1eeb75","ios":"levelo://app?vid=7aa88c9a-638c-4987-ac95-48a9be1eeb75"},"vehicle_type_id":"4","last_reported":1770712702,"current_range_meters":6800,"station_id":"ce4bhnp2rcd13ifvqgvg","pricing_plan_id":"cebpf4jnsgd1na2vs0mg"},{"bike_id":"6c412498-db51-4eea-9cbd-3080b8bdba9d","system_id":"levelo_inurba_marseille","lat":43.30478,"lon":5.37912,"is_reserved":false,"is_disabled":false,"rental_uris":{"android":"levelo://app?vid=6c412498-db51-4eea-9cbd-3080b8bdba9d","ios":"levelo://app?vid=6c412498-db51-4eea-9cbd-3080b8bdba9d"},"vehicle_type_id":"4","last_reported":1770712702,"current_range_meters":6800,"station_id":"ce4bgup2rcd13ifvqcn0","pricing_plan_id":"cebpf4jnsgd1na2vs0mg"},{"bike_id":"e20506fc-81c8-45aa-af10-6b0aa01b93ce","system_id":"levelo_inurba_marseille","lat":43.25571,"lon":5.38265,"is_reserved":false,"is_disabled":false,"rental_uris":{"android":"levelo://app?vid=e20506fc-81c8-45aa-af10-6b0aa01b93ce","ios":"levelo://app?vid=e20506fc-81c8-45aa-af10-6b0aa01b93ce"},"vehicle_type_id":"4","last_reported":1770712702,"current_range_meters":6800,"station_id":"ce4bhih2rcd13ifvqfs0","pricing_plan_id":"cebpf4jnsgd1na2vs0mg"},{"bike_id":"3e1c1a76-0035-4af4-884d-43dbcb7bca0c","system_id":"levelo_inurba_marseille","lat":43.24042,"lon":5.37796,"is_reserved":false,"is_disabled":false,"rental_uris":{"android":"levelo://app?vid=3e1c1a76-0035-4af4-884d-43dbcb7bca0c","ios":"levelo://app?vid=3e1c1a76-0035-4af4-884d-43dbcb7bca0c"},"vehicle_type_id":"4","last_reported":1770712702,"current_range_meters":6800,"station_id":"ce4bhnp2rcd13ifvqgvg","pricing_plan_id":"cebpf4jnsgd1na2vs0mg"},{"bike_id":"c583560a-77a9-496f-bff4-8abe7a8e3cb2","system_id":"levelo_inurba_marseille","lat":43.30179,"lon":5.36678,"is_reserved":false,"is_disabled":false,"rental_uris":{"android":"levelo://app?vid=c583560a-77a9-496f-bff4-8abe7a8e3cb2","ios":"levelo://app?vid=c583560a-77a9-496f-bff4-8abe7a8e3cb2"},"vehicle_type_id":"4","last_reported":1770712702,"current_range_meters":6800,"station_id":"ce4bgrh2rcd13ifvqc8g","pricing_plan_id":"cebpf4jnsgd1na2vs0mg"},{"bike_id":"451fd03f-25ac-4489-b193-4516129ae342","system_id":"levelo_inurba_marseille","lat":43.30956,"lon":5.3903,"is_reserved":false,"is_disabled":false,"rental_uris":{"android":"levelo://app?vid=451fd03f-25ac-4489-b193-4516129ae342","ios":"levelo://app?vid=451fd03f-25ac-4489-b193-4516129ae342"},"vehicle_type_id":"4","last_reported":1770712702,"current_range_meters":6800,"station_id":"ce4bgup2rcd13ifvqco0","pricing_plan_id":"cebpf4jnsgd1na2vs0mg"},{"bike_id":"8c5df9c2-edca-4c7f-889d-f3ef192b7c99","system_id":"levelo_inurba_marseille","lat":43.30118,"lon":5.37425,"is_reserved":false,"is_disabled":false,"rental_uris":{"android":"levelo://app?vid=8c5df9c2-edca-4c7f-889d-f3ef192b7c99","ios":"levelo://app?vid=8c5df9c2-edca-4c7f-889d-f3ef192b7c99"},"vehicle_type_id":"4","last_reported":1770712702,"current_range_meters":6800,"station_id":"ce4bgs92rcd13ifvqcc0","pricing_plan_id":"cebpf4jnsgd1na2vs0mg"},{"bike_id":"401e4cf8-13ef-4da9-b50d-a015f321d3b3","system_id":"levelo_inurba_marseille","lat":43.29271,"lon":5.40904,"is_reserved":false,"is_disabled":false,"rental_uris":{"android":"levelo://app?vid=401e4cf8-13ef-4da9-b50d-a015f321d3b3","ios":"levelo://app?vid=401e4cf8-13ef-4da9-b50d-a015f321d3b3"},"vehicle_type_id":"4","last_reported":1770712702,"current_range_meters":6800,"station_id":"ce4bh192rcd13ifvqdc0","pricing_plan_id":"cebpf4jnsgd1na2vs0mg"},{"bike_id":"9a0a4f5b-d5f2-4be0-a4fa-450256499716","system_id":"levelo_inurba_marseille","lat":43.27025,"lon":5.39895,"is_reserved":false,"is_disabled":false,"rental_uris":{"android":"levelo://app?vid=9a0a4f5b-d5f2-4be0-a4fa-450256499716","ios":"levelo://app?vid=9a0a4f5b-d5f2-4be0-a4fa-450256499716"},"vehicle_type_id":"4","last_reported":1770712702,"current_range_meters":6800,"station_id":"","pricing_plan_id":"cebpf4jnsgd1na2vs0mg"},{"bike_id":"02e9af11-2912-44f7-be5c-e2ae093265ba","system_id":"levelo_inurba_marseille","lat":43.26675,"lon":5.38302,"is_reserved":false,"is_disabled":false,"rental_uris":{"android":"levelo://app?vid=02e9af11-2912-44f7-be5c-e2ae093265ba","ios":"levelo://app?vid=02e9af11-2912-44f7-be5c-e2ae093265ba"},"vehicle_type_id":"4","last_reported":1770712702,"current_range_meters":7200,"station_id":"ce4bhg92rcd13ifvqf90","pricing_plan_id":"cebpf4jnsgd1na2vs0mg"},{"bike_id":"4240880d-88bf-48aa-91ea-700e773e4fa1","system_id":"levelo_inurba_marseille","lat":43.25565,"lon":5.38229,"is_reserved":false,"is_disabled":false,"rental_uris":{"android":"levelo://app?vid=4240880d-88bf-48aa-91ea-700e773e4fa1","ios":"levelo://app?vid=4240880d-88bf-48aa-91ea-700e773e4fa1"},"vehicle_type_id":"4","last_reported":1770712702,"current_range_meters":7200,"station_id":"ce4bhih2rcd13ifvqfs0","pricing_plan_id":"cebpf4jnsgd1na2vs0mg"},{"bike_id":"05abb5d5-7a0f-4692-a6b6-119f614f1bb6","system_id":"levelo_inurba_marseille","lat":43.25563,"lon":5.38242,"is_reserved":false,"is_disabled":false,"rental_uris":{"android":"levelo://app?vid=05abb5d5-7a0f-4692-a6b6-119f614f1bb6","ios":"levelo://app?vid=05abb5d5-7a0f-4692-a6b6-119f614f1bb6"},"vehicle_type_id":"4","last_reported":1770712702,"current_range_meters":7200,"station_id":"ce4bhih2rcd13ifvqfs0","pricing_plan_id":"cebpf4jnsgd1na2vs0mg"},{"bike_id":"37031e2a-9c73-4743-9ad1-66d5eee740a7","system_id":"levelo_inurba_marseille","lat":43.25939,"lon":5.40899,"is_reserved":false,"is_disabled":false,"rental_uris":{"android":"levelo://app?vid=37031e2a-9c73-4743-9ad1-66d5eee740a7","ios":"levelo://app?vid=37031e2a-9c73-4743-9ad1-66d5eee740a7"},"vehicle_type_id":"4","last_reported":1770712702,"current_range_meters":7200,"station_id":"ce4bhm92rcd13ifvqglg","pricing_plan_id":"cebpf4jnsgd1na2vs0mg"},{"bike_id":"a1a1e459-dc33-458a-a156-5735d4cb79a9","system_id":"levelo_inurba_marseille","lat":43.29555,"lon":5.42271,"is_reserved":false,"is_disabled":false,"rental_uris":{"android":"levelo://app?vid=a1a1e459-dc33-458a-a156-5735d4cb79a9","ios":"levelo://app?vid=a1a1e459-dc33-458a-a156-5735d4cb79a9"},"vehicle_type_id":"4","last_reported":1770712702,"current_range_meters":7200,"station_id":"ce4bhph2rcd13ifvqhdg","pricing_plan_id":"cebpf4jnsgd1na2vs0mg"},{"bike_id":"a07cd24c-7e73-437e-917a-60bdbc1072fc","system_id":"levelo_inurba_marseille","lat":43.24372,"lon":5.37096,"is_reserved":false,"is_disabled":false,"rental_uris":{"android":"levelo://app?vid=a07cd24c-7e73-437e-917a-60bdbc1072fc","ios":"levelo://app?vid=a07cd24c-7e73-437e-917a-60bdbc1072fc"},"vehicle_type_id":"4","last_reported":1770712702,"current_range_meters":7200,"station_id":"ce4bhhh2rcd13ifvqfk0","pricing_plan_id":"cebpf4jnsgd1na2vs0mg"},{"bike_id":"20d7655a-dd73-4aef-83bc-661ec3e777a1","system_id":"levelo_inurba_marseille","lat":43.26688,"lon":5.38264,"is_reserved":false,"is_disabled":false,"rental_uris":{"android":"levelo://app?vid=20d7655a-dd73-4aef-83bc-661ec3e777a1","ios":"levelo://app?vid=20d7655a-dd73-4aef-83bc-661ec3e777a1"},"vehicle_type_id":"4","last_reported":1770712702,"current_range_meters":7200,"station_id":"ce4bhg92rcd13ifvqf90","pricing_plan_id":"cebpf4jnsgd1na2vs0mg"},{"bike_id":"804c72c7-b156-4f59-bfd2-4c7beff1be08","system_id":"levelo_inurba_marseille","lat":43.25086,"lon":5.39506,"is_reserved":false,"is_disabled":false,"rental_uris":{"android":"levelo://app?vid=804c72c7-b156-4f59-bfd2-4c7beff1be08","ios":"levelo://app?vid=804c72c7-b156-4f59-bfd2-4c7beff1be08"},"vehicle_type_id":"4","last_reported":1770712702,"current_range_meters":7200,"station_id":"ce4bhm12rcd13ifvqgkg","pricing_plan_id":"cebpf4jnsgd1na2vs0mg"},{"bike_id":"05d628e9-781f-4f77-a9a7-087d759ed084","system_id":"levelo_inurba_marseille","lat":43.22917,"lon":5.35397,"is_reserved":false,"is_disabled":false,"rental_uris":{"android":"levelo://app?vid=05d628e9-781f-4f77-a9a7-087d759ed084","ios":"levelo://app?vid=05d628e9-781f-4f77-a9a7-087d759ed084"},"vehicle_type_id":"4","last_reported":1770712702,"current_range_meters":7200,"station_id":"cpo3532slgdg3j2ikp40","pricing_plan_id":"cebpf4jnsgd1na2vs0mg"},{"bike_id":"c9e1dfab-a295-4c94-9182-c8e248585a23","system_id":"levelo_inurba_marseille","lat":43.26561,"lon":5.4035,"is_reserved":false,"is_disabled":false,"rental_uris":{"android":"levelo://app?vid=c9e1dfab-a295-4c94-9182-c8e248585a23","ios":"levelo://app?vid=c9e1dfab-a295-4c94-9182-c8e248585a23"},"vehicle_type_id":"4","last_reported":1770712702,"current_range_meters":7200,"station_id":"ce4bhmp2rcd13ifvqgng","pricing_plan_id":"cebpf4jnsgd1na2vs0mg"},{"bike_id":"971b48dd-c7a4-4deb-8d64-56d2c1c381de","system_id":"levelo_inurba_marseille","lat":43.26358,"lon":5.41047,"is_reserved":false,"is_disabled":false,"rental_uris":{"android":"levelo://app?vid=971b48dd-c7a4-4deb-8d64-56d2c1c381de","ios":"levelo://app?vid=971b48dd-c7a4-4deb-8d64-56d2c1c381de"},"vehicle_type_id":"4","last_reported":1770712702,"current_range_meters":7200,"station_id":"st_d4e5ca6na9uc73bfl5fg","pricing_plan_id":"cebpf4jnsgd1na2vs0mg"},{"bike_id":"b1429378-b93e-4184-b373-85f0415c9919","system_id":"levelo_inurba_marseille","lat":43.24629,"lon":5.43154,"is_reserved":false,"is_disabled":false,"rental_uris":{"android":"levelo://app?vid=b1429378-b93e-4184-b373-85f0415c9919","ios":"levelo://app?vid=b1429378-b93e-4184-b373-85f0415c9919"},"vehicle_type_id":"4","last_reported":1770712702,"current_range_meters":7200,"station_id":"st_d2m6c4gdas8pm72e190g","pricing_plan_id":"cebpf4jnsgd1na2vs0mg"},{"bike_id":"9181861d-3c4b-4770-b545-363c30923e26","system_id":"levelo_inurba_marseille","lat":43.28453,"lon":5.48421,"is_reserved":false,"is_disabled":false,"rental_uris":{"android":"levelo://app?vid=9181861d-3c4b-4770-b545-363c30923e26","ios":"levelo://app?vid=9181861d-3c4b-4770-b545-363c30923e26"},"vehicle_type_id":"4","last_reported":1770712702,"current_range_meters":7200,"station_id":"st_d3svhcjqgbts73a3dn0g","pricing_plan_id":"cebpf4jnsgd1na2vs0mg"},{"bike_id":"3f7e55f6-2088-40ae-b4f8-703efb79b7e4","system_id":"levelo_inurba_marseille","lat":43.28443,"lon":5.39172,"is_reserved":false,"is_disabled":true,"rental_uris":{"android":"levelo://app?vid=3f7e55f6-2088-40ae-b4f8-703efb79b7e4","ios":"levelo://app?vid=3f7e55f6-2088-40ae-b4f8-703efb79b7e4"},"vehicle_type_id":"4","last_reported":1770712702,"current_range_meters":7200,"station_id":"ce4bhoh2rcd13ifvqh5g","pricing_plan_id":"cebpf4jnsgd1na2vs0mg"},{"bike_id":"670a215e-f56f-491e-b54e-92a6600e99c5","system_id":"levelo_inurba_marseille","lat":43.30928,"lon":5.36845,"is_reserved":false,"is_disabled":false,"rental_uris":{"android":"levelo://app?vid=670a215e-f56f-491e-b54e-92a6600e99c5","ios":"levelo://app?vid=670a215e-f56f-491e-b54e-92a6600e99c5"},"vehicle_type_id":"4","last_reported":1770712702,"current_range_meters":7200,"station_id":"ce4bgn92rcd13ifvqbvg","pricing_plan_id":"cebpf4jnsgd1na2vs0mg"},{"bike_id":"d7de9010-e687-44c0-a96d-641e7c256265","system_id":"levelo_inurba_marseille","lat":43.31114,"lon":5.37776,"is_reserved":false,"is_disabled":false,"rental_uris":{"android":"levelo://app?vid=d7de9010-e687-44c0-a96d-641e7c256265","ios":"levelo://app?vid=d7de9010-e687-44c0-a96d-641e7c256265"},"vehicle_type_id":"4","last_reported":1770712702,"current_range_meters":7200,"station_id":"ce4bgt92rcd13ifvqcg0","pricing_plan_id":"cebpf4jnsgd1na2vs0mg"},{"bike_id":"af109b45-02d2-41f8-be4b-42b484fd3394","system_id":"levelo_inurba_marseille","lat":43.29901,"lon":5.43673,"is_reserved":false,"is_disabled":false,"rental_uris":{"android":"levelo://app?vid=af109b45-02d2-41f8-be4b-42b484fd3394","ios":"levelo://app?vid=af109b45-02d2-41f8-be4b-42b484fd3394"},"vehicle_type_id":"4","last_reported":1770712702,"current_range_meters":7200,"station_id":"ce4bhpp2rcd13ifvqhfg","pricing_plan_id":"cebpf4jnsgd1na2vs0mg"},{"bike_id":"32df9713-f370-4b5b-937c-67632b06730e","system_id":"levelo_inurba_marseille","lat":43.30539,"lon":5.3672,"is_reserved":false,"is_disabled":false,"rental_uris":{"android":"levelo://app?vid=32df9713-f370-4b5b-937c-67632b06730e","ios":"levelo://app?vid=32df9713-f370-4b5b-937c-67632b06730e"},"vehicle_type_id":"4","last_reported":1770712702,"current_range_meters":7200,"station_id":"ce4bgrp2rcd13ifvqc9g","pricing_plan_id":"cebpf4jnsgd1na2vs0mg"},{"bike_id":"bfc07130-be47-4eef-8325-e33d6610d729","system_id":"levelo_inurba_marseille","lat":43.3011,"lon":5.43097,"is_reserved":false,"is_disabled":false,"rental_uris":{"android":"levelo://app?vid=bfc07130-be47-4eef-8325-e33d6610d729","ios":"levelo://app?vid=bfc07130-be47-4eef-8325-e33d6610d729"},"vehicle_type_id":"4","last_reported":1770712702,"current_range_meters":8000,"station_id":"st_d3js3co5814s73ftftug","pricing_plan_id":"cebpf4jnsgd1na2vs0mg"},{"bike_id":"661ae1fb-5124-4d82-a967-222c7b6306fd","system_id":"levelo_inurba_marseille","lat":43.2731,"lon":5.39168,"is_reserved":false,"is_disabled":false,"rental_uris":{"android":"levelo://app?vid=661ae1fb-5124-4d82-a967-222c7b6306fd","ios":"levelo://app?vid=661ae1fb-5124-4d82-a967-222c7b6306fd"},"vehicle_type_id":"4","last_reported":1770712702,"current_range_meters":8000,"station_id":"","pricing_plan_id":"cebpf4jnsgd1na2vs0mg"},{"bike_id":"105ec6a3-461b-4243-a30c-86ff951bee2e","system_id":"levelo_inurba_marseille","lat":43.29025,"lon":5.37572,"is_reserved":false,"is_disabled":false,"rental_uris":{"android":"levelo://app?vid=105ec6a3-461b-4243-a30c-86ff951bee2e","ios":"levelo://app?vid=105ec6a3-461b-4243-a30c-86ff951bee2e"},"vehicle_type_id":"4","last_reported":1770712702,"current_range_meters":8000,"station_id":"ce4bh692rcd13ifvqe90","pricing_plan_id":"cebpf4jnsgd1na2vs0mg"},{"bike_id":"109e0ee9-5b77-482d-ba82-dc7b28c81b48","system_id":"levelo_inurba_marseille","lat":43.28927,"lon":5.36344,"is_reserved":false,"is_disabled":true,"rental_uris":{"android":"levelo://app?vid=109e0ee9-5b77-482d-ba82-dc7b28c81b48","ios":"levelo://app?vid=109e0ee9-5b77-482d-ba82-dc7b28c81b48"},"vehicle_type_id":"4","last_reported":1770712702,"current_range_meters":8000,"station_id":"ce4bhc92rcd13ifvqetg","pricing_plan_id":"cebpf4jnsgd1na2vs0mg"},{"bike_id":"b7373ee6-e145-4b05-80ed-3adb7fce0200","system_id":"levelo_inurba_marseille","lat":43.29577,"lon":5.36732,"is_reserved":false,"is_disabled":false,"rental_uris":{"android":"levelo://app?vid=b7373ee6-e145-4b05-80ed-3adb7fce0200","ios":"levelo://app?vid=b7373ee6-e145-4b05-80ed-3adb7fce0200"},"vehicle_type_id":"4","last_reported":1770712702,"current_range_meters":8000,"station_id":"ce4bgph2rcd13ifvqc2g","pricing_plan_id":"cebpf4jnsgd1na2vs0mg"},{"bike_id":"b6f2af73-eadf-488e-be15-c42d402e2260","system_id":"levelo_inurba_marseille","lat":43.2318,"lon":5.39998,"is_reserved":false,"is_disabled":false,"rental_uris":{"android":"levelo://app?vid=b6f2af73-eadf-488e-be15-c42d402e2260","ios":"levelo://app?vid=b6f2af73-eadf-488e-be15-c42d402e2260"},"vehicle_type_id":"4","last_reported":1770712702,"current_range_meters":8000,"station_id":"ce4bhn12rcd13ifvqgqg","pricing_plan_id":"cebpf4jnsgd1na2vs0mg"},{"bike_id":"8ae193d0-6aa6-49c6-83c9-9ea48a09d2ef","system_id":"levelo_inurba_marseille","lat":43.2733,"lon":5.39137,"is_reserved":false,"is_disabled":false,"rental_uris":{"android":"levelo://app?vid=8ae193d0-6aa6-49c6-83c9-9ea48a09d2ef","ios":"levelo://app?vid=8ae193d0-6aa6-49c6-83c9-9ea48a09d2ef"},"vehicle_type_id":"4","last_reported":1770712702,"current_range_meters":8000,"station_id":"","pricing_plan_id":"cebpf4jnsgd1na2vs0mg"},{"bike_id":"f7daa685-e7ca-40d5-a256-06610f81cf96","system_id":"levelo_inurba_marseille","lat":43.28943,"lon":5.36638,"is_reserved":false,"is_disabled":false,"rental_uris":{"android":"levelo://app?vid=f7daa685-e7ca-40d5-a256-06610f81cf96","ios":"levelo://app?vid=f7daa685-e7ca-40d5-a256-06610f81cf96"},"vehicle_type_id":"4","last_reported":1770712702,"current_range_meters":8000,"station_id":"ce4bhap2rcd13ifvqek0","pricing_plan_id":"cebpf4jnsgd1na2vs0mg"},{"bike_id":"2b259b44-8ea9-412c-9390-6977c9a1db9d","system_id":"levelo_inurba_marseille","lat":43.26907,"lon":5.40262,"is_reserved":false,"is_disabled":false,"rental_uris":{"android":"levelo://app?vid=2b259b44-8ea9-412c-9390-6977c9a1db9d","ios":"levelo://app?vid=2b259b44-8ea9-412c-9390-6977c9a1db9d"},"vehicle_type_id":"4","last_reported":1770712702,"current_range_meters":8000,"station_id":"cjm6bp8fraef2m0cb0m0","pricing_plan_id":"cebpf4jnsgd1na2vs0mg"},{"bike_id":"3b5567a6-efa3-498b-ad01-b9c12c6390c4","system_id":"levelo_inurba_marseille","lat":43.31723,"lon":5.42393,"is_reserved":false,"is_disabled":false,"rental_uris":{"android":"levelo://app?vid=3b5567a6-efa3-498b-ad01-b9c12c6390c4","ios":"levelo://app?vid=3b5567a6-efa3-498b-ad01-b9c12c6390c4"},"vehicle_type_id":"4","last_reported":1770712702,"current_range_meters":8000,"station_id":"ce4bhp92rcd13ifvqhbg","pricing_plan_id":"cebpf4jnsgd1na2vs0mg"},{"bike_id":"65ecf4d4-cc5c-46d3-a0c0-3800c650a8aa","system_id":"levelo_inurba_marseille","lat":43.30978,"lon":5.39052,"is_reserved":false,"is_disabled":false,"rental_uris":{"android":"levelo://app?vid=65ecf4d4-cc5c-46d3-a0c0-3800c650a8aa","ios":"levelo://app?vid=65ecf4d4-cc5c-46d3-a0c0-3800c650a8aa"},"vehicle_type_id":"4","last_reported":1770712702,"current_range_meters":8000,"station_id":"ce4bgup2rcd13ifvqco0","pricing_plan_id":"cebpf4jnsgd1na2vs0mg"},{"bike_id":"d1006334-eff8-445f-9201-a0c70717fbd7","system_id":"levelo_inurba_marseille","lat":43.27926,"lon":5.41151,"is_reserved":false,"is_disabled":false,"rental_uris":{"android":"levelo://app?vid=d1006334-eff8-445f-9201-a0c70717fbd7","ios":"levelo://app?vid=d1006334-eff8-445f-9201-a0c70717fbd7"},"vehicle_type_id":"4","last_reported":1770712702,"current_range_meters":8000,"station_id":"","pricing_plan_id":"cebpf4jnsgd1na2vs0mg"},{"bike_id":"04f1e06e-c3dc-4e54-92bf-0fcd581b9622","system_id":"levelo_inurba_marseille","lat":43.30314,"lon":5.36904,"is_reserved":false,"is_disabled":false,"rental_uris":{"android":"levelo://app?vid=04f1e06e-c3dc-4e54-92bf-0fcd581b9622","ios":"levelo://app?vid=04f1e06e-c3dc-4e54-92bf-0fcd581b9622"},"vehicle_type_id":"4","last_reported":1770712702,"current_range_meters":8000,"station_id":"ce4bgqh2rcd13ifvqc5g","pricing_plan_id":"cebpf4jnsgd1na2vs0mg"},{"bike_id":"3e62a0fd-19ac-4f58-93af-6af710db8a94","system_id":"levelo_inurba_marseille","lat":43.22924,"lon":5.35389,"is_reserved":false,"is_disabled":false,"rental_uris":{"android":"levelo://app?vid=3e62a0fd-19ac-4f58-93af-6af710db8a94","ios":"levelo://app?vid=3e62a0fd-19ac-4f58-93af-6af710db8a94"},"vehicle_type_id":"4","last_reported":1770712702,"current_range_meters":8000,"station_id":"cpo3532slgdg3j2ikp40","pricing_plan_id":"cebpf4jnsgd1na2vs0mg"},{"bike_id":"a0773092-16ef-4439-aeaa-18f366b0fb73","system_id":"levelo_inurba_marseille","lat":43.27174,"lon":5.40996,"is_reserved":false,"is_disabled":false,"rental_uris":{"android":"levelo://app?vid=a0773092-16ef-4439-aeaa-18f366b0fb73","ios":"levelo://app?vid=a0773092-16ef-4439-aeaa-18f366b0fb73"},"vehicle_type_id":"4","last_reported":1770712702,"current_range_meters":8000,"station_id":"ce4bhl12rcd13ifvqgf0","pricing_plan_id":"cebpf4jnsgd1na2vs0mg"},{"bike_id":"0e6d39a0-fa68-440b-9e61-e5b9a3222293","system_id":"levelo_inurba_marseille","lat":43.26954,"lon":5.38622,"is_reserved":false,"is_disabled":false,"rental_uris":{"android":"levelo://app?vid=0e6d39a0-fa68-440b-9e61-e5b9a3222293","ios":"levelo://app?vid=0e6d39a0-fa68-440b-9e61-e5b9a3222293"},"vehicle_type_id":"4","last_reported":1770712702,"current_range_meters":8000,"station_id":"ce4bhh92rcd13ifvqfh0","pricing_plan_id":"cebpf4jnsgd1na2vs0mg"},{"bike_id":"43e820c3-1858-4667-9352-6c21601ce57b","system_id":"levelo_inurba_marseille","lat":43.29053,"lon":5.37572,"is_reserved":false,"is_disabled":false,"rental_uris":{"android":"levelo://app?vid=43e820c3-1858-4667-9352-6c21601ce57b","ios":"levelo://app?vid=43e820c3-1858-4667-9352-6c21601ce57b"},"vehicle_type_id":"4","last_reported":1770712702,"current_range_meters":8000,"station_id":"ce4bh692rcd13ifvqe90","pricing_plan_id":"cebpf4jnsgd1na2vs0mg"},{"bike_id":"dcffb64c-9bea-40cd-a5fe-c7eeb8475cd8","system_id":"levelo_inurba_marseille","lat":43.30314,"lon":5.37713,"is_reserved":false,"is_disabled":false,"rental_uris":{"android":"levelo://app?vid=dcffb64c-9bea-40cd-a5fe-c7eeb8475cd8","ios":"levelo://app?vid=dcffb64c-9bea-40cd-a5fe-c7eeb8475cd8"},"vehicle_type_id":"4","last_reported":1770712702,"current_range_meters":8400,"station_id":"ce4bguh2rcd13ifvqcj0","pricing_plan_id":"cebpf4jnsgd1na2vs0mg"},{"bike_id":"55fcccf6-928a-41e2-a987-5e19691aae06","system_id":"levelo_inurba_marseille","lat":43.27933,"lon":5.38683,"is_reserved":false,"is_disabled":false,"rental_uris":{"android":"levelo://app?vid=55fcccf6-928a-41e2-a987-5e19691aae06","ios":"levelo://app?vid=55fcccf6-928a-41e2-a987-5e19691aae06"},"vehicle_type_id":"4","last_reported":1770712702,"current_range_meters":8400,"station_id":"","pricing_plan_id":"cebpf4jnsgd1na2vs0mg"},{"bike_id":"9d433c1e-724d-477b-878b-6bc28b7186b4","system_id":"levelo_inurba_marseille","lat":43.2915,"lon":5.40069,"is_reserved":false,"is_disabled":false,"rental_uris":{"android":"levelo://app?vid=9d433c1e-724d-477b-878b-6bc28b7186b4","ios":"levelo://app?vid=9d433c1e-724d-477b-878b-6bc28b7186b4"},"vehicle_type_id":"4","last_reported":1770712702,"current_range_meters":8400,"station_id":"","pricing_plan_id":"cebpf4jnsgd1na2vs0mg"},{"bike_id":"c2ee5011-95d1-4259-a414-90824a7fa12b","system_id":"levelo_inurba_marseille","lat":43.30309,"lon":5.36908,"is_reserved":false,"is_disabled":false,"rental_uris":{"android":"levelo://app?vid=c2ee5011-95d1-4259-a414-90824a7fa12b","ios":"levelo://app?vid=c2ee5011-95d1-4259-a414-90824a7fa12b"},"vehicle_type_id":"4","last_reported":1770712702,"current_range_meters":8400,"station_id":"ce4bgqh2rcd13ifvqc5g","pricing_plan_id":"cebpf4jnsgd1na2vs0mg"},{"bike_id":"e0450db0-c8b3-4403-bc43-ed5a007877b8","system_id":"levelo_inurba_marseille","lat":43.24627,"lon":5.43143,"is_reserved":false,"is_disabled":false,"rental_uris":{"android":"levelo://app?vid=e0450db0-c8b3-4403-bc43-ed5a007877b8","ios":"levelo://app?vid=e0450db0-c8b3-4403-bc43-ed5a007877b8"},"vehicle_type_id":"4","last_reported":1770712702,"current_range_meters":8400,"station_id":"st_d2m6c4gdas8pm72e190g","pricing_plan_id":"cebpf4jnsgd1na2vs0mg"},{"bike_id":"652029fd-7389-40d5-a0bd-e85f7aa43d7c","system_id":"levelo_inurba_marseille","lat":43.22557,"lon":5.41636,"is_reserved":false,"is_disabled":false,"rental_uris":{"android":"levelo://app?vid=652029fd-7389-40d5-a0bd-e85f7aa43d7c","ios":"levelo://app?vid=652029fd-7389-40d5-a0bd-e85f7aa43d7c"},"vehicle_type_id":"4","last_reported":1770712702,"current_range_meters":8400,"station_id":"st_d2o4gvlbi1j2169b742g","pricing_plan_id":"cebpf4jnsgd1na2vs0mg"},{"bike_id":"ee213b40-802c-442b-9390-5e22834db5df","system_id":"levelo_inurba_marseille","lat":43.24164,"lon":5.36398,"is_reserved":false,"is_disabled":false,"rental_uris":{"android":"levelo://app?vid=ee213b40-802c-442b-9390-5e22834db5df","ios":"levelo://app?vid=ee213b40-802c-442b-9390-5e22834db5df"},"vehicle_type_id":"4","last_reported":1770712702,"current_range_meters":8400,"station_id":"cpo36qri1sfpv3e86is0","pricing_plan_id":"cebpf4jnsgd1na2vs0mg"},{"bike_id":"eb988073-8fe7-4bb4-897d-222ac9bc4a1f","system_id":"levelo_inurba_marseille","lat":43.2586,"lon":5.39905,"is_reserved":false,"is_disabled":false,"rental_uris":{"android":"levelo://app?vid=eb988073-8fe7-4bb4-897d-222ac9bc4a1f","ios":"levelo://app?vid=eb988073-8fe7-4bb4-897d-222ac9bc4a1f"},"vehicle_type_id":"4","last_reported":1770712702,"current_range_meters":8400,"station_id":"ce4bhl92rcd13ifvqghg","pricing_plan_id":"cebpf4jnsgd1na2vs0mg"},{"bike_id":"61e7a56e-a3a9-4b6a-8720-cb799648adf1","system_id":"levelo_inurba_marseille","lat":43.30327,"lon":5.36879,"is_reserved":false,"is_disabled":false,"rental_uris":{"android":"levelo://app?vid=61e7a56e-a3a9-4b6a-8720-cb799648adf1","ios":"levelo://app?vid=61e7a56e-a3a9-4b6a-8720-cb799648adf1"},"vehicle_type_id":"4","last_reported":1770712702,"current_range_meters":8400,"station_id":"ce4bgqh2rcd13ifvqc5g","pricing_plan_id":"cebpf4jnsgd1na2vs0mg"},{"bike_id":"5f7df976-2770-4b0d-bd16-1a5d3e4bd86a","system_id":"levelo_inurba_marseille","lat":43.26028,"lon":5.37553,"is_reserved":false,"is_disabled":false,"rental_uris":{"android":"levelo://app?vid=5f7df976-2770-4b0d-bd16-1a5d3e4bd86a","ios":"levelo://app?vid=5f7df976-2770-4b0d-bd16-1a5d3e4bd86a"},"vehicle_type_id":"4","last_reported":1770712702,"current_range_meters":8400,"station_id":"ce4bhgh2rcd13ifvqfa0","pricing_plan_id":"cebpf4jnsgd1na2vs0mg"},{"bike_id":"c6bba051-2987-4068-9b3f-af263ee62dbf","system_id":"levelo_inurba_marseille","lat":43.26486,"lon":5.39597,"is_reserved":false,"is_disabled":false,"rental_uris":{"android":"levelo://app?vid=c6bba051-2987-4068-9b3f-af263ee62dbf","ios":"levelo://app?vid=c6bba051-2987-4068-9b3f-af263ee62dbf"},"vehicle_type_id":"4","last_reported":1770712702,"current_range_meters":8400,"station_id":"ce4bhi12rcd13ifvqfq0","pricing_plan_id":"cebpf4jnsgd1na2vs0mg"},{"bike_id":"46b69bcd-f35a-433e-b9f1-16ab03d0ac0e","system_id":"levelo_inurba_marseille","lat":43.25837,"lon":5.39938,"is_reserved":false,"is_disabled":false,"rental_uris":{"android":"levelo://app?vid=46b69bcd-f35a-433e-b9f1-16ab03d0ac0e","ios":"levelo://app?vid=46b69bcd-f35a-433e-b9f1-16ab03d0ac0e"},"vehicle_type_id":"4","last_reported":1770712702,"current_range_meters":8400,"station_id":"ce4bhl92rcd13ifvqghg","pricing_plan_id":"cebpf4jnsgd1na2vs0mg"},{"bike_id":"56f36c5c-54b3-48e5-938d-65f443f77268","system_id":"levelo_inurba_marseille","lat":43.31347,"lon":5.36714,"is_reserved":false,"is_disabled":false,"rental_uris":{"android":"levelo://app?vid=56f36c5c-54b3-48e5-938d-65f443f77268","ios":"levelo://app?vid=56f36c5c-54b3-48e5-938d-65f443f77268"},"vehicle_type_id":"4","last_reported":1770712702,"current_range_meters":8400,"station_id":"ce4bgr92rcd13ifvqc6g","pricing_plan_id":"cebpf4jnsgd1na2vs0mg"},{"bike_id":"ab8ed30d-dd64-45c7-9d56-1700378f985a","system_id":"levelo_inurba_marseille","lat":43.2556,"lon":5.38239,"is_reserved":false,"is_disabled":false,"rental_uris":{"android":"levelo://app?vid=ab8ed30d-dd64-45c7-9d56-1700378f985a","ios":"levelo://app?vid=ab8ed30d-dd64-45c7-9d56-1700378f985a"},"vehicle_type_id":"4","last_reported":1770712702,"current_range_meters":8400,"station_id":"ce4bhih2rcd13ifvqfs0","pricing_plan_id":"cebpf4jnsgd1na2vs0mg"},{"bike_id":"1f6cee9d-2f7f-49e5-85f7-fbc08a02328c","system_id":"levelo_inurba_marseille","lat":43.2752,"lon":5.4236,"is_reserved":false,"is_disabled":false,"rental_uris":{"android":"levelo://app?vid=1f6cee9d-2f7f-49e5-85f7-fbc08a02328c","ios":"levelo://app?vid=1f6cee9d-2f7f-49e5-85f7-fbc08a02328c"},"vehicle_type_id":"4","last_reported":1770712702,"current_range_meters":8400,"station_id":"","pricing_plan_id":"cebpf4jnsgd1na2vs0mg"},{"bike_id":"81ebff73-3e20-4932-92af-c1179497d0c2","system_id":"levelo_inurba_marseille","lat":43.27322,"lon":5.39065,"is_reserved":false,"is_disabled":false,"rental_uris":{"android":"levelo://app?vid=81ebff73-3e20-4932-92af-c1179497d0c2","ios":"levelo://app?vid=81ebff73-3e20-4932-92af-c1179497d0c2"},"vehicle_type_id":"4","last_reported":1770712702,"current_range_meters":8400,"station_id":"ce4bhgp2rcd13ifvqfe0","pricing_plan_id":"cebpf4jnsgd1na2vs0mg"},{"bike_id":"23faf02b-28d8-4a14-a292-ffbec7ab0604","system_id":"levelo_inurba_marseille","lat":43.268026,"lon":5.402696,"is_reserved":false,"is_disabled":false,"rental_uris":{"android":"levelo://app?vid=23faf02b-28d8-4a14-a292-ffbec7ab0604","ios":"levelo://app?vid=23faf02b-28d8-4a14-a292-ffbec7ab0604"},"vehicle_type_id":"4","last_reported":1770712702,"current_range_meters":8400,"station_id":"ce501612rcd8frsf0b60","pricing_plan_id":"cebpf4jnsgd1na2vs0mg"},{"bike_id":"22d8d839-db4c-4efa-bd5d-d78efaca55ca","system_id":"levelo_inurba_marseille","lat":43.25588,"lon":5.38249,"is_reserved":false,"is_disabled":false,"rental_uris":{"android":"levelo://app?vid=22d8d839-db4c-4efa-bd5d-d78efaca55ca","ios":"levelo://app?vid=22d8d839-db4c-4efa-bd5d-d78efaca55ca"},"vehicle_type_id":"4","last_reported":1770712702,"current_range_meters":8400,"station_id":"ce4bhih2rcd13ifvqfs0","pricing_plan_id":"cebpf4jnsgd1na2vs0mg"},{"bike_id":"1b9f2b5b-5074-42d2-aee0-b5d78af1932e","system_id":"levelo_inurba_marseille","lat":43.27517,"lon":5.42384,"is_reserved":false,"is_disabled":false,"rental_uris":{"android":"levelo://app?vid=1b9f2b5b-5074-42d2-aee0-b5d78af1932e","ios":"levelo://app?vid=1b9f2b5b-5074-42d2-aee0-b5d78af1932e"},"vehicle_type_id":"4","last_reported":1770712702,"current_range_meters":8400,"station_id":"","pricing_plan_id":"cebpf4jnsgd1na2vs0mg"},{"bike_id":"0dc590ec-14e3-4507-a126-5f1063974b22","system_id":"levelo_inurba_marseille","lat":43.24161,"lon":5.36412,"is_reserved":false,"is_disabled":false,"rental_uris":{"android":"levelo://app?vid=0dc590ec-14e3-4507-a126-5f1063974b22","ios":"levelo://app?vid=0dc590ec-14e3-4507-a126-5f1063974b22"},"vehicle_type_id":"4","last_reported":1770712702,"current_range_meters":8400,"station_id":"cpo36qri1sfpv3e86is0","pricing_plan_id":"cebpf4jnsgd1na2vs0mg"},{"bike_id":"cab9c833-d115-4e76-83be-ce0cdefaa264","system_id":"levelo_inurba_marseille","lat":43.27493,"lon":5.42462,"is_reserved":false,"is_disabled":false,"rental_uris":{"android":"levelo://app?vid=cab9c833-d115-4e76-83be-ce0cdefaa264","ios":"levelo://app?vid=cab9c833-d115-4e76-83be-ce0cdefaa264"},"vehicle_type_id":"4","last_reported":1770712702,"current_range_meters":8400,"station_id":"ce4bhn92rcd13ifvqgrg","pricing_plan_id":"cebpf4jnsgd1na2vs0mg"},{"bike_id":"6f6a04ad-dd00-4f4a-bdfd-a835cfa0cc11","system_id":"levelo_inurba_marseille","lat":43.270665,"lon":5.383088,"is_reserved":false,"is_disabled":false,"rental_uris":{"android":"levelo://app?vid=6f6a04ad-dd00-4f4a-bdfd-a835cfa0cc11","ios":"levelo://app?vid=6f6a04ad-dd00-4f4a-bdfd-a835cfa0cc11"},"vehicle_type_id":"4","last_reported":1770712702,"current_range_meters":8800,"station_id":"st_d3n2fo6cfp8s73cte1j0","pricing_plan_id":"cebpf4jnsgd1na2vs0mg"},{"bike_id":"eecb876d-7ef5-422b-8a90-7e8154c0623a","system_id":"levelo_inurba_marseille","lat":43.28442,"lon":5.392,"is_reserved":false,"is_disabled":false,"rental_uris":{"android":"levelo://app?vid=eecb876d-7ef5-422b-8a90-7e8154c0623a","ios":"levelo://app?vid=eecb876d-7ef5-422b-8a90-7e8154c0623a"},"vehicle_type_id":"4","last_reported":1770712702,"current_range_meters":8800,"station_id":"ce4bhoh2rcd13ifvqh5g","pricing_plan_id":"cebpf4jnsgd1na2vs0mg"},{"bike_id":"508af785-032d-4df0-b8fe-11d0a1bf5f67","system_id":"levelo_inurba_marseille","lat":43.30121,"lon":5.43114,"is_reserved":false,"is_disabled":false,"rental_uris":{"android":"levelo://app?vid=508af785-032d-4df0-b8fe-11d0a1bf5f67","ios":"levelo://app?vid=508af785-032d-4df0-b8fe-11d0a1bf5f67"},"vehicle_type_id":"4","last_reported":1770712702,"current_range_meters":8800,"station_id":"st_d3js3co5814s73ftftug","pricing_plan_id":"cebpf4jnsgd1na2vs0mg"},{"bike_id":"7fee4d57-63b7-4ed9-893d-aff938a29878","system_id":"levelo_inurba_marseille","lat":43.30214,"lon":5.39446,"is_reserved":false,"is_disabled":false,"rental_uris":{"android":"levelo://app?vid=7fee4d57-63b7-4ed9-893d-aff938a29878","ios":"levelo://app?vid=7fee4d57-63b7-4ed9-893d-aff938a29878"},"vehicle_type_id":"4","last_reported":1770712702,"current_range_meters":8800,"station_id":"ce4bh0p2rcd13ifvqd70","pricing_plan_id":"cebpf4jnsgd1na2vs0mg"},{"bike_id":"c510c712-03e5-449a-a36e-db1d23a82731","system_id":"levelo_inurba_marseille","lat":43.27516,"lon":5.42469,"is_reserved":false,"is_disabled":false,"rental_uris":{"android":"levelo://app?vid=c510c712-03e5-449a-a36e-db1d23a82731","ios":"levelo://app?vid=c510c712-03e5-449a-a36e-db1d23a82731"},"vehicle_type_id":"4","last_reported":1770712702,"current_range_meters":8800,"station_id":"ce4bhn92rcd13ifvqgrg","pricing_plan_id":"cebpf4jnsgd1na2vs0mg"},{"bike_id":"0512ff03-5632-463b-8a2f-a58a24edff66","system_id":"levelo_inurba_marseille","lat":43.26386,"lon":5.41054,"is_reserved":false,"is_disabled":false,"rental_uris":{"android":"levelo://app?vid=0512ff03-5632-463b-8a2f-a58a24edff66","ios":"levelo://app?vid=0512ff03-5632-463b-8a2f-a58a24edff66"},"vehicle_type_id":"4","last_reported":1770712702,"current_range_meters":8800,"station_id":"st_d4e5ca6na9uc73bfl5fg","pricing_plan_id":"cebpf4jnsgd1na2vs0mg"},{"bike_id":"39def431-36ef-46f1-bd68-27ce43d3d8d3","system_id":"levelo_inurba_marseille","lat":43.30216,"lon":5.39465,"is_reserved":false,"is_disabled":false,"rental_uris":{"android":"levelo://app?vid=39def431-36ef-46f1-bd68-27ce43d3d8d3","ios":"levelo://app?vid=39def431-36ef-46f1-bd68-27ce43d3d8d3"},"vehicle_type_id":"4","last_reported":1770712702,"current_range_meters":8800,"station_id":"ce4bh0p2rcd13ifvqd70","pricing_plan_id":"cebpf4jnsgd1na2vs0mg"},{"bike_id":"77d01ae0-caa8-4229-b1d9-66eebccb18ba","system_id":"levelo_inurba_marseille","lat":43.30329,"lon":5.36882,"is_reserved":false,"is_disabled":false,"rental_uris":{"android":"levelo://app?vid=77d01ae0-caa8-4229-b1d9-66eebccb18ba","ios":"levelo://app?vid=77d01ae0-caa8-4229-b1d9-66eebccb18ba"},"vehicle_type_id":"4","last_reported":1770712702,"current_range_meters":8800,"station_id":"ce4bgqh2rcd13ifvqc5g","pricing_plan_id":"cebpf4jnsgd1na2vs0mg"},{"bike_id":"87056c0a-278d-470f-af70-99a4eb084f35","system_id":"levelo_inurba_marseille","lat":43.2464,"lon":5.43141,"is_reserved":false,"is_disabled":false,"rental_uris":{"android":"levelo://app?vid=87056c0a-278d-470f-af70-99a4eb084f35","ios":"levelo://app?vid=87056c0a-278d-470f-af70-99a4eb084f35"},"vehicle_type_id":"4","last_reported":1770712702,"current_range_meters":8800,"station_id":"st_d2m6c4gdas8pm72e190g","pricing_plan_id":"cebpf4jnsgd1na2vs0mg"},{"bike_id":"9c675434-4a25-4db9-9405-885fd54a3423","system_id":"levelo_inurba_marseille","lat":43.27617,"lon":5.36111,"is_reserved":false,"is_disabled":false,"rental_uris":{"android":"levelo://app?vid=9c675434-4a25-4db9-9405-885fd54a3423","ios":"levelo://app?vid=9c675434-4a25-4db9-9405-885fd54a3423"},"vehicle_type_id":"4","last_reported":1770712702,"current_range_meters":8800,"station_id":"ce4bgj92rcd13ifvqbe0","pricing_plan_id":"cebpf4jnsgd1na2vs0mg"},{"bike_id":"3f8bfcbc-5200-4097-84a4-35e09cf8d7ef","system_id":"levelo_inurba_marseille","lat":43.27909,"lon":5.39561,"is_reserved":false,"is_disabled":false,"rental_uris":{"android":"levelo://app?vid=3f8bfcbc-5200-4097-84a4-35e09cf8d7ef","ios":"levelo://app?vid=3f8bfcbc-5200-4097-84a4-35e09cf8d7ef"},"vehicle_type_id":"4","last_reported":1770712702,"current_range_meters":8800,"station_id":"ce4bhf92rcd13ifvqf40","pricing_plan_id":"cebpf4jnsgd1na2vs0mg"},{"bike_id":"2932c2a7-1dbb-4a48-b5b7-c9a044185445","system_id":"levelo_inurba_marseille","lat":43.27941,"lon":5.38743,"is_reserved":false,"is_disabled":false,"rental_uris":{"android":"levelo://app?vid=2932c2a7-1dbb-4a48-b5b7-c9a044185445","ios":"levelo://app?vid=2932c2a7-1dbb-4a48-b5b7-c9a044185445"},"vehicle_type_id":"4","last_reported":1770712702,"current_range_meters":8800,"station_id":"ce4bhg12rcd13ifvqf80","pricing_plan_id":"cebpf4jnsgd1na2vs0mg"},{"bike_id":"2681e51f-301f-4789-972f-a93621c235a0","system_id":"levelo_inurba_marseille","lat":43.29559,"lon":5.4229,"is_reserved":false,"is_disabled":false,"rental_uris":{"android":"levelo://app?vid=2681e51f-301f-4789-972f-a93621c235a0","ios":"levelo://app?vid=2681e51f-301f-4789-972f-a93621c235a0"},"vehicle_type_id":"4","last_reported":1770712702,"current_range_meters":8800,"station_id":"ce4bhph2rcd13ifvqhdg","pricing_plan_id":"cebpf4jnsgd1na2vs0mg"},{"bike_id":"b0577ca1-afa8-48fa-be5c-f4673c1a2294","system_id":"levelo_inurba_marseille","lat":43.27973,"lon":5.41315,"is_reserved":false,"is_disabled":false,"rental_uris":{"android":"levelo://app?vid=b0577ca1-afa8-48fa-be5c-f4673c1a2294","ios":"levelo://app?vid=b0577ca1-afa8-48fa-be5c-f4673c1a2294"},"vehicle_type_id":"4","last_reported":1770712702,"current_range_meters":8800,"station_id":"","pricing_plan_id":"cebpf4jnsgd1na2vs0mg"},{"bike_id":"5d0d6af4-133f-4c13-9fcb-e31db761108a","system_id":"levelo_inurba_marseille","lat":43.31222,"lon":5.36821,"is_reserved":false,"is_disabled":false,"rental_uris":{"android":"levelo://app?vid=5d0d6af4-133f-4c13-9fcb-e31db761108a","ios":"levelo://app?vid=5d0d6af4-133f-4c13-9fcb-e31db761108a"},"vehicle_type_id":"4","last_reported":1770712702,"current_range_meters":8800,"station_id":"ce4bgl92rcd13ifvqbq0","pricing_plan_id":"cebpf4jnsgd1na2vs0mg"},{"bike_id":"dd381a27-44eb-4347-b21c-b054b5fe0254","system_id":"levelo_inurba_marseille","lat":43.30156,"lon":5.38084,"is_reserved":false,"is_disabled":false,"rental_uris":{"android":"levelo://app?vid=dd381a27-44eb-4347-b21c-b054b5fe0254","ios":"levelo://app?vid=dd381a27-44eb-4347-b21c-b054b5fe0254"},"vehicle_type_id":"4","last_reported":1770712702,"current_range_meters":8800,"station_id":"ce4bgjp2rcd13ifvqbh0","pricing_plan_id":"cebpf4jnsgd1na2vs0mg"},{"bike_id":"914bd365-2174-44e8-81f6-c3c68ba64874","system_id":"levelo_inurba_marseille","lat":43.23192,"lon":5.3998,"is_reserved":false,"is_disabled":false,"rental_uris":{"android":"levelo://app?vid=914bd365-2174-44e8-81f6-c3c68ba64874","ios":"levelo://app?vid=914bd365-2174-44e8-81f6-c3c68ba64874"},"vehicle_type_id":"4","last_reported":1770712702,"current_range_meters":8800,"station_id":"ce4bhn12rcd13ifvqgqg","pricing_plan_id":"cebpf4jnsgd1na2vs0mg"},{"bike_id":"1d84a6a9-53dd-4546-9d02-4bb696d8451e","system_id":"levelo_inurba_marseille","lat":43.317035,"lon":5.373968,"is_reserved":false,"is_disabled":false,"rental_uris":{"android":"levelo://app?vid=1d84a6a9-53dd-4546-9d02-4bb696d8451e","ios":"levelo://app?vid=1d84a6a9-53dd-4546-9d02-4bb696d8451e"},"vehicle_type_id":"4","last_reported":1770712702,"current_range_meters":8800,"station_id":"","pricing_plan_id":"cebpf4jnsgd1na2vs0mg"},{"bike_id":"4f81683f-f2d6-4623-9b45-d08bb7426b61","system_id":"levelo_inurba_marseille","lat":43.26686,"lon":5.38266,"is_reserved":false,"is_disabled":false,"rental_uris":{"android":"levelo://app?vid=4f81683f-f2d6-4623-9b45-d08bb7426b61","ios":"levelo://app?vid=4f81683f-f2d6-4623-9b45-d08bb7426b61"},"vehicle_type_id":"4","last_reported":1770712702,"current_range_meters":8800,"station_id":"ce4bhg92rcd13ifvqf90","pricing_plan_id":"cebpf4jnsgd1na2vs0mg"},{"bike_id":"91325359-8737-490e-88df-fb78f1f43233","system_id":"levelo_inurba_marseille","lat":43.27933,"lon":5.38706,"is_reserved":false,"is_disabled":false,"rental_uris":{"android":"levelo://app?vid=91325359-8737-490e-88df-fb78f1f43233","ios":"levelo://app?vid=91325359-8737-490e-88df-fb78f1f43233"},"vehicle_type_id":"4","last_reported":1770712702,"current_range_meters":9200,"station_id":"","pricing_plan_id":"cebpf4jnsgd1na2vs0mg"},{"bike_id":"531379dd-d9cb-4544-8ef3-01f94b3ce6fd","system_id":"levelo_inurba_marseille","lat":43.25333,"lon":5.42181,"is_reserved":false,"is_disabled":false,"rental_uris":{"android":"levelo://app?vid=531379dd-d9cb-4544-8ef3-01f94b3ce6fd","ios":"levelo://app?vid=531379dd-d9cb-4544-8ef3-01f94b3ce6fd"},"vehicle_type_id":"4","last_reported":1770712702,"current_range_meters":9200,"station_id":"st_d2m65c5bi1j21697t3ng","pricing_plan_id":"cebpf4jnsgd1na2vs0mg"},{"bike_id":"690a04a1-182c-4652-992a-2774b1ea7c6b","system_id":"levelo_inurba_marseille","lat":43.22559,"lon":5.41624,"is_reserved":false,"is_disabled":false,"rental_uris":{"android":"levelo://app?vid=690a04a1-182c-4652-992a-2774b1ea7c6b","ios":"levelo://app?vid=690a04a1-182c-4652-992a-2774b1ea7c6b"},"vehicle_type_id":"4","last_reported":1770712702,"current_range_meters":9200,"station_id":"st_d2o4gvlbi1j2169b742g","pricing_plan_id":"cebpf4jnsgd1na2vs0mg"},{"bike_id":"1a6931c3-c546-4357-849f-5f88130c949d","system_id":"levelo_inurba_marseille","lat":43.25094,"lon":5.39528,"is_reserved":false,"is_disabled":false,"rental_uris":{"android":"levelo://app?vid=1a6931c3-c546-4357-849f-5f88130c949d","ios":"levelo://app?vid=1a6931c3-c546-4357-849f-5f88130c949d"},"vehicle_type_id":"4","last_reported":1770712702,"current_range_meters":9200,"station_id":"ce4bhm12rcd13ifvqgkg","pricing_plan_id":"cebpf4jnsgd1na2vs0mg"},{"bike_id":"831ec5ed-69af-48bf-919a-3b6703805bc4","system_id":"levelo_inurba_marseille","lat":43.27976,"lon":5.38723,"is_reserved":false,"is_disabled":false,"rental_uris":{"android":"levelo://app?vid=831ec5ed-69af-48bf-919a-3b6703805bc4","ios":"levelo://app?vid=831ec5ed-69af-48bf-919a-3b6703805bc4"},"vehicle_type_id":"4","last_reported":1770712702,"current_range_meters":9200,"station_id":"ce4bhg12rcd13ifvqf80","pricing_plan_id":"cebpf4jnsgd1na2vs0mg"},{"bike_id":"0cad91d7-1079-467e-882f-8f8ec527c2c5","system_id":"levelo_inurba_marseille","lat":43.23204,"lon":5.39922,"is_reserved":false,"is_disabled":true,"rental_uris":{"android":"levelo://app?vid=0cad91d7-1079-467e-882f-8f8ec527c2c5","ios":"levelo://app?vid=0cad91d7-1079-467e-882f-8f8ec527c2c5"},"vehicle_type_id":"4","last_reported":1770712702,"current_range_meters":9200,"station_id":"","pricing_plan_id":"cebpf4jnsgd1na2vs0mg"},{"bike_id":"c419d6ff-2dec-4007-bfa6-b30a8ffe9253","system_id":"levelo_inurba_marseille","lat":43.22899,"lon":5.35445,"is_reserved":false,"is_disabled":false,"rental_uris":{"android":"levelo://app?vid=c419d6ff-2dec-4007-bfa6-b30a8ffe9253","ios":"levelo://app?vid=c419d6ff-2dec-4007-bfa6-b30a8ffe9253"},"vehicle_type_id":"4","last_reported":1770712702,"current_range_meters":9200,"station_id":"cpo3532slgdg3j2ikp40","pricing_plan_id":"cebpf4jnsgd1na2vs0mg"},{"bike_id":"fe93e1cf-f714-4e41-9dff-90a24aa5f3b8","system_id":"levelo_inurba_marseille","lat":43.24392,"lon":5.37068,"is_reserved":false,"is_disabled":false,"rental_uris":{"android":"levelo://app?vid=fe93e1cf-f714-4e41-9dff-90a24aa5f3b8","ios":"levelo://app?vid=fe93e1cf-f714-4e41-9dff-90a24aa5f3b8"},"vehicle_type_id":"4","last_reported":1770712702,"current_range_meters":9200,"station_id":"ce4bhhh2rcd13ifvqfk0","pricing_plan_id":"cebpf4jnsgd1na2vs0mg"},{"bike_id":"ffbe3718-fb64-481b-bbfe-6664f18f61cb","system_id":"levelo_inurba_marseille","lat":43.24624,"lon":5.43165,"is_reserved":false,"is_disabled":false,"rental_uris":{"android":"levelo://app?vid=ffbe3718-fb64-481b-bbfe-6664f18f61cb","ios":"levelo://app?vid=ffbe3718-fb64-481b-bbfe-6664f18f61cb"},"vehicle_type_id":"4","last_reported":1770712702,"current_range_meters":9200,"station_id":"st_d2m6c4gdas8pm72e190g","pricing_plan_id":"cebpf4jnsgd1na2vs0mg"},{"bike_id":"50b635d3-0b93-40ca-af60-8fdd9b2f83d2","system_id":"levelo_inurba_marseille","lat":43.29764,"lon":5.3813,"is_reserved":false,"is_disabled":true,"rental_uris":{"android":"levelo://app?vid=50b635d3-0b93-40ca-af60-8fdd9b2f83d2","ios":"levelo://app?vid=50b635d3-0b93-40ca-af60-8fdd9b2f83d2"},"vehicle_type_id":"4","last_reported":1770712702,"current_range_meters":9200,"station_id":"ce4bgip2rcd13ifvqbb0","pricing_plan_id":"cebpf4jnsgd1na2vs0mg"},{"bike_id":"4659f5f2-43a6-4213-b84f-184d5dec64b3","system_id":"levelo_inurba_marseille","lat":43.3355,"lon":5.37448,"is_reserved":false,"is_disabled":false,"rental_uris":{"android":"levelo://app?vid=4659f5f2-43a6-4213-b84f-184d5dec64b3","ios":"levelo://app?vid=4659f5f2-43a6-4213-b84f-184d5dec64b3"},"vehicle_type_id":"4","last_reported":1770712702,"current_range_meters":9200,"station_id":"st_d46tts09ee8s73dlu43g","pricing_plan_id":"cebpf4jnsgd1na2vs0mg"},{"bike_id":"475fae78-75f9-4675-8012-304224f10313","system_id":"levelo_inurba_marseille","lat":43.33538,"lon":5.37502,"is_reserved":false,"is_disabled":false,"rental_uris":{"android":"levelo://app?vid=475fae78-75f9-4675-8012-304224f10313","ios":"levelo://app?vid=475fae78-75f9-4675-8012-304224f10313"},"vehicle_type_id":"4","last_reported":1770712702,"current_range_meters":9200,"station_id":"st_d46tts09ee8s73dlu43g","pricing_plan_id":"cebpf4jnsgd1na2vs0mg"},{"bike_id":"8aad93f0-467e-4e9e-a2b0-8a5ca2fa0db6","system_id":"levelo_inurba_marseille","lat":43.29005,"lon":5.3814,"is_reserved":false,"is_disabled":false,"rental_uris":{"android":"levelo://app?vid=8aad93f0-467e-4e9e-a2b0-8a5ca2fa0db6","ios":"levelo://app?vid=8aad93f0-467e-4e9e-a2b0-8a5ca2fa0db6"},"vehicle_type_id":"4","last_reported":1770712702,"current_range_meters":9200,"station_id":"ce4bh4p2rcd13ifvqe1g","pricing_plan_id":"cebpf4jnsgd1na2vs0mg"},{"bike_id":"022495c5-b220-47df-a910-640b30b657d5","system_id":"levelo_inurba_marseille","lat":43.30557,"lon":5.36665,"is_reserved":false,"is_disabled":false,"rental_uris":{"android":"levelo://app?vid=022495c5-b220-47df-a910-640b30b657d5","ios":"levelo://app?vid=022495c5-b220-47df-a910-640b30b657d5"},"vehicle_type_id":"4","last_reported":1770712702,"current_range_meters":9200,"station_id":"","pricing_plan_id":"cebpf4jnsgd1na2vs0mg"},{"bike_id":"eb54f403-f5f5-4152-9cd4-d31f05df5ad8","system_id":"levelo_inurba_marseille","lat":43.26258,"lon":5.40494,"is_reserved":false,"is_disabled":false,"rental_uris":{"android":"levelo://app?vid=eb54f403-f5f5-4152-9cd4-d31f05df5ad8","ios":"levelo://app?vid=eb54f403-f5f5-4152-9cd4-d31f05df5ad8"},"vehicle_type_id":"4","last_reported":1770712702,"current_range_meters":9200,"station_id":"","pricing_plan_id":"cebpf4jnsgd1na2vs0mg"},{"bike_id":"06d34be2-e563-4859-8e59-dd5a798cf9ac","system_id":"levelo_inurba_marseille","lat":43.26396,"lon":5.41076,"is_reserved":false,"is_disabled":false,"rental_uris":{"android":"levelo://app?vid=06d34be2-e563-4859-8e59-dd5a798cf9ac","ios":"levelo://app?vid=06d34be2-e563-4859-8e59-dd5a798cf9ac"},"vehicle_type_id":"4","last_reported":1770712702,"current_range_meters":9200,"station_id":"st_d4e5ca6na9uc73bfl5fg","pricing_plan_id":"cebpf4jnsgd1na2vs0mg"},{"bike_id":"f3631fda-c0c0-441a-a203-114b757c2c60","system_id":"levelo_inurba_marseille","lat":43.27396,"lon":5.39388,"is_reserved":false,"is_disabled":false,"rental_uris":{"android":"levelo://app?vid=f3631fda-c0c0-441a-a203-114b757c2c60","ios":"levelo://app?vid=f3631fda-c0c0-441a-a203-114b757c2c60"},"vehicle_type_id":"4","last_reported":1770712702,"current_range_meters":9200,"station_id":"ce4bhdp2rcd13ifvqf20","pricing_plan_id":"cebpf4jnsgd1na2vs0mg"},{"bike_id":"a595811d-e4a2-4edd-bc38-2905c562c34e","system_id":"levelo_inurba_marseille","lat":43.33538,"lon":5.37499,"is_reserved":false,"is_disabled":false,"rental_uris":{"android":"levelo://app?vid=a595811d-e4a2-4edd-bc38-2905c562c34e","ios":"levelo://app?vid=a595811d-e4a2-4edd-bc38-2905c562c34e"},"vehicle_type_id":"4","last_reported":1770712702,"current_range_meters":9200,"station_id":"st_d46tts09ee8s73dlu43g","pricing_plan_id":"cebpf4jnsgd1na2vs0mg"},{"bike_id":"eaa4e92f-aaf1-4952-bcff-4058cf6fb5be","system_id":"levelo_inurba_marseille","lat":43.30145,"lon":5.38084,"is_reserved":false,"is_disabled":false,"rental_uris":{"android":"levelo://app?vid=eaa4e92f-aaf1-4952-bcff-4058cf6fb5be","ios":"levelo://app?vid=eaa4e92f-aaf1-4952-bcff-4058cf6fb5be"},"vehicle_type_id":"4","last_reported":1770712702,"current_range_meters":9200,"station_id":"ce4bgjp2rcd13ifvqbh0","pricing_plan_id":"cebpf4jnsgd1na2vs0mg"},{"bike_id":"fc5cd381-e577-4ded-bbbc-0892a572a3bc","system_id":"levelo_inurba_marseille","lat":43.25341,"lon":5.402321,"is_reserved":false,"is_disabled":false,"rental_uris":{"android":"levelo://app?vid=fc5cd381-e577-4ded-bbbc-0892a572a3bc","ios":"levelo://app?vid=fc5cd381-e577-4ded-bbbc-0892a572a3bc"},"vehicle_type_id":"4","last_reported":1770712702,"current_range_meters":9200,"station_id":"ce4bhlh2rcd13ifvqgig","pricing_plan_id":"cebpf4jnsgd1na2vs0mg"},{"bike_id":"bb58d1ff-0c7f-4e5a-b3bc-0ec03eae9f93","system_id":"levelo_inurba_marseille","lat":43.291945,"lon":5.357523,"is_reserved":false,"is_disabled":false,"rental_uris":{"android":"levelo://app?vid=bb58d1ff-0c7f-4e5a-b3bc-0ec03eae9f93","ios":"levelo://app?vid=bb58d1ff-0c7f-4e5a-b3bc-0ec03eae9f93"},"vehicle_type_id":"4","last_reported":1770712702,"current_range_meters":9600,"station_id":"ce4bhb92rcd13ifvqen0","pricing_plan_id":"cebpf4jnsgd1na2vs0mg"},{"bike_id":"327a8362-4520-4650-bf86-456ccf2033e2","system_id":"levelo_inurba_marseille","lat":43.30128,"lon":5.381,"is_reserved":false,"is_disabled":false,"rental_uris":{"android":"levelo://app?vid=327a8362-4520-4650-bf86-456ccf2033e2","ios":"levelo://app?vid=327a8362-4520-4650-bf86-456ccf2033e2"},"vehicle_type_id":"4","last_reported":1770712702,"current_range_meters":9600,"station_id":"ce4bgjp2rcd13ifvqbh0","pricing_plan_id":"cebpf4jnsgd1na2vs0mg"},{"bike_id":"84c788cc-9fd0-40a6-894b-9f9cf2b30096","system_id":"levelo_inurba_marseille","lat":43.29813,"lon":5.38089,"is_reserved":false,"is_disabled":false,"rental_uris":{"android":"levelo://app?vid=84c788cc-9fd0-40a6-894b-9f9cf2b30096","ios":"levelo://app?vid=84c788cc-9fd0-40a6-894b-9f9cf2b30096"},"vehicle_type_id":"4","last_reported":1770712702,"current_range_meters":9600,"station_id":"ce4bgip2rcd13ifvqbb0","pricing_plan_id":"cebpf4jnsgd1na2vs0mg"},{"bike_id":"39cbdcae-9ab3-4efd-baf3-2d75993c8302","system_id":"levelo_inurba_marseille","lat":43.27511,"lon":5.42456,"is_reserved":false,"is_disabled":false,"rental_uris":{"android":"levelo://app?vid=39cbdcae-9ab3-4efd-baf3-2d75993c8302","ios":"levelo://app?vid=39cbdcae-9ab3-4efd-baf3-2d75993c8302"},"vehicle_type_id":"4","last_reported":1770712702,"current_range_meters":9600,"station_id":"ce4bhn92rcd13ifvqgrg","pricing_plan_id":"cebpf4jnsgd1na2vs0mg"},{"bike_id":"f0952065-d287-4372-9708-3e421313bc12","system_id":"levelo_inurba_marseille","lat":43.24052,"lon":5.37806,"is_reserved":false,"is_disabled":false,"rental_uris":{"android":"levelo://app?vid=f0952065-d287-4372-9708-3e421313bc12","ios":"levelo://app?vid=f0952065-d287-4372-9708-3e421313bc12"},"vehicle_type_id":"4","last_reported":1770712702,"current_range_meters":9600,"station_id":"ce4bhnp2rcd13ifvqgvg","pricing_plan_id":"cebpf4jnsgd1na2vs0mg"},{"bike_id":"2a185400-4e24-474d-ad6d-5fcb8189cd94","system_id":"levelo_inurba_marseille","lat":43.32477,"lon":5.36574,"is_reserved":false,"is_disabled":false,"rental_uris":{"android":"levelo://app?vid=2a185400-4e24-474d-ad6d-5fcb8189cd94","ios":"levelo://app?vid=2a185400-4e24-474d-ad6d-5fcb8189cd94"},"vehicle_type_id":"4","last_reported":1770712702,"current_range_meters":9600,"station_id":"ce4bhs12rcd13ifvqhvg","pricing_plan_id":"cebpf4jnsgd1na2vs0mg"},{"bike_id":"9c990a69-d894-467b-8998-5e5ba620e1bb","system_id":"levelo_inurba_marseille","lat":43.27251,"lon":5.39067,"is_reserved":false,"is_disabled":false,"rental_uris":{"android":"levelo://app?vid=9c990a69-d894-467b-8998-5e5ba620e1bb","ios":"levelo://app?vid=9c990a69-d894-467b-8998-5e5ba620e1bb"},"vehicle_type_id":"4","last_reported":1770712702,"current_range_meters":9600,"station_id":"","pricing_plan_id":"cebpf4jnsgd1na2vs0mg"},{"bike_id":"69cb53c0-4939-4da6-a53e-35e4cb2de7f7","system_id":"levelo_inurba_marseille","lat":43.22553,"lon":5.41624,"is_reserved":false,"is_disabled":false,"rental_uris":{"android":"levelo://app?vid=69cb53c0-4939-4da6-a53e-35e4cb2de7f7","ios":"levelo://app?vid=69cb53c0-4939-4da6-a53e-35e4cb2de7f7"},"vehicle_type_id":"4","last_reported":1770712702,"current_range_meters":9600,"station_id":"st_d2o4gvlbi1j2169b742g","pricing_plan_id":"cebpf4jnsgd1na2vs0mg"},