{"last_updated":1727935994,"ttl":60,"version":"2.2","data":{"bikes":[{"bike_id":"8bc0aa01-1d61-49ab-973d-784704f64634","system_id":"levelo_inurba_marseille","lat":43.30106,"lon":5.36541,"is_reserved":false,"is_disabled":false,"rental_uris":{"android":"levelo://app?vid=8bc0aa01-1d61-49ab-973d-784704f64634","ios":"levelo://app?vid=8bc0aa01-1d61-49ab-973d-784704f64634"},"vehicle_type_id":"4","last_reported":1727935994,"current_range_meters":8800,"station_id":"","pricing_plan_id":"cebpf4jnsgd1na2vs0mg"},{"bike_id":"14e3148b-eb6c-41c6-981c-d398f4db85af","system_id":"levelo_inurba_marseille","lat":43.2749,"lon":5.4245,"is_reserved":false,"is_disabled":false,"rental_uris":{"android":"levelo://app?vid=14e3148b-eb6c-41c6-981c-d398f4db85af","ios":"levelo://app?vid=14e3148b-eb6c-41c6-981c-d398f4db85af"},"vehicle_type_id":"4","last_reported":1727935994,"current_range_meters":19200,"station_id":"ce4bhn92rcd13ifvqgrg","pricing_plan_id":"cebpf4jnsgd1na2vs0mg"},{"bike_id":"bf960b4b-9944-4777-88ed-2a8cd51cb17d","system_id":"levelo_inurba_marseille","lat":43.27988,"lon":5.41662,"is_reserved":false,"is_disabled":false,"rental_uris":{"android":"levelo://app?vid=bf960b4b-9944-4777-88ed-2a8cd51cb17d","ios":"levelo://app?vid=bf960b4b-9944-4777-88ed-2a8cd51cb17d"},"vehicle_type_id":"4","last_reported":1727935994,"current_range_meters":32800,"station_id":"ce4bho12rcd13ifvqh1g","pricing_plan_id":"cebpf4jnsgd1na2vs0mg"},{"bike_id":"b8bbb257-f279-4012-9af6-cc850a384c48","system_id":"levelo_inurba_marseille","lat":43.28414,"lon":5.35008,"is_reserved":false,"is_disabled":false,"rental_uris":{"android":"levelo://app?vid=b8bbb257-f279-4012-9af6-cc850a384c48","ios":"levelo://app?vid=b8bbb257-f279-4012-9af6-cc850a384c48"},"vehicle_type_id":"4","last_reported":1727935994,"current_range_meters":38800,"station_id":"ce4bhbh2rcd13ifvqepg","pricing_plan_id":"cebpf4jnsgd1na2vs0mg"},{"bike_id":"b8d32f9e-42f8-4564-8290-6be3e340ccec","system_id":"levelo_inurba_marseille","lat":43.28039,"lon":5.36955,"is_reserved":false,"is_disabled":false,"rental_uris":{"android":"levelo://app?vid=b8d32f9e-42f8-4564-8290-6be3e340ccec","ios":"levelo://app?vid=b8d32f9e-42f8-4564-8290-6be3e340ccec"},"vehicle_type_id":"4","last_reported":1727935994,"current_range_meters":9200,"station_id":"ce4bha12rcd13ifvqef0","pricing_plan_id":"cebpf4jnsgd1na2vs0mg"},{"bike_id":"dfa316ed-31fe-4eb7-ae98-3312a562d760","system_id":"levelo_inurba_marseille","lat":43.27188,"lon":5.40997,"is_reserved":false,"is_disabled":false,"rental_uris":{"android":"levelo://app?vid=dfa316ed-31fe-4eb7-ae98-3312a562d760","ios":"levelo://app?vid=dfa316ed-31fe-4eb7-ae98-3312a562d760"},"vehicle_type_id":"4","last_reported":1727935994,"current_range_meters":36800,"station_id":"ce4bhl12rcd13ifvqgf0","pricing_plan_id":"cebpf4jnsgd1na2vs0mg"},{"bike_id":"df4ec099-b188-48ab-96c7-11a1ce7c7011","system_id":"levelo_inurba_marseille","lat":43.24644,"lon":5.3892,"is_reserved":false,"is_disabled":false,"rental_uris":{"android":"levelo://app?vid=df4ec099-b188-48ab-96c7-11a1ce7c7011","ios":"levelo://app?vid=df4ec099-b188-48ab-96c7-11a1ce7c7011"},"vehicle_type_id":"4","last_reported":1727935994,"current_range_meters":10800,"station_id":"ce4bhg12rcd13ifvqf60","pricing_plan_id":"cebpf4jnsgd1na2vs0mg"},{"bike_id":"723b8ee1-1114-4f46-a804-d5e6c512ffd9","system_id":"levelo_inurba_marseille","lat":43.27496,"lon":5.4245,"is_reserved":false,"is_disabled":false,"rental_uris":{"android":"levelo://app?vid=723b8ee1-1114-4f46-a804-d5e6c512ffd9","ios":"levelo://app?vid=723b8ee1-1114-4f46-a804-d5e6c512ffd9"},"vehicle_type_id":"4","last_reported":1727935994,"current_range_meters":33200,"station_id":"ce4bhn92rcd13ifvqgrg","pricing_plan_id":"cebpf4jnsgd1na2vs0mg"},{"bike_id":"ff89b7e6-8dbb-4502-ae6b-954b46feae02","system_id":"levelo_inurba_marseille","lat":43.25005,"lon":5.38917,"is_reserved":false,"is_disabled":false,"rental_uris":{"android":"levelo://app?vid=ff89b7e6-8dbb-4502-ae6b-954b46feae02","ios":"levelo://app?vid=ff89b7e6-8dbb-4502-ae6b-954b46feae02"},"vehicle_type_id":"4","last_reported":1727935994,"current_range_meters":38000,"station_id":"ce4bhgp2rcd13ifvqfd0","pricing_plan_id":"cebpf4jnsgd1na2vs0mg"},{"bike_id":"bc41810d-3fc6-4e9c-bcc1-3b1d7bce3ce2","system_id":"levelo_inurba_marseille","lat":43.23185,"lon":5.39979,"is_reserved":false,"is_disabled":false,"rental_uris":{"android":"levelo://app?vid=bc41810d-3fc6-4e9c-bcc1-3b1d7bce3ce2","ios":"levelo://app?vid=bc41810d-3fc6-4e9c-bcc1-3b1d7bce3ce2"},"vehicle_type_id":"4","last_reported":1727935994,"current_range_meters":25200,"station_id":"ce4bhn12rcd13ifvqgqg","pricing_plan_id":"cebpf4jnsgd1na2vs0mg"},{"bike_id":"4c334c19-c07d-4ab8-a66c-d917cd8d2654","system_id":"levelo_inurba_marseille","lat":43.30462,"lon":5.37906,"is_reserved":false,"is_disabled":false,"rental_uris":{"android":"levelo://app?vid=4c334c19-c07d-4ab8-a66c-d917cd8d2654","ios":"levelo://app?vid=4c334c19-c07d-4ab8-a66c-d917cd8d2654"},"vehicle_type_id":"4","last_reported":1727935994,"current_range_meters":28800,"station_id":"ce4bgup2rcd13ifvqcn0","pricing_plan_id":"cebpf4jnsgd1na2vs0mg"},{"bike_id":"4b6721b8-1a28-4ce5-a9fa-1b893f7f0ac0","system_id":"levelo_inurba_marseille","lat":43.32478,"lon":5.36557,"is_reserved":false,"is_disabled":false,"rental_uris":{"android":"levelo://app?vid=4b6721b8-1a28-4ce5-a9fa-1b893f7f0ac0","ios":"levelo://app?vid=4b6721b8-1a28-4ce5-a9fa-1b893f7f0ac0"},"vehicle_type_id":"4","last_reported":1727935994,"current_range_meters":38800,"station_id":"ce4bhs12rcd13ifvqhvg","pricing_plan_id":"cebpf4jnsgd1na2vs0mg"},{"bike_id":"56991410-d98c-48b7-8ffa-26c899931d2b","system_id":"levelo_inurba_marseille","lat":43.28041,"lon":5.36956,"is_reserved":false,"is_disabled":false,"rental_uris":{"android":"levelo://app?vid=56991410-d98c-48b7-8ffa-26c899931d2b","ios":"levelo://app?vid=56991410-d98c-48b7-8ffa-26c899931d2b"},"vehicle_type_id":"4","last_reported":1727935994,"current_range_meters":38800,"station_id":"ce4bha12rcd13ifvqef0","pricing_plan_id":"cebpf4jnsgd1na2vs0mg"},{"bike_id":"f0402554-d250-4a9b-bf9e-46e99b7d10ef","system_id":"levelo_inurba_marseille","lat":43.27505,"lon":5.42448,"is_reserved":false,"is_disabled":false,"rental_uris":{"android":"levelo://app?vid=f0402554-d250-4a9b-bf9e-46e99b7d10ef","ios":"levelo://app?vid=f0402554-d250-4a9b-bf9e-46e99b7d10ef"},"vehicle_type_id":"4","last_reported":1727935994,"current_range_meters":6800,"station_id":"ce4bhn92rcd13ifvqgrg","pricing_plan_id":"cebpf4jnsgd1na2vs0mg"},{"bike_id":"cd83069d-2fd2-446d-b833-e65fbf0c2ad5","system_id":"levelo_inurba_marseille","lat":43.24074,"lon":5.3776,"is_reserved":false,"is_disabled":false,"rental_uris":{"android":"levelo://app?vid=cd83069d-2fd2-446d-b833-e65fbf0c2ad5","ios":"levelo://app?vid=cd83069d-2fd2-446d-b833-e65fbf0c2ad5"},"vehicle_type_id":"4","last_reported":1727935994,"current_range_meters":22400,"station_id":"","pricing_plan_id":"cebpf4jnsgd1na2vs0mg"},{"bike_id":"227f48e5-9cbe-4288-bc92-4c4e1bca4435","system_id":"levelo_inurba_marseille","lat":43.23915,"lon":5.43687,"is_reserved":false,"is_disabled":false,"rental_uris":{"android":"levelo://app?vid=227f48e5-9cbe-4288-bc92-4c4e1bca4435","ios":"levelo://app?vid=227f48e5-9cbe-4288-bc92-4c4e1bca4435"},"vehicle_type_id":"4","last_reported":1727935994,"current_range_meters":5600,"station_id":"","pricing_plan_id":"cebpf4jnsgd1na2vs0mg"},{"bike_id":"5f3c68c4-2b6c-4d2e-9835-dd9f6f06394a","system_id":"levelo_inurba_marseille","lat":43.30191,"lon":5.366,"is_reserved":false,"is_disabled":false,"rental_uris":{"android":"levelo://app?vid=5f3c68c4-2b6c-4d2e-9835-dd9f6f06394a","ios":"levelo://app?vid=5f3c68c4-2b6c-4d2e-9835-dd9f6f06394a"},"vehicle_type_id":"4","last_reported":1727935994,"current_range_meters":38000,"station_id":"ce4bgrh2rcd13ifvqc8g","pricing_plan_id":"cebpf4jnsgd1na2vs0mg"},{"bike_id":"0a9918d7-41e5-40b7-a2f3-9509ab8baede","system_id":"levelo_inurba_marseille","lat":43.28341,"lon":5.41281,"is_reserved":false,"is_disabled":false,"rental_uris":{"android":"levelo://app?vid=0a9918d7-41e5-40b7-a2f3-9509ab8baede","ios":"levelo://app?vid=0a9918d7-41e5-40b7-a2f3-9509ab8baede"},"vehicle_type_id":"4","last_reported":1727935994,"current_range_meters":19600,"station_id":"","pricing_plan_id":"cebpf4jnsgd1na2vs0mg"},{"bike_id":"9e546d3d-e521-46a5-bfd3-e17c26c99c01","system_id":"levelo_inurba_marseille","lat":43.27073,"lon":5.42282,"is_reserved":false,"is_disabled":false,"rental_uris":{"android":"levelo://app?vid=9e546d3d-e521-46a5-bfd3-e17c26c99c01","ios":"levelo://app?vid=9e546d3d-e521-46a5-bfd3-e17c26c99c01"},"vehicle_type_id":"4","last_reported":1727935994,"current_range_meters":28400,"station_id":"ce4bhh92rcd13ifvqfj0","pricing_plan_id":"cebpf4jnsgd1na2vs0mg"},{"bike_id":"bcaea9c3-9142-4dc7-b0fc-7111ac2210db","system_id":"levelo_inurba_marseille","lat":43.26943,"lon":5.40256,"is_reserved":false,"is_disabled":false,"rental_uris":{"android":"levelo://app?vid=bcaea9c3-9142-4dc7-b0fc-7111ac2210db","ios":"levelo://app?vid=bcaea9c3-9142-4dc7-b0fc-7111ac2210db"},"vehicle_type_id":"4","last_reported":1727935994,"current_range_meters":27600,"station_id":"cjm6bp8fraef2m0cb0m0","pricing_plan_id":"cebpf4jnsgd1na2vs0mg"},{"bike_id":"d90669bd-6874-4962-97fb-6ef96c69e5da","system_id":"levelo_inurba_marseille","lat":43.33613,"lon":5.4098,"is_reserved":false,"is_disabled":false,"rental_uris":{"android":"levelo://app?vid=d90669bd-6874-4962-97fb-6ef96c69e5da","ios":"levelo://app?vid=d90669bd-6874-4962-97fb-6ef96c69e5da"},"vehicle_type_id":"4","last_reported":1727935994,"current_range_meters":17200,"station_id":"ce4bhqh2rcd13ifvqhmg","pricing_plan_id":"cebpf4jnsgd1na2vs0mg"},{"bike_id":"25454cee-75e1-4829-863e-96eae8fc3747","system_id":"levelo_inurba_marseille","lat":43.34143,"lon":5.40906,"is_reserved":false,"is_disabled":false,"rental_uris":{"android":"levelo://app?vid=25454cee-75e1-4829-863e-96eae8fc3747","ios":"levelo://app?vid=25454cee-75e1-4829-863e-96eae8fc3747"},"vehicle_type_id":"4","last_reported":1727935994,"current_range_meters":38800,"station_id":"ce4bhqh2rcd13ifvqhlg","pricing_plan_id":"cebpf4jnsgd1na2vs0mg"},{"bike_id":"3420bd34-edf4-4eb5-8c58-eee5e2170f9d","system_id":"levelo_inurba_marseille","lat":43.24069,"lon":5.37764,"is_reserved":false,"is_disabled":false,"rental_uris":{"android":"levelo://app?vid=3420bd34-edf4-4eb5-8c58-eee5e2170f9d","ios":"levelo://app?vid=3420bd34-edf4-4eb5-8c58-eee5e2170f9d"},"vehicle_type_id":"4","last_reported":1727935994,"current_range_meters":36400,"station_id":"ce4bhnp2rcd13ifvqgvg","pricing_plan_id":"cebpf4jnsgd1na2vs0mg"},{"bike_id":"d49d90db-e06a-4015-a8fe-bd419d6e7155","system_id":"levelo_inurba_marseille","lat":43.29255,"lon":5.409056,"is_reserved":false,"is_disabled":false,"rental_uris":{"android":"levelo://app?vid=d49d90db-e06a-4015-a8fe-bd419d6e7155","ios":"levelo://app?vid=d49d90db-e06a-4015-a8fe-bd419d6e7155"},"vehicle_type_id":"4","last_reported":1727935994,"current_range_meters":35600,"station_id":"ce4bh192rcd13ifvqdc0","pricing_plan_id":"cebpf4jnsgd1na2vs0mg"},{"bike_id":"a6e9d93c-0a78-4070-ae67-6bc3162b7ae6","system_id":"levelo_inurba_marseille","lat":43.28942,"lon":5.36397,"is_reserved":false,"is_disabled":false,"rental_uris":{"android":"levelo://app?vid=a6e9d93c-0a78-4070-ae67-6bc3162b7ae6","ios":"levelo://app?vid=a6e9d93c-0a78-4070-ae67-6bc3162b7ae6"},"vehicle_type_id":"4","last_reported":1727935994,"current_range_meters":17200,"station_id":"ce4bhc92rcd13ifvqetg","pricing_plan_id":"cebpf4jnsgd1na2vs0mg"},{"bike_id":"4742c689-0d3e-45a9-b482-2c8459a45220","system_id":"levelo_inurba_marseille","lat":43.29227,"lon":5.36062,"is_reserved":false,"is_disabled":false,"rental_uris":{"android":"levelo://app?vid=4742c689-0d3e-45a9-b482-2c8459a45220","ios":"levelo://app?vid=4742c689-0d3e-45a9-b482-2c8459a45220"},"vehicle_type_id":"4","last_reported":1727935994,"current_range_meters":38800,"station_id":"ce4bhbh2rcd13ifvqeqg","pricing_plan_id":"cebpf4jnsgd1na2vs0mg"},{"bike_id":"f541f2a4-9417-478c-a0ba-e1a6898f49ec","system_id":"levelo_inurba_marseille","lat":43.3254,"lon":5.41442,"is_reserved":false,"is_disabled":false,"rental_uris":{"android":"levelo://app?vid=f541f2a4-9417-478c-a0ba-e1a6898f49ec","ios":"levelo://app?vid=f541f2a4-9417-478c-a0ba-e1a6898f49ec"},"vehicle_type_id":"4","last_reported":1727935994,"current_range_meters":33600,"station_id":"ce4bhq12rcd13ifvqhhg","pricing_plan_id":"cebpf4jnsgd1na2vs0mg"},{"bike_id":"0bf91108-08ad-4bbc-a703-31b83533dfcf","system_id":"levelo_inurba_marseille","lat":43.28924,"lon":5.38398,"is_reserved":false,"is_disabled":false,"rental_uris":{"android":"levelo://app?vid=0bf91108-08ad-4bbc-a703-31b83533dfcf","ios":"levelo://app?vid=0bf91108-08ad-4bbc-a703-31b83533dfcf"},"vehicle_type_id":"4","last_reported":1727935994,"current_range_meters":4400,"station_id":"ce4bh612rcd13ifvqe6g","pricing_plan_id":"cebpf4jnsgd1na2vs0mg"},{"bike_id":"78f485d1-bf5b-445b-a57f-ee387d423c2a","system_id":"levelo_inurba_marseille","lat":43.24651,"lon":5.38893,"is_reserved":false,"is_disabled":false,"rental_uris":{"android":"levelo://app?vid=78f485d1-bf5b-445b-a57f-ee387d423c2a","ios":"levelo://app?vid=78f485d1-bf5b-445b-a57f-ee387d423c2a"},"vehicle_type_id":"4","last_reported":1727935994,"current_range_meters":36800,"station_id":"ce4bhg12rcd13ifvqf60","pricing_plan_id":"cebpf4jnsgd1na2vs0mg"},{"bike_id":"bcd9fab7-8d81-400d-8ab8-106aef3a4c73","system_id":"levelo_inurba_marseille","lat":43.26574,"lon":5.38988,"is_reserved":false,"is_disabled":false,"rental_uris":{"android":"levelo://app?vid=bcd9fab7-8d81-400d-8ab8-106aef3a4c73","ios":"levelo://app?vid=bcd9fab7-8d81-400d-8ab8-106aef3a4c73"},"vehicle_type_id":"4","last_reported":1727935994,"current_range_meters":16000,"station_id":"ce4bhe12rcd13ifvqf30","pricing_plan_id":"cebpf4jnsgd1na2vs0mg"},{"bike_id":"43b020c9-ae18-4c00-941a-24d38346da51","system_id":"levelo_inurba_marseille","lat":43.29099,"lon":5.38121,"is_reserved":false,"is_disabled":false,"rental_uris":{"android":"levelo://app?vid=43b020c9-ae18-4c00-941a-24d38346da51","ios":"levelo://app?vid=43b020c9-ae18-4c00-941a-24d38346da51"},"vehicle_type_id":"4","last_reported":1727935994,"current_range_meters":33600,"station_id":"ce4bh512rcd13ifvqe2g","pricing_plan_id":"cebpf4jnsgd1na2vs0mg"},{"bike_id":"f0e7eafe-ded8-4f74-b638-f57fea50f0fb","system_id":"levelo_inurba_marseille","lat":43.27499,"lon":5.42448,"is_reserved":false,"is_disabled":false,"rental_uris":{"android":"levelo://app?vid=f0e7eafe-ded8-4f74-b638-f57fea50f0fb","ios":"levelo://app?vid=f0e7eafe-ded8-4f74-b638-f57fea50f0fb"},"vehicle_type_id":"4","last_reported":1727935994,"current_range_meters":28800,"station_id":"ce4bhn92rcd13ifvqgrg","pricing_plan_id":"cebpf4jnsgd1na2vs0mg"},{"bike_id":"24e7ae52-1ebe-4a96-9a85-94eb5a311da8","system_id":"levelo_inurba_marseille","lat":43.277945,"lon":5.406962,"is_reserved":false,"is_disabled":false,"rental_uris":{"android":"levelo://app?vid=24e7ae52-1ebe-4a96-9a85-94eb5a311da8","ios":"levelo://app?vid=24e7ae52-1ebe-4a96-9a85-94eb5a311da8"},"vehicle_type_id":"4","last_reported":1727935994,"current_range_meters":34800,"station_id":"ce4bhnh2rcd13ifvqgtg","pricing_plan_id":"cebpf4jnsgd1na2vs0mg"},{"bike_id":"40cdd21c-cf08-4bb2-985f-06b08048a8f3","system_id":"levelo_inurba_marseille","lat":43.2795,"lon":5.39102,"is_reserved":false,"is_disabled":false,"rental_uris":{"android":"levelo://app?vid=40cdd21c-cf08-4bb2-985f-06b08048a8f3","ios":"levelo://app?vid=40cdd21c-cf08-4bb2-985f-06b08048a8f3"},"vehicle_type_id":"4","last_reported":1727935994,"current_range_meters":20400,"station_id":"ce4bhjp2rcd13ifvqga0","pricing_plan_id":"cebpf4jnsgd1na2vs0mg"},{"bike_id":"a5bc78e8-0ff4-4da0-acba-f17ca5d6e61c","system_id":"levelo_inurba_marseille","lat":43.28042,"lon":5.3694,"is_reserved":false,"is_disabled":false,"rental_uris":{"android":"levelo://app?vid=a5bc78e8-0ff4-4da0-acba-f17ca5d6e61c","ios":"levelo://app?vid=a5bc78e8-0ff4-4da0-acba-f17ca5d6e61c"},"vehicle_type_id":"4","last_reported":1727935994,"current_range_meters":38400,"station_id":"ce4bha12rcd13ifvqef0","pricing_plan_id":"cebpf4jnsgd1na2vs0mg"},{"bike_id":"eab14701-760b-40ca-a470-42d4cb1245b3","system_id":"levelo_inurba_marseille","lat":43.30355,"lon":5.418778,"is_reserved":false,"is_disabled":false,"rental_uris":{"android":"levelo://app?vid=eab14701-760b-40ca-a470-42d4cb1245b3","ios":"levelo://app?vid=eab14701-760b-40ca-a470-42d4cb1245b3"},"vehicle_type_id":"4","last_reported":1727935994,"current_range_meters":38800,"station_id":"ce4bhop2rcd13ifvqh7g","pricing_plan_id":"cebpf4jnsgd1na2vs0mg"},{"bike_id":"652b53bc-ed25-4d06-9cf0-ae4790c2d1de","system_id":"levelo_inurba_marseille","lat":43.29098,"lon":5.38134,"is_reserved":false,"is_disabled":false,"rental_uris":{"android":"levelo://app?vid=652b53bc-ed25-4d06-9cf0-ae4790c2d1de","ios":"levelo://app?vid=652b53bc-ed25-4d06-9cf0-ae4790c2d1de"},"vehicle_type_id":"4","last_reported":1727935994,"current_range_meters":38000,"station_id":"ce4bh512rcd13ifvqe2g","pricing_plan_id":"cebpf4jnsgd1na2vs0mg"},{"bike_id":"5077e3da-46af-40a3-8277-cca140db96d3","system_id":"levelo_inurba_marseille","lat":43.33619,"lon":5.41047,"is_reserved":false,"is_disabled":false,"rental_uris":{"android":"levelo://app?vid=5077e3da-46af-40a3-8277-cca140db96d3","ios":"levelo://app?vid=5077e3da-46af-40a3-8277-cca140db96d3"},"vehicle_type_id":"4","last_reported":1727935994,"current_range_meters":35200,"station_id":"ce4bhqh2rcd13ifvqhmg","pricing_plan_id":"cebpf4jnsgd1na2vs0mg"},{"bike_id":"83f9c5b0-03dc-4f07-9024-f86cd68fcfc1","system_id":"levelo_inurba_marseille","lat":43.26956,"lon":5.38635,"is_reserved":false,"is_disabled":false,"rental_uris":{"android":"levelo://app?vid=83f9c5b0-03dc-4f07-9024-f86cd68fcfc1","ios":"levelo://app?vid=83f9c5b0-03dc-4f07-9024-f86cd68fcfc1"},"vehicle_type_id":"4","last_reported":1727935994,"current_range_meters":38800,"station_id":"ce4bhh92rcd13ifvqfh0","pricing_plan_id":"cebpf4jnsgd1na2vs0mg"},{"bike_id":"510f34ac-207d-492f-acca-eccac575ce77","system_id":"levelo_inurba_marseille","lat":43.28485,"lon":5.38536,"is_reserved":false,"is_disabled":false,"rental_uris":{"android":"levelo://app?vid=510f34ac-207d-492f-acca-eccac575ce77","ios":"levelo://app?vid=510f34ac-207d-492f-acca-eccac575ce77"},"vehicle_type_id":"4","last_reported":1727935994,"current_range_meters":4800,"station_id":"ce4bh8p2rcd13ifvqeb0","pricing_plan_id":"cebpf4jnsgd1na2vs0mg"},{"bike_id":"22094e14-fe04-4f6d-940c-3e57c3ad82a9","system_id":"levelo_inurba_marseille","lat":43.23157,"lon":5.43701,"is_reserved":false,"is_disabled":false,"rental_uris":{"android":"levelo://app?vid=22094e14-fe04-4f6d-940c-3e57c3ad82a9","ios":"levelo://app?vid=22094e14-fe04-4f6d-940c-3e57c3ad82a9"},"vehicle_type_id":"4","last_reported":1727935994,"current_range_meters":25200,"station_id":"ce4bhmp2rcd13ifvqgog","pricing_plan_id":"cebpf4jnsgd1na2vs0mg"},{"bike_id":"24d92f51-0476-4c2e-838c-c91673ebb0c9","system_id":"levelo_inurba_marseille","lat":43.28155,"lon":5.42641,"is_reserved":false,"is_disabled":false,"rental_uris":{"android":"levelo://app?vid=24d92f51-0476-4c2e-838c-c91673ebb0c9","ios":"levelo://app?vid=24d92f51-0476-4c2e-838c-c91673ebb0c9"},"vehicle_type_id":"4","last_reported":1727935994,"current_range_meters":37600,"station_id":"ce4bhnh2rcd13ifvqgug","pricing_plan_id":"cebpf4jnsgd1na2vs0mg"},{"bike_id":"01272f34-484e-4cf3-8f4f-4d3c17141dee","system_id":"levelo_inurba_marseille","lat":43.30475,"lon":5.37909,"is_reserved":false,"is_disabled":false,"rental_uris":{"android":"levelo://app?vid=01272f34-484e-4cf3-8f4f-4d3c17141dee","ios":"levelo://app?vid=01272f34-484e-4cf3-8f4f-4d3c17141dee"},"vehicle_type_id":"4","last_reported":1727935994,"current_range_meters":37600,"station_id":"ce4bgup2rcd13ifvqcn0","pricing_plan_id":"cebpf4jnsgd1na2vs0mg"},{"bike_id":"b7046bd9-0899-4f40-956c-57be7242e42a","system_id":"levelo_inurba_marseille","lat":43.29175,"lon":5.36905,"is_reserved":false,"is_disabled":false,"rental_uris":{"android":"levelo://app?vid=b7046bd9-0899-4f40-956c-57be7242e42a","ios":"levelo://app?vid=b7046bd9-0899-4f40-956c-57be7242e42a"},"vehicle_type_id":"4","last_reported":1727935994,"current_range_meters":32800,"station_id":"","pricing_plan_id":"cebpf4jnsgd1na2vs0mg"},{"bike_id":"32f6824e-5471-4d07-9784-8341224d62c6","system_id":"levelo_inurba_marseille","lat":43.288465,"lon":5.3584,"is_reserved":false,"is_disabled":false,"rental_uris":{"android":"levelo://app?vid=32f6824e-5471-4d07-9784-8341224d62c6","ios":"levelo://app?vid=32f6824e-5471-4d07-9784-8341224d62c6"},"vehicle_type_id":"4","last_reported":1727935994,"current_range_meters":17600,"station_id":"ce4bhb12rcd13ifvqem0","pricing_plan_id":"cebpf4jnsgd1na2vs0mg"},{"bike_id":"0d38caac-4e1b-4bc6-8634-fba8549655ca","system_id":"levelo_inurba_marseille","lat":43.32105,"lon":5.36777,"is_reserved":false,"is_disabled":false,"rental_uris":{"android":"levelo://app?vid=0d38caac-4e1b-4bc6-8634-fba8549655ca","ios":"levelo://app?vid=0d38caac-4e1b-4bc6-8634-fba8549655ca"},"vehicle_type_id":"4","last_reported":1727935994,"current_range_meters":36800,"station_id":"ce4bhrh2rcd13ifvqhug","pricing_plan_id":"cebpf4jnsgd1na2vs0mg"},{"bike_id":"1128ed2b-b577-44ff-873c-09e8382fe9f3","system_id":"levelo_inurba_marseille","lat":43.2963,"lon":5.37149,"is_reserved":false,"is_disabled":false,"rental_uris":{"android":"levelo://app?vid=1128ed2b-b577-44ff-873c-09e8382fe9f3","ios":"levelo://app?vid=1128ed2b-b577-44ff-873c-09e8382fe9f3"},"vehicle_type_id":"4","last_reported":1727935994,"current_range_meters":30000,"station_id":"ce4bgnh2rcd13ifvqc0g","pricing_plan_id":"cebpf4jnsgd1na2vs0mg"},{"bike_id":"4f012cc6-31d2-4caa-8f39-337ae9626f04","system_id":"levelo_inurba_marseille","lat":43.23153,"lon":5.4372,"is_reserved":false,"is_disabled":false,"rental_uris":{"android":"levelo://app?vid=4f012cc6-31d2-4caa-8f39-337ae9626f04","ios":"levelo://app?vid=4f012cc6-31d2-4caa-8f39-337ae9626f04"},"vehicle_type_id":"4","last_reported":1727935994,"current_range_meters":19200,"station_id":"ce4bhmp2rcd13ifvqgog","pricing_plan_id":"cebpf4jnsgd1na2vs0mg"},{"bike_id":"5193785c-263c-401d-a7b6-51f84a49819f","system_id":"levelo_inurba_marseille","lat":43.29554,"lon":5.42282,"is_reserved":false,"is_disabled":false,"rental_uris":{"android":"levelo://app?vid=5193785c-263c-401d-a7b6-51f84a49819f","ios":"levelo://app?vid=5193785c-263c-401d-a7b6-51f84a49819f"},"vehicle_type_id":"4","last_reported":1727935994,"current_range_meters":39200,"station_id":"ce4bhph2rcd13ifvqhdg","pricing_plan_id":"cebpf4jnsgd1na2vs0mg"},{"bike_id":"5d1a6024-a964-4811-b99b-ce409a4cb4b2","system_id":"levelo_inurba_marseille","lat":43.28618,"lon":5.35102,"is_reserved":false,"is_disabled":false,"rental_uris":{"android":"levelo://app?vid=5d1a6024-a964-4811-b99b-ce409a4cb4b2","ios":"levelo://app?vid=5d1a6024-a964-4811-b99b-ce409a4cb4b2"},"vehicle_type_id":"4","last_reported":1727935994,"current_range_meters":37600,"station_id":"ce4bhch2rcd13ifvqeug","pricing_plan_id":"cebpf4jnsgd1na2vs0mg"},{"bike_id":"cc984dc5-fbe0-4309-be37-5d8ef0cdca17","system_id":"levelo_inurba_marseille","lat":43.30211,"lon":5.39469,"is_reserved":false,"is_disabled":false,"rental_uris":{"android":"levelo://app?vid=cc984dc5-fbe0-4309-be37-5d8ef0cdca17","ios":"levelo://app?vid=cc984dc5-fbe0-4309-be37-5d8ef0cdca17"},"vehicle_type_id":"4","last_reported":1727935994,"current_range_meters":19200,"station_id":"ce4bh0p2rcd13ifvqd70","pricing_plan_id":"cebpf4jnsgd1na2vs0mg"},{"bike_id":"499cb64c-6fb8-4407-89d8-a118e3c5c28d","system_id":"levelo_inurba_marseille","lat":43.27994,"lon":5.40005,"is_reserved":false,"is_disabled":false,"rental_uris":{"android":"levelo://app?vid=499cb64c-6fb8-4407-89d8-a118e3c5c28d","ios":"levelo://app?vid=499cb64c-6fb8-4407-89d8-a118e3c5c28d"},"vehicle_type_id":"4","last_reported":1727935994,"current_range_meters":22000,"station_id":"ce4bho92rcd13ifvqh4g","pricing_plan_id":"cebpf4jnsgd1na2vs0mg"},{"bike_id":"b047c2ce-4a11-4511-a0db-53a1e069bce1","system_id":"levelo_inurba_marseille","lat":43.2816,"lon":5.38481,"is_reserved":false,"is_disabled":false,"rental_uris":{"android":"levelo://app?vid=b047c2ce-4a11-4511-a0db-53a1e069bce1","ios":"levelo://app?vid=b047c2ce-4a11-4511-a0db-53a1e069bce1"},"vehicle_type_id":"4","last_reported":1727935994,"current_range_meters":38800,"station_id":"ce4bhgp2rcd13ifvqfe0","pricing_plan_id":"cebpf4jnsgd1na2vs0mg"},{"bike_id":"012f8305-fce2-4582-954b-85deb454c741","system_id":"levelo_inurba_marseille","lat":43.28846,"lon":5.35849,"is_reserved":false,"is_disabled":false,"rental_uris":{"android":"levelo://app?vid=012f8305-fce2-4582-954b-85deb454c741","ios":"levelo://app?vid=012f8305-fce2-4582-954b-85deb454c741"},"vehicle_type_id":"4","last_reported":1727935994,"current_range_meters":38800,"station_id":"ce4bhb12rcd13ifvqem0","pricing_plan_id":"cebpf4jnsgd1na2vs0mg"},{"bike_id":"61d0f579-6f90-415d-bb85-e9564ceecbf4","system_id":"levelo_inurba_marseille","lat":43.24055,"lon":5.377963,"is_reserved":false,"is_disabled":false,"rental_uris":{"android":"levelo://app?vid=61d0f579-6f90-415d-bb85-e9564ceecbf4","ios":"levelo://app?vid=61d0f579-6f90-415d-bb85-e9564ceecbf4"},"vehicle_type_id":"4","last_reported":1727935994,"current_range_meters":23200,"station_id":"ce4bhnp2rcd13ifvqgvg","pricing_plan_id":"cebpf4jnsgd1na2vs0mg"},{"bike_id":"8f181795-3aeb-4156-971d-e32d9f5f03a5","system_id":"levelo_inurba_marseille","lat":43.28898,"lon":5.36065,"is_reserved":false,"is_disabled":false,"rental_uris":{"android":"levelo://app?vid=8f181795-3aeb-4156-971d-e32d9f5f03a5","ios":"levelo://app?vid=8f181795-3aeb-4156-971d-e32d9f5f03a5"},"vehicle_type_id":"4","last_reported":1727935994,"current_range_meters":28800,"station_id":"","pricing_plan_id":"cebpf4jnsgd1na2vs0mg"},{"bike_id":"94e56bb4-cbfa-41a1-b0aa-e881f4a8a844","system_id":"levelo_inurba_marseille","lat":43.28476,"lon":5.38428,"is_reserved":false,"is_disabled":false,"rental_uris":{"android":"levelo://app?vid=94e56bb4-cbfa-41a1-b0aa-e881f4a8a844","ios":"levelo://app?vid=94e56bb4-cbfa-41a1-b0aa-e881f4a8a844"},"vehicle_type_id":"4","last_reported":1727935994,"current_range_meters":35600,"station_id":"ce4bh512rcd13ifvqe3g","pricing_plan_id":"cebpf4jnsgd1na2vs0mg"},{"bike_id":"7bfb5721-baf3-4893-bbf9-7c8112a113a1","system_id":"levelo_inurba_marseille","lat":43.28002,"lon":5.40004,"is_reserved":false,"is_disabled":false,"rental_uris":{"android":"levelo://app?vid=7bfb5721-baf3-4893-bbf9-7c8112a113a1","ios":"levelo://app?vid=7bfb5721-baf3-4893-bbf9-7c8112a113a1"},"vehicle_type_id":"4","last_reported":1727935994,"current_range_meters":36000,"station_id":"ce4bho92rcd13ifvqh4g","pricing_plan_id":"cebpf4jnsgd1na2vs0mg"},{"bike_id":"69fdf13e-e66d-48a5-9ff4-6d874fa48a59","system_id":"levelo_inurba_marseille","lat":43.32547,"lon":5.41435,"is_reserved":false,"is_disabled":false,"rental_uris":{"android":"levelo://app?vid=69fdf13e-e66d-48a5-9ff4-6d874fa48a59","ios":"levelo://app?vid=69fdf13e-e66d-48a5-9ff4-6d874fa48a59"},"vehicle_type_id":"4","last_reported":1727935994,"current_range_meters":39200,"station_id":"ce4bhq12rcd13ifvqhhg","pricing_plan_id":"cebpf4jnsgd1na2vs0mg"},{"bike_id":"9ef89a1b-9e73-4459-ab02-7a0e2e0fc63b","system_id":"levelo_inurba_marseille","lat":43.29043,"lon":5.39945,"is_reserved":false,"is_disabled":false,"rental_uris":{"android":"levelo://app?vid=9ef89a1b-9e73-4459-ab02-7a0e2e0fc63b","ios":"levelo://app?vid=9ef89a1b-9e73-4459-ab02-7a0e2e0fc63b"},"vehicle_type_id":"4","last_reported":1727935994,"current_range_meters":38800,"station_id":"ce4bh392rcd13ifvqdm0","pricing_plan_id":"cebpf4jnsgd1na2vs0mg"},{"bike_id":"10851add-dd32-4503-925a-ff5346b9b953","system_id":"levelo_inurba_marseille","lat":43.28946,"lon":5.36397,"is_reserved":false,"is_disabled":false,"rental_uris":{"android":"levelo://app?vid=10851add-dd32-4503-925a-ff5346b9b953","ios":"levelo://app?vid=10851add-dd32-4503-925a-ff5346b9b953"},"vehicle_type_id":"4","last_reported":1727935994,"current_range_meters":23200,"station_id":"ce4bhc92rcd13ifvqetg","pricing_plan_id":"cebpf4jnsgd1na2vs0mg"},{"bike_id":"f13ae62b-0d02-4c4a-bd54-f8d021796470","system_id":"levelo_inurba_marseille","lat":43.30433,"lon":5.38903,"is_reserved":false,"is_disabled":false,"rental_uris":{"android":"levelo://app?vid=f13ae62b-0d02-4c4a-bd54-f8d021796470","ios":"levelo://app?vid=f13ae62b-0d02-4c4a-bd54-f8d021796470"},"vehicle_type_id":"4","last_reported":1727935994,"current_range_meters":33200,"station_id":"ce4bgk12rcd13ifvqbi0","pricing_plan_id":"cebpf4jnsgd1na2vs0mg"},{"bike_id":"c07c4efd-752b-4108-9a77-edb57a9f528c","system_id":"levelo_inurba_marseille","lat":43.28476,"lon":5.38414,"is_reserved":false,"is_disabled":false,"rental_uris":{"android":"levelo://app?vid=c07c4efd-752b-4108-9a77-edb57a9f528c","ios":"levelo://app?vid=c07c4efd-752b-4108-9a77-edb57a9f528c"},"vehicle_type_id":"4","last_reported":1727935994,"current_range_meters":39200,"station_id":"ce4bh512rcd13ifvqe3g","pricing_plan_id":"cebpf4jnsgd1na2vs0mg"},{"bike_id":"c59a4bd7-10d2-4d39-b07c-609aa9ba6cd8","system_id":"levelo_inurba_marseille","lat":43.27975,"lon":5.38767,"is_reserved":false,"is_disabled":false,"rental_uris":{"android":"levelo://app?vid=c59a4bd7-10d2-4d39-b07c-609aa9ba6cd8","ios":"levelo://app?vid=c59a4bd7-10d2-4d39-b07c-609aa9ba6cd8"},"vehicle_type_id":"4","last_reported":1727935994,"current_range_meters":8000,"station_id":"ce4bhg12rcd13ifvqf80","pricing_plan_id":"cebpf4jnsgd1na2vs0mg"},{"bike_id":"6723a072-3ad5-47da-99be-bd70037c1ad4","system_id":"levelo_inurba_marseille","lat":43.27496,"lon":5.42453,"is_reserved":false,"is_disabled":false,"rental_uris":{"android":"levelo://app?vid=6723a072-3ad5-47da-99be-bd70037c1ad4","ios":"levelo://app?vid=6723a072-3ad5-47da-99be-bd70037c1ad4"},"vehicle_type_id":"4","last_reported":1727935994,"current_range_meters":24400,"station_id":"ce4bhn92rcd13ifvqgrg","pricing_plan_id":"cebpf4jnsgd1na2vs0mg"},{"bike_id":"8ea0b2d4-2f33-48be-a503-b8f62f58f9f5","system_id":"levelo_inurba_marseille","lat":43.28946,"lon":5.36408,"is_reserved":false,"is_disabled":false,"rental_uris":{"android":"levelo://app?vid=8ea0b2d4-2f33-48be-a503-b8f62f58f9f5","ios":"levelo://app?vid=8ea0b2d4-2f33-48be-a503-b8f62f58f9f5"},"vehicle_type_id":"4","last_reported":1727935994,"current_range_meters":32000,"station_id":"ce4bhc92rcd13ifvqetg","pricing_plan_id":"cebpf4jnsgd1na2vs0mg"},{"bike_id":"6dade5f3-2f08-4819-be49-4c4e21864ff9","system_id":"levelo_inurba_marseille","lat":43.29571,"lon":5.39983,"is_reserved":false,"is_disabled":false,"rental_uris":{"android":"levelo://app?vid=6dade5f3-2f08-4819-be49-4c4e21864ff9","ios":"levelo://app?vid=6dade5f3-2f08-4819-be49-4c4e21864ff9"},"vehicle_type_id":"4","last_reported":1727935994,"current_range_meters":23200,"station_id":"ce4bh312rcd13ifvqdj0","pricing_plan_id":"cebpf4jnsgd1na2vs0mg"},{"bike_id":"418a1e41-1e04-4f17-85ac-6c551299276f","system_id":"levelo_inurba_marseille","lat":43.33616,"lon":5.41038,"is_reserved":false,"is_disabled":false,"rental_uris":{"android":"levelo://app?vid=418a1e41-1e04-4f17-85ac-6c551299276f","ios":"levelo://app?vid=418a1e41-1e04-4f17-85ac-6c551299276f"},"vehicle_type_id":"4","last_reported":1727935994,"current_range_meters":35600,"station_id":"ce4bhqh2rcd13ifvqhmg","pricing_plan_id":"cebpf4jnsgd1na2vs0mg"},{"bike_id":"2bb9dc3d-5063-45e9-86a1-87daa0167129","system_id":"levelo_inurba_marseille","lat":43.275593,"lon":5.384263,"is_reserved":false,"is_disabled":false,"rental_uris":{"android":"levelo://app?vid=2bb9dc3d-5063-45e9-86a1-87daa0167129","ios":"levelo://app?vid=2bb9dc3d-5063-45e9-86a1-87daa0167129"},"vehicle_type_id":"4","last_reported":1727935994,"current_range_meters":9200,"station_id":"ce4bhh92rcd13ifvqfi0","pricing_plan_id":"cebpf4jnsgd1na2vs0mg"},{"bike_id":"270b80b9-2c5d-493d-a5bf-5089be81b828","system_id":"levelo_inurba_marseille","lat":43.31086,"lon":5.42428,"is_reserved":false,"is_disabled":false,"rental_uris":{"android":"levelo://app?vid=270b80b9-2c5d-493d-a5bf-5089be81b828","ios":"levelo://app?vid=270b80b9-2c5d-493d-a5bf-5089be81b828"},"vehicle_type_id":"4","last_reported":1727935994,"current_range_meters":5600,"station_id":"ce4bhp92rcd13ifvqhag","pricing_plan_id":"cebpf4jnsgd1na2vs0mg"},{"bike_id":"fab07bf1-09c2-4882-a9c1-73b120270859","system_id":"levelo_inurba_marseille","lat":43.26553,"lon":5.39022,"is_reserved":false,"is_disabled":false,"rental_uris":{"android":"levelo://app?vid=fab07bf1-09c2-4882-a9c1-73b120270859","ios":"levelo://app?vid=fab07bf1-09c2-4882-a9c1-73b120270859"},"vehicle_type_id":"4","last_reported":1727935994,"current_range_meters":37600,"station_id":"ce4bhe12rcd13ifvqf30","pricing_plan_id":"cebpf4jnsgd1na2vs0mg"},{"bike_id":"e1fb70b2-3a3b-495a-b1e8-acda54a54945","system_id":"levelo_inurba_marseille","lat":43.28854,"lon":5.35839,"is_reserved":false,"is_disabled":false,"rental_uris":{"android":"levelo://app?vid=e1fb70b2-3a3b-495a-b1e8-acda54a54945","ios":"levelo://app?vid=e1fb70b2-3a3b-495a-b1e8-acda54a54945"},"vehicle_type_id":"4","last_reported":1727935994,"current_range_meters":8800,"station_id":"ce4bhb12rcd13ifvqem0","pricing_plan_id":"cebpf4jnsgd1na2vs0mg"},{"bike_id":"497442d7-91f4-49d1-9883-64db3f208038","system_id":"levelo_inurba_marseille","lat":43.3047,"lon":5.37909,"is_reserved":false,"is_disabled":false,"rental_uris":{"android":"levelo://app?vid=497442d7-91f4-49d1-9883-64db3f208038","ios":"levelo://app?vid=497442d7-91f4-49d1-9883-64db3f208038"},"vehicle_type_id":"4","last_reported":1727935994,"current_range_meters":6400,"station_id":"ce4bgup2rcd13ifvqcn0","pricing_plan_id":"cebpf4jnsgd1na2vs0mg"},{"bike_id":"a1498f4c-90b0-477b-897d-0a105940e599","system_id":"levelo_inurba_marseille","lat":43.30457,"lon":5.37905,"is_reserved":false,"is_disabled":false,"rental_uris":{"android":"levelo://app?vid=a1498f4c-90b0-477b-897d-0a105940e599","ios":"levelo://app?vid=a1498f4c-90b0-477b-897d-0a105940e599"},"vehicle_type_id":"4","last_reported":1727935994,"current_range_meters":33200,"station_id":"ce4bgup2rcd13ifvqcn0","pricing_plan_id":"cebpf4jnsgd1na2vs0mg"},{"bike_id":"34035cb3-8ff9-4eb1-a981-e0964c96626b","system_id":"levelo_inurba_marseille","lat":43.2306,"lon":5.35492,"is_reserved":false,"is_disabled":false,"rental_uris":{"android":"levelo://app?vid=34035cb3-8ff9-4eb1-a981-e0964c96626b","ios":"levelo://app?vid=34035cb3-8ff9-4eb1-a981-e0964c96626b"},"vehicle_type_id":"4","last_reported":1727935994,"current_range_meters":35600,"station_id":"cpo3342slgdg3j2ifvpg","pricing_plan_id":"cebpf4jnsgd1na2vs0mg"},{"bike_id":"7475bfc5-0a67-4b5b-a878-fd4baf79fe32","system_id":"levelo_inurba_marseille","lat":43.271266,"lon":5.390054,"is_reserved":false,"is_disabled":false,"rental_uris":{"android":"levelo://app?vid=7475bfc5-0a67-4b5b-a878-fd4baf79fe32","ios":"levelo://app?vid=7475bfc5-0a67-4b5b-a878-fd4baf79fe32"},"vehicle_type_id":"4","last_reported":1727935994,"current_range_meters":9200,"station_id":"ce4bhhp2rcd13ifvqfm0","pricing_plan_id":"cebpf4jnsgd1na2vs0mg"},{"bike_id":"11624a4d-720c-4b38-844c-46d81ca45963","system_id":"levelo_inurba_marseille","lat":43.27874,"lon":5.40734,"is_reserved":false,"is_disabled":false,"rental_uris":{"android":"levelo://app?vid=11624a4d-720c-4b38-844c-46d81ca45963","ios":"levelo://app?vid=11624a4d-720c-4b38-844c-46d81ca45963"},"vehicle_type_id":"4","last_reported":1727935994,"current_range_meters":22000,"station_id":"","pricing_plan_id":"cebpf4jnsgd1na2vs0mg"},{"bike_id":"5a0f938e-7252-4534-8bff-a4a5d62e0bce","system_id":"levelo_inurba_marseille","lat":43.32538,"lon":5.41424,"is_reserved":false,"is_disabled":false,"rental_uris":{"android":"levelo://app?vid=5a0f938e-7252-4534-8bff-a4a5d62e0bce","ios":"levelo://app?vid=5a0f938e-7252-4534-8bff-a4a5d62e0bce"},"vehicle_type_id":"4","last_reported":1727935994,"current_range_meters":34000,"station_id":"ce4bhq12rcd13ifvqhhg","pricing_plan_id":"cebpf4jnsgd1na2vs0mg"},{"bike_id":"0032931c-cfa8-4547-bc0c-84537375866f","system_id":"levelo_inurba_marseille","lat":43.30471,"lon":5.379,"is_reserved":false,"is_disabled":false,"rental_uris":{"android":"levelo://app?vid=0032931c-cfa8-4547-bc0c-84537375866f","ios":"levelo://app?vid=0032931c-cfa8-4547-bc0c-84537375866f"},"vehicle_type_id":"4","last_reported":1727935994,"current_range_meters":32000,"station_id":"ce4bgup2rcd13ifvqcn0","pricing_plan_id":"cebpf4jnsgd1na2vs0mg"},{"bike_id":"6e9b0c54-5763-4428-9926-90e1ad4eb660","system_id":"levelo_inurba_marseille","lat":43.31698,"lon":5.37741,"is_reserved":false,"is_disabled":false,"rental_uris":{"android":"levelo://app?vid=6e9b0c54-5763-4428-9926-90e1ad4eb660","ios":"levelo://app?vid=6e9b0c54-5763-4428-9926-90e1ad4eb660"},"vehicle_type_id":"4","last_reported":1727935994,"current_range_meters":26000,"station_id":"ce4bgth2rcd13ifvqch0","pricing_plan_id":"cebpf4jnsgd1na2vs0mg"},{"bike_id":"b46476c6-c601-4103-b0af-0c57a664c185","system_id":"levelo_inurba_marseille","lat":43.30961,"lon":5.3904,"is_reserved":false,"is_disabled":false,"rental_uris":{"android":"levelo://app?vid=b46476c6-c601-4103-b0af-0c57a664c185","ios":"levelo://app?vid=b46476c6-c601-4103-b0af-0c57a664c185"},"vehicle_type_id":"4","last_reported":1727935994,"current_range_meters":14400,"station_id":"ce4bgup2rcd13ifvqco0","pricing_plan_id":"cebpf4jnsgd1na2vs0mg"},{"bike_id":"0d097fd8-856d-41b4-a2a2-ffc77e58ceb5","system_id":"levelo_inurba_marseille","lat":43.30356,"lon":5.41881,"is_reserved":false,"is_disabled":false,"rental_uris":{"android":"levelo://app?vid=0d097fd8-856d-41b4-a2a2-ffc77e58ceb5","ios":"levelo://app?vid=0d097fd8-856d-41b4-a2a2-ffc77e58ceb5"},"vehicle_type_id":"4","last_reported":1727935994,"current_range_meters":19200,"station_id":"ce4bhop2rcd13ifvqh7g","pricing_plan_id":"cebpf4jnsgd1na2vs0mg"},{"bike_id":"8acb8a62-24a9-468c-99ca-565a01689086","system_id":"levelo_inurba_marseille","lat":43.29259,"lon":5.40905,"is_reserved":false,"is_disabled":false,"rental_uris":{"android":"levelo://app?vid=8acb8a62-24a9-468c-99ca-565a01689086","ios":"levelo://app?vid=8acb8a62-24a9-468c-99ca-565a01689086"},"vehicle_type_id":"4","last_reported":1727935994,"current_range_meters":30000,"station_id":"ce4bh192rcd13ifvqdc0","pricing_plan_id":"cebpf4jnsgd1na2vs0mg"},{"bike_id":"7074c98d-37ea-4850-b621-592391be52fe","system_id":"levelo_inurba_marseille","lat":43.23153,"lon":5.43715,"is_reserved":false,"is_disabled":false,"rental_uris":{"android":"levelo://app?vid=7074c98d-37ea-4850-b621-592391be52fe","ios":"levelo://app?vid=7074c98d-37ea-4850-b621-592391be52fe"},"vehicle_type_id":"4","last_reported":1727935994,"current_range_meters":20000,"station_id":"ce4bhmp2rcd13ifvqgog","pricing_plan_id":"cebpf4jnsgd1na2vs0mg"},{"bike_id":"5ffa58d0-03b3-4607-992b-337a3fe0650b","system_id":"levelo_inurba_marseille","lat":43.30476,"lon":5.37906,"is_reserved":false,"is_disabled":false,"rental_uris":{"android":"levelo://app?vid=5ffa58d0-03b3-4607-992b-337a3fe0650b","ios":"levelo://app?vid=5ffa58d0-03b3-4607-992b-337a3fe0650b"},"vehicle_type_id":"4","last_reported":1727935994,"current_range_meters":13600,"station_id":"ce4bgup2rcd13ifvqcn0","pricing_plan_id":"cebpf4jnsgd1na2vs0mg"},{"bike_id":"4882119f-c62a-4eea-bd3f-c25ecdc56379","system_id":"levelo_inurba_marseille","lat":43.29576,"lon":5.37529,"is_reserved":false,"is_disabled":false,"rental_uris":{"android":"levelo://app?vid=4882119f-c62a-4eea-bd3f-c25ecdc56379","ios":"levelo://app?vid=4882119f-c62a-4eea-bd3f-c25ecdc56379"},"vehicle_type_id":"4","last_reported":1727935994,"current_range_meters":32800,"station_id":"ce4bgh92rcd13ifvqb50","pricing_plan_id":"cebpf4jnsgd1na2vs0mg"},{"bike_id":"a292cc6b-0b15-4b33-8f09-f41be692a4eb","system_id":"levelo_inurba_marseille","lat":43.24394,"lon":5.3707,"is_reserved":false,"is_disabled":false,"rental_uris":{"android":"levelo://app?vid=a292cc6b-0b15-4b33-8f09-f41be692a4eb","ios":"levelo://app?vid=a292cc6b-0b15-4b33-8f09-f41be692a4eb"},"vehicle_type_id":"4","last_reported":1727935994,"current_range_meters":38800,"station_id":"ce4bhhh2rcd13ifvqfk0","pricing_plan_id":"cebpf4jnsgd1na2vs0mg"},{"bike_id":"03340ca5-6814-4cf2-b56a-d3a87abd205b","system_id":"levelo_inurba_marseille","lat":43.30356,"lon":5.41884,"is_reserved":false,"is_disabled":false,"rental_uris":{"android":"levelo://app?vid=03340ca5-6814-4cf2-b56a-d3a87abd205b","ios":"levelo://app?vid=03340ca5-6814-4cf2-b56a-d3a87abd205b"},"vehicle_type_id":"4","last_reported":1727935994,"current_range_meters":38800,"station_id":"ce4bhop2rcd13ifvqh7g","pricing_plan_id":"cebpf4jnsgd1na2vs0mg"},{"bike_id":"6eda1e9d-ef53-406c-bd81-71df91ff4c37","system_id":"levelo_inurba_marseille","lat":43.28354,"lon":5.38106,"is_reserved":false,"is_disabled":false,"rental_uris":{"android":"levelo://app?vid=6eda1e9d-ef53-406c-bd81-71df91ff4c37","ios":"levelo://app?vid=6eda1e9d-ef53-406c-bd81-71df91ff4c37"},"vehicle_type_id":"4","last_reported":1727935994,"current_range_meters":33600,"station_id":"ce4bh412rcd13ifvqdr0","pricing_plan_id":"cebpf4jnsgd1na2vs0mg"},{"bike_id":"3cf74a3f-8222-4d03-b2e6-c9d25d38cf35","system_id":"levelo_inurba_marseille","lat":43.25015,"lon":5.38927,"is_reserved":false,"is_disabled":false,"rental_uris":{"android":"levelo://app?vid=3cf74a3f-8222-4d03-b2e6-c9d25d38cf35","ios":"levelo://app?vid=3cf74a3f-8222-4d03-b2e6-c9d25d38cf35"},"vehicle_type_id":"4","last_reported":1727935994,"current_range_meters":37600,"station_id":"ce4bhgp2rcd13ifvqfd0","pricing_plan_id":"cebpf4jnsgd1na2vs0mg"},{"bike_id":"df35103d-0afb-4a29-bcb0-3d33b933f0f7","system_id":"levelo_inurba_marseille","lat":43.30554,"lon":5.36703,"is_reserved":false,"is_disabled":false,"rental_uris":{"android":"levelo://app?vid=df35103d-0afb-4a29-bcb0-3d33b933f0f7","ios":"levelo://app?vid=df35103d-0afb-4a29-bcb0-3d33b933f0f7"},"vehicle_type_id":"4","last_reported":1727935994,"current_range_meters":38400,"station_id":"ce4bgrp2rcd13ifvqc9g","pricing_plan_id":"cebpf4jnsgd1na2vs0mg"},{"bike_id":"de302269-fdda-4ef3-9935-87f4834e17d5","system_id":"levelo_inurba_marseille","lat":43.25933,"lon":5.40908,"is_reserved":false,"is_disabled":false,"rental_uris":{"android":"levelo://app?vid=de302269-fdda-4ef3-9935-87f4834e17d5","ios":"levelo://app?vid=de302269-fdda-4ef3-9935-87f4834e17d5"},"vehicle_type_id":"4","last_reported":1727935994,"current_range_meters":10000,"station_id":"ce4bhm92rcd13ifvqglg","pricing_plan_id":"cebpf4jnsgd1na2vs0mg"},{"bike_id":"36d01c25-60d0-499f-9197-a533428222ea","system_id":"levelo_inurba_marseille","lat":43.29621,"lon":5.37715,"is_reserved":false,"is_disabled":false,"rental_uris":{"android":"levelo://app?vid=36d01c25-60d0-499f-9197-a533428222ea","ios":"levelo://app?vid=36d01c25-60d0-499f-9197-a533428222ea"},"vehicle_type_id":"4","last_reported":1727935994,"current_range_meters":36000,"station_id":"ce4bgi92rcd13ifvqb90","pricing_plan_id":"cebpf4jnsgd1na2vs0mg"},{"bike_id":"fb4bb2df-58bb-4e23-829f-c70daa868744","system_id":"levelo_inurba_marseille","lat":43.305939,"lon":5.393657,"is_reserved":false,"is_disabled":false,"rental_uris":{"android":"levelo://app?vid=fb4bb2df-58bb-4e23-829f-c70daa868744","ios":"levelo://app?vid=fb4bb2df-58bb-4e23-829f-c70daa868744"},"vehicle_type_id":"4","last_reported":1727935994,"current_range_meters":38400,"station_id":"","pricing_plan_id":"cebpf4jnsgd1na2vs0mg"},{"bike_id":"20c82b0d-1419-44d9-9a42-2c8891d18cff","system_id":"levelo_inurba_marseille","lat":43.24078,"lon":5.37757,"is_reserved":false,"is_disabled":false,"rental_uris":{"android":"levelo://app?vid=20c82b0d-1419-44d9-9a42-2c8891d18cff","ios":"levelo://app?vid=20c82b0d-1419-44d9-9a42-2c8891d18cff"},"vehicle_type_id":"4","last_reported":1727935994,"current_range_meters":32800,"station_id":"ce4bhnp2rcd13ifvqgvg","pricing_plan_id":"cebpf4jnsgd1na2vs0mg"},{"bike_id":"bceeceef-28be-4631-befc-7ca2509a7015","system_id":"levelo_inurba_marseille","lat":43.28854,"lon":5.35834,"is_reserved":false,"is_disabled":false,"rental_uris":{"android":"levelo://app?vid=bceeceef-28be-4631-befc-7ca2509a7015","ios":"levelo://app?vid=bceeceef-28be-4631-befc-7ca2509a7015"},"vehicle_type_id":"4","last_reported":1727935994,"current_range_meters":24400,"station_id":"ce4bhb12rcd13ifvqem0","pricing_plan_id":"cebpf4jnsgd1na2vs0mg"},{"bike_id":"aa17637a-30cf-42af-8499-9bb812ae5950","system_id":"levelo_inurba_marseille","lat":43.27074,"lon":5.42279,"is_reserved":false,"is_disabled":false,"rental_uris":{"android":"levelo://app?vid=aa17637a-30cf-42af-8499-9bb812ae5950","ios":"levelo://app?vid=aa17637a-30cf-42af-8499-9bb812ae5950"},"vehicle_type_id":"4","last_reported":1727935994,"current_range_meters":27200,"station_id":"ce4bhk92rcd13ifvqgb0","pricing_plan_id":"cebpf4jnsgd1na2vs0mg"},{"bike_id":"48d2fe06-7dd5-41c5-b20a-3fa66b6138ba","system_id":"levelo_inurba_marseille","lat":43.31357,"lon":5.38497,"is_reserved":false,"is_disabled":false,"rental_uris":{"android":"levelo://app?vid=48d2fe06-7dd5-41c5-b20a-3fa66b6138ba","ios":"levelo://app?vid=48d2fe06-7dd5-41c5-b20a-3fa66b6138ba"},"vehicle_type_id":"4","last_reported":1727935994,"current_range_meters":38000,"station_id":"ce4bgt92rcd13ifvqcf0","pricing_plan_id":"cebpf4jnsgd1na2vs0mg"},{"bike_id":"fde1a248-2072-4dff-9f45-162d1b347b92","system_id":"levelo_inurba_marseille","lat":43.33612,"lon":5.41036,"is_reserved":false,"is_disabled":false,"rental_uris":{"android":"levelo://app?vid=fde1a248-2072-4dff-9f45-162d1b347b92","ios":"levelo://app?vid=fde1a248-2072-4dff-9f45-162d1b347b92"},"vehicle_type_id":"4","last_reported":1727935994,"current_range_meters":26000,"station_id":"ce4bhqh2rcd13ifvqhmg","pricing_plan_id":"cebpf4jnsgd1na2vs0mg"},{"bike_id":"45616239-f887-4b93-960c-cb4018bee533","system_id":"levelo_inurba_marseille","lat":43.31375,"lon":5.38494,"is_reserved":false,"is_disabled":false,"rental_uris":{"android":"levelo://app?vid=45616239-f887-4b93-960c-cb4018bee533","ios":"levelo://app?vid=45616239-f887-4b93-960c-cb4018bee533"},"vehicle_type_id":"4","last_reported":1727935994,"current_range_meters":7200,"station_id":"ce4bgt92rcd13ifvqcf0","pricing_plan_id":"cebpf4jnsgd1na2vs0mg"},{"bike_id":"43f49d82-631b-4935-835c-5bba04851cb5","system_id":"levelo_inurba_marseille","lat":43.31533,"lon":5.38026,"is_reserved":false,"is_disabled":false,"rental_uris":{"android":"levelo://app?vid=43f49d82-631b-4935-835c-5bba04851cb5","ios":"levelo://app?vid=43f49d82-631b-4935-835c-5bba04851cb5"},"vehicle_type_id":"4","last_reported":1727935994,"current_range_meters":38800,"station_id":"ce4bhsp2rcd13ifvqi50","pricing_plan_id":"cebpf4jnsgd1na2vs0mg"},{"bike_id":"335c7a89-1d55-4ce1-b241-42587a78fd1b","system_id":"levelo_inurba_marseille","lat":43.25584,"lon":5.38224,"is_reserved":false,"is_disabled":false,"rental_uris":{"android":"levelo://app?vid=335c7a89-1d55-4ce1-b241-42587a78fd1b","ios":"levelo://app?vid=335c7a89-1d55-4ce1-b241-42587a78fd1b"},"vehicle_type_id":"4","last_reported":1727935994,"current_range_meters":38800,"station_id":"ce4bhih2rcd13ifvqfs0","pricing_plan_id":"cebpf4jnsgd1na2vs0mg"},{"bike_id":"5ad29995-1ffe-4243-a98f-0381343a4c41","system_id":"levelo_inurba_marseille","lat":43.30464,"lon":5.37905,"is_reserved":false,"is_disabled":false,"rental_uris":{"android":"levelo://app?vid=5ad29995-1ffe-4243-a98f-0381343a4c41","ios":"levelo://app?vid=5ad29995-1ffe-4243-a98f-0381343a4c41"},"vehicle_type_id":"4","last_reported":1727935994,"current_range_meters":39200,"station_id":"ce4bgup2rcd13ifvqcn0","pricing_plan_id":"cebpf4jnsgd1na2vs0mg"},{"bike_id":"22209e0c-c6f0-4d28-95b2-f022afe6c48d","system_id":"levelo_inurba_marseille","lat":43.30304,"lon":5.39952,"is_reserved":false,"is_disabled":false,"rental_uris":{"android":"levelo://app?vid=22209e0c-c6f0-4d28-95b2-f022afe6c48d","ios":"levelo://app?vid=22209e0c-c6f0-4d28-95b2-f022afe6c48d"},"vehicle_type_id":"4","last_reported":1727935994,"current_range_meters":2800,"station_id":"","pricing_plan_id":"cebpf4jnsgd1na2vs0mg"},{"bike_id":"df81b8be-bc2a-4833-b316-2db6ce688d25","system_id":"levelo_inurba_marseille","lat":43.30792,"lon":5.37653,"is_reserved":false,"is_disabled":false,"rental_uris":{"android":"levelo://app?vid=df81b8be-bc2a-4833-b316-2db6ce688d25","ios":"levelo://app?vid=df81b8be-bc2a-4833-b316-2db6ce688d25"},"vehicle_type_id":"4","last_reported":1727935994,"current_range_meters":24400,"station_id":"ce4bgv92rcd13ifvqcq0","pricing_plan_id":"cebpf4jnsgd1na2vs0mg"},{"bike_id":"7d1b0a18-26e3-4b52-8a52-5424e1b3a5de","system_id":"levelo_inurba_marseille","lat":43.27494,"lon":5.42454,"is_reserved":false,"is_disabled":false,"rental_uris":{"android":"levelo://app?vid=7d1b0a18-26e3-4b52-8a52-5424e1b3a5de","ios":"levelo://app?vid=7d1b0a18-26e3-4b52-8a52-5424e1b3a5de"},"vehicle_type_id":"4","last_reported":1727935994,"current_range_meters":28400,"station_id":"ce4bhn92rcd13ifvqgrg","pricing_plan_id":"cebpf4jnsgd1na2vs0mg"},{"bike_id":"b482df99-7ee8-4eea-8d8b-1d22667db679","system_id":"levelo_inurba_marseille","lat":43.29351,"lon":5.42842,"is_reserved":false,"is_disabled":false,"rental_uris":{"android":"levelo://app?vid=b482df99-7ee8-4eea-8d8b-1d22667db679","ios":"levelo://app?vid=b482df99-7ee8-4eea-8d8b-1d22667db679"},"vehicle_type_id":"4","last_reported":1727935994,"current_range_meters":17600,"station_id":"","pricing_plan_id":"cebpf4jnsgd1na2vs0mg"},{"bike_id":"244b6997-38fb-47f1-be1e-1227dcbf11cf","system_id":"levelo_inurba_marseille","lat":43.28625,"lon":5.39896,"is_reserved":false,"is_disabled":false,"rental_uris":{"android":"levelo://app?vid=244b6997-38fb-47f1-be1e-1227dcbf11cf","ios":"levelo://app?vid=244b6997-38fb-47f1-be1e-1227dcbf11cf"},"vehicle_type_id":"4","last_reported":1727935994,"current_range_meters":34000,"station_id":"","pricing_plan_id":"cebpf4jnsgd1na2vs0mg"},{"bike_id":"16af5265-6f44-4a2d-8ea4-a3dd84b5d904","system_id":"levelo_inurba_marseille","lat":43.28345,"lon":5.38114,"is_reserved":false,"is_disabled":false,"rental_uris":{"android":"levelo://app?vid=16af5265-6f44-4a2d-8ea4-a3dd84b5d904","ios":"levelo://app?vid=16af5265-6f44-4a2d-8ea4-a3dd84b5d904"},"vehicle_type_id":"4","last_reported":1727935994,"current_range_meters":21600,"station_id":"ce4bh412rcd13ifvqdr0","pricing_plan_id":"cebpf4jnsgd1na2vs0mg"},{"bike_id":"579e48db-94f0-471e-8334-831f83439021","system_id":"levelo_inurba_marseille","lat":43.30471,"lon":5.37912,"is_reserved":false,"is_disabled":false,"rental_uris":{"android":"levelo://app?vid=579e48db-94f0-471e-8334-831f83439021","ios":"levelo://app?vid=579e48db-94f0-471e-8334-831f83439021"},"vehicle_type_id":"4","last_reported":1727935994,"current_range_meters":30800,"station_id":"ce4bgup2rcd13ifvqcn0","pricing_plan_id":"cebpf4jnsgd1na2vs0mg"},{"bike_id":"927248fa-cfe1-4b35-b594-5eb26cf965c4","system_id":"levelo_inurba_marseille","lat":43.29931,"lon":5.40067,"is_reserved":false,"is_disabled":false,"rental_uris":{"android":"levelo://app?vid=927248fa-cfe1-4b35-b594-5eb26cf965c4","ios":"levelo://app?vid=927248fa-cfe1-4b35-b594-5eb26cf965c4"},"vehicle_type_id":"4","last_reported":1727935994,"current_range_meters":27200,"station_id":"","pricing_plan_id":"cebpf4jnsgd1na2vs0mg"},{"bike_id":"0a5ce12f-aef2-4655-86eb-0e4f89c69da4","system_id":"levelo_inurba_marseille","lat":43.26207,"lon":5.37923,"is_reserved":false,"is_disabled":false,"rental_uris":{"android":"levelo://app?vid=0a5ce12f-aef2-4655-86eb-0e4f89c69da4","ios":"levelo://app?vid=0a5ce12f-aef2-4655-86eb-0e4f89c69da4"},"vehicle_type_id":"4","last_reported":1727935994,"current_range_meters":27600,"station_id":"ce4bhjp2rcd13ifvqg90","pricing_plan_id":"cebpf4jnsgd1na2vs0mg"},{"bike_id":"8766d0bd-c163-4bef-ba3e-2acb5e2f85f6","system_id":"levelo_inurba_marseille","lat":43.303225,"lon":5.404412,"is_reserved":false,"is_disabled":false,"rental_uris":{"android":"levelo://app?vid=8766d0bd-c163-4bef-ba3e-2acb5e2f85f6","ios":"levelo://app?vid=8766d0bd-c163-4bef-ba3e-2acb5e2f85f6"},"vehicle_type_id":"4","last_reported":1727935994,"current_range_meters":22000,"station_id":"ce4bh012rcd13ifvqd10","pricing_plan_id":"cebpf4jnsgd1na2vs0mg"},{"bike_id":"e43b8470-925d-43c0-905a-09a8ed386cf3","system_id":"levelo_inurba_marseille","lat":43.29029,"lon":5.38649,"is_reserved":false,"is_disabled":false,"rental_uris":{"android":"levelo://app?vid=e43b8470-925d-43c0-905a-09a8ed386cf3","ios":"levelo://app?vid=e43b8470-925d-43c0-905a-09a8ed386cf3"},"vehicle_type_id":"4","last_reported":1727935994,"current_range_meters":25200,"station_id":"ce4bh4p2rcd13ifvqe0g","pricing_plan_id":"cebpf4jnsgd1na2vs0mg"},{"bike_id":"786c53af-afa9-47b0-a1b1-5d330f6015d9","system_id":"levelo_inurba_marseille","lat":43.288511,"lon":5.358435,"is_reserved":false,"is_disabled":false,"rental_uris":{"android":"levelo://app?vid=786c53af-afa9-47b0-a1b1-5d330f6015d9","ios":"levelo://app?vid=786c53af-afa9-47b0-a1b1-5d330f6015d9"},"vehicle_type_id":"4","last_reported":1727935994,"current_range_meters":25600,"station_id":"ce4bhb12rcd13ifvqem0","pricing_plan_id":"cebpf4jnsgd1na2vs0mg"},{"bike_id":"53c6fe7a-c5f0-4c29-bdb6-08c6c7db5c71","system_id":"levelo_inurba_marseille","lat":43.32073,"lon":5.36751,"is_reserved":false,"is_disabled":false,"rental_uris":{"android":"levelo://app?vid=53c6fe7a-c5f0-4c29-bdb6-08c6c7db5c71","ios":"levelo://app?vid=53c6fe7a-c5f0-4c29-bdb6-08c6c7db5c71"},"vehicle_type_id":"4","last_reported":1727935994,"current_range_meters":11200,"station_id":"ce4bhrh2rcd13ifvqhug","pricing_plan_id":"cebpf4jnsgd1na2vs0mg"},{"bike_id":"804b84f1-42ad-4d42-b046-3efa0bebed83","system_id":"levelo_inurba_marseille","lat":43.30601,"lon":5.39363,"is_reserved":false,"is_disabled":false,"rental_uris":{"android":"levelo://app?vid=804b84f1-42ad-4d42-b046-3efa0bebed83","ios":"levelo://app?vid=804b84f1-42ad-4d42-b046-3efa0bebed83"},"vehicle_type_id":"4","last_reported":1727935994,"current_range_meters":31200,"station_id":"ce4bh0p2rcd13ifvqd80","pricing_plan_id":"cebpf4jnsgd1na2vs0mg"},{"bike_id":"8cd4967a-5c3b-494d-8d94-4caf3da84f74","system_id":"levelo_inurba_marseille","lat":43.25951,"lon":5.40112,"is_reserved":false,"is_disabled":false,"rental_uris":{"android":"levelo://app?vid=8cd4967a-5c3b-494d-8d94-4caf3da84f74","ios":"levelo://app?vid=8cd4967a-5c3b-494d-8d94-4caf3da84f74"},"vehicle_type_id":"4","last_reported":1727935994,"current_range_meters":3200,"station_id":"","pricing_plan_id":"cebpf4jnsgd1na2vs0mg"},{"bike_id":"6ce60676-3f86-4aaa-a5df-572436c32ad4","system_id":"levelo_inurba_marseille","lat":43.23193,"lon":5.35543,"is_reserved":false,"is_disabled":false,"rental_uris":{"android":"levelo://app?vid=6ce60676-3f86-4aaa-a5df-572436c32ad4","ios":"levelo://app?vid=6ce60676-3f86-4aaa-a5df-572436c32ad4"},"vehicle_type_id":"4","last_reported":1727935994,"current_range_meters":21600,"station_id":"ce4bhu92rcd13ifvqi70","pricing_plan_id":"cebpf4jnsgd1na2vs0mg"},{"bike_id":"724c82f6-f55e-4847-abb7-c6fdc1c318d2","system_id":"levelo_inurba_marseille","lat":43.24079,"lon":5.37758,"is_reserved":false,"is_disabled":false,"rental_uris":{"android":"levelo://app?vid=724c82f6-f55e-4847-abb7-c6fdc1c318d2","ios":"levelo://app?vid=724c82f6-f55e-4847-abb7-c6fdc1c318d2"},"vehicle_type_id":"4","last_reported":1727935994,"current_range_meters":27600,"station_id":"ce4bhnp2rcd13ifvqgvg","pricing_plan_id":"cebpf4jnsgd1na2vs0mg"},{"bike_id":"57b7f8c1-78c0-4caf-8c3f-35739d0ffed0","system_id":"levelo_inurba_marseille","lat":43.28154,"lon":5.42645,"is_reserved":false,"is_disabled":false,"rental_uris":{"android":"levelo://app?vid=57b7f8c1-78c0-4caf-8c3f-35739d0ffed0","ios":"levelo://app?vid=57b7f8c1-78c0-4caf-8c3f-35739d0ffed0"},"vehicle_type_id":"4","last_reported":1727935994,"current_range_meters":28400,"station_id":"ce4bhnh2rcd13ifvqgug","pricing_plan_id":"cebpf4jnsgd1na2vs0mg"},{"bike_id":"06628443-07e2-4b30-a691-cb684c31ea43","system_id":"levelo_inurba_marseille","lat":43.23966,"lon":5.36644,"is_reserved":false,"is_disabled":false,"rental_uris":{"android":"levelo://app?vid=06628443-07e2-4b30-a691-cb684c31ea43","ios":"levelo://app?vid=06628443-07e2-4b30-a691-cb684c31ea43"},"vehicle_type_id":"4","last_reported":1727935994,"current_range_meters":37600,"station_id":"ce4bhi12rcd13ifvqfp0","pricing_plan_id":"cebpf4jnsgd1na2vs0mg"},{"bike_id":"80600f0c-a878-4525-a76d-5ab6ffa13ec6","system_id":"levelo_inurba_marseille","lat":43.32538,"lon":5.41425,"is_reserved":false,"is_disabled":false,"rental_uris":{"android":"levelo://app?vid=80600f0c-a878-4525-a76d-5ab6ffa13ec6","ios":"levelo://app?vid=80600f0c-a878-4525-a76d-5ab6ffa13ec6"},"vehicle_type_id":"4","last_reported":1727935994,"current_range_meters":30400,"station_id":"ce4bhq12rcd13ifvqhhg","pricing_plan_id":"cebpf4jnsgd1na2vs0mg"},{"bike_id":"bcdb3a91-ed05-4134-9d34-37cfc68d8724","system_id":"levelo_inurba_marseille","lat":43.30599,"lon":5.39361,"is_reserved":false,"is_disabled":false,"rental_uris":{"android":"levelo://app?vid=bcdb3a91-ed05-4134-9d34-37cfc68d8724","ios":"levelo://app?vid=bcdb3a91-ed05-4134-9d34-37cfc68d8724"},"vehicle_type_id":"4","last_reported":1727935994,"current_range_meters":33600,"station_id":"ce4bh0p2rcd13ifvqd80","pricing_plan_id":"cebpf4jnsgd1na2vs0mg"},{"bike_id":"18546fdf-b8ba-4aec-a245-1c584b1703fb","system_id":"levelo_inurba_marseille","lat":43.30156,"lon":5.38075,"is_reserved":false,"is_disabled":false,"rental_uris":{"android":"levelo://app?vid=18546fdf-b8ba-4aec-a245-1c584b1703fb","ios":"levelo://app?vid=18546fdf-b8ba-4aec-a245-1c584b1703fb"},"vehicle_type_id":"4","last_reported":1727935994,"current_range_meters":36400,"station_id":"ce4bgjp2rcd13ifvqbh0","pricing_plan_id":"cebpf4jnsgd1na2vs0mg"},{"bike_id":"15aceac8-9114-4050-aa3c-e5b9ab35d864","system_id":"levelo_inurba_marseille","lat":43.28398,"lon":5.37508,"is_reserved":false,"is_disabled":false,"rental_uris":{"android":"levelo://app?vid=15aceac8-9114-4050-aa3c-e5b9ab35d864","ios":"levelo://app?vid=15aceac8-9114-4050-aa3c-e5b9ab35d864"},"vehicle_type_id":"4","last_reported":1727935994,"current_range_meters":28400,"station_id":"ce4bh412rcd13ifvqds0","pricing_plan_id":"cebpf4jnsgd1na2vs0mg"},{"bike_id":"2200bfe2-0392-4050-bce4-a2f390196ef9","system_id":"levelo_inurba_marseille","lat":43.28718,"lon":5.37935,"is_reserved":false,"is_disabled":false,"rental_uris":{"android":"levelo://app?vid=2200bfe2-0392-4050-bce4-a2f390196ef9","ios":"levelo://app?vid=2200bfe2-0392-4050-bce4-a2f390196ef9"},"vehicle_type_id":"4","last_reported":1727935994,"current_range_meters":32400,"station_id":"ce4bh9p2rcd13ifvqec0","pricing_plan_id":"cebpf4jnsgd1na2vs0mg"},{"bike_id":"ddde5cdb-1734-46e7-be36-e57cfaf20115","system_id":"levelo_inurba_marseille","lat":43.32289,"lon":5.38282,"is_reserved":false,"is_disabled":false,"rental_uris":{"android":"levelo://app?vid=ddde5cdb-1734-46e7-be36-e57cfaf20115","ios":"levelo://app?vid=ddde5cdb-1734-46e7-be36-e57cfaf20115"},"vehicle_type_id":"4","last_reported":1727935994,"current_range_meters":29600,"station_id":"ce4bhr12rcd13ifvqhqg","pricing_plan_id":"cebpf4jnsgd1na2vs0mg"},{"bike_id":"74925788-746e-4704-86a3-45ee3bc0ed44","system_id":"levelo_inurba_marseille","lat":43.27994,"lon":5.41661,"is_reserved":false,"is_disabled":false,"rental_uris":{"android":"levelo://app?vid=74925788-746e-4704-86a3-45ee3bc0ed44","ios":"levelo://app?vid=74925788-746e-4704-86a3-45ee3bc0ed44"},"vehicle_type_id":"4","last_reported":1727935994,"current_range_meters":3200,"station_id":"ce4bho12rcd13ifvqh1g","pricing_plan_id":"cebpf4jnsgd1na2vs0mg"},{"bike_id":"635eb5e1-962a-48c0-a621-f69ce6106b10","system_id":"levelo_inurba_marseille","lat":43.290445,"lon":5.39972,"is_reserved":false,"is_disabled":false,"rental_uris":{"android":"levelo://app?vid=635eb5e1-962a-48c0-a621-f69ce6106b10","ios":"levelo://app?vid=635eb5e1-962a-48c0-a621-f69ce6106b10"},"vehicle_type_id":"4","last_reported":1727935994,"current_range_meters":38400,"station_id":"ce4bh392rcd13ifvqdm0","pricing_plan_id":"cebpf4jnsgd1na2vs0mg"},{"bike_id":"31fe5628-b4d4-4bfd-a453-b49b1f7a6dd3","system_id":"levelo_inurba_marseille","lat":43.30151,"lon":5.38065,"is_reserved":false,"is_disabled":false,"rental_uris":{"android":"levelo://app?vid=31fe5628-b4d4-4bfd-a453-b49b1f7a6dd3","ios":"levelo://app?vid=31fe5628-b4d4-4bfd-a453-b49b1f7a6dd3"},"vehicle_type_id":"4","last_reported":1727935994,"current_range_meters":19200,"station_id":"ce4bgjp2rcd13ifvqbh0","pricing_plan_id":"cebpf4jnsgd1na2vs0mg"},{"bike_id":"8e936721-be0c-4807-9a64-a74b533c4963","system_id":"levelo_inurba_marseille","lat":43.30198,"lon":5.39486,"is_reserved":false,"is_disabled":false,"rental_uris":{"android":"levelo://app?vid=8e936721-be0c-4807-9a64-a74b533c4963","ios":"levelo://app?vid=8e936721-be0c-4807-9a64-a74b533c4963"},"vehicle_type_id":"4","last_reported":1727935994,"current_range_meters":10800,"station_id":"ce4bh0p2rcd13ifvqd70","pricing_plan_id":"cebpf4jnsgd1na2vs0mg"},{"bike_id":"e1a289e3-9a3b-48ca-8adb-3428ce215cfc","system_id":"levelo_inurba_marseille","lat":43.26204,"lon":5.37927,"is_reserved":false,"is_disabled":false,"rental_uris":{"android":"levelo://app?vid=e1a289e3-9a3b-48ca-8adb-3428ce215cfc","ios":"levelo://app?vid=e1a289e3-9a3b-48ca-8adb-3428ce215cfc"},"vehicle_type_id":"4","last_reported":1727935994,"current_range_meters":37600,"station_id":"ce4bhjp2rcd13ifvqg90","pricing_plan_id":"cebpf4jnsgd1na2vs0mg"},{"bike_id":"1df334bf-3cad-41a3-ace7-9786f37bacb4","system_id":"levelo_inurba_marseille","lat":43.29793,"lon":5.37113,"is_reserved":false,"is_disabled":false,"rental_uris":{"android":"levelo://app?vid=1df334bf-3cad-41a3-ace7-9786f37bacb4","ios":"levelo://app?vid=1df334bf-3cad-41a3-ace7-9786f37bacb4"},"vehicle_type_id":"4","last_reported":1727935994,"current_range_meters":27600,"station_id":"ce4bgop2rcd13ifvqc1g","pricing_plan_id":"cebpf4jnsgd1na2vs0mg"},{"bike_id":"df535100-8297-43cd-a1be-84d06a08278f","system_id":"levelo_inurba_marseille","lat":43.289785,"lon":5.397127,"is_reserved":false,"is_disabled":false,"rental_uris":{"android":"levelo://app?vid=df535100-8297-43cd-a1be-84d06a08278f","ios":"levelo://app?vid=df535100-8297-43cd-a1be-84d06a08278f"},"vehicle_type_id":"4","last_reported":1727935994,"current_range_meters":26800,"station_id":"","pricing_plan_id":"cebpf4jnsgd1na2vs0mg"},{"bike_id":"f9a001dd-dda8-4793-9023-c66ab8dc3b99","system_id":"levelo_inurba_marseille","lat":43.31711,"lon":5.37747,"is_reserved":false,"is_disabled":false,"rental_uris":{"android":"levelo://app?vid=f9a001dd-dda8-4793-9023-c66ab8dc3b99","ios":"levelo://app?vid=f9a001dd-dda8-4793-9023-c66ab8dc3b99"},"vehicle_type_id":"4","last_reported":1727935994,"current_range_meters":38800,"station_id":"ce4bgth2rcd13ifvqch0","pricing_plan_id":"cebpf4jnsgd1na2vs0mg"},{"bike_id":"fffb215e-d4ac-463d-b4fe-e8aa368aa987","system_id":"levelo_inurba_marseille","lat":43.25498,"lon":5.37701,"is_reserved":false,"is_disabled":false,"rental_uris":{"android":"levelo://app?vid=fffb215e-d4ac-463d-b4fe-e8aa368aa987","ios":"levelo://app?vid=fffb215e-d4ac-463d-b4fe-e8aa368aa987"},"vehicle_type_id":"4","last_reported":1727935994,"current_range_meters":31200,"station_id":"ce4bhh12rcd13ifvqff0","pricing_plan_id":"cebpf4jnsgd1na2vs0mg"},{"bike_id":"720dd72a-583d-483f-92d0-95eedad622fc","system_id":"levelo_inurba_marseille","lat":43.29684,"lon":5.37282,"is_reserved":false,"is_disabled":false,"rental_uris":{"android":"levelo://app?vid=720dd72a-583d-483f-92d0-95eedad622fc","ios":"levelo://app?vid=720dd72a-583d-483f-92d0-95eedad622fc"},"vehicle_type_id":"4","last_reported":1727935994,"current_range_meters":36000,"station_id":"ce4bgk12rcd13ifvqbj0","pricing_plan_id":"cebpf4jnsgd1na2vs0mg"},{"bike_id":"41ef457d-d70e-4aba-a14d-4c1ced57710e","system_id":"levelo_inurba_marseille","lat":43.30594,"lon":5.393611,"is_reserved":false,"is_disabled":false,"rental_uris":{"android":"levelo://app?vid=41ef457d-d70e-4aba-a14d-4c1ced57710e","ios":"levelo://app?vid=41ef457d-d70e-4aba-a14d-4c1ced57710e"},"vehicle_type_id":"4","last_reported":1727935994,"current_range_meters":12000,"station_id":"ce4bh0p2rcd13ifvqd80","pricing_plan_id":"cebpf4jnsgd1na2vs0mg"},{"bike_id":"9a348fa3-70dd-4956-955a-32531f0427a6","system_id":"levelo_inurba_marseille","lat":43.26569,"lon":5.39,"is_reserved":false,"is_disabled":false,"rental_uris":{"android":"levelo://app?vid=9a348fa3-70dd-4956-955a-32531f0427a6","ios":"levelo://app?vid=9a348fa3-70dd-4956-955a-32531f0427a6"},"vehicle_type_id":"4","last_reported":1727935994,"current_range_meters":9600,"station_id":"ce4bhe12rcd13ifvqf30","pricing_plan_id":"cebpf4jnsgd1na2vs0mg"},{"bike_id":"27df8249-41f3-4add-9eaa-d179639b7650","system_id":"levelo_inurba_marseille","lat":43.29558,"lon":5.42281,"is_reserved":false,"is_disabled":false,"rental_uris":{"android":"levelo://app?vid=27df8249-41f3-4add-9eaa-d179639b7650","ios":"levelo://app?vid=27df8249-41f3-4add-9eaa-d179639b7650"},"vehicle_type_id":"4","last_reported":1727935994,"current_range_meters":38800,"station_id":"ce4bhph2rcd13ifvqhdg","pricing_plan_id":"cebpf4jnsgd1na2vs0mg"},{"bike_id":"c8e4ff73-620c-4248-92f7-758d5098242c","system_id":"levelo_inurba_marseille","lat":43.22928,"lon":5.35353,"is_reserved":false,"is_disabled":false,"rental_uris":{"android":"levelo://app?vid=c8e4ff73-620c-4248-92f7-758d5098242c","ios":"levelo://app?vid=c8e4ff73-620c-4248-92f7-758d5098242c"},"vehicle_type_id":"4","last_reported":1727935994,"current_range_meters":28400,"station_id":"cpo3532slgdg3j2ikp40","pricing_plan_id":"cebpf4jnsgd1na2vs0mg"},{"bike_id":"13f4eb08-081e-4f30-aa0c-f7102770c9d7","system_id":"levelo_inurba_marseille","lat":43.27495,"lon":5.42451,"is_reserved":false,"is_disabled":false,"rental_uris":{"android":"levelo://app?vid=13f4eb08-081e-4f30-aa0c-f7102770c9d7","ios":"levelo://app?vid=13f4eb08-081e-4f30-aa0c-f7102770c9d7"},"vehicle_type_id":"4","last_reported":1727935994,"current_range_meters":30400,"station_id":"ce4bhn92rcd13ifvqgrg","pricing_plan_id":"cebpf4jnsgd1na2vs0mg"},{"bike_id":"68374458-6ecf-41dd-baa0-b79a2d832bdb","system_id":"levelo_inurba_marseille","lat":43.30469,"lon":5.37906,"is_reserved":false,"is_disabled":false,"rental_uris":{"android":"levelo://app?vid=68374458-6ecf-41dd-baa0-b79a2d832bdb","ios":"levelo://app?vid=68374458-6ecf-41dd-baa0-b79a2d832bdb"},"vehicle_type_id":"4","last_reported":1727935994,"current_range_meters":38800,"station_id":"ce4bgup2rcd13ifvqcn0","pricing_plan_id":"cebpf4jnsgd1na2vs0mg"},{"bike_id":"1370c8fb-643a-4b34-8137-c9409a4e6422","system_id":"levelo_inurba_marseille","lat":43.27076,"lon":5.4228,"is_reserved":false,"is_disabled":false,"rental_uris":{"android":"levelo://app?vid=1370c8fb-643a-4b34-8137-c9409a4e6422","ios":"levelo://app?vid=1370c8fb-643a-4b34-8137-c9409a4e6422"},"vehicle_type_id":"4","last_reported":1727935994,"current_range_meters":26800,"station_id":"ce4bhk92rcd13ifvqgb0","pricing_plan_id":"cebpf4jnsgd1na2vs0mg"},{"bike_id":"d9db239b-fde2-4cf3-b873-e13b09aa0304","system_id":"levelo_inurba_marseille","lat":43.31347,"lon":5.36714,"is_reserved":false,"is_disabled":false,"rental_uris":{"android":"levelo://app?vid=d9db239b-fde2-4cf3-b873-e13b09aa0304","ios":"levelo://app?vid=d9db239b-fde2-4cf3-b873-e13b09aa0304"},"vehicle_type_id":"4","last_reported":1727935994,"current_range_meters":34800,"station_id":"ce4bgr92rcd13ifvqc6g","pricing_plan_id":"cebpf4jnsgd1na2vs0mg"},{"bike_id":"2828d600-cada-4286-b851-a226d9ca67d5","system_id":"levelo_inurba_marseille","lat":43.32537,"lon":5.41443,"is_reserved":false,"is_disabled":false,"rental_uris":{"android":"levelo://app?vid=2828d600-cada-4286-b851-a226d9ca67d5","ios":"levelo://app?vid=2828d600-cada-4286-b851-a226d9ca67d5"},"vehicle_type_id":"4","last_reported":1727935994,"current_range_meters":26800,"station_id":"ce4bhq12rcd13ifvqhhg","pricing_plan_id":"cebpf4jnsgd1na2vs0mg"},{"bike_id":"a2fa1170-547e-41c0-98f4-8e9574462491","system_id":"levelo_inurba_marseille","lat":43.2816,"lon":5.42643,"is_reserved":false,"is_disabled":false,"rental_uris":{"android":"levelo://app?vid=a2fa1170-547e-41c0-98f4-8e9574462491","ios":"levelo://app?vid=a2fa1170-547e-41c0-98f4-8e9574462491"},"vehicle_type_id":"4","last_reported":1727935994,"current_range_meters":38800,"station_id":"ce4bhnh2rcd13ifvqgug","pricing_plan_id":"cebpf4jnsgd1na2vs0mg"},{"bike_id":"6fa3df0c-6733-43fb-ae17-dc8a0b69a263","system_id":"levelo_inurba_marseille","lat":43.271719,"lon":5.409881,"is_reserved":false,"is_disabled":false,"rental_uris":{"android":"levelo://app?vid=6fa3df0c-6733-43fb-ae17-dc8a0b69a263","ios":"levelo://app?vid=6fa3df0c-6733-43fb-ae17-dc8a0b69a263"},"vehicle_type_id":"4","last_reported":1727935994,"current_range_meters":32000,"station_id":"ce4bhl12rcd13ifvqgf0","pricing_plan_id":"cebpf4jnsgd1na2vs0mg"},{"bike_id":"eb87f429-2ea0-45c7-9b78-4a44dee54353","system_id":"levelo_inurba_marseille","lat":43.29964,"lon":5.37172,"is_reserved":false,"is_disabled":false,"rental_uris":{"android":"levelo://app?vid=eb87f429-2ea0-45c7-9b78-4a44dee54353","ios":"levelo://app?vid=eb87f429-2ea0-45c7-9b78-4a44dee54353"},"vehicle_type_id":"4","last_reported":1727935994,"current_range_meters":38000,"station_id":"ce4bgr92rcd13ifvqc7g","pricing_plan_id":"cebpf4jnsgd1na2vs0mg"},{"bike_id":"15ee4cc8-b7da-4333-b609-011c01b9926f","system_id":"levelo_inurba_marseille","lat":43.30797,"lon":5.38788,"is_reserved":false,"is_disabled":false,"rental_uris":{"android":"levelo://app?vid=15ee4cc8-b7da-4333-b609-011c01b9926f","ios":"levelo://app?vid=15ee4cc8-b7da-4333-b609-011c01b9926f"},"vehicle_type_id":"4","last_reported":1727935994,"current_range_meters":31200,"station_id":"","pricing_plan_id":"cebpf4jnsgd1na2vs0mg"},{"bike_id":"f3087ddb-716a-4926-90e7-29318fcb5048","system_id":"levelo_inurba_marseille","lat":43.30462,"lon":5.37907,"is_reserved":false,"is_disabled":false,"rental_uris":{"android":"levelo://app?vid=f3087ddb-716a-4926-90e7-29318fcb5048","ios":"levelo://app?vid=f3087ddb-716a-4926-90e7-29318fcb5048"},"vehicle_type_id":"4","last_reported":1727935994,"current_range_meters":38000,"station_id":"ce4bgup2rcd13ifvqcn0","pricing_plan_id":"cebpf4jnsgd1na2vs0mg"},{"bike_id":"635ad047-e3fb-48ce-a122-984ad3b3630b","system_id":"levelo_inurba_marseille","lat":43.29044,"lon":5.39963,"is_reserved":false,"is_disabled":false,"rental_uris":{"android":"levelo://app?vid=635ad047-e3fb-48ce-a122-984ad3b3630b","ios":"levelo://app?vid=635ad047-e3fb-48ce-a122-984ad3b3630b"},"vehicle_type_id":"4","last_reported":1727935994,"current_range_meters":38400,"station_id":"ce4bh392rcd13ifvqdm0","pricing_plan_id":"cebpf4jnsgd1na2vs0mg"},{"bike_id":"11f82713-584b-4be0-b631-a50b1fdc6fb6","system_id":"levelo_inurba_marseille","lat":43.30908,"lon":5.36845,"is_reserved":false,"is_disabled":false,"rental_uris":{"android":"levelo://app?vid=11f82713-584b-4be0-b631-a50b1fdc6fb6","ios":"levelo://app?vid=11f82713-584b-4be0-b631-a50b1fdc6fb6"},"vehicle_type_id":"4","last_reported":1727935994,"current_range_meters":37600,"station_id":"ce4bgn92rcd13ifvqbvg","pricing_plan_id":"cebpf4jnsgd1na2vs0mg"},{"bike_id":"75b6d23c-8e6a-4f18-bb07-ff063c93e683","system_id":"levelo_inurba_marseille","lat":43.30926,"lon":5.36839,"is_reserved":false,"is_disabled":false,"rental_uris":{"android":"levelo://app?vid=75b6d23c-8e6a-4f18-bb07-ff063c93e683","ios":"levelo://app?vid=75b6d23c-8e6a-4f18-bb07-ff063c93e683"},"vehicle_type_id":"4","last_reported":1727935994,"current_range_meters":36800,"station_id":"ce4bgn92rcd13ifvqbvg","pricing_plan_id":"cebpf4jnsgd1na2vs0mg"},{"bike_id":"9c2fd0ca-e267-4c1d-b762-013b95a05410","system_id":"levelo_inurba_marseille","lat":43.28386,"lon":5.38641,"is_reserved":false,"is_disabled":false,"rental_uris":{"android":"levelo://app?vid=9c2fd0ca-e267-4c1d-b762-013b95a05410","ios":"levelo://app?vid=9c2fd0ca-e267-4c1d-b762-013b95a05410"},"vehicle_type_id":"4","last_reported":1727935994,"current_range_meters":4800,"station_id":"ce4bh492rcd13ifvqdvg","pricing_plan_id":"cebpf4jnsgd1na2vs0mg"},{"bike_id":"b09cd3b0-833b-42bf-b0fc-ee91e685c455","system_id":"levelo_inurba_marseille","lat":43.30464,"lon":5.37918,"is_reserved":false,"is_disabled":false,"rental_uris":{"android":"levelo://app?vid=b09cd3b0-833b-42bf-b0fc-ee91e685c455","ios":"levelo://app?vid=b09cd3b0-833b-42bf-b0fc-ee91e685c455"},"vehicle_type_id":"4","last_reported":1727935994,"current_range_meters":8400,"station_id":"ce4bgup2rcd13ifvqcn0","pricing_plan_id":"cebpf4jnsgd1na2vs0mg"},{"bike_id":"d87244d9-93d3-42b0-9d0f-fd679f42eee5","system_id":"levelo_inurba_marseille","lat":43.27496,"lon":5.42453,"is_reserved":false,"is_disabled":false,"rental_uris":{"android":"levelo://app?vid=d87244d9-93d3-42b0-9d0f-fd679f42eee5","ios":"levelo://app?vid=d87244d9-93d3-42b0-9d0f-fd679f42eee5"},"vehicle_type_id":"4","last_reported":1727935994,"current_range_meters":24000,"station_id":"ce4bhn92rcd13ifvqgrg","pricing_plan_id":"cebpf4jnsgd1na2vs0mg"},{"bike_id":"40fe3c03-056c-49c3-9cbf-95d893134aee","system_id":"levelo_inurba_marseille","lat":43.29927,"lon":5.36538,"is_reserved":false,"is_disabled":false,"rental_uris":{"android":"levelo://app?vid=40fe3c03-056c-49c3-9cbf-95d893134aee","ios":"levelo://app?vid=40fe3c03-056c-49c3-9cbf-95d893134aee"},"vehicle_type_id":"4","last_reported":1727935994,"current_range_meters":25600,"station_id":"ce4bgm92rcd13ifvqbr0","pricing_plan_id":"cebpf4jnsgd1na2vs0mg"},{"bike_id":"2622eb9f-fc97-46c1-8eb8-f53112ae61f7","system_id":"levelo_inurba_marseille","lat":43.23195,"lon":5.35553,"is_reserved":false,"is_disabled":false,"rental_uris":{"android":"levelo://app?vid=2622eb9f-fc97-46c1-8eb8-f53112ae61f7","ios":"levelo://app?vid=2622eb9f-fc97-46c1-8eb8-f53112ae61f7"},"vehicle_type_id":"4","last_reported":1727935994,"current_range_meters":30000,"station_id":"ce4bhu92rcd13ifvqi70","pricing_plan_id":"cebpf4jnsgd1na2vs0mg"},{"bike_id":"04cba3cc-f090-4d3f-8612-ec77b66c9200","system_id":"levelo_inurba_marseille","lat":43.31367,"lon":5.38503,"is_reserved":false,"is_disabled":false,"rental_uris":{"android":"levelo://app?vid=04cba3cc-f090-4d3f-8612-ec77b66c9200","ios":"levelo://app?vid=04cba3cc-f090-4d3f-8612-ec77b66c9200"},"vehicle_type_id":"4","last_reported":1727935994,"current_range_meters":38400,"station_id":"ce4bgt92rcd13ifvqcf0","pricing_plan_id":"cebpf4jnsgd1na2vs0mg"},{"bike_id":"2a06ff31-dfc7-46cd-9a25-2c0687013b94","system_id":"levelo_inurba_marseille","lat":43.30459,"lon":5.37906,"is_reserved":false,"is_disabled":false,"rental_uris":{"android":"levelo://app?vid=2a06ff31-dfc7-46cd-9a25-2c0687013b94","ios":"levelo://app?vid=2a06ff31-dfc7-46cd-9a25-2c0687013b94"},"vehicle_type_id":"4","last_reported":1727935994,"current_range_meters":39200,"station_id":"ce4bgup2rcd13ifvqcn0","pricing_plan_id":"cebpf4jnsgd1na2vs0mg"},{"bike_id":"258da59f-73d3-4e22-bd50-5d9d808b4340","system_id":"levelo_inurba_marseille","lat":43.26066,"lon":5.39389,"is_reserved":false,"is_disabled":false,"rental_uris":{"android":"levelo://app?vid=258da59f-73d3-4e22-bd50-5d9d808b4340","ios":"levelo://app?vid=258da59f-73d3-4e22-bd50-5d9d808b4340"},"vehicle_type_id":"4","last_reported":1727935994,"current_range_meters":17600,"station_id":"ce4bhh92rcd13ifvqfj0","pricing_plan_id":"cebpf4jnsgd1na2vs0mg"},{"bike_id":"8e17e6bd-7fee-4168-ab35-067c96e99b49","system_id":"levelo_inurba_marseille","lat":43.28944,"lon":5.39632,"is_reserved":false,"is_disabled":false,"rental_uris":{"android":"levelo://app?vid=8e17e6bd-7fee-4168-ab35-067c96e99b49","ios":"levelo://app?vid=8e17e6bd-7fee-4168-ab35-067c96e99b49"},"vehicle_type_id":"4","last_reported":1727935994,"current_range_meters":39200,"station_id":"ce4bh3h2rcd13ifvqdn0","pricing_plan_id":"cebpf4jnsgd1na2vs0mg"},{"bike_id":"8b44a67e-6f56-409b-8744-4d0d9f0c7768","system_id":"levelo_inurba_marseille","lat":43.296082,"lon":5.381029,"is_reserved":false,"is_disabled":false,"rental_uris":{"android":"levelo://app?vid=8b44a67e-6f56-409b-8744-4d0d9f0c7768","ios":"levelo://app?vid=8b44a67e-6f56-409b-8744-4d0d9f0c7768"},"vehicle_type_id":"4","last_reported":1727935994,"current_range_meters":25200,"station_id":"","pricing_plan_id":"cebpf4jnsgd1na2vs0mg"},{"bike_id":"588610fc-a324-4df8-9499-141a903cebd2","system_id":"levelo_inurba_marseille","lat":43.31714,"lon":5.43704,"is_reserved":false,"is_disabled":false,"rental_uris":{"android":"levelo://app?vid=588610fc-a324-4df8-9499-141a903cebd2","ios":"levelo://app?vid=588610fc-a324-4df8-9499-141a903cebd2"},"vehicle_type_id":"4","last_reported":1727935994,"current_range_meters":30400,"station_id":"ce4bhp92rcd13ifvqhcg","pricing_plan_id":"cebpf4jnsgd1na2vs0mg"},{"bike_id":"e8c05ec0-efd0-4149-a365-dd3354f8ebce","system_id":"levelo_inurba_marseille","lat":43.30786,"lon":5.37638,"is_reserved":false,"is_disabled":false,"rental_uris":{"android":"levelo://app?vid=e8c05ec0-efd0-4149-a365-dd3354f8ebce","ios":"levelo://app?vid=e8c05ec0-efd0-4149-a365-dd3354f8ebce"},"vehicle_type_id":"4","last_reported":1727935994,"current_range_meters":33600,"station_id":"ce4bgv92rcd13ifvqcq0","pricing_plan_id":"cebpf4jnsgd1na2vs0mg"},{"bike_id":"23fcd5dc-52e3-40b6-b601-8da82c35b64a","system_id":"levelo_inurba_marseille","lat":43.23194,"lon":5.35542,"is_reserved":false,"is_disabled":false,"rental_uris":{"android":"levelo://app?vid=23fcd5dc-52e3-40b6-b601-8da82c35b64a","ios":"levelo://app?vid=23fcd5dc-52e3-40b6-b601-8da82c35b64a"},"vehicle_type_id":"4","last_reported":1727935994,"current_range_meters":38400,"station_id":"ce4bhu92rcd13ifvqi70","pricing_plan_id":"cebpf4jnsgd1na2vs0mg"},{"bike_id":"8bc8d4b7-f85b-46f3-a580-a5285ba07dab","system_id":"levelo_inurba_marseille","lat":43.23186,"lon":5.39984,"is_reserved":false,"is_disabled":false,"rental_uris":{"android":"levelo://app?vid=8bc8d4b7-f85b-46f3-a580-a5285ba07dab","ios":"levelo://app?vid=8bc8d4b7-f85b-46f3-a580-a5285ba07dab"},"vehicle_type_id":"4","last_reported":1727935994,"current_range_meters":38400,"station_id":"ce4bhn12rcd13ifvqgqg","pricing_plan_id":"cebpf4jnsgd1na2vs0mg"},{"bike_id":"a57d2d5c-3901-4a22-bd1a-3fe35a6ae252","system_id":"levelo_inurba_marseille","lat":43.28678,"lon":5.38333,"is_reserved":false,"is_disabled":false,"rental_uris":{"android":"levelo://app?vid=a57d2d5c-3901-4a22-bd1a-3fe35a6ae252","ios":"levelo://app?vid=a57d2d5c-3901-4a22-bd1a-3fe35a6ae252"},"vehicle_type_id":"4","last_reported":1727935994,"current_range_meters":25200,"station_id":"","pricing_plan_id":"cebpf4jnsgd1na2vs0mg"},{"bike_id":"85bd7558-6d85-4377-a41c-bf41443aa16b","system_id":"levelo_inurba_marseille","lat":43.31368,"lon":5.3849,"is_reserved":false,"is_disabled":false,"rental_uris":{"android":"levelo://app?vid=85bd7558-6d85-4377-a41c-bf41443aa16b","ios":"levelo://app?vid=85bd7558-6d85-4377-a41c-bf41443aa16b"},"vehicle_type_id":"4","last_reported":1727935994,"current_range_meters":8400,"station_id":"ce4bgt92rcd13ifvqcf0","pricing_plan_id":"cebpf4jnsgd1na2vs0mg"},{"bike_id":"449cf1e6-3d4e-41a7-9c2e-23a1ffef0ce4","system_id":"levelo_inurba_marseille","lat":43.24393,"lon":5.37057,"is_reserved":false,"is_disabled":false,"rental_uris":{"android":"levelo://app?vid=449cf1e6-3d4e-41a7-9c2e-23a1ffef0ce4","ios":"levelo://app?vid=449cf1e6-3d4e-41a7-9c2e-23a1ffef0ce4"},"vehicle_type_id":"4","last_reported":1727935994,"current_range_meters":38800,"station_id":"ce4bhhh2rcd13ifvqfk0","pricing_plan_id":"cebpf4jnsgd1na2vs0mg"},{"bike_id":"7b8bdd2e-0e44-41d8-a0df-cd6601d22f85","system_id":"levelo_inurba_marseille","lat":43.30471,"lon":5.37906,"is_reserved":false,"is_disabled":false,"rental_uris":{"android":"levelo://app?vid=7b8bdd2e-0e44-41d8-a0df-cd6601d22f85","ios":"levelo://app?vid=7b8bdd2e-0e44-41d8-a0df-cd6601d22f85"},"vehicle_type_id":"4","last_reported":1727935994,"current_range_meters":6800,"station_id":"ce4bgup2rcd13ifvqcn0","pricing_plan_id":"cebpf4jnsgd1na2vs0mg"},{"bike_id":"17f121fc-8e6e-4f5b-991a-f38497b89588","system_id":"levelo_inurba_marseille","lat":43.27495,"lon":5.42446,"is_reserved":false,"is_disabled":false,"rental_uris":{"android":"levelo://app?vid=17f121fc-8e6e-4f5b-991a-f38497b89588","ios":"levelo://app?vid=17f121fc-8e6e-4f5b-991a-f38497b89588"},"vehicle_type_id":"4","last_reported":1727935994,"current_range_meters":8000,"station_id":"ce4bhn92rcd13ifvqgrg","pricing_plan_id":"cebpf4jnsgd1na2vs0mg"},{"bike_id":"11165ce5-66e2-4cc9-8911-52fbd3c73e7b","system_id":"levelo_inurba_marseille","lat":43.27847,"lon":5.39212,"is_reserved":false,"is_disabled":false,"rental_uris":{"android":"levelo://app?vid=11165ce5-66e2-4cc9-8911-52fbd3c73e7b","ios":"levelo://app?vid=11165ce5-66e2-4cc9-8911-52fbd3c73e7b"},"vehicle_type_id":"4","last_reported":1727935994,"current_range_meters":32400,"station_id":"ce4bhjp2rcd13ifvqga0","pricing_plan_id":"cebpf4jnsgd1na2vs0mg"},{"bike_id":"c90fe44d-f30a-41b1-889b-18fd360f9607","system_id":"levelo_inurba_marseille","lat":43.28858,"lon":5.35843,"is_reserved":false,"is_disabled":false,"rental_uris":{"android":"levelo://app?vid=c90fe44d-f30a-41b1-889b-18fd360f9607","ios":"levelo://app?vid=c90fe44d-f30a-41b1-889b-18fd360f9607"},"vehicle_type_id":"4","last_reported":1727935994,"current_range_meters":38000,"station_id":"ce4bhb12rcd13ifvqem0","pricing_plan_id":"cebpf4jnsgd1na2vs0mg"},{"bike_id":"53c0cac3-947b-4cb1-a27f-49a1b43a7af3","system_id":"levelo_inurba_marseille","lat":43.31347,"lon":5.36721,"is_reserved":false,"is_disabled":false,"rental_uris":{"android":"levelo://app?vid=53c0cac3-947b-4cb1-a27f-49a1b43a7af3","ios":"levelo://app?vid=53c0cac3-947b-4cb1-a27f-49a1b43a7af3"},"vehicle_type_id":"4","last_reported":1727935994,"current_range_meters":6800,"station_id":"ce4bgr92rcd13ifvqc6g","pricing_plan_id":"cebpf4jnsgd1na2vs0mg"},{"bike_id":"0e411b51-0311-4d19-ab7b-df48209a5f46","system_id":"levelo_inurba_marseille","lat":43.258529,"lon":5.398939,"is_reserved":false,"is_disabled":false,"rental_uris":{"android":"levelo://app?vid=0e411b51-0311-4d19-ab7b-df48209a5f46","ios":"levelo://app?vid=0e411b51-0311-4d19-ab7b-df48209a5f46"},"vehicle_type_id":"4","last_reported":1727935994,"current_range_meters":18800,"station_id":"ce4bh3h2rcd13ifvqdn0","pricing_plan_id":"cebpf4jnsgd1na2vs0mg"},{"bike_id":"8e915b9f-2ef4-46c6-8297-21086caa556d","system_id":"levelo_inurba_marseille","lat":43.30468,"lon":5.37906,"is_reserved":false,"is_disabled":false,"rental_uris":{"android":"levelo://app?vid=8e915b9f-2ef4-46c6-8297-21086caa556d","ios":"levelo://app?vid=8e915b9f-2ef4-46c6-8297-21086caa556d"},"vehicle_type_id":"4","last_reported":1727935994,"current_range_meters":27600,"station_id":"ce4bgup2rcd13ifvqcn0","pricing_plan_id":"cebpf4jnsgd1na2vs0mg"},{"bike_id":"b32e85ec-5f5b-4e5e-b4af-8af95217bad1","system_id":"levelo_inurba_marseille","lat":43.28943,"lon":5.36637,"is_reserved":false,"is_disabled":false,"rental_uris":{"android":"levelo://app?vid=b32e85ec-5f5b-4e5e-b4af-8af95217bad1","ios":"levelo://app?vid=b32e85ec-5f5b-4e5e-b4af-8af95217bad1"},"vehicle_type_id":"4","last_reported":1727935994,"current_range_meters":36400,"station_id":"ce4bhap2rcd13ifvqek0","pricing_plan_id":"cebpf4jnsgd1na2vs0mg"},{"bike_id":"d9513a24-3235-43a7-b9a5-1c5cfe37603f","system_id":"levelo_inurba_marseille","lat":43.23058,"lon":5.35495,"is_reserved":false,"is_disabled":false,"rental_uris":{"android":"levelo://app?vid=d9513a24-3235-43a7-b9a5-1c5cfe37603f","ios":"levelo://app?vid=d9513a24-3235-43a7-b9a5-1c5cfe37603f"},"vehicle_type_id":"4","last_reported":1727935994,"current_range_meters":30800,"station_id":"cpo3342slgdg3j2ifvpg","pricing_plan_id":"cebpf4jnsgd1na2vs0mg"},{"bike_id":"772088a0-7828-4f69-ba5d-0f6cdb83dec2","system_id":"levelo_inurba_marseille","lat":43.27215,"lon":5.39169,"is_reserved":false,"is_disabled":false,"rental_uris":{"android":"levelo://app?vid=772088a0-7828-4f69-ba5d-0f6cdb83dec2","ios":"levelo://app?vid=772088a0-7828-4f69-ba5d-0f6cdb83dec2"},"vehicle_type_id":"4","last_reported":1727935994,"current_range_meters":2800,"station_id":"","pricing_plan_id":"cebpf4jnsgd1na2vs0mg"},{"bike_id":"0dccf72e-5edd-4a7b-9704-6643582b6af2","system_id":"levelo_inurba_marseille","lat":43.31176,"lon":5.38663,"is_reserved":false,"is_disabled":false,"rental_uris":{"android":"levelo://app?vid=0dccf72e-5edd-4a7b-9704-6643582b6af2","ios":"levelo://app?vid=0dccf72e-5edd-4a7b-9704-6643582b6af2"},"vehicle_type_id":"4","last_reported":1727935994,"current_range_meters":15200,"station_id":"ce4bgup2rcd13ifvqcn0","pricing_plan_id":"cebpf4jnsgd1na2vs0mg"},{"bike_id":"b56ee5cb-b721-4def-bfb6-e1eb97f75f01","system_id":"levelo_inurba_marseille","lat":43.28718,"lon":5.37944,"is_reserved":false,"is_disabled":false,"rental_uris":{"android":"levelo://app?vid=b56ee5cb-b721-4def-bfb6-e1eb97f75f01","ios":"levelo://app?vid=b56ee5cb-b721-4def-bfb6-e1eb97f75f01"},"vehicle_type_id":"4","last_reported":1727935994,"current_range_meters":35600,"station_id":"ce4bh9p2rcd13ifvqec0","pricing_plan_id":"cebpf4jnsgd1na2vs0mg"},{"bike_id":"89f79560-9417-4d80-afea-9f3796d9baaf","system_id":"levelo_inurba_marseille","lat":43.337444,"lon":5.374475,"is_reserved":false,"is_disabled":false,"rental_uris":{"android":"levelo://app?vid=89f79560-9417-4d80-afea-9f3796d9baaf","ios":"levelo://app?vid=89f79560-9417-4d80-afea-9f3796d9baaf"},"vehicle_type_id":"4","last_reported":1727935994,"current_range_meters":11600,"station_id":"","pricing_plan_id":"cebpf4jnsgd1na2vs0mg"},{"bike_id":"7a6b4e75-1cb2-4959-8187-5691b78f74e7","system_id":"levelo_inurba_marseille","lat":43.32537,"lon":5.41427,"is_reserved":false,"is_disabled":false,"rental_uris":{"android":"levelo://app?vid=7a6b4e75-1cb2-4959-8187-5691b78f74e7","ios":"levelo://app?vid=7a6b4e75-1cb2-4959-8187-5691b78f74e7"},"vehicle_type_id":"4","last_reported":1727935994,"current_range_meters":38800,"station_id":"ce4bhq12rcd13ifvqhhg","pricing_plan_id":"cebpf4jnsgd1na2vs0mg"},{"bike_id":"6fd16a7b-4e9c-4e8a-94e7-e148c8011738","system_id":"levelo_inurba_marseille","lat":43.30452,"lon":5.37906,"is_reserved":false,"is_disabled":false,"rental_uris":{"android":"levelo://app?vid=6fd16a7b-4e9c-4e8a-94e7-e148c8011738","ios":"levelo://app?vid=6fd16a7b-4e9c-4e8a-94e7-e148c8011738"},"vehicle_type_id":"4","last_reported":1727935994,"current_range_meters":36000,"station_id":"ce4bgup2rcd13ifvqcn0","pricing_plan_id":"cebpf4jnsgd1na2vs0mg"},{"bike_id":"93b54767-0b4a-4d85-97f8-831e77231448","system_id":"levelo_inurba_marseille","lat":43.31087,"lon":5.42431,"is_reserved":false,"is_disabled":false,"rental_uris":{"android":"levelo://app?vid=93b54767-0b4a-4d85-97f8-831e77231448","ios":"levelo://app?vid=93b54767-0b4a-4d85-97f8-831e77231448"},"vehicle_type_id":"4","last_reported":1727935994,"current_range_meters":38000,"station_id":"ce4bhp92rcd13ifvqhag","pricing_plan_id":"cebpf4jnsgd1na2vs0mg"},{"bike_id":"3e03d68a-eb89-4ef7-97ff-4e17cccef688","system_id":"levelo_inurba_marseille","lat":43.29801,"lon":5.38092,"is_reserved":false,"is_disabled":false,"rental_uris":{"android":"levelo://app?vid=3e03d68a-eb89-4ef7-97ff-4e17cccef688","ios":"levelo://app?vid=3e03d68a-eb89-4ef7-97ff-4e17cccef688"},"vehicle_type_id":"4","last_reported":1727935994,"current_range_meters":22800,"station_id":"ce4bgip2rcd13ifvqbb0","pricing_plan_id":"cebpf4jnsgd1na2vs0mg"},{"bike_id":"34ef6c5d-a901-4648-89ea-e9f18291da2e","system_id":"levelo_inurba_marseille","lat":43.31534,"lon":5.38021,"is_reserved":false,"is_disabled":false,"rental_uris":{"android":"levelo://app?vid=34ef6c5d-a901-4648-89ea-e9f18291da2e","ios":"levelo://app?vid=34ef6c5d-a901-4648-89ea-e9f18291da2e"},"vehicle_type_id":"4","last_reported":1727935994,"current_range_meters":38000,"station_id":"ce4bhsp2rcd13ifvqi50","pricing_plan_id":"cebpf4jnsgd1na2vs0mg"},{"bike_id":"dcd75671-caf1-40bc-b80f-b583d6e3f773","system_id":"levelo_inurba_marseille","lat":43.29196,"lon":5.35809,"is_reserved":false,"is_disabled":false,"rental_uris":{"android":"levelo://app?vid=dcd75671-caf1-40bc-b80f-b583d6e3f773","ios":"levelo://app?vid=dcd75671-caf1-40bc-b80f-b583d6e3f773"},"vehicle_type_id":"4","last_reported":1727935994,"current_range_meters":36800,"station_id":"ce4bhb12rcd13ifvqel0","pricing_plan_id":"cebpf4jnsgd1na2vs0mg"},{"bike_id":"90b39f78-8504-4218-bbae-f9428a3e07b5","system_id":"levelo_inurba_marseille","lat":43.29186,"lon":5.40248,"is_reserved":false,"is_disabled":false,"rental_uris":{"android":"levelo://app?vid=90b39f78-8504-4218-bbae-f9428a3e07b5","ios":"levelo://app?vid=90b39f78-8504-4218-bbae-f9428a3e07b5"},"vehicle_type_id":"4","last_reported":1727935994,"current_range_meters":27600,"station_id":"","pricing_plan_id":"cebpf4jnsgd1na2vs0mg"},{"bike_id":"6969f528-4a62-42e3-84a6-9475bef01981","system_id":"levelo_inurba_marseille","lat":43.3361,"lon":5.41033,"is_reserved":false,"is_disabled":false,"rental_uris":{"android":"levelo://app?vid=6969f528-4a62-42e3-84a6-9475bef01981","ios":"levelo://app?vid=6969f528-4a62-42e3-84a6-9475bef01981"},"vehicle_type_id":"4","last_reported":1727935994,"current_range_meters":35200,"station_id":"ce4bhqh2rcd13ifvqhmg","pricing_plan_id":"cebpf4jnsgd1na2vs0mg"},{"bike_id":"a5456862-7def-4d0b-b9ca-736abd5c040c","system_id":"levelo_inurba_marseille","lat":43.28731,"lon":5.360907,"is_reserved":false,"is_disabled":false,"rental_uris":{"android":"levelo://app?vid=a5456862-7def-4d0b-b9ca-736abd5c040c","ios":"levelo://app?vid=a5456862-7def-4d0b-b9ca-736abd5c040c"},"vehicle_type_id":"4","last_reported":1727935994,"current_range_meters":38000,"station_id":"cki0cbj6b192h4jlfktg","pricing_plan_id":"cebpf4jnsgd1na2vs0mg"},{"bike_id":"2b0693c0-ad8d-424c-befa-3b85cb467101","system_id":"levelo_inurba_marseille","lat":43.27992,"lon":5.41657,"is_reserved":false,"is_disabled":false,"rental_uris":{"android":"levelo://app?vid=2b0693c0-ad8d-424c-befa-3b85cb467101","ios":"levelo://app?vid=2b0693c0-ad8d-424c-befa-3b85cb467101"},"vehicle_type_id":"4","last_reported":1727935994,"current_range_meters":28400,"station_id":"ce4bho12rcd13ifvqh1g","pricing_plan_id":"cebpf4jnsgd1na2vs0mg"},{"bike_id":"6741ba96-9e91-40e3-ba99-8343f03dbbd1","system_id":"levelo_inurba_marseille","lat":43.24077,"lon":5.37759,"is_reserved":false,"is_disabled":false,"rental_uris":{"android":"levelo://app?vid=6741ba96-9e91-40e3-ba99-8343f03dbbd1","ios":"levelo://app?vid=6741ba96-9e91-40e3-ba99-8343f03dbbd1"},"vehicle_type_id":"4","last_reported":1727935994,"current_range_meters":24800,"station_id":"ce4bhnp2rcd13ifvqgvg","pricing_plan_id":"cebpf4jnsgd1na2vs0mg"},{"bike_id":"02aa4ca0-fdd5-460b-97aa-9f28ef483145","system_id":"levelo_inurba_marseille","lat":43.30473,"lon":5.37906,"is_reserved":false,"is_disabled":false,"rental_uris":{"android":"levelo://app?vid=02aa4ca0-fdd5-460b-97aa-9f28ef483145","ios":"levelo://app?vid=02aa4ca0-fdd5-460b-97aa-9f28ef483145"},"vehicle_type_id":"4","last_reported":1727935994,"current_range_meters":29600,"station_id":"ce4bgup2rcd13ifvqcn0","pricing_plan_id":"cebpf4jnsgd1na2vs0mg"},{"bike_id":"a0eff93a-8c62-4d6d-9283-59c4a9b5f8e7","system_id":"levelo_inurba_marseille","lat":43.24389,"lon":5.37062,"is_reserved":false,"is_disabled":false,"rental_uris":{"android":"levelo://app?vid=a0eff93a-8c62-4d6d-9283-59c4a9b5f8e7","ios":"levelo://app?vid=a0eff93a-8c62-4d6d-9283-59c4a9b5f8e7"},"vehicle_type_id":"4","last_reported":1727935994,"current_range_meters":38800,"station_id":"ce4bhhh2rcd13ifvqfk0","pricing_plan_id":"cebpf4jnsgd1na2vs0mg"},{"bike_id":"393257c4-c7fb-41ab-8bba-65af5f58c868","system_id":"levelo_inurba_marseille","lat":43.31362,"lon":5.36727,"is_reserved":false,"is_disabled":false,"rental_uris":{"android":"levelo://app?vid=393257c4-c7fb-41ab-8bba-65af5f58c868","ios":"levelo://app?vid=393257c4-c7fb-41ab-8bba-65af5f58c868"},"vehicle_type_id":"4","last_reported":1727935994,"current_range_meters":3600,"station_id":"ce4bgr92rcd13ifvqc6g","pricing_plan_id":"cebpf4jnsgd1na2vs0mg"},{"bike_id":"b3f4ac8f-050b-4f42-b3a4-8ea17fb3a287","system_id":"levelo_inurba_marseille","lat":43.28356,"lon":5.38104,"is_reserved":false,"is_disabled":false,"rental_uris":{"android":"levelo://app?vid=b3f4ac8f-050b-4f42-b3a4-8ea17fb3a287","ios":"levelo://app?vid=b3f4ac8f-050b-4f42-b3a4-8ea17fb3a287"},"vehicle_type_id":"4","last_reported":1727935994,"current_range_meters":33600,"station_id":"ce4bh412rcd13ifvqdr0","pricing_plan_id":"cebpf4jnsgd1na2vs0mg"},{"bike_id":"131aa0a7-4ccb-4b26-adec-65ee066db32a","system_id":"levelo_inurba_marseille","lat":43.27902,"lon":5.38008,"is_reserved":false,"is_disabled":false,"rental_uris":{"android":"levelo://app?vid=131aa0a7-4ccb-4b26-adec-65ee066db32a","ios":"levelo://app?vid=131aa0a7-4ccb-4b26-adec-65ee066db32a"},"vehicle_type_id":"4","last_reported":1727935994,"current_range_meters":19600,"station_id":"ce4bhf92rcd13ifvqf50","pricing_plan_id":"cebpf4jnsgd1na2vs0mg"},{"bike_id":"ffa6f6de-aedd-4db1-b63b-bfe3e02c9fdb","system_id":"levelo_inurba_marseille","lat":43.29275,"lon":5.40117,"is_reserved":false,"is_disabled":false,"rental_uris":{"android":"levelo://app?vid=ffa6f6de-aedd-4db1-b63b-bfe3e02c9fdb","ios":"levelo://app?vid=ffa6f6de-aedd-4db1-b63b-bfe3e02c9fdb"},"vehicle_type_id":"4","last_reported":1727935994,"current_range_meters":18800,"station_id":"ce4bh312rcd13ifvqdk0","pricing_plan_id":"cebpf4jnsgd1na2vs0mg"},{"bike_id":"6f239231-5594-45aa-abc9-aa64c98a50b0","system_id":"levelo_inurba_marseille","lat":43.23962,"lon":5.36631,"is_reserved":false,"is_disabled":false,"rental_uris":{"android":"levelo://app?vid=6f239231-5594-45aa-abc9-aa64c98a50b0","ios":"levelo://app?vid=6f239231-5594-45aa-abc9-aa64c98a50b0"},"vehicle_type_id":"4","last_reported":1727935994,"current_range_meters":38000,"station_id":"ce4bhi12rcd13ifvqfp0","pricing_plan_id":"cebpf4jnsgd1na2vs0mg"},{"bike_id":"214f0f78-1ded-4796-b42b-98972990871e","system_id":"levelo_inurba_marseille","lat":43.30613,"lon":5.37228,"is_reserved":false,"is_disabled":false,"rental_uris":{"android":"levelo://app?vid=214f0f78-1ded-4796-b42b-98972990871e","ios":"levelo://app?vid=214f0f78-1ded-4796-b42b-98972990871e"},"vehicle_type_id":"4","last_reported":1727935994,"current_range_meters":35200,"station_id":"ce4bgqh2rcd13ifvqc4g","pricing_plan_id":"cebpf4jnsgd1na2vs0mg"},{"bike_id":"14c60460-836f-4ccc-a632-c8b1a3d5e848","system_id":"levelo_inurba_marseille","lat":43.28306,"lon":5.38573,"is_reserved":false,"is_disabled":false,"rental_uris":{"android":"levelo://app?vid=14c60460-836f-4ccc-a632-c8b1a3d5e848","ios":"levelo://app?vid=14c60460-836f-4ccc-a632-c8b1a3d5e848"},"vehicle_type_id":"4","last_reported":1727935994,"current_range_meters":32400,"station_id":"","pricing_plan_id":"cebpf4jnsgd1na2vs0mg"},{"bike_id":"f306c6b5-12b9-420f-abb1-1bf055bfc5f2","system_id":"levelo_inurba_marseille","lat":43.27496,"lon":5.42457,"is_reserved":false,"is_disabled":false,"rental_uris":{"android":"levelo://app?vid=f306c6b5-12b9-420f-abb1-1bf055bfc5f2","ios":"levelo://app?vid=f306c6b5-12b9-420f-abb1-1bf055bfc5f2"},"vehicle_type_id":"4","last_reported":1727935994,"current_range_meters":18800,"station_id":"ce4bhn92rcd13ifvqgrg","pricing_plan_id":"cebpf4jnsgd1na2vs0mg"},{"bike_id":"4b10a9ba-cf18-441b-a8dc-8c0bcdc89826","system_id":"levelo_inurba_marseille","lat":43.27499,"lon":5.42457,"is_reserved":false,"is_disabled":false,"rental_uris":{"android":"levelo://app?vid=4b10a9ba-cf18-441b-a8dc-8c0bcdc89826","ios":"levelo://app?vid=4b10a9ba-cf18-441b-a8dc-8c0bcdc89826"},"vehicle_type_id":"4","last_reported":1727935994,"current_range_meters":30000,"station_id":"ce4bhn92rcd13ifvqgrg","pricing_plan_id":"cebpf4jnsgd1na2vs0mg"},{"bike_id":"d1256e77-7e57-4858-ad0e-d3b6fdd4c1ee","system_id":"levelo_inurba_marseille","lat":43.27996,"lon":5.41656,"is_reserved":false,"is_disabled":false,"rental_uris":{"android":"levelo://app?vid=d1256e77-7e57-4858-ad0e-d3b6fdd4c1ee","ios":"levelo://app?vid=d1256e77-7e57-4858-ad0e-d3b6fdd4c1ee"},"vehicle_type_id":"4","last_reported":1727935994,"current_range_meters":29600,"station_id":"ce4bho12rcd13ifvqh1g","pricing_plan_id":"cebpf4jnsgd1na2vs0mg"},{"bike_id":"98a3f182-24ae-4e2b-8af8-d9e73a83a51d","system_id":"levelo_inurba_marseille","lat":43.31392,"lon":5.3853,"is_reserved":false,"is_disabled":false,"rental_uris":{"android":"levelo://app?vid=98a3f182-24ae-4e2b-8af8-d9e73a83a51d","ios":"levelo://app?vid=98a3f182-24ae-4e2b-8af8-d9e73a83a51d"},"vehicle_type_id":"4","last_reported":1727935994,"current_range_meters":38800,"station_id":"","pricing_plan_id":"cebpf4jnsgd1na2vs0mg"},{"bike_id":"05f06e64-81e9-4daf-93c2-8a745545415a","system_id":"levelo_inurba_marseille","lat":43.24073,"lon":5.37763,"is_reserved":false,"is_disabled":false,"rental_uris":{"android":"levelo://app?vid=05f06e64-81e9-4daf-93c2-8a745545415a","ios":"levelo://app?vid=05f06e64-81e9-4daf-93c2-8a745545415a"},"vehicle_type_id":"4","last_reported":1727935994,"current_range_meters":12800,"station_id":"ce4bhnp2rcd13ifvqgvg","pricing_plan_id":"cebpf4jnsgd1na2vs0mg"},{"bike_id":"0d1a8df2-17cd-49e7-a7e3-62ed7164adf2","system_id":"levelo_inurba_marseille","lat":43.33603,"lon":5.41036,"is_reserved":false,"is_disabled":false,"rental_uris":{"android":"levelo://app?vid=0d1a8df2-17cd-49e7-a7e3-62ed7164adf2","ios":"levelo://app?vid=0d1a8df2-17cd-49e7-a7e3-62ed7164adf2"},"vehicle_type_id":"4","last_reported":1727935994,"current_range_meters":8400,"station_id":"ce4bhqh2rcd13ifvqhmg","pricing_plan_id":"cebpf4jnsgd1na2vs0mg"},{"bike_id":"5084d4e8-22d7-4248-aec8-4997331ff1e0","system_id":"levelo_inurba_marseille","lat":43.22923,"lon":5.35383,"is_reserved":false,"is_disabled":false,"rental_uris":{"android":"levelo://app?vid=5084d4e8-22d7-4248-aec8-4997331ff1e0","ios":"levelo://app?vid=5084d4e8-22d7-4248-aec8-4997331ff1e0"},"vehicle_type_id":"4","last_reported":1727935994,"current_range_meters":36000,"station_id":"cpo3532slgdg3j2ikp40","pricing_plan_id":"cebpf4jnsgd1na2vs0mg"},{"bike_id":"f8f88fe8-7496-4c94-ba33-982ac55343c8","system_id":"levelo_inurba_marseille","lat":43.27501,"lon":5.42457,"is_reserved":false,"is_disabled":false,"rental_uris":{"android":"levelo://app?vid=f8f88fe8-7496-4c94-ba33-982ac55343c8","ios":"levelo://app?vid=f8f88fe8-7496-4c94-ba33-982ac55343c8"},"vehicle_type_id":"4","last_reported":1727935994,"current_range_meters":22800,"station_id":"ce4bhn92rcd13ifvqgrg","pricing_plan_id":"cebpf4jnsgd1na2vs0mg"},{"bike_id":"58469d25-31ab-47dc-8c85-c31d59b329e9","system_id":"levelo_inurba_marseille","lat":43.26985,"lon":5.40809,"is_reserved":false,"is_disabled":false,"rental_uris":{"android":"levelo://app?vid=58469d25-31ab-47dc-8c85-c31d59b329e9","ios":"levelo://app?vid=58469d25-31ab-47dc-8c85-c31d59b329e9"},"vehicle_type_id":"4","last_reported":1727935994,"current_range_meters":8800,"station_id":"","pricing_plan_id":"cebpf4jnsgd1na2vs0mg"},{"bike_id":"bbb1cf9c-d3a7-43df-ac3e-38e9c1b58335","system_id":"levelo_inurba_marseille","lat":43.2957,"lon":5.39983,"is_reserved":false,"is_disabled":false,"rental_uris":{"android":"levelo://app?vid=bbb1cf9c-d3a7-43df-ac3e-38e9c1b58335","ios":"levelo://app?vid=bbb1cf9c-d3a7-43df-ac3e-38e9c1b58335"},"vehicle_type_id":"4","last_reported":1727935994,"current_range_meters":34000,"station_id":"ce4bh312rcd13ifvqdj0","pricing_plan_id":"cebpf4jnsgd1na2vs0mg"},{"bike_id":"003ee09e-7445-4d77-a232-f03412b0e64e","system_id":"levelo_inurba_marseille","lat":43.31995,"lon":5.38142,"is_reserved":false,"is_disabled":false,"rental_uris":{"android":"levelo://app?vid=003ee09e-7445-4d77-a232-f03412b0e64e","ios":"levelo://app?vid=003ee09e-7445-4d77-a232-f03412b0e64e"},"vehicle_type_id":"4","last_reported":1727935994,"current_range_meters":7200,"station_id":"ce4bhr12rcd13ifvqhpg","pricing_plan_id":"cebpf4jnsgd1na2vs0mg"},{"bike_id":"10a968c8-d6cf-4cba-91e8-75454579bd7d","system_id":"levelo_inurba_marseille","lat":43.30954,"lon":5.372994,"is_reserved":false,"is_disabled":false,"rental_uris":{"android":"levelo://app?vid=10a968c8-d6cf-4cba-91e8-75454579bd7d","ios":"levelo://app?vid=10a968c8-d6cf-4cba-91e8-75454579bd7d"},"vehicle_type_id":"4","last_reported":1727935994,"current_range_meters":38400,"station_id":"ce4bguh2rcd13ifvqckg","pricing_plan_id":"cebpf4jnsgd1na2vs0mg"},{"bike_id":"d051f687-c466-41a1-b8ad-605007af9edf","system_id":"levelo_inurba_marseille","lat":43.31345,"lon":5.36724,"is_reserved":false,"is_disabled":false,"rental_uris":{"android":"levelo://app?vid=d051f687-c466-41a1-b8ad-605007af9edf","ios":"levelo://app?vid=d051f687-c466-41a1-b8ad-605007af9edf"},"vehicle_type_id":"4","last_reported":1727935994,"current_range_meters":37600,"station_id":"ce4bgr92rcd13ifvqc6g","pricing_plan_id":"cebpf4jnsgd1na2vs0mg"},{"bike_id":"b72eaa95-b2e3-42fa-b871-03d8b3d9c319","system_id":"levelo_inurba_marseille","lat":43.305333,"lon":5.36532,"is_reserved":false,"is_disabled":false,"rental_uris":{"android":"levelo://app?vid=b72eaa95-b2e3-42fa-b871-03d8b3d9c319","ios":"levelo://app?vid=b72eaa95-b2e3-42fa-b871-03d8b3d9c319"},"vehicle_type_id":"4","last_reported":1727935994,"current_range_meters":27600,"station_id":"ce4bgs12rcd13ifvqcag","pricing_plan_id":"cebpf4jnsgd1na2vs0mg"},{"bike_id":"f5a951dc-19b4-47fc-a638-66eca5d10f63","system_id":"levelo_inurba_marseille","lat":43.31486,"lon":5.37314,"is_reserved":false,"is_disabled":false,"rental_uris":{"android":"levelo://app?vid=f5a951dc-19b4-47fc-a638-66eca5d10f63","ios":"levelo://app?vid=f5a951dc-19b4-47fc-a638-66eca5d10f63"},