{"last_updated":1744510841,"ttl":60,"version":"2.2","data":{"bikes":[{"bike_id":"4d705020-e8b4-4ba2-86d3-0cb0195aeb1b","system_id":"levelo_inurba_marseille","lat":43.29416,"lon":5.38623,"is_reserved":false,"is_disabled":false,"rental_uris":{"android":"levelo://app?vid=4d705020-e8b4-4ba2-86d3-0cb0195aeb1b","ios":"levelo://app?vid=4d705020-e8b4-4ba2-86d3-0cb0195aeb1b"},"vehicle_type_id":"4","last_reported":1744510842,"current_range_meters":3200,"station_id":"ce4bh2h2rcd13ifvqdh0","pricing_plan_id":"cebpf4jnsgd1na2vs0mg"},{"bike_id":"b6ff7e66-b821-4f07-a3cf-b9f4abde04e1","system_id":"levelo_inurba_marseille","lat":43.27995,"lon":5.40012,"is_reserved":false,"is_disabled":false,"rental_uris":{"android":"levelo://app?vid=b6ff7e66-b821-4f07-a3cf-b9f4abde04e1","ios":"levelo://app?vid=b6ff7e66-b821-4f07-a3cf-b9f4abde04e1"},"vehicle_type_id":"4","last_reported":1744510842,"current_range_meters":3200,"station_id":"ce4bho92rcd13ifvqh4g","pricing_plan_id":"cebpf4jnsgd1na2vs0mg"},{"bike_id":"df9e7faf-9fb6-41c5-a2a4-aad717484306","system_id":"levelo_inurba_marseille","lat":43.28676,"lon":5.386763,"is_reserved":false,"is_disabled":false,"rental_uris":{"android":"levelo://app?vid=df9e7faf-9fb6-41c5-a2a4-aad717484306","ios":"levelo://app?vid=df9e7faf-9fb6-41c5-a2a4-aad717484306"},"vehicle_type_id":"4","last_reported":1744510842,"current_range_meters":3200,"station_id":"ce4bh492rcd13ifvqdug","pricing_plan_id":"cebpf4jnsgd1na2vs0mg"},{"bike_id":"73039691-3bf5-41de-b513-f306b0a6b692","system_id":"levelo_inurba_marseille","lat":43.241704,"lon":5.397361,"is_reserved":false,"is_disabled":false,"rental_uris":{"android":"levelo://app?vid=73039691-3bf5-41de-b513-f306b0a6b692","ios":"levelo://app?vid=73039691-3bf5-41de-b513-f306b0a6b692"},"vehicle_type_id":"4","last_reported":1744510842,"current_range_meters":3200,"station_id":"ce4bhn12rcd13ifvqgpg","pricing_plan_id":"cebpf4jnsgd1na2vs0mg"},{"bike_id":"1620f5c4-a1ee-41ed-8dd0-def69688a41d","system_id":"levelo_inurba_marseille","lat":43.2677,"lon":5.39424,"is_reserved":false,"is_disabled":true,"rental_uris":{"android":"levelo://app?vid=1620f5c4-a1ee-41ed-8dd0-def69688a41d","ios":"levelo://app?vid=1620f5c4-a1ee-41ed-8dd0-def69688a41d"},"vehicle_type_id":"4","last_reported":1744510842,"current_range_meters":3200,"station_id":"ce4bhh12rcd13ifvqfg0","pricing_plan_id":"cebpf4jnsgd1na2vs0mg"},{"bike_id":"3311c43b-0b27-4c87-9a34-f2700baf06a6","system_id":"levelo_inurba_marseille","lat":43.26202,"lon":5.37471,"is_reserved":false,"is_disabled":false,"rental_uris":{"android":"levelo://app?vid=3311c43b-0b27-4c87-9a34-f2700baf06a6","ios":"levelo://app?vid=3311c43b-0b27-4c87-9a34-f2700baf06a6"},"vehicle_type_id":"4","last_reported":1744510842,"current_range_meters":3600,"station_id":"ce4bhgp2rcd13ifvqfc0","pricing_plan_id":"cebpf4jnsgd1na2vs0mg"},{"bike_id":"94455896-0f19-4fae-bd72-9879f01fcd6e","system_id":"levelo_inurba_marseille","lat":43.29557,"lon":5.42296,"is_reserved":false,"is_disabled":true,"rental_uris":{"android":"levelo://app?vid=94455896-0f19-4fae-bd72-9879f01fcd6e","ios":"levelo://app?vid=94455896-0f19-4fae-bd72-9879f01fcd6e"},"vehicle_type_id":"4","last_reported":1744510842,"current_range_meters":4000,"station_id":"ce4bhph2rcd13ifvqhdg","pricing_plan_id":"cebpf4jnsgd1na2vs0mg"},{"bike_id":"7dc6f05c-f257-4d62-b71b-a2b97753d797","system_id":"levelo_inurba_marseille","lat":43.305,"lon":5.38499,"is_reserved":false,"is_disabled":true,"rental_uris":{"android":"levelo://app?vid=7dc6f05c-f257-4d62-b71b-a2b97753d797","ios":"levelo://app?vid=7dc6f05c-f257-4d62-b71b-a2b97753d797"},"vehicle_type_id":"4","last_reported":1744510842,"current_range_meters":4400,"station_id":"","pricing_plan_id":"cebpf4jnsgd1na2vs0mg"},{"bike_id":"3df6e7c2-41ac-4b05-8cc3-71c81009cfd4","system_id":"levelo_inurba_marseille","lat":43.30309,"lon":5.36888,"is_reserved":false,"is_disabled":false,"rental_uris":{"android":"levelo://app?vid=3df6e7c2-41ac-4b05-8cc3-71c81009cfd4","ios":"levelo://app?vid=3df6e7c2-41ac-4b05-8cc3-71c81009cfd4"},"vehicle_type_id":"4","last_reported":1744510842,"current_range_meters":4400,"station_id":"ce4bgqh2rcd13ifvqc5g","pricing_plan_id":"cebpf4jnsgd1na2vs0mg"},{"bike_id":"368308c4-6e19-4dd3-9ed2-703ee237c38d","system_id":"levelo_inurba_marseille","lat":43.23955,"lon":5.36633,"is_reserved":false,"is_disabled":false,"rental_uris":{"android":"levelo://app?vid=368308c4-6e19-4dd3-9ed2-703ee237c38d","ios":"levelo://app?vid=368308c4-6e19-4dd3-9ed2-703ee237c38d"},"vehicle_type_id":"4","last_reported":1744510842,"current_range_meters":4400,"station_id":"ce4bhi12rcd13ifvqfp0","pricing_plan_id":"cebpf4jnsgd1na2vs0mg"},{"bike_id":"f96c0c65-7fce-4b6c-8bb2-232128e93959","system_id":"levelo_inurba_marseille","lat":43.30524,"lon":5.39292,"is_reserved":false,"is_disabled":false,"rental_uris":{"android":"levelo://app?vid=f96c0c65-7fce-4b6c-8bb2-232128e93959","ios":"levelo://app?vid=f96c0c65-7fce-4b6c-8bb2-232128e93959"},"vehicle_type_id":"4","last_reported":1744510842,"current_range_meters":4800,"station_id":"","pricing_plan_id":"cebpf4jnsgd1na2vs0mg"},{"bike_id":"f08782e8-dfbb-4694-a97f-b4b016ab5364","system_id":"levelo_inurba_marseille","lat":43.29408,"lon":5.41251,"is_reserved":false,"is_disabled":false,"rental_uris":{"android":"levelo://app?vid=f08782e8-dfbb-4694-a97f-b4b016ab5364","ios":"levelo://app?vid=f08782e8-dfbb-4694-a97f-b4b016ab5364"},"vehicle_type_id":"4","last_reported":1744510842,"current_range_meters":4800,"station_id":"","pricing_plan_id":"cebpf4jnsgd1na2vs0mg"},{"bike_id":"3f08cc69-711e-4264-b923-68891203ffa4","system_id":"levelo_inurba_marseille","lat":43.32285,"lon":5.38243,"is_reserved":false,"is_disabled":false,"rental_uris":{"android":"levelo://app?vid=3f08cc69-711e-4264-b923-68891203ffa4","ios":"levelo://app?vid=3f08cc69-711e-4264-b923-68891203ffa4"},"vehicle_type_id":"4","last_reported":1744510842,"current_range_meters":4800,"station_id":"ce4bhr12rcd13ifvqhqg","pricing_plan_id":"cebpf4jnsgd1na2vs0mg"},{"bike_id":"0ff7edf5-d680-45ba-81e5-09e31fa1a3de","system_id":"levelo_inurba_marseille","lat":43.29419,"lon":5.3862,"is_reserved":false,"is_disabled":false,"rental_uris":{"android":"levelo://app?vid=0ff7edf5-d680-45ba-81e5-09e31fa1a3de","ios":"levelo://app?vid=0ff7edf5-d680-45ba-81e5-09e31fa1a3de"},"vehicle_type_id":"4","last_reported":1744510842,"current_range_meters":5600,"station_id":"ce4bh2h2rcd13ifvqdh0","pricing_plan_id":"cebpf4jnsgd1na2vs0mg"},{"bike_id":"11fea1b1-130f-470e-bf37-52dc6c4371bd","system_id":"levelo_inurba_marseille","lat":43.30143,"lon":5.39867,"is_reserved":false,"is_disabled":false,"rental_uris":{"android":"levelo://app?vid=11fea1b1-130f-470e-bf37-52dc6c4371bd","ios":"levelo://app?vid=11fea1b1-130f-470e-bf37-52dc6c4371bd"},"vehicle_type_id":"4","last_reported":1744510842,"current_range_meters":5600,"station_id":"ce4bh0h2rcd13ifvqd40","pricing_plan_id":"cebpf4jnsgd1na2vs0mg"},{"bike_id":"f2c9af42-a832-4609-be6a-7a6fa0049083","system_id":"levelo_inurba_marseille","lat":43.26918,"lon":5.3904,"is_reserved":false,"is_disabled":false,"rental_uris":{"android":"levelo://app?vid=f2c9af42-a832-4609-be6a-7a6fa0049083","ios":"levelo://app?vid=f2c9af42-a832-4609-be6a-7a6fa0049083"},"vehicle_type_id":"4","last_reported":1744510842,"current_range_meters":5600,"station_id":"","pricing_plan_id":"cebpf4jnsgd1na2vs0mg"},{"bike_id":"cf815562-4860-495d-8146-3018f19d226f","system_id":"levelo_inurba_marseille","lat":43.28564,"lon":5.35078,"is_reserved":false,"is_disabled":false,"rental_uris":{"android":"levelo://app?vid=cf815562-4860-495d-8146-3018f19d226f","ios":"levelo://app?vid=cf815562-4860-495d-8146-3018f19d226f"},"vehicle_type_id":"4","last_reported":1744510842,"current_range_meters":5600,"station_id":"","pricing_plan_id":"cebpf4jnsgd1na2vs0mg"},{"bike_id":"dd64b78e-5e6f-40ad-92d7-5ed8a19c86fa","system_id":"levelo_inurba_marseille","lat":43.27948,"lon":5.41041,"is_reserved":false,"is_disabled":false,"rental_uris":{"android":"levelo://app?vid=dd64b78e-5e6f-40ad-92d7-5ed8a19c86fa","ios":"levelo://app?vid=dd64b78e-5e6f-40ad-92d7-5ed8a19c86fa"},"vehicle_type_id":"4","last_reported":1744510842,"current_range_meters":5600,"station_id":"ce4bhnp2rcd13ifvqh0g","pricing_plan_id":"cebpf4jnsgd1na2vs0mg"},{"bike_id":"f5f618bf-8558-45e2-99b1-ea87d9c851c2","system_id":"levelo_inurba_marseille","lat":43.29275,"lon":5.38433,"is_reserved":false,"is_disabled":false,"rental_uris":{"android":"levelo://app?vid=f5f618bf-8558-45e2-99b1-ea87d9c851c2","ios":"levelo://app?vid=f5f618bf-8558-45e2-99b1-ea87d9c851c2"},"vehicle_type_id":"4","last_reported":1744510842,"current_range_meters":6000,"station_id":"ce4bh692rcd13ifvqea0","pricing_plan_id":"cebpf4jnsgd1na2vs0mg"},{"bike_id":"cc83a7aa-57a1-4769-9137-8531613b4691","system_id":"levelo_inurba_marseille","lat":43.312497,"lon":5.372989,"is_reserved":false,"is_disabled":false,"rental_uris":{"android":"levelo://app?vid=cc83a7aa-57a1-4769-9137-8531613b4691","ios":"levelo://app?vid=cc83a7aa-57a1-4769-9137-8531613b4691"},"vehicle_type_id":"4","last_reported":1744510842,"current_range_meters":6000,"station_id":"","pricing_plan_id":"cebpf4jnsgd1na2vs0mg"},{"bike_id":"bc7c6bd2-e571-41ff-b83a-78a716352b86","system_id":"levelo_inurba_marseille","lat":43.31118,"lon":5.3777,"is_reserved":false,"is_disabled":false,"rental_uris":{"android":"levelo://app?vid=bc7c6bd2-e571-41ff-b83a-78a716352b86","ios":"levelo://app?vid=bc7c6bd2-e571-41ff-b83a-78a716352b86"},"vehicle_type_id":"4","last_reported":1744510842,"current_range_meters":6000,"station_id":"ce4bgt92rcd13ifvqcg0","pricing_plan_id":"cebpf4jnsgd1na2vs0mg"},{"bike_id":"61087c9c-58a2-45af-89fa-c020f9313355","system_id":"levelo_inurba_marseille","lat":43.21744,"lon":5.3461,"is_reserved":false,"is_disabled":true,"rental_uris":{"android":"levelo://app?vid=61087c9c-58a2-45af-89fa-c020f9313355","ios":"levelo://app?vid=61087c9c-58a2-45af-89fa-c020f9313355"},"vehicle_type_id":"4","last_reported":1744510842,"current_range_meters":6000,"station_id":"st_cvj6r9ubvosntc0bgbag","pricing_plan_id":"cebpf4jnsgd1na2vs0mg"},{"bike_id":"dd081b68-0a47-41b3-9975-782e5d7a940e","system_id":"levelo_inurba_marseille","lat":43.27494,"lon":5.42469,"is_reserved":false,"is_disabled":false,"rental_uris":{"android":"levelo://app?vid=dd081b68-0a47-41b3-9975-782e5d7a940e","ios":"levelo://app?vid=dd081b68-0a47-41b3-9975-782e5d7a940e"},"vehicle_type_id":"4","last_reported":1744510842,"current_range_meters":6400,"station_id":"ce4bhn92rcd13ifvqgrg","pricing_plan_id":"cebpf4jnsgd1na2vs0mg"},{"bike_id":"e4380e13-6ea1-432c-b547-badeba89c1b3","system_id":"levelo_inurba_marseille","lat":43.28869,"lon":5.3933,"is_reserved":false,"is_disabled":true,"rental_uris":{"android":"levelo://app?vid=e4380e13-6ea1-432c-b547-badeba89c1b3","ios":"levelo://app?vid=e4380e13-6ea1-432c-b547-badeba89c1b3"},"vehicle_type_id":"4","last_reported":1744510842,"current_range_meters":6400,"station_id":"ce4bh2p2rcd13ifvqdi0","pricing_plan_id":"cebpf4jnsgd1na2vs0mg"},{"bike_id":"4c56221a-0f46-4530-955a-7184a07c8a88","system_id":"levelo_inurba_marseille","lat":43.23169,"lon":5.35582,"is_reserved":false,"is_disabled":true,"rental_uris":{"android":"levelo://app?vid=4c56221a-0f46-4530-955a-7184a07c8a88","ios":"levelo://app?vid=4c56221a-0f46-4530-955a-7184a07c8a88"},"vehicle_type_id":"4","last_reported":1744510842,"current_range_meters":6400,"station_id":"ce4bhu92rcd13ifvqi70","pricing_plan_id":"cebpf4jnsgd1na2vs0mg"},{"bike_id":"9b0ae5e8-390f-4f43-a54d-3f6755f85f5e","system_id":"levelo_inurba_marseille","lat":43.26563,"lon":5.39015,"is_reserved":false,"is_disabled":false,"rental_uris":{"android":"levelo://app?vid=9b0ae5e8-390f-4f43-a54d-3f6755f85f5e","ios":"levelo://app?vid=9b0ae5e8-390f-4f43-a54d-3f6755f85f5e"},"vehicle_type_id":"4","last_reported":1744510842,"current_range_meters":6800,"station_id":"ce4bhe12rcd13ifvqf30","pricing_plan_id":"cebpf4jnsgd1na2vs0mg"},{"bike_id":"e524e199-d573-4d65-acc8-4e08ac3eebbe","system_id":"levelo_inurba_marseille","lat":43.27902,"lon":5.39602,"is_reserved":false,"is_disabled":false,"rental_uris":{"android":"levelo://app?vid=e524e199-d573-4d65-acc8-4e08ac3eebbe","ios":"levelo://app?vid=e524e199-d573-4d65-acc8-4e08ac3eebbe"},"vehicle_type_id":"4","last_reported":1744510842,"current_range_meters":6800,"station_id":"ce4bhf92rcd13ifvqf40","pricing_plan_id":"cebpf4jnsgd1na2vs0mg"},{"bike_id":"0de253f9-f4af-4b30-85bc-8ff06630a671","system_id":"levelo_inurba_marseille","lat":43.23199,"lon":5.35549,"is_reserved":false,"is_disabled":false,"rental_uris":{"android":"levelo://app?vid=0de253f9-f4af-4b30-85bc-8ff06630a671","ios":"levelo://app?vid=0de253f9-f4af-4b30-85bc-8ff06630a671"},"vehicle_type_id":"4","last_reported":1744510842,"current_range_meters":6800,"station_id":"ce4bhu92rcd13ifvqi70","pricing_plan_id":"cebpf4jnsgd1na2vs0mg"},{"bike_id":"6955b998-9661-4258-be6b-a95cffb9b0da","system_id":"levelo_inurba_marseille","lat":43.23193,"lon":5.35558,"is_reserved":false,"is_disabled":false,"rental_uris":{"android":"levelo://app?vid=6955b998-9661-4258-be6b-a95cffb9b0da","ios":"levelo://app?vid=6955b998-9661-4258-be6b-a95cffb9b0da"},"vehicle_type_id":"4","last_reported":1744510842,"current_range_meters":6800,"station_id":"ce4bhu92rcd13ifvqi70","pricing_plan_id":"cebpf4jnsgd1na2vs0mg"},{"bike_id":"8708dd08-3274-46ab-b322-809752473736","system_id":"levelo_inurba_marseille","lat":43.30327,"lon":5.40428,"is_reserved":false,"is_disabled":false,"rental_uris":{"android":"levelo://app?vid=8708dd08-3274-46ab-b322-809752473736","ios":"levelo://app?vid=8708dd08-3274-46ab-b322-809752473736"},"vehicle_type_id":"4","last_reported":1744510842,"current_range_meters":6800,"station_id":"ce4bh012rcd13ifvqd10","pricing_plan_id":"cebpf4jnsgd1na2vs0mg"},{"bike_id":"a8549609-d3ea-4809-91b2-8c9b727de959","system_id":"levelo_inurba_marseille","lat":43.323409,"lon":5.406215,"is_reserved":false,"is_disabled":false,"rental_uris":{"android":"levelo://app?vid=a8549609-d3ea-4809-91b2-8c9b727de959","ios":"levelo://app?vid=a8549609-d3ea-4809-91b2-8c9b727de959"},"vehicle_type_id":"4","last_reported":1744510842,"current_range_meters":6800,"station_id":"ce4bhq92rcd13ifvqhjg","pricing_plan_id":"cebpf4jnsgd1na2vs0mg"},{"bike_id":"f1e00540-c2d1-4f3b-ba05-711232888e6e","system_id":"levelo_inurba_marseille","lat":43.21735,"lon":5.34611,"is_reserved":false,"is_disabled":true,"rental_uris":{"android":"levelo://app?vid=f1e00540-c2d1-4f3b-ba05-711232888e6e","ios":"levelo://app?vid=f1e00540-c2d1-4f3b-ba05-711232888e6e"},"vehicle_type_id":"4","last_reported":1744510842,"current_range_meters":6800,"station_id":"st_cvj6r9ubvosntc0bgbag","pricing_plan_id":"cebpf4jnsgd1na2vs0mg"},{"bike_id":"e6c67cae-3a96-48b0-929c-634d1f7385e4","system_id":"levelo_inurba_marseille","lat":43.30883,"lon":5.39702,"is_reserved":false,"is_disabled":false,"rental_uris":{"android":"levelo://app?vid=e6c67cae-3a96-48b0-929c-634d1f7385e4","ios":"levelo://app?vid=e6c67cae-3a96-48b0-929c-634d1f7385e4"},"vehicle_type_id":"4","last_reported":1744510842,"current_range_meters":6800,"station_id":"ce4bh012rcd13ifvqcv0","pricing_plan_id":"cebpf4jnsgd1na2vs0mg"},{"bike_id":"72adaa87-94dc-4774-aca0-5147bc57bd16","system_id":"levelo_inurba_marseille","lat":43.26034,"lon":5.41699,"is_reserved":false,"is_disabled":false,"rental_uris":{"android":"levelo://app?vid=72adaa87-94dc-4774-aca0-5147bc57bd16","ios":"levelo://app?vid=72adaa87-94dc-4774-aca0-5147bc57bd16"},"vehicle_type_id":"4","last_reported":1744510842,"current_range_meters":6800,"station_id":"","pricing_plan_id":"cebpf4jnsgd1na2vs0mg"},{"bike_id":"237f5f22-fb1c-4e53-a93a-74bc941f716c","system_id":"levelo_inurba_marseille","lat":43.26228,"lon":5.40454,"is_reserved":false,"is_disabled":false,"rental_uris":{"android":"levelo://app?vid=237f5f22-fb1c-4e53-a93a-74bc941f716c","ios":"levelo://app?vid=237f5f22-fb1c-4e53-a93a-74bc941f716c"},"vehicle_type_id":"4","last_reported":1744510842,"current_range_meters":6800,"station_id":"ce4bhmh2rcd13ifvqgmg","pricing_plan_id":"cebpf4jnsgd1na2vs0mg"},{"bike_id":"4cada8cd-9f61-40d2-ae46-a3090d34f568","system_id":"levelo_inurba_marseille","lat":43.23138,"lon":5.43704,"is_reserved":false,"is_disabled":false,"rental_uris":{"android":"levelo://app?vid=4cada8cd-9f61-40d2-ae46-a3090d34f568","ios":"levelo://app?vid=4cada8cd-9f61-40d2-ae46-a3090d34f568"},"vehicle_type_id":"4","last_reported":1744510842,"current_range_meters":6800,"station_id":"ce4bhmp2rcd13ifvqgog","pricing_plan_id":"cebpf4jnsgd1na2vs0mg"},{"bike_id":"7fc5054b-d89b-428b-969c-570e0c95ca38","system_id":"levelo_inurba_marseille","lat":43.26566,"lon":5.39003,"is_reserved":false,"is_disabled":false,"rental_uris":{"android":"levelo://app?vid=7fc5054b-d89b-428b-969c-570e0c95ca38","ios":"levelo://app?vid=7fc5054b-d89b-428b-969c-570e0c95ca38"},"vehicle_type_id":"4","last_reported":1744510842,"current_range_meters":7200,"station_id":"ce4bhe12rcd13ifvqf30","pricing_plan_id":"cebpf4jnsgd1na2vs0mg"},{"bike_id":"8f6f7300-8888-47a0-9d5b-b6f3ec62a647","system_id":"levelo_inurba_marseille","lat":43.29799,"lon":5.40407,"is_reserved":false,"is_disabled":false,"rental_uris":{"android":"levelo://app?vid=8f6f7300-8888-47a0-9d5b-b6f3ec62a647","ios":"levelo://app?vid=8f6f7300-8888-47a0-9d5b-b6f3ec62a647"},"vehicle_type_id":"4","last_reported":1744510842,"current_range_meters":7200,"station_id":"ce4bh112rcd13ifvqd90","pricing_plan_id":"cebpf4jnsgd1na2vs0mg"},{"bike_id":"00673b85-6711-4859-b3bf-30a6d0492894","system_id":"levelo_inurba_marseille","lat":43.25484,"lon":5.37663,"is_reserved":false,"is_disabled":true,"rental_uris":{"android":"levelo://app?vid=00673b85-6711-4859-b3bf-30a6d0492894","ios":"levelo://app?vid=00673b85-6711-4859-b3bf-30a6d0492894"},"vehicle_type_id":"4","last_reported":1744510842,"current_range_meters":7200,"station_id":"ce4bhh12rcd13ifvqff0","pricing_plan_id":"cebpf4jnsgd1na2vs0mg"},{"bike_id":"4873b923-3644-4ac3-9d38-fee6306a11a5","system_id":"levelo_inurba_marseille","lat":43.29234,"lon":5.40169,"is_reserved":false,"is_disabled":true,"rental_uris":{"android":"levelo://app?vid=4873b923-3644-4ac3-9d38-fee6306a11a5","ios":"levelo://app?vid=4873b923-3644-4ac3-9d38-fee6306a11a5"},"vehicle_type_id":"4","last_reported":1744510842,"current_range_meters":7200,"station_id":"ce4bh312rcd13ifvqdk0","pricing_plan_id":"cebpf4jnsgd1na2vs0mg"},{"bike_id":"8c58f2fa-99e1-41f8-bf90-9c1648b679b1","system_id":"levelo_inurba_marseille","lat":43.27301,"lon":5.41401,"is_reserved":false,"is_disabled":false,"rental_uris":{"android":"levelo://app?vid=8c58f2fa-99e1-41f8-bf90-9c1648b679b1","ios":"levelo://app?vid=8c58f2fa-99e1-41f8-bf90-9c1648b679b1"},"vehicle_type_id":"4","last_reported":1744510842,"current_range_meters":7200,"station_id":"","pricing_plan_id":"cebpf4jnsgd1na2vs0mg"},{"bike_id":"3e13ca99-833e-475e-909b-680863a2f005","system_id":"levelo_inurba_marseille","lat":43.24174,"lon":5.39731,"is_reserved":false,"is_disabled":false,"rental_uris":{"android":"levelo://app?vid=3e13ca99-833e-475e-909b-680863a2f005","ios":"levelo://app?vid=3e13ca99-833e-475e-909b-680863a2f005"},"vehicle_type_id":"4","last_reported":1744510842,"current_range_meters":7200,"station_id":"ce4bhn12rcd13ifvqgpg","pricing_plan_id":"cebpf4jnsgd1na2vs0mg"},{"bike_id":"37864421-51e4-4d5e-801c-7ac32e01e722","system_id":"levelo_inurba_marseille","lat":43.312646,"lon":5.378418,"is_reserved":false,"is_disabled":false,"rental_uris":{"android":"levelo://app?vid=37864421-51e4-4d5e-801c-7ac32e01e722","ios":"levelo://app?vid=37864421-51e4-4d5e-801c-7ac32e01e722"},"vehicle_type_id":"4","last_reported":1744510842,"current_range_meters":7200,"station_id":"","pricing_plan_id":"cebpf4jnsgd1na2vs0mg"},{"bike_id":"cfadcc33-5bb8-4f29-9a84-ae98565bb4a2","system_id":"levelo_inurba_marseille","lat":43.240755,"lon":5.377978,"is_reserved":false,"is_disabled":false,"rental_uris":{"android":"levelo://app?vid=cfadcc33-5bb8-4f29-9a84-ae98565bb4a2","ios":"levelo://app?vid=cfadcc33-5bb8-4f29-9a84-ae98565bb4a2"},"vehicle_type_id":"4","last_reported":1744510842,"current_range_meters":8000,"station_id":"ce4bhnp2rcd13ifvqgvg","pricing_plan_id":"cebpf4jnsgd1na2vs0mg"},{"bike_id":"825652c8-a6a0-4f30-aa40-5fdd1442a7bf","system_id":"levelo_inurba_marseille","lat":43.278405,"lon":5.39205,"is_reserved":false,"is_disabled":false,"rental_uris":{"android":"levelo://app?vid=825652c8-a6a0-4f30-aa40-5fdd1442a7bf","ios":"levelo://app?vid=825652c8-a6a0-4f30-aa40-5fdd1442a7bf"},"vehicle_type_id":"4","last_reported":1744510842,"current_range_meters":8000,"station_id":"ce4bhjp2rcd13ifvqga0","pricing_plan_id":"cebpf4jnsgd1na2vs0mg"},{"bike_id":"4cedd733-2587-4eb1-87b3-3ab69e1574bc","system_id":"levelo_inurba_marseille","lat":43.28985,"lon":5.36613,"is_reserved":false,"is_disabled":false,"rental_uris":{"android":"levelo://app?vid=4cedd733-2587-4eb1-87b3-3ab69e1574bc","ios":"levelo://app?vid=4cedd733-2587-4eb1-87b3-3ab69e1574bc"},"vehicle_type_id":"4","last_reported":1744510842,"current_range_meters":8000,"station_id":"","pricing_plan_id":"cebpf4jnsgd1na2vs0mg"},{"bike_id":"4c893399-b4ed-40ed-a49f-713da320f269","system_id":"levelo_inurba_marseille","lat":43.29861,"lon":5.37841,"is_reserved":false,"is_disabled":false,"rental_uris":{"android":"levelo://app?vid=4c893399-b4ed-40ed-a49f-713da320f269","ios":"levelo://app?vid=4c893399-b4ed-40ed-a49f-713da320f269"},"vehicle_type_id":"4","last_reported":1744510842,"current_range_meters":8000,"station_id":"","pricing_plan_id":"cebpf4jnsgd1na2vs0mg"},{"bike_id":"dcd83ead-420c-4f08-8ded-1b3b9ac109d9","system_id":"levelo_inurba_marseille","lat":43.32353,"lon":5.38892,"is_reserved":false,"is_disabled":false,"rental_uris":{"android":"levelo://app?vid=dcd83ead-420c-4f08-8ded-1b3b9ac109d9","ios":"levelo://app?vid=dcd83ead-420c-4f08-8ded-1b3b9ac109d9"},"vehicle_type_id":"4","last_reported":1744510842,"current_range_meters":8000,"station_id":"ce4bhqp2rcd13ifvqhog","pricing_plan_id":"cebpf4jnsgd1na2vs0mg"},{"bike_id":"efa5dc9e-c76d-4055-99f8-44960050f22f","system_id":"levelo_inurba_marseille","lat":43.27496,"lon":5.42452,"is_reserved":false,"is_disabled":false,"rental_uris":{"android":"levelo://app?vid=efa5dc9e-c76d-4055-99f8-44960050f22f","ios":"levelo://app?vid=efa5dc9e-c76d-4055-99f8-44960050f22f"},"vehicle_type_id":"4","last_reported":1744510842,"current_range_meters":8000,"station_id":"ce4bhn92rcd13ifvqgrg","pricing_plan_id":"cebpf4jnsgd1na2vs0mg"},{"bike_id":"03c150dd-2e6f-4d93-a813-3885c6574c7f","system_id":"levelo_inurba_marseille","lat":43.30236,"lon":5.40039,"is_reserved":false,"is_disabled":false,"rental_uris":{"android":"levelo://app?vid=03c150dd-2e6f-4d93-a813-3885c6574c7f","ios":"levelo://app?vid=03c150dd-2e6f-4d93-a813-3885c6574c7f"},"vehicle_type_id":"4","last_reported":1744510842,"current_range_meters":8000,"station_id":"ce4bgvh2rcd13ifvqcs0","pricing_plan_id":"cebpf4jnsgd1na2vs0mg"},{"bike_id":"1130922e-9ccc-463b-9207-aadecd794edb","system_id":"levelo_inurba_marseille","lat":43.31991,"lon":5.38157,"is_reserved":false,"is_disabled":true,"rental_uris":{"android":"levelo://app?vid=1130922e-9ccc-463b-9207-aadecd794edb","ios":"levelo://app?vid=1130922e-9ccc-463b-9207-aadecd794edb"},"vehicle_type_id":"4","last_reported":1744510842,"current_range_meters":8400,"station_id":"ce4bhr12rcd13ifvqhpg","pricing_plan_id":"cebpf4jnsgd1na2vs0mg"},{"bike_id":"80d3dbae-3adb-48a1-8cb6-790dfc260f29","system_id":"levelo_inurba_marseille","lat":43.296814,"lon":5.37287,"is_reserved":false,"is_disabled":false,"rental_uris":{"android":"levelo://app?vid=80d3dbae-3adb-48a1-8cb6-790dfc260f29","ios":"levelo://app?vid=80d3dbae-3adb-48a1-8cb6-790dfc260f29"},"vehicle_type_id":"4","last_reported":1744510842,"current_range_meters":8400,"station_id":"ce4bgk12rcd13ifvqbj0","pricing_plan_id":"cebpf4jnsgd1na2vs0mg"},{"bike_id":"58c9eda9-c436-4c90-bcbe-b7f55b4e4b94","system_id":"levelo_inurba_marseille","lat":43.29908,"lon":5.38143,"is_reserved":false,"is_disabled":false,"rental_uris":{"android":"levelo://app?vid=58c9eda9-c436-4c90-bcbe-b7f55b4e4b94","ios":"levelo://app?vid=58c9eda9-c436-4c90-bcbe-b7f55b4e4b94"},"vehicle_type_id":"4","last_reported":1744510842,"current_range_meters":8400,"station_id":"ce4bgj12rcd13ifvqbc0","pricing_plan_id":"cebpf4jnsgd1na2vs0mg"},{"bike_id":"1930e826-c9ac-4ff0-a3e5-39dc7a1571d8","system_id":"levelo_inurba_marseille","lat":43.29419,"lon":5.38622,"is_reserved":false,"is_disabled":false,"rental_uris":{"android":"levelo://app?vid=1930e826-c9ac-4ff0-a3e5-39dc7a1571d8","ios":"levelo://app?vid=1930e826-c9ac-4ff0-a3e5-39dc7a1571d8"},"vehicle_type_id":"4","last_reported":1744510842,"current_range_meters":8400,"station_id":"ce4bh2h2rcd13ifvqdh0","pricing_plan_id":"cebpf4jnsgd1na2vs0mg"},{"bike_id":"620b61f1-23d7-4e76-aa20-50b1e573b2b9","system_id":"levelo_inurba_marseille","lat":43.31485,"lon":5.37293,"is_reserved":false,"is_disabled":false,"rental_uris":{"android":"levelo://app?vid=620b61f1-23d7-4e76-aa20-50b1e573b2b9","ios":"levelo://app?vid=620b61f1-23d7-4e76-aa20-50b1e573b2b9"},"vehicle_type_id":"4","last_reported":1744510842,"current_range_meters":8400,"station_id":"ce4bgt12rcd13ifvqcd0","pricing_plan_id":"cebpf4jnsgd1na2vs0mg"},{"bike_id":"fb3bf63f-cb8b-4e2d-97b5-e2bd30164ab5","system_id":"levelo_inurba_marseille","lat":43.31068,"lon":5.36663,"is_reserved":false,"is_disabled":false,"rental_uris":{"android":"levelo://app?vid=fb3bf63f-cb8b-4e2d-97b5-e2bd30164ab5","ios":"levelo://app?vid=fb3bf63f-cb8b-4e2d-97b5-e2bd30164ab5"},"vehicle_type_id":"4","last_reported":1744510842,"current_range_meters":8400,"station_id":"","pricing_plan_id":"cebpf4jnsgd1na2vs0mg"},{"bike_id":"6ae404a2-d053-48b1-a5cc-922ebe44167d","system_id":"levelo_inurba_marseille","lat":43.31064,"lon":5.38335,"is_reserved":false,"is_disabled":false,"rental_uris":{"android":"levelo://app?vid=6ae404a2-d053-48b1-a5cc-922ebe44167d","ios":"levelo://app?vid=6ae404a2-d053-48b1-a5cc-922ebe44167d"},"vehicle_type_id":"4","last_reported":1744510842,"current_range_meters":8400,"station_id":"ce4bgv92rcd13ifvqcr0","pricing_plan_id":"cebpf4jnsgd1na2vs0mg"},{"bike_id":"9c82e583-f7d3-481d-b235-8224c999f30e","system_id":"levelo_inurba_marseille","lat":43.25584,"lon":5.3824,"is_reserved":false,"is_disabled":false,"rental_uris":{"android":"levelo://app?vid=9c82e583-f7d3-481d-b235-8224c999f30e","ios":"levelo://app?vid=9c82e583-f7d3-481d-b235-8224c999f30e"},"vehicle_type_id":"4","last_reported":1744510842,"current_range_meters":8400,"station_id":"ce4bhih2rcd13ifvqfs0","pricing_plan_id":"cebpf4jnsgd1na2vs0mg"},{"bike_id":"88802da1-90f2-4aff-90a1-c3598e933096","system_id":"levelo_inurba_marseille","lat":43.30278,"lon":5.39165,"is_reserved":false,"is_disabled":false,"rental_uris":{"android":"levelo://app?vid=88802da1-90f2-4aff-90a1-c3598e933096","ios":"levelo://app?vid=88802da1-90f2-4aff-90a1-c3598e933096"},"vehicle_type_id":"4","last_reported":1744510842,"current_range_meters":8400,"station_id":"ce4bgkh2rcd13ifvqbk0","pricing_plan_id":"cebpf4jnsgd1na2vs0mg"},{"bike_id":"d53356ed-34e7-4ce0-8d94-e073954cdd85","system_id":"levelo_inurba_marseille","lat":43.27041,"lon":5.40279,"is_reserved":false,"is_disabled":true,"rental_uris":{"android":"levelo://app?vid=d53356ed-34e7-4ce0-8d94-e073954cdd85","ios":"levelo://app?vid=d53356ed-34e7-4ce0-8d94-e073954cdd85"},"vehicle_type_id":"4","last_reported":1744510842,"current_range_meters":8800,"station_id":"ce4bhk92rcd13ifvqgc0","pricing_plan_id":"cebpf4jnsgd1na2vs0mg"},{"bike_id":"8207ea29-fd0c-4c7e-a5fa-88a3cf6888d1","system_id":"levelo_inurba_marseille","lat":43.24179,"lon":5.39735,"is_reserved":false,"is_disabled":false,"rental_uris":{"android":"levelo://app?vid=8207ea29-fd0c-4c7e-a5fa-88a3cf6888d1","ios":"levelo://app?vid=8207ea29-fd0c-4c7e-a5fa-88a3cf6888d1"},"vehicle_type_id":"4","last_reported":1744510842,"current_range_meters":8800,"station_id":"ce4bhn12rcd13ifvqgpg","pricing_plan_id":"cebpf4jnsgd1na2vs0mg"},{"bike_id":"c013d600-5e08-48f0-830e-8c965978436b","system_id":"levelo_inurba_marseille","lat":43.30434,"lon":5.38891,"is_reserved":false,"is_disabled":true,"rental_uris":{"android":"levelo://app?vid=c013d600-5e08-48f0-830e-8c965978436b","ios":"levelo://app?vid=c013d600-5e08-48f0-830e-8c965978436b"},"vehicle_type_id":"4","last_reported":1744510842,"current_range_meters":8800,"station_id":"ce4bgk12rcd13ifvqbi0","pricing_plan_id":"cebpf4jnsgd1na2vs0mg"},{"bike_id":"32b2b59d-9794-4a4d-a647-a2ee62094eca","system_id":"levelo_inurba_marseille","lat":43.30227,"lon":5.40118,"is_reserved":false,"is_disabled":false,"rental_uris":{"android":"levelo://app?vid=32b2b59d-9794-4a4d-a647-a2ee62094eca","ios":"levelo://app?vid=32b2b59d-9794-4a4d-a647-a2ee62094eca"},"vehicle_type_id":"4","last_reported":1744510842,"current_range_meters":8800,"station_id":"","pricing_plan_id":"cebpf4jnsgd1na2vs0mg"},{"bike_id":"ef291804-1477-432e-b153-82ea15725418","system_id":"levelo_inurba_marseille","lat":43.33742,"lon":5.37454,"is_reserved":false,"is_disabled":false,"rental_uris":{"android":"levelo://app?vid=ef291804-1477-432e-b153-82ea15725418","ios":"levelo://app?vid=ef291804-1477-432e-b153-82ea15725418"},"vehicle_type_id":"4","last_reported":1744510842,"current_range_meters":8800,"station_id":"","pricing_plan_id":"cebpf4jnsgd1na2vs0mg"},{"bike_id":"bad5aced-b410-4363-91b4-ebab5f49659f","system_id":"levelo_inurba_marseille","lat":43.30771,"lon":5.37634,"is_reserved":false,"is_disabled":false,"rental_uris":{"android":"levelo://app?vid=bad5aced-b410-4363-91b4-ebab5f49659f","ios":"levelo://app?vid=bad5aced-b410-4363-91b4-ebab5f49659f"},"vehicle_type_id":"4","last_reported":1744510842,"current_range_meters":8800,"station_id":"ce4bgv92rcd13ifvqcq0","pricing_plan_id":"cebpf4jnsgd1na2vs0mg"},{"bike_id":"611d2e11-8197-452e-b543-bf6be3aa207f","system_id":"levelo_inurba_marseille","lat":43.28941,"lon":5.38401,"is_reserved":false,"is_disabled":false,"rental_uris":{"android":"levelo://app?vid=611d2e11-8197-452e-b543-bf6be3aa207f","ios":"levelo://app?vid=611d2e11-8197-452e-b543-bf6be3aa207f"},"vehicle_type_id":"4","last_reported":1744510842,"current_range_meters":8800,"station_id":"ce4bh612rcd13ifvqe6g","pricing_plan_id":"cebpf4jnsgd1na2vs0mg"},{"bike_id":"4a0973b0-92a0-41e8-9b0d-a99e944bafe0","system_id":"levelo_inurba_marseille","lat":43.34439,"lon":5.41354,"is_reserved":false,"is_disabled":false,"rental_uris":{"android":"levelo://app?vid=4a0973b0-92a0-41e8-9b0d-a99e944bafe0","ios":"levelo://app?vid=4a0973b0-92a0-41e8-9b0d-a99e944bafe0"},"vehicle_type_id":"4","last_reported":1744510842,"current_range_meters":8800,"station_id":"","pricing_plan_id":"cebpf4jnsgd1na2vs0mg"},{"bike_id":"c8faf6c6-b40d-4340-aee3-97c6bbe51c16","system_id":"levelo_inurba_marseille","lat":43.31338,"lon":5.39685,"is_reserved":false,"is_disabled":false,"rental_uris":{"android":"levelo://app?vid=c8faf6c6-b40d-4340-aee3-97c6bbe51c16","ios":"levelo://app?vid=c8faf6c6-b40d-4340-aee3-97c6bbe51c16"},"vehicle_type_id":"4","last_reported":1744510842,"current_range_meters":8800,"station_id":"ce4bgvp2rcd13ifvqcu0","pricing_plan_id":"cebpf4jnsgd1na2vs0mg"},{"bike_id":"c8a84fc3-c5b5-4d37-afe1-e917d6b165ab","system_id":"levelo_inurba_marseille","lat":43.28609,"lon":5.35097,"is_reserved":false,"is_disabled":false,"rental_uris":{"android":"levelo://app?vid=c8a84fc3-c5b5-4d37-afe1-e917d6b165ab","ios":"levelo://app?vid=c8a84fc3-c5b5-4d37-afe1-e917d6b165ab"},"vehicle_type_id":"4","last_reported":1744510842,"current_range_meters":8800,"station_id":"ce4bhch2rcd13ifvqeug","pricing_plan_id":"cebpf4jnsgd1na2vs0mg"},{"bike_id":"321918c8-a023-4277-b9ad-d6ce73d59c41","system_id":"levelo_inurba_marseille","lat":43.28458,"lon":5.35887,"is_reserved":false,"is_disabled":false,"rental_uris":{"android":"levelo://app?vid=321918c8-a023-4277-b9ad-d6ce73d59c41","ios":"levelo://app?vid=321918c8-a023-4277-b9ad-d6ce73d59c41"},"vehicle_type_id":"4","last_reported":1744510842,"current_range_meters":8800,"station_id":"ce4bhah2rcd13ifvqei0","pricing_plan_id":"cebpf4jnsgd1na2vs0mg"},{"bike_id":"ec8be3ba-966d-4f71-bd9f-1e7f316362f5","system_id":"levelo_inurba_marseille","lat":43.33002,"lon":5.43854,"is_reserved":false,"is_disabled":false,"rental_uris":{"android":"levelo://app?vid=ec8be3ba-966d-4f71-bd9f-1e7f316362f5","ios":"levelo://app?vid=ec8be3ba-966d-4f71-bd9f-1e7f316362f5"},"vehicle_type_id":"4","last_reported":1744510842,"current_range_meters":8800,"station_id":"","pricing_plan_id":"cebpf4jnsgd1na2vs0mg"},{"bike_id":"fba14dc4-f065-46f4-a67b-b47ee9a5123b","system_id":"levelo_inurba_marseille","lat":43.29312,"lon":5.37187,"is_reserved":false,"is_disabled":true,"rental_uris":{"android":"levelo://app?vid=fba14dc4-f065-46f4-a67b-b47ee9a5123b","ios":"levelo://app?vid=fba14dc4-f065-46f4-a67b-b47ee9a5123b"},"vehicle_type_id":"4","last_reported":1744510842,"current_range_meters":9200,"station_id":"ce4bgh92rcd13ifvqb40","pricing_plan_id":"cebpf4jnsgd1na2vs0mg"},{"bike_id":"019576dd-4d5b-449f-bee3-6016e550c1da","system_id":"levelo_inurba_marseille","lat":43.303745,"lon":5.424768,"is_reserved":false,"is_disabled":false,"rental_uris":{"android":"levelo://app?vid=019576dd-4d5b-449f-bee3-6016e550c1da","ios":"levelo://app?vid=019576dd-4d5b-449f-bee3-6016e550c1da"},"vehicle_type_id":"4","last_reported":1744510842,"current_range_meters":9200,"station_id":"ce4bhoh2rcd13ifvqh6g","pricing_plan_id":"cebpf4jnsgd1na2vs0mg"},{"bike_id":"cda00ca5-b429-4ad4-8d45-efc9549291c5","system_id":"levelo_inurba_marseille","lat":43.28719,"lon":5.39972,"is_reserved":false,"is_disabled":false,"rental_uris":{"android":"levelo://app?vid=cda00ca5-b429-4ad4-8d45-efc9549291c5","ios":"levelo://app?vid=cda00ca5-b429-4ad4-8d45-efc9549291c5"},"vehicle_type_id":"4","last_reported":1744510842,"current_range_meters":9200,"station_id":"ce4bho92rcd13ifvqh3g","pricing_plan_id":"cebpf4jnsgd1na2vs0mg"},{"bike_id":"b5096384-5189-44aa-b521-1903ed18caff","system_id":"levelo_inurba_marseille","lat":43.28611,"lon":5.35101,"is_reserved":false,"is_disabled":false,"rental_uris":{"android":"levelo://app?vid=b5096384-5189-44aa-b521-1903ed18caff","ios":"levelo://app?vid=b5096384-5189-44aa-b521-1903ed18caff"},"vehicle_type_id":"4","last_reported":1744510842,"current_range_meters":9200,"station_id":"ce4bhch2rcd13ifvqeug","pricing_plan_id":"cebpf4jnsgd1na2vs0mg"},{"bike_id":"eb578252-5439-4851-a5f9-751638bdaef7","system_id":"levelo_inurba_marseille","lat":43.2902,"lon":5.37546,"is_reserved":false,"is_disabled":true,"rental_uris":{"android":"levelo://app?vid=eb578252-5439-4851-a5f9-751638bdaef7","ios":"levelo://app?vid=eb578252-5439-4851-a5f9-751638bdaef7"},"vehicle_type_id":"4","last_reported":1744510842,"current_range_meters":9200,"station_id":"ce4bh692rcd13ifvqe90","pricing_plan_id":"cebpf4jnsgd1na2vs0mg"},{"bike_id":"f090b8ea-71fb-427f-8fde-5dc57eb1bb60","system_id":"levelo_inurba_marseille","lat":43.29456,"lon":5.39745,"is_reserved":false,"is_disabled":false,"rental_uris":{"android":"levelo://app?vid=f090b8ea-71fb-427f-8fde-5dc57eb1bb60","ios":"levelo://app?vid=f090b8ea-71fb-427f-8fde-5dc57eb1bb60"},"vehicle_type_id":"4","last_reported":1744510842,"current_range_meters":9200,"station_id":"ce4bh3h2rcd13ifvqdo0","pricing_plan_id":"cebpf4jnsgd1na2vs0mg"},{"bike_id":"211990ef-4669-4091-86ec-137c884b610d","system_id":"levelo_inurba_marseille","lat":43.292536,"lon":5.38437,"is_reserved":false,"is_disabled":true,"rental_uris":{"android":"levelo://app?vid=211990ef-4669-4091-86ec-137c884b610d","ios":"levelo://app?vid=211990ef-4669-4091-86ec-137c884b610d"},"vehicle_type_id":"4","last_reported":1744510842,"current_range_meters":9200,"station_id":"ce4bh692rcd13ifvqea0","pricing_plan_id":"cebpf4jnsgd1na2vs0mg"},{"bike_id":"12fd078a-9327-40d2-9383-059dfc0f3a24","system_id":"levelo_inurba_marseille","lat":43.31324,"lon":5.39701,"is_reserved":false,"is_disabled":false,"rental_uris":{"android":"levelo://app?vid=12fd078a-9327-40d2-9383-059dfc0f3a24","ios":"levelo://app?vid=12fd078a-9327-40d2-9383-059dfc0f3a24"},"vehicle_type_id":"4","last_reported":1744510842,"current_range_meters":9600,"station_id":"ce4bgvp2rcd13ifvqcu0","pricing_plan_id":"cebpf4jnsgd1na2vs0mg"},{"bike_id":"d8f603cd-3b83-4148-bab8-3a185ad2a59f","system_id":"levelo_inurba_marseille","lat":43.32416,"lon":5.3913,"is_reserved":false,"is_disabled":false,"rental_uris":{"android":"levelo://app?vid=d8f603cd-3b83-4148-bab8-3a185ad2a59f","ios":"levelo://app?vid=d8f603cd-3b83-4148-bab8-3a185ad2a59f"},"vehicle_type_id":"4","last_reported":1744510842,"current_range_meters":9600,"station_id":"","pricing_plan_id":"cebpf4jnsgd1na2vs0mg"},{"bike_id":"8d7af1b9-8e4e-438e-a4d9-249701554749","system_id":"levelo_inurba_marseille","lat":43.31331,"lon":5.39687,"is_reserved":false,"is_disabled":false,"rental_uris":{"android":"levelo://app?vid=8d7af1b9-8e4e-438e-a4d9-249701554749","ios":"levelo://app?vid=8d7af1b9-8e4e-438e-a4d9-249701554749"},"vehicle_type_id":"4","last_reported":1744510842,"current_range_meters":9600,"station_id":"ce4bgvp2rcd13ifvqcu0","pricing_plan_id":"cebpf4jnsgd1na2vs0mg"},{"bike_id":"f7d1eee0-1715-419d-beac-1b98ec9e62ed","system_id":"levelo_inurba_marseille","lat":43.3094,"lon":5.39012,"is_reserved":false,"is_disabled":true,"rental_uris":{"android":"levelo://app?vid=f7d1eee0-1715-419d-beac-1b98ec9e62ed","ios":"levelo://app?vid=f7d1eee0-1715-419d-beac-1b98ec9e62ed"},"vehicle_type_id":"4","last_reported":1744510842,"current_range_meters":9600,"station_id":"ce4bgup2rcd13ifvqco0","pricing_plan_id":"cebpf4jnsgd1na2vs0mg"},{"bike_id":"2d1ead79-f201-4cec-a76d-238b76cb4dcb","system_id":"levelo_inurba_marseille","lat":43.30317,"lon":5.40446,"is_reserved":false,"is_disabled":false,"rental_uris":{"android":"levelo://app?vid=2d1ead79-f201-4cec-a76d-238b76cb4dcb","ios":"levelo://app?vid=2d1ead79-f201-4cec-a76d-238b76cb4dcb"},"vehicle_type_id":"4","last_reported":1744510842,"current_range_meters":9600,"station_id":"ce4bh012rcd13ifvqd10","pricing_plan_id":"cebpf4jnsgd1na2vs0mg"},{"bike_id":"86e3fd62-ce53-4f21-93c1-2fb7456de3cf","system_id":"levelo_inurba_marseille","lat":43.23053,"lon":5.35488,"is_reserved":false,"is_disabled":false,"rental_uris":{"android":"levelo://app?vid=86e3fd62-ce53-4f21-93c1-2fb7456de3cf","ios":"levelo://app?vid=86e3fd62-ce53-4f21-93c1-2fb7456de3cf"},"vehicle_type_id":"4","last_reported":1744510842,"current_range_meters":9600,"station_id":"cpo3342slgdg3j2ifvpg","pricing_plan_id":"cebpf4jnsgd1na2vs0mg"},{"bike_id":"1bdd6146-09e5-4301-9c8a-af9980521802","system_id":"levelo_inurba_marseille","lat":43.28712,"lon":5.39986,"is_reserved":false,"is_disabled":false,"rental_uris":{"android":"levelo://app?vid=1bdd6146-09e5-4301-9c8a-af9980521802","ios":"levelo://app?vid=1bdd6146-09e5-4301-9c8a-af9980521802"},"vehicle_type_id":"4","last_reported":1744510842,"current_range_meters":9600,"station_id":"ce4bho92rcd13ifvqh3g","pricing_plan_id":"cebpf4jnsgd1na2vs0mg"},{"bike_id":"3a8eb72c-53ad-4f36-8afb-69614fb363cd","system_id":"levelo_inurba_marseille","lat":43.28458,"lon":5.3589,"is_reserved":false,"is_disabled":false,"rental_uris":{"android":"levelo://app?vid=3a8eb72c-53ad-4f36-8afb-69614fb363cd","ios":"levelo://app?vid=3a8eb72c-53ad-4f36-8afb-69614fb363cd"},"vehicle_type_id":"4","last_reported":1744510842,"current_range_meters":9600,"station_id":"ce4bhah2rcd13ifvqei0","pricing_plan_id":"cebpf4jnsgd1na2vs0mg"},{"bike_id":"97c5290c-6dcd-4f81-953a-f5953018fa5b","system_id":"levelo_inurba_marseille","lat":43.31035,"lon":5.37544,"is_reserved":false,"is_disabled":false,"rental_uris":{"android":"levelo://app?vid=97c5290c-6dcd-4f81-953a-f5953018fa5b","ios":"levelo://app?vid=97c5290c-6dcd-4f81-953a-f5953018fa5b"},"vehicle_type_id":"4","last_reported":1744510842,"current_range_meters":9600,"station_id":"","pricing_plan_id":"cebpf4jnsgd1na2vs0mg"},{"bike_id":"12995a58-d943-4084-bd4e-dfca89bd59c0","system_id":"levelo_inurba_marseille","lat":43.323376,"lon":5.406174,"is_reserved":false,"is_disabled":false,"rental_uris":{"android":"levelo://app?vid=12995a58-d943-4084-bd4e-dfca89bd59c0","ios":"levelo://app?vid=12995a58-d943-4084-bd4e-dfca89bd59c0"},"vehicle_type_id":"4","last_reported":1744510842,"current_range_meters":9600,"station_id":"ce4bhq92rcd13ifvqhjg","pricing_plan_id":"cebpf4jnsgd1na2vs0mg"},{"bike_id":"cf8f8c49-3658-4339-b4ab-3afee813310f","system_id":"levelo_inurba_marseille","lat":43.23104,"lon":5.43752,"is_reserved":false,"is_disabled":false,"rental_uris":{"android":"levelo://app?vid=cf8f8c49-3658-4339-b4ab-3afee813310f","ios":"levelo://app?vid=cf8f8c49-3658-4339-b4ab-3afee813310f"},"vehicle_type_id":"4","last_reported":1744510842,"current_range_meters":9600,"station_id":"","pricing_plan_id":"cebpf4jnsgd1na2vs0mg"},{"bike_id":"5e8a6d2a-6842-4afa-ac67-8a917147d8e1","system_id":"levelo_inurba_marseille","lat":43.28456,"lon":5.35889,"is_reserved":false,"is_disabled":false,"rental_uris":{"android":"levelo://app?vid=5e8a6d2a-6842-4afa-ac67-8a917147d8e1","ios":"levelo://app?vid=5e8a6d2a-6842-4afa-ac67-8a917147d8e1"},"vehicle_type_id":"4","last_reported":1744510842,"current_range_meters":9600,"station_id":"ce4bhah2rcd13ifvqei0","pricing_plan_id":"cebpf4jnsgd1na2vs0mg"},{"bike_id":"cd1e50e6-976b-44c5-9fe2-fa2658f9ef3f","system_id":"levelo_inurba_marseille","lat":43.27834,"lon":5.39213,"is_reserved":false,"is_disabled":false,"rental_uris":{"android":"levelo://app?vid=cd1e50e6-976b-44c5-9fe2-fa2658f9ef3f","ios":"levelo://app?vid=cd1e50e6-976b-44c5-9fe2-fa2658f9ef3f"},"vehicle_type_id":"4","last_reported":1744510842,"current_range_meters":9600,"station_id":"ce4bhjp2rcd13ifvqga0","pricing_plan_id":"cebpf4jnsgd1na2vs0mg"},{"bike_id":"0e7bf4ae-5aed-4055-a1f8-96debbb9847e","system_id":"levelo_inurba_marseille","lat":43.24172,"lon":5.36403,"is_reserved":false,"is_disabled":false,"rental_uris":{"android":"levelo://app?vid=0e7bf4ae-5aed-4055-a1f8-96debbb9847e","ios":"levelo://app?vid=0e7bf4ae-5aed-4055-a1f8-96debbb9847e"},"vehicle_type_id":"4","last_reported":1744510842,"current_range_meters":9600,"station_id":"cpo36qri1sfpv3e86is0","pricing_plan_id":"cebpf4jnsgd1na2vs0mg"},{"bike_id":"8609ec5b-db31-4682-89f6-95794d251c5e","system_id":"levelo_inurba_marseille","lat":43.231527,"lon":5.437026,"is_reserved":false,"is_disabled":false,"rental_uris":{"android":"levelo://app?vid=8609ec5b-db31-4682-89f6-95794d251c5e","ios":"levelo://app?vid=8609ec5b-db31-4682-89f6-95794d251c5e"},"vehicle_type_id":"4","last_reported":1744510842,"current_range_meters":9600,"station_id":"ce4bhmp2rcd13ifvqgog","pricing_plan_id":"cebpf4jnsgd1na2vs0mg"},{"bike_id":"5b77a833-8185-45c2-9fe3-07eb40df54ca","system_id":"levelo_inurba_marseille","lat":43.33995,"lon":5.38057,"is_reserved":false,"is_disabled":false,"rental_uris":{"android":"levelo://app?vid=5b77a833-8185-45c2-9fe3-07eb40df54ca","ios":"levelo://app?vid=5b77a833-8185-45c2-9fe3-07eb40df54ca"},"vehicle_type_id":"4","last_reported":1744510842,"current_range_meters":9600,"station_id":"","pricing_plan_id":"cebpf4jnsgd1na2vs0mg"},{"bike_id":"78ae55a1-f7e2-42f4-a199-9949c75ff67c","system_id":"levelo_inurba_marseille","lat":43.28468,"lon":5.38576,"is_reserved":false,"is_disabled":false,"rental_uris":{"android":"levelo://app?vid=78ae55a1-f7e2-42f4-a199-9949c75ff67c","ios":"levelo://app?vid=78ae55a1-f7e2-42f4-a199-9949c75ff67c"},"vehicle_type_id":"4","last_reported":1744510842,"current_range_meters":10000,"station_id":"ce4bh8p2rcd13ifvqeb0","pricing_plan_id":"cebpf4jnsgd1na2vs0mg"},{"bike_id":"c65d7b3c-d285-461c-938a-5c69e5d28259","system_id":"levelo_inurba_marseille","lat":43.29561,"lon":5.42296,"is_reserved":false,"is_disabled":false,"rental_uris":{"android":"levelo://app?vid=c65d7b3c-d285-461c-938a-5c69e5d28259","ios":"levelo://app?vid=c65d7b3c-d285-461c-938a-5c69e5d28259"},"vehicle_type_id":"4","last_reported":1744510842,"current_range_meters":10000,"station_id":"ce4bhph2rcd13ifvqhdg","pricing_plan_id":"cebpf4jnsgd1na2vs0mg"},{"bike_id":"4f38e127-be9f-468e-8871-e9cd4f365dca","system_id":"levelo_inurba_marseille","lat":43.246914,"lon":5.411733,"is_reserved":false,"is_disabled":false,"rental_uris":{"android":"levelo://app?vid=4f38e127-be9f-468e-8871-e9cd4f365dca","ios":"levelo://app?vid=4f38e127-be9f-468e-8871-e9cd4f365dca"},"vehicle_type_id":"4","last_reported":1744510842,"current_range_meters":10000,"station_id":"","pricing_plan_id":"cebpf4jnsgd1na2vs0mg"},{"bike_id":"a8b209b2-456e-4a8b-99fa-7124cd412cfb","system_id":"levelo_inurba_marseille","lat":43.309881,"lon":5.417204,"is_reserved":false,"is_disabled":false,"rental_uris":{"android":"levelo://app?vid=a8b209b2-456e-4a8b-99fa-7124cd412cfb","ios":"levelo://app?vid=a8b209b2-456e-4a8b-99fa-7124cd412cfb"},"vehicle_type_id":"4","last_reported":1744510842,"current_range_meters":10000,"station_id":"","pricing_plan_id":"cebpf4jnsgd1na2vs0mg"},{"bike_id":"493cde9e-7859-4c26-a2e6-f744ee5d8553","system_id":"levelo_inurba_marseille","lat":43.31801,"lon":5.36865,"is_reserved":false,"is_disabled":false,"rental_uris":{"android":"levelo://app?vid=493cde9e-7859-4c26-a2e6-f744ee5d8553","ios":"levelo://app?vid=493cde9e-7859-4c26-a2e6-f744ee5d8553"},"vehicle_type_id":"4","last_reported":1744510842,"current_range_meters":10000,"station_id":"","pricing_plan_id":"cebpf4jnsgd1na2vs0mg"},{"bike_id":"d3f929ac-f8b8-4200-a9a3-3b8c9249ebce","system_id":"levelo_inurba_marseille","lat":43.27941,"lon":5.41044,"is_reserved":false,"is_disabled":false,"rental_uris":{"android":"levelo://app?vid=d3f929ac-f8b8-4200-a9a3-3b8c9249ebce","ios":"levelo://app?vid=d3f929ac-f8b8-4200-a9a3-3b8c9249ebce"},"vehicle_type_id":"4","last_reported":1744510842,"current_range_meters":10000,"station_id":"ce4bhnp2rcd13ifvqh0g","pricing_plan_id":"cebpf4jnsgd1na2vs0mg"},{"bike_id":"0a050c7a-f0f5-47ba-9b87-b807d64924bd","system_id":"levelo_inurba_marseille","lat":43.26804,"lon":5.40283,"is_reserved":false,"is_disabled":false,"rental_uris":{"android":"levelo://app?vid=0a050c7a-f0f5-47ba-9b87-b807d64924bd","ios":"levelo://app?vid=0a050c7a-f0f5-47ba-9b87-b807d64924bd"},"vehicle_type_id":"4","last_reported":1744510842,"current_range_meters":10800,"station_id":"ce501612rcd8frsf0b60","pricing_plan_id":"cebpf4jnsgd1na2vs0mg"},{"bike_id":"5c05218a-2f8c-4ccb-969a-803820ad166e","system_id":"levelo_inurba_marseille","lat":43.31893,"lon":5.40733,"is_reserved":false,"is_disabled":false,"rental_uris":{"android":"levelo://app?vid=5c05218a-2f8c-4ccb-969a-803820ad166e","ios":"levelo://app?vid=5c05218a-2f8c-4ccb-969a-803820ad166e"},"vehicle_type_id":"4","last_reported":1744510842,"current_range_meters":10800,"station_id":"ce4bhq12rcd13ifvqhig","pricing_plan_id":"cebpf4jnsgd1na2vs0mg"},{"bike_id":"2f5bc015-0a98-4a0d-a50f-f7181e1d6abe","system_id":"levelo_inurba_marseille","lat":43.23403,"lon":5.41293,"is_reserved":false,"is_disabled":false,"rental_uris":{"android":"levelo://app?vid=2f5bc015-0a98-4a0d-a50f-f7181e1d6abe","ios":"levelo://app?vid=2f5bc015-0a98-4a0d-a50f-f7181e1d6abe"},"vehicle_type_id":"4","last_reported":1744510842,"current_range_meters":10800,"station_id":"","pricing_plan_id":"cebpf4jnsgd1na2vs0mg"},{"bike_id":"aa46c8dd-2d26-4dad-be13-92c6a7cf7ebb","system_id":"levelo_inurba_marseille","lat":43.31323,"lon":5.39686,"is_reserved":false,"is_disabled":false,"rental_uris":{"android":"levelo://app?vid=aa46c8dd-2d26-4dad-be13-92c6a7cf7ebb","ios":"levelo://app?vid=aa46c8dd-2d26-4dad-be13-92c6a7cf7ebb"},"vehicle_type_id":"4","last_reported":1744510842,"current_range_meters":10800,"station_id":"ce4bgvp2rcd13ifvqcu0","pricing_plan_id":"cebpf4jnsgd1na2vs0mg"},{"bike_id":"a2ff1fd3-15da-4d5f-b61b-e4b6df7fc149","system_id":"levelo_inurba_marseille","lat":43.30651,"lon":5.40035,"is_reserved":false,"is_disabled":false,"rental_uris":{"android":"levelo://app?vid=a2ff1fd3-15da-4d5f-b61b-e4b6df7fc149","ios":"levelo://app?vid=a2ff1fd3-15da-4d5f-b61b-e4b6df7fc149"},"vehicle_type_id":"4","last_reported":1744510842,"current_range_meters":10800,"station_id":"","pricing_plan_id":"cebpf4jnsgd1na2vs0mg"},{"bike_id":"546ecda7-c186-4874-8451-fbb98673c2a6","system_id":"levelo_inurba_marseille","lat":43.313239,"lon":5.396946,"is_reserved":false,"is_disabled":false,"rental_uris":{"android":"levelo://app?vid=546ecda7-c186-4874-8451-fbb98673c2a6","ios":"levelo://app?vid=546ecda7-c186-4874-8451-fbb98673c2a6"},"vehicle_type_id":"4","last_reported":1744510842,"current_range_meters":10800,"station_id":"ce4bgvp2rcd13ifvqcu0","pricing_plan_id":"cebpf4jnsgd1na2vs0mg"},{"bike_id":"30cc8b33-f5d2-402b-bc22-73b6e88b3714","system_id":"levelo_inurba_marseille","lat":43.24656,"lon":5.38168,"is_reserved":false,"is_disabled":false,"rental_uris":{"android":"levelo://app?vid=30cc8b33-f5d2-402b-bc22-73b6e88b3714","ios":"levelo://app?vid=30cc8b33-f5d2-402b-bc22-73b6e88b3714"},"vehicle_type_id":"4","last_reported":1744510842,"current_range_meters":10800,"station_id":"ce4bhih2rcd13ifvqfr0","pricing_plan_id":"cebpf4jnsgd1na2vs0mg"},{"bike_id":"76450c2c-888f-4d08-a5c0-d825237615aa","system_id":"levelo_inurba_marseille","lat":43.27078,"lon":5.42272,"is_reserved":false,"is_disabled":false,"rental_uris":{"android":"levelo://app?vid=76450c2c-888f-4d08-a5c0-d825237615aa","ios":"levelo://app?vid=76450c2c-888f-4d08-a5c0-d825237615aa"},"vehicle_type_id":"4","last_reported":1744510842,"current_range_meters":11200,"station_id":"ce4bhk92rcd13ifvqgb0","pricing_plan_id":"cebpf4jnsgd1na2vs0mg"},{"bike_id":"cbe38776-6e0f-4adb-854c-25e7db7e42d0","system_id":"levelo_inurba_marseille","lat":43.24055,"lon":5.37737,"is_reserved":false,"is_disabled":false,"rental_uris":{"android":"levelo://app?vid=cbe38776-6e0f-4adb-854c-25e7db7e42d0","ios":"levelo://app?vid=cbe38776-6e0f-4adb-854c-25e7db7e42d0"},"vehicle_type_id":"4","last_reported":1744510842,"current_range_meters":11200,"station_id":"ce4bhnp2rcd13ifvqgvg","pricing_plan_id":"cebpf4jnsgd1na2vs0mg"},{"bike_id":"f7843f46-58aa-4cf6-a1d0-1b94b16f71c2","system_id":"levelo_inurba_marseille","lat":43.298569,"lon":5.396654,"is_reserved":false,"is_disabled":false,"rental_uris":{"android":"levelo://app?vid=f7843f46-58aa-4cf6-a1d0-1b94b16f71c2","ios":"levelo://app?vid=f7843f46-58aa-4cf6-a1d0-1b94b16f71c2"},"vehicle_type_id":"4","last_reported":1744510842,"current_range_meters":11200,"station_id":"","pricing_plan_id":"cebpf4jnsgd1na2vs0mg"},{"bike_id":"0e28dec3-f76d-48a9-b282-944b4e9f06dd","system_id":"levelo_inurba_marseille","lat":43.24814,"lon":5.37478,"is_reserved":false,"is_disabled":false,"rental_uris":{"android":"levelo://app?vid=0e28dec3-f76d-48a9-b282-944b4e9f06dd","ios":"levelo://app?vid=0e28dec3-f76d-48a9-b282-944b4e9f06dd"},"vehicle_type_id":"4","last_reported":1744510842,"current_range_meters":11200,"station_id":"ce4bhgh2rcd13ifvqfb0","pricing_plan_id":"cebpf4jnsgd1na2vs0mg"},{"bike_id":"6e2ac28e-dfb7-46b8-8016-b7ae92b2a4f0","system_id":"levelo_inurba_marseille","lat":43.27992,"lon":5.40007,"is_reserved":false,"is_disabled":false,"rental_uris":{"android":"levelo://app?vid=6e2ac28e-dfb7-46b8-8016-b7ae92b2a4f0","ios":"levelo://app?vid=6e2ac28e-dfb7-46b8-8016-b7ae92b2a4f0"},"vehicle_type_id":"4","last_reported":1744510842,"current_range_meters":11200,"station_id":"ce4bho92rcd13ifvqh4g","pricing_plan_id":"cebpf4jnsgd1na2vs0mg"},{"bike_id":"b7e965ff-4854-44fc-8e2a-103893462049","system_id":"levelo_inurba_marseille","lat":43.337444,"lon":5.374475,"is_reserved":false,"is_disabled":true,"rental_uris":{"android":"levelo://app?vid=b7e965ff-4854-44fc-8e2a-103893462049","ios":"levelo://app?vid=b7e965ff-4854-44fc-8e2a-103893462049"},"vehicle_type_id":"4","last_reported":1744510842,"current_range_meters":11200,"station_id":"","pricing_plan_id":"cebpf4jnsgd1na2vs0mg"},{"bike_id":"cda90570-b5ec-4b8f-b4f9-2a33fa879c88","system_id":"levelo_inurba_marseille","lat":43.28112,"lon":5.37835,"is_reserved":false,"is_disabled":false,"rental_uris":{"android":"levelo://app?vid=cda90570-b5ec-4b8f-b4f9-2a33fa879c88","ios":"levelo://app?vid=cda90570-b5ec-4b8f-b4f9-2a33fa879c88"},"vehicle_type_id":"4","last_reported":1744510842,"current_range_meters":11200,"station_id":"ce4bha12rcd13ifvqee0","pricing_plan_id":"cebpf4jnsgd1na2vs0mg"},{"bike_id":"59218caf-4d91-41fa-a37e-bf7c3bc19c6a","system_id":"levelo_inurba_marseille","lat":43.28581,"lon":5.35127,"is_reserved":false,"is_disabled":false,"rental_uris":{"android":"levelo://app?vid=59218caf-4d91-41fa-a37e-bf7c3bc19c6a","ios":"levelo://app?vid=59218caf-4d91-41fa-a37e-bf7c3bc19c6a"},"vehicle_type_id":"4","last_reported":1744510842,"current_range_meters":11600,"station_id":"ce4bhch2rcd13ifvqeug","pricing_plan_id":"cebpf4jnsgd1na2vs0mg"},{"bike_id":"ee573499-c96a-4c7e-91cf-6b77a256f773","system_id":"levelo_inurba_marseille","lat":43.23203,"lon":5.39975,"is_reserved":false,"is_disabled":false,"rental_uris":{"android":"levelo://app?vid=ee573499-c96a-4c7e-91cf-6b77a256f773","ios":"levelo://app?vid=ee573499-c96a-4c7e-91cf-6b77a256f773"},"vehicle_type_id":"4","last_reported":1744510842,"current_range_meters":11600,"station_id":"ce4bhn12rcd13ifvqgqg","pricing_plan_id":"cebpf4jnsgd1na2vs0mg"},{"bike_id":"e0e59bfb-5088-41a2-835c-398ab715e8d6","system_id":"levelo_inurba_marseille","lat":43.2416,"lon":5.39737,"is_reserved":false,"is_disabled":false,"rental_uris":{"android":"levelo://app?vid=e0e59bfb-5088-41a2-835c-398ab715e8d6","ios":"levelo://app?vid=e0e59bfb-5088-41a2-835c-398ab715e8d6"},"vehicle_type_id":"4","last_reported":1744510842,"current_range_meters":11600,"station_id":"ce4bhn12rcd13ifvqgpg","pricing_plan_id":"cebpf4jnsgd1na2vs0mg"},{"bike_id":"72c6aab6-3a44-430e-a84d-843d2a93e616","system_id":"levelo_inurba_marseille","lat":43.2117,"lon":5.35094,"is_reserved":false,"is_disabled":true,"rental_uris":{"android":"levelo://app?vid=72c6aab6-3a44-430e-a84d-843d2a93e616","ios":"levelo://app?vid=72c6aab6-3a44-430e-a84d-843d2a93e616"},"vehicle_type_id":"4","last_reported":1744510842,"current_range_meters":12000,"station_id":"st_cvj6sg6p6f1abm77japg","pricing_plan_id":"cebpf4jnsgd1na2vs0mg"},{"bike_id":"f7cd819f-b752-47cc-848d-ff43c669ccb8","system_id":"levelo_inurba_marseille","lat":43.30981,"lon":5.41737,"is_reserved":false,"is_disabled":false,"rental_uris":{"android":"levelo://app?vid=f7cd819f-b752-47cc-848d-ff43c669ccb8","ios":"levelo://app?vid=f7cd819f-b752-47cc-848d-ff43c669ccb8"},"vehicle_type_id":"4","last_reported":1744510842,"current_range_meters":12000,"station_id":"","pricing_plan_id":"cebpf4jnsgd1na2vs0mg"},{"bike_id":"0c30a5d7-82b9-4bb2-9032-224893c69d2f","system_id":"levelo_inurba_marseille","lat":43.264912,"lon":5.395483,"is_reserved":false,"is_disabled":true,"rental_uris":{"android":"levelo://app?vid=0c30a5d7-82b9-4bb2-9032-224893c69d2f","ios":"levelo://app?vid=0c30a5d7-82b9-4bb2-9032-224893c69d2f"},"vehicle_type_id":"4","last_reported":1744510842,"current_range_meters":12000,"station_id":"ce4bhi12rcd13ifvqfq0","pricing_plan_id":"cebpf4jnsgd1na2vs0mg"},{"bike_id":"8043ed93-c0e0-4b20-a22a-1ce703744524","system_id":"levelo_inurba_marseille","lat":43.28933,"lon":5.36614,"is_reserved":false,"is_disabled":true,"rental_uris":{"android":"levelo://app?vid=8043ed93-c0e0-4b20-a22a-1ce703744524","ios":"levelo://app?vid=8043ed93-c0e0-4b20-a22a-1ce703744524"},"vehicle_type_id":"4","last_reported":1744510842,"current_range_meters":12000,"station_id":"ce4bhap2rcd13ifvqek0","pricing_plan_id":"cebpf4jnsgd1na2vs0mg"},{"bike_id":"c14a3d0e-03f7-430a-80a8-18644645ea89","system_id":"levelo_inurba_marseille","lat":43.32334,"lon":5.4063,"is_reserved":false,"is_disabled":false,"rental_uris":{"android":"levelo://app?vid=c14a3d0e-03f7-430a-80a8-18644645ea89","ios":"levelo://app?vid=c14a3d0e-03f7-430a-80a8-18644645ea89"},"vehicle_type_id":"4","last_reported":1744510842,"current_range_meters":12000,"station_id":"ce4bhq92rcd13ifvqhjg","pricing_plan_id":"cebpf4jnsgd1na2vs0mg"},{"bike_id":"2a212dc2-5c2b-4920-8b57-c9da67735048","system_id":"levelo_inurba_marseille","lat":43.29888,"lon":5.38901,"is_reserved":false,"is_disabled":false,"rental_uris":{"android":"levelo://app?vid=2a212dc2-5c2b-4920-8b57-c9da67735048","ios":"levelo://app?vid=2a212dc2-5c2b-4920-8b57-c9da67735048"},"vehicle_type_id":"4","last_reported":1744510842,"current_range_meters":12400,"station_id":"ce4bh392rcd13ifvqdl0","pricing_plan_id":"cebpf4jnsgd1na2vs0mg"},{"bike_id":"e48f952f-c6be-4ef7-9295-13bfba252544","system_id":"levelo_inurba_marseille","lat":43.30937,"lon":5.4015,"is_reserved":false,"is_disabled":false,"rental_uris":{"android":"levelo://app?vid=e48f952f-c6be-4ef7-9295-13bfba252544","ios":"levelo://app?vid=e48f952f-c6be-4ef7-9295-13bfba252544"},"vehicle_type_id":"4","last_reported":1744510842,"current_range_meters":12400,"station_id":"ce4bgvp2rcd13ifvqct0","pricing_plan_id":"cebpf4jnsgd1na2vs0mg"},{"bike_id":"c15ff759-1819-4a33-a3de-763aeacbba51","system_id":"levelo_inurba_marseille","lat":43.286778,"lon":5.386644,"is_reserved":false,"is_disabled":false,"rental_uris":{"android":"levelo://app?vid=c15ff759-1819-4a33-a3de-763aeacbba51","ios":"levelo://app?vid=c15ff759-1819-4a33-a3de-763aeacbba51"},"vehicle_type_id":"4","last_reported":1744510842,"current_range_meters":12400,"station_id":"ce4bh492rcd13ifvqdug","pricing_plan_id":"cebpf4jnsgd1na2vs0mg"},{"bike_id":"91fffdcd-2fa7-4f34-b242-95e7e93ac05b","system_id":"levelo_inurba_marseille","lat":43.26332,"lon":5.39612,"is_reserved":false,"is_disabled":false,"rental_uris":{"android":"levelo://app?vid=91fffdcd-2fa7-4f34-b242-95e7e93ac05b","ios":"levelo://app?vid=91fffdcd-2fa7-4f34-b242-95e7e93ac05b"},"vehicle_type_id":"4","last_reported":1744510842,"current_range_meters":12400,"station_id":"","pricing_plan_id":"cebpf4jnsgd1na2vs0mg"},{"bike_id":"ef01a080-90aa-4c09-bccc-1c0a11ea24f7","system_id":"levelo_inurba_marseille","lat":43.28762,"lon":5.38704,"is_reserved":false,"is_disabled":false,"rental_uris":{"android":"levelo://app?vid=ef01a080-90aa-4c09-bccc-1c0a11ea24f7","ios":"levelo://app?vid=ef01a080-90aa-4c09-bccc-1c0a11ea24f7"},"vehicle_type_id":"4","last_reported":1744510842,"current_range_meters":12400,"station_id":"","pricing_plan_id":"cebpf4jnsgd1na2vs0mg"},{"bike_id":"85a034f1-4919-4cfd-9a9b-bbc474b1bf80","system_id":"levelo_inurba_marseille","lat":43.31537,"lon":5.38023,"is_reserved":false,"is_disabled":false,"rental_uris":{"android":"levelo://app?vid=85a034f1-4919-4cfd-9a9b-bbc474b1bf80","ios":"levelo://app?vid=85a034f1-4919-4cfd-9a9b-bbc474b1bf80"},"vehicle_type_id":"4","last_reported":1744510842,"current_range_meters":12800,"station_id":"ce4bhsp2rcd13ifvqi50","pricing_plan_id":"cebpf4jnsgd1na2vs0mg"},{"bike_id":"82d38bd3-c046-4f55-aec8-4eb686f05e29","system_id":"levelo_inurba_marseille","lat":43.22928,"lon":5.35368,"is_reserved":false,"is_disabled":true,"rental_uris":{"android":"levelo://app?vid=82d38bd3-c046-4f55-aec8-4eb686f05e29","ios":"levelo://app?vid=82d38bd3-c046-4f55-aec8-4eb686f05e29"},"vehicle_type_id":"4","last_reported":1744510842,"current_range_meters":12800,"station_id":"cpo3532slgdg3j2ikp40","pricing_plan_id":"cebpf4jnsgd1na2vs0mg"},{"bike_id":"c21b93f5-7db2-4b47-9873-cc836a08f1d9","system_id":"levelo_inurba_marseille","lat":43.294317,"lon":5.397513,"is_reserved":false,"is_disabled":false,"rental_uris":{"android":"levelo://app?vid=c21b93f5-7db2-4b47-9873-cc836a08f1d9","ios":"levelo://app?vid=c21b93f5-7db2-4b47-9873-cc836a08f1d9"},"vehicle_type_id":"4","last_reported":1744510842,"current_range_meters":12800,"station_id":"","pricing_plan_id":"cebpf4jnsgd1na2vs0mg"},{"bike_id":"a6cb932b-facc-44a2-950c-11e335330177","system_id":"levelo_inurba_marseille","lat":43.28854,"lon":5.35844,"is_reserved":false,"is_disabled":false,"rental_uris":{"android":"levelo://app?vid=a6cb932b-facc-44a2-950c-11e335330177","ios":"levelo://app?vid=a6cb932b-facc-44a2-950c-11e335330177"},"vehicle_type_id":"4","last_reported":1744510842,"current_range_meters":12800,"station_id":"ce4bhb12rcd13ifvqem0","pricing_plan_id":"cebpf4jnsgd1na2vs0mg"},{"bike_id":"efd328ca-f8bf-4550-bd94-c2fd75978f3c","system_id":"levelo_inurba_marseille","lat":43.33046,"lon":5.38083,"is_reserved":false,"is_disabled":false,"rental_uris":{"android":"levelo://app?vid=efd328ca-f8bf-4550-bd94-c2fd75978f3c","ios":"levelo://app?vid=efd328ca-f8bf-4550-bd94-c2fd75978f3c"},"vehicle_type_id":"4","last_reported":1744510842,"current_range_meters":12800,"station_id":"","pricing_plan_id":"cebpf4jnsgd1na2vs0mg"},{"bike_id":"12aec038-db5e-4d5d-a5cf-e01dc2e28ea3","system_id":"levelo_inurba_marseille","lat":43.30132,"lon":5.40496,"is_reserved":false,"is_disabled":true,"rental_uris":{"android":"levelo://app?vid=12aec038-db5e-4d5d-a5cf-e01dc2e28ea3","ios":"levelo://app?vid=12aec038-db5e-4d5d-a5cf-e01dc2e28ea3"},"vehicle_type_id":"4","last_reported":1744510842,"current_range_meters":13600,"station_id":"","pricing_plan_id":"cebpf4jnsgd1na2vs0mg"},{"bike_id":"5bd83869-317c-4f7d-93ed-182a084c5a24","system_id":"levelo_inurba_marseille","lat":43.25706,"lon":5.41112,"is_reserved":false,"is_disabled":false,"rental_uris":{"android":"levelo://app?vid=5bd83869-317c-4f7d-93ed-182a084c5a24","ios":"levelo://app?vid=5bd83869-317c-4f7d-93ed-182a084c5a24"},"vehicle_type_id":"4","last_reported":1744510842,"current_range_meters":13600,"station_id":"ce4bhkp2rcd13ifvqgd0","pricing_plan_id":"cebpf4jnsgd1na2vs0mg"},{"bike_id":"020e9999-d552-48d0-ae5f-b725af0dbea2","system_id":"levelo_inurba_marseille","lat":43.29902,"lon":5.4375,"is_reserved":false,"is_disabled":false,"rental_uris":{"android":"levelo://app?vid=020e9999-d552-48d0-ae5f-b725af0dbea2","ios":"levelo://app?vid=020e9999-d552-48d0-ae5f-b725af0dbea2"},"vehicle_type_id":"4","last_reported":1744510842,"current_range_meters":13600,"station_id":"","pricing_plan_id":"cebpf4jnsgd1na2vs0mg"},{"bike_id":"e2a4b9ae-6f66-4e9f-b1a1-aec1ba855dd6","system_id":"levelo_inurba_marseille","lat":43.29883,"lon":5.39733,"is_reserved":false,"is_disabled":false,"rental_uris":{"android":"levelo://app?vid=e2a4b9ae-6f66-4e9f-b1a1-aec1ba855dd6","ios":"levelo://app?vid=e2a4b9ae-6f66-4e9f-b1a1-aec1ba855dd6"},"vehicle_type_id":"4","last_reported":1744510842,"current_range_meters":13600,"station_id":"ce4bh0h2rcd13ifvqd50","pricing_plan_id":"cebpf4jnsgd1na2vs0mg"},{"bike_id":"a3bf51d9-08b7-458c-9b6d-ef5680cc95d6","system_id":"levelo_inurba_marseille","lat":43.21739,"lon":5.34603,"is_reserved":false,"is_disabled":true,"rental_uris":{"android":"levelo://app?vid=a3bf51d9-08b7-458c-9b6d-ef5680cc95d6","ios":"levelo://app?vid=a3bf51d9-08b7-458c-9b6d-ef5680cc95d6"},"vehicle_type_id":"4","last_reported":1744510842,"current_range_meters":13600,"station_id":"cpo36qri1sfpv3e86is0","pricing_plan_id":"cebpf4jnsgd1na2vs0mg"},{"bike_id":"842a045e-d76e-4848-9012-06306e419477","system_id":"levelo_inurba_marseille","lat":43.284643,"lon":5.358783,"is_reserved":false,"is_disabled":false,"rental_uris":{"android":"levelo://app?vid=842a045e-d76e-4848-9012-06306e419477","ios":"levelo://app?vid=842a045e-d76e-4848-9012-06306e419477"},"vehicle_type_id":"4","last_reported":1744510842,"current_range_meters":13600,"station_id":"ce4bhah2rcd13ifvqei0","pricing_plan_id":"cebpf4jnsgd1na2vs0mg"},{"bike_id":"3805593d-5e19-4d67-9574-2a4e4b5f875d","system_id":"levelo_inurba_marseille","lat":43.2894,"lon":5.36626,"is_reserved":false,"is_disabled":false,"rental_uris":{"android":"levelo://app?vid=3805593d-5e19-4d67-9574-2a4e4b5f875d","ios":"levelo://app?vid=3805593d-5e19-4d67-9574-2a4e4b5f875d"},"vehicle_type_id":"4","last_reported":1744510842,"current_range_meters":13600,"station_id":"ce4bhap2rcd13ifvqek0","pricing_plan_id":"cebpf4jnsgd1na2vs0mg"},{"bike_id":"8466bfd0-76bc-446a-a949-609a60c85c66","system_id":"levelo_inurba_marseille","lat":43.2956,"lon":5.42294,"is_reserved":false,"is_disabled":false,"rental_uris":{"android":"levelo://app?vid=8466bfd0-76bc-446a-a949-609a60c85c66","ios":"levelo://app?vid=8466bfd0-76bc-446a-a949-609a60c85c66"},"vehicle_type_id":"4","last_reported":1744510842,"current_range_meters":13600,"station_id":"ce4bhph2rcd13ifvqhdg","pricing_plan_id":"cebpf4jnsgd1na2vs0mg"},{"bike_id":"4bbe6e48-9bfa-4dec-aab0-5597477f7da1","system_id":"levelo_inurba_marseille","lat":43.32412,"lon":5.39141,"is_reserved":false,"is_disabled":false,"rental_uris":{"android":"levelo://app?vid=4bbe6e48-9bfa-4dec-aab0-5597477f7da1","ios":"levelo://app?vid=4bbe6e48-9bfa-4dec-aab0-5597477f7da1"},"vehicle_type_id":"4","last_reported":1744510842,"current_range_meters":13600,"station_id":"","pricing_plan_id":"cebpf4jnsgd1na2vs0mg"},{"bike_id":"483b67b3-2349-4ecc-9d01-9917825b7826","system_id":"levelo_inurba_marseille","lat":43.310676,"lon":5.383466,"is_reserved":false,"is_disabled":false,"rental_uris":{"android":"levelo://app?vid=483b67b3-2349-4ecc-9d01-9917825b7826","ios":"levelo://app?vid=483b67b3-2349-4ecc-9d01-9917825b7826"},"vehicle_type_id":"4","last_reported":1744510842,"current_range_meters":14000,"station_id":"ce4bgv92rcd13ifvqcr0","pricing_plan_id":"cebpf4jnsgd1na2vs0mg"},{"bike_id":"57f149fb-9c06-4f0d-a2af-6659b7a5e97d","system_id":"levelo_inurba_marseille","lat":43.28674,"lon":5.38658,"is_reserved":false,"is_disabled":false,"rental_uris":{"android":"levelo://app?vid=57f149fb-9c06-4f0d-a2af-6659b7a5e97d","ios":"levelo://app?vid=57f149fb-9c06-4f0d-a2af-6659b7a5e97d"},"vehicle_type_id":"4","last_reported":1744510842,"current_range_meters":14000,"station_id":"ce4bh492rcd13ifvqdug","pricing_plan_id":"cebpf4jnsgd1na2vs0mg"},{"bike_id":"c5de9f04-a68c-4314-9995-789e3d717983","system_id":"levelo_inurba_marseille","lat":43.24406,"lon":5.37054,"is_reserved":false,"is_disabled":true,"rental_uris":{"android":"levelo://app?vid=c5de9f04-a68c-4314-9995-789e3d717983","ios":"levelo://app?vid=c5de9f04-a68c-4314-9995-789e3d717983"},"vehicle_type_id":"4","last_reported":1744510842,"current_range_meters":14000,"station_id":"ce4bhhh2rcd13ifvqfk0","pricing_plan_id":"cebpf4jnsgd1na2vs0mg"},{"bike_id":"b55dd5e7-54b2-4035-b945-7b626dd7afc7","system_id":"levelo_inurba_marseille","lat":43.275462,"lon":5.409197,"is_reserved":false,"is_disabled":false,"rental_uris":{"android":"levelo://app?vid=b55dd5e7-54b2-4035-b945-7b626dd7afc7","ios":"levelo://app?vid=b55dd5e7-54b2-4035-b945-7b626dd7afc7"},"vehicle_type_id":"4","last_reported":1744510842,"current_range_meters":14000,"station_id":"","pricing_plan_id":"cebpf4jnsgd1na2vs0mg"},{"bike_id":"982bb1bc-457f-43d7-ae21-85035c856353","system_id":"levelo_inurba_marseille","lat":43.22507,"lon":5.34774,"is_reserved":false,"is_disabled":false,"rental_uris":{"android":"levelo://app?vid=982bb1bc-457f-43d7-ae21-85035c856353","ios":"levelo://app?vid=982bb1bc-457f-43d7-ae21-85035c856353"},"vehicle_type_id":"4","last_reported":1744510842,"current_range_meters":14000,"station_id":"st_cvj5dfep6f1abm77gieg","pricing_plan_id":"cebpf4jnsgd1na2vs0mg"},{"bike_id":"a36fba11-20ad-413d-8be0-ed958819c22b","system_id":"levelo_inurba_marseille","lat":43.299375,"lon":5.365485,"is_reserved":false,"is_disabled":false,"rental_uris":{"android":"levelo://app?vid=a36fba11-20ad-413d-8be0-ed958819c22b","ios":"levelo://app?vid=a36fba11-20ad-413d-8be0-ed958819c22b"},"vehicle_type_id":"4","last_reported":1744510842,"current_range_meters":14000,"station_id":"ce4bgm92rcd13ifvqbr0","pricing_plan_id":"cebpf4jnsgd1na2vs0mg"},{"bike_id":"ec5529ba-a86c-439a-9c90-c79bfd022883","system_id":"levelo_inurba_marseille","lat":43.26569,"lon":5.39019,"is_reserved":false,"is_disabled":false,"rental_uris":{"android":"levelo://app?vid=ec5529ba-a86c-439a-9c90-c79bfd022883","ios":"levelo://app?vid=ec5529ba-a86c-439a-9c90-c79bfd022883"},"vehicle_type_id":"4","last_reported":1744510842,"current_range_meters":14000,"station_id":"ce4bhe12rcd13ifvqf30","pricing_plan_id":"cebpf4jnsgd1na2vs0mg"},{"bike_id":"73bbc97d-2b39-4276-bc22-fd7aa78f429c","system_id":"levelo_inurba_marseille","lat":43.298946,"lon":5.436761,"is_reserved":false,"is_disabled":false,"rental_uris":{"android":"levelo://app?vid=73bbc97d-2b39-4276-bc22-fd7aa78f429c","ios":"levelo://app?vid=73bbc97d-2b39-4276-bc22-fd7aa78f429c"},"vehicle_type_id":"4","last_reported":1744510842,"current_range_meters":14000,"station_id":"ce4bhpp2rcd13ifvqhfg","pricing_plan_id":"cebpf4jnsgd1na2vs0mg"},{"bike_id":"c5efde6c-1efb-41a7-8081-e0be164de95a","system_id":"levelo_inurba_marseille","lat":43.31691,"lon":5.40483,"is_reserved":false,"is_disabled":false,"rental_uris":{"android":"levelo://app?vid=c5efde6c-1efb-41a7-8081-e0be164de95a","ios":"levelo://app?vid=c5efde6c-1efb-41a7-8081-e0be164de95a"},"vehicle_type_id":"4","last_reported":1744510842,"current_range_meters":14000,"station_id":"ce4bh012rcd13ifvqd00","pricing_plan_id":"cebpf4jnsgd1na2vs0mg"},{"bike_id":"c70dc66c-d4a1-4e50-81d7-22e212eff3e3","system_id":"levelo_inurba_marseille","lat":43.24659,"lon":5.38148,"is_reserved":false,"is_disabled":false,"rental_uris":{"android":"levelo://app?vid=c70dc66c-d4a1-4e50-81d7-22e212eff3e3","ios":"levelo://app?vid=c70dc66c-d4a1-4e50-81d7-22e212eff3e3"},"vehicle_type_id":"4","last_reported":1744510842,"current_range_meters":14800,"station_id":"ce4bhih2rcd13ifvqfr0","pricing_plan_id":"cebpf4jnsgd1na2vs0mg"},{"bike_id":"670350e7-8b16-4095-8222-1a9ab089eb5a","system_id":"levelo_inurba_marseille","lat":43.27946,"lon":5.41011,"is_reserved":false,"is_disabled":false,"rental_uris":{"android":"levelo://app?vid=670350e7-8b16-4095-8222-1a9ab089eb5a","ios":"levelo://app?vid=670350e7-8b16-4095-8222-1a9ab089eb5a"},"vehicle_type_id":"4","last_reported":1744510842,"current_range_meters":14800,"station_id":"ce4bhnp2rcd13ifvqh0g","pricing_plan_id":"cebpf4jnsgd1na2vs0mg"},{"bike_id":"c846bd6e-f265-46b5-bea4-af71b701161d","system_id":"levelo_inurba_marseille","lat":43.2806,"lon":5.39614,"is_reserved":false,"is_disabled":false,"rental_uris":{"android":"levelo://app?vid=c846bd6e-f265-46b5-bea4-af71b701161d","ios":"levelo://app?vid=c846bd6e-f265-46b5-bea4-af71b701161d"},"vehicle_type_id":"4","last_reported":1744510842,"current_range_meters":14800,"station_id":"ce4bho12rcd13ifvqh2g","pricing_plan_id":"cebpf4jnsgd1na2vs0mg"},{"bike_id":"fd75c133-cf0e-4963-8858-2579ab11cf51","system_id":"levelo_inurba_marseille","lat":43.30774,"lon":5.37661,"is_reserved":false,"is_disabled":false,"rental_uris":{"android":"levelo://app?vid=fd75c133-cf0e-4963-8858-2579ab11cf51","ios":"levelo://app?vid=fd75c133-cf0e-4963-8858-2579ab11cf51"},"vehicle_type_id":"4","last_reported":1744510842,"current_range_meters":14800,"station_id":"ce4bgv92rcd13ifvqcq0","pricing_plan_id":"cebpf4jnsgd1na2vs0mg"},{"bike_id":"d8b9884b-4022-4710-9f87-50e0dbfd421d","system_id":"levelo_inurba_marseille","lat":43.24158,"lon":5.36399,"is_reserved":false,"is_disabled":false,"rental_uris":{"android":"levelo://app?vid=d8b9884b-4022-4710-9f87-50e0dbfd421d","ios":"levelo://app?vid=d8b9884b-4022-4710-9f87-50e0dbfd421d"},"vehicle_type_id":"4","last_reported":1744510842,"current_range_meters":14800,"station_id":"cpo36qri1sfpv3e86is0","pricing_plan_id":"cebpf4jnsgd1na2vs0mg"},{"bike_id":"d49ed5f3-63dd-41d8-a7c3-7b7860b035b1","system_id":"levelo_inurba_marseille","lat":43.248131,"lon":5.374593,"is_reserved":false,"is_disabled":true,"rental_uris":{"android":"levelo://app?vid=d49ed5f3-63dd-41d8-a7c3-7b7860b035b1","ios":"levelo://app?vid=d49ed5f3-63dd-41d8-a7c3-7b7860b035b1"},"vehicle_type_id":"4","last_reported":1744510842,"current_range_meters":14800,"station_id":"ce4bhgh2rcd13ifvqfb0","pricing_plan_id":"cebpf4jnsgd1na2vs0mg"},{"bike_id":"572981a9-09c3-4dbe-aef1-47f94f804852","system_id":"levelo_inurba_marseille","lat":43.25579,"lon":5.38233,"is_reserved":false,"is_disabled":false,"rental_uris":{"android":"levelo://app?vid=572981a9-09c3-4dbe-aef1-47f94f804852","ios":"levelo://app?vid=572981a9-09c3-4dbe-aef1-47f94f804852"},"vehicle_type_id":"4","last_reported":1744510842,"current_range_meters":14800,"station_id":"ce4bhih2rcd13ifvqfs0","pricing_plan_id":"cebpf4jnsgd1na2vs0mg"},{"bike_id":"5591936e-ca63-41c7-89f3-9c9493c86f89","system_id":"levelo_inurba_marseille","lat":43.24161,"lon":5.36411,"is_reserved":false,"is_disabled":false,"rental_uris":{"android":"levelo://app?vid=5591936e-ca63-41c7-89f3-9c9493c86f89","ios":"levelo://app?vid=5591936e-ca63-41c7-89f3-9c9493c86f89"},"vehicle_type_id":"4","last_reported":1744510842,"current_range_meters":14800,"station_id":"cpo36qri1sfpv3e86is0","pricing_plan_id":"cebpf4jnsgd1na2vs0mg"},{"bike_id":"c5668a5c-eabb-4363-a042-b20f82d9a571","system_id":"levelo_inurba_marseille","lat":43.2606,"lon":5.39384,"is_reserved":false,"is_disabled":false,"rental_uris":{"android":"levelo://app?vid=c5668a5c-eabb-4363-a042-b20f82d9a571","ios":"levelo://app?vid=c5668a5c-eabb-4363-a042-b20f82d9a571"},"vehicle_type_id":"4","last_reported":1744510842,"current_range_meters":14800,"station_id":"ce4bhh92rcd13ifvqfj0","pricing_plan_id":"cebpf4jnsgd1na2vs0mg"},{"bike_id":"024f5024-4b56-480d-ac3c-45228dfdbfea","system_id":"levelo_inurba_marseille","lat":43.2871,"lon":5.39988,"is_reserved":false,"is_disabled":false,"rental_uris":{"android":"levelo://app?vid=024f5024-4b56-480d-ac3c-45228dfdbfea","ios":"levelo://app?vid=024f5024-4b56-480d-ac3c-45228dfdbfea"},"vehicle_type_id":"4","last_reported":1744510842,"current_range_meters":32000,"station_id":"ce4bho92rcd13ifvqh3g","pricing_plan_id":"cebpf4jnsgd1na2vs0mg"},{"bike_id":"51ca3998-1d52-48da-b48d-af2858da5929","system_id":"levelo_inurba_marseille","lat":43.31514,"lon":5.37259,"is_reserved":false,"is_disabled":false,"rental_uris":{"android":"levelo://app?vid=51ca3998-1d52-48da-b48d-af2858da5929","ios":"levelo://app?vid=51ca3998-1d52-48da-b48d-af2858da5929"},"vehicle_type_id":"4","last_reported":1744510842,"current_range_meters":15200,"station_id":"","pricing_plan_id":"cebpf4jnsgd1na2vs0mg"},{"bike_id":"2fc88268-9338-4674-a8f4-36dfb8363ca0","system_id":"levelo_inurba_marseille","lat":43.21157,"lon":5.35079,"is_reserved":false,"is_disabled":true,"rental_uris":{"android":"levelo://app?vid=2fc88268-9338-4674-a8f4-36dfb8363ca0","ios":"levelo://app?vid=2fc88268-9338-4674-a8f4-36dfb8363ca0"},"vehicle_type_id":"4","last_reported":1744510842,"current_range_meters":15200,"station_id":"st_cvj6sg6p6f1abm77japg","pricing_plan_id":"cebpf4jnsgd1na2vs0mg"},{"bike_id":"e62aeff5-c969-42e4-89ea-d12d0d593692","system_id":"levelo_inurba_marseille","lat":43.28993,"lon":5.35609,"is_reserved":false,"is_disabled":false,"rental_uris":{"android":"levelo://app?vid=e62aeff5-c969-42e4-89ea-d12d0d593692","ios":"levelo://app?vid=e62aeff5-c969-42e4-89ea-d12d0d593692"},"vehicle_type_id":"4","last_reported":1744510842,"current_range_meters":15200,"station_id":"ce4bhb92rcd13ifvqen0","pricing_plan_id":"cebpf4jnsgd1na2vs0mg"},{"bike_id":"7f1c93b4-1199-42b7-a11c-172539cb838c","system_id":"levelo_inurba_marseille","lat":43.28694,"lon":5.3998,"is_reserved":false,"is_disabled":false,"rental_uris":{"android":"levelo://app?vid=7f1c93b4-1199-42b7-a11c-172539cb838c","ios":"levelo://app?vid=7f1c93b4-1199-42b7-a11c-172539cb838c"},"vehicle_type_id":"4","last_reported":1744510842,"current_range_meters":15200,"station_id":"ce4bho92rcd13ifvqh3g","pricing_plan_id":"cebpf4jnsgd1na2vs0mg"},{"bike_id":"3d925dcc-cdfc-409e-8643-8ee56b7ed51b","system_id":"levelo_inurba_marseille","lat":43.31432,"lon":5.37351,"is_reserved":false,"is_disabled":false,"rental_uris":{"android":"levelo://app?vid=3d925dcc-cdfc-409e-8643-8ee56b7ed51b","ios":"levelo://app?vid=3d925dcc-cdfc-409e-8643-8ee56b7ed51b"},"vehicle_type_id":"4","last_reported":1744510842,"current_range_meters":15200,"station_id":"","pricing_plan_id":"cebpf4jnsgd1na2vs0mg"},{"bike_id":"445e7911-f675-4905-8c68-72e5d6376d14","system_id":"levelo_inurba_marseille","lat":43.28845,"lon":5.35853,"is_reserved":false,"is_disabled":false,"rental_uris":{"android":"levelo://app?vid=445e7911-f675-4905-8c68-72e5d6376d14","ios":"levelo://app?vid=445e7911-f675-4905-8c68-72e5d6376d14"},"vehicle_type_id":"4","last_reported":1744510842,"current_range_meters":15200,"station_id":"ce4bhb12rcd13ifvqem0","pricing_plan_id":"cebpf4jnsgd1na2vs0mg"},{"bike_id":"e09b0a72-9049-4f0a-8c1e-9c77d8777c41","system_id":"levelo_inurba_marseille","lat":43.284637,"lon":5.358929,"is_reserved":false,"is_disabled":false,"rental_uris":{"android":"levelo://app?vid=e09b0a72-9049-4f0a-8c1e-9c77d8777c41","ios":"levelo://app?vid=e09b0a72-9049-4f0a-8c1e-9c77d8777c41"},"vehicle_type_id":"4","last_reported":1744510842,"current_range_meters":16000,"station_id":"ce4bhah2rcd13ifvqei0","pricing_plan_id":"cebpf4jnsgd1na2vs0mg"},{"bike_id":"1578cdda-fa32-4486-ac62-617f457b0927","system_id":"levelo_inurba_marseille","lat":43.28997,"lon":5.35646,"is_reserved":false,"is_disabled":true,"rental_uris":{"android":"levelo://app?vid=1578cdda-fa32-4486-ac62-617f457b0927","ios":"levelo://app?vid=1578cdda-fa32-4486-ac62-617f457b0927"},"vehicle_type_id":"4","last_reported":1744510842,"current_range_meters":16000,"station_id":"ce4bhb92rcd13ifvqen0","pricing_plan_id":"cebpf4jnsgd1na2vs0mg"},{"bike_id":"4d874086-2615-45ee-92bb-518b7ad00a4d","system_id":"levelo_inurba_marseille","lat":43.309553,"lon":5.390429,"is_reserved":false,"is_disabled":true,"rental_uris":{"android":"levelo://app?vid=4d874086-2615-45ee-92bb-518b7ad00a4d","ios":"levelo://app?vid=4d874086-2615-45ee-92bb-518b7ad00a4d"},"vehicle_type_id":"4","last_reported":1744510842,"current_range_meters":16000,"station_id":"ce4bgup2rcd13ifvqco0","pricing_plan_id":"cebpf4jnsgd1na2vs0mg"},{"bike_id":"3507dfca-319b-4174-9d98-ddf67a8f0f8e","system_id":"levelo_inurba_marseille","lat":43.29699,"lon":5.36637,"is_reserved":false,"is_disabled":false,"rental_uris":{"android":"levelo://app?vid=3507dfca-319b-4174-9d98-ddf67a8f0f8e","ios":"levelo://app?vid=3507dfca-319b-4174-9d98-ddf67a8f0f8e"},"vehicle_type_id":"4","last_reported":1744510842,"current_range_meters":16000,"station_id":"ce4bgn12rcd13ifvqbt0","pricing_plan_id":"cebpf4jnsgd1na2vs0mg"},{"bike_id":"063db7c9-946a-411d-a19c-5702c3d7f60a","system_id":"levelo_inurba_marseille","lat":43.30585,"lon":5.37213,"is_reserved":false,"is_disabled":false,"rental_uris":{"android":"levelo://app?vid=063db7c9-946a-411d-a19c-5702c3d7f60a","ios":"levelo://app?vid=063db7c9-946a-411d-a19c-5702c3d7f60a"},"vehicle_type_id":"4","last_reported":1744510842,"current_range_meters":16000,"station_id":"ce4bgqh2rcd13ifvqc4g","pricing_plan_id":"cebpf4jnsgd1na2vs0mg"},{"bike_id":"94c5bfb1-356f-45dd-b1e3-92e67beafaf7","system_id":"levelo_inurba_marseille","lat":43.31501,"lon":5.37274,"is_reserved":false,"is_disabled":false,"rental_uris":{"android":"levelo://app?vid=94c5bfb1-356f-45dd-b1e3-92e67beafaf7","ios":"levelo://app?vid=94c5bfb1-356f-45dd-b1e3-92e67beafaf7"},"vehicle_type_id":"4","last_reported":1744510842,"current_range_meters":16000,"station_id":"ce4bgt12rcd13ifvqcd0","pricing_plan_id":"cebpf4jnsgd1na2vs0mg"},{"bike_id":"2625f396-ea8c-4723-9962-19369033d7c8","system_id":"levelo_inurba_marseille","lat":43.32337,"lon":5.40611,"is_reserved":false,"is_disabled":false,"rental_uris":{"android":"levelo://app?vid=2625f396-ea8c-4723-9962-19369033d7c8","ios":"levelo://app?vid=2625f396-ea8c-4723-9962-19369033d7c8"},"vehicle_type_id":"4","last_reported":1744510842,"current_range_meters":16000,"station_id":"ce4bhq92rcd13ifvqhjg","pricing_plan_id":"cebpf4jnsgd1na2vs0mg"},{"bike_id":"55e1c7ed-9dc9-49af-8ff1-f728f4f2e269","system_id":"levelo_inurba_marseille","lat":43.28709,"lon":5.39996,"is_reserved":false,"is_disabled":false,"rental_uris":{"android":"levelo://app?vid=55e1c7ed-9dc9-49af-8ff1-f728f4f2e269","ios":"levelo://app?vid=55e1c7ed-9dc9-49af-8ff1-f728f4f2e269"},"vehicle_type_id":"4","last_reported":1744510842,"current_range_meters":16000,"station_id":"ce4bho92rcd13ifvqh3g","pricing_plan_id":"cebpf4jnsgd1na2vs0mg"},{"bike_id":"239b457a-7da8-49b2-9197-3c47133b2b7d","system_id":"levelo_inurba_marseille","lat":43.29045,"lon":5.39996,"is_reserved":false,"is_disabled":true,"rental_uris":{"android":"levelo://app?vid=239b457a-7da8-49b2-9197-3c47133b2b7d","ios":"levelo://app?vid=239b457a-7da8-49b2-9197-3c47133b2b7d"},"vehicle_type_id":"4","last_reported":1744510842,"current_range_meters":16000,"station_id":"ce4bh392rcd13ifvqdm0","pricing_plan_id":"cebpf4jnsgd1na2vs0mg"},{"bike_id":"d9214e74-30ad-45b9-bf16-f3f0709b1cbf","system_id":"levelo_inurba_marseille","lat":43.23216,"lon":5.35528,"is_reserved":false,"is_disabled":false,"rental_uris":{"android":"levelo://app?vid=d9214e74-30ad-45b9-bf16-f3f0709b1cbf","ios":"levelo://app?vid=d9214e74-30ad-45b9-bf16-f3f0709b1cbf"},"vehicle_type_id":"4","last_reported":1744510842,"current_range_meters":16400,"station_id":"ce4bhu92rcd13ifvqi70","pricing_plan_id":"cebpf4jnsgd1na2vs0mg"},{"bike_id":"488adec0-63eb-4cb4-bbf6-453c35a186fc","system_id":"levelo_inurba_marseille","lat":43.27811,"lon":5.40721,"is_reserved":false,"is_disabled":false,"rental_uris":{"android":"levelo://app?vid=488adec0-63eb-4cb4-bbf6-453c35a186fc","ios":"levelo://app?vid=488adec0-63eb-4cb4-bbf6-453c35a186fc"},"vehicle_type_id":"4","last_reported":1744510842,"current_range_meters":16400,"station_id":"ce4bhnh2rcd13ifvqgtg","pricing_plan_id":"cebpf4jnsgd1na2vs0mg"},{"bike_id":"54f95021-ece3-4c1e-a98d-33e005a5619a","system_id":"levelo_inurba_marseille","lat":43.21182,"lon":5.35097,"is_reserved":false,"is_disabled":false,"rental_uris":{"android":"levelo://app?vid=54f95021-ece3-4c1e-a98d-33e005a5619a","ios":"levelo://app?vid=54f95021-ece3-4c1e-a98d-33e005a5619a"},"vehicle_type_id":"4","last_reported":1744510842,"current_range_meters":16400,"station_id":"st_cvj6sg6p6f1abm77japg","pricing_plan_id":"cebpf4jnsgd1na2vs0mg"},{"bike_id":"6a003e47-a1cc-4c38-b762-6e37af426d05","system_id":"levelo_inurba_marseille","lat":43.32369,"lon":5.36764,"is_reserved":false,"is_disabled":false,"rental_uris":{"android":"levelo://app?vid=6a003e47-a1cc-4c38-b762-6e37af426d05","ios":"levelo://app?vid=6a003e47-a1cc-4c38-b762-6e37af426d05"},"vehicle_type_id":"4","last_reported":1744510842,"current_range_meters":16400,"station_id":"ce4bhsh2rcd13ifvqi2g","pricing_plan_id":"cebpf4jnsgd1na2vs0mg"},{"bike_id":"fbcffd98-9af3-437e-a238-670cf1dcb555","system_id":"levelo_inurba_marseille","lat":43.2895,"lon":5.36629,"is_reserved":false,"is_disabled":true,"rental_uris":{"android":"levelo://app?vid=fbcffd98-9af3-437e-a238-670cf1dcb555","ios":"levelo://app?vid=fbcffd98-9af3-437e-a238-670cf1dcb555"},"vehicle_type_id":"4","last_reported":1744510842,"current_range_meters":16400,"station_id":"ce4bhap2rcd13ifvqek0","pricing_plan_id":"cebpf4jnsgd1na2vs0mg"},{"bike_id":"211eb830-0957-42fb-82e1-b26412a4110a","system_id":"levelo_inurba_marseille","lat":43.30308,"lon":5.36895,"is_reserved":false,"is_disabled":false,"rental_uris":{"android":"levelo://app?vid=211eb830-0957-42fb-82e1-b26412a4110a","ios":"levelo://app?vid=211eb830-0957-42fb-82e1-b26412a4110a"},"vehicle_type_id":"4","last_reported":1744510842,"current_range_meters":16400,"station_id":"ce4bgqh2rcd13ifvqc5g","pricing_plan_id":"cebpf4jnsgd1na2vs0mg"},{"bike_id":"736d31f6-1b30-4e99-8fb9-69503962de26","system_id":"levelo_inurba_marseille","lat":43.29248,"lon":5.40897,"is_reserved":false,"is_disabled":false,"rental_uris":{"android":"levelo://app?vid=736d31f6-1b30-4e99-8fb9-69503962de26","ios":"levelo://app?vid=736d31f6-1b30-4e99-8fb9-69503962de26"},"vehicle_type_id":"4","last_reported":1744510842,"current_range_meters":16400,"station_id":"ce4bh192rcd13ifvqdc0","pricing_plan_id":"cebpf4jnsgd1na2vs0mg"},{"bike_id":"140f79de-1554-4211-87aa-f5b320f89f3b","system_id":"levelo_inurba_marseille","lat":43.30188,"lon":5.36593,"is_reserved":false,"is_disabled":false,"rental_uris":{"android":"levelo://app?vid=140f79de-1554-4211-87aa-f5b320f89f3b","ios":"levelo://app?vid=140f79de-1554-4211-87aa-f5b320f89f3b"},"vehicle_type_id":"4","last_reported":1744510842,"current_range_meters":16400,"station_id":"ce4bgrh2rcd13ifvqc8g","pricing_plan_id":"cebpf4jnsgd1na2vs0mg"},{"bike_id":"cbf1d9ff-dd14-41f2-b689-3d7c6629e681","system_id":"levelo_inurba_marseille","lat":43.315333,"lon":5.380288,"is_reserved":false,"is_disabled":false,"rental_uris":{"android":"levelo://app?vid=cbf1d9ff-dd14-41f2-b689-3d7c6629e681","ios":"levelo://app?vid=cbf1d9ff-dd14-41f2-b689-3d7c6629e681"},"vehicle_type_id":"4","last_reported":1744510842,"current_range_meters":16400,"station_id":"ce4bhsp2rcd13ifvqi50","pricing_plan_id":"cebpf4jnsgd1na2vs0mg"},{"bike_id":"59790fdf-1ea1-455c-92c2-962c077501dc","system_id":"levelo_inurba_marseille","lat":43.241754,"lon":5.397176,"is_reserved":false,"is_disabled":false,"rental_uris":{"android":"levelo://app?vid=59790fdf-1ea1-455c-92c2-962c077501dc","ios":"levelo://app?vid=59790fdf-1ea1-455c-92c2-962c077501dc"},"vehicle_type_id":"4","last_reported":1744510842,"current_range_meters":16800,"station_id":"ce4bhn12rcd13ifvqgpg","pricing_plan_id":"cebpf4jnsgd1na2vs0mg"},{"bike_id":"e5773f43-8f28-4d81-b94d-55ad617eff4c","system_id":"levelo_inurba_marseille","lat":43.29064,"lon":5.40085,"is_reserved":false,"is_disabled":false,"rental_uris":{"android":"levelo://app?vid=e5773f43-8f28-4d81-b94d-55ad617eff4c","ios":"levelo://app?vid=e5773f43-8f28-4d81-b94d-55ad617eff4c"},"vehicle_type_id":"4","last_reported":1744510842,"current_range_meters":16800,"station_id":"","pricing_plan_id":"cebpf4jnsgd1na2vs0mg"},{"bike_id":"fe3ac574-7289-40f7-b570-48ee67778735","system_id":"levelo_inurba_marseille","lat":43.280765,"lon":5.396515,"is_reserved":false,"is_disabled":false,"rental_uris":{"android":"levelo://app?vid=fe3ac574-7289-40f7-b570-48ee67778735","ios":"levelo://app?vid=fe3ac574-7289-40f7-b570-48ee67778735"},"vehicle_type_id":"4","last_reported":1744510842,"current_range_meters":16800,"station_id":"ce4bho12rcd13ifvqh2g","pricing_plan_id":"cebpf4jnsgd1na2vs0mg"},{"bike_id":"a3dabeac-c119-4e34-83cf-5de52a4ce63d","system_id":"levelo_inurba_marseille","lat":43.284627,"lon":5.358925,"is_reserved":false,"is_disabled":false,"rental_uris":{"android":"levelo://app?vid=a3dabeac-c119-4e34-83cf-5de52a4ce63d","ios":"levelo://app?vid=a3dabeac-c119-4e34-83cf-5de52a4ce63d"},"vehicle_type_id":"4","last_reported":1744510842,"current_range_meters":16800,"station_id":"ce4bhah2rcd13ifvqei0","pricing_plan_id":"cebpf4jnsgd1na2vs0mg"},{"bike_id":"fc717318-eb74-48d7-a733-c38b2c4b8364","system_id":"levelo_inurba_marseille","lat":43.26581,"lon":5.39022,"is_reserved":false,"is_disabled":false,"rental_uris":{"android":"levelo://app?vid=fc717318-eb74-48d7-a733-c38b2c4b8364","ios":"levelo://app?vid=fc717318-eb74-48d7-a733-c38b2c4b8364"},"vehicle_type_id":"4","last_reported":1744510842,"current_range_meters":17200,"station_id":"ce4bhe12rcd13ifvqf30","pricing_plan_id":"cebpf4jnsgd1na2vs0mg"},{"bike_id":"148d6d37-7a05-470b-b2d0-5de114ced696","system_id":"levelo_inurba_marseille","lat":43.24805,"lon":5.37464,"is_reserved":false,"is_disabled":false,"rental_uris":{"android":"levelo://app?vid=148d6d37-7a05-470b-b2d0-5de114ced696","ios":"levelo://app?vid=148d6d37-7a05-470b-b2d0-5de114ced696"},"vehicle_type_id":"4","last_reported":1744510842,"current_range_meters":17600,"station_id":"ce4bhgh2rcd13ifvqfb0","pricing_plan_id":"cebpf4jnsgd1na2vs0mg"},{"bike_id":"0c7eb52b-8ab9-4593-807c-6a1feecf6a66","system_id":"levelo_inurba_marseille","lat":43.279867,"lon":5.416549,"is_reserved":false,"is_disabled":false,"rental_uris":{"android":"levelo://app?vid=0c7eb52b-8ab9-4593-807c-6a1feecf6a66","ios":"levelo://app?vid=0c7eb52b-8ab9-4593-807c-6a1feecf6a66"},"vehicle_type_id":"4","last_reported":1744510842,"current_range_meters":17600,"station_id":"ce4bho12rcd13ifvqh1g","pricing_plan_id":"cebpf4jnsgd1na2vs0mg"},{"bike_id":"b9ca070f-c6a1-456b-acd5-a024744885ba","system_id":"levelo_inurba_marseille","lat":43.27913,"lon":5.39584,"is_reserved":false,"is_disabled":false,"rental_uris":{"android":"levelo://app?vid=b9ca070f-c6a1-456b-acd5-a024744885ba","ios":"levelo://app?vid=b9ca070f-c6a1-456b-acd5-a024744885ba"},"vehicle_type_id":"4","last_reported":1744510842,"current_range_meters":17600,"station_id":"ce4bhf92rcd13ifvqf40","pricing_plan_id":"cebpf4jnsgd1na2vs0mg"},{"bike_id":"44119f0a-817a-4bd0-ad60-cdbb70c3fa83","system_id":"levelo_inurba_marseille","lat":43.29683,"lon":5.373,"is_reserved":false,"is_disabled":false,"rental_uris":{"android":"levelo://app?vid=44119f0a-817a-4bd0-ad60-cdbb70c3fa83","ios":"levelo://app?vid=44119f0a-817a-4bd0-ad60-cdbb70c3fa83"},"vehicle_type_id":"4","last_reported":1744510842,"current_range_meters":17600,"station_id":"ce4bgk12rcd13ifvqbj0","pricing_plan_id":"cebpf4jnsgd1na2vs0mg"},{"bike_id":"70adfe44-94a3-4906-8210-6c716d244a4c","system_id":"levelo_inurba_marseille","lat":43.25698,"lon":5.41146,"is_reserved":false,"is_disabled":false,"rental_uris":{"android":"levelo://app?vid=70adfe44-94a3-4906-8210-6c716d244a4c","ios":"levelo://app?vid=70adfe44-94a3-4906-8210-6c716d244a4c"},"vehicle_type_id":"4","last_reported":1744510842,"current_range_meters":18000,"station_id":"ce4bhkp2rcd13ifvqgd0","pricing_plan_id":"cebpf4jnsgd1na2vs0mg"},{"bike_id":"7b9db768-6887-4e08-be2b-a62db35d2a50","system_id":"levelo_inurba_marseille","lat":43.29033,"lon":5.39955,"is_reserved":false,"is_disabled":false,"rental_uris":{"android":"levelo://app?vid=7b9db768-6887-4e08-be2b-a62db35d2a50","ios":"levelo://app?vid=7b9db768-6887-4e08-be2b-a62db35d2a50"},"vehicle_type_id":"4","last_reported":1744510842,"current_range_meters":18000,"station_id":"ce4bh392rcd13ifvqdm0","pricing_plan_id":"cebpf4jnsgd1na2vs0mg"},{"bike_id":"e617923d-5e38-4ab5-9f0a-d006b9dcc88d","system_id":"levelo_inurba_marseille","lat":43.29535,"lon":5.38553,"is_reserved":false,"is_disabled":true,"rental_uris":{"android":"levelo://app?vid=e617923d-5e38-4ab5-9f0a-d006b9dcc88d","ios":"levelo://app?vid=e617923d-5e38-4ab5-9f0a-d006b9dcc88d"},"vehicle_type_id":"4","last_reported":1744510842,"current_range_meters":18000,"station_id":"ce4bgih2rcd13ifvqba0","pricing_plan_id":"cebpf4jnsgd1na2vs0mg"},{"bike_id":"2ef70209-0309-4820-b2af-1cd6abf8da8f","system_id":"levelo_inurba_marseille","lat":43.25815,"lon":5.39445,"is_reserved":false,"is_disabled":false,"rental_uris":{"android":"levelo://app?vid=2ef70209-0309-4820-b2af-1cd6abf8da8f","ios":"levelo://app?vid=2ef70209-0309-4820-b2af-1cd6abf8da8f"},"vehicle_type_id":"4","last_reported":1744510842,"current_range_meters":18000,"station_id":"ce4bhip2rcd13ifvqft0","pricing_plan_id":"cebpf4jnsgd1na2vs0mg"},{"bike_id":"ebfe90c3-9223-4301-8889-57ddac517533","system_id":"levelo_inurba_marseille","lat":43.284541,"lon":5.358944,"is_reserved":false,"is_disabled":false,"rental_uris":{"android":"levelo://app?vid=ebfe90c3-9223-4301-8889-57ddac517533","ios":"levelo://app?vid=ebfe90c3-9223-4301-8889-57ddac517533"},"vehicle_type_id":"4","last_reported":1744510842,"current_range_meters":18000,"station_id":"ce4bhah2rcd13ifvqei0","pricing_plan_id":"cebpf4jnsgd1na2vs0mg"},{"bike_id":"8eaed4ed-e8c2-480f-b49b-7829f95ec9fc","system_id":"levelo_inurba_marseille","lat":43.28707,"lon":5.39976,"is_reserved":false,"is_disabled":false,"rental_uris":{"android":"levelo://app?vid=8eaed4ed-e8c2-480f-b49b-7829f95ec9fc","ios":"levelo://app?vid=8eaed4ed-e8c2-480f-b49b-7829f95ec9fc"},"vehicle_type_id":"4","last_reported":1744510842,"current_range_meters":18000,"station_id":"ce4bho92rcd13ifvqh3g","pricing_plan_id":"cebpf4jnsgd1na2vs0mg"},{"bike_id":"be8df85d-921f-46f1-a125-a21cab32a932","system_id":"levelo_inurba_marseille","lat":43.278369,"lon":5.392115,"is_reserved":false,"is_disabled":false,"rental_uris":{"android":"levelo://app?vid=be8df85d-921f-46f1-a125-a21cab32a932","ios":"levelo://app?vid=be8df85d-921f-46f1-a125-a21cab32a932"},"vehicle_type_id":"4","last_reported":1744510842,"current_range_meters":18800,"station_id":"ce4bgk12rcd13ifvqbi0","pricing_plan_id":"cebpf4jnsgd1na2vs0mg"},{"bike_id":"604b4e29-58a6-4cad-8fac-5599fbdb6f4c","system_id":"levelo_inurba_marseille","lat":43.29905,"lon":5.40388,"is_reserved":false,"is_disabled":false,"rental_uris":{"android":"levelo://app?vid=604b4e29-58a6-4cad-8fac-5599fbdb6f4c","ios":"levelo://app?vid=604b4e29-58a6-4cad-8fac-5599fbdb6f4c"},"vehicle_type_id":"4","last_reported":1744510842,"current_range_meters":18800,"station_id":"","pricing_plan_id":"cebpf4jnsgd1na2vs0mg"},{"bike_id":"a6ecdfb6-884d-4710-af03-e9f966cbe87a","system_id":"levelo_inurba_marseille","lat":43.307922,"lon":5.435286,"is_reserved":false,"is_disabled":false,"rental_uris":{"android":"levelo://app?vid=a6ecdfb6-884d-4710-af03-e9f966cbe87a","ios":"levelo://app?vid=a6ecdfb6-884d-4710-af03-e9f966cbe87a"},"vehicle_type_id":"4","last_reported":1744510842,"current_range_meters":18800,"station_id":"ce4bhph2rcd13ifvqheg","pricing_plan_id":"cebpf4jnsgd1na2vs0mg"},{"bike_id":"2551df23-46eb-4dc9-b328-33c9a95ff7ca","system_id":"levelo_inurba_marseille","lat":43.29189,"lon":5.36045,"is_reserved":false,"is_disabled":true,"rental_uris":{"android":"levelo://app?vid=2551df23-46eb-4dc9-b328-33c9a95ff7ca","ios":"levelo://app?vid=2551df23-46eb-4dc9-b328-33c9a95ff7ca"},"vehicle_type_id":"4","last_reported":1744510842,"current_range_meters":18800,"station_id":"","pricing_plan_id":"cebpf4jnsgd1na2vs0mg"},{"bike_id":"748022b6-aac2-4432-807b-42d64ba6820c","system_id":"levelo_inurba_marseille","lat":43.29559,"lon":5.42278,"is_reserved":false,"is_disabled":false,"rental_uris":{"android":"levelo://app?vid=748022b6-aac2-4432-807b-42d64ba6820c","ios":"levelo://app?vid=748022b6-aac2-4432-807b-42d64ba6820c"},"vehicle_type_id":"4","last_reported":1744510842,"current_range_meters":18800,"station_id":"ce4bhph2rcd13ifvqhdg","pricing_plan_id":"cebpf4jnsgd1na2vs0mg"},{"bike_id":"966c30fe-75ee-428d-bd92-711a06a6720b","system_id":"levelo_inurba_marseille","lat":43.31319,"lon":5.39703,"is_reserved":false,"is_disabled":false,"rental_uris":{"android":"levelo://app?vid=966c30fe-75ee-428d-bd92-711a06a6720b","ios":"levelo://app?vid=966c30fe-75ee-428d-bd92-711a06a6720b"},"vehicle_type_id":"4","last_reported":1744510842,"current_range_meters":19200,"station_id":"ce4bgvp2rcd13ifvqcu0","pricing_plan_id":"cebpf4jnsgd1na2vs0mg"},{"bike_id":"189e3bcd-9cf9-4705-9a33-c185984d71d1","system_id":"levelo_inurba_marseille","lat":43.29688,"lon":5.37288,"is_reserved":false,"is_disabled":false,"rental_uris":{"android":"levelo://app?vid=189e3bcd-9cf9-4705-9a33-c185984d71d1","ios":"levelo://app?vid=189e3bcd-9cf9-4705-9a33-c185984d71d1"},"vehicle_type_id":"4","last_reported":1744510842,"current_range_meters":19200,"station_id":"ce4bgk12rcd13ifvqbj0","pricing_plan_id":"cebpf4jnsgd1na2vs0mg"},{"bike_id":"50f3a6ca-1b32-4e17-a21b-a50e16960e96","system_id":"levelo_inurba_marseille","lat":43.337766,"lon":5.374441,"is_reserved":false,"is_disabled":false,"rental_uris":{"android":"levelo://app?vid=50f3a6ca-1b32-4e17-a21b-a50e16960e96","ios":"levelo://app?vid=50f3a6ca-1b32-4e17-a21b-a50e16960e96"},"vehicle_type_id":"4","last_reported":1744510842,"current_range_meters":19200,"station_id":"","pricing_plan_id":"cebpf4jnsgd1na2vs0mg"},{"bike_id":"4663f328-a137-42fc-a4b3-707f18f263b5","system_id":"levelo_inurba_marseille","lat":43.310716,"lon":5.383478,"is_reserved":false,"is_disabled":false,"rental_uris":{"android":"levelo://app?vid=4663f328-a137-42fc-a4b3-707f18f263b5","ios":"levelo://app?vid=4663f328-a137-42fc-a4b3-707f18f263b5"},"vehicle_type_id":"4","last_reported":1744510842,"current_range_meters":19200,"station_id":"ce4bgv92rcd13ifvqcr0","pricing_plan_id":"cebpf4jnsgd1na2vs0mg"},{"bike_id":"d06291ab-e60c-4ee9-a2f8-f55c784c28fe","system_id":"levelo_inurba_marseille","lat":43.21198,"lon":5.35066,"is_reserved":false,"is_disabled":false,"rental_uris":{"android":"levelo://app?vid=d06291ab-e60c-4ee9-a2f8-f55c784c28fe","ios":"levelo://app?vid=d06291ab-e60c-4ee9-a2f8-f55c784c28fe"},"vehicle_type_id":"4","last_reported":1744510842,"current_range_meters":19200,"station_id":"","pricing_plan_id":"cebpf4jnsgd1na2vs0mg"},{"bike_id":"935a7e55-4cea-4394-8ed2-15f7e1ee706c","system_id":"levelo_inurba_marseille","lat":43.27215,"lon":5.43135,"is_reserved":false,"is_disabled":false,"rental_uris":{"android":"levelo://app?vid=935a7e55-4cea-4394-8ed2-15f7e1ee706c","ios":"levelo://app?vid=935a7e55-4cea-4394-8ed2-15f7e1ee706c"},"vehicle_type_id":"4","last_reported":1744510842,"current_range_meters":19600,"station_id":"","pricing_plan_id":"cebpf4jnsgd1na2vs0mg"},{"bike_id":"da48e56b-5b98-4592-a2ea-cf5907cac18b","system_id":"levelo_inurba_marseille","lat":43.337652,"lon":5.374374,"is_reserved":false,"is_disabled":false,"rental_uris":{"android":"levelo://app?vid=da48e56b-5b98-4592-a2ea-cf5907cac18b","ios":"levelo://app?vid=da48e56b-5b98-4592-a2ea-cf5907cac18b"},"vehicle_type_id":"4","last_reported":1744510842,"current_range_meters":19600,"station_id":"","pricing_plan_id":"cebpf4jnsgd1na2vs0mg"},{"bike_id":"29c09acb-5867-4a7b-9a44-5870f89ee4ed","system_id":"levelo_inurba_marseille","lat":43.28071,"lon":5.39649,"is_reserved":false,"is_disabled":false,"rental_uris":{"android":"levelo://app?vid=29c09acb-5867-4a7b-9a44-5870f89ee4ed","ios":"levelo://app?vid=29c09acb-5867-4a7b-9a44-5870f89ee4ed"},"vehicle_type_id":"4","last_reported":1744510842,"current_range_meters":19600,"station_id":"ce4bho12rcd13ifvqh2g","pricing_plan_id":"cebpf4jnsgd1na2vs0mg"},{"bike_id":"e52e6673-d506-4da4-8bcb-b7cdcaf5a9ed","system_id":"levelo_inurba_marseille","lat":43.3112,"lon":5.37769,"is_reserved":false,"is_disabled":false,"rental_uris":{"android":"levelo://app?vid=e52e6673-d506-4da4-8bcb-b7cdcaf5a9ed","ios":"levelo://app?vid=e52e6673-d506-4da4-8bcb-b7cdcaf5a9ed"},"vehicle_type_id":"4","last_reported":1744510842,"current_range_meters":19600,"station_id":"ce4bgt92rcd13ifvqcg0","pricing_plan_id":"cebpf4jnsgd1na2vs0mg"},{"bike_id":"ee3d94e1-9536-48aa-8307-1c3318b457b7","system_id":"levelo_inurba_marseille","lat":43.28476,"lon":5.35862,"is_reserved":false,"is_disabled":false,"rental_uris":{"android":"levelo://app?vid=ee3d94e1-9536-48aa-8307-1c3318b457b7","ios":"levelo://app?vid=ee3d94e1-9536-48aa-8307-1c3318b457b7"},"vehicle_type_id":"4","last_reported":1744510842,"current_range_meters":19600,"station_id":"ce4bhah2rcd13ifvqei0","pricing_plan_id":"cebpf4jnsgd1na2vs0mg"},{"bike_id":"d67b0876-a2c1-44c0-8039-0e3711da0d8b","system_id":"levelo_inurba_marseille","lat":43.31503,"lon":5.37286,"is_reserved":false,"is_disabled":false,"rental_uris":{"android":"levelo://app?vid=d67b0876-a2c1-44c0-8039-0e3711da0d8b","ios":"levelo://app?vid=d67b0876-a2c1-44c0-8039-0e3711da0d8b"},"vehicle_type_id":"4","last_reported":1744510842,"current_range_meters":19600,"station_id":"ce4bgt12rcd13ifvqcd0","pricing_plan_id":"cebpf4jnsgd1na2vs0mg"},{"bike_id":"240e4230-360a-4697-92a8-c58de50431cd","system_id":"levelo_inurba_marseille","lat":43.27904,"lon":5.38004,"is_reserved":false,"is_disabled":false,"rental_uris":{"android":"levelo://app?vid=240e4230-360a-4697-92a8-c58de50431cd","ios":"levelo://app?vid=240e4230-360a-4697-92a8-c58de50431cd"},"vehicle_type_id":"4","last_reported":1744510842,"current_range_meters":19600,"station_id":"ce4bhf92rcd13ifvqf50","pricing_plan_id":"cebpf4jnsgd1na2vs0mg"},{"bike_id":"a5d35a96-0b28-4cf0-bf71-275df1d9821e","system_id":"levelo_inurba_marseille","lat":43.31125,"lon":5.3778,"is_reserved":false,"is_disabled":false,"rental_uris":{"android":"levelo://app?vid=a5d35a96-0b28-4cf0-bf71-275df1d9821e","ios":"levelo://app?vid=a5d35a96-0b28-4cf0-bf71-275df1d9821e"},"vehicle_type_id":"4","last_reported":1744510842,"current_range_meters":20000,"station_id":"ce4bgt92rcd13ifvqcg0","pricing_plan_id":"cebpf4jnsgd1na2vs0mg"},{"bike_id":"df1ca36d-cf16-47e8-a27e-c95cbac9def4","system_id":"levelo_inurba_marseille","lat":43.2794,"lon":5.41049,"is_reserved":false,"is_disabled":false,"rental_uris":{"android":"levelo://app?vid=df1ca36d-cf16-47e8-a27e-c95cbac9def4","ios":"levelo://app?vid=df1ca36d-cf16-47e8-a27e-c95cbac9def4"},"vehicle_type_id":"4","last_reported":1744510842,"current_range_meters":20400,"station_id":"ce4bhnp2rcd13ifvqh0g","pricing_plan_id":"cebpf4jnsgd1na2vs0mg"},{"bike_id":"a81f4d84-a26c-4be0-b0a2-9a9be1c237e8","system_id":"levelo_inurba_marseille","lat":43.26821,"lon":5.40227,"is_reserved":false,"is_disabled":false,"rental_uris":{"android":"levelo://app?vid=a81f4d84-a26c-4be0-b0a2-9a9be1c237e8","ios":"levelo://app?vid=a81f4d84-a26c-4be0-b0a2-9a9be1c237e8"},"vehicle_type_id":"4","last_reported":1744510842,"current_range_meters":20400,"station_id":"ce501612rcd8frsf0b60","pricing_plan_id":"cebpf4jnsgd1na2vs0mg"},{"bike_id":"ca623de3-ff64-4864-b46a-3e7ffb5e240c","system_id":"levelo_inurba_marseille","lat":43.30269,"lon":5.3997,"is_reserved":false,"is_disabled":false,"rental_uris":{"android":"levelo://app?vid=ca623de3-ff64-4864-b46a-3e7ffb5e240c","ios":"levelo://app?vid=ca623de3-ff64-4864-b46a-3e7ffb5e240c"},"vehicle_type_id":"4","last_reported":1744510842,"current_range_meters":20400,"station_id":"","pricing_plan_id":"cebpf4jnsgd1na2vs0mg"},{"bike_id":"dcf2e6eb-e1a3-4d3b-a328-da18198548da","system_id":"levelo_inurba_marseille","lat":43.29543,"lon":5.42278,"is_reserved":false,"is_disabled":false,"rental_uris":{"android":"levelo://app?vid=dcf2e6eb-e1a3-4d3b-a328-da18198548da","ios":"levelo://app?vid=dcf2e6eb-e1a3-4d3b-a328-da18198548da"},