{"last_updated":1732961358,"ttl":60,"version":"2.2","data":{"bikes":[{"bike_id":"c154376e-81a4-4c09-89dd-3a6cf12029e1","system_id":"levelo_inurba_marseille","lat":43.23055,"lon":5.35487,"is_reserved":false,"is_disabled":false,"rental_uris":{"android":"levelo://app?vid=c154376e-81a4-4c09-89dd-3a6cf12029e1","ios":"levelo://app?vid=c154376e-81a4-4c09-89dd-3a6cf12029e1"},"vehicle_type_id":"4","last_reported":1732961358,"current_range_meters":8400,"station_id":"cpo3342slgdg3j2ifvpg","pricing_plan_id":"cebpf4jnsgd1na2vs0mg"},{"bike_id":"9f2b76e3-2e9c-4cae-a4f8-b596ecc76bf1","system_id":"levelo_inurba_marseille","lat":43.33772,"lon":5.37435,"is_reserved":false,"is_disabled":false,"rental_uris":{"android":"levelo://app?vid=9f2b76e3-2e9c-4cae-a4f8-b596ecc76bf1","ios":"levelo://app?vid=9f2b76e3-2e9c-4cae-a4f8-b596ecc76bf1"},"vehicle_type_id":"4","last_reported":1732961358,"current_range_meters":38400,"station_id":"","pricing_plan_id":"cebpf4jnsgd1na2vs0mg"},{"bike_id":"3c17bb07-c98e-4df1-b78f-db1ad70a0c5b","system_id":"levelo_inurba_marseille","lat":43.29511,"lon":5.39038,"is_reserved":false,"is_disabled":false,"rental_uris":{"android":"levelo://app?vid=3c17bb07-c98e-4df1-b78f-db1ad70a0c5b","ios":"levelo://app?vid=3c17bb07-c98e-4df1-b78f-db1ad70a0c5b"},"vehicle_type_id":"4","last_reported":1732961358,"current_range_meters":32800,"station_id":"ce4bh3p2rcd13ifvqdp0","pricing_plan_id":"cebpf4jnsgd1na2vs0mg"},{"bike_id":"b1496c83-0900-460c-9518-d52be659f595","system_id":"levelo_inurba_marseille","lat":43.25862,"lon":5.39902,"is_reserved":false,"is_disabled":false,"rental_uris":{"android":"levelo://app?vid=b1496c83-0900-460c-9518-d52be659f595","ios":"levelo://app?vid=b1496c83-0900-460c-9518-d52be659f595"},"vehicle_type_id":"4","last_reported":1732961358,"current_range_meters":38800,"station_id":"ce4bhl92rcd13ifvqghg","pricing_plan_id":"cebpf4jnsgd1na2vs0mg"},{"bike_id":"b856c8b4-412d-4c25-bdd4-e6b29aed04cb","system_id":"levelo_inurba_marseille","lat":43.22933,"lon":5.35379,"is_reserved":false,"is_disabled":false,"rental_uris":{"android":"levelo://app?vid=b856c8b4-412d-4c25-bdd4-e6b29aed04cb","ios":"levelo://app?vid=b856c8b4-412d-4c25-bdd4-e6b29aed04cb"},"vehicle_type_id":"4","last_reported":1732961358,"current_range_meters":38800,"station_id":"cpo3532slgdg3j2ikp40","pricing_plan_id":"cebpf4jnsgd1na2vs0mg"},{"bike_id":"c442f4fc-8e79-4086-b101-ba6e0d1d3276","system_id":"levelo_inurba_marseille","lat":43.3019,"lon":5.36595,"is_reserved":false,"is_disabled":false,"rental_uris":{"android":"levelo://app?vid=c442f4fc-8e79-4086-b101-ba6e0d1d3276","ios":"levelo://app?vid=c442f4fc-8e79-4086-b101-ba6e0d1d3276"},"vehicle_type_id":"4","last_reported":1732961358,"current_range_meters":38000,"station_id":"ce4bgrh2rcd13ifvqc8g","pricing_plan_id":"cebpf4jnsgd1na2vs0mg"},{"bike_id":"3b0e05b2-1e98-491d-b2e1-ddc66cfd8a1a","system_id":"levelo_inurba_marseille","lat":43.30064,"lon":5.38671,"is_reserved":false,"is_disabled":false,"rental_uris":{"android":"levelo://app?vid=3b0e05b2-1e98-491d-b2e1-ddc66cfd8a1a","ios":"levelo://app?vid=3b0e05b2-1e98-491d-b2e1-ddc66cfd8a1a"},"vehicle_type_id":"4","last_reported":1732961358,"current_range_meters":38800,"station_id":"","pricing_plan_id":"cebpf4jnsgd1na2vs0mg"},{"bike_id":"7ab5ca07-c9c4-44c3-b1bf-a9fe940ac72c","system_id":"levelo_inurba_marseille","lat":43.23054,"lon":5.35486,"is_reserved":false,"is_disabled":false,"rental_uris":{"android":"levelo://app?vid=7ab5ca07-c9c4-44c3-b1bf-a9fe940ac72c","ios":"levelo://app?vid=7ab5ca07-c9c4-44c3-b1bf-a9fe940ac72c"},"vehicle_type_id":"4","last_reported":1732961358,"current_range_meters":18000,"station_id":"cpo3342slgdg3j2ifvpg","pricing_plan_id":"cebpf4jnsgd1na2vs0mg"},{"bike_id":"84ccddc4-6681-44c8-bacd-154da9b78895","system_id":"levelo_inurba_marseille","lat":43.31716,"lon":5.42406,"is_reserved":false,"is_disabled":false,"rental_uris":{"android":"levelo://app?vid=84ccddc4-6681-44c8-bacd-154da9b78895","ios":"levelo://app?vid=84ccddc4-6681-44c8-bacd-154da9b78895"},"vehicle_type_id":"4","last_reported":1732961358,"current_range_meters":25200,"station_id":"ce4bhp92rcd13ifvqhbg","pricing_plan_id":"cebpf4jnsgd1na2vs0mg"},{"bike_id":"bbbafdc7-8b3c-44c3-b9f5-49223da6ae14","system_id":"levelo_inurba_marseille","lat":43.29603,"lon":5.38105,"is_reserved":false,"is_disabled":false,"rental_uris":{"android":"levelo://app?vid=bbbafdc7-8b3c-44c3-b9f5-49223da6ae14","ios":"levelo://app?vid=bbbafdc7-8b3c-44c3-b9f5-49223da6ae14"},"vehicle_type_id":"4","last_reported":1732961358,"current_range_meters":24400,"station_id":"ce4bgl12rcd13ifvqbo0","pricing_plan_id":"cebpf4jnsgd1na2vs0mg"},{"bike_id":"b08651e1-8cc8-49b1-b2c7-daf1e5949271","system_id":"levelo_inurba_marseille","lat":43.29801,"lon":5.38095,"is_reserved":false,"is_disabled":false,"rental_uris":{"android":"levelo://app?vid=b08651e1-8cc8-49b1-b2c7-daf1e5949271","ios":"levelo://app?vid=b08651e1-8cc8-49b1-b2c7-daf1e5949271"},"vehicle_type_id":"4","last_reported":1732961358,"current_range_meters":25200,"station_id":"ce4bgip2rcd13ifvqbb0","pricing_plan_id":"cebpf4jnsgd1na2vs0mg"},{"bike_id":"f258c67c-92c7-48cf-84a0-78973956f5b7","system_id":"levelo_inurba_marseille","lat":43.317,"lon":5.37758,"is_reserved":false,"is_disabled":false,"rental_uris":{"android":"levelo://app?vid=f258c67c-92c7-48cf-84a0-78973956f5b7","ios":"levelo://app?vid=f258c67c-92c7-48cf-84a0-78973956f5b7"},"vehicle_type_id":"4","last_reported":1732961358,"current_range_meters":38000,"station_id":"ce4bgth2rcd13ifvqch0","pricing_plan_id":"cebpf4jnsgd1na2vs0mg"},{"bike_id":"5816ba50-c004-4229-8794-b98e6e5eff29","system_id":"levelo_inurba_marseille","lat":43.29815,"lon":5.3809,"is_reserved":false,"is_disabled":false,"rental_uris":{"android":"levelo://app?vid=5816ba50-c004-4229-8794-b98e6e5eff29","ios":"levelo://app?vid=5816ba50-c004-4229-8794-b98e6e5eff29"},"vehicle_type_id":"4","last_reported":1732961358,"current_range_meters":18000,"station_id":"ce4bgip2rcd13ifvqbb0","pricing_plan_id":"cebpf4jnsgd1na2vs0mg"},{"bike_id":"a08e42f0-8535-4312-88e1-93568c121003","system_id":"levelo_inurba_marseille","lat":43.26197,"lon":5.3793,"is_reserved":false,"is_disabled":false,"rental_uris":{"android":"levelo://app?vid=a08e42f0-8535-4312-88e1-93568c121003","ios":"levelo://app?vid=a08e42f0-8535-4312-88e1-93568c121003"},"vehicle_type_id":"4","last_reported":1732961358,"current_range_meters":20400,"station_id":"ce4bhjp2rcd13ifvqg90","pricing_plan_id":"cebpf4jnsgd1na2vs0mg"},{"bike_id":"7974306f-50f1-4979-96e6-42a3a669c81a","system_id":"levelo_inurba_marseille","lat":43.32011,"lon":5.38158,"is_reserved":false,"is_disabled":false,"rental_uris":{"android":"levelo://app?vid=7974306f-50f1-4979-96e6-42a3a669c81a","ios":"levelo://app?vid=7974306f-50f1-4979-96e6-42a3a669c81a"},"vehicle_type_id":"4","last_reported":1732961358,"current_range_meters":10800,"station_id":"ce4bhr12rcd13ifvqhpg","pricing_plan_id":"cebpf4jnsgd1na2vs0mg"},{"bike_id":"29c8520d-68c7-438d-a8e0-e82d09bd1945","system_id":"levelo_inurba_marseille","lat":43.28636,"lon":5.37723,"is_reserved":false,"is_disabled":false,"rental_uris":{"android":"levelo://app?vid=29c8520d-68c7-438d-a8e0-e82d09bd1945","ios":"levelo://app?vid=29c8520d-68c7-438d-a8e0-e82d09bd1945"},"vehicle_type_id":"4","last_reported":1732961358,"current_range_meters":36800,"station_id":"ce4bha12rcd13ifvqef0","pricing_plan_id":"cebpf4jnsgd1na2vs0mg"},{"bike_id":"0f6348bd-4215-4b08-82fe-4e3862684d32","system_id":"levelo_inurba_marseille","lat":43.2603,"lon":5.37543,"is_reserved":false,"is_disabled":false,"rental_uris":{"android":"levelo://app?vid=0f6348bd-4215-4b08-82fe-4e3862684d32","ios":"levelo://app?vid=0f6348bd-4215-4b08-82fe-4e3862684d32"},"vehicle_type_id":"4","last_reported":1732961358,"current_range_meters":33200,"station_id":"ce4bhgh2rcd13ifvqfa0","pricing_plan_id":"cebpf4jnsgd1na2vs0mg"},{"bike_id":"7e6bd422-e93f-4c13-8d01-72a1032e883e","system_id":"levelo_inurba_marseille","lat":43.26212,"lon":5.37437,"is_reserved":false,"is_disabled":false,"rental_uris":{"android":"levelo://app?vid=7e6bd422-e93f-4c13-8d01-72a1032e883e","ios":"levelo://app?vid=7e6bd422-e93f-4c13-8d01-72a1032e883e"},"vehicle_type_id":"4","last_reported":1732961358,"current_range_meters":9600,"station_id":"ce4bhgp2rcd13ifvqfc0","pricing_plan_id":"cebpf4jnsgd1na2vs0mg"},{"bike_id":"0cd7568c-61c9-4738-9f22-7dd8dcddb2a6","system_id":"levelo_inurba_marseille","lat":43.29606,"lon":5.37721,"is_reserved":false,"is_disabled":false,"rental_uris":{"android":"levelo://app?vid=0cd7568c-61c9-4738-9f22-7dd8dcddb2a6","ios":"levelo://app?vid=0cd7568c-61c9-4738-9f22-7dd8dcddb2a6"},"vehicle_type_id":"4","last_reported":1732961358,"current_range_meters":36800,"station_id":"ce4bgi92rcd13ifvqb90","pricing_plan_id":"cebpf4jnsgd1na2vs0mg"},{"bike_id":"4da15633-a66a-473a-bc54-06fe8f87dea7","system_id":"levelo_inurba_marseille","lat":43.29383,"lon":5.37811,"is_reserved":false,"is_disabled":false,"rental_uris":{"android":"levelo://app?vid=4da15633-a66a-473a-bc54-06fe8f87dea7","ios":"levelo://app?vid=4da15633-a66a-473a-bc54-06fe8f87dea7"},"vehicle_type_id":"4","last_reported":1732961358,"current_range_meters":38800,"station_id":"ce4bgjh2rcd13ifvqbf0","pricing_plan_id":"cebpf4jnsgd1na2vs0mg"},{"bike_id":"dd764c4f-e5a4-49d0-a29b-266bdb920ff5","system_id":"levelo_inurba_marseille","lat":43.24545,"lon":5.39519,"is_reserved":false,"is_disabled":false,"rental_uris":{"android":"levelo://app?vid=dd764c4f-e5a4-49d0-a29b-266bdb920ff5","ios":"levelo://app?vid=dd764c4f-e5a4-49d0-a29b-266bdb920ff5"},"vehicle_type_id":"4","last_reported":1732961358,"current_range_meters":20400,"station_id":"ce4bhlp2rcd13ifvqgjg","pricing_plan_id":"cebpf4jnsgd1na2vs0mg"},{"bike_id":"d77c8fa8-9230-4eda-bc9a-5b066cfdd6cc","system_id":"levelo_inurba_marseille","lat":43.25721,"lon":5.41116,"is_reserved":false,"is_disabled":false,"rental_uris":{"android":"levelo://app?vid=d77c8fa8-9230-4eda-bc9a-5b066cfdd6cc","ios":"levelo://app?vid=d77c8fa8-9230-4eda-bc9a-5b066cfdd6cc"},"vehicle_type_id":"4","last_reported":1732961358,"current_range_meters":22400,"station_id":"ce4bhkp2rcd13ifvqgd0","pricing_plan_id":"cebpf4jnsgd1na2vs0mg"},{"bike_id":"132c1aa2-f6cc-4cde-9bda-2bd4f12da939","system_id":"levelo_inurba_marseille","lat":43.31595,"lon":5.39985,"is_reserved":false,"is_disabled":false,"rental_uris":{"android":"levelo://app?vid=132c1aa2-f6cc-4cde-9bda-2bd4f12da939","ios":"levelo://app?vid=132c1aa2-f6cc-4cde-9bda-2bd4f12da939"},"vehicle_type_id":"4","last_reported":1732961358,"current_range_meters":31200,"station_id":"ce4bh012rcd13ifvqcv0","pricing_plan_id":"cebpf4jnsgd1na2vs0mg"},{"bike_id":"0be51fe1-cf5c-48a2-a51d-9a5b3362f119","system_id":"levelo_inurba_marseille","lat":43.28401,"lon":5.37515,"is_reserved":false,"is_disabled":false,"rental_uris":{"android":"levelo://app?vid=0be51fe1-cf5c-48a2-a51d-9a5b3362f119","ios":"levelo://app?vid=0be51fe1-cf5c-48a2-a51d-9a5b3362f119"},"vehicle_type_id":"4","last_reported":1732961358,"current_range_meters":22800,"station_id":"ce4bh412rcd13ifvqds0","pricing_plan_id":"cebpf4jnsgd1na2vs0mg"},{"bike_id":"44f16cf6-56ca-494a-9d11-2e0807e1d80c","system_id":"levelo_inurba_marseille","lat":43.25502,"lon":5.37647,"is_reserved":false,"is_disabled":false,"rental_uris":{"android":"levelo://app?vid=44f16cf6-56ca-494a-9d11-2e0807e1d80c","ios":"levelo://app?vid=44f16cf6-56ca-494a-9d11-2e0807e1d80c"},"vehicle_type_id":"4","last_reported":1732961358,"current_range_meters":34800,"station_id":"ce4bhh12rcd13ifvqff0","pricing_plan_id":"cebpf4jnsgd1na2vs0mg"},{"bike_id":"b0bd4cdf-7308-45f0-8e99-a0d5811907ff","system_id":"levelo_inurba_marseille","lat":43.25434,"lon":5.38157,"is_reserved":false,"is_disabled":true,"rental_uris":{"android":"levelo://app?vid=b0bd4cdf-7308-45f0-8e99-a0d5811907ff","ios":"levelo://app?vid=b0bd4cdf-7308-45f0-8e99-a0d5811907ff"},"vehicle_type_id":"4","last_reported":1732961358,"current_range_meters":0,"station_id":"","pricing_plan_id":"cebpf4jnsgd1na2vs0mg"},{"bike_id":"98dae069-3362-4121-b1f0-b199dccaad7b","system_id":"levelo_inurba_marseille","lat":43.30554,"lon":5.36526,"is_reserved":false,"is_disabled":false,"rental_uris":{"android":"levelo://app?vid=98dae069-3362-4121-b1f0-b199dccaad7b","ios":"levelo://app?vid=98dae069-3362-4121-b1f0-b199dccaad7b"},"vehicle_type_id":"4","last_reported":1732961358,"current_range_meters":30400,"station_id":"ce4bgs12rcd13ifvqcag","pricing_plan_id":"cebpf4jnsgd1na2vs0mg"},{"bike_id":"bce74997-89c9-4fc7-adcc-bc9daecfb634","system_id":"levelo_inurba_marseille","lat":43.3026,"lon":5.37735,"is_reserved":false,"is_disabled":false,"rental_uris":{"android":"levelo://app?vid=bce74997-89c9-4fc7-adcc-bc9daecfb634","ios":"levelo://app?vid=bce74997-89c9-4fc7-adcc-bc9daecfb634"},"vehicle_type_id":"4","last_reported":1732961358,"current_range_meters":25200,"station_id":"ce4bguh2rcd13ifvqcj0","pricing_plan_id":"cebpf4jnsgd1na2vs0mg"},{"bike_id":"3c241112-0e96-425e-8646-c6f08bf02411","system_id":"levelo_inurba_marseille","lat":43.24651,"lon":5.38893,"is_reserved":false,"is_disabled":true,"rental_uris":{"android":"levelo://app?vid=3c241112-0e96-425e-8646-c6f08bf02411","ios":"levelo://app?vid=3c241112-0e96-425e-8646-c6f08bf02411"},"vehicle_type_id":"4","last_reported":1732961358,"current_range_meters":0,"station_id":"ce4bhg12rcd13ifvqf60","pricing_plan_id":"cebpf4jnsgd1na2vs0mg"},{"bike_id":"6f7949e1-de87-4a49-8620-fec27e04447f","system_id":"levelo_inurba_marseille","lat":43.33719,"lon":5.39181,"is_reserved":false,"is_disabled":false,"rental_uris":{"android":"levelo://app?vid=6f7949e1-de87-4a49-8620-fec27e04447f","ios":"levelo://app?vid=6f7949e1-de87-4a49-8620-fec27e04447f"},"vehicle_type_id":"4","last_reported":1732961358,"current_range_meters":28000,"station_id":"ce4bhr92rcd13ifvqhsg","pricing_plan_id":"cebpf4jnsgd1na2vs0mg"},{"bike_id":"dc2a1699-36a8-4f8a-b170-81ded7650789","system_id":"levelo_inurba_marseille","lat":43.23191,"lon":5.35551,"is_reserved":false,"is_disabled":false,"rental_uris":{"android":"levelo://app?vid=dc2a1699-36a8-4f8a-b170-81ded7650789","ios":"levelo://app?vid=dc2a1699-36a8-4f8a-b170-81ded7650789"},"vehicle_type_id":"4","last_reported":1732961358,"current_range_meters":33600,"station_id":"ce4bhu92rcd13ifvqi70","pricing_plan_id":"cebpf4jnsgd1na2vs0mg"},{"bike_id":"7066298c-8444-4dbb-8e5a-afa45f0890f5","system_id":"levelo_inurba_marseille","lat":43.28858,"lon":5.39323,"is_reserved":false,"is_disabled":true,"rental_uris":{"android":"levelo://app?vid=7066298c-8444-4dbb-8e5a-afa45f0890f5","ios":"levelo://app?vid=7066298c-8444-4dbb-8e5a-afa45f0890f5"},"vehicle_type_id":"4","last_reported":1732961358,"current_range_meters":12800,"station_id":"ce4bh2p2rcd13ifvqdi0","pricing_plan_id":"cebpf4jnsgd1na2vs0mg"},{"bike_id":"79da6e11-068f-4f85-891a-bf5d6033ae1b","system_id":"levelo_inurba_marseille","lat":43.29197,"lon":5.39313,"is_reserved":false,"is_disabled":true,"rental_uris":{"android":"levelo://app?vid=79da6e11-068f-4f85-891a-bf5d6033ae1b","ios":"levelo://app?vid=79da6e11-068f-4f85-891a-bf5d6033ae1b"},"vehicle_type_id":"4","last_reported":1732961358,"current_range_meters":24800,"station_id":"ce4bh192rcd13ifvqdd0","pricing_plan_id":"cebpf4jnsgd1na2vs0mg"},{"bike_id":"ea65bc22-100f-4a7b-a38b-f2659223cf3d","system_id":"levelo_inurba_marseille","lat":43.31992,"lon":5.3814,"is_reserved":false,"is_disabled":false,"rental_uris":{"android":"levelo://app?vid=ea65bc22-100f-4a7b-a38b-f2659223cf3d","ios":"levelo://app?vid=ea65bc22-100f-4a7b-a38b-f2659223cf3d"},"vehicle_type_id":"4","last_reported":1732961358,"current_range_meters":8000,"station_id":"ce4bhr12rcd13ifvqhpg","pricing_plan_id":"cebpf4jnsgd1na2vs0mg"},{"bike_id":"c1d7bea1-2d0d-43fb-888d-8bf2dbec3c58","system_id":"levelo_inurba_marseille","lat":43.29798,"lon":5.40413,"is_reserved":false,"is_disabled":false,"rental_uris":{"android":"levelo://app?vid=c1d7bea1-2d0d-43fb-888d-8bf2dbec3c58","ios":"levelo://app?vid=c1d7bea1-2d0d-43fb-888d-8bf2dbec3c58"},"vehicle_type_id":"4","last_reported":1732961358,"current_range_meters":24000,"station_id":"ce4bh112rcd13ifvqd90","pricing_plan_id":"cebpf4jnsgd1na2vs0mg"},{"bike_id":"17c3787c-47ed-47fd-9c64-fc0be19f7592","system_id":"levelo_inurba_marseille","lat":43.30412,"lon":5.41285,"is_reserved":false,"is_disabled":false,"rental_uris":{"android":"levelo://app?vid=17c3787c-47ed-47fd-9c64-fc0be19f7592","ios":"levelo://app?vid=17c3787c-47ed-47fd-9c64-fc0be19f7592"},"vehicle_type_id":"4","last_reported":1732961358,"current_range_meters":38800,"station_id":"ce4bhop2rcd13ifvqh8g","pricing_plan_id":"cebpf4jnsgd1na2vs0mg"},{"bike_id":"f26bfa4f-1b03-4d40-bd8a-9396393c620d","system_id":"levelo_inurba_marseille","lat":43.25578,"lon":5.38231,"is_reserved":false,"is_disabled":false,"rental_uris":{"android":"levelo://app?vid=f26bfa4f-1b03-4d40-bd8a-9396393c620d","ios":"levelo://app?vid=f26bfa4f-1b03-4d40-bd8a-9396393c620d"},"vehicle_type_id":"4","last_reported":1732961358,"current_range_meters":34800,"station_id":"ce4bhih2rcd13ifvqfs0","pricing_plan_id":"cebpf4jnsgd1na2vs0mg"},{"bike_id":"7b402a7c-a426-4e36-aef1-fae9635f5211","system_id":"levelo_inurba_marseille","lat":43.30535,"lon":5.36542,"is_reserved":false,"is_disabled":false,"rental_uris":{"android":"levelo://app?vid=7b402a7c-a426-4e36-aef1-fae9635f5211","ios":"levelo://app?vid=7b402a7c-a426-4e36-aef1-fae9635f5211"},"vehicle_type_id":"4","last_reported":1732961358,"current_range_meters":30400,"station_id":"ce4bgs12rcd13ifvqcag","pricing_plan_id":"cebpf4jnsgd1na2vs0mg"},{"bike_id":"0c771d4a-5eb8-4a17-9dd8-0117923e294f","system_id":"levelo_inurba_marseille","lat":43.30466,"lon":5.37899,"is_reserved":false,"is_disabled":false,"rental_uris":{"android":"levelo://app?vid=0c771d4a-5eb8-4a17-9dd8-0117923e294f","ios":"levelo://app?vid=0c771d4a-5eb8-4a17-9dd8-0117923e294f"},"vehicle_type_id":"4","last_reported":1732961358,"current_range_meters":22000,"station_id":"ce4bgup2rcd13ifvqcn0","pricing_plan_id":"cebpf4jnsgd1na2vs0mg"},{"bike_id":"528d65f6-3249-49b9-a40a-d6c9edff81cd","system_id":"levelo_inurba_marseille","lat":43.29784,"lon":5.38108,"is_reserved":false,"is_disabled":true,"rental_uris":{"android":"levelo://app?vid=528d65f6-3249-49b9-a40a-d6c9edff81cd","ios":"levelo://app?vid=528d65f6-3249-49b9-a40a-d6c9edff81cd"},"vehicle_type_id":"4","last_reported":1732961358,"current_range_meters":22000,"station_id":"ce4bgip2rcd13ifvqbb0","pricing_plan_id":"cebpf4jnsgd1na2vs0mg"},{"bike_id":"aee4ea0e-4dfc-4f58-895d-8069b2c2cf14","system_id":"levelo_inurba_marseille","lat":43.28983,"lon":5.35586,"is_reserved":false,"is_disabled":false,"rental_uris":{"android":"levelo://app?vid=aee4ea0e-4dfc-4f58-895d-8069b2c2cf14","ios":"levelo://app?vid=aee4ea0e-4dfc-4f58-895d-8069b2c2cf14"},"vehicle_type_id":"4","last_reported":1732961358,"current_range_meters":38800,"station_id":"ce4bhb92rcd13ifvqen0","pricing_plan_id":"cebpf4jnsgd1na2vs0mg"},{"bike_id":"98037c3a-9b2c-4fc3-b5c9-984ee3607601","system_id":"levelo_inurba_marseille","lat":43.32354,"lon":5.36743,"is_reserved":false,"is_disabled":false,"rental_uris":{"android":"levelo://app?vid=98037c3a-9b2c-4fc3-b5c9-984ee3607601","ios":"levelo://app?vid=98037c3a-9b2c-4fc3-b5c9-984ee3607601"},"vehicle_type_id":"4","last_reported":1732961358,"current_range_meters":8000,"station_id":"ce4bhsh2rcd13ifvqi2g","pricing_plan_id":"cebpf4jnsgd1na2vs0mg"},{"bike_id":"22377caf-d158-4e4b-a4e2-8a6d879a1fe7","system_id":"levelo_inurba_marseille","lat":43.29572,"lon":5.37497,"is_reserved":false,"is_disabled":false,"rental_uris":{"android":"levelo://app?vid=22377caf-d158-4e4b-a4e2-8a6d879a1fe7","ios":"levelo://app?vid=22377caf-d158-4e4b-a4e2-8a6d879a1fe7"},"vehicle_type_id":"4","last_reported":1732961358,"current_range_meters":38800,"station_id":"ce4bgh92rcd13ifvqb50","pricing_plan_id":"cebpf4jnsgd1na2vs0mg"},{"bike_id":"e794bdf2-749c-46c2-84eb-2fe71b6ec7fb","system_id":"levelo_inurba_marseille","lat":43.29803,"lon":5.38083,"is_reserved":false,"is_disabled":false,"rental_uris":{"android":"levelo://app?vid=e794bdf2-749c-46c2-84eb-2fe71b6ec7fb","ios":"levelo://app?vid=e794bdf2-749c-46c2-84eb-2fe71b6ec7fb"},"vehicle_type_id":"4","last_reported":1732961358,"current_range_meters":36000,"station_id":"ce4bgip2rcd13ifvqbb0","pricing_plan_id":"cebpf4jnsgd1na2vs0mg"},{"bike_id":"d1486dd5-23d4-40bc-bb61-4a3c8126196a","system_id":"levelo_inurba_marseille","lat":43.27372,"lon":5.36259,"is_reserved":false,"is_disabled":false,"rental_uris":{"android":"levelo://app?vid=d1486dd5-23d4-40bc-bb61-4a3c8126196a","ios":"levelo://app?vid=d1486dd5-23d4-40bc-bb61-4a3c8126196a"},"vehicle_type_id":"4","last_reported":1732961358,"current_range_meters":38000,"station_id":"ce4bhbh2rcd13ifvqeo0","pricing_plan_id":"cebpf4jnsgd1na2vs0mg"},{"bike_id":"8d04f02f-d227-4755-8001-37a91b33121e","system_id":"levelo_inurba_marseille","lat":43.25582,"lon":5.3823,"is_reserved":false,"is_disabled":false,"rental_uris":{"android":"levelo://app?vid=8d04f02f-d227-4755-8001-37a91b33121e","ios":"levelo://app?vid=8d04f02f-d227-4755-8001-37a91b33121e"},"vehicle_type_id":"4","last_reported":1732961358,"current_range_meters":30400,"station_id":"ce4bhih2rcd13ifvqfs0","pricing_plan_id":"cebpf4jnsgd1na2vs0mg"},{"bike_id":"2ca87ec0-cd14-4e5e-a863-f1af80edb647","system_id":"levelo_inurba_marseille","lat":43.291944,"lon":5.358095,"is_reserved":false,"is_disabled":false,"rental_uris":{"android":"levelo://app?vid=2ca87ec0-cd14-4e5e-a863-f1af80edb647","ios":"levelo://app?vid=2ca87ec0-cd14-4e5e-a863-f1af80edb647"},"vehicle_type_id":"4","last_reported":1732961358,"current_range_meters":19600,"station_id":"ce4bhb12rcd13ifvqel0","pricing_plan_id":"cebpf4jnsgd1na2vs0mg"},{"bike_id":"d350231d-a46d-4666-ba51-f12c2e69a01c","system_id":"levelo_inurba_marseille","lat":43.25718,"lon":5.41113,"is_reserved":false,"is_disabled":false,"rental_uris":{"android":"levelo://app?vid=d350231d-a46d-4666-ba51-f12c2e69a01c","ios":"levelo://app?vid=d350231d-a46d-4666-ba51-f12c2e69a01c"},"vehicle_type_id":"4","last_reported":1732961358,"current_range_meters":39200,"station_id":"ce4bhkp2rcd13ifvqgd0","pricing_plan_id":"cebpf4jnsgd1na2vs0mg"},{"bike_id":"2a8bdea9-bd5b-4301-a3ed-d94aeeecf5fc","system_id":"levelo_inurba_marseille","lat":43.29556,"lon":5.42289,"is_reserved":false,"is_disabled":false,"rental_uris":{"android":"levelo://app?vid=2a8bdea9-bd5b-4301-a3ed-d94aeeecf5fc","ios":"levelo://app?vid=2a8bdea9-bd5b-4301-a3ed-d94aeeecf5fc"},"vehicle_type_id":"4","last_reported":1732961358,"current_range_meters":2800,"station_id":"ce4bhph2rcd13ifvqhdg","pricing_plan_id":"cebpf4jnsgd1na2vs0mg"},{"bike_id":"9d22430f-206f-4dac-a138-8e0c20ce2558","system_id":"levelo_inurba_marseille","lat":43.2549,"lon":5.37647,"is_reserved":false,"is_disabled":false,"rental_uris":{"android":"levelo://app?vid=9d22430f-206f-4dac-a138-8e0c20ce2558","ios":"levelo://app?vid=9d22430f-206f-4dac-a138-8e0c20ce2558"},"vehicle_type_id":"4","last_reported":1732961358,"current_range_meters":34000,"station_id":"ce4bhh12rcd13ifvqff0","pricing_plan_id":"cebpf4jnsgd1na2vs0mg"},{"bike_id":"cd3a296e-d858-45de-b7ea-27c97fb92c3e","system_id":"levelo_inurba_marseille","lat":43.29273,"lon":5.36851,"is_reserved":false,"is_disabled":false,"rental_uris":{"android":"levelo://app?vid=cd3a296e-d858-45de-b7ea-27c97fb92c3e","ios":"levelo://app?vid=cd3a296e-d858-45de-b7ea-27c97fb92c3e"},"vehicle_type_id":"4","last_reported":1732961358,"current_range_meters":27600,"station_id":"ce4bhbp2rcd13ifvqesg","pricing_plan_id":"cebpf4jnsgd1na2vs0mg"},{"bike_id":"8938b680-b8f0-439b-aa76-77079135e43c","system_id":"levelo_inurba_marseille","lat":43.31538,"lon":5.38012,"is_reserved":false,"is_disabled":false,"rental_uris":{"android":"levelo://app?vid=8938b680-b8f0-439b-aa76-77079135e43c","ios":"levelo://app?vid=8938b680-b8f0-439b-aa76-77079135e43c"},"vehicle_type_id":"4","last_reported":1732961358,"current_range_meters":32000,"station_id":"ce4bhsp2rcd13ifvqi50","pricing_plan_id":"cebpf4jnsgd1na2vs0mg"},{"bike_id":"ab48ff1d-73d7-44c7-9ef3-0adeaaf25f01","system_id":"levelo_inurba_marseille","lat":43.26936,"lon":5.38924,"is_reserved":false,"is_disabled":false,"rental_uris":{"android":"levelo://app?vid=ab48ff1d-73d7-44c7-9ef3-0adeaaf25f01","ios":"levelo://app?vid=ab48ff1d-73d7-44c7-9ef3-0adeaaf25f01"},"vehicle_type_id":"4","last_reported":1732961358,"current_range_meters":10000,"station_id":"ce4bhhh2rcd13ifvqfl0","pricing_plan_id":"cebpf4jnsgd1na2vs0mg"},{"bike_id":"b2990e50-c96f-464d-8634-bd59a0d64e74","system_id":"levelo_inurba_marseille","lat":43.27073,"lon":5.42274,"is_reserved":false,"is_disabled":false,"rental_uris":{"android":"levelo://app?vid=b2990e50-c96f-464d-8634-bd59a0d64e74","ios":"levelo://app?vid=b2990e50-c96f-464d-8634-bd59a0d64e74"},"vehicle_type_id":"4","last_reported":1732961358,"current_range_meters":24400,"station_id":"ce4bhk92rcd13ifvqgb0","pricing_plan_id":"cebpf4jnsgd1na2vs0mg"},{"bike_id":"e22ba53e-35fd-4022-81b4-35e03ab88d5c","system_id":"levelo_inurba_marseille","lat":43.27938,"lon":5.41044,"is_reserved":false,"is_disabled":false,"rental_uris":{"android":"levelo://app?vid=e22ba53e-35fd-4022-81b4-35e03ab88d5c","ios":"levelo://app?vid=e22ba53e-35fd-4022-81b4-35e03ab88d5c"},"vehicle_type_id":"4","last_reported":1732961358,"current_range_meters":30800,"station_id":"ce4bhnp2rcd13ifvqh0g","pricing_plan_id":"cebpf4jnsgd1na2vs0mg"},{"bike_id":"668e2ee9-a198-4160-90ec-b474472e7019","system_id":"levelo_inurba_marseille","lat":43.3234,"lon":5.40614,"is_reserved":false,"is_disabled":false,"rental_uris":{"android":"levelo://app?vid=668e2ee9-a198-4160-90ec-b474472e7019","ios":"levelo://app?vid=668e2ee9-a198-4160-90ec-b474472e7019"},"vehicle_type_id":"4","last_reported":1732961358,"current_range_meters":27200,"station_id":"ce4bhq92rcd13ifvqhjg","pricing_plan_id":"cebpf4jnsgd1na2vs0mg"},{"bike_id":"94ddd20c-e5b2-4c73-a61a-2ac668abc7d2","system_id":"levelo_inurba_marseille","lat":43.32,"lon":5.38134,"is_reserved":false,"is_disabled":false,"rental_uris":{"android":"levelo://app?vid=94ddd20c-e5b2-4c73-a61a-2ac668abc7d2","ios":"levelo://app?vid=94ddd20c-e5b2-4c73-a61a-2ac668abc7d2"},"vehicle_type_id":"4","last_reported":1732961358,"current_range_meters":40000,"station_id":"ce4bhr12rcd13ifvqhpg","pricing_plan_id":"cebpf4jnsgd1na2vs0mg"},{"bike_id":"f4af2263-f353-47c5-acf3-7839b896ed8e","system_id":"levelo_inurba_marseille","lat":43.29271,"lon":5.36844,"is_reserved":false,"is_disabled":false,"rental_uris":{"android":"levelo://app?vid=f4af2263-f353-47c5-acf3-7839b896ed8e","ios":"levelo://app?vid=f4af2263-f353-47c5-acf3-7839b896ed8e"},"vehicle_type_id":"4","last_reported":1732961358,"current_range_meters":19200,"station_id":"ce4bhbp2rcd13ifvqesg","pricing_plan_id":"cebpf4jnsgd1na2vs0mg"},{"bike_id":"fe2c00d6-fab6-472b-887d-35960cae9038","system_id":"levelo_inurba_marseille","lat":43.25939,"lon":5.409,"is_reserved":false,"is_disabled":false,"rental_uris":{"android":"levelo://app?vid=fe2c00d6-fab6-472b-887d-35960cae9038","ios":"levelo://app?vid=fe2c00d6-fab6-472b-887d-35960cae9038"},"vehicle_type_id":"4","last_reported":1732961358,"current_range_meters":37600,"station_id":"ce4bhm92rcd13ifvqglg","pricing_plan_id":"cebpf4jnsgd1na2vs0mg"},{"bike_id":"b18a568b-3005-4900-a44b-d714c5b55498","system_id":"levelo_inurba_marseille","lat":43.2861,"lon":5.37059,"is_reserved":false,"is_disabled":false,"rental_uris":{"android":"levelo://app?vid=b18a568b-3005-4900-a44b-d714c5b55498","ios":"levelo://app?vid=b18a568b-3005-4900-a44b-d714c5b55498"},"vehicle_type_id":"4","last_reported":1732961358,"current_range_meters":38800,"station_id":"ce4bht12rcd13ifvqi60","pricing_plan_id":"cebpf4jnsgd1na2vs0mg"},{"bike_id":"41caa9ee-86f5-464c-8b22-d4d7c535acc8","system_id":"levelo_inurba_marseille","lat":43.28465,"lon":5.35874,"is_reserved":false,"is_disabled":true,"rental_uris":{"android":"levelo://app?vid=41caa9ee-86f5-464c-8b22-d4d7c535acc8","ios":"levelo://app?vid=41caa9ee-86f5-464c-8b22-d4d7c535acc8"},"vehicle_type_id":"4","last_reported":1732961358,"current_range_meters":6400,"station_id":"ce4bhah2rcd13ifvqei0","pricing_plan_id":"cebpf4jnsgd1na2vs0mg"},{"bike_id":"bc749360-3ce4-4dd6-a0ac-83aa82c323a7","system_id":"levelo_inurba_marseille","lat":43.28151,"lon":5.42636,"is_reserved":false,"is_disabled":true,"rental_uris":{"android":"levelo://app?vid=bc749360-3ce4-4dd6-a0ac-83aa82c323a7","ios":"levelo://app?vid=bc749360-3ce4-4dd6-a0ac-83aa82c323a7"},"vehicle_type_id":"4","last_reported":1732961358,"current_range_meters":36000,"station_id":"ce4bhnh2rcd13ifvqgug","pricing_plan_id":"cebpf4jnsgd1na2vs0mg"},{"bike_id":"a5083c7e-4a01-446d-8f78-53cc7c6d43ce","system_id":"levelo_inurba_marseille","lat":43.2319,"lon":5.35551,"is_reserved":false,"is_disabled":false,"rental_uris":{"android":"levelo://app?vid=a5083c7e-4a01-446d-8f78-53cc7c6d43ce","ios":"levelo://app?vid=a5083c7e-4a01-446d-8f78-53cc7c6d43ce"},"vehicle_type_id":"4","last_reported":1732961358,"current_range_meters":39200,"station_id":"ce4bhu92rcd13ifvqi70","pricing_plan_id":"cebpf4jnsgd1na2vs0mg"},{"bike_id":"4d4c884f-6933-49c0-8899-f9856d90f44d","system_id":"levelo_inurba_marseille","lat":43.29748,"lon":5.37971,"is_reserved":false,"is_disabled":true,"rental_uris":{"android":"levelo://app?vid=4d4c884f-6933-49c0-8899-f9856d90f44d","ios":"levelo://app?vid=4d4c884f-6933-49c0-8899-f9856d90f44d"},"vehicle_type_id":"4","last_reported":1732961358,"current_range_meters":0,"station_id":"","pricing_plan_id":"cebpf4jnsgd1na2vs0mg"},{"bike_id":"1e969821-f4e9-44c3-a1f6-76f097f06ab9","system_id":"levelo_inurba_marseille","lat":43.32034,"lon":5.41566,"is_reserved":false,"is_disabled":false,"rental_uris":{"android":"levelo://app?vid=1e969821-f4e9-44c3-a1f6-76f097f06ab9","ios":"levelo://app?vid=1e969821-f4e9-44c3-a1f6-76f097f06ab9"},"vehicle_type_id":"4","last_reported":1732961358,"current_range_meters":35600,"station_id":"ce4bhq92rcd13ifvqhkg","pricing_plan_id":"cebpf4jnsgd1na2vs0mg"},{"bike_id":"4166630b-c6b0-41c8-9181-bcc3e1031696","system_id":"levelo_inurba_marseille","lat":43.25825,"lon":5.39437,"is_reserved":false,"is_disabled":false,"rental_uris":{"android":"levelo://app?vid=4166630b-c6b0-41c8-9181-bcc3e1031696","ios":"levelo://app?vid=4166630b-c6b0-41c8-9181-bcc3e1031696"},"vehicle_type_id":"4","last_reported":1732961358,"current_range_meters":30400,"station_id":"ce4bhip2rcd13ifvqft0","pricing_plan_id":"cebpf4jnsgd1na2vs0mg"},{"bike_id":"063848d4-5de2-444f-add1-24cb8346f188","system_id":"levelo_inurba_marseille","lat":43.31158,"lon":5.38721,"is_reserved":false,"is_disabled":false,"rental_uris":{"android":"levelo://app?vid=063848d4-5de2-444f-add1-24cb8346f188","ios":"levelo://app?vid=063848d4-5de2-444f-add1-24cb8346f188"},"vehicle_type_id":"4","last_reported":1732961358,"current_range_meters":26800,"station_id":"ce4bgv12rcd13ifvqcp0","pricing_plan_id":"cebpf4jnsgd1na2vs0mg"},{"bike_id":"9009be37-c6b1-406b-b0a8-fbab355f715e","system_id":"levelo_inurba_marseille","lat":43.33763,"lon":5.37495,"is_reserved":false,"is_disabled":false,"rental_uris":{"android":"levelo://app?vid=9009be37-c6b1-406b-b0a8-fbab355f715e","ios":"levelo://app?vid=9009be37-c6b1-406b-b0a8-fbab355f715e"},"vehicle_type_id":"4","last_reported":1732961358,"current_range_meters":36800,"station_id":"","pricing_plan_id":"cebpf4jnsgd1na2vs0mg"},{"bike_id":"3fd3c9e9-2a71-460f-909c-9685f3d1b7d4","system_id":"levelo_inurba_marseille","lat":43.25718,"lon":5.41113,"is_reserved":false,"is_disabled":false,"rental_uris":{"android":"levelo://app?vid=3fd3c9e9-2a71-460f-909c-9685f3d1b7d4","ios":"levelo://app?vid=3fd3c9e9-2a71-460f-909c-9685f3d1b7d4"},"vehicle_type_id":"4","last_reported":1732961358,"current_range_meters":27600,"station_id":"ce4bhkp2rcd13ifvqgd0","pricing_plan_id":"cebpf4jnsgd1na2vs0mg"},{"bike_id":"c81e7d9f-2f5c-4377-8a55-0fc1c7e25641","system_id":"levelo_inurba_marseille","lat":43.31712,"lon":5.4371,"is_reserved":false,"is_disabled":false,"rental_uris":{"android":"levelo://app?vid=c81e7d9f-2f5c-4377-8a55-0fc1c7e25641","ios":"levelo://app?vid=c81e7d9f-2f5c-4377-8a55-0fc1c7e25641"},"vehicle_type_id":"4","last_reported":1732961358,"current_range_meters":39200,"station_id":"ce4bhp92rcd13ifvqhcg","pricing_plan_id":"cebpf4jnsgd1na2vs0mg"},{"bike_id":"dceab1d4-12c0-41da-b4ce-858986625686","system_id":"levelo_inurba_marseille","lat":43.29567,"lon":5.37511,"is_reserved":false,"is_disabled":false,"rental_uris":{"android":"levelo://app?vid=dceab1d4-12c0-41da-b4ce-858986625686","ios":"levelo://app?vid=dceab1d4-12c0-41da-b4ce-858986625686"},"vehicle_type_id":"4","last_reported":1732961358,"current_range_meters":24000,"station_id":"ce4bgh92rcd13ifvqb50","pricing_plan_id":"cebpf4jnsgd1na2vs0mg"},{"bike_id":"e5d13301-b1b5-4f4c-b0b9-0e0ce528717b","system_id":"levelo_inurba_marseille","lat":43.30948,"lon":5.39017,"is_reserved":false,"is_disabled":true,"rental_uris":{"android":"levelo://app?vid=e5d13301-b1b5-4f4c-b0b9-0e0ce528717b","ios":"levelo://app?vid=e5d13301-b1b5-4f4c-b0b9-0e0ce528717b"},"vehicle_type_id":"4","last_reported":1732961358,"current_range_meters":12400,"station_id":"ce4bgup2rcd13ifvqco0","pricing_plan_id":"cebpf4jnsgd1na2vs0mg"},{"bike_id":"be1ea8ae-bb6c-4cc9-9878-4dd6e7c328d6","system_id":"levelo_inurba_marseille","lat":43.32106,"lon":5.36769,"is_reserved":false,"is_disabled":false,"rental_uris":{"android":"levelo://app?vid=be1ea8ae-bb6c-4cc9-9878-4dd6e7c328d6","ios":"levelo://app?vid=be1ea8ae-bb6c-4cc9-9878-4dd6e7c328d6"},"vehicle_type_id":"4","last_reported":1732961358,"current_range_meters":31200,"station_id":"ce4bhrh2rcd13ifvqhug","pricing_plan_id":"cebpf4jnsgd1na2vs0mg"},{"bike_id":"8c9876ea-1b04-44eb-a3de-6d20def82905","system_id":"levelo_inurba_marseille","lat":43.2843,"lon":5.34979,"is_reserved":false,"is_disabled":false,"rental_uris":{"android":"levelo://app?vid=8c9876ea-1b04-44eb-a3de-6d20def82905","ios":"levelo://app?vid=8c9876ea-1b04-44eb-a3de-6d20def82905"},"vehicle_type_id":"4","last_reported":1732961358,"current_range_meters":6400,"station_id":"ce4bhbh2rcd13ifvqepg","pricing_plan_id":"cebpf4jnsgd1na2vs0mg"},{"bike_id":"6368d695-fd99-4188-9776-94b2c2bff0a5","system_id":"levelo_inurba_marseille","lat":43.33021,"lon":5.39032,"is_reserved":false,"is_disabled":false,"rental_uris":{"android":"levelo://app?vid=6368d695-fd99-4188-9776-94b2c2bff0a5","ios":"levelo://app?vid=6368d695-fd99-4188-9776-94b2c2bff0a5"},"vehicle_type_id":"4","last_reported":1732961358,"current_range_meters":35600,"station_id":"ce4bhr92rcd13ifvqhrg","pricing_plan_id":"cebpf4jnsgd1na2vs0mg"},{"bike_id":"a2e389d1-e3df-4f18-a79d-5461697ea3a6","system_id":"levelo_inurba_marseille","lat":43.27995,"lon":5.41657,"is_reserved":false,"is_disabled":false,"rental_uris":{"android":"levelo://app?vid=a2e389d1-e3df-4f18-a79d-5461697ea3a6","ios":"levelo://app?vid=a2e389d1-e3df-4f18-a79d-5461697ea3a6"},"vehicle_type_id":"4","last_reported":1732961358,"current_range_meters":16800,"station_id":"ce4bho12rcd13ifvqh1g","pricing_plan_id":"cebpf4jnsgd1na2vs0mg"},{"bike_id":"40e9d597-4ca0-4114-a094-c82366edb27b","system_id":"levelo_inurba_marseille","lat":43.27321,"lon":5.3907,"is_reserved":false,"is_disabled":false,"rental_uris":{"android":"levelo://app?vid=40e9d597-4ca0-4114-a094-c82366edb27b","ios":"levelo://app?vid=40e9d597-4ca0-4114-a094-c82366edb27b"},"vehicle_type_id":"4","last_reported":1732961358,"current_range_meters":7200,"station_id":"ce4bhgp2rcd13ifvqfe0","pricing_plan_id":"cebpf4jnsgd1na2vs0mg"},{"bike_id":"77be03dd-3d99-4535-adc0-1c7477c4a3a3","system_id":"levelo_inurba_marseille","lat":43.32284,"lon":5.38277,"is_reserved":false,"is_disabled":false,"rental_uris":{"android":"levelo://app?vid=77be03dd-3d99-4535-adc0-1c7477c4a3a3","ios":"levelo://app?vid=77be03dd-3d99-4535-adc0-1c7477c4a3a3"},"vehicle_type_id":"4","last_reported":1732961358,"current_range_meters":39200,"station_id":"ce4bhr12rcd13ifvqhqg","pricing_plan_id":"cebpf4jnsgd1na2vs0mg"},{"bike_id":"f6b50640-c36d-44a0-9164-ed47853deaf6","system_id":"levelo_inurba_marseille","lat":43.29273,"lon":5.36836,"is_reserved":false,"is_disabled":false,"rental_uris":{"android":"levelo://app?vid=f6b50640-c36d-44a0-9164-ed47853deaf6","ios":"levelo://app?vid=f6b50640-c36d-44a0-9164-ed47853deaf6"},"vehicle_type_id":"4","last_reported":1732961358,"current_range_meters":38800,"station_id":"ce4bhbp2rcd13ifvqesg","pricing_plan_id":"cebpf4jnsgd1na2vs0mg"},{"bike_id":"9c420b31-4648-422c-9877-e7febb766217","system_id":"levelo_inurba_marseille","lat":43.28843,"lon":5.39295,"is_reserved":false,"is_disabled":false,"rental_uris":{"android":"levelo://app?vid=9c420b31-4648-422c-9877-e7febb766217","ios":"levelo://app?vid=9c420b31-4648-422c-9877-e7febb766217"},"vehicle_type_id":"4","last_reported":1732961358,"current_range_meters":19200,"station_id":"ce4bh2p2rcd13ifvqdi0","pricing_plan_id":"cebpf4jnsgd1na2vs0mg"},{"bike_id":"f417758e-d5f5-4e46-8e61-41e3114e14c2","system_id":"levelo_inurba_marseille","lat":43.30139,"lon":5.37408,"is_reserved":false,"is_disabled":false,"rental_uris":{"android":"levelo://app?vid=f417758e-d5f5-4e46-8e61-41e3114e14c2","ios":"levelo://app?vid=f417758e-d5f5-4e46-8e61-41e3114e14c2"},"vehicle_type_id":"4","last_reported":1732961358,"current_range_meters":37600,"station_id":"ce4bgs92rcd13ifvqcc0","pricing_plan_id":"cebpf4jnsgd1na2vs0mg"},{"bike_id":"e31773e7-e0c6-4b0e-b77c-483f5b889bc4","system_id":"levelo_inurba_marseille","lat":43.24799,"lon":5.37449,"is_reserved":false,"is_disabled":false,"rental_uris":{"android":"levelo://app?vid=e31773e7-e0c6-4b0e-b77c-483f5b889bc4","ios":"levelo://app?vid=e31773e7-e0c6-4b0e-b77c-483f5b889bc4"},"vehicle_type_id":"4","last_reported":1732961358,"current_range_meters":38800,"station_id":"ce4bhgh2rcd13ifvqfb0","pricing_plan_id":"cebpf4jnsgd1na2vs0mg"},{"bike_id":"ca20ea45-5a00-49af-88ae-1db20fe0c34f","system_id":"levelo_inurba_marseille","lat":43.26933,"lon":5.38931,"is_reserved":false,"is_disabled":false,"rental_uris":{"android":"levelo://app?vid=ca20ea45-5a00-49af-88ae-1db20fe0c34f","ios":"levelo://app?vid=ca20ea45-5a00-49af-88ae-1db20fe0c34f"},"vehicle_type_id":"4","last_reported":1732961358,"current_range_meters":9200,"station_id":"ce4bhhh2rcd13ifvqfl0","pricing_plan_id":"cebpf4jnsgd1na2vs0mg"},{"bike_id":"592cfe81-f1a0-4b7b-8bd8-db138ee53773","system_id":"levelo_inurba_marseille","lat":43.25121,"lon":5.40319,"is_reserved":false,"is_disabled":false,"rental_uris":{"android":"levelo://app?vid=592cfe81-f1a0-4b7b-8bd8-db138ee53773","ios":"levelo://app?vid=592cfe81-f1a0-4b7b-8bd8-db138ee53773"},"vehicle_type_id":"4","last_reported":1732961358,"current_range_meters":22800,"station_id":"ce4bhlh2rcd13ifvqgig","pricing_plan_id":"cebpf4jnsgd1na2vs0mg"},{"bike_id":"e8fa7be1-2407-41a7-b843-e7c70f1917ef","system_id":"levelo_inurba_marseille","lat":43.27611,"lon":5.36109,"is_reserved":false,"is_disabled":true,"rental_uris":{"android":"levelo://app?vid=e8fa7be1-2407-41a7-b843-e7c70f1917ef","ios":"levelo://app?vid=e8fa7be1-2407-41a7-b843-e7c70f1917ef"},"vehicle_type_id":"4","last_reported":1732961358,"current_range_meters":0,"station_id":"ce4bgj92rcd13ifvqbe0","pricing_plan_id":"cebpf4jnsgd1na2vs0mg"},{"bike_id":"9b3538b0-69eb-44ab-af07-7d5a8e6eacc5","system_id":"levelo_inurba_marseille","lat":43.30538,"lon":5.36565,"is_reserved":false,"is_disabled":false,"rental_uris":{"android":"levelo://app?vid=9b3538b0-69eb-44ab-af07-7d5a8e6eacc5","ios":"levelo://app?vid=9b3538b0-69eb-44ab-af07-7d5a8e6eacc5"},"vehicle_type_id":"4","last_reported":1732961358,"current_range_meters":40000,"station_id":"ce4bgs12rcd13ifvqcag","pricing_plan_id":"cebpf4jnsgd1na2vs0mg"},{"bike_id":"df0dfc86-7540-4a0c-8976-9af5497d0a2c","system_id":"levelo_inurba_marseille","lat":43.33769,"lon":5.37423,"is_reserved":false,"is_disabled":false,"rental_uris":{"android":"levelo://app?vid=df0dfc86-7540-4a0c-8976-9af5497d0a2c","ios":"levelo://app?vid=df0dfc86-7540-4a0c-8976-9af5497d0a2c"},"vehicle_type_id":"4","last_reported":1732961358,"current_range_meters":36000,"station_id":"","pricing_plan_id":"cebpf4jnsgd1na2vs0mg"},{"bike_id":"30bfb1eb-efd4-46e2-8642-db6631abd18a","system_id":"levelo_inurba_marseille","lat":43.33765,"lon":5.37429,"is_reserved":false,"is_disabled":false,"rental_uris":{"android":"levelo://app?vid=30bfb1eb-efd4-46e2-8642-db6631abd18a","ios":"levelo://app?vid=30bfb1eb-efd4-46e2-8642-db6631abd18a"},"vehicle_type_id":"4","last_reported":1732961358,"current_range_meters":38800,"station_id":"","pricing_plan_id":"cebpf4jnsgd1na2vs0mg"},{"bike_id":"a81c20da-a7ef-40a9-aa7a-dd0e9ef2a532","system_id":"levelo_inurba_marseille","lat":43.27184,"lon":5.39175,"is_reserved":false,"is_disabled":false,"rental_uris":{"android":"levelo://app?vid=a81c20da-a7ef-40a9-aa7a-dd0e9ef2a532","ios":"levelo://app?vid=a81c20da-a7ef-40a9-aa7a-dd0e9ef2a532"},"vehicle_type_id":"4","last_reported":1732961358,"current_range_meters":35600,"station_id":"ce4bhhp2rcd13ifvqfm0","pricing_plan_id":"cebpf4jnsgd1na2vs0mg"},{"bike_id":"e4d273de-5063-4eee-a2b6-95208d403a93","system_id":"levelo_inurba_marseille","lat":43.29595,"lon":5.38091,"is_reserved":false,"is_disabled":false,"rental_uris":{"android":"levelo://app?vid=e4d273de-5063-4eee-a2b6-95208d403a93","ios":"levelo://app?vid=e4d273de-5063-4eee-a2b6-95208d403a93"},"vehicle_type_id":"4","last_reported":1732961358,"current_range_meters":40000,"station_id":"ce4bgl12rcd13ifvqbo0","pricing_plan_id":"cebpf4jnsgd1na2vs0mg"},{"bike_id":"9700beae-0fbf-4e58-beda-d02b6fed27fe","system_id":"levelo_inurba_marseille","lat":43.337444,"lon":5.374475,"is_reserved":false,"is_disabled":false,"rental_uris":{"android":"levelo://app?vid=9700beae-0fbf-4e58-beda-d02b6fed27fe","ios":"levelo://app?vid=9700beae-0fbf-4e58-beda-d02b6fed27fe"},"vehicle_type_id":"4","last_reported":1732961358,"current_range_meters":38800,"station_id":"","pricing_plan_id":"cebpf4jnsgd1na2vs0mg"},{"bike_id":"b64c6095-9d78-4b69-b855-374d2a38d0a7","system_id":"levelo_inurba_marseille","lat":43.27614,"lon":5.36118,"is_reserved":false,"is_disabled":false,"rental_uris":{"android":"levelo://app?vid=b64c6095-9d78-4b69-b855-374d2a38d0a7","ios":"levelo://app?vid=b64c6095-9d78-4b69-b855-374d2a38d0a7"},"vehicle_type_id":"4","last_reported":1732961358,"current_range_meters":40000,"station_id":"ce4bgj92rcd13ifvqbe0","pricing_plan_id":"cebpf4jnsgd1na2vs0mg"},{"bike_id":"7673869c-5eae-412b-abb2-407999f3b948","system_id":"levelo_inurba_marseille","lat":43.27055,"lon":5.4026,"is_reserved":false,"is_disabled":false,"rental_uris":{"android":"levelo://app?vid=7673869c-5eae-412b-abb2-407999f3b948","ios":"levelo://app?vid=7673869c-5eae-412b-abb2-407999f3b948"},"vehicle_type_id":"4","last_reported":1732961358,"current_range_meters":28800,"station_id":"ce4bhk92rcd13ifvqgc0","pricing_plan_id":"cebpf4jnsgd1na2vs0mg"},{"bike_id":"66989d6e-afab-49f3-bec1-e5e5bc6b7fe9","system_id":"levelo_inurba_marseille","lat":43.28265,"lon":5.35054,"is_reserved":false,"is_disabled":true,"rental_uris":{"android":"levelo://app?vid=66989d6e-afab-49f3-bec1-e5e5bc6b7fe9","ios":"levelo://app?vid=66989d6e-afab-49f3-bec1-e5e5bc6b7fe9"},"vehicle_type_id":"4","last_reported":1732961358,"current_range_meters":29600,"station_id":"ce4bhbp2rcd13ifvqerg","pricing_plan_id":"cebpf4jnsgd1na2vs0mg"},{"bike_id":"e9a2ff63-d451-4c32-898d-a7d20652516b","system_id":"levelo_inurba_marseille","lat":43.25575,"lon":5.38232,"is_reserved":false,"is_disabled":false,"rental_uris":{"android":"levelo://app?vid=e9a2ff63-d451-4c32-898d-a7d20652516b","ios":"levelo://app?vid=e9a2ff63-d451-4c32-898d-a7d20652516b"},"vehicle_type_id":"4","last_reported":1732961358,"current_range_meters":11200,"station_id":"ce4bhih2rcd13ifvqfs0","pricing_plan_id":"cebpf4jnsgd1na2vs0mg"},{"bike_id":"6e942838-c3ee-4d04-a2d6-4c13e296b188","system_id":"levelo_inurba_marseille","lat":43.29078,"lon":5.3717,"is_reserved":false,"is_disabled":false,"rental_uris":{"android":"levelo://app?vid=6e942838-c3ee-4d04-a2d6-4c13e296b188","ios":"levelo://app?vid=6e942838-c3ee-4d04-a2d6-4c13e296b188"},"vehicle_type_id":"4","last_reported":1732961358,"current_range_meters":38400,"station_id":"ce4bh5p2rcd13ifvqe4g","pricing_plan_id":"cebpf4jnsgd1na2vs0mg"},{"bike_id":"92de0aec-7fd7-4b0f-836a-d45b7677365d","system_id":"levelo_inurba_marseille","lat":43.25003,"lon":5.3892,"is_reserved":false,"is_disabled":false,"rental_uris":{"android":"levelo://app?vid=92de0aec-7fd7-4b0f-836a-d45b7677365d","ios":"levelo://app?vid=92de0aec-7fd7-4b0f-836a-d45b7677365d"},"vehicle_type_id":"4","last_reported":1732961358,"current_range_meters":38800,"station_id":"ce4bhgp2rcd13ifvqfd0","pricing_plan_id":"cebpf4jnsgd1na2vs0mg"},{"bike_id":"64c2d724-000b-4406-b041-a877824f8e92","system_id":"levelo_inurba_marseille","lat":43.29784,"lon":5.39331,"is_reserved":false,"is_disabled":false,"rental_uris":{"android":"levelo://app?vid=64c2d724-000b-4406-b041-a877824f8e92","ios":"levelo://app?vid=64c2d724-000b-4406-b041-a877824f8e92"},"vehicle_type_id":"4","last_reported":1732961358,"current_range_meters":30800,"station_id":"chh1huq6cuj3fo74tm60","pricing_plan_id":"cebpf4jnsgd1na2vs0mg"},{"bike_id":"c254f6a2-7ff1-4f96-adb7-8a7ee1b965ce","system_id":"levelo_inurba_marseille","lat":43.29615,"lon":5.37718,"is_reserved":false,"is_disabled":false,"rental_uris":{"android":"levelo://app?vid=c254f6a2-7ff1-4f96-adb7-8a7ee1b965ce","ios":"levelo://app?vid=c254f6a2-7ff1-4f96-adb7-8a7ee1b965ce"},"vehicle_type_id":"4","last_reported":1732961358,"current_range_meters":29600,"station_id":"ce4bgi92rcd13ifvqb90","pricing_plan_id":"cebpf4jnsgd1na2vs0mg"},{"bike_id":"e5f0b1d6-ea6c-45f8-99ad-1dd044b17f95","system_id":"levelo_inurba_marseille","lat":43.27179,"lon":5.40991,"is_reserved":false,"is_disabled":false,"rental_uris":{"android":"levelo://app?vid=e5f0b1d6-ea6c-45f8-99ad-1dd044b17f95","ios":"levelo://app?vid=e5f0b1d6-ea6c-45f8-99ad-1dd044b17f95"},"vehicle_type_id":"4","last_reported":1732961358,"current_range_meters":19200,"station_id":"ce4bhl12rcd13ifvqgf0","pricing_plan_id":"cebpf4jnsgd1na2vs0mg"},{"bike_id":"4a2be555-d056-454c-bed3-fe781ba86f8e","system_id":"levelo_inurba_marseille","lat":43.25886,"lon":5.39954,"is_reserved":false,"is_disabled":true,"rental_uris":{"android":"levelo://app?vid=4a2be555-d056-454c-bed3-fe781ba86f8e","ios":"levelo://app?vid=4a2be555-d056-454c-bed3-fe781ba86f8e"},"vehicle_type_id":"4","last_reported":1732961358,"current_range_meters":0,"station_id":"","pricing_plan_id":"cebpf4jnsgd1na2vs0mg"},{"bike_id":"8f22ce9f-b266-4291-a09b-63ff117ff1ad","system_id":"levelo_inurba_marseille","lat":43.32489,"lon":5.36557,"is_reserved":false,"is_disabled":false,"rental_uris":{"android":"levelo://app?vid=8f22ce9f-b266-4291-a09b-63ff117ff1ad","ios":"levelo://app?vid=8f22ce9f-b266-4291-a09b-63ff117ff1ad"},"vehicle_type_id":"4","last_reported":1732961358,"current_range_meters":36800,"station_id":"ce4bhs12rcd13ifvqhvg","pricing_plan_id":"cebpf4jnsgd1na2vs0mg"},{"bike_id":"e7409b42-c149-4b21-bac4-0ccaf55b69e0","system_id":"levelo_inurba_marseille","lat":43.29594,"lon":5.38089,"is_reserved":false,"is_disabled":true,"rental_uris":{"android":"levelo://app?vid=e7409b42-c149-4b21-bac4-0ccaf55b69e0","ios":"levelo://app?vid=e7409b42-c149-4b21-bac4-0ccaf55b69e0"},"vehicle_type_id":"4","last_reported":1732961358,"current_range_meters":30800,"station_id":"ce4bgl12rcd13ifvqbo0","pricing_plan_id":"cebpf4jnsgd1na2vs0mg"},{"bike_id":"377f5e66-8688-4e05-b388-e679a49f773c","system_id":"levelo_inurba_marseille","lat":43.27615,"lon":5.3611,"is_reserved":false,"is_disabled":false,"rental_uris":{"android":"levelo://app?vid=377f5e66-8688-4e05-b388-e679a49f773c","ios":"levelo://app?vid=377f5e66-8688-4e05-b388-e679a49f773c"},"vehicle_type_id":"4","last_reported":1732961358,"current_range_meters":24000,"station_id":"ce4bgj92rcd13ifvqbe0","pricing_plan_id":"cebpf4jnsgd1na2vs0mg"},{"bike_id":"6217d58b-6d8f-48fa-84a5-0fb9c799d410","system_id":"levelo_inurba_marseille","lat":43.305295,"lon":5.365498,"is_reserved":false,"is_disabled":false,"rental_uris":{"android":"levelo://app?vid=6217d58b-6d8f-48fa-84a5-0fb9c799d410","ios":"levelo://app?vid=6217d58b-6d8f-48fa-84a5-0fb9c799d410"},"vehicle_type_id":"4","last_reported":1732961358,"current_range_meters":33600,"station_id":"ce4bgs12rcd13ifvqcag","pricing_plan_id":"cebpf4jnsgd1na2vs0mg"},{"bike_id":"24998420-0380-4723-9afc-291d57f3e3d8","system_id":"levelo_inurba_marseille","lat":43.25721,"lon":5.41111,"is_reserved":false,"is_disabled":false,"rental_uris":{"android":"levelo://app?vid=24998420-0380-4723-9afc-291d57f3e3d8","ios":"levelo://app?vid=24998420-0380-4723-9afc-291d57f3e3d8"},"vehicle_type_id":"4","last_reported":1732961358,"current_range_meters":30400,"station_id":"ce4bhkp2rcd13ifvqgd0","pricing_plan_id":"cebpf4jnsgd1na2vs0mg"},{"bike_id":"80ee5806-271f-4b24-a602-2dc27d804313","system_id":"levelo_inurba_marseille","lat":43.32109,"lon":5.36779,"is_reserved":false,"is_disabled":false,"rental_uris":{"android":"levelo://app?vid=80ee5806-271f-4b24-a602-2dc27d804313","ios":"levelo://app?vid=80ee5806-271f-4b24-a602-2dc27d804313"},"vehicle_type_id":"4","last_reported":1732961358,"current_range_meters":9600,"station_id":"ce4bhrh2rcd13ifvqhug","pricing_plan_id":"cebpf4jnsgd1na2vs0mg"},{"bike_id":"a99e441f-fcb3-4edf-8132-a5c34ea369bf","system_id":"levelo_inurba_marseille","lat":43.26932,"lon":5.4025,"is_reserved":false,"is_disabled":false,"rental_uris":{"android":"levelo://app?vid=a99e441f-fcb3-4edf-8132-a5c34ea369bf","ios":"levelo://app?vid=a99e441f-fcb3-4edf-8132-a5c34ea369bf"},"vehicle_type_id":"4","last_reported":1732961358,"current_range_meters":37600,"station_id":"cjm6bp8fraef2m0cb0m0","pricing_plan_id":"cebpf4jnsgd1na2vs0mg"},{"bike_id":"1d70e936-a5c9-4092-b55e-bd5c3d620336","system_id":"levelo_inurba_marseille","lat":43.28102,"lon":5.37827,"is_reserved":false,"is_disabled":false,"rental_uris":{"android":"levelo://app?vid=1d70e936-a5c9-4092-b55e-bd5c3d620336","ios":"levelo://app?vid=1d70e936-a5c9-4092-b55e-bd5c3d620336"},"vehicle_type_id":"4","last_reported":1732961358,"current_range_meters":28800,"station_id":"ce4bha12rcd13ifvqee0","pricing_plan_id":"cebpf4jnsgd1na2vs0mg"},{"bike_id":"5fb18cb7-abfc-4661-be9d-85634cdc31a9","system_id":"levelo_inurba_marseille","lat":43.25867,"lon":5.39895,"is_reserved":false,"is_disabled":false,"rental_uris":{"android":"levelo://app?vid=5fb18cb7-abfc-4661-be9d-85634cdc31a9","ios":"levelo://app?vid=5fb18cb7-abfc-4661-be9d-85634cdc31a9"},"vehicle_type_id":"4","last_reported":1732961358,"current_range_meters":34800,"station_id":"ce4bhl92rcd13ifvqghg","pricing_plan_id":"cebpf4jnsgd1na2vs0mg"},{"bike_id":"9d66fae4-77b5-436f-b57d-44cdf6fea18f","system_id":"levelo_inurba_marseille","lat":43.28032,"lon":5.36941,"is_reserved":false,"is_disabled":false,"rental_uris":{"android":"levelo://app?vid=9d66fae4-77b5-436f-b57d-44cdf6fea18f","ios":"levelo://app?vid=9d66fae4-77b5-436f-b57d-44cdf6fea18f"},"vehicle_type_id":"4","last_reported":1732961358,"current_range_meters":37600,"station_id":"ce4bha12rcd13ifvqef0","pricing_plan_id":"cebpf4jnsgd1na2vs0mg"},{"bike_id":"627c7aa3-7f99-40b1-a76c-6c977816fbce","system_id":"levelo_inurba_marseille","lat":43.27197,"lon":5.39182,"is_reserved":false,"is_disabled":false,"rental_uris":{"android":"levelo://app?vid=627c7aa3-7f99-40b1-a76c-6c977816fbce","ios":"levelo://app?vid=627c7aa3-7f99-40b1-a76c-6c977816fbce"},"vehicle_type_id":"4","last_reported":1732961358,"current_range_meters":29600,"station_id":"ce4bhhp2rcd13ifvqfm0","pricing_plan_id":"cebpf4jnsgd1na2vs0mg"},{"bike_id":"981f5323-76ee-4aff-abdb-308b2ece5ca8","system_id":"levelo_inurba_marseille","lat":43.33724,"lon":5.3918,"is_reserved":false,"is_disabled":false,"rental_uris":{"android":"levelo://app?vid=981f5323-76ee-4aff-abdb-308b2ece5ca8","ios":"levelo://app?vid=981f5323-76ee-4aff-abdb-308b2ece5ca8"},"vehicle_type_id":"4","last_reported":1732961358,"current_range_meters":39200,"station_id":"ce4bhr92rcd13ifvqhsg","pricing_plan_id":"cebpf4jnsgd1na2vs0mg"},{"bike_id":"81d9f7be-c3c6-4233-bf11-948e6f22debc","system_id":"levelo_inurba_marseille","lat":43.32355,"lon":5.38881,"is_reserved":false,"is_disabled":false,"rental_uris":{"android":"levelo://app?vid=81d9f7be-c3c6-4233-bf11-948e6f22debc","ios":"levelo://app?vid=81d9f7be-c3c6-4233-bf11-948e6f22debc"},"vehicle_type_id":"4","last_reported":1732961358,"current_range_meters":31200,"station_id":"ce4bhqp2rcd13ifvqhog","pricing_plan_id":"cebpf4jnsgd1na2vs0mg"},{"bike_id":"1eede84d-8533-480b-beca-64379132784d","system_id":"levelo_inurba_marseille","lat":43.33017,"lon":5.39045,"is_reserved":false,"is_disabled":false,"rental_uris":{"android":"levelo://app?vid=1eede84d-8533-480b-beca-64379132784d","ios":"levelo://app?vid=1eede84d-8533-480b-beca-64379132784d"},"vehicle_type_id":"4","last_reported":1732961358,"current_range_meters":37600,"station_id":"ce4bhr92rcd13ifvqhrg","pricing_plan_id":"cebpf4jnsgd1na2vs0mg"},{"bike_id":"79778764-9e35-4fb3-ba4f-30a862fa4590","system_id":"levelo_inurba_marseille","lat":43.27997,"lon":5.40018,"is_reserved":false,"is_disabled":false,"rental_uris":{"android":"levelo://app?vid=79778764-9e35-4fb3-ba4f-30a862fa4590","ios":"levelo://app?vid=79778764-9e35-4fb3-ba4f-30a862fa4590"},"vehicle_type_id":"4","last_reported":1732961358,"current_range_meters":38000,"station_id":"ce4bho92rcd13ifvqh4g","pricing_plan_id":"cebpf4jnsgd1na2vs0mg"},{"bike_id":"f02ced50-00bf-4c65-8e1d-41155d37571e","system_id":"levelo_inurba_marseille","lat":43.3093,"lon":5.40138,"is_reserved":false,"is_disabled":false,"rental_uris":{"android":"levelo://app?vid=f02ced50-00bf-4c65-8e1d-41155d37571e","ios":"levelo://app?vid=f02ced50-00bf-4c65-8e1d-41155d37571e"},"vehicle_type_id":"4","last_reported":1732961358,"current_range_meters":19200,"station_id":"ce4bgvp2rcd13ifvqct0","pricing_plan_id":"cebpf4jnsgd1na2vs0mg"},{"bike_id":"ab1db49f-701c-4711-8b20-531372b5e60f","system_id":"levelo_inurba_marseille","lat":43.32624,"lon":5.37547,"is_reserved":false,"is_disabled":false,"rental_uris":{"android":"levelo://app?vid=ab1db49f-701c-4711-8b20-531372b5e60f","ios":"levelo://app?vid=ab1db49f-701c-4711-8b20-531372b5e60f"},"vehicle_type_id":"4","last_reported":1732961358,"current_range_meters":33600,"station_id":"","pricing_plan_id":"cebpf4jnsgd1na2vs0mg"},{"bike_id":"29a80c71-9648-4a26-b6c9-5f69092eaa01","system_id":"levelo_inurba_marseille","lat":43.2707,"lon":5.42279,"is_reserved":false,"is_disabled":false,"rental_uris":{"android":"levelo://app?vid=29a80c71-9648-4a26-b6c9-5f69092eaa01","ios":"levelo://app?vid=29a80c71-9648-4a26-b6c9-5f69092eaa01"},"vehicle_type_id":"4","last_reported":1732961358,"current_range_meters":39200,"station_id":"ce4bhk92rcd13ifvqgb0","pricing_plan_id":"cebpf4jnsgd1na2vs0mg"},{"bike_id":"f881fa43-b9ae-4a00-a03d-424f20a920b7","system_id":"levelo_inurba_marseille","lat":43.30152,"lon":5.38083,"is_reserved":false,"is_disabled":false,"rental_uris":{"android":"levelo://app?vid=f881fa43-b9ae-4a00-a03d-424f20a920b7","ios":"levelo://app?vid=f881fa43-b9ae-4a00-a03d-424f20a920b7"},"vehicle_type_id":"4","last_reported":1732961358,"current_range_meters":10800,"station_id":"ce4bgjp2rcd13ifvqbh0","pricing_plan_id":"cebpf4jnsgd1na2vs0mg"},{"bike_id":"73c872b6-b245-4557-afe2-6504b31215d2","system_id":"levelo_inurba_marseille","lat":43.308833,"lon":5.396629,"is_reserved":false,"is_disabled":false,"rental_uris":{"android":"levelo://app?vid=73c872b6-b245-4557-afe2-6504b31215d2","ios":"levelo://app?vid=73c872b6-b245-4557-afe2-6504b31215d2"},"vehicle_type_id":"4","last_reported":1732961358,"current_range_meters":37600,"station_id":"ce4bh012rcd13ifvqcv0","pricing_plan_id":"cebpf4jnsgd1na2vs0mg"},{"bike_id":"4a9d6e1f-1828-4869-9bb6-c94fb652e1a9","system_id":"levelo_inurba_marseille","lat":43.22934,"lon":5.35378,"is_reserved":false,"is_disabled":false,"rental_uris":{"android":"levelo://app?vid=4a9d6e1f-1828-4869-9bb6-c94fb652e1a9","ios":"levelo://app?vid=4a9d6e1f-1828-4869-9bb6-c94fb652e1a9"},"vehicle_type_id":"4","last_reported":1732961358,"current_range_meters":38800,"station_id":"cpo3532slgdg3j2ikp40","pricing_plan_id":"cebpf4jnsgd1na2vs0mg"},{"bike_id":"0174841e-8011-4a7b-bd18-480101bee765","system_id":"levelo_inurba_marseille","lat":43.23961,"lon":5.36633,"is_reserved":false,"is_disabled":true,"rental_uris":{"android":"levelo://app?vid=0174841e-8011-4a7b-bd18-480101bee765","ios":"levelo://app?vid=0174841e-8011-4a7b-bd18-480101bee765"},"vehicle_type_id":"4","last_reported":1732961358,"current_range_meters":0,"station_id":"ce4bhi12rcd13ifvqfp0","pricing_plan_id":"cebpf4jnsgd1na2vs0mg"},{"bike_id":"595436af-3776-4ed6-8a65-8bf391051f86","system_id":"levelo_inurba_marseille","lat":43.26209,"lon":5.37438,"is_reserved":false,"is_disabled":false,"rental_uris":{"android":"levelo://app?vid=595436af-3776-4ed6-8a65-8bf391051f86","ios":"levelo://app?vid=595436af-3776-4ed6-8a65-8bf391051f86"},"vehicle_type_id":"4","last_reported":1732961358,"current_range_meters":32400,"station_id":"ce4bhgp2rcd13ifvqfc0","pricing_plan_id":"cebpf4jnsgd1na2vs0mg"},{"bike_id":"fd405db4-6f5b-4763-b335-7a51479a2ea9","system_id":"levelo_inurba_marseille","lat":43.25579,"lon":5.38236,"is_reserved":false,"is_disabled":false,"rental_uris":{"android":"levelo://app?vid=fd405db4-6f5b-4763-b335-7a51479a2ea9","ios":"levelo://app?vid=fd405db4-6f5b-4763-b335-7a51479a2ea9"},"vehicle_type_id":"4","last_reported":1732961358,"current_range_meters":40000,"station_id":"ce4bhih2rcd13ifvqfs0","pricing_plan_id":"cebpf4jnsgd1na2vs0mg"},{"bike_id":"6da000fb-4699-4236-baa4-8dff0797e711","system_id":"levelo_inurba_marseille","lat":43.3172,"lon":5.42396,"is_reserved":false,"is_disabled":false,"rental_uris":{"android":"levelo://app?vid=6da000fb-4699-4236-baa4-8dff0797e711","ios":"levelo://app?vid=6da000fb-4699-4236-baa4-8dff0797e711"},"vehicle_type_id":"4","last_reported":1732961358,"current_range_meters":19600,"station_id":"ce4bhp92rcd13ifvqhbg","pricing_plan_id":"cebpf4jnsgd1na2vs0mg"},{"bike_id":"52c5ec48-d9d2-4224-8f63-3b7560e41bcc","system_id":"levelo_inurba_marseille","lat":43.24176,"lon":5.39735,"is_reserved":false,"is_disabled":false,"rental_uris":{"android":"levelo://app?vid=52c5ec48-d9d2-4224-8f63-3b7560e41bcc","ios":"levelo://app?vid=52c5ec48-d9d2-4224-8f63-3b7560e41bcc"},"vehicle_type_id":"4","last_reported":1732961358,"current_range_meters":40000,"station_id":"ce4bhn12rcd13ifvqgpg","pricing_plan_id":"cebpf4jnsgd1na2vs0mg"},{"bike_id":"a233b25b-869e-422b-bf5e-63d3d8ff686f","system_id":"levelo_inurba_marseille","lat":43.30927,"lon":5.4014,"is_reserved":false,"is_disabled":true,"rental_uris":{"android":"levelo://app?vid=a233b25b-869e-422b-bf5e-63d3d8ff686f","ios":"levelo://app?vid=a233b25b-869e-422b-bf5e-63d3d8ff686f"},"vehicle_type_id":"4","last_reported":1732961358,"current_range_meters":25200,"station_id":"ce4bgvp2rcd13ifvqct0","pricing_plan_id":"cebpf4jnsgd1na2vs0mg"},{"bike_id":"3b61cc8f-6b8c-4eed-8c48-de246bc9d687","system_id":"levelo_inurba_marseille","lat":43.28732,"lon":5.36104,"is_reserved":false,"is_disabled":false,"rental_uris":{"android":"levelo://app?vid=3b61cc8f-6b8c-4eed-8c48-de246bc9d687","ios":"levelo://app?vid=3b61cc8f-6b8c-4eed-8c48-de246bc9d687"},"vehicle_type_id":"4","last_reported":1732961358,"current_range_meters":39200,"station_id":"cki0cbj6b192h4jlfktg","pricing_plan_id":"cebpf4jnsgd1na2vs0mg"},{"bike_id":"feab9145-18ce-4613-8d95-c6e5be3b3980","system_id":"levelo_inurba_marseille","lat":43.30952,"lon":5.39039,"is_reserved":false,"is_disabled":false,"rental_uris":{"android":"levelo://app?vid=feab9145-18ce-4613-8d95-c6e5be3b3980","ios":"levelo://app?vid=feab9145-18ce-4613-8d95-c6e5be3b3980"},"vehicle_type_id":"4","last_reported":1732961358,"current_range_meters":37600,"station_id":"ce4bgup2rcd13ifvqco0","pricing_plan_id":"cebpf4jnsgd1na2vs0mg"},{"bike_id":"6e914fb7-e6d2-4357-b161-70e1de222ef2","system_id":"levelo_inurba_marseille","lat":43.25728,"lon":5.41109,"is_reserved":false,"is_disabled":false,"rental_uris":{"android":"levelo://app?vid=6e914fb7-e6d2-4357-b161-70e1de222ef2","ios":"levelo://app?vid=6e914fb7-e6d2-4357-b161-70e1de222ef2"},"vehicle_type_id":"4","last_reported":1732961358,"current_range_meters":38400,"station_id":"ce4bhkp2rcd13ifvqgd0","pricing_plan_id":"cebpf4jnsgd1na2vs0mg"},{"bike_id":"1b3b427b-40ff-4765-af70-a947ea74cceb","system_id":"levelo_inurba_marseille","lat":43.27206,"lon":5.39183,"is_reserved":false,"is_disabled":false,"rental_uris":{"android":"levelo://app?vid=1b3b427b-40ff-4765-af70-a947ea74cceb","ios":"levelo://app?vid=1b3b427b-40ff-4765-af70-a947ea74cceb"},"vehicle_type_id":"4","last_reported":1732961358,"current_range_meters":39200,"station_id":"ce4bhhp2rcd13ifvqfm0","pricing_plan_id":"cebpf4jnsgd1na2vs0mg"},{"bike_id":"ac2a4554-ffe0-4e28-9df7-abf3737df124","system_id":"levelo_inurba_marseille","lat":43.24653,"lon":5.38895,"is_reserved":false,"is_disabled":false,"rental_uris":{"android":"levelo://app?vid=ac2a4554-ffe0-4e28-9df7-abf3737df124","ios":"levelo://app?vid=ac2a4554-ffe0-4e28-9df7-abf3737df124"},"vehicle_type_id":"4","last_reported":1732961358,"current_range_meters":39200,"station_id":"ce4bhg12rcd13ifvqf60","pricing_plan_id":"cebpf4jnsgd1na2vs0mg"},{"bike_id":"c53456cf-9ecd-48ab-bd70-22a06cf80d9a","system_id":"levelo_inurba_marseille","lat":43.25496,"lon":5.37649,"is_reserved":false,"is_disabled":false,"rental_uris":{"android":"levelo://app?vid=c53456cf-9ecd-48ab-bd70-22a06cf80d9a","ios":"levelo://app?vid=c53456cf-9ecd-48ab-bd70-22a06cf80d9a"},"vehicle_type_id":"4","last_reported":1732961358,"current_range_meters":38800,"station_id":"ce4bhh12rcd13ifvqff0","pricing_plan_id":"cebpf4jnsgd1na2vs0mg"},{"bike_id":"18134642-fdfa-4ec9-9cb2-4bdc7fe4f31c","system_id":"levelo_inurba_marseille","lat":43.28478,"lon":5.38422,"is_reserved":false,"is_disabled":false,"rental_uris":{"android":"levelo://app?vid=18134642-fdfa-4ec9-9cb2-4bdc7fe4f31c","ios":"levelo://app?vid=18134642-fdfa-4ec9-9cb2-4bdc7fe4f31c"},"vehicle_type_id":"4","last_reported":1732961358,"current_range_meters":36800,"station_id":"ce4bh512rcd13ifvqe3g","pricing_plan_id":"cebpf4jnsgd1na2vs0mg"},{"bike_id":"c2d172e1-98e6-4a29-80b6-476b9c5f1669","system_id":"levelo_inurba_marseille","lat":43.27621,"lon":5.36129,"is_reserved":false,"is_disabled":false,"rental_uris":{"android":"levelo://app?vid=c2d172e1-98e6-4a29-80b6-476b9c5f1669","ios":"levelo://app?vid=c2d172e1-98e6-4a29-80b6-476b9c5f1669"},"vehicle_type_id":"4","last_reported":1732961358,"current_range_meters":38800,"station_id":"ce4bgj92rcd13ifvqbe0","pricing_plan_id":"cebpf4jnsgd1na2vs0mg"},{"bike_id":"01dd4a61-2932-478c-bb90-a182878898af","system_id":"levelo_inurba_marseille","lat":43.31533,"lon":5.38021,"is_reserved":false,"is_disabled":false,"rental_uris":{"android":"levelo://app?vid=01dd4a61-2932-478c-bb90-a182878898af","ios":"levelo://app?vid=01dd4a61-2932-478c-bb90-a182878898af"},"vehicle_type_id":"4","last_reported":1732961358,"current_range_meters":39200,"station_id":"ce4bhsp2rcd13ifvqi50","pricing_plan_id":"cebpf4jnsgd1na2vs0mg"},{"bike_id":"62de3223-e4ff-4977-a3dc-7f3ac2d85836","system_id":"levelo_inurba_marseille","lat":43.26967,"lon":5.38659,"is_reserved":false,"is_disabled":false,"rental_uris":{"android":"levelo://app?vid=62de3223-e4ff-4977-a3dc-7f3ac2d85836","ios":"levelo://app?vid=62de3223-e4ff-4977-a3dc-7f3ac2d85836"},"vehicle_type_id":"4","last_reported":1732961358,"current_range_meters":39200,"station_id":"ce4bhh92rcd13ifvqfh0","pricing_plan_id":"cebpf4jnsgd1na2vs0mg"},{"bike_id":"2acf3c00-9adf-448c-a9a4-10d6de2d7879","system_id":"levelo_inurba_marseille","lat":43.30645,"lon":5.40086,"is_reserved":false,"is_disabled":true,"rental_uris":{"android":"levelo://app?vid=2acf3c00-9adf-448c-a9a4-10d6de2d7879","ios":"levelo://app?vid=2acf3c00-9adf-448c-a9a4-10d6de2d7879"},"vehicle_type_id":"4","last_reported":1732961358,"current_range_meters":0,"station_id":"ce4bh112rcd13ifvqda0","pricing_plan_id":"cebpf4jnsgd1na2vs0mg"},{"bike_id":"c872430b-cdb2-4c01-90a7-0a81173bfaa1","system_id":"levelo_inurba_marseille","lat":43.27993,"lon":5.41655,"is_reserved":false,"is_disabled":false,"rental_uris":{"android":"levelo://app?vid=c872430b-cdb2-4c01-90a7-0a81173bfaa1","ios":"levelo://app?vid=c872430b-cdb2-4c01-90a7-0a81173bfaa1"},"vehicle_type_id":"4","last_reported":1732961358,"current_range_meters":38800,"station_id":"ce4bho12rcd13ifvqh1g","pricing_plan_id":"cebpf4jnsgd1na2vs0mg"},{"bike_id":"23a1127e-cb22-4ed4-9e04-bd48f9f2b789","system_id":"levelo_inurba_marseille","lat":43.29838,"lon":5.36266,"is_reserved":false,"is_disabled":false,"rental_uris":{"android":"levelo://app?vid=23a1127e-cb22-4ed4-9e04-bd48f9f2b789","ios":"levelo://app?vid=23a1127e-cb22-4ed4-9e04-bd48f9f2b789"},"vehicle_type_id":"4","last_reported":1732961358,"current_range_meters":38000,"station_id":"ce4bgpp2rcd13ifvqc3g","pricing_plan_id":"cebpf4jnsgd1na2vs0mg"},{"bike_id":"5e26e009-6985-46ee-9ed1-507de1619990","system_id":"levelo_inurba_marseille","lat":43.29892,"lon":5.43668,"is_reserved":false,"is_disabled":false,"rental_uris":{"android":"levelo://app?vid=5e26e009-6985-46ee-9ed1-507de1619990","ios":"levelo://app?vid=5e26e009-6985-46ee-9ed1-507de1619990"},"vehicle_type_id":"4","last_reported":1732961358,"current_range_meters":18800,"station_id":"ce4bhpp2rcd13ifvqhfg","pricing_plan_id":"cebpf4jnsgd1na2vs0mg"},{"bike_id":"06448cf4-5db2-4556-ae15-36018f41ecec","system_id":"levelo_inurba_marseille","lat":43.30895,"lon":5.39661,"is_reserved":false,"is_disabled":false,"rental_uris":{"android":"levelo://app?vid=06448cf4-5db2-4556-ae15-36018f41ecec","ios":"levelo://app?vid=06448cf4-5db2-4556-ae15-36018f41ecec"},"vehicle_type_id":"4","last_reported":1732961358,"current_range_meters":38000,"station_id":"ce4bh012rcd13ifvqcv0","pricing_plan_id":"cebpf4jnsgd1na2vs0mg"},{"bike_id":"96514040-dda8-41d6-80eb-14656629b10f","system_id":"levelo_inurba_marseille","lat":43.30291,"lon":5.36874,"is_reserved":false,"is_disabled":false,"rental_uris":{"android":"levelo://app?vid=96514040-dda8-41d6-80eb-14656629b10f","ios":"levelo://app?vid=96514040-dda8-41d6-80eb-14656629b10f"},"vehicle_type_id":"4","last_reported":1732961358,"current_range_meters":38400,"station_id":"ce4bgqh2rcd13ifvqc5g","pricing_plan_id":"cebpf4jnsgd1na2vs0mg"},{"bike_id":"fe1c6c60-0f4f-4b5c-a7ea-9f2ff8347245","system_id":"levelo_inurba_marseille","lat":43.27622,"lon":5.36111,"is_reserved":false,"is_disabled":false,"rental_uris":{"android":"levelo://app?vid=fe1c6c60-0f4f-4b5c-a7ea-9f2ff8347245","ios":"levelo://app?vid=fe1c6c60-0f4f-4b5c-a7ea-9f2ff8347245"},"vehicle_type_id":"4","last_reported":1732961358,"current_range_meters":38800,"station_id":"ce4bgj92rcd13ifvqbe0","pricing_plan_id":"cebpf4jnsgd1na2vs0mg"},{"bike_id":"4abebe2b-dec7-442c-a6a0-da33deb742de","system_id":"levelo_inurba_marseille","lat":43.32109,"lon":5.36791,"is_reserved":false,"is_disabled":false,"rental_uris":{"android":"levelo://app?vid=4abebe2b-dec7-442c-a6a0-da33deb742de","ios":"levelo://app?vid=4abebe2b-dec7-442c-a6a0-da33deb742de"},"vehicle_type_id":"4","last_reported":1732961358,"current_range_meters":38000,"station_id":"ce4bhrh2rcd13ifvqhug","pricing_plan_id":"cebpf4jnsgd1na2vs0mg"},{"bike_id":"e8761c76-5abe-46ec-a02e-5c1eaaf3ecfa","system_id":"levelo_inurba_marseille","lat":43.24165,"lon":5.36397,"is_reserved":false,"is_disabled":false,"rental_uris":{"android":"levelo://app?vid=e8761c76-5abe-46ec-a02e-5c1eaaf3ecfa","ios":"levelo://app?vid=e8761c76-5abe-46ec-a02e-5c1eaaf3ecfa"},"vehicle_type_id":"4","last_reported":1732961358,"current_range_meters":30400,"station_id":"cpo36qri1sfpv3e86is0","pricing_plan_id":"cebpf4jnsgd1na2vs0mg"},{"bike_id":"a15e5b0c-1062-4c95-b3f3-c7605c2d7032","system_id":"levelo_inurba_marseille","lat":43.3009,"lon":5.39072,"is_reserved":false,"is_disabled":false,"rental_uris":{"android":"levelo://app?vid=a15e5b0c-1062-4c95-b3f3-c7605c2d7032","ios":"levelo://app?vid=a15e5b0c-1062-4c95-b3f3-c7605c2d7032"},"vehicle_type_id":"4","last_reported":1732961358,"current_range_meters":27600,"station_id":"ce4bh192rcd13ifvqdb0","pricing_plan_id":"cebpf4jnsgd1na2vs0mg"},{"bike_id":"a6126187-cca6-4ac2-bdec-837957fb43a5","system_id":"levelo_inurba_marseille","lat":43.29411,"lon":5.38629,"is_reserved":false,"is_disabled":false,"rental_uris":{"android":"levelo://app?vid=a6126187-cca6-4ac2-bdec-837957fb43a5","ios":"levelo://app?vid=a6126187-cca6-4ac2-bdec-837957fb43a5"},"vehicle_type_id":"4","last_reported":1732961358,"current_range_meters":27600,"station_id":"ce4bh2h2rcd13ifvqdh0","pricing_plan_id":"cebpf4jnsgd1na2vs0mg"},{"bike_id":"deb31fb0-607b-461f-aedb-dc476e058fa0","system_id":"levelo_inurba_marseille","lat":43.29619,"lon":5.37725,"is_reserved":false,"is_disabled":false,"rental_uris":{"android":"levelo://app?vid=deb31fb0-607b-461f-aedb-dc476e058fa0","ios":"levelo://app?vid=deb31fb0-607b-461f-aedb-dc476e058fa0"},"vehicle_type_id":"4","last_reported":1732961358,"current_range_meters":30000,"station_id":"ce4bgi92rcd13ifvqb90","pricing_plan_id":"cebpf4jnsgd1na2vs0mg"},{"bike_id":"0f17f004-1308-4dc1-baa4-8e9fe8d97b2d","system_id":"levelo_inurba_marseille","lat":43.25714,"lon":5.41103,"is_reserved":false,"is_disabled":false,"rental_uris":{"android":"levelo://app?vid=0f17f004-1308-4dc1-baa4-8e9fe8d97b2d","ios":"levelo://app?vid=0f17f004-1308-4dc1-baa4-8e9fe8d97b2d"},"vehicle_type_id":"4","last_reported":1732961358,"current_range_meters":24400,"station_id":"ce4bhkp2rcd13ifvqgd0","pricing_plan_id":"cebpf4jnsgd1na2vs0mg"},{"bike_id":"26ccb16a-38f8-4143-9d2e-c2d9c459cdb2","system_id":"levelo_inurba_marseille","lat":43.27315,"lon":5.39095,"is_reserved":false,"is_disabled":false,"rental_uris":{"android":"levelo://app?vid=26ccb16a-38f8-4143-9d2e-c2d9c459cdb2","ios":"levelo://app?vid=26ccb16a-38f8-4143-9d2e-c2d9c459cdb2"},"vehicle_type_id":"4","last_reported":1732961358,"current_range_meters":40000,"station_id":"ce4bhgp2rcd13ifvqfe0","pricing_plan_id":"cebpf4jnsgd1na2vs0mg"},{"bike_id":"b9579176-7692-4721-9ce1-a115d09581d8","system_id":"levelo_inurba_marseille","lat":43.31323,"lon":5.3969,"is_reserved":false,"is_disabled":false,"rental_uris":{"android":"levelo://app?vid=b9579176-7692-4721-9ce1-a115d09581d8","ios":"levelo://app?vid=b9579176-7692-4721-9ce1-a115d09581d8"},"vehicle_type_id":"4","last_reported":1732961358,"current_range_meters":32400,"station_id":"ce4bgvp2rcd13ifvqcu0","pricing_plan_id":"cebpf4jnsgd1na2vs0mg"},{"bike_id":"076df995-68a8-4dd1-86cd-d659dbfb09cc","system_id":"levelo_inurba_marseille","lat":43.29706,"lon":5.36608,"is_reserved":false,"is_disabled":false,"rental_uris":{"android":"levelo://app?vid=076df995-68a8-4dd1-86cd-d659dbfb09cc","ios":"levelo://app?vid=076df995-68a8-4dd1-86cd-d659dbfb09cc"},"vehicle_type_id":"4","last_reported":1732961358,"current_range_meters":36400,"station_id":"ce4bgn12rcd13ifvqbt0","pricing_plan_id":"cebpf4jnsgd1na2vs0mg"},{"bike_id":"92529803-908f-413b-9cf1-4bbbdc65c1ac","system_id":"levelo_inurba_marseille","lat":43.29552,"lon":5.42278,"is_reserved":false,"is_disabled":false,"rental_uris":{"android":"levelo://app?vid=92529803-908f-413b-9cf1-4bbbdc65c1ac","ios":"levelo://app?vid=92529803-908f-413b-9cf1-4bbbdc65c1ac"},"vehicle_type_id":"4","last_reported":1732961358,"current_range_meters":9200,"station_id":"ce4bhph2rcd13ifvqhdg","pricing_plan_id":"cebpf4jnsgd1na2vs0mg"},{"bike_id":"50083385-87a7-4059-b9fe-3253996030c6","system_id":"levelo_inurba_marseille","lat":43.29613,"lon":5.37716,"is_reserved":false,"is_disabled":false,"rental_uris":{"android":"levelo://app?vid=50083385-87a7-4059-b9fe-3253996030c6","ios":"levelo://app?vid=50083385-87a7-4059-b9fe-3253996030c6"},"vehicle_type_id":"4","last_reported":1732961358,"current_range_meters":38800,"station_id":"ce4bgi92rcd13ifvqb90","pricing_plan_id":"cebpf4jnsgd1na2vs0mg"},{"bike_id":"9dd1fc98-a89e-437a-b707-6eb8b3c899e8","system_id":"levelo_inurba_marseille","lat":43.29035,"lon":5.35903,"is_reserved":false,"is_disabled":true,"rental_uris":{"android":"levelo://app?vid=9dd1fc98-a89e-437a-b707-6eb8b3c899e8","ios":"levelo://app?vid=9dd1fc98-a89e-437a-b707-6eb8b3c899e8"},"vehicle_type_id":"4","last_reported":1732961358,"current_range_meters":800,"station_id":"ce4bha92rcd13ifvqeg0","pricing_plan_id":"cebpf4jnsgd1na2vs0mg"},{"bike_id":"d7d12744-0657-4bbb-9ec3-a019aeeb53f1","system_id":"levelo_inurba_marseille","lat":43.27496,"lon":5.42448,"is_reserved":false,"is_disabled":false,"rental_uris":{"android":"levelo://app?vid=d7d12744-0657-4bbb-9ec3-a019aeeb53f1","ios":"levelo://app?vid=d7d12744-0657-4bbb-9ec3-a019aeeb53f1"},"vehicle_type_id":"4","last_reported":1732961358,"current_range_meters":12000,"station_id":"ce4bhn92rcd13ifvqgrg","pricing_plan_id":"cebpf4jnsgd1na2vs0mg"},{"bike_id":"aea6b7a8-fa3c-4842-89c6-693b08a99724","system_id":"levelo_inurba_marseille","lat":43.33765,"lon":5.3743,"is_reserved":false,"is_disabled":false,"rental_uris":{"android":"levelo://app?vid=aea6b7a8-fa3c-4842-89c6-693b08a99724","ios":"levelo://app?vid=aea6b7a8-fa3c-4842-89c6-693b08a99724"},"vehicle_type_id":"4","last_reported":1732961358,"current_range_meters":38800,"station_id":"","pricing_plan_id":"cebpf4jnsgd1na2vs0mg"},{"bike_id":"c0918cd3-98cf-4fae-abb3-f79607ff4070","system_id":"levelo_inurba_marseille","lat":43.30207,"lon":5.39457,"is_reserved":false,"is_disabled":false,"rental_uris":{"android":"levelo://app?vid=c0918cd3-98cf-4fae-abb3-f79607ff4070","ios":"levelo://app?vid=c0918cd3-98cf-4fae-abb3-f79607ff4070"},"vehicle_type_id":"4","last_reported":1732961358,"current_range_meters":30800,"station_id":"ce4bh0p2rcd13ifvqd70","pricing_plan_id":"cebpf4jnsgd1na2vs0mg"},{"bike_id":"a1da46ac-0823-493f-ac56-218330798636","system_id":"levelo_inurba_marseille","lat":43.24398,"lon":5.37073,"is_reserved":false,"is_disabled":false,"rental_uris":{"android":"levelo://app?vid=a1da46ac-0823-493f-ac56-218330798636","ios":"levelo://app?vid=a1da46ac-0823-493f-ac56-218330798636"},"vehicle_type_id":"4","last_reported":1732961358,"current_range_meters":40000,"station_id":"ce4bhhh2rcd13ifvqfk0","pricing_plan_id":"cebpf4jnsgd1na2vs0mg"},{"bike_id":"254753b2-3c2c-47b1-81d9-93da2afc0d6a","system_id":"levelo_inurba_marseille","lat":43.27321,"lon":5.39093,"is_reserved":false,"is_disabled":false,"rental_uris":{"android":"levelo://app?vid=254753b2-3c2c-47b1-81d9-93da2afc0d6a","ios":"levelo://app?vid=254753b2-3c2c-47b1-81d9-93da2afc0d6a"},"vehicle_type_id":"4","last_reported":1732961358,"current_range_meters":40000,"station_id":"ce4bhgp2rcd13ifvqfe0","pricing_plan_id":"cebpf4jnsgd1na2vs0mg"},{"bike_id":"a5909545-3e09-4859-9fda-9ffe4e6e4883","system_id":"levelo_inurba_marseille","lat":43.23066,"lon":5.35492,"is_reserved":false,"is_disabled":false,"rental_uris":{"android":"levelo://app?vid=a5909545-3e09-4859-9fda-9ffe4e6e4883","ios":"levelo://app?vid=a5909545-3e09-4859-9fda-9ffe4e6e4883"},"vehicle_type_id":"4","last_reported":1732961358,"current_range_meters":12000,"station_id":"cpo3342slgdg3j2ifvpg","pricing_plan_id":"cebpf4jnsgd1na2vs0mg"},{"bike_id":"66829440-f9ce-47b6-816b-c77b51a39b44","system_id":"levelo_inurba_marseille","lat":43.29573,"lon":5.37539,"is_reserved":false,"is_disabled":false,"rental_uris":{"android":"levelo://app?vid=66829440-f9ce-47b6-816b-c77b51a39b44","ios":"levelo://app?vid=66829440-f9ce-47b6-816b-c77b51a39b44"},"vehicle_type_id":"4","last_reported":1732961358,"current_range_meters":38800,"station_id":"ce4bgh92rcd13ifvqb50","pricing_plan_id":"cebpf4jnsgd1na2vs0mg"},{"bike_id":"871a6805-1423-41ec-8f7d-2f69f2848db4","system_id":"levelo_inurba_marseille","lat":43.2827,"lon":5.35061,"is_reserved":false,"is_disabled":false,"rental_uris":{"android":"levelo://app?vid=871a6805-1423-41ec-8f7d-2f69f2848db4","ios":"levelo://app?vid=871a6805-1423-41ec-8f7d-2f69f2848db4"},"vehicle_type_id":"4","last_reported":1732961358,"current_range_meters":38800,"station_id":"ce4bhbp2rcd13ifvqerg","pricing_plan_id":"cebpf4jnsgd1na2vs0mg"},{"bike_id":"8a706c0a-83d1-44fa-9127-38cdaec2557e","system_id":"levelo_inurba_marseille","lat":43.31422,"lon":5.39355,"is_reserved":false,"is_disabled":false,"rental_uris":{"android":"levelo://app?vid=8a706c0a-83d1-44fa-9127-38cdaec2557e","ios":"levelo://app?vid=8a706c0a-83d1-44fa-9127-38cdaec2557e"},"vehicle_type_id":"4","last_reported":1732961358,"current_range_meters":38800,"station_id":"","pricing_plan_id":"cebpf4jnsgd1na2vs0mg"},{"bike_id":"78716590-acd8-4375-8266-67d9a41d59a7","system_id":"levelo_inurba_marseille","lat":43.32362,"lon":5.3889,"is_reserved":false,"is_disabled":false,"rental_uris":{"android":"levelo://app?vid=78716590-acd8-4375-8266-67d9a41d59a7","ios":"levelo://app?vid=78716590-acd8-4375-8266-67d9a41d59a7"},"vehicle_type_id":"4","last_reported":1732961358,"current_range_meters":30800,"station_id":"ce4bhqp2rcd13ifvqhog","pricing_plan_id":"cebpf4jnsgd1na2vs0mg"},{"bike_id":"fabbdb44-ac21-4ce9-8ed0-0dc7ba9aad1a","system_id":"levelo_inurba_marseille","lat":43.27493,"lon":5.42451,"is_reserved":false,"is_disabled":false,"rental_uris":{"android":"levelo://app?vid=fabbdb44-ac21-4ce9-8ed0-0dc7ba9aad1a","ios":"levelo://app?vid=fabbdb44-ac21-4ce9-8ed0-0dc7ba9aad1a"},"vehicle_type_id":"4","last_reported":1732961358,"current_range_meters":30800,"station_id":"ce4bhn92rcd13ifvqgrg","pricing_plan_id":"cebpf4jnsgd1na2vs0mg"},{"bike_id":"645c606c-68ed-422b-af50-4155f76d4c2c","system_id":"levelo_inurba_marseille","lat":43.3015,"lon":5.38077,"is_reserved":false,"is_disabled":false,"rental_uris":{"android":"levelo://app?vid=645c606c-68ed-422b-af50-4155f76d4c2c","ios":"levelo://app?vid=645c606c-68ed-422b-af50-4155f76d4c2c"},"vehicle_type_id":"4","last_reported":1732961358,"current_range_meters":22800,"station_id":"ce4bgjp2rcd13ifvqbh0","pricing_plan_id":"cebpf4jnsgd1na2vs0mg"},{"bike_id":"e5951ee3-4a5a-4ebb-b469-096c5188dfa3","system_id":"levelo_inurba_marseille","lat":43.2318,"lon":5.35548,"is_reserved":false,"is_disabled":false,"rental_uris":{"android":"levelo://app?vid=e5951ee3-4a5a-4ebb-b469-096c5188dfa3","ios":"levelo://app?vid=e5951ee3-4a5a-4ebb-b469-096c5188dfa3"},"vehicle_type_id":"4","last_reported":1732961358,"current_range_meters":20000,"station_id":"ce4bhu92rcd13ifvqi70","pricing_plan_id":"cebpf4jnsgd1na2vs0mg"},{"bike_id":"f9a63393-5401-4f98-ae5a-dfbb8291ab6d","system_id":"levelo_inurba_marseille","lat":43.3004,"lon":5.37551,"is_reserved":false,"is_disabled":true,"rental_uris":{"android":"levelo://app?vid=f9a63393-5401-4f98-ae5a-dfbb8291ab6d","ios":"levelo://app?vid=f9a63393-5401-4f98-ae5a-dfbb8291ab6d"},"vehicle_type_id":"4","last_reported":1732961358,"current_range_meters":0,"station_id":"","pricing_plan_id":"cebpf4jnsgd1na2vs0mg"},{"bike_id":"d2300a67-e59d-4c6d-84e8-89c1777cddcc","system_id":"levelo_inurba_marseille","lat":43.31993,"lon":5.38149,"is_reserved":false,"is_disabled":false,"rental_uris":{"android":"levelo://app?vid=d2300a67-e59d-4c6d-84e8-89c1777cddcc","ios":"levelo://app?vid=d2300a67-e59d-4c6d-84e8-89c1777cddcc"},"vehicle_type_id":"4","last_reported":1732961358,"current_range_meters":40000,"station_id":"ce4bhr12rcd13ifvqhpg","pricing_plan_id":"cebpf4jnsgd1na2vs0mg"},{"bike_id":"aacfb94e-cf9a-4099-ab69-41176bf99d01","system_id":"levelo_inurba_marseille","lat":43.24663,"lon":5.3815,"is_reserved":false,"is_disabled":false,"rental_uris":{"android":"levelo://app?vid=aacfb94e-cf9a-4099-ab69-41176bf99d01","ios":"levelo://app?vid=aacfb94e-cf9a-4099-ab69-41176bf99d01"},"vehicle_type_id":"4","last_reported":1732961358,"current_range_meters":21600,"station_id":"ce4bhih2rcd13ifvqfr0","pricing_plan_id":"cebpf4jnsgd1na2vs0mg"},{"bike_id":"5ab87102-19d3-4ee9-804a-df45b252673a","system_id":"levelo_inurba_marseille","lat":43.30275,"lon":5.37695,"is_reserved":false,"is_disabled":false,"rental_uris":{"android":"levelo://app?vid=5ab87102-19d3-4ee9-804a-df45b252673a","ios":"levelo://app?vid=5ab87102-19d3-4ee9-804a-df45b252673a"},"vehicle_type_id":"4","last_reported":1732961358,"current_range_meters":22000,"station_id":"ce4bguh2rcd13ifvqcj0","pricing_plan_id":"cebpf4jnsgd1na2vs0mg"},{"bike_id":"209edce5-94bd-42b7-894c-233f806592a5","system_id":"levelo_inurba_marseille","lat":43.32357,"lon":5.36756,"is_reserved":false,"is_disabled":false,"rental_uris":{"android":"levelo://app?vid=209edce5-94bd-42b7-894c-233f806592a5","ios":"levelo://app?vid=209edce5-94bd-42b7-894c-233f806592a5"},"vehicle_type_id":"4","last_reported":1732961358,"current_range_meters":28800,"station_id":"ce4bhsh2rcd13ifvqi2g","pricing_plan_id":"cebpf4jnsgd1na2vs0mg"},{"bike_id":"e62ebbbc-8f67-42b0-94da-0372a0dcfd95","system_id":"levelo_inurba_marseille","lat":43.31671,"lon":5.37767,"is_reserved":false,"is_disabled":false,"rental_uris":{"android":"levelo://app?vid=e62ebbbc-8f67-42b0-94da-0372a0dcfd95","ios":"levelo://app?vid=e62ebbbc-8f67-42b0-94da-0372a0dcfd95"},"vehicle_type_id":"4","last_reported":1732961358,"current_range_meters":40000,"station_id":"ce4bgth2rcd13ifvqch0","pricing_plan_id":"cebpf4jnsgd1na2vs0mg"},{"bike_id":"efbc4d20-bdec-45eb-8f74-c8ad3b7ba3bb","system_id":"levelo_inurba_marseille","lat":43.23063,"lon":5.35494,"is_reserved":false,"is_disabled":false,"rental_uris":{"android":"levelo://app?vid=efbc4d20-bdec-45eb-8f74-c8ad3b7ba3bb","ios":"levelo://app?vid=efbc4d20-bdec-45eb-8f74-c8ad3b7ba3bb"},"vehicle_type_id":"4","last_reported":1732961358,"current_range_meters":28000,"station_id":"cpo3342slgdg3j2ifvpg","pricing_plan_id":"cebpf4jnsgd1na2vs0mg"},{"bike_id":"bba82484-d6d2-4eb9-a24b-0fee4128de51","system_id":"levelo_inurba_marseille","lat":43.30132,"lon":5.38777,"is_reserved":false,"is_disabled":false,"rental_uris":{"android":"levelo://app?vid=bba82484-d6d2-4eb9-a24b-0fee4128de51","ios":"levelo://app?vid=bba82484-d6d2-4eb9-a24b-0fee4128de51"},"vehicle_type_id":"4","last_reported":1732961358,"current_range_meters":38800,"station_id":"ce4bghh2rcd13ifvqb60","pricing_plan_id":"cebpf4jnsgd1na2vs0mg"},{"bike_id":"a1de088e-f9bc-437b-86db-027b9d5a0352","system_id":"levelo_inurba_marseille","lat":43.33023,"lon":5.3904,"is_reserved":false,"is_disabled":false,"rental_uris":{"android":"levelo://app?vid=a1de088e-f9bc-437b-86db-027b9d5a0352","ios":"levelo://app?vid=a1de088e-f9bc-437b-86db-027b9d5a0352"},"vehicle_type_id":"4","last_reported":1732961358,"current_range_meters":36800,"station_id":"ce4bhr92rcd13ifvqhrg","pricing_plan_id":"cebpf4jnsgd1na2vs0mg"},{"bike_id":"38798db8-5bd5-4792-b41b-6f809d1b1c45","system_id":"levelo_inurba_marseille","lat":43.31992,"lon":5.38161,"is_reserved":false,"is_disabled":false,"rental_uris":{"android":"levelo://app?vid=38798db8-5bd5-4792-b41b-6f809d1b1c45","ios":"levelo://app?vid=38798db8-5bd5-4792-b41b-6f809d1b1c45"},"vehicle_type_id":"4","last_reported":1732961358,"current_range_meters":19200,"station_id":"ce4bhr12rcd13ifvqhpg","pricing_plan_id":"cebpf4jnsgd1na2vs0mg"},{"bike_id":"375f3ff8-f817-4dea-ba6a-e7f3d0cf2b56","system_id":"levelo_inurba_marseille","lat":43.28035,"lon":5.36943,"is_reserved":false,"is_disabled":false,"rental_uris":{"android":"levelo://app?vid=375f3ff8-f817-4dea-ba6a-e7f3d0cf2b56","ios":"levelo://app?vid=375f3ff8-f817-4dea-ba6a-e7f3d0cf2b56"},"vehicle_type_id":"4","last_reported":1732961358,"current_range_meters":38800,"station_id":"ce4bha12rcd13ifvqef0","pricing_plan_id":"cebpf4jnsgd1na2vs0mg"},{"bike_id":"e05ac5be-d807-4203-8b20-bdb26cceefb0","system_id":"levelo_inurba_marseille","lat":43.31753,"lon":5.39016,"is_reserved":false,"is_disabled":false,"rental_uris":{"android":"levelo://app?vid=e05ac5be-d807-4203-8b20-bdb26cceefb0","ios":"levelo://app?vid=e05ac5be-d807-4203-8b20-bdb26cceefb0"},"vehicle_type_id":"4","last_reported":1732961358,"current_range_meters":35600,"station_id":"ce4bhqp2rcd13ifvqhng","pricing_plan_id":"cebpf4jnsgd1na2vs0mg"},{"bike_id":"71b394c8-44f0-4b8b-960b-00007bd158f0","system_id":"levelo_inurba_marseille","lat":43.31271,"lon":5.40163,"is_reserved":false,"is_disabled":false,"rental_uris":{"android":"levelo://app?vid=71b394c8-44f0-4b8b-960b-00007bd158f0","ios":"levelo://app?vid=71b394c8-44f0-4b8b-960b-00007bd158f0"},"vehicle_type_id":"4","last_reported":1732961358,"current_range_meters":28400,"station_id":"ce4bh092rcd13ifvqd30","pricing_plan_id":"cebpf4jnsgd1na2vs0mg"},{"bike_id":"c43fffd1-108f-4493-9c53-d2971d2b16a2","system_id":"levelo_inurba_marseille","lat":43.32919,"lon":5.4156,"is_reserved":false,"is_disabled":false,"rental_uris":{"android":"levelo://app?vid=c43fffd1-108f-4493-9c53-d2971d2b16a2","ios":"levelo://app?vid=c43fffd1-108f-4493-9c53-d2971d2b16a2"},"vehicle_type_id":"4","last_reported":1732961358,"current_range_meters":21600,"station_id":"","pricing_plan_id":"cebpf4jnsgd1na2vs0mg"},{"bike_id":"cf002d38-17c9-44fd-9354-c7910c4bd3ff","system_id":"levelo_inurba_marseille","lat":43.33024,"lon":5.3903,"is_reserved":false,"is_disabled":false,"rental_uris":{"android":"levelo://app?vid=cf002d38-17c9-44fd-9354-c7910c4bd3ff","ios":"levelo://app?vid=cf002d38-17c9-44fd-9354-c7910c4bd3ff"},"vehicle_type_id":"4","last_reported":1732961358,"current_range_meters":38000,"station_id":"ce4bhr92rcd13ifvqhrg","pricing_plan_id":"cebpf4jnsgd1na2vs0mg"},{"bike_id":"e65d76f7-38a6-44f9-98cd-8b7f39f1f9cf","system_id":"levelo_inurba_marseille","lat":43.27374,"lon":5.36265,"is_reserved":false,"is_disabled":false,"rental_uris":{"android":"levelo://app?vid=e65d76f7-38a6-44f9-98cd-8b7f39f1f9cf","ios":"levelo://app?vid=e65d76f7-38a6-44f9-98cd-8b7f39f1f9cf"},"vehicle_type_id":"4","last_reported":1732961358,"current_range_meters":19200,"station_id":"ce4bhbh2rcd13ifvqeo0","pricing_plan_id":"cebpf4jnsgd1na2vs0mg"},{"bike_id":"ccba872b-b73e-4c65-9348-bf2fa2550f0e","system_id":"levelo_inurba_marseille","lat":43.29293,"lon":5.3746,"is_reserved":false,"is_disabled":false,"rental_uris":{"android":"levelo://app?vid=ccba872b-b73e-4c65-9348-bf2fa2550f0e","ios":"levelo://app?vid=ccba872b-b73e-4c65-9348-bf2fa2550f0e"},"vehicle_type_id":"4","last_reported":1732961358,"current_range_meters":39200,"station_id":"ce4bgi12rcd13ifvqb70","pricing_plan_id":"cebpf4jnsgd1na2vs0mg"},{"bike_id":"b3432a20-077b-419a-ad77-9c64a7c21f79","system_id":"levelo_inurba_marseille","lat":43.30324,"lon":5.40434,"is_reserved":false,"is_disabled":false,"rental_uris":{"android":"levelo://app?vid=b3432a20-077b-419a-ad77-9c64a7c21f79","ios":"levelo://app?vid=b3432a20-077b-419a-ad77-9c64a7c21f79"},"vehicle_type_id":"4","last_reported":1732961358,"current_range_meters":26000,"station_id":"ce4bh012rcd13ifvqd10","pricing_plan_id":"cebpf4jnsgd1na2vs0mg"},{"bike_id":"43746d86-8a13-4845-9faf-ae69b548d714","system_id":"levelo_inurba_marseille","lat":43.29459,"lon":5.37917,"is_reserved":false,"is_disabled":true,"rental_uris":{"android":"levelo://app?vid=43746d86-8a13-4845-9faf-ae69b548d714","ios":"levelo://app?vid=43746d86-8a13-4845-9faf-ae69b548d714"},"vehicle_type_id":"4","last_reported":1732961358,"current_range_meters":0,"station_id":"","pricing_plan_id":"cebpf4jnsgd1na2vs0mg"},{"bike_id":"b99d912f-5dc0-4792-8912-e0c60fda2b57","system_id":"levelo_inurba_marseille","lat":43.23053,"lon":5.35484,"is_reserved":false,"is_disabled":false,"rental_uris":{"android":"levelo://app?vid=b99d912f-5dc0-4792-8912-e0c60fda2b57","ios":"levelo://app?vid=b99d912f-5dc0-4792-8912-e0c60fda2b57"},"vehicle_type_id":"4","last_reported":1732961358,"current_range_meters":39200,"station_id":"cpo3342slgdg3j2ifvpg","pricing_plan_id":"cebpf4jnsgd1na2vs0mg"},{"bike_id":"1665090c-d6bc-4de6-b530-613846e90070","system_id":"levelo_inurba_marseille","lat":43.31362,"lon":5.38494,"is_reserved":false,"is_disabled":false,"rental_uris":{"android":"levelo://app?vid=1665090c-d6bc-4de6-b530-613846e90070","ios":"levelo://app?vid=1665090c-d6bc-4de6-b530-613846e90070"},"vehicle_type_id":"4","last_reported":1732961358,"current_range_meters":26800,"station_id":"ce4bgt92rcd13ifvqcf0","pricing_plan_id":"cebpf4jnsgd1na2vs0mg"},{"bike_id":"91c69d73-d24d-493d-a22e-00d0c945bccd","system_id":"levelo_inurba_marseille","lat":43.33722,"lon":5.37441,"is_reserved":false,"is_disabled":false,"rental_uris":{"android":"levelo://app?vid=91c69d73-d24d-493d-a22e-00d0c945bccd","ios":"levelo://app?vid=91c69d73-d24d-493d-a22e-00d0c945bccd"},"vehicle_type_id":"4","last_reported":1732961358,"current_range_meters":38800,"station_id":"","pricing_plan_id":"cebpf4jnsgd1na2vs0mg"},{"bike_id":"c2c7a25f-2a4f-47f4-9d59-0df2952b91be","system_id":"levelo_inurba_marseille","lat":43.30148,"lon":5.38067,"is_reserved":false,"is_disabled":false,"rental_uris":{"android":"levelo://app?vid=c2c7a25f-2a4f-47f4-9d59-0df2952b91be","ios":"levelo://app?vid=c2c7a25f-2a4f-47f4-9d59-0df2952b91be"},"vehicle_type_id":"4","last_reported":1732961358,"current_range_meters":15200,"station_id":"ce4bgjp2rcd13ifvqbh0","pricing_plan_id":"cebpf4jnsgd1na2vs0mg"},{"bike_id":"2128ca5f-479c-4e9b-909a-d8926555554b","system_id":"levelo_inurba_marseille","lat":43.24808,"lon":5.37456,"is_reserved":false,"is_disabled":false,"rental_uris":{"android":"levelo://app?vid=2128ca5f-479c-4e9b-909a-d8926555554b","ios":"levelo://app?vid=2128ca5f-479c-4e9b-909a-d8926555554b"},"vehicle_type_id":"4","last_reported":1732961358,"current_range_meters":32000,"station_id":"ce4bhgh2rcd13ifvqfb0","pricing_plan_id":"cebpf4jnsgd1na2vs0mg"},{"bike_id":"004808dd-897a-450f-9d03-3436370a1db6","system_id":"levelo_inurba_marseille","lat":43.29268,"lon":5.36847,"is_reserved":false,"is_disabled":false,"rental_uris":{"android":"levelo://app?vid=004808dd-897a-450f-9d03-3436370a1db6","ios":"levelo://app?vid=004808dd-897a-450f-9d03-3436370a1db6"},"vehicle_type_id":"4","last_reported":1732961358,"current_range_meters":32400,"station_id":"ce4bhbp2rcd13ifvqesg","pricing_plan_id":"cebpf4jnsgd1na2vs0mg"},{"bike_id":"4b9c7681-507a-4563-b64e-42649b13b2ea","system_id":"levelo_inurba_marseille","lat":43.30535,"lon":5.36554,"is_reserved":false,"is_disabled":false,"rental_uris":{"android":"levelo://app?vid=4b9c7681-507a-4563-b64e-42649b13b2ea","ios":"levelo://app?vid=4b9c7681-507a-4563-b64e-42649b13b2ea"},"vehicle_type_id":"4","last_reported":1732961358,"current_range_meters":14000,"station_id":"ce4bgs12rcd13ifvqcag","pricing_plan_id":"cebpf4jnsgd1na2vs0mg"},{"bike_id":"8224d37b-5677-43f5-94bd-2373379da771","system_id":"levelo_inurba_marseille","lat":43.29614,"lon":5.37723,"is_reserved":false,"is_disabled":false,"rental_uris":{"android":"levelo://app?vid=8224d37b-5677-43f5-94bd-2373379da771","ios":"levelo://app?vid=8224d37b-5677-43f5-94bd-2373379da771"},"vehicle_type_id":"4","last_reported":1732961358,"current_range_meters":33600,"station_id":"ce4bgi92rcd13ifvqb90","pricing_plan_id":"cebpf4jnsgd1na2vs0mg"},{"bike_id":"0931d803-eb8c-41d3-bde0-19f913a96fb7","system_id":"levelo_inurba_marseille","lat":43.2693,"lon":5.38933,"is_reserved":false,"is_disabled":false,"rental_uris":{"android":"levelo://app?vid=0931d803-eb8c-41d3-bde0-19f913a96fb7","ios":"levelo://app?vid=0931d803-eb8c-41d3-bde0-19f913a96fb7"},"vehicle_type_id":"4","last_reported":1732961358,"current_range_meters":38800,"station_id":"ce4bhhh2rcd13ifvqfl0","pricing_plan_id":"cebpf4jnsgd1na2vs0mg"},{"bike_id":"15e24c31-4292-4084-bcd3-e24f0a31685e","system_id":"levelo_inurba_marseille","lat":43.28421,"lon":5.34975,"is_reserved":false,"is_disabled":true,"rental_uris":{"android":"levelo://app?vid=15e24c31-4292-4084-bcd3-e24f0a31685e","ios":"levelo://app?vid=15e24c31-4292-4084-bcd3-e24f0a31685e"},"vehicle_type_id":"4","last_reported":1732961358,"current_range_meters":36000,"station_id":"ce4bhbh2rcd13ifvqepg","pricing_plan_id":"cebpf4jnsgd1na2vs0mg"},{"bike_id":"579ec052-1a9b-4b33-b6e7-3ce0d78a27eb","system_id":"levelo_inurba_marseille","lat":43.32486,"lon":5.36563,"is_reserved":false,"is_disabled":false,"rental_uris":{"android":"levelo://app?vid=579ec052-1a9b-4b33-b6e7-3ce0d78a27eb","ios":"levelo://app?vid=579ec052-1a9b-4b33-b6e7-3ce0d78a27eb"},"vehicle_type_id":"4","last_reported":1732961358,"current_range_meters":40000,"station_id":"ce4bhs12rcd13ifvqhvg","pricing_plan_id":"cebpf4jnsgd1na2vs0mg"},{"bike_id":"ed2e18cb-6b73-482a-997d-872d2e2185a6","system_id":"levelo_inurba_marseille","lat":43.22931,"lon":5.35372,"is_reserved":false,"is_disabled":false,"rental_uris":{"android":"levelo://app?vid=ed2e18cb-6b73-482a-997d-872d2e2185a6","ios":"levelo://app?vid=ed2e18cb-6b73-482a-997d-872d2e2185a6"},"vehicle_type_id":"4","last_reported":1732961358,"current_range_meters":39200,"station_id":"cpo3532slgdg3j2ikp40","pricing_plan_id":"cebpf4jnsgd1na2vs0mg"},{"bike_id":"440509d6-19f4-4c85-ba22-2ca6ecc0188d","system_id":"levelo_inurba_marseille","lat":43.31997,"lon":5.38164,"is_reserved":false,"is_disabled":false,"rental_uris":{"android":"levelo://app?vid=440509d6-19f4-4c85-ba22-2ca6ecc0188d","ios":"levelo://app?vid=440509d6-19f4-4c85-ba22-2ca6ecc0188d"},"vehicle_type_id":"4","last_reported":1732961358,"current_range_meters":16400,"station_id":"ce4bhr12rcd13ifvqhpg","pricing_plan_id":"cebpf4jnsgd1na2vs0mg"},{"bike_id":"fc4d15f5-6256-45a3-90d6-77bb4c676955","system_id":"levelo_inurba_marseille","lat":43.296284,"lon":5.377877,"is_reserved":false,"is_disabled":true,"rental_uris":{"android":"levelo://app?vid=fc4d15f5-6256-45a3-90d6-77bb4c676955","ios":"levelo://app?vid=fc4d15f5-6256-45a3-90d6-77bb4c676955"},"vehicle_type_id":"4","last_reported":1732961358,"current_range_meters":25200,"station_id":"","pricing_plan_id":"cebpf4jnsgd1na2vs0mg"},{"bike_id":"2a4047cf-1cea-4672-a119-b09835986d44","system_id":"levelo_inurba_marseille","lat":43.25,"lon":5.38924,"is_reserved":false,"is_disabled":false,"rental_uris":{"android":"levelo://app?vid=2a4047cf-1cea-4672-a119-b09835986d44","ios":"levelo://app?vid=2a4047cf-1cea-4672-a119-b09835986d44"},"vehicle_type_id":"4","last_reported":1732961358,"current_range_meters":24800,"station_id":"ce4bhgp2rcd13ifvqfd0","pricing_plan_id":"cebpf4jnsgd1na2vs0mg"},{"bike_id":"c88f8730-1176-4717-97e2-17c27b15274f","system_id":"levelo_inurba_marseille","lat":43.23192,"lon":5.35543,"is_reserved":false,"is_disabled":false,"rental_uris":{"android":"levelo://app?vid=c88f8730-1176-4717-97e2-17c27b15274f","ios":"levelo://app?vid=c88f8730-1176-4717-97e2-17c27b15274f"},"vehicle_type_id":"4","last_reported":1732961358,"current_range_meters":40000,"station_id":"ce4bhu92rcd13ifvqi70","pricing_plan_id":"cebpf4jnsgd1na2vs0mg"},{"bike_id":"d7c1f25e-1e97-4ab4-8a2d-2e2487c5ee32","system_id":"levelo_inurba_marseille","lat":43.27203,"lon":5.39178,"is_reserved":false,"is_disabled":false,"rental_uris":{"android":"levelo://app?vid=d7c1f25e-1e97-4ab4-8a2d-2e2487c5ee32","ios":"levelo://app?vid=d7c1f25e-1e97-4ab4-8a2d-2e2487c5ee32"},"vehicle_type_id":"4","last_reported":1732961358,"current_range_meters":17200,"station_id":"ce4bhhp2rcd13ifvqfm0","pricing_plan_id":"cebpf4jnsgd1na2vs0mg"},{"bike_id":"a16afe75-0fd4-4a69-b96a-bb6ed635780c","system_id":"levelo_inurba_marseille","lat":43.31121,"lon":5.3778,"is_reserved":false,"is_disabled":true,"rental_uris":{"android":"levelo://app?vid=a16afe75-0fd4-4a69-b96a-bb6ed635780c","ios":"levelo://app?vid=a16afe75-0fd4-4a69-b96a-bb6ed635780c"},"vehicle_type_id":"4","last_reported":1732961358,"current_range_meters":22400,"station_id":"ce4bgt92rcd13ifvqcg0","pricing_plan_id":"cebpf4jnsgd1na2vs0mg"},{"bike_id":"da719756-3742-4209-8d60-b3804f08c501","system_id":"levelo_inurba_marseille","lat":43.29734,"lon":5.38041,"is_reserved":false,"is_disabled":false,"rental_uris":{"android":"levelo://app?vid=da719756-3742-4209-8d60-b3804f08c501","ios":"levelo://app?vid=da719756-3742-4209-8d60-b3804f08c501"},"vehicle_type_id":"4","last_reported":1732961358,"current_range_meters":28800,"station_id":"","pricing_plan_id":"cebpf4jnsgd1na2vs0mg"},{"bike_id":"0b06252e-4c17-4f22-bfc5-7638af6f342f","system_id":"levelo_inurba_marseille","lat":43.3089,"lon":5.39652,"is_reserved":false,"is_disabled":false,"rental_uris":{"android":"levelo://app?vid=0b06252e-4c17-4f22-bfc5-7638af6f342f","ios":"levelo://app?vid=0b06252e-4c17-4f22-bfc5-7638af6f342f"},"vehicle_type_id":"4","last_reported":1732961358,"current_range_meters":34000,"station_id":"ce4bh012rcd13ifvqcv0","pricing_plan_id":"cebpf4jnsgd1na2vs0mg"},{"bike_id":"5547a441-9653-482c-905c-97a54076438b","system_id":"levelo_inurba_marseille","lat":43.32362,"lon":5.36758,"is_reserved":false,"is_disabled":false,"rental_uris":{"android":"levelo://app?vid=5547a441-9653-482c-905c-97a54076438b","ios":"levelo://app?vid=5547a441-9653-482c-905c-97a54076438b"},"vehicle_type_id":"4","last_reported":1732961358,"current_range_meters":16000,"station_id":"ce4bhsh2rcd13ifvqi2g","pricing_plan_id":"cebpf4jnsgd1na2vs0mg"},{"bike_id":"a2308804-e7d3-4fa3-bb72-4f237c485681","system_id":"levelo_inurba_marseille","lat":43.29581,"lon":5.38104,"is_reserved":false,"is_disabled":false,"rental_uris":{"android":"levelo://app?vid=a2308804-e7d3-4fa3-bb72-4f237c485681","ios":"levelo://app?vid=a2308804-e7d3-4fa3-bb72-4f237c485681"},"vehicle_type_id":"4","last_reported":1732961358,"current_range_meters":28800,"station_id":"ce4bgl12rcd13ifvqbo0","pricing_plan_id":"cebpf4jnsgd1na2vs0mg"},{"bike_id":"af465613-ea2e-4c6e-b2ce-111c8ea45991","system_id":"levelo_inurba_marseille","lat":43.29805,"lon":5.38096,"is_reserved":false,"is_disabled":false,"rental_uris":{"android":"levelo://app?vid=af465613-ea2e-4c6e-b2ce-111c8ea45991","ios":"levelo://app?vid=af465613-ea2e-4c6e-b2ce-111c8ea45991"},"vehicle_type_id":"4","last_reported":1732961358,"current_range_meters":39200,"station_id":"ce4bgip2rcd13ifvqbb0","pricing_plan_id":"cebpf4jnsgd1na2vs0mg"},{"bike_id":"af4aea72-ff88-49b5-8f41-06cfcdc04967","system_id":"levelo_inurba_marseille","lat":43.29274,"lon":5.36847,"is_reserved":false,"is_disabled":false,"rental_uris":{"android":"levelo://app?vid=af4aea72-ff88-49b5-8f41-06cfcdc04967","ios":"levelo://app?vid=af4aea72-ff88-49b5-8f41-06cfcdc04967"},"vehicle_type_id":"4","last_reported":1732961358,"current_range_meters":38800,"station_id":"ce4bhbp2rcd13ifvqesg","pricing_plan_id":"cebpf4jnsgd1na2vs0mg"},{"bike_id":"2545b486-f597-4ecd-8508-05df785b0c49","system_id":"levelo_inurba_marseille","lat":43.33021,"lon":5.39036,"is_reserved":false,"is_disabled":false,"rental_uris":{"android":"levelo://app?vid=2545b486-f597-4ecd-8508-05df785b0c49","ios":"levelo://app?vid=2545b486-f597-4ecd-8508-05df785b0c49"},"vehicle_type_id":"4","last_reported":1732961358,"current_range_meters":40000,"station_id":"ce4bhr92rcd13ifvqhrg","pricing_plan_id":"cebpf4jnsgd1na2vs0mg"},{"bike_id":"615d3b9c-5cdd-4442-8e0c-b2ac0c975d11","system_id":"levelo_inurba_marseille","lat":43.29531,"lon":5.42268,"is_reserved":false,"is_disabled":false,"rental_uris":{"android":"levelo://app?vid=615d3b9c-5cdd-4442-8e0c-b2ac0c975d11","ios":"levelo://app?vid=615d3b9c-5cdd-4442-8e0c-b2ac0c975d11"},"vehicle_type_id":"4","last_reported":1732961358,"current_range_meters":37600,"station_id":"ce4bhph2rcd13ifvqhdg","pricing_plan_id":"cebpf4jnsgd1na2vs0mg"},{"bike_id":"6b24c5f9-0bdb-4efc-aae5-a9650fb06268","system_id":"levelo_inurba_marseille","lat":43.28689,"lon":5.37397,"is_reserved":false,"is_disabled":false,"rental_uris":{"android":"levelo://app?vid=6b24c5f9-0bdb-4efc-aae5-a9650fb06268","ios":"levelo://app?vid=6b24c5f9-0bdb-4efc-aae5-a9650fb06268"},"vehicle_type_id":"4","last_reported":1732961358,"current_range_meters":24800,"station_id":"ce4bh3p2rcd13ifvqdq0","pricing_plan_id":"cebpf4jnsgd1na2vs0mg"},{"bike_id":"3706f00c-7610-4309-9ec3-4d261b0805c8","system_id":"levelo_inurba_marseille","lat":43.28155,"lon":5.42638,"is_reserved":false,"is_disabled":false,"rental_uris":{"android":"levelo://app?vid=3706f00c-7610-4309-9ec3-4d261b0805c8","ios":"levelo://app?vid=3706f00c-7610-4309-9ec3-4d261b0805c8"},"vehicle_type_id":"4","last_reported":1732961358,"current_range_meters":8000,"station_id":"ce4bhnh2rcd13ifvqgug","pricing_plan_id":"cebpf4jnsgd1na2vs0mg"},{"bike_id":"9bc8c65a-39ab-4760-9bd4-98cf64dfeec4","system_id":"levelo_inurba_marseille","lat":43.24165,"lon":5.36405,"is_reserved":false,"is_disabled":false,"rental_uris":{"android":"levelo://app?vid=9bc8c65a-39ab-4760-9bd4-98cf64dfeec4","ios":"levelo://app?vid=9bc8c65a-39ab-4760-9bd4-98cf64dfeec4"},"vehicle_type_id":"4","last_reported":1732961358,"current_range_meters":30800,"station_id":"cpo36qri1sfpv3e86is0","pricing_plan_id":"cebpf4jnsgd1na2vs0mg"},{"bike_id":"ffd6ac5a-1647-4022-a952-8e350b5c2b83","system_id":"levelo_inurba_marseille","lat":43.29025,"lon":5.38125,"is_reserved":false,"is_disabled":false,"rental_uris":{"android":"levelo://app?vid=ffd6ac5a-1647-4022-a952-8e350b5c2b83","ios":"levelo://app?vid=ffd6ac5a-1647-4022-a952-8e350b5c2b83"},"vehicle_type_id":"4","last_reported":1732961358,"current_range_meters":14000,"station_id":"ce4bh4p2rcd13ifvqe1g","pricing_plan_id":"cebpf4jnsgd1na2vs0mg"},{"bike_id":"01d00df7-0ade-410a-bceb-7170f764784f","system_id":"levelo_inurba_marseille","lat":43.25578,"lon":5.38245,"is_reserved":false,"is_disabled":false,"rental_uris":{"android":"levelo://app?vid=01d00df7-0ade-410a-bceb-7170f764784f","ios":"levelo://app?vid=01d00df7-0ade-410a-bceb-7170f764784f"},