{"last_updated":1740946147,"ttl":60,"version":"2.2","data":{"bikes":[{"bike_id":"2fcd25b0-c421-4d0f-ba30-5f6f5ff608f3","system_id":"levelo_inurba_marseille","lat":43.30765,"lon":5.38605,"is_reserved":false,"is_disabled":true,"rental_uris":{"android":"levelo://app?vid=2fcd25b0-c421-4d0f-ba30-5f6f5ff608f3","ios":"levelo://app?vid=2fcd25b0-c421-4d0f-ba30-5f6f5ff608f3"},"vehicle_type_id":"4","last_reported":1740946148,"current_range_meters":0,"station_id":"","pricing_plan_id":"cebpf4jnsgd1na2vs0mg"},{"bike_id":"819fc6fd-4768-4c11-82f9-0b5fd0b62d4a","system_id":"levelo_inurba_marseille","lat":43.342503,"lon":5.378017,"is_reserved":false,"is_disabled":true,"rental_uris":{"android":"levelo://app?vid=819fc6fd-4768-4c11-82f9-0b5fd0b62d4a","ios":"levelo://app?vid=819fc6fd-4768-4c11-82f9-0b5fd0b62d4a"},"vehicle_type_id":"4","last_reported":1740946148,"current_range_meters":0,"station_id":"","pricing_plan_id":"cebpf4jnsgd1na2vs0mg"},{"bike_id":"303c2b96-5131-48b9-8dd0-e5a82865f4bc","system_id":"levelo_inurba_marseille","lat":43.35354,"lon":5.36559,"is_reserved":false,"is_disabled":true,"rental_uris":{"android":"levelo://app?vid=303c2b96-5131-48b9-8dd0-e5a82865f4bc","ios":"levelo://app?vid=303c2b96-5131-48b9-8dd0-e5a82865f4bc"},"vehicle_type_id":"4","last_reported":1740946148,"current_range_meters":0,"station_id":"","pricing_plan_id":"cebpf4jnsgd1na2vs0mg"},{"bike_id":"d5458f89-73a3-43f1-9894-000389f52995","system_id":"levelo_inurba_marseille","lat":43.2762,"lon":5.415,"is_reserved":false,"is_disabled":true,"rental_uris":{"android":"levelo://app?vid=d5458f89-73a3-43f1-9894-000389f52995","ios":"levelo://app?vid=d5458f89-73a3-43f1-9894-000389f52995"},"vehicle_type_id":"4","last_reported":1740946148,"current_range_meters":0,"station_id":"","pricing_plan_id":"cebpf4jnsgd1na2vs0mg"},{"bike_id":"ea6a02cb-3810-403c-ab47-423df20fff9f","system_id":"levelo_inurba_marseille","lat":43.28852,"lon":5.44863,"is_reserved":false,"is_disabled":true,"rental_uris":{"android":"levelo://app?vid=ea6a02cb-3810-403c-ab47-423df20fff9f","ios":"levelo://app?vid=ea6a02cb-3810-403c-ab47-423df20fff9f"},"vehicle_type_id":"4","last_reported":1740946148,"current_range_meters":0,"station_id":"","pricing_plan_id":"cebpf4jnsgd1na2vs0mg"},{"bike_id":"afcec8eb-28d8-4889-8879-0897cb5957e3","system_id":"levelo_inurba_marseille","lat":43.28002,"lon":5.40565,"is_reserved":false,"is_disabled":true,"rental_uris":{"android":"levelo://app?vid=afcec8eb-28d8-4889-8879-0897cb5957e3","ios":"levelo://app?vid=afcec8eb-28d8-4889-8879-0897cb5957e3"},"vehicle_type_id":"4","last_reported":1740946148,"current_range_meters":0,"station_id":"","pricing_plan_id":"cebpf4jnsgd1na2vs0mg"},{"bike_id":"7299c7f5-b19a-415a-98fb-92e8f867f54e","system_id":"levelo_inurba_marseille","lat":43.31682,"lon":5.39706,"is_reserved":false,"is_disabled":true,"rental_uris":{"android":"levelo://app?vid=7299c7f5-b19a-415a-98fb-92e8f867f54e","ios":"levelo://app?vid=7299c7f5-b19a-415a-98fb-92e8f867f54e"},"vehicle_type_id":"4","last_reported":1740946148,"current_range_meters":0,"station_id":"","pricing_plan_id":"cebpf4jnsgd1na2vs0mg"},{"bike_id":"d5de36dd-5d22-4765-8f01-09ddd8b02c2e","system_id":"levelo_inurba_marseille","lat":43.32957,"lon":5.40891,"is_reserved":false,"is_disabled":true,"rental_uris":{"android":"levelo://app?vid=d5de36dd-5d22-4765-8f01-09ddd8b02c2e","ios":"levelo://app?vid=d5de36dd-5d22-4765-8f01-09ddd8b02c2e"},"vehicle_type_id":"4","last_reported":1740946148,"current_range_meters":0,"station_id":"","pricing_plan_id":"cebpf4jnsgd1na2vs0mg"},{"bike_id":"aa37c472-82c2-4d53-879a-25881fca771e","system_id":"levelo_inurba_marseille","lat":43.31223,"lon":5.36854,"is_reserved":false,"is_disabled":true,"rental_uris":{"android":"levelo://app?vid=aa37c472-82c2-4d53-879a-25881fca771e","ios":"levelo://app?vid=aa37c472-82c2-4d53-879a-25881fca771e"},"vehicle_type_id":"4","last_reported":1740946148,"current_range_meters":0,"station_id":"ce4bgl92rcd13ifvqbq0","pricing_plan_id":"cebpf4jnsgd1na2vs0mg"},{"bike_id":"ec5839fe-f775-4eb6-8517-1e3cbc51f490","system_id":"levelo_inurba_marseille","lat":43.31199,"lon":5.3685,"is_reserved":false,"is_disabled":true,"rental_uris":{"android":"levelo://app?vid=ec5839fe-f775-4eb6-8517-1e3cbc51f490","ios":"levelo://app?vid=ec5839fe-f775-4eb6-8517-1e3cbc51f490"},"vehicle_type_id":"4","last_reported":1740946148,"current_range_meters":0,"station_id":"ce4bgl92rcd13ifvqbq0","pricing_plan_id":"cebpf4jnsgd1na2vs0mg"},{"bike_id":"bbfd2121-d605-4774-ba32-5ad06351b622","system_id":"levelo_inurba_marseille","lat":43.31359,"lon":5.38522,"is_reserved":false,"is_disabled":true,"rental_uris":{"android":"levelo://app?vid=bbfd2121-d605-4774-ba32-5ad06351b622","ios":"levelo://app?vid=bbfd2121-d605-4774-ba32-5ad06351b622"},"vehicle_type_id":"4","last_reported":1740946148,"current_range_meters":0,"station_id":"ce4bgt92rcd13ifvqcf0","pricing_plan_id":"cebpf4jnsgd1na2vs0mg"},{"bike_id":"bcc761f0-bcac-46d9-992b-b19c2d9bd5ad","system_id":"levelo_inurba_marseille","lat":43.288879,"lon":5.394627,"is_reserved":false,"is_disabled":true,"rental_uris":{"android":"levelo://app?vid=bcc761f0-bcac-46d9-992b-b19c2d9bd5ad","ios":"levelo://app?vid=bcc761f0-bcac-46d9-992b-b19c2d9bd5ad"},"vehicle_type_id":"4","last_reported":1740946148,"current_range_meters":0,"station_id":"ce4bh3h2rcd13ifvqdn0","pricing_plan_id":"cebpf4jnsgd1na2vs0mg"},{"bike_id":"91c26f47-4c53-40bc-bd7e-ea871b2f03bf","system_id":"levelo_inurba_marseille","lat":43.29172,"lon":5.37172,"is_reserved":false,"is_disabled":true,"rental_uris":{"android":"levelo://app?vid=91c26f47-4c53-40bc-bd7e-ea871b2f03bf","ios":"levelo://app?vid=91c26f47-4c53-40bc-bd7e-ea871b2f03bf"},"vehicle_type_id":"4","last_reported":1740946148,"current_range_meters":0,"station_id":"ce4bha92rcd13ifvqeh0","pricing_plan_id":"cebpf4jnsgd1na2vs0mg"},{"bike_id":"f196a785-9f77-41c7-872a-663d71337354","system_id":"levelo_inurba_marseille","lat":43.27213,"lon":5.39193,"is_reserved":false,"is_disabled":true,"rental_uris":{"android":"levelo://app?vid=f196a785-9f77-41c7-872a-663d71337354","ios":"levelo://app?vid=f196a785-9f77-41c7-872a-663d71337354"},"vehicle_type_id":"4","last_reported":1740946148,"current_range_meters":0,"station_id":"ce4bhhp2rcd13ifvqfm0","pricing_plan_id":"cebpf4jnsgd1na2vs0mg"},{"bike_id":"0a8d7b22-b944-424e-9c15-dca5e109b2fc","system_id":"levelo_inurba_marseille","lat":43.23956,"lon":5.36635,"is_reserved":false,"is_disabled":true,"rental_uris":{"android":"levelo://app?vid=0a8d7b22-b944-424e-9c15-dca5e109b2fc","ios":"levelo://app?vid=0a8d7b22-b944-424e-9c15-dca5e109b2fc"},"vehicle_type_id":"4","last_reported":1740946148,"current_range_meters":0,"station_id":"ce4bhi12rcd13ifvqfp0","pricing_plan_id":"cebpf4jnsgd1na2vs0mg"},{"bike_id":"5470a9d6-cc14-47be-aa41-6413d29a0781","system_id":"levelo_inurba_marseille","lat":43.23167,"lon":5.43701,"is_reserved":false,"is_disabled":true,"rental_uris":{"android":"levelo://app?vid=5470a9d6-cc14-47be-aa41-6413d29a0781","ios":"levelo://app?vid=5470a9d6-cc14-47be-aa41-6413d29a0781"},"vehicle_type_id":"4","last_reported":1740946148,"current_range_meters":0,"station_id":"ce4bhmp2rcd13ifvqgog","pricing_plan_id":"cebpf4jnsgd1na2vs0mg"},{"bike_id":"5609c11d-c924-48d2-ad68-1c5fbdf05b0f","system_id":"levelo_inurba_marseille","lat":43.28446,"lon":5.39202,"is_reserved":false,"is_disabled":true,"rental_uris":{"android":"levelo://app?vid=5609c11d-c924-48d2-ad68-1c5fbdf05b0f","ios":"levelo://app?vid=5609c11d-c924-48d2-ad68-1c5fbdf05b0f"},"vehicle_type_id":"4","last_reported":1740946148,"current_range_meters":0,"station_id":"ce4bhoh2rcd13ifvqh5g","pricing_plan_id":"cebpf4jnsgd1na2vs0mg"},{"bike_id":"7bc7214f-a3c9-4502-bee5-eed4c6aa5a68","system_id":"levelo_inurba_marseille","lat":43.32686,"lon":5.41022,"is_reserved":false,"is_disabled":true,"rental_uris":{"android":"levelo://app?vid=7bc7214f-a3c9-4502-bee5-eed4c6aa5a68","ios":"levelo://app?vid=7bc7214f-a3c9-4502-bee5-eed4c6aa5a68"},"vehicle_type_id":"4","last_reported":1740946148,"current_range_meters":0,"station_id":"ce4bhpp2rcd13ifvqhgg","pricing_plan_id":"cebpf4jnsgd1na2vs0mg"},{"bike_id":"fcc6bf92-da07-4f06-8518-349d5b02da47","system_id":"levelo_inurba_marseille","lat":43.33601,"lon":5.4103,"is_reserved":false,"is_disabled":true,"rental_uris":{"android":"levelo://app?vid=fcc6bf92-da07-4f06-8518-349d5b02da47","ios":"levelo://app?vid=fcc6bf92-da07-4f06-8518-349d5b02da47"},"vehicle_type_id":"4","last_reported":1740946148,"current_range_meters":0,"station_id":"ce4bhqh2rcd13ifvqhmg","pricing_plan_id":"cebpf4jnsgd1na2vs0mg"},{"bike_id":"2fc1305b-d3cb-40c8-8b32-1f0ec8747b95","system_id":"levelo_inurba_marseille","lat":43.268,"lon":5.40262,"is_reserved":false,"is_disabled":true,"rental_uris":{"android":"levelo://app?vid=2fc1305b-d3cb-40c8-8b32-1f0ec8747b95","ios":"levelo://app?vid=2fc1305b-d3cb-40c8-8b32-1f0ec8747b95"},"vehicle_type_id":"4","last_reported":1740946148,"current_range_meters":0,"station_id":"ce501612rcd8frsf0b60","pricing_plan_id":"cebpf4jnsgd1na2vs0mg"},{"bike_id":"5e41ebac-b19a-42ea-ac5e-08806c6478bf","system_id":"levelo_inurba_marseille","lat":43.3118,"lon":5.38726,"is_reserved":false,"is_disabled":true,"rental_uris":{"android":"levelo://app?vid=5e41ebac-b19a-42ea-ac5e-08806c6478bf","ios":"levelo://app?vid=5e41ebac-b19a-42ea-ac5e-08806c6478bf"},"vehicle_type_id":"4","last_reported":1740946148,"current_range_meters":400,"station_id":"ce4bgv12rcd13ifvqcp0","pricing_plan_id":"cebpf4jnsgd1na2vs0mg"},{"bike_id":"696fb097-567b-4610-b44a-eaa193bc3830","system_id":"levelo_inurba_marseille","lat":43.3305,"lon":5.3904,"is_reserved":false,"is_disabled":true,"rental_uris":{"android":"levelo://app?vid=696fb097-567b-4610-b44a-eaa193bc3830","ios":"levelo://app?vid=696fb097-567b-4610-b44a-eaa193bc3830"},"vehicle_type_id":"4","last_reported":1740946148,"current_range_meters":400,"station_id":"ce4bhr92rcd13ifvqhrg","pricing_plan_id":"cebpf4jnsgd1na2vs0mg"},{"bike_id":"d000173b-3e6e-46b8-9984-18e230b90d15","system_id":"levelo_inurba_marseille","lat":43.23196,"lon":5.35556,"is_reserved":false,"is_disabled":true,"rental_uris":{"android":"levelo://app?vid=d000173b-3e6e-46b8-9984-18e230b90d15","ios":"levelo://app?vid=d000173b-3e6e-46b8-9984-18e230b90d15"},"vehicle_type_id":"4","last_reported":1740946148,"current_range_meters":400,"station_id":"ce4bhu92rcd13ifvqi70","pricing_plan_id":"cebpf4jnsgd1na2vs0mg"},{"bike_id":"a65cb524-c756-42a0-9639-a6505770c05b","system_id":"levelo_inurba_marseille","lat":43.35061,"lon":5.36691,"is_reserved":false,"is_disabled":true,"rental_uris":{"android":"levelo://app?vid=a65cb524-c756-42a0-9639-a6505770c05b","ios":"levelo://app?vid=a65cb524-c756-42a0-9639-a6505770c05b"},"vehicle_type_id":"4","last_reported":1740946148,"current_range_meters":800,"station_id":"","pricing_plan_id":"cebpf4jnsgd1na2vs0mg"},{"bike_id":"f0e65193-855d-4a47-b98a-64a00ee2522a","system_id":"levelo_inurba_marseille","lat":43.30125,"lon":5.39855,"is_reserved":false,"is_disabled":true,"rental_uris":{"android":"levelo://app?vid=f0e65193-855d-4a47-b98a-64a00ee2522a","ios":"levelo://app?vid=f0e65193-855d-4a47-b98a-64a00ee2522a"},"vehicle_type_id":"4","last_reported":1740946148,"current_range_meters":800,"station_id":"ce4bh0h2rcd13ifvqd40","pricing_plan_id":"cebpf4jnsgd1na2vs0mg"},{"bike_id":"07007feb-d2bb-4b75-868b-937ff6f6a02d","system_id":"levelo_inurba_marseille","lat":43.27058,"lon":5.40273,"is_reserved":false,"is_disabled":true,"rental_uris":{"android":"levelo://app?vid=07007feb-d2bb-4b75-868b-937ff6f6a02d","ios":"levelo://app?vid=07007feb-d2bb-4b75-868b-937ff6f6a02d"},"vehicle_type_id":"4","last_reported":1740946148,"current_range_meters":800,"station_id":"ce4bhk92rcd13ifvqgc0","pricing_plan_id":"cebpf4jnsgd1na2vs0mg"},{"bike_id":"37027680-60c8-47ac-a054-ecb5f9410b1d","system_id":"levelo_inurba_marseille","lat":43.27994,"lon":5.41663,"is_reserved":false,"is_disabled":true,"rental_uris":{"android":"levelo://app?vid=37027680-60c8-47ac-a054-ecb5f9410b1d","ios":"levelo://app?vid=37027680-60c8-47ac-a054-ecb5f9410b1d"},"vehicle_type_id":"4","last_reported":1740946148,"current_range_meters":800,"station_id":"ce4bho12rcd13ifvqh1g","pricing_plan_id":"cebpf4jnsgd1na2vs0mg"},{"bike_id":"ad2cc7bf-285b-43c8-921d-0797db38b5ff","system_id":"levelo_inurba_marseille","lat":43.29095,"lon":5.38134,"is_reserved":false,"is_disabled":true,"rental_uris":{"android":"levelo://app?vid=ad2cc7bf-285b-43c8-921d-0797db38b5ff","ios":"levelo://app?vid=ad2cc7bf-285b-43c8-921d-0797db38b5ff"},"vehicle_type_id":"4","last_reported":1740946148,"current_range_meters":1200,"station_id":"ce4bh512rcd13ifvqe2g","pricing_plan_id":"cebpf4jnsgd1na2vs0mg"},{"bike_id":"d3555182-2a46-430d-a099-a795969f27e9","system_id":"levelo_inurba_marseille","lat":43.28912,"lon":5.38413,"is_reserved":false,"is_disabled":true,"rental_uris":{"android":"levelo://app?vid=d3555182-2a46-430d-a099-a795969f27e9","ios":"levelo://app?vid=d3555182-2a46-430d-a099-a795969f27e9"},"vehicle_type_id":"4","last_reported":1740946148,"current_range_meters":1200,"station_id":"ce4bh612rcd13ifvqe6g","pricing_plan_id":"cebpf4jnsgd1na2vs0mg"},{"bike_id":"10027b27-08ca-4a44-afad-6af8c728fc79","system_id":"levelo_inurba_marseille","lat":43.27567,"lon":5.38444,"is_reserved":false,"is_disabled":true,"rental_uris":{"android":"levelo://app?vid=10027b27-08ca-4a44-afad-6af8c728fc79","ios":"levelo://app?vid=10027b27-08ca-4a44-afad-6af8c728fc79"},"vehicle_type_id":"4","last_reported":1740946148,"current_range_meters":1200,"station_id":"ce4bhh92rcd13ifvqfi0","pricing_plan_id":"cebpf4jnsgd1na2vs0mg"},{"bike_id":"297c0bb7-18e9-46f6-bbeb-ab0bf743200a","system_id":"levelo_inurba_marseille","lat":43.29529,"lon":5.42288,"is_reserved":false,"is_disabled":true,"rental_uris":{"android":"levelo://app?vid=297c0bb7-18e9-46f6-bbeb-ab0bf743200a","ios":"levelo://app?vid=297c0bb7-18e9-46f6-bbeb-ab0bf743200a"},"vehicle_type_id":"4","last_reported":1740946148,"current_range_meters":1200,"station_id":"ce4bhph2rcd13ifvqhdg","pricing_plan_id":"cebpf4jnsgd1na2vs0mg"},{"bike_id":"c9c6f74c-af47-4e7f-90fc-7a80a710863b","system_id":"levelo_inurba_marseille","lat":43.32371,"lon":5.38882,"is_reserved":false,"is_disabled":true,"rental_uris":{"android":"levelo://app?vid=c9c6f74c-af47-4e7f-90fc-7a80a710863b","ios":"levelo://app?vid=c9c6f74c-af47-4e7f-90fc-7a80a710863b"},"vehicle_type_id":"4","last_reported":1740946148,"current_range_meters":1200,"station_id":"ce4bhqp2rcd13ifvqhog","pricing_plan_id":"cebpf4jnsgd1na2vs0mg"},{"bike_id":"52690674-5b0e-402d-a883-3d692a7aaf0e","system_id":"levelo_inurba_marseille","lat":43.27837,"lon":5.39221,"is_reserved":false,"is_disabled":true,"rental_uris":{"android":"levelo://app?vid=52690674-5b0e-402d-a883-3d692a7aaf0e","ios":"levelo://app?vid=52690674-5b0e-402d-a883-3d692a7aaf0e"},"vehicle_type_id":"4","last_reported":1740946148,"current_range_meters":1600,"station_id":"ce4bhjp2rcd13ifvqga0","pricing_plan_id":"cebpf4jnsgd1na2vs0mg"},{"bike_id":"3b0617cd-034a-4e00-a26c-30bb9cda1e8f","system_id":"levelo_inurba_marseille","lat":43.3107,"lon":5.38361,"is_reserved":false,"is_disabled":true,"rental_uris":{"android":"levelo://app?vid=3b0617cd-034a-4e00-a26c-30bb9cda1e8f","ios":"levelo://app?vid=3b0617cd-034a-4e00-a26c-30bb9cda1e8f"},"vehicle_type_id":"4","last_reported":1740946148,"current_range_meters":2000,"station_id":"ce4bgv92rcd13ifvqcr0","pricing_plan_id":"cebpf4jnsgd1na2vs0mg"},{"bike_id":"2b3dab30-1759-4da0-bc62-1d4a8aaafad7","system_id":"levelo_inurba_marseille","lat":43.2952,"lon":5.39032,"is_reserved":false,"is_disabled":true,"rental_uris":{"android":"levelo://app?vid=2b3dab30-1759-4da0-bc62-1d4a8aaafad7","ios":"levelo://app?vid=2b3dab30-1759-4da0-bc62-1d4a8aaafad7"},"vehicle_type_id":"4","last_reported":1740946148,"current_range_meters":2000,"station_id":"ce4bh3p2rcd13ifvqdp0","pricing_plan_id":"cebpf4jnsgd1na2vs0mg"},{"bike_id":"e37bf403-bea8-4f26-b1bf-5df6d2367162","system_id":"levelo_inurba_marseille","lat":43.27424,"lon":5.39426,"is_reserved":false,"is_disabled":true,"rental_uris":{"android":"levelo://app?vid=e37bf403-bea8-4f26-b1bf-5df6d2367162","ios":"levelo://app?vid=e37bf403-bea8-4f26-b1bf-5df6d2367162"},"vehicle_type_id":"4","last_reported":1740946148,"current_range_meters":2000,"station_id":"ce4bhdp2rcd13ifvqf20","pricing_plan_id":"cebpf4jnsgd1na2vs0mg"},{"bike_id":"452dcb55-19e7-4210-9210-4b976b4f3382","system_id":"levelo_inurba_marseille","lat":43.30349,"lon":5.41882,"is_reserved":false,"is_disabled":false,"rental_uris":{"android":"levelo://app?vid=452dcb55-19e7-4210-9210-4b976b4f3382","ios":"levelo://app?vid=452dcb55-19e7-4210-9210-4b976b4f3382"},"vehicle_type_id":"4","last_reported":1740946148,"current_range_meters":2800,"station_id":"ce4bhop2rcd13ifvqh7g","pricing_plan_id":"cebpf4jnsgd1na2vs0mg"},{"bike_id":"6e748dc7-5745-4207-8121-8f696c66177d","system_id":"levelo_inurba_marseille","lat":43.30632,"lon":5.37376,"is_reserved":false,"is_disabled":false,"rental_uris":{"android":"levelo://app?vid=6e748dc7-5745-4207-8121-8f696c66177d","ios":"levelo://app?vid=6e748dc7-5745-4207-8121-8f696c66177d"},"vehicle_type_id":"4","last_reported":1740946148,"current_range_meters":3600,"station_id":"","pricing_plan_id":"cebpf4jnsgd1na2vs0mg"},{"bike_id":"90650fcb-71ee-4ca6-ac92-a3b021fbb719","system_id":"levelo_inurba_marseille","lat":43.27053,"lon":5.40262,"is_reserved":false,"is_disabled":false,"rental_uris":{"android":"levelo://app?vid=90650fcb-71ee-4ca6-ac92-a3b021fbb719","ios":"levelo://app?vid=90650fcb-71ee-4ca6-ac92-a3b021fbb719"},"vehicle_type_id":"4","last_reported":1740946148,"current_range_meters":3600,"station_id":"ce4bhk92rcd13ifvqgc0","pricing_plan_id":"cebpf4jnsgd1na2vs0mg"},{"bike_id":"2815955c-b302-4f9d-b11e-082dc3d367de","system_id":"levelo_inurba_marseille","lat":43.27061,"lon":5.40276,"is_reserved":false,"is_disabled":false,"rental_uris":{"android":"levelo://app?vid=2815955c-b302-4f9d-b11e-082dc3d367de","ios":"levelo://app?vid=2815955c-b302-4f9d-b11e-082dc3d367de"},"vehicle_type_id":"4","last_reported":1740946148,"current_range_meters":3600,"station_id":"ce4bhk92rcd13ifvqgc0","pricing_plan_id":"cebpf4jnsgd1na2vs0mg"},{"bike_id":"a772da6b-aa7f-4f6a-b5cf-2b755917953d","system_id":"levelo_inurba_marseille","lat":43.2794,"lon":5.41044,"is_reserved":false,"is_disabled":false,"rental_uris":{"android":"levelo://app?vid=a772da6b-aa7f-4f6a-b5cf-2b755917953d","ios":"levelo://app?vid=a772da6b-aa7f-4f6a-b5cf-2b755917953d"},"vehicle_type_id":"4","last_reported":1740946148,"current_range_meters":3600,"station_id":"ce4bhnp2rcd13ifvqh0g","pricing_plan_id":"cebpf4jnsgd1na2vs0mg"},{"bike_id":"e913bf1c-62e3-449e-bff2-f1f8b1e444ed","system_id":"levelo_inurba_marseille","lat":43.31015,"lon":5.37199,"is_reserved":false,"is_disabled":false,"rental_uris":{"android":"levelo://app?vid=e913bf1c-62e3-449e-bff2-f1f8b1e444ed","ios":"levelo://app?vid=e913bf1c-62e3-449e-bff2-f1f8b1e444ed"},"vehicle_type_id":"4","last_reported":1740946148,"current_range_meters":4400,"station_id":"","pricing_plan_id":"cebpf4jnsgd1na2vs0mg"},{"bike_id":"fd29ec35-5e36-48cf-b730-40472773ec6d","system_id":"levelo_inurba_marseille","lat":43.29558,"lon":5.42295,"is_reserved":false,"is_disabled":false,"rental_uris":{"android":"levelo://app?vid=fd29ec35-5e36-48cf-b730-40472773ec6d","ios":"levelo://app?vid=fd29ec35-5e36-48cf-b730-40472773ec6d"},"vehicle_type_id":"4","last_reported":1740946148,"current_range_meters":4400,"station_id":"ce4bhph2rcd13ifvqhdg","pricing_plan_id":"cebpf4jnsgd1na2vs0mg"},{"bike_id":"ea731fe0-f368-4c85-8313-0d046c7fe180","system_id":"levelo_inurba_marseille","lat":43.31227,"lon":5.37214,"is_reserved":false,"is_disabled":false,"rental_uris":{"android":"levelo://app?vid=ea731fe0-f368-4c85-8313-0d046c7fe180","ios":"levelo://app?vid=ea731fe0-f368-4c85-8313-0d046c7fe180"},"vehicle_type_id":"4","last_reported":1740946148,"current_range_meters":4800,"station_id":"","pricing_plan_id":"cebpf4jnsgd1na2vs0mg"},{"bike_id":"fa749bbe-6d80-4a89-aee7-241d96775908","system_id":"levelo_inurba_marseille","lat":43.2682,"lon":5.40246,"is_reserved":false,"is_disabled":false,"rental_uris":{"android":"levelo://app?vid=fa749bbe-6d80-4a89-aee7-241d96775908","ios":"levelo://app?vid=fa749bbe-6d80-4a89-aee7-241d96775908"},"vehicle_type_id":"4","last_reported":1740946148,"current_range_meters":4800,"station_id":"ce501612rcd8frsf0b60","pricing_plan_id":"cebpf4jnsgd1na2vs0mg"},{"bike_id":"a087844a-d5be-407a-8d2e-075c9595be79","system_id":"levelo_inurba_marseille","lat":43.29264,"lon":5.38433,"is_reserved":false,"is_disabled":false,"rental_uris":{"android":"levelo://app?vid=a087844a-d5be-407a-8d2e-075c9595be79","ios":"levelo://app?vid=a087844a-d5be-407a-8d2e-075c9595be79"},"vehicle_type_id":"4","last_reported":1740946148,"current_range_meters":5600,"station_id":"ce4bh692rcd13ifvqea0","pricing_plan_id":"cebpf4jnsgd1na2vs0mg"},{"bike_id":"a6029f98-52f1-4c38-bad5-568ad4c97caf","system_id":"levelo_inurba_marseille","lat":43.29264,"lon":5.38446,"is_reserved":false,"is_disabled":false,"rental_uris":{"android":"levelo://app?vid=a6029f98-52f1-4c38-bad5-568ad4c97caf","ios":"levelo://app?vid=a6029f98-52f1-4c38-bad5-568ad4c97caf"},"vehicle_type_id":"4","last_reported":1740946148,"current_range_meters":5600,"station_id":"ce4bh692rcd13ifvqea0","pricing_plan_id":"cebpf4jnsgd1na2vs0mg"},{"bike_id":"5fb4f5c9-efd3-4470-9784-66fdbbc805d4","system_id":"levelo_inurba_marseille","lat":43.26788,"lon":5.39416,"is_reserved":false,"is_disabled":false,"rental_uris":{"android":"levelo://app?vid=5fb4f5c9-efd3-4470-9784-66fdbbc805d4","ios":"levelo://app?vid=5fb4f5c9-efd3-4470-9784-66fdbbc805d4"},"vehicle_type_id":"4","last_reported":1740946148,"current_range_meters":5600,"station_id":"ce4bhh12rcd13ifvqfg0","pricing_plan_id":"cebpf4jnsgd1na2vs0mg"},{"bike_id":"ae76920b-63fc-4792-98e9-77173230eca8","system_id":"levelo_inurba_marseille","lat":43.25822,"lon":5.3944,"is_reserved":false,"is_disabled":false,"rental_uris":{"android":"levelo://app?vid=ae76920b-63fc-4792-98e9-77173230eca8","ios":"levelo://app?vid=ae76920b-63fc-4792-98e9-77173230eca8"},"vehicle_type_id":"4","last_reported":1740946148,"current_range_meters":5600,"station_id":"ce4bhip2rcd13ifvqft0","pricing_plan_id":"cebpf4jnsgd1na2vs0mg"},{"bike_id":"faa0102a-cd98-45c6-abe7-61e8d34ef0a0","system_id":"levelo_inurba_marseille","lat":43.26938,"lon":5.40256,"is_reserved":false,"is_disabled":false,"rental_uris":{"android":"levelo://app?vid=faa0102a-cd98-45c6-abe7-61e8d34ef0a0","ios":"levelo://app?vid=faa0102a-cd98-45c6-abe7-61e8d34ef0a0"},"vehicle_type_id":"4","last_reported":1740946148,"current_range_meters":5600,"station_id":"cjm6bp8fraef2m0cb0m0","pricing_plan_id":"cebpf4jnsgd1na2vs0mg"},{"bike_id":"62e42f55-aa4e-4621-875a-856b2287b830","system_id":"levelo_inurba_marseille","lat":43.29009,"lon":5.37559,"is_reserved":false,"is_disabled":false,"rental_uris":{"android":"levelo://app?vid=62e42f55-aa4e-4621-875a-856b2287b830","ios":"levelo://app?vid=62e42f55-aa4e-4621-875a-856b2287b830"},"vehicle_type_id":"4","last_reported":1740946148,"current_range_meters":6000,"station_id":"ce4bh692rcd13ifvqe90","pricing_plan_id":"cebpf4jnsgd1na2vs0mg"},{"bike_id":"8d492a96-f4af-4d5c-9f2f-04d1e365e865","system_id":"levelo_inurba_marseille","lat":43.27431,"lon":5.39416,"is_reserved":false,"is_disabled":false,"rental_uris":{"android":"levelo://app?vid=8d492a96-f4af-4d5c-9f2f-04d1e365e865","ios":"levelo://app?vid=8d492a96-f4af-4d5c-9f2f-04d1e365e865"},"vehicle_type_id":"4","last_reported":1740946148,"current_range_meters":6000,"station_id":"ce4bhdp2rcd13ifvqf20","pricing_plan_id":"cebpf4jnsgd1na2vs0mg"},{"bike_id":"7b52e9b0-59db-4aa0-8f2d-86fe5d0791e6","system_id":"levelo_inurba_marseille","lat":43.27311,"lon":5.39099,"is_reserved":false,"is_disabled":false,"rental_uris":{"android":"levelo://app?vid=7b52e9b0-59db-4aa0-8f2d-86fe5d0791e6","ios":"levelo://app?vid=7b52e9b0-59db-4aa0-8f2d-86fe5d0791e6"},"vehicle_type_id":"4","last_reported":1740946148,"current_range_meters":6000,"station_id":"ce4bhgp2rcd13ifvqfe0","pricing_plan_id":"cebpf4jnsgd1na2vs0mg"},{"bike_id":"b4885ea7-931a-407b-beea-f03e677a29a3","system_id":"levelo_inurba_marseille","lat":43.23963,"lon":5.36648,"is_reserved":false,"is_disabled":false,"rental_uris":{"android":"levelo://app?vid=b4885ea7-931a-407b-beea-f03e677a29a3","ios":"levelo://app?vid=b4885ea7-931a-407b-beea-f03e677a29a3"},"vehicle_type_id":"4","last_reported":1740946148,"current_range_meters":6000,"station_id":"ce4bhi12rcd13ifvqfp0","pricing_plan_id":"cebpf4jnsgd1na2vs0mg"},{"bike_id":"53b221f2-b2ba-4a1a-a052-25b35d26fe9a","system_id":"levelo_inurba_marseille","lat":43.26483,"lon":5.39556,"is_reserved":false,"is_disabled":false,"rental_uris":{"android":"levelo://app?vid=53b221f2-b2ba-4a1a-a052-25b35d26fe9a","ios":"levelo://app?vid=53b221f2-b2ba-4a1a-a052-25b35d26fe9a"},"vehicle_type_id":"4","last_reported":1740946148,"current_range_meters":6000,"station_id":"ce4bhi12rcd13ifvqfq0","pricing_plan_id":"cebpf4jnsgd1na2vs0mg"},{"bike_id":"4ea42f10-7d23-4aa7-adc0-9d21a0ca77f8","system_id":"levelo_inurba_marseille","lat":43.27054,"lon":5.40251,"is_reserved":false,"is_disabled":false,"rental_uris":{"android":"levelo://app?vid=4ea42f10-7d23-4aa7-adc0-9d21a0ca77f8","ios":"levelo://app?vid=4ea42f10-7d23-4aa7-adc0-9d21a0ca77f8"},"vehicle_type_id":"4","last_reported":1740946148,"current_range_meters":6000,"station_id":"ce4bhk92rcd13ifvqgc0","pricing_plan_id":"cebpf4jnsgd1na2vs0mg"},{"bike_id":"6d4933b5-8743-48d6-9e00-a5b6c3841845","system_id":"levelo_inurba_marseille","lat":43.27817,"lon":5.40717,"is_reserved":false,"is_disabled":false,"rental_uris":{"android":"levelo://app?vid=6d4933b5-8743-48d6-9e00-a5b6c3841845","ios":"levelo://app?vid=6d4933b5-8743-48d6-9e00-a5b6c3841845"},"vehicle_type_id":"4","last_reported":1740946148,"current_range_meters":6000,"station_id":"ce4bhnh2rcd13ifvqgtg","pricing_plan_id":"cebpf4jnsgd1na2vs0mg"},{"bike_id":"53ebed9a-fd1a-4d94-96e3-0c8bc5887ace","system_id":"levelo_inurba_marseille","lat":43.3144,"lon":5.39342,"is_reserved":false,"is_disabled":false,"rental_uris":{"android":"levelo://app?vid=53ebed9a-fd1a-4d94-96e3-0c8bc5887ace","ios":"levelo://app?vid=53ebed9a-fd1a-4d94-96e3-0c8bc5887ace"},"vehicle_type_id":"4","last_reported":1740946148,"current_range_meters":6400,"station_id":"","pricing_plan_id":"cebpf4jnsgd1na2vs0mg"},{"bike_id":"c81ae6a8-48e7-4832-a066-0a4270457520","system_id":"levelo_inurba_marseille","lat":43.30147,"lon":5.37385,"is_reserved":false,"is_disabled":false,"rental_uris":{"android":"levelo://app?vid=c81ae6a8-48e7-4832-a066-0a4270457520","ios":"levelo://app?vid=c81ae6a8-48e7-4832-a066-0a4270457520"},"vehicle_type_id":"4","last_reported":1740946148,"current_range_meters":6400,"station_id":"ce4bgg92rcd13ifvqb30","pricing_plan_id":"cebpf4jnsgd1na2vs0mg"},{"bike_id":"cbc4d480-dd4e-4046-b51d-da8fb2d46afb","system_id":"levelo_inurba_marseille","lat":43.29288,"lon":5.40121,"is_reserved":false,"is_disabled":false,"rental_uris":{"android":"levelo://app?vid=cbc4d480-dd4e-4046-b51d-da8fb2d46afb","ios":"levelo://app?vid=cbc4d480-dd4e-4046-b51d-da8fb2d46afb"},"vehicle_type_id":"4","last_reported":1740946148,"current_range_meters":6400,"station_id":"ce4bh312rcd13ifvqdk0","pricing_plan_id":"cebpf4jnsgd1na2vs0mg"},{"bike_id":"b7a5ccb6-fed6-4035-829d-5fde03d1833d","system_id":"levelo_inurba_marseille","lat":43.27054,"lon":5.40267,"is_reserved":false,"is_disabled":false,"rental_uris":{"android":"levelo://app?vid=b7a5ccb6-fed6-4035-829d-5fde03d1833d","ios":"levelo://app?vid=b7a5ccb6-fed6-4035-829d-5fde03d1833d"},"vehicle_type_id":"4","last_reported":1740946148,"current_range_meters":6400,"station_id":"ce4bhk92rcd13ifvqgc0","pricing_plan_id":"cebpf4jnsgd1na2vs0mg"},{"bike_id":"1e3a19f9-fc5e-415b-be73-757a201ca23e","system_id":"levelo_inurba_marseille","lat":43.27809,"lon":5.40727,"is_reserved":false,"is_disabled":false,"rental_uris":{"android":"levelo://app?vid=1e3a19f9-fc5e-415b-be73-757a201ca23e","ios":"levelo://app?vid=1e3a19f9-fc5e-415b-be73-757a201ca23e"},"vehicle_type_id":"4","last_reported":1740946148,"current_range_meters":6400,"station_id":"ce4bhnh2rcd13ifvqgtg","pricing_plan_id":"cebpf4jnsgd1na2vs0mg"},{"bike_id":"318dcb1b-9247-409e-9dad-ff18bd11104d","system_id":"levelo_inurba_marseille","lat":43.24844,"lon":5.3743,"is_reserved":false,"is_disabled":false,"rental_uris":{"android":"levelo://app?vid=318dcb1b-9247-409e-9dad-ff18bd11104d","ios":"levelo://app?vid=318dcb1b-9247-409e-9dad-ff18bd11104d"},"vehicle_type_id":"4","last_reported":1740946148,"current_range_meters":6800,"station_id":"","pricing_plan_id":"cebpf4jnsgd1na2vs0mg"},{"bike_id":"b811c60a-6933-40a7-84ba-ba9cab9803d2","system_id":"levelo_inurba_marseille","lat":43.25012,"lon":5.38958,"is_reserved":false,"is_disabled":false,"rental_uris":{"android":"levelo://app?vid=b811c60a-6933-40a7-84ba-ba9cab9803d2","ios":"levelo://app?vid=b811c60a-6933-40a7-84ba-ba9cab9803d2"},"vehicle_type_id":"4","last_reported":1740946148,"current_range_meters":6800,"station_id":"ce4bhgp2rcd13ifvqfd0","pricing_plan_id":"cebpf4jnsgd1na2vs0mg"},{"bike_id":"ab61ec09-b2a5-4d1e-87f7-90359803db9a","system_id":"levelo_inurba_marseille","lat":43.29525,"lon":5.39975,"is_reserved":false,"is_disabled":false,"rental_uris":{"android":"levelo://app?vid=ab61ec09-b2a5-4d1e-87f7-90359803db9a","ios":"levelo://app?vid=ab61ec09-b2a5-4d1e-87f7-90359803db9a"},"vehicle_type_id":"4","last_reported":1740946148,"current_range_meters":7200,"station_id":"","pricing_plan_id":"cebpf4jnsgd1na2vs0mg"},{"bike_id":"3cbb5843-7d6f-4ab1-8221-c879ecca96e4","system_id":"levelo_inurba_marseille","lat":43.32715,"lon":5.3628,"is_reserved":false,"is_disabled":false,"rental_uris":{"android":"levelo://app?vid=3cbb5843-7d6f-4ab1-8221-c879ecca96e4","ios":"levelo://app?vid=3cbb5843-7d6f-4ab1-8221-c879ecca96e4"},"vehicle_type_id":"4","last_reported":1740946148,"current_range_meters":7200,"station_id":"","pricing_plan_id":"cebpf4jnsgd1na2vs0mg"},{"bike_id":"8e2ea686-2ed9-4286-b302-de7e1e0dbacd","system_id":"levelo_inurba_marseille","lat":43.30271,"lon":5.397,"is_reserved":false,"is_disabled":false,"rental_uris":{"android":"levelo://app?vid=8e2ea686-2ed9-4286-b302-de7e1e0dbacd","ios":"levelo://app?vid=8e2ea686-2ed9-4286-b302-de7e1e0dbacd"},"vehicle_type_id":"4","last_reported":1740946148,"current_range_meters":7200,"station_id":"","pricing_plan_id":"cebpf4jnsgd1na2vs0mg"},{"bike_id":"73a4f0a9-2a9c-4839-80b8-acd05a8f539c","system_id":"levelo_inurba_marseille","lat":43.28714,"lon":5.37386,"is_reserved":false,"is_disabled":false,"rental_uris":{"android":"levelo://app?vid=73a4f0a9-2a9c-4839-80b8-acd05a8f539c","ios":"levelo://app?vid=73a4f0a9-2a9c-4839-80b8-acd05a8f539c"},"vehicle_type_id":"4","last_reported":1740946148,"current_range_meters":7200,"station_id":"ce4bh3p2rcd13ifvqdq0","pricing_plan_id":"cebpf4jnsgd1na2vs0mg"},{"bike_id":"27ee9ae2-c5e7-4c2e-ad90-0c911cf7f55f","system_id":"levelo_inurba_marseille","lat":43.25053,"lon":5.38906,"is_reserved":false,"is_disabled":false,"rental_uris":{"android":"levelo://app?vid=27ee9ae2-c5e7-4c2e-ad90-0c911cf7f55f","ios":"levelo://app?vid=27ee9ae2-c5e7-4c2e-ad90-0c911cf7f55f"},"vehicle_type_id":"4","last_reported":1740946148,"current_range_meters":7200,"station_id":"ce4bhgp2rcd13ifvqfd0","pricing_plan_id":"cebpf4jnsgd1na2vs0mg"},{"bike_id":"b0599a88-1fdc-4ab9-bcbe-15873ba17cfc","system_id":"levelo_inurba_marseille","lat":43.27319,"lon":5.39093,"is_reserved":false,"is_disabled":false,"rental_uris":{"android":"levelo://app?vid=b0599a88-1fdc-4ab9-bcbe-15873ba17cfc","ios":"levelo://app?vid=b0599a88-1fdc-4ab9-bcbe-15873ba17cfc"},"vehicle_type_id":"4","last_reported":1740946148,"current_range_meters":7200,"station_id":"ce4bhgp2rcd13ifvqfe0","pricing_plan_id":"cebpf4jnsgd1na2vs0mg"},{"bike_id":"3b899ec8-5a44-4ffd-8e3c-ea3713149e76","system_id":"levelo_inurba_marseille","lat":43.25739,"lon":5.41085,"is_reserved":false,"is_disabled":false,"rental_uris":{"android":"levelo://app?vid=3b899ec8-5a44-4ffd-8e3c-ea3713149e76","ios":"levelo://app?vid=3b899ec8-5a44-4ffd-8e3c-ea3713149e76"},"vehicle_type_id":"4","last_reported":1740946148,"current_range_meters":7200,"station_id":"ce4bhkp2rcd13ifvqgd0","pricing_plan_id":"cebpf4jnsgd1na2vs0mg"},{"bike_id":"657afcfe-69ff-4f9d-b68c-bfa5bf30ed49","system_id":"levelo_inurba_marseille","lat":43.27802,"lon":5.40713,"is_reserved":false,"is_disabled":false,"rental_uris":{"android":"levelo://app?vid=657afcfe-69ff-4f9d-b68c-bfa5bf30ed49","ios":"levelo://app?vid=657afcfe-69ff-4f9d-b68c-bfa5bf30ed49"},"vehicle_type_id":"4","last_reported":1740946148,"current_range_meters":7200,"station_id":"ce4bhnh2rcd13ifvqgtg","pricing_plan_id":"cebpf4jnsgd1na2vs0mg"},{"bike_id":"6130471a-3e91-40d9-ab58-adc300217a91","system_id":"levelo_inurba_marseille","lat":43.2815,"lon":5.42639,"is_reserved":false,"is_disabled":false,"rental_uris":{"android":"levelo://app?vid=6130471a-3e91-40d9-ab58-adc300217a91","ios":"levelo://app?vid=6130471a-3e91-40d9-ab58-adc300217a91"},"vehicle_type_id":"4","last_reported":1740946148,"current_range_meters":7200,"station_id":"ce4bhnh2rcd13ifvqgug","pricing_plan_id":"cebpf4jnsgd1na2vs0mg"},{"bike_id":"3a00af1d-64b3-4f0c-9ae0-dc76fb5014f4","system_id":"levelo_inurba_marseille","lat":43.29555,"lon":5.42282,"is_reserved":false,"is_disabled":false,"rental_uris":{"android":"levelo://app?vid=3a00af1d-64b3-4f0c-9ae0-dc76fb5014f4","ios":"levelo://app?vid=3a00af1d-64b3-4f0c-9ae0-dc76fb5014f4"},"vehicle_type_id":"4","last_reported":1740946148,"current_range_meters":7200,"station_id":"ce4bhph2rcd13ifvqhdg","pricing_plan_id":"cebpf4jnsgd1na2vs0mg"},{"bike_id":"529e9b56-2001-45da-9e9e-9493d2361a0b","system_id":"levelo_inurba_marseille","lat":43.26849,"lon":5.40252,"is_reserved":false,"is_disabled":false,"rental_uris":{"android":"levelo://app?vid=529e9b56-2001-45da-9e9e-9493d2361a0b","ios":"levelo://app?vid=529e9b56-2001-45da-9e9e-9493d2361a0b"},"vehicle_type_id":"4","last_reported":1740946148,"current_range_meters":7200,"station_id":"ce501612rcd8frsf0b60","pricing_plan_id":"cebpf4jnsgd1na2vs0mg"},{"bike_id":"8217e781-cc2d-40ba-8630-da9e9cd38df0","system_id":"levelo_inurba_marseille","lat":43.26943,"lon":5.40251,"is_reserved":false,"is_disabled":false,"rental_uris":{"android":"levelo://app?vid=8217e781-cc2d-40ba-8630-da9e9cd38df0","ios":"levelo://app?vid=8217e781-cc2d-40ba-8630-da9e9cd38df0"},"vehicle_type_id":"4","last_reported":1740946148,"current_range_meters":7200,"station_id":"cjm6bp8fraef2m0cb0m0","pricing_plan_id":"cebpf4jnsgd1na2vs0mg"},{"bike_id":"eafe4694-db55-4cde-85aa-971c3787bde8","system_id":"levelo_inurba_marseille","lat":43.24171,"lon":5.36421,"is_reserved":false,"is_disabled":false,"rental_uris":{"android":"levelo://app?vid=eafe4694-db55-4cde-85aa-971c3787bde8","ios":"levelo://app?vid=eafe4694-db55-4cde-85aa-971c3787bde8"},"vehicle_type_id":"4","last_reported":1740946148,"current_range_meters":7200,"station_id":"cpo36qri1sfpv3e86is0","pricing_plan_id":"cebpf4jnsgd1na2vs0mg"},{"bike_id":"a44e8eae-3e78-4fad-bcef-386f3cfda1c6","system_id":"levelo_inurba_marseille","lat":43.27972,"lon":5.38736,"is_reserved":false,"is_disabled":false,"rental_uris":{"android":"levelo://app?vid=a44e8eae-3e78-4fad-bcef-386f3cfda1c6","ios":"levelo://app?vid=a44e8eae-3e78-4fad-bcef-386f3cfda1c6"},"vehicle_type_id":"4","last_reported":1740946148,"current_range_meters":8000,"station_id":"ce4bhg12rcd13ifvqf80","pricing_plan_id":"cebpf4jnsgd1na2vs0mg"},{"bike_id":"709ce59e-2ba2-4c68-8559-1f9c81b62fd7","system_id":"levelo_inurba_marseille","lat":43.2668,"lon":5.38271,"is_reserved":false,"is_disabled":false,"rental_uris":{"android":"levelo://app?vid=709ce59e-2ba2-4c68-8559-1f9c81b62fd7","ios":"levelo://app?vid=709ce59e-2ba2-4c68-8559-1f9c81b62fd7"},"vehicle_type_id":"4","last_reported":1740946148,"current_range_meters":8000,"station_id":"ce4bhg92rcd13ifvqf90","pricing_plan_id":"cebpf4jnsgd1na2vs0mg"},{"bike_id":"59acd8f1-fe25-4f7b-90e6-830f3a0c7613","system_id":"levelo_inurba_marseille","lat":43.27326,"lon":5.39086,"is_reserved":false,"is_disabled":false,"rental_uris":{"android":"levelo://app?vid=59acd8f1-fe25-4f7b-90e6-830f3a0c7613","ios":"levelo://app?vid=59acd8f1-fe25-4f7b-90e6-830f3a0c7613"},"vehicle_type_id":"4","last_reported":1740946148,"current_range_meters":8000,"station_id":"ce4bhgp2rcd13ifvqfe0","pricing_plan_id":"cebpf4jnsgd1na2vs0mg"},{"bike_id":"5eb8d4d1-e867-49d3-8611-bd57afc65cc2","system_id":"levelo_inurba_marseille","lat":43.27239,"lon":5.39182,"is_reserved":false,"is_disabled":false,"rental_uris":{"android":"levelo://app?vid=5eb8d4d1-e867-49d3-8611-bd57afc65cc2","ios":"levelo://app?vid=5eb8d4d1-e867-49d3-8611-bd57afc65cc2"},"vehicle_type_id":"4","last_reported":1740946148,"current_range_meters":8000,"station_id":"ce4bhhp2rcd13ifvqfm0","pricing_plan_id":"cebpf4jnsgd1na2vs0mg"},{"bike_id":"5e2f1c1c-b88b-490b-8fb4-30d4f19d3ef2","system_id":"levelo_inurba_marseille","lat":43.27233,"lon":5.3915,"is_reserved":false,"is_disabled":false,"rental_uris":{"android":"levelo://app?vid=5e2f1c1c-b88b-490b-8fb4-30d4f19d3ef2","ios":"levelo://app?vid=5e2f1c1c-b88b-490b-8fb4-30d4f19d3ef2"},"vehicle_type_id":"4","last_reported":1740946148,"current_range_meters":8000,"station_id":"ce4bhhp2rcd13ifvqfm0","pricing_plan_id":"cebpf4jnsgd1na2vs0mg"},{"bike_id":"4320d103-322d-4d96-86a8-99897045ae34","system_id":"levelo_inurba_marseille","lat":43.24069,"lon":5.37712,"is_reserved":false,"is_disabled":false,"rental_uris":{"android":"levelo://app?vid=4320d103-322d-4d96-86a8-99897045ae34","ios":"levelo://app?vid=4320d103-322d-4d96-86a8-99897045ae34"},"vehicle_type_id":"4","last_reported":1740946148,"current_range_meters":8000,"station_id":"ce4bhnp2rcd13ifvqgvg","pricing_plan_id":"cebpf4jnsgd1na2vs0mg"},{"bike_id":"0e4d5d36-7d5d-4fbf-9597-759cc9a1b223","system_id":"levelo_inurba_marseille","lat":43.30563,"lon":5.37246,"is_reserved":false,"is_disabled":false,"rental_uris":{"android":"levelo://app?vid=0e4d5d36-7d5d-4fbf-9597-759cc9a1b223","ios":"levelo://app?vid=0e4d5d36-7d5d-4fbf-9597-759cc9a1b223"},"vehicle_type_id":"4","last_reported":1740946148,"current_range_meters":8400,"station_id":"","pricing_plan_id":"cebpf4jnsgd1na2vs0mg"},{"bike_id":"8cc0f422-f8b1-429a-a6ae-80b4855fd672","system_id":"levelo_inurba_marseille","lat":43.29727,"lon":5.37705,"is_reserved":false,"is_disabled":false,"rental_uris":{"android":"levelo://app?vid=8cc0f422-f8b1-429a-a6ae-80b4855fd672","ios":"levelo://app?vid=8cc0f422-f8b1-429a-a6ae-80b4855fd672"},"vehicle_type_id":"4","last_reported":1740946148,"current_range_meters":8400,"station_id":"ce4bgkh2rcd13ifvqbl0","pricing_plan_id":"cebpf4jnsgd1na2vs0mg"},{"bike_id":"d6af2a55-e22c-4b16-9b22-aa5c12070e67","system_id":"levelo_inurba_marseille","lat":43.30318,"lon":5.36936,"is_reserved":false,"is_disabled":false,"rental_uris":{"android":"levelo://app?vid=d6af2a55-e22c-4b16-9b22-aa5c12070e67","ios":"levelo://app?vid=d6af2a55-e22c-4b16-9b22-aa5c12070e67"},"vehicle_type_id":"4","last_reported":1740946148,"current_range_meters":8400,"station_id":"ce4bgqh2rcd13ifvqc5g","pricing_plan_id":"cebpf4jnsgd1na2vs0mg"},{"bike_id":"3b42019a-8fd3-41c6-af00-c6f75ad2456e","system_id":"levelo_inurba_marseille","lat":43.29249,"lon":5.38449,"is_reserved":false,"is_disabled":false,"rental_uris":{"android":"levelo://app?vid=3b42019a-8fd3-41c6-af00-c6f75ad2456e","ios":"levelo://app?vid=3b42019a-8fd3-41c6-af00-c6f75ad2456e"},"vehicle_type_id":"4","last_reported":1740946148,"current_range_meters":8400,"station_id":"ce4bh692rcd13ifvqea0","pricing_plan_id":"cebpf4jnsgd1na2vs0mg"},{"bike_id":"f712eec5-4f95-40aa-a692-b95eb778d757","system_id":"levelo_inurba_marseille","lat":43.2827,"lon":5.3506,"is_reserved":false,"is_disabled":false,"rental_uris":{"android":"levelo://app?vid=f712eec5-4f95-40aa-a692-b95eb778d757","ios":"levelo://app?vid=f712eec5-4f95-40aa-a692-b95eb778d757"},"vehicle_type_id":"4","last_reported":1740946148,"current_range_meters":8400,"station_id":"ce4bhbp2rcd13ifvqerg","pricing_plan_id":"cebpf4jnsgd1na2vs0mg"},{"bike_id":"602071b7-00b0-4a69-a020-a10b931a00a3","system_id":"levelo_inurba_marseille","lat":43.27328,"lon":5.3907,"is_reserved":false,"is_disabled":false,"rental_uris":{"android":"levelo://app?vid=602071b7-00b0-4a69-a020-a10b931a00a3","ios":"levelo://app?vid=602071b7-00b0-4a69-a020-a10b931a00a3"},"vehicle_type_id":"4","last_reported":1740946148,"current_range_meters":8400,"station_id":"ce4bhgp2rcd13ifvqfe0","pricing_plan_id":"cebpf4jnsgd1na2vs0mg"},{"bike_id":"e8575204-f432-441b-a5e8-80cf89cf245a","system_id":"levelo_inurba_marseille","lat":43.26802,"lon":5.39392,"is_reserved":false,"is_disabled":false,"rental_uris":{"android":"levelo://app?vid=e8575204-f432-441b-a5e8-80cf89cf245a","ios":"levelo://app?vid=e8575204-f432-441b-a5e8-80cf89cf245a"},"vehicle_type_id":"4","last_reported":1740946148,"current_range_meters":8400,"station_id":"ce4bhh12rcd13ifvqfg0","pricing_plan_id":"cebpf4jnsgd1na2vs0mg"},{"bike_id":"24486769-e612-469e-8133-e07f00e33e25","system_id":"levelo_inurba_marseille","lat":43.26791,"lon":5.39419,"is_reserved":false,"is_disabled":false,"rental_uris":{"android":"levelo://app?vid=24486769-e612-469e-8133-e07f00e33e25","ios":"levelo://app?vid=24486769-e612-469e-8133-e07f00e33e25"},"vehicle_type_id":"4","last_reported":1740946148,"current_range_meters":8400,"station_id":"ce4bhh12rcd13ifvqfg0","pricing_plan_id":"cebpf4jnsgd1na2vs0mg"},{"bike_id":"20bc478e-c3a8-4799-a9f1-63e6df54eae1","system_id":"levelo_inurba_marseille","lat":43.27806,"lon":5.40715,"is_reserved":false,"is_disabled":false,"rental_uris":{"android":"levelo://app?vid=20bc478e-c3a8-4799-a9f1-63e6df54eae1","ios":"levelo://app?vid=20bc478e-c3a8-4799-a9f1-63e6df54eae1"},"vehicle_type_id":"4","last_reported":1740946148,"current_range_meters":8400,"station_id":"ce4bhnh2rcd13ifvqgtg","pricing_plan_id":"cebpf4jnsgd1na2vs0mg"},{"bike_id":"60cb851a-14b2-48f6-8511-6a80cee0eeea","system_id":"levelo_inurba_marseille","lat":43.26939,"lon":5.4027,"is_reserved":false,"is_disabled":false,"rental_uris":{"android":"levelo://app?vid=60cb851a-14b2-48f6-8511-6a80cee0eeea","ios":"levelo://app?vid=60cb851a-14b2-48f6-8511-6a80cee0eeea"},"vehicle_type_id":"4","last_reported":1740946148,"current_range_meters":8400,"station_id":"cjm6bp8fraef2m0cb0m0","pricing_plan_id":"cebpf4jnsgd1na2vs0mg"},{"bike_id":"0693b9d6-4a9d-4e38-bfa2-80f934bcc2e3","system_id":"levelo_inurba_marseille","lat":43.24166,"lon":5.36471,"is_reserved":false,"is_disabled":false,"rental_uris":{"android":"levelo://app?vid=0693b9d6-4a9d-4e38-bfa2-80f934bcc2e3","ios":"levelo://app?vid=0693b9d6-4a9d-4e38-bfa2-80f934bcc2e3"},"vehicle_type_id":"4","last_reported":1740946148,"current_range_meters":8400,"station_id":"cpo36qri1sfpv3e86is0","pricing_plan_id":"cebpf4jnsgd1na2vs0mg"},{"bike_id":"544ab456-a979-4483-b6bb-890eaab587ef","system_id":"levelo_inurba_marseille","lat":43.29533,"lon":5.38552,"is_reserved":false,"is_disabled":false,"rental_uris":{"android":"levelo://app?vid=544ab456-a979-4483-b6bb-890eaab587ef","ios":"levelo://app?vid=544ab456-a979-4483-b6bb-890eaab587ef"},"vehicle_type_id":"4","last_reported":1740946148,"current_range_meters":8800,"station_id":"ce4bgih2rcd13ifvqba0","pricing_plan_id":"cebpf4jnsgd1na2vs0mg"},{"bike_id":"5365f3e3-1095-4284-be0e-5e73a795384b","system_id":"levelo_inurba_marseille","lat":43.25752,"lon":5.41095,"is_reserved":false,"is_disabled":false,"rental_uris":{"android":"levelo://app?vid=5365f3e3-1095-4284-be0e-5e73a795384b","ios":"levelo://app?vid=5365f3e3-1095-4284-be0e-5e73a795384b"},"vehicle_type_id":"4","last_reported":1740946148,"current_range_meters":8800,"station_id":"ce4bhkp2rcd13ifvqgd0","pricing_plan_id":"cebpf4jnsgd1na2vs0mg"},{"bike_id":"59ef5800-ff3c-4c18-9229-7ba16507dc77","system_id":"levelo_inurba_marseille","lat":43.27812,"lon":5.40722,"is_reserved":false,"is_disabled":false,"rental_uris":{"android":"levelo://app?vid=59ef5800-ff3c-4c18-9229-7ba16507dc77","ios":"levelo://app?vid=59ef5800-ff3c-4c18-9229-7ba16507dc77"},"vehicle_type_id":"4","last_reported":1740946148,"current_range_meters":8800,"station_id":"ce4bhnh2rcd13ifvqgtg","pricing_plan_id":"cebpf4jnsgd1na2vs0mg"},{"bike_id":"81cccb68-1445-42dc-8e33-9f16d385e965","system_id":"levelo_inurba_marseille","lat":43.2995,"lon":5.36544,"is_reserved":false,"is_disabled":false,"rental_uris":{"android":"levelo://app?vid=81cccb68-1445-42dc-8e33-9f16d385e965","ios":"levelo://app?vid=81cccb68-1445-42dc-8e33-9f16d385e965"},"vehicle_type_id":"4","last_reported":1740946148,"current_range_meters":9200,"station_id":"ce4bgm92rcd13ifvqbr0","pricing_plan_id":"cebpf4jnsgd1na2vs0mg"},{"bike_id":"adf63bbb-eaa0-45a7-a944-bf55da192429","system_id":"levelo_inurba_marseille","lat":43.29267,"lon":5.38433,"is_reserved":false,"is_disabled":false,"rental_uris":{"android":"levelo://app?vid=adf63bbb-eaa0-45a7-a944-bf55da192429","ios":"levelo://app?vid=adf63bbb-eaa0-45a7-a944-bf55da192429"},"vehicle_type_id":"4","last_reported":1740946148,"current_range_meters":9200,"station_id":"ce4bh692rcd13ifvqea0","pricing_plan_id":"cebpf4jnsgd1na2vs0mg"},{"bike_id":"3cd08aef-c26a-4f04-866d-035dc12fbc13","system_id":"levelo_inurba_marseille","lat":43.29256,"lon":5.38452,"is_reserved":false,"is_disabled":false,"rental_uris":{"android":"levelo://app?vid=3cd08aef-c26a-4f04-866d-035dc12fbc13","ios":"levelo://app?vid=3cd08aef-c26a-4f04-866d-035dc12fbc13"},"vehicle_type_id":"4","last_reported":1740946148,"current_range_meters":9200,"station_id":"ce4bh692rcd13ifvqea0","pricing_plan_id":"cebpf4jnsgd1na2vs0mg"},{"bike_id":"f711a177-8c95-4e96-bcaf-e6e0dc33f59e","system_id":"levelo_inurba_marseille","lat":43.24401,"lon":5.37038,"is_reserved":false,"is_disabled":false,"rental_uris":{"android":"levelo://app?vid=f711a177-8c95-4e96-bcaf-e6e0dc33f59e","ios":"levelo://app?vid=f711a177-8c95-4e96-bcaf-e6e0dc33f59e"},"vehicle_type_id":"4","last_reported":1740946148,"current_range_meters":9200,"station_id":"ce4bhhh2rcd13ifvqfk0","pricing_plan_id":"cebpf4jnsgd1na2vs0mg"},{"bike_id":"13985eab-e3f9-4cc2-ba2f-d24a29935124","system_id":"levelo_inurba_marseille","lat":43.30772,"lon":5.37381,"is_reserved":false,"is_disabled":false,"rental_uris":{"android":"levelo://app?vid=13985eab-e3f9-4cc2-ba2f-d24a29935124","ios":"levelo://app?vid=13985eab-e3f9-4cc2-ba2f-d24a29935124"},"vehicle_type_id":"4","last_reported":1740946148,"current_range_meters":9600,"station_id":"","pricing_plan_id":"cebpf4jnsgd1na2vs0mg"},{"bike_id":"9e505845-4971-47cf-84ef-90a1567fb5d9","system_id":"levelo_inurba_marseille","lat":43.29279,"lon":5.37641,"is_reserved":false,"is_disabled":false,"rental_uris":{"android":"levelo://app?vid=9e505845-4971-47cf-84ef-90a1567fb5d9","ios":"levelo://app?vid=9e505845-4971-47cf-84ef-90a1567fb5d9"},"vehicle_type_id":"4","last_reported":1740946148,"current_range_meters":9600,"station_id":"ce4bgi12rcd13ifvqb80","pricing_plan_id":"cebpf4jnsgd1na2vs0mg"},{"bike_id":"d606c3a5-ef02-42b0-930d-884ebc257989","system_id":"levelo_inurba_marseille","lat":43.28706,"lon":5.37406,"is_reserved":false,"is_disabled":false,"rental_uris":{"android":"levelo://app?vid=d606c3a5-ef02-42b0-930d-884ebc257989","ios":"levelo://app?vid=d606c3a5-ef02-42b0-930d-884ebc257989"},"vehicle_type_id":"4","last_reported":1740946148,"current_range_meters":9600,"station_id":"ce4bh3p2rcd13ifvqdq0","pricing_plan_id":"cebpf4jnsgd1na2vs0mg"},{"bike_id":"37955086-1793-423e-884f-2fbdb3cb1087","system_id":"levelo_inurba_marseille","lat":43.26933,"lon":5.38916,"is_reserved":false,"is_disabled":false,"rental_uris":{"android":"levelo://app?vid=37955086-1793-423e-884f-2fbdb3cb1087","ios":"levelo://app?vid=37955086-1793-423e-884f-2fbdb3cb1087"},"vehicle_type_id":"4","last_reported":1740946148,"current_range_meters":9600,"station_id":"ce4bhhh2rcd13ifvqfl0","pricing_plan_id":"cebpf4jnsgd1na2vs0mg"},{"bike_id":"ab1060c6-b742-499d-b43e-31b55742689d","system_id":"levelo_inurba_marseille","lat":43.27815,"lon":5.40711,"is_reserved":false,"is_disabled":false,"rental_uris":{"android":"levelo://app?vid=ab1060c6-b742-499d-b43e-31b55742689d","ios":"levelo://app?vid=ab1060c6-b742-499d-b43e-31b55742689d"},"vehicle_type_id":"4","last_reported":1740946148,"current_range_meters":9600,"station_id":"ce4bhnh2rcd13ifvqgtg","pricing_plan_id":"cebpf4jnsgd1na2vs0mg"},{"bike_id":"372b0032-ea0b-4c81-98a7-bdc7da57d72d","system_id":"levelo_inurba_marseille","lat":43.30415,"lon":5.41294,"is_reserved":false,"is_disabled":false,"rental_uris":{"android":"levelo://app?vid=372b0032-ea0b-4c81-98a7-bdc7da57d72d","ios":"levelo://app?vid=372b0032-ea0b-4c81-98a7-bdc7da57d72d"},"vehicle_type_id":"4","last_reported":1740946148,"current_range_meters":9600,"station_id":"ce4bhop2rcd13ifvqh8g","pricing_plan_id":"cebpf4jnsgd1na2vs0mg"},{"bike_id":"5e39dfc5-d10e-43c6-906b-15e40fd08157","system_id":"levelo_inurba_marseille","lat":43.2979,"lon":5.38102,"is_reserved":false,"is_disabled":false,"rental_uris":{"android":"levelo://app?vid=5e39dfc5-d10e-43c6-906b-15e40fd08157","ios":"levelo://app?vid=5e39dfc5-d10e-43c6-906b-15e40fd08157"},"vehicle_type_id":"4","last_reported":1740946148,"current_range_meters":10000,"station_id":"ce4bgip2rcd13ifvqbb0","pricing_plan_id":"cebpf4jnsgd1na2vs0mg"},{"bike_id":"da2c29f9-0495-4043-8bbc-cd4af74653dd","system_id":"levelo_inurba_marseille","lat":43.31267,"lon":5.40176,"is_reserved":false,"is_disabled":false,"rental_uris":{"android":"levelo://app?vid=da2c29f9-0495-4043-8bbc-cd4af74653dd","ios":"levelo://app?vid=da2c29f9-0495-4043-8bbc-cd4af74653dd"},"vehicle_type_id":"4","last_reported":1740946148,"current_range_meters":10000,"station_id":"ce4bh092rcd13ifvqd30","pricing_plan_id":"cebpf4jnsgd1na2vs0mg"},{"bike_id":"6a87896c-84d2-4f08-ab94-d9c74862105f","system_id":"levelo_inurba_marseille","lat":43.28943,"lon":5.39628,"is_reserved":false,"is_disabled":false,"rental_uris":{"android":"levelo://app?vid=6a87896c-84d2-4f08-ab94-d9c74862105f","ios":"levelo://app?vid=6a87896c-84d2-4f08-ab94-d9c74862105f"},"vehicle_type_id":"4","last_reported":1740946148,"current_range_meters":10000,"station_id":"ce4bh3h2rcd13ifvqdn0","pricing_plan_id":"cebpf4jnsgd1na2vs0mg"},{"bike_id":"46902cfe-8f81-40a1-906d-2bc1c57ea306","system_id":"levelo_inurba_marseille","lat":43.29267,"lon":5.38439,"is_reserved":false,"is_disabled":false,"rental_uris":{"android":"levelo://app?vid=46902cfe-8f81-40a1-906d-2bc1c57ea306","ios":"levelo://app?vid=46902cfe-8f81-40a1-906d-2bc1c57ea306"},"vehicle_type_id":"4","last_reported":1740946148,"current_range_meters":10000,"station_id":"ce4bh692rcd13ifvqea0","pricing_plan_id":"cebpf4jnsgd1na2vs0mg"},{"bike_id":"2fb3e544-8b42-44c2-8088-0158eef00a62","system_id":"levelo_inurba_marseille","lat":43.27061,"lon":5.40255,"is_reserved":false,"is_disabled":false,"rental_uris":{"android":"levelo://app?vid=2fb3e544-8b42-44c2-8088-0158eef00a62","ios":"levelo://app?vid=2fb3e544-8b42-44c2-8088-0158eef00a62"},"vehicle_type_id":"4","last_reported":1740946148,"current_range_meters":10000,"station_id":"ce4bhk92rcd13ifvqgc0","pricing_plan_id":"cebpf4jnsgd1na2vs0mg"},{"bike_id":"12693aca-a270-498f-8eea-9f4b1639864e","system_id":"levelo_inurba_marseille","lat":43.26937,"lon":5.4026,"is_reserved":false,"is_disabled":false,"rental_uris":{"android":"levelo://app?vid=12693aca-a270-498f-8eea-9f4b1639864e","ios":"levelo://app?vid=12693aca-a270-498f-8eea-9f4b1639864e"},"vehicle_type_id":"4","last_reported":1740946148,"current_range_meters":10000,"station_id":"cjm6bp8fraef2m0cb0m0","pricing_plan_id":"cebpf4jnsgd1na2vs0mg"},{"bike_id":"a0e2f7cd-e0b0-4a62-bcc3-a37d69fc219e","system_id":"levelo_inurba_marseille","lat":43.29625,"lon":5.38103,"is_reserved":false,"is_disabled":false,"rental_uris":{"android":"levelo://app?vid=a0e2f7cd-e0b0-4a62-bcc3-a37d69fc219e","ios":"levelo://app?vid=a0e2f7cd-e0b0-4a62-bcc3-a37d69fc219e"},"vehicle_type_id":"4","last_reported":1740946148,"current_range_meters":10800,"station_id":"ce4bgl12rcd13ifvqbo0","pricing_plan_id":"cebpf4jnsgd1na2vs0mg"},{"bike_id":"24c526bd-d370-4ef3-8593-b03621bdcb47","system_id":"levelo_inurba_marseille","lat":43.28415,"lon":5.37557,"is_reserved":false,"is_disabled":false,"rental_uris":{"android":"levelo://app?vid=24c526bd-d370-4ef3-8593-b03621bdcb47","ios":"levelo://app?vid=24c526bd-d370-4ef3-8593-b03621bdcb47"},"vehicle_type_id":"4","last_reported":1740946148,"current_range_meters":10800,"station_id":"ce4bh412rcd13ifvqds0","pricing_plan_id":"cebpf4jnsgd1na2vs0mg"},{"bike_id":"a5326f2b-4f2a-48ed-adf8-a5da58448bac","system_id":"levelo_inurba_marseille","lat":43.286867,"lon":5.386617,"is_reserved":false,"is_disabled":false,"rental_uris":{"android":"levelo://app?vid=a5326f2b-4f2a-48ed-adf8-a5da58448bac","ios":"levelo://app?vid=a5326f2b-4f2a-48ed-adf8-a5da58448bac"},"vehicle_type_id":"4","last_reported":1740946148,"current_range_meters":10800,"station_id":"ce4bh492rcd13ifvqdug","pricing_plan_id":"cebpf4jnsgd1na2vs0mg"},{"bike_id":"d15a920c-600b-4ae1-bbc4-6f27080680ca","system_id":"levelo_inurba_marseille","lat":43.2466,"lon":5.38167,"is_reserved":false,"is_disabled":false,"rental_uris":{"android":"levelo://app?vid=d15a920c-600b-4ae1-bbc4-6f27080680ca","ios":"levelo://app?vid=d15a920c-600b-4ae1-bbc4-6f27080680ca"},"vehicle_type_id":"4","last_reported":1740946148,"current_range_meters":10800,"station_id":"ce4bhih2rcd13ifvqfr0","pricing_plan_id":"cebpf4jnsgd1na2vs0mg"},{"bike_id":"efe6e8a5-0631-4f20-9864-926edb240891","system_id":"levelo_inurba_marseille","lat":43.27497,"lon":5.42449,"is_reserved":false,"is_disabled":false,"rental_uris":{"android":"levelo://app?vid=efe6e8a5-0631-4f20-9864-926edb240891","ios":"levelo://app?vid=efe6e8a5-0631-4f20-9864-926edb240891"},"vehicle_type_id":"4","last_reported":1740946148,"current_range_meters":10800,"station_id":"ce4bhn92rcd13ifvqgrg","pricing_plan_id":"cebpf4jnsgd1na2vs0mg"},{"bike_id":"41e9e4b8-e4ab-4977-92a7-bb833bde980c","system_id":"levelo_inurba_marseille","lat":43.29547,"lon":5.42243,"is_reserved":false,"is_disabled":false,"rental_uris":{"android":"levelo://app?vid=41e9e4b8-e4ab-4977-92a7-bb833bde980c","ios":"levelo://app?vid=41e9e4b8-e4ab-4977-92a7-bb833bde980c"},"vehicle_type_id":"4","last_reported":1740946148,"current_range_meters":10800,"station_id":"ce4bhph2rcd13ifvqhdg","pricing_plan_id":"cebpf4jnsgd1na2vs0mg"},{"bike_id":"3c9c65ff-a2a8-4c52-a6f4-62bcc77556ef","system_id":"levelo_inurba_marseille","lat":43.24149,"lon":5.36443,"is_reserved":false,"is_disabled":false,"rental_uris":{"android":"levelo://app?vid=3c9c65ff-a2a8-4c52-a6f4-62bcc77556ef","ios":"levelo://app?vid=3c9c65ff-a2a8-4c52-a6f4-62bcc77556ef"},"vehicle_type_id":"4","last_reported":1740946148,"current_range_meters":10800,"station_id":"cpo36qri1sfpv3e86is0","pricing_plan_id":"cebpf4jnsgd1na2vs0mg"},{"bike_id":"88d09cbc-1497-4fea-99b9-c1fe29ff58f0","system_id":"levelo_inurba_marseille","lat":43.280476,"lon":5.366054,"is_reserved":false,"is_disabled":false,"rental_uris":{"android":"levelo://app?vid=88d09cbc-1497-4fea-99b9-c1fe29ff58f0","ios":"levelo://app?vid=88d09cbc-1497-4fea-99b9-c1fe29ff58f0"},"vehicle_type_id":"4","last_reported":1740946148,"current_range_meters":11200,"station_id":"","pricing_plan_id":"cebpf4jnsgd1na2vs0mg"},{"bike_id":"1599b5ab-8023-4aaf-81ba-bc91fda2d0b9","system_id":"levelo_inurba_marseille","lat":43.29533,"lon":5.3854,"is_reserved":false,"is_disabled":false,"rental_uris":{"android":"levelo://app?vid=1599b5ab-8023-4aaf-81ba-bc91fda2d0b9","ios":"levelo://app?vid=1599b5ab-8023-4aaf-81ba-bc91fda2d0b9"},"vehicle_type_id":"4","last_reported":1740946148,"current_range_meters":11200,"station_id":"ce4bgih2rcd13ifvqba0","pricing_plan_id":"cebpf4jnsgd1na2vs0mg"},{"bike_id":"0c4e757c-3c25-41ec-b62f-429ea115924f","system_id":"levelo_inurba_marseille","lat":43.29979,"lon":5.38498,"is_reserved":false,"is_disabled":false,"rental_uris":{"android":"levelo://app?vid=0c4e757c-3c25-41ec-b62f-429ea115924f","ios":"levelo://app?vid=0c4e757c-3c25-41ec-b62f-429ea115924f"},"vehicle_type_id":"4","last_reported":1740946148,"current_range_meters":11200,"station_id":"ce4bgj92rcd13ifvqbd0","pricing_plan_id":"cebpf4jnsgd1na2vs0mg"},{"bike_id":"f7201458-4a84-41e3-9432-885042a6d55a","system_id":"levelo_inurba_marseille","lat":43.26209,"lon":5.37443,"is_reserved":false,"is_disabled":false,"rental_uris":{"android":"levelo://app?vid=f7201458-4a84-41e3-9432-885042a6d55a","ios":"levelo://app?vid=f7201458-4a84-41e3-9432-885042a6d55a"},"vehicle_type_id":"4","last_reported":1740946148,"current_range_meters":11200,"station_id":"ce4bhgp2rcd13ifvqfc0","pricing_plan_id":"cebpf4jnsgd1na2vs0mg"},{"bike_id":"a3e4e670-96af-42cb-8c2e-a7c558780b0b","system_id":"levelo_inurba_marseille","lat":43.24075,"lon":5.37757,"is_reserved":false,"is_disabled":false,"rental_uris":{"android":"levelo://app?vid=a3e4e670-96af-42cb-8c2e-a7c558780b0b","ios":"levelo://app?vid=a3e4e670-96af-42cb-8c2e-a7c558780b0b"},"vehicle_type_id":"4","last_reported":1740946148,"current_range_meters":11200,"station_id":"ce4bhnp2rcd13ifvqgvg","pricing_plan_id":"cebpf4jnsgd1na2vs0mg"},{"bike_id":"26c955ee-b34d-4e21-9012-fe7baa9646e7","system_id":"levelo_inurba_marseille","lat":43.2681,"lon":5.40263,"is_reserved":false,"is_disabled":false,"rental_uris":{"android":"levelo://app?vid=26c955ee-b34d-4e21-9012-fe7baa9646e7","ios":"levelo://app?vid=26c955ee-b34d-4e21-9012-fe7baa9646e7"},"vehicle_type_id":"4","last_reported":1740946148,"current_range_meters":11200,"station_id":"ce501612rcd8frsf0b60","pricing_plan_id":"cebpf4jnsgd1na2vs0mg"},{"bike_id":"9ad685e1-cb48-41dd-abdf-0068973de15e","system_id":"levelo_inurba_marseille","lat":43.311713,"lon":5.387201,"is_reserved":false,"is_disabled":false,"rental_uris":{"android":"levelo://app?vid=9ad685e1-cb48-41dd-abdf-0068973de15e","ios":"levelo://app?vid=9ad685e1-cb48-41dd-abdf-0068973de15e"},"vehicle_type_id":"4","last_reported":1740946148,"current_range_meters":11600,"station_id":"ce4bgv12rcd13ifvqcp0","pricing_plan_id":"cebpf4jnsgd1na2vs0mg"},{"bike_id":"e2b1a275-4d0d-4cb2-b04e-3fec09057be8","system_id":"levelo_inurba_marseille","lat":43.287,"lon":5.37392,"is_reserved":false,"is_disabled":false,"rental_uris":{"android":"levelo://app?vid=e2b1a275-4d0d-4cb2-b04e-3fec09057be8","ios":"levelo://app?vid=e2b1a275-4d0d-4cb2-b04e-3fec09057be8"},"vehicle_type_id":"4","last_reported":1740946148,"current_range_meters":11600,"station_id":"ce4bh3p2rcd13ifvqdq0","pricing_plan_id":"cebpf4jnsgd1na2vs0mg"},{"bike_id":"c3e8a4e0-c650-4576-abdc-05eab88a54e9","system_id":"levelo_inurba_marseille","lat":43.27994,"lon":5.40008,"is_reserved":false,"is_disabled":false,"rental_uris":{"android":"levelo://app?vid=c3e8a4e0-c650-4576-abdc-05eab88a54e9","ios":"levelo://app?vid=c3e8a4e0-c650-4576-abdc-05eab88a54e9"},"vehicle_type_id":"4","last_reported":1740946148,"current_range_meters":11600,"station_id":"ce4bho92rcd13ifvqh4g","pricing_plan_id":"cebpf4jnsgd1na2vs0mg"},{"bike_id":"61e3c74e-7012-4cb6-8ef4-17db5d82fdf7","system_id":"levelo_inurba_marseille","lat":43.25332,"lon":5.39297,"is_reserved":false,"is_disabled":false,"rental_uris":{"android":"levelo://app?vid=61e3c74e-7012-4cb6-8ef4-17db5d82fdf7","ios":"levelo://app?vid=61e3c74e-7012-4cb6-8ef4-17db5d82fdf7"},"vehicle_type_id":"4","last_reported":1740946148,"current_range_meters":12000,"station_id":"","pricing_plan_id":"cebpf4jnsgd1na2vs0mg"},{"bike_id":"e06ae453-e5ac-479c-bd92-9a403221714b","system_id":"levelo_inurba_marseille","lat":43.30953,"lon":5.39031,"is_reserved":false,"is_disabled":false,"rental_uris":{"android":"levelo://app?vid=e06ae453-e5ac-479c-bd92-9a403221714b","ios":"levelo://app?vid=e06ae453-e5ac-479c-bd92-9a403221714b"},"vehicle_type_id":"4","last_reported":1740946148,"current_range_meters":12000,"station_id":"ce4bgup2rcd13ifvqco0","pricing_plan_id":"cebpf4jnsgd1na2vs0mg"},{"bike_id":"2baa42cb-e0c1-4d09-abff-60f3461b35e1","system_id":"levelo_inurba_marseille","lat":43.27425,"lon":5.39419,"is_reserved":false,"is_disabled":false,"rental_uris":{"android":"levelo://app?vid=2baa42cb-e0c1-4d09-abff-60f3461b35e1","ios":"levelo://app?vid=2baa42cb-e0c1-4d09-abff-60f3461b35e1"},"vehicle_type_id":"4","last_reported":1740946148,"current_range_meters":12000,"station_id":"ce4bhdp2rcd13ifvqf20","pricing_plan_id":"cebpf4jnsgd1na2vs0mg"},{"bike_id":"12ab922a-f881-4968-9e63-ec8d58f2ca05","system_id":"levelo_inurba_marseille","lat":43.24812,"lon":5.37451,"is_reserved":false,"is_disabled":false,"rental_uris":{"android":"levelo://app?vid=12ab922a-f881-4968-9e63-ec8d58f2ca05","ios":"levelo://app?vid=12ab922a-f881-4968-9e63-ec8d58f2ca05"},"vehicle_type_id":"4","last_reported":1740946148,"current_range_meters":12000,"station_id":"ce4bhgh2rcd13ifvqfb0","pricing_plan_id":"cebpf4jnsgd1na2vs0mg"},{"bike_id":"73c055ed-bd90-41ef-83ed-6ad67372b4be","system_id":"levelo_inurba_marseille","lat":43.2505,"lon":5.38843,"is_reserved":false,"is_disabled":false,"rental_uris":{"android":"levelo://app?vid=73c055ed-bd90-41ef-83ed-6ad67372b4be","ios":"levelo://app?vid=73c055ed-bd90-41ef-83ed-6ad67372b4be"},"vehicle_type_id":"4","last_reported":1740946148,"current_range_meters":12000,"station_id":"ce4bhgp2rcd13ifvqfd0","pricing_plan_id":"cebpf4jnsgd1na2vs0mg"},{"bike_id":"afaa6ab0-706f-48b9-9e8b-246ecf081361","system_id":"levelo_inurba_marseille","lat":43.24392,"lon":5.3707,"is_reserved":false,"is_disabled":false,"rental_uris":{"android":"levelo://app?vid=afaa6ab0-706f-48b9-9e8b-246ecf081361","ios":"levelo://app?vid=afaa6ab0-706f-48b9-9e8b-246ecf081361"},"vehicle_type_id":"4","last_reported":1740946148,"current_range_meters":12000,"station_id":"ce4bhhh2rcd13ifvqfk0","pricing_plan_id":"cebpf4jnsgd1na2vs0mg"},{"bike_id":"f2c0ca3b-8324-45cc-9282-3b53540210ba","system_id":"levelo_inurba_marseille","lat":43.29558,"lon":5.42264,"is_reserved":false,"is_disabled":false,"rental_uris":{"android":"levelo://app?vid=f2c0ca3b-8324-45cc-9282-3b53540210ba","ios":"levelo://app?vid=f2c0ca3b-8324-45cc-9282-3b53540210ba"},"vehicle_type_id":"4","last_reported":1740946148,"current_range_meters":12000,"station_id":"ce4bhph2rcd13ifvqhdg","pricing_plan_id":"cebpf4jnsgd1na2vs0mg"},{"bike_id":"9c998cd3-a77e-480d-af08-1baf203adea4","system_id":"levelo_inurba_marseille","lat":43.290225,"lon":5.386382,"is_reserved":false,"is_disabled":false,"rental_uris":{"android":"levelo://app?vid=9c998cd3-a77e-480d-af08-1baf203adea4","ios":"levelo://app?vid=9c998cd3-a77e-480d-af08-1baf203adea4"},"vehicle_type_id":"4","last_reported":1740946148,"current_range_meters":12400,"station_id":"ce4bh9p2rcd13ifvqec0","pricing_plan_id":"cebpf4jnsgd1na2vs0mg"},{"bike_id":"c3cb9c6b-78bb-4109-a3e3-501ffe4e834d","system_id":"levelo_inurba_marseille","lat":43.273,"lon":5.39115,"is_reserved":false,"is_disabled":false,"rental_uris":{"android":"levelo://app?vid=c3cb9c6b-78bb-4109-a3e3-501ffe4e834d","ios":"levelo://app?vid=c3cb9c6b-78bb-4109-a3e3-501ffe4e834d"},"vehicle_type_id":"4","last_reported":1740946148,"current_range_meters":12400,"station_id":"ce4bhgp2rcd13ifvqfe0","pricing_plan_id":"cebpf4jnsgd1na2vs0mg"},{"bike_id":"c54897dd-1cd9-48eb-8da8-cedae07f6dd2","system_id":"levelo_inurba_marseille","lat":43.27226,"lon":5.3919,"is_reserved":false,"is_disabled":false,"rental_uris":{"android":"levelo://app?vid=c54897dd-1cd9-48eb-8da8-cedae07f6dd2","ios":"levelo://app?vid=c54897dd-1cd9-48eb-8da8-cedae07f6dd2"},"vehicle_type_id":"4","last_reported":1740946148,"current_range_meters":12400,"station_id":"ce4bhhp2rcd13ifvqfm0","pricing_plan_id":"cebpf4jnsgd1na2vs0mg"},{"bike_id":"8ae3b1c3-aaad-4efb-802c-97a1e162b8ab","system_id":"levelo_inurba_marseille","lat":43.25573,"lon":5.38249,"is_reserved":false,"is_disabled":false,"rental_uris":{"android":"levelo://app?vid=8ae3b1c3-aaad-4efb-802c-97a1e162b8ab","ios":"levelo://app?vid=8ae3b1c3-aaad-4efb-802c-97a1e162b8ab"},"vehicle_type_id":"4","last_reported":1740946148,"current_range_meters":12400,"station_id":"ce4bhih2rcd13ifvqfs0","pricing_plan_id":"cebpf4jnsgd1na2vs0mg"},{"bike_id":"0dbffb11-eeff-46f0-bc8a-af1680ab7d9b","system_id":"levelo_inurba_marseille","lat":43.313627,"lon":5.384883,"is_reserved":false,"is_disabled":false,"rental_uris":{"android":"levelo://app?vid=0dbffb11-eeff-46f0-bc8a-af1680ab7d9b","ios":"levelo://app?vid=0dbffb11-eeff-46f0-bc8a-af1680ab7d9b"},"vehicle_type_id":"4","last_reported":1740946148,"current_range_meters":12800,"station_id":"ce4bgt92rcd13ifvqcf0","pricing_plan_id":"cebpf4jnsgd1na2vs0mg"},{"bike_id":"2e7fb5cd-2e99-4cc9-92f0-4e595c1edef2","system_id":"levelo_inurba_marseille","lat":43.27314,"lon":5.39028,"is_reserved":false,"is_disabled":false,"rental_uris":{"android":"levelo://app?vid=2e7fb5cd-2e99-4cc9-92f0-4e595c1edef2","ios":"levelo://app?vid=2e7fb5cd-2e99-4cc9-92f0-4e595c1edef2"},"vehicle_type_id":"4","last_reported":1740946148,"current_range_meters":12800,"station_id":"ce4bhgp2rcd13ifvqfe0","pricing_plan_id":"cebpf4jnsgd1na2vs0mg"},{"bike_id":"0d533f29-0ec6-4d93-a9bc-407b4b0fa6eb","system_id":"levelo_inurba_marseille","lat":43.26783,"lon":5.39436,"is_reserved":false,"is_disabled":false,"rental_uris":{"android":"levelo://app?vid=0d533f29-0ec6-4d93-a9bc-407b4b0fa6eb","ios":"levelo://app?vid=0d533f29-0ec6-4d93-a9bc-407b4b0fa6eb"},"vehicle_type_id":"4","last_reported":1740946148,"current_range_meters":12800,"station_id":"ce4bhh12rcd13ifvqfg0","pricing_plan_id":"cebpf4jnsgd1na2vs0mg"},{"bike_id":"57c3a022-05e2-4a53-8b8d-867606a3207d","system_id":"levelo_inurba_marseille","lat":43.25874,"lon":5.39886,"is_reserved":false,"is_disabled":false,"rental_uris":{"android":"levelo://app?vid=57c3a022-05e2-4a53-8b8d-867606a3207d","ios":"levelo://app?vid=57c3a022-05e2-4a53-8b8d-867606a3207d"},"vehicle_type_id":"4","last_reported":1740946148,"current_range_meters":12800,"station_id":"ce4bhl92rcd13ifvqghg","pricing_plan_id":"cebpf4jnsgd1na2vs0mg"},{"bike_id":"5c81af79-853e-44ee-b07e-7605f1ed4791","system_id":"levelo_inurba_marseille","lat":43.27814,"lon":5.40709,"is_reserved":false,"is_disabled":false,"rental_uris":{"android":"levelo://app?vid=5c81af79-853e-44ee-b07e-7605f1ed4791","ios":"levelo://app?vid=5c81af79-853e-44ee-b07e-7605f1ed4791"},"vehicle_type_id":"4","last_reported":1740946148,"current_range_meters":12800,"station_id":"ce4bhnh2rcd13ifvqgtg","pricing_plan_id":"cebpf4jnsgd1na2vs0mg"},{"bike_id":"b185f670-0f4c-43dc-b7b8-6142639d3155","system_id":"levelo_inurba_marseille","lat":43.27821,"lon":5.407,"is_reserved":false,"is_disabled":false,"rental_uris":{"android":"levelo://app?vid=b185f670-0f4c-43dc-b7b8-6142639d3155","ios":"levelo://app?vid=b185f670-0f4c-43dc-b7b8-6142639d3155"},"vehicle_type_id":"4","last_reported":1740946148,"current_range_meters":12800,"station_id":"ce4bhnh2rcd13ifvqgtg","pricing_plan_id":"cebpf4jnsgd1na2vs0mg"},{"bike_id":"cfcb0273-7337-4621-96ed-1e1413e21f71","system_id":"levelo_inurba_marseille","lat":43.3104,"lon":5.38941,"is_reserved":false,"is_disabled":false,"rental_uris":{"android":"levelo://app?vid=cfcb0273-7337-4621-96ed-1e1413e21f71","ios":"levelo://app?vid=cfcb0273-7337-4621-96ed-1e1413e21f71"},"vehicle_type_id":"4","last_reported":1740946148,"current_range_meters":13600,"station_id":"","pricing_plan_id":"cebpf4jnsgd1na2vs0mg"},{"bike_id":"d5deff19-5144-4fbb-8256-b8604f457cf9","system_id":"levelo_inurba_marseille","lat":43.30807,"lon":5.37656,"is_reserved":false,"is_disabled":false,"rental_uris":{"android":"levelo://app?vid=d5deff19-5144-4fbb-8256-b8604f457cf9","ios":"levelo://app?vid=d5deff19-5144-4fbb-8256-b8604f457cf9"},"vehicle_type_id":"4","last_reported":1740946148,"current_range_meters":13600,"station_id":"ce4bgv92rcd13ifvqcq0","pricing_plan_id":"cebpf4jnsgd1na2vs0mg"},{"bike_id":"64888b8e-143b-494c-8b67-062ed6e5af0f","system_id":"levelo_inurba_marseille","lat":43.29868,"lon":5.39734,"is_reserved":false,"is_disabled":false,"rental_uris":{"android":"levelo://app?vid=64888b8e-143b-494c-8b67-062ed6e5af0f","ios":"levelo://app?vid=64888b8e-143b-494c-8b67-062ed6e5af0f"},"vehicle_type_id":"4","last_reported":1740946148,"current_range_meters":13600,"station_id":"ce4bh0h2rcd13ifvqd50","pricing_plan_id":"cebpf4jnsgd1na2vs0mg"},{"bike_id":"765f1682-808a-46a1-93fb-f92ca578247d","system_id":"levelo_inurba_marseille","lat":43.30646,"lon":5.40081,"is_reserved":false,"is_disabled":false,"rental_uris":{"android":"levelo://app?vid=765f1682-808a-46a1-93fb-f92ca578247d","ios":"levelo://app?vid=765f1682-808a-46a1-93fb-f92ca578247d"},"vehicle_type_id":"4","last_reported":1740946148,"current_range_meters":13600,"station_id":"ce4bh112rcd13ifvqda0","pricing_plan_id":"cebpf4jnsgd1na2vs0mg"},{"bike_id":"48daebb4-ffc6-423d-a40d-23ab69e0824c","system_id":"levelo_inurba_marseille","lat":43.27551,"lon":5.38431,"is_reserved":false,"is_disabled":false,"rental_uris":{"android":"levelo://app?vid=48daebb4-ffc6-423d-a40d-23ab69e0824c","ios":"levelo://app?vid=48daebb4-ffc6-423d-a40d-23ab69e0824c"},"vehicle_type_id":"4","last_reported":1740946148,"current_range_meters":13600,"station_id":"ce4bhh92rcd13ifvqfi0","pricing_plan_id":"cebpf4jnsgd1na2vs0mg"},{"bike_id":"18ed809a-93be-4ceb-a90d-b4661309b51d","system_id":"levelo_inurba_marseille","lat":43.30949,"lon":5.37425,"is_reserved":false,"is_disabled":false,"rental_uris":{"android":"levelo://app?vid=18ed809a-93be-4ceb-a90d-b4661309b51d","ios":"levelo://app?vid=18ed809a-93be-4ceb-a90d-b4661309b51d"},"vehicle_type_id":"4","last_reported":1740946148,"current_range_meters":14000,"station_id":"","pricing_plan_id":"cebpf4jnsgd1na2vs0mg"},{"bike_id":"0e3c915f-7365-4879-9e5c-a1b1fe853dcc","system_id":"levelo_inurba_marseille","lat":43.29536,"lon":5.3854,"is_reserved":false,"is_disabled":false,"rental_uris":{"android":"levelo://app?vid=0e3c915f-7365-4879-9e5c-a1b1fe853dcc","ios":"levelo://app?vid=0e3c915f-7365-4879-9e5c-a1b1fe853dcc"},"vehicle_type_id":"4","last_reported":1740946148,"current_range_meters":14000,"station_id":"ce4bgih2rcd13ifvqba0","pricing_plan_id":"cebpf4jnsgd1na2vs0mg"},{"bike_id":"49911b1f-df50-4168-a292-73a12d729034","system_id":"levelo_inurba_marseille","lat":43.28938,"lon":5.3842,"is_reserved":false,"is_disabled":false,"rental_uris":{"android":"levelo://app?vid=49911b1f-df50-4168-a292-73a12d729034","ios":"levelo://app?vid=49911b1f-df50-4168-a292-73a12d729034"},"vehicle_type_id":"4","last_reported":1740946148,"current_range_meters":14000,"station_id":"ce4bh612rcd13ifvqe6g","pricing_plan_id":"cebpf4jnsgd1na2vs0mg"},{"bike_id":"ac5892ae-ac78-4c04-aae1-c25c0dd1c9a4","system_id":"levelo_inurba_marseille","lat":43.26834,"lon":5.40273,"is_reserved":false,"is_disabled":false,"rental_uris":{"android":"levelo://app?vid=ac5892ae-ac78-4c04-aae1-c25c0dd1c9a4","ios":"levelo://app?vid=ac5892ae-ac78-4c04-aae1-c25c0dd1c9a4"},"vehicle_type_id":"4","last_reported":1740946148,"current_range_meters":14000,"station_id":"ce501612rcd8frsf0b60","pricing_plan_id":"cebpf4jnsgd1na2vs0mg"},{"bike_id":"c5b35fc3-133b-4fcd-9bc1-000b1b46221f","system_id":"levelo_inurba_marseille","lat":43.24163,"lon":5.36395,"is_reserved":false,"is_disabled":false,"rental_uris":{"android":"levelo://app?vid=c5b35fc3-133b-4fcd-9bc1-000b1b46221f","ios":"levelo://app?vid=c5b35fc3-133b-4fcd-9bc1-000b1b46221f"},"vehicle_type_id":"4","last_reported":1740946148,"current_range_meters":14000,"station_id":"cpo36qri1sfpv3e86is0","pricing_plan_id":"cebpf4jnsgd1na2vs0mg"},{"bike_id":"560e91a6-2fa4-4d10-ba45-b1c12733f41d","system_id":"levelo_inurba_marseille","lat":43.29373,"lon":5.37852,"is_reserved":false,"is_disabled":false,"rental_uris":{"android":"levelo://app?vid=560e91a6-2fa4-4d10-ba45-b1c12733f41d","ios":"levelo://app?vid=560e91a6-2fa4-4d10-ba45-b1c12733f41d"},"vehicle_type_id":"4","last_reported":1740946148,"current_range_meters":14400,"station_id":"ce4bgjh2rcd13ifvqbf0","pricing_plan_id":"cebpf4jnsgd1na2vs0mg"},{"bike_id":"edc1a413-247b-4125-8ff6-3193d9b9b0b7","system_id":"levelo_inurba_marseille","lat":43.2439,"lon":5.37065,"is_reserved":false,"is_disabled":false,"rental_uris":{"android":"levelo://app?vid=edc1a413-247b-4125-8ff6-3193d9b9b0b7","ios":"levelo://app?vid=edc1a413-247b-4125-8ff6-3193d9b9b0b7"},"vehicle_type_id":"4","last_reported":1740946148,"current_range_meters":14400,"station_id":"ce4bhhh2rcd13ifvqfk0","pricing_plan_id":"cebpf4jnsgd1na2vs0mg"},{"bike_id":"1307fc65-524d-4570-b1d0-3705c0568da3","system_id":"levelo_inurba_marseille","lat":43.27814,"lon":5.40713,"is_reserved":false,"is_disabled":false,"rental_uris":{"android":"levelo://app?vid=1307fc65-524d-4570-b1d0-3705c0568da3","ios":"levelo://app?vid=1307fc65-524d-4570-b1d0-3705c0568da3"},"vehicle_type_id":"4","last_reported":1740946148,"current_range_meters":14400,"station_id":"ce4bhnh2rcd13ifvqgtg","pricing_plan_id":"cebpf4jnsgd1na2vs0mg"},{"bike_id":"c9e35021-18bc-4405-a56b-6d472771b28a","system_id":"levelo_inurba_marseille","lat":43.29559,"lon":5.42296,"is_reserved":false,"is_disabled":false,"rental_uris":{"android":"levelo://app?vid=c9e35021-18bc-4405-a56b-6d472771b28a","ios":"levelo://app?vid=c9e35021-18bc-4405-a56b-6d472771b28a"},"vehicle_type_id":"4","last_reported":1740946148,"current_range_meters":14400,"station_id":"ce4bhph2rcd13ifvqhdg","pricing_plan_id":"cebpf4jnsgd1na2vs0mg"},{"bike_id":"d29e82e5-442b-4177-903e-3742ab7d0a8c","system_id":"levelo_inurba_marseille","lat":43.30042,"lon":5.37473,"is_reserved":false,"is_disabled":false,"rental_uris":{"android":"levelo://app?vid=d29e82e5-442b-4177-903e-3742ab7d0a8c","ios":"levelo://app?vid=d29e82e5-442b-4177-903e-3742ab7d0a8c"},"vehicle_type_id":"4","last_reported":1740946148,"current_range_meters":14800,"station_id":"","pricing_plan_id":"cebpf4jnsgd1na2vs0mg"},{"bike_id":"b81da216-2962-45b7-afc4-dbe8b9663f8d","system_id":"levelo_inurba_marseille","lat":43.27672,"lon":5.38932,"is_reserved":false,"is_disabled":false,"rental_uris":{"android":"levelo://app?vid=b81da216-2962-45b7-afc4-dbe8b9663f8d","ios":"levelo://app?vid=b81da216-2962-45b7-afc4-dbe8b9663f8d"},"vehicle_type_id":"4","last_reported":1740946148,"current_range_meters":14800,"station_id":"ce4bhi12rcd13ifvqfo0","pricing_plan_id":"cebpf4jnsgd1na2vs0mg"},{"bike_id":"2975d942-7a9c-42db-a7f3-75fffbb5b106","system_id":"levelo_inurba_marseille","lat":43.26955,"lon":5.40253,"is_reserved":false,"is_disabled":false,"rental_uris":{"android":"levelo://app?vid=2975d942-7a9c-42db-a7f3-75fffbb5b106","ios":"levelo://app?vid=2975d942-7a9c-42db-a7f3-75fffbb5b106"},"vehicle_type_id":"4","last_reported":1740946148,"current_range_meters":14800,"station_id":"cjm6bp8fraef2m0cb0m0","pricing_plan_id":"cebpf4jnsgd1na2vs0mg"},{"bike_id":"2c5f6957-d531-40e4-8342-1a9be631de97","system_id":"levelo_inurba_marseille","lat":43.28417,"lon":5.3753,"is_reserved":false,"is_disabled":false,"rental_uris":{"android":"levelo://app?vid=2c5f6957-d531-40e4-8342-1a9be631de97","ios":"levelo://app?vid=2c5f6957-d531-40e4-8342-1a9be631de97"},"vehicle_type_id":"4","last_reported":1740946148,"current_range_meters":15200,"station_id":"ce4bh412rcd13ifvqds0","pricing_plan_id":"cebpf4jnsgd1na2vs0mg"},{"bike_id":"670122a3-157a-4ef1-82d1-a5574649dac0","system_id":"levelo_inurba_marseille","lat":43.23947,"lon":5.36648,"is_reserved":false,"is_disabled":false,"rental_uris":{"android":"levelo://app?vid=670122a3-157a-4ef1-82d1-a5574649dac0","ios":"levelo://app?vid=670122a3-157a-4ef1-82d1-a5574649dac0"},"vehicle_type_id":"4","last_reported":1740946148,"current_range_meters":15200,"station_id":"ce4bhi12rcd13ifvqfp0","pricing_plan_id":"cebpf4jnsgd1na2vs0mg"},{"bike_id":"8e5ad436-b6dc-4b2b-834f-bf12de8a37cc","system_id":"levelo_inurba_marseille","lat":43.27059,"lon":5.40251,"is_reserved":false,"is_disabled":false,"rental_uris":{"android":"levelo://app?vid=8e5ad436-b6dc-4b2b-834f-bf12de8a37cc","ios":"levelo://app?vid=8e5ad436-b6dc-4b2b-834f-bf12de8a37cc"},"vehicle_type_id":"4","last_reported":1740946148,"current_range_meters":15200,"station_id":"ce4bhk92rcd13ifvqgc0","pricing_plan_id":"cebpf4jnsgd1na2vs0mg"},{"bike_id":"7eee2403-99a7-463a-9751-125ed8da2c18","system_id":"levelo_inurba_marseille","lat":43.25876,"lon":5.39919,"is_reserved":false,"is_disabled":false,"rental_uris":{"android":"levelo://app?vid=7eee2403-99a7-463a-9751-125ed8da2c18","ios":"levelo://app?vid=7eee2403-99a7-463a-9751-125ed8da2c18"},"vehicle_type_id":"4","last_reported":1740946148,"current_range_meters":15200,"station_id":"ce4bhl92rcd13ifvqghg","pricing_plan_id":"cebpf4jnsgd1na2vs0mg"},{"bike_id":"2f6fbb38-d295-47c9-834b-0617f81f6b62","system_id":"levelo_inurba_marseille","lat":43.30687,"lon":5.39273,"is_reserved":false,"is_disabled":false,"rental_uris":{"android":"levelo://app?vid=2f6fbb38-d295-47c9-834b-0617f81f6b62","ios":"levelo://app?vid=2f6fbb38-d295-47c9-834b-0617f81f6b62"},"vehicle_type_id":"4","last_reported":1740946148,"current_range_meters":15200,"station_id":"ce4bho92rcd13ifvqh4g","pricing_plan_id":"cebpf4jnsgd1na2vs0mg"},{"bike_id":"2848430c-e0ac-406b-99f8-d4a1f7459337","system_id":"levelo_inurba_marseille","lat":43.21277,"lon":5.35337,"is_reserved":false,"is_disabled":false,"rental_uris":{"android":"levelo://app?vid=2848430c-e0ac-406b-99f8-d4a1f7459337","ios":"levelo://app?vid=2848430c-e0ac-406b-99f8-d4a1f7459337"},"vehicle_type_id":"4","last_reported":1740946148,"current_range_meters":16000,"station_id":"","pricing_plan_id":"cebpf4jnsgd1na2vs0mg"},{"bike_id":"648445c4-2d1b-4af1-aa41-f717826c5401","system_id":"levelo_inurba_marseille","lat":43.29627,"lon":5.38107,"is_reserved":false,"is_disabled":false,"rental_uris":{"android":"levelo://app?vid=648445c4-2d1b-4af1-aa41-f717826c5401","ios":"levelo://app?vid=648445c4-2d1b-4af1-aa41-f717826c5401"},"vehicle_type_id":"4","last_reported":1740946148,"current_range_meters":16000,"station_id":"ce4bgl12rcd13ifvqbo0","pricing_plan_id":"cebpf4jnsgd1na2vs0mg"},{"bike_id":"4344c971-43c3-4c92-b0ff-47be87956c14","system_id":"levelo_inurba_marseille","lat":43.28424,"lon":5.3755,"is_reserved":false,"is_disabled":false,"rental_uris":{"android":"levelo://app?vid=4344c971-43c3-4c92-b0ff-47be87956c14","ios":"levelo://app?vid=4344c971-43c3-4c92-b0ff-47be87956c14"},"vehicle_type_id":"4","last_reported":1740946148,"current_range_meters":16000,"station_id":"ce4bh412rcd13ifvqds0","pricing_plan_id":"cebpf4jnsgd1na2vs0mg"},{"bike_id":"fb82a47c-3c96-4bda-afcd-af9c04501056","system_id":"levelo_inurba_marseille","lat":43.269318,"lon":5.39475,"is_reserved":false,"is_disabled":false,"rental_uris":{"android":"levelo://app?vid=fb82a47c-3c96-4bda-afcd-af9c04501056","ios":"levelo://app?vid=fb82a47c-3c96-4bda-afcd-af9c04501056"},"vehicle_type_id":"4","last_reported":1740946148,"current_range_meters":16000,"station_id":"ce4bh412rcd13ifvqds0","pricing_plan_id":"cebpf4jnsgd1na2vs0mg"},{"bike_id":"e4915e9c-674f-4816-bc04-4a79571d0cfc","system_id":"levelo_inurba_marseille","lat":43.27306,"lon":5.39082,"is_reserved":false,"is_disabled":false,"rental_uris":{"android":"levelo://app?vid=e4915e9c-674f-4816-bc04-4a79571d0cfc","ios":"levelo://app?vid=e4915e9c-674f-4816-bc04-4a79571d0cfc"},"vehicle_type_id":"4","last_reported":1740946148,"current_range_meters":16000,"station_id":"ce4bhgp2rcd13ifvqfe0","pricing_plan_id":"cebpf4jnsgd1na2vs0mg"},{"bike_id":"a4befc2e-2274-4931-b766-4cd55656eb23","system_id":"levelo_inurba_marseille","lat":43.24388,"lon":5.37061,"is_reserved":false,"is_disabled":false,"rental_uris":{"android":"levelo://app?vid=a4befc2e-2274-4931-b766-4cd55656eb23","ios":"levelo://app?vid=a4befc2e-2274-4931-b766-4cd55656eb23"},"vehicle_type_id":"4","last_reported":1740946148,"current_range_meters":16000,"station_id":"ce4bhhh2rcd13ifvqfk0","pricing_plan_id":"cebpf4jnsgd1na2vs0mg"},{"bike_id":"0703fff1-a8e2-43e6-ade9-a370c390339e","system_id":"levelo_inurba_marseille","lat":43.27223,"lon":5.39163,"is_reserved":false,"is_disabled":false,"rental_uris":{"android":"levelo://app?vid=0703fff1-a8e2-43e6-ade9-a370c390339e","ios":"levelo://app?vid=0703fff1-a8e2-43e6-ade9-a370c390339e"},"vehicle_type_id":"4","last_reported":1740946148,"current_range_meters":16000,"station_id":"ce4bhhp2rcd13ifvqfm0","pricing_plan_id":"cebpf4jnsgd1na2vs0mg"},{"bike_id":"b2dda537-96db-43e1-94ba-488c8c86b5a9","system_id":"levelo_inurba_marseille","lat":43.24673,"lon":5.38161,"is_reserved":false,"is_disabled":false,"rental_uris":{"android":"levelo://app?vid=b2dda537-96db-43e1-94ba-488c8c86b5a9","ios":"levelo://app?vid=b2dda537-96db-43e1-94ba-488c8c86b5a9"},"vehicle_type_id":"4","last_reported":1740946148,"current_range_meters":16000,"station_id":"ce4bhih2rcd13ifvqfr0","pricing_plan_id":"cebpf4jnsgd1na2vs0mg"},{"bike_id":"8b43c3fa-f868-448f-ab86-63a8275730fd","system_id":"levelo_inurba_marseille","lat":43.27852,"lon":5.40723,"is_reserved":false,"is_disabled":false,"rental_uris":{"android":"levelo://app?vid=8b43c3fa-f868-448f-ab86-63a8275730fd","ios":"levelo://app?vid=8b43c3fa-f868-448f-ab86-63a8275730fd"},"vehicle_type_id":"4","last_reported":1740946148,"current_range_meters":16000,"station_id":"ce4bhnh2rcd13ifvqgtg","pricing_plan_id":"cebpf4jnsgd1na2vs0mg"},{"bike_id":"00ec7861-3191-4cee-98af-2e93d68ec449","system_id":"levelo_inurba_marseille","lat":43.27841,"lon":5.40706,"is_reserved":false,"is_disabled":false,"rental_uris":{"android":"levelo://app?vid=00ec7861-3191-4cee-98af-2e93d68ec449","ios":"levelo://app?vid=00ec7861-3191-4cee-98af-2e93d68ec449"},"vehicle_type_id":"4","last_reported":1740946148,"current_range_meters":16000,"station_id":"ce4bhnh2rcd13ifvqgtg","pricing_plan_id":"cebpf4jnsgd1na2vs0mg"},{"bike_id":"687cd9e6-0cef-4cf3-a0fd-75f582330f2e","system_id":"levelo_inurba_marseille","lat":43.337444,"lon":5.374475,"is_reserved":false,"is_disabled":false,"rental_uris":{"android":"levelo://app?vid=687cd9e6-0cef-4cf3-a0fd-75f582330f2e","ios":"levelo://app?vid=687cd9e6-0cef-4cf3-a0fd-75f582330f2e"},"vehicle_type_id":"4","last_reported":1740946148,"current_range_meters":16400,"station_id":"","pricing_plan_id":"cebpf4jnsgd1na2vs0mg"},{"bike_id":"f713de82-d082-4938-b596-7fd59baa068d","system_id":"levelo_inurba_marseille","lat":43.29613,"lon":5.38107,"is_reserved":false,"is_disabled":false,"rental_uris":{"android":"levelo://app?vid=f713de82-d082-4938-b596-7fd59baa068d","ios":"levelo://app?vid=f713de82-d082-4938-b596-7fd59baa068d"},"vehicle_type_id":"4","last_reported":1740946148,"current_range_meters":16400,"station_id":"ce4bgl12rcd13ifvqbo0","pricing_plan_id":"cebpf4jnsgd1na2vs0mg"},{"bike_id":"b695c1b8-9d19-4083-975b-f498ffa15a5a","system_id":"levelo_inurba_marseille","lat":43.28701,"lon":5.37426,"is_reserved":false,"is_disabled":false,"rental_uris":{"android":"levelo://app?vid=b695c1b8-9d19-4083-975b-f498ffa15a5a","ios":"levelo://app?vid=b695c1b8-9d19-4083-975b-f498ffa15a5a"},"vehicle_type_id":"4","last_reported":1740946148,"current_range_meters":16400,"station_id":"ce4bh3p2rcd13ifvqdq0","pricing_plan_id":"cebpf4jnsgd1na2vs0mg"},{"bike_id":"b40b8d0b-27cc-4eb5-9da9-1d246c2fa6dc","system_id":"levelo_inurba_marseille","lat":43.27213,"lon":5.39197,"is_reserved":false,"is_disabled":false,"rental_uris":{"android":"levelo://app?vid=b40b8d0b-27cc-4eb5-9da9-1d246c2fa6dc","ios":"levelo://app?vid=b40b8d0b-27cc-4eb5-9da9-1d246c2fa6dc"},"vehicle_type_id":"4","last_reported":1740946148,"current_range_meters":16400,"station_id":"ce4bhhp2rcd13ifvqfm0","pricing_plan_id":"cebpf4jnsgd1na2vs0mg"},{"bike_id":"e8101649-c6b2-4bfd-9c01-add54a4dfda4","system_id":"levelo_inurba_marseille","lat":43.27799,"lon":5.40735,"is_reserved":false,"is_disabled":false,"rental_uris":{"android":"levelo://app?vid=e8101649-c6b2-4bfd-9c01-add54a4dfda4","ios":"levelo://app?vid=e8101649-c6b2-4bfd-9c01-add54a4dfda4"},"vehicle_type_id":"4","last_reported":1740946148,"current_range_meters":16800,"station_id":"ce4bhnh2rcd13ifvqgtg","pricing_plan_id":"cebpf4jnsgd1na2vs0mg"},{"bike_id":"9ee6b25e-f49a-4e2c-a194-ee54caf61b99","system_id":"levelo_inurba_marseille","lat":43.27826,"lon":5.40745,"is_reserved":false,"is_disabled":false,"rental_uris":{"android":"levelo://app?vid=9ee6b25e-f49a-4e2c-a194-ee54caf61b99","ios":"levelo://app?vid=9ee6b25e-f49a-4e2c-a194-ee54caf61b99"},"vehicle_type_id":"4","last_reported":1740946148,"current_range_meters":16800,"station_id":"ce4bhnh2rcd13ifvqgtg","pricing_plan_id":"cebpf4jnsgd1na2vs0mg"},{"bike_id":"76f0ecc2-74d2-4458-9089-c4bdf8553e65","system_id":"levelo_inurba_marseille","lat":43.27174,"lon":5.41972,"is_reserved":false,"is_disabled":false,"rental_uris":{"android":"levelo://app?vid=76f0ecc2-74d2-4458-9089-c4bdf8553e65","ios":"levelo://app?vid=76f0ecc2-74d2-4458-9089-c4bdf8553e65"},"vehicle_type_id":"4","last_reported":1740946148,"current_range_meters":17200,"station_id":"","pricing_plan_id":"cebpf4jnsgd1na2vs0mg"},{"bike_id":"751f951d-3b0b-452b-9980-b5e609b5f2bb","system_id":"levelo_inurba_marseille","lat":43.30423,"lon":5.38882,"is_reserved":false,"is_disabled":false,"rental_uris":{"android":"levelo://app?vid=751f951d-3b0b-452b-9980-b5e609b5f2bb","ios":"levelo://app?vid=751f951d-3b0b-452b-9980-b5e609b5f2bb"},"vehicle_type_id":"4","last_reported":1740946148,"current_range_meters":17200,"station_id":"ce4bgk12rcd13ifvqbi0","pricing_plan_id":"cebpf4jnsgd1na2vs0mg"},{"bike_id":"62332ce5-7efc-458e-a9fb-2d1a963f03ac","system_id":"levelo_inurba_marseille","lat":43.30299,"lon":5.39209,"is_reserved":false,"is_disabled":false,"rental_uris":{"android":"levelo://app?vid=62332ce5-7efc-458e-a9fb-2d1a963f03ac","ios":"levelo://app?vid=62332ce5-7efc-458e-a9fb-2d1a963f03ac"},"vehicle_type_id":"4","last_reported":1740946148,"current_range_meters":17200,"station_id":"ce4bgkh2rcd13ifvqbk0","pricing_plan_id":"cebpf4jnsgd1na2vs0mg"},{"bike_id":"cd56ae17-0ee7-40db-8805-022206b524ff","system_id":"levelo_inurba_marseille","lat":43.29603,"lon":5.38109,"is_reserved":false,"is_disabled":false,"rental_uris":{"android":"levelo://app?vid=cd56ae17-0ee7-40db-8805-022206b524ff","ios":"levelo://app?vid=cd56ae17-0ee7-40db-8805-022206b524ff"},"vehicle_type_id":"4","last_reported":1740946148,"current_range_meters":17200,"station_id":"ce4bgl12rcd13ifvqbo0","pricing_plan_id":"cebpf4jnsgd1na2vs0mg"},{"bike_id":"a1009f5e-67da-4aac-bee3-19c785d1fdc9","system_id":"levelo_inurba_marseille","lat":43.27315,"lon":5.39094,"is_reserved":false,"is_disabled":false,"rental_uris":{"android":"levelo://app?vid=a1009f5e-67da-4aac-bee3-19c785d1fdc9","ios":"levelo://app?vid=a1009f5e-67da-4aac-bee3-19c785d1fdc9"},"vehicle_type_id":"4","last_reported":1740946148,"current_range_meters":17200,"station_id":"ce4bhgp2rcd13ifvqfe0","pricing_plan_id":"cebpf4jnsgd1na2vs0mg"},{"bike_id":"ad364d62-4b4b-4fd1-aa32-74c3786b03a7","system_id":"levelo_inurba_marseille","lat":43.27054,"lon":5.40267,"is_reserved":false,"is_disabled":false,"rental_uris":{"android":"levelo://app?vid=ad364d62-4b4b-4fd1-aa32-74c3786b03a7","ios":"levelo://app?vid=ad364d62-4b4b-4fd1-aa32-74c3786b03a7"},"vehicle_type_id":"4","last_reported":1740946148,"current_range_meters":17200,"station_id":"ce4bhk92rcd13ifvqgc0","pricing_plan_id":"cebpf4jnsgd1na2vs0mg"},{"bike_id":"c608c1f7-6cf0-4d7e-9536-99cbd9f6f70c","system_id":"levelo_inurba_marseille","lat":43.2956,"lon":5.42291,"is_reserved":false,"is_disabled":false,"rental_uris":{"android":"levelo://app?vid=c608c1f7-6cf0-4d7e-9536-99cbd9f6f70c","ios":"levelo://app?vid=c608c1f7-6cf0-4d7e-9536-99cbd9f6f70c"},"vehicle_type_id":"4","last_reported":1740946148,"current_range_meters":17200,"station_id":"ce4bhph2rcd13ifvqhdg","pricing_plan_id":"cebpf4jnsgd1na2vs0mg"},{"bike_id":"33418f14-17a5-467f-a1a6-7ab519875760","system_id":"levelo_inurba_marseille","lat":43.27802,"lon":5.40584,"is_reserved":false,"is_disabled":false,"rental_uris":{"android":"levelo://app?vid=33418f14-17a5-467f-a1a6-7ab519875760","ios":"levelo://app?vid=33418f14-17a5-467f-a1a6-7ab519875760"},"vehicle_type_id":"4","last_reported":1740946148,"current_range_meters":17600,"station_id":"","pricing_plan_id":"cebpf4jnsgd1na2vs0mg"},{"bike_id":"dafa2995-3d00-4c6d-ac92-144547f7168f","system_id":"levelo_inurba_marseille","lat":43.29537,"lon":5.39041,"is_reserved":false,"is_disabled":false,"rental_uris":{"android":"levelo://app?vid=dafa2995-3d00-4c6d-ac92-144547f7168f","ios":"levelo://app?vid=dafa2995-3d00-4c6d-ac92-144547f7168f"},"vehicle_type_id":"4","last_reported":1740946148,"current_range_meters":17600,"station_id":"ce4bh3p2rcd13ifvqdp0","pricing_plan_id":"cebpf4jnsgd1na2vs0mg"},{"bike_id":"76394e5b-b5d3-409a-954a-e09b2559a295","system_id":"levelo_inurba_marseille","lat":43.23195,"lon":5.35559,"is_reserved":false,"is_disabled":false,"rental_uris":{"android":"levelo://app?vid=76394e5b-b5d3-409a-954a-e09b2559a295","ios":"levelo://app?vid=76394e5b-b5d3-409a-954a-e09b2559a295"},"vehicle_type_id":"4","last_reported":1740946148,"current_range_meters":17600,"station_id":"ce4bhu92rcd13ifvqi70","pricing_plan_id":"cebpf4jnsgd1na2vs0mg"},{"bike_id":"db6557e3-d612-45f1-870f-c403bf17088e","system_id":"levelo_inurba_marseille","lat":43.21292,"lon":5.35349,"is_reserved":false,"is_disabled":false,"rental_uris":{"android":"levelo://app?vid=db6557e3-d612-45f1-870f-c403bf17088e","ios":"levelo://app?vid=db6557e3-d612-45f1-870f-c403bf17088e"},"vehicle_type_id":"4","last_reported":1740946148,"current_range_meters":18000,"station_id":"","pricing_plan_id":"cebpf4jnsgd1na2vs0mg"},{"bike_id":"ee64b076-db53-4a07-8a61-f790fb3d7f18","system_id":"levelo_inurba_marseille","lat":43.29598,"lon":5.37335,"is_reserved":false,"is_disabled":false,"rental_uris":{"android":"levelo://app?vid=ee64b076-db53-4a07-8a61-f790fb3d7f18","ios":"levelo://app?vid=ee64b076-db53-4a07-8a61-f790fb3d7f18"},"vehicle_type_id":"4","last_reported":1740946148,"current_range_meters":18000,"station_id":"","pricing_plan_id":"cebpf4jnsgd1na2vs0mg"},{"bike_id":"f52cb430-51f4-4ab8-9f8b-6083a50fe509","system_id":"levelo_inurba_marseille","lat":43.30616,"lon":5.37219,"is_reserved":false,"is_disabled":false,"rental_uris":{"android":"levelo://app?vid=f52cb430-51f4-4ab8-9f8b-6083a50fe509","ios":"levelo://app?vid=f52cb430-51f4-4ab8-9f8b-6083a50fe509"},"vehicle_type_id":"4","last_reported":1740946148,"current_range_meters":18000,"station_id":"ce4bgqh2rcd13ifvqc4g","pricing_plan_id":"cebpf4jnsgd1na2vs0mg"},{"bike_id":"aaace025-3089-417e-a8d0-a68c689fb08f","system_id":"levelo_inurba_marseille","lat":43.28405,"lon":5.37529,"is_reserved":false,"is_disabled":false,"rental_uris":{"android":"levelo://app?vid=aaace025-3089-417e-a8d0-a68c689fb08f","ios":"levelo://app?vid=aaace025-3089-417e-a8d0-a68c689fb08f"},"vehicle_type_id":"4","last_reported":1740946148,"current_range_meters":18000,"station_id":"ce4bh412rcd13ifvqds0","pricing_plan_id":"cebpf4jnsgd1na2vs0mg"},{"bike_id":"a5ce3fa3-dcd1-4110-9436-d0ebb40d3dd8","system_id":"levelo_inurba_marseille","lat":43.28677,"lon":5.38661,"is_reserved":false,"is_disabled":false,"rental_uris":{"android":"levelo://app?vid=a5ce3fa3-dcd1-4110-9436-d0ebb40d3dd8","ios":"levelo://app?vid=a5ce3fa3-dcd1-4110-9436-d0ebb40d3dd8"},"vehicle_type_id":"4","last_reported":1740946148,"current_range_meters":18000,"station_id":"ce4bh492rcd13ifvqdug","pricing_plan_id":"cebpf4jnsgd1na2vs0mg"},{"bike_id":"360cb8fb-ae2d-4942-a777-0b20fe1843ea","system_id":"levelo_inurba_marseille","lat":43.26552,"lon":5.37289,"is_reserved":false,"is_disabled":false,"rental_uris":{"android":"levelo://app?vid=360cb8fb-ae2d-4942-a777-0b20fe1843ea","ios":"levelo://app?vid=360cb8fb-ae2d-4942-a777-0b20fe1843ea"},"vehicle_type_id":"4","last_reported":1740946148,"current_range_meters":18000,"station_id":"ce4bhg12rcd13ifvqf70","pricing_plan_id":"cebpf4jnsgd1na2vs0mg"},{"bike_id":"94b6da44-e8fe-4dfd-b2f1-a4849012b0d9","system_id":"levelo_inurba_marseille","lat":43.27212,"lon":5.39186,"is_reserved":false,"is_disabled":false,"rental_uris":{"android":"levelo://app?vid=94b6da44-e8fe-4dfd-b2f1-a4849012b0d9","ios":"levelo://app?vid=94b6da44-e8fe-4dfd-b2f1-a4849012b0d9"},"vehicle_type_id":"4","last_reported":1740946148,"current_range_meters":18000,"station_id":"ce4bhhp2rcd13ifvqfm0","pricing_plan_id":"cebpf4jnsgd1na2vs0mg"},{"bike_id":"6529d7cc-c924-402a-beab-b10aa4793546","system_id":"levelo_inurba_marseille","lat":43.27199,"lon":5.39187,"is_reserved":false,"is_disabled":false,"rental_uris":{"android":"levelo://app?vid=6529d7cc-c924-402a-beab-b10aa4793546","ios":"levelo://app?vid=6529d7cc-c924-402a-beab-b10aa4793546"},"vehicle_type_id":"4","last_reported":1740946148,"current_range_meters":18000,"station_id":"ce4bhhp2rcd13ifvqfm0","pricing_plan_id":"cebpf4jnsgd1na2vs0mg"},{"bike_id":"0d298ec3-66f1-4c0c-8a68-c90d2c8fdd9e","system_id":"levelo_inurba_marseille","lat":43.29569,"lon":5.42228,"is_reserved":false,"is_disabled":false,"rental_uris":{"android":"levelo://app?vid=0d298ec3-66f1-4c0c-8a68-c90d2c8fdd9e","ios":"levelo://app?vid=0d298ec3-66f1-4c0c-8a68-c90d2c8fdd9e"},"vehicle_type_id":"4","last_reported":1740946148,"current_range_meters":18000,"station_id":"ce4bhph2rcd13ifvqhdg","pricing_plan_id":"cebpf4jnsgd1na2vs0mg"},{"bike_id":"62cb0cc9-5e6c-492a-b088-33fea151eb3e","system_id":"levelo_inurba_marseille","lat":43.27941,"lon":5.41665,"is_reserved":false,"is_disabled":false,"rental_uris":{"android":"levelo://app?vid=62cb0cc9-5e6c-492a-b088-33fea151eb3e","ios":"levelo://app?vid=62cb0cc9-5e6c-492a-b088-33fea151eb3e"},"vehicle_type_id":"4","last_reported":1740946148,"current_range_meters":18800,"station_id":"","pricing_plan_id":"cebpf4jnsgd1na2vs0mg"},{"bike_id":"0846796b-c260-4b2b-8113-c556f70f4309","system_id":"levelo_inurba_marseille","lat":43.32713,"lon":5.392,"is_reserved":false,"is_disabled":false,"rental_uris":{"android":"levelo://app?vid=0846796b-c260-4b2b-8113-c556f70f4309","ios":"levelo://app?vid=0846796b-c260-4b2b-8113-c556f70f4309"},"vehicle_type_id":"4","last_reported":1740946148,"current_range_meters":18800,"station_id":"","pricing_plan_id":"cebpf4jnsgd1na2vs0mg"},{"bike_id":"56bcb25a-7cd7-45d1-9da4-ea820a4103c5","system_id":"levelo_inurba_marseille","lat":43.27967,"lon":5.41705,"is_reserved":false,"is_disabled":false,"rental_uris":{"android":"levelo://app?vid=56bcb25a-7cd7-45d1-9da4-ea820a4103c5","ios":"levelo://app?vid=56bcb25a-7cd7-45d1-9da4-ea820a4103c5"},"vehicle_type_id":"4","last_reported":1740946148,"current_range_meters":18800,"station_id":"","pricing_plan_id":"cebpf4jnsgd1na2vs0mg"},{"bike_id":"d3c878ae-d2b0-48cf-be19-242d324a7a91","system_id":"levelo_inurba_marseille","lat":43.29194,"lon":5.39324,"is_reserved":false,"is_disabled":false,"rental_uris":{"android":"levelo://app?vid=d3c878ae-d2b0-48cf-be19-242d324a7a91","ios":"levelo://app?vid=d3c878ae-d2b0-48cf-be19-242d324a7a91"},"vehicle_type_id":"4","last_reported":1740946148,"current_range_meters":18800,"station_id":"ce4bh192rcd13ifvqdd0","pricing_plan_id":"cebpf4jnsgd1na2vs0mg"},{"bike_id":"8325dad4-1989-447f-b883-aaa2a76a4725","system_id":"levelo_inurba_marseille","lat":43.24399,"lon":5.37037,"is_reserved":false,"is_disabled":false,"rental_uris":{"android":"levelo://app?vid=8325dad4-1989-447f-b883-aaa2a76a4725","ios":"levelo://app?vid=8325dad4-1989-447f-b883-aaa2a76a4725"},"vehicle_type_id":"4","last_reported":1740946148,"current_range_meters":18800,"station_id":"ce4bhhh2rcd13ifvqfk0","pricing_plan_id":"cebpf4jnsgd1na2vs0mg"},{"bike_id":"123d5adf-8e93-46cc-93b8-80cd2a012f7c","system_id":"levelo_inurba_marseille","lat":43.27097,"lon":5.42303,"is_reserved":false,"is_disabled":false,"rental_uris":{"android":"levelo://app?vid=123d5adf-8e93-46cc-93b8-80cd2a012f7c","ios":"levelo://app?vid=123d5adf-8e93-46cc-93b8-80cd2a012f7c"},"vehicle_type_id":"4","last_reported":1740946148,"current_range_meters":18800,"station_id":"ce4bhk92rcd13ifvqgb0","pricing_plan_id":"cebpf4jnsgd1na2vs0mg"},{"bike_id":"b66dabdf-64cc-434c-aef1-9c7d0448b8ef","system_id":"levelo_inurba_marseille","lat":43.27063,"lon":5.40259,"is_reserved":false,"is_disabled":false,"rental_uris":{"android":"levelo://app?vid=b66dabdf-64cc-434c-aef1-9c7d0448b8ef","ios":"levelo://app?vid=b66dabdf-64cc-434c-aef1-9c7d0448b8ef"},"vehicle_type_id":"4","last_reported":1740946148,"current_range_meters":18800,"station_id":"ce4bhk92rcd13ifvqgc0","pricing_plan_id":"cebpf4jnsgd1na2vs0mg"},{"bike_id":"a2b1df92-4430-43e7-aefa-aead754347cf","system_id":"levelo_inurba_marseille","lat":43.2573,"lon":5.4111,"is_reserved":false,"is_disabled":false,"rental_uris":{"android":"levelo://app?vid=a2b1df92-4430-43e7-aefa-aead754347cf","ios":"levelo://app?vid=a2b1df92-4430-43e7-aefa-aead754347cf"},"vehicle_type_id":"4","last_reported":1740946148,"current_range_meters":18800,"station_id":"ce4bhkp2rcd13ifvqgd0","pricing_plan_id":"cebpf4jnsgd1na2vs0mg"},{"bike_id":"36c4d28b-a1e8-4ec8-899d-5b78e5851159","system_id":"levelo_inurba_marseille","lat":43.2781,"lon":5.40716,"is_reserved":false,"is_disabled":false,"rental_uris":{"android":"levelo://app?vid=36c4d28b-a1e8-4ec8-899d-5b78e5851159","ios":"levelo://app?vid=36c4d28b-a1e8-4ec8-899d-5b78e5851159"},"vehicle_type_id":"4","last_reported":1740946148,"current_range_meters":18800,"station_id":"ce4bhnh2rcd13ifvqgtg","pricing_plan_id":"cebpf4jnsgd1na2vs0mg"},{"bike_id":"0b1d16a8-c879-4989-bfe7-7eb35a59ec23","system_id":"levelo_inurba_marseille","lat":43.25186,"lon":5.37825,"is_reserved":false,"is_disabled":false,"rental_uris":{"android":"levelo://app?vid=0b1d16a8-c879-4989-bfe7-7eb35a59ec23","ios":"levelo://app?vid=0b1d16a8-c879-4989-bfe7-7eb35a59ec23"},"vehicle_type_id":"4","last_reported":1740946148,"current_range_meters":19200,"station_id":"","pricing_plan_id":"cebpf4jnsgd1na2vs0mg"},{"bike_id":"05f79b85-f3d0-43dc-8446-f0e096c99a76","system_id":"levelo_inurba_marseille","lat":43.29355,"lon":5.42824,"is_reserved":false,"is_disabled":false,"rental_uris":{"android":"levelo://app?vid=05f79b85-f3d0-43dc-8446-f0e096c99a76","ios":"levelo://app?vid=05f79b85-f3d0-43dc-8446-f0e096c99a76"},"vehicle_type_id":"4","last_reported":1740946148,"current_range_meters":19200,"station_id":"","pricing_plan_id":"cebpf4jnsgd1na2vs0mg"},{"bike_id":"1d3c7fd7-b709-4008-8e9f-a0f764fe60d9","system_id":"levelo_inurba_marseille","lat":43.28661,"lon":5.38667,"is_reserved":false,"is_disabled":false,"rental_uris":{"android":"levelo://app?vid=1d3c7fd7-b709-4008-8e9f-a0f764fe60d9","ios":"levelo://app?vid=1d3c7fd7-b709-4008-8e9f-a0f764fe60d9"},"vehicle_type_id":"4","last_reported":1740946148,"current_range_meters":19200,"station_id":"","pricing_plan_id":"cebpf4jnsgd1na2vs0mg"},{"bike_id":"ba1ba081-a651-458b-864c-f93419b9b0b6","system_id":"levelo_inurba_marseille","lat":43.25016,"lon":5.38876,"is_reserved":false,"is_disabled":false,"rental_uris":{"android":"levelo://app?vid=ba1ba081-a651-458b-864c-f93419b9b0b6","ios":"levelo://app?vid=ba1ba081-a651-458b-864c-f93419b9b0b6"},"vehicle_type_id":"4","last_reported":1740946148,"current_range_meters":19200,"station_id":"ce4bhgp2rcd13ifvqfd0","pricing_plan_id":"cebpf4jnsgd1na2vs0mg"},{"bike_id":"3c23bf49-7704-4d61-b8e7-41ff4741ae35","system_id":"levelo_inurba_marseille","lat":43.27224,"lon":5.39149,"is_reserved":false,"is_disabled":false,"rental_uris":{"android":"levelo://app?vid=3c23bf49-7704-4d61-b8e7-41ff4741ae35","ios":"levelo://app?vid=3c23bf49-7704-4d61-b8e7-41ff4741ae35"},"vehicle_type_id":"4","last_reported":1740946148,"current_range_meters":19200,"station_id":"ce4bhhp2rcd13ifvqfm0","pricing_plan_id":"cebpf4jnsgd1na2vs0mg"},{"bike_id":"4300cf9b-3f21-4db1-957e-9b9d93ea7ac9","system_id":"levelo_inurba_marseille","lat":43.31059,"lon":5.38138,"is_reserved":false,"is_disabled":false,"rental_uris":{"android":"levelo://app?vid=4300cf9b-3f21-4db1-957e-9b9d93ea7ac9","ios":"levelo://app?vid=4300cf9b-3f21-4db1-957e-9b9d93ea7ac9"},"vehicle_type_id":"4","last_reported":1740946148,"current_range_meters":19600,"station_id":"","pricing_plan_id":"cebpf4jnsgd1na2vs0mg"},{"bike_id":"88858c28-5a08-41e9-b766-6b2e555e71e3","system_id":"levelo_inurba_marseille","lat":43.29613,"lon":5.38156,"is_reserved":false,"is_disabled":false,"rental_uris":{"android":"levelo://app?vid=88858c28-5a08-41e9-b766-6b2e555e71e3","ios":"levelo://app?vid=88858c28-5a08-41e9-b766-6b2e555e71e3"},"vehicle_type_id":"4","last_reported":1740946148,"current_range_meters":19600,"station_id":"ce4bgl12rcd13ifvqbo0","pricing_plan_id":"cebpf4jnsgd1na2vs0mg"},{"bike_id":"bcf8ce94-642a-4bc2-aa91-cddbe954ae7d","system_id":"levelo_inurba_marseille","lat":43.29046,"lon":5.39966,"is_reserved":false,"is_disabled":false,"rental_uris":{"android":"levelo://app?vid=bcf8ce94-642a-4bc2-aa91-cddbe954ae7d","ios":"levelo://app?vid=bcf8ce94-642a-4bc2-aa91-cddbe954ae7d"},"vehicle_type_id":"4","last_reported":1740946148,"current_range_meters":19600,"station_id":"ce4bh392rcd13ifvqdm0","pricing_plan_id":"cebpf4jnsgd1na2vs0mg"},{"bike_id":"22dbf706-a1f8-4781-976d-fafbe5dfeac0","system_id":"levelo_inurba_marseille","lat":43.2583,"lon":5.39436,"is_reserved":false,"is_disabled":false,"rental_uris":{"android":"levelo://app?vid=22dbf706-a1f8-4781-976d-fafbe5dfeac0","ios":"levelo://app?vid=22dbf706-a1f8-4781-976d-fafbe5dfeac0"},