{"last_updated":1748576217,"ttl":60,"version":"2.2","data":{"bikes":[{"bike_id":"bca8997c-ca56-4d92-9c61-d7e9c3800782","system_id":"levelo_inurba_marseille","lat":43.21753,"lon":5.34624,"is_reserved":false,"is_disabled":true,"rental_uris":{"android":"levelo://app?vid=bca8997c-ca56-4d92-9c61-d7e9c3800782","ios":"levelo://app?vid=bca8997c-ca56-4d92-9c61-d7e9c3800782"},"vehicle_type_id":"4","last_reported":1748576217,"current_range_meters":2800,"station_id":"st_cvj6r9ubvosntc0bgbag","pricing_plan_id":"cebpf4jnsgd1na2vs0mg"},{"bike_id":"55b26eda-51be-4b08-b39c-5b09bc1a662f","system_id":"levelo_inurba_marseille","lat":43.262037,"lon":5.379305,"is_reserved":false,"is_disabled":true,"rental_uris":{"android":"levelo://app?vid=55b26eda-51be-4b08-b39c-5b09bc1a662f","ios":"levelo://app?vid=55b26eda-51be-4b08-b39c-5b09bc1a662f"},"vehicle_type_id":"4","last_reported":1748576217,"current_range_meters":2800,"station_id":"ce4bhjp2rcd13ifvqg90","pricing_plan_id":"cebpf4jnsgd1na2vs0mg"},{"bike_id":"96ff1870-59aa-4633-879e-2899bfabb07c","system_id":"levelo_inurba_marseille","lat":43.25726,"lon":5.41109,"is_reserved":false,"is_disabled":false,"rental_uris":{"android":"levelo://app?vid=96ff1870-59aa-4633-879e-2899bfabb07c","ios":"levelo://app?vid=96ff1870-59aa-4633-879e-2899bfabb07c"},"vehicle_type_id":"4","last_reported":1748576217,"current_range_meters":2800,"station_id":"ce4bhkp2rcd13ifvqgd0","pricing_plan_id":"cebpf4jnsgd1na2vs0mg"},{"bike_id":"15c306f5-cf6b-4a8d-8326-60c1e9b2c733","system_id":"levelo_inurba_marseille","lat":43.27432,"lon":5.39395,"is_reserved":false,"is_disabled":true,"rental_uris":{"android":"levelo://app?vid=15c306f5-cf6b-4a8d-8326-60c1e9b2c733","ios":"levelo://app?vid=15c306f5-cf6b-4a8d-8326-60c1e9b2c733"},"vehicle_type_id":"4","last_reported":1748576217,"current_range_meters":3200,"station_id":"ce4bhdp2rcd13ifvqf20","pricing_plan_id":"cebpf4jnsgd1na2vs0mg"},{"bike_id":"6d7cfdcd-f061-4eee-b4e5-78d9b6729328","system_id":"levelo_inurba_marseille","lat":43.33001,"lon":5.43852,"is_reserved":false,"is_disabled":false,"rental_uris":{"android":"levelo://app?vid=6d7cfdcd-f061-4eee-b4e5-78d9b6729328","ios":"levelo://app?vid=6d7cfdcd-f061-4eee-b4e5-78d9b6729328"},"vehicle_type_id":"4","last_reported":1748576217,"current_range_meters":3200,"station_id":"","pricing_plan_id":"cebpf4jnsgd1na2vs0mg"},{"bike_id":"04b3db88-674e-4d54-8edd-81dfede77d38","system_id":"levelo_inurba_marseille","lat":43.291659,"lon":5.403286,"is_reserved":false,"is_disabled":false,"rental_uris":{"android":"levelo://app?vid=04b3db88-674e-4d54-8edd-81dfede77d38","ios":"levelo://app?vid=04b3db88-674e-4d54-8edd-81dfede77d38"},"vehicle_type_id":"4","last_reported":1748576217,"current_range_meters":3200,"station_id":"","pricing_plan_id":"cebpf4jnsgd1na2vs0mg"},{"bike_id":"9a869239-5672-4a55-9235-38d7bbe8293b","system_id":"levelo_inurba_marseille","lat":43.32602,"lon":5.43135,"is_reserved":false,"is_disabled":false,"rental_uris":{"android":"levelo://app?vid=9a869239-5672-4a55-9235-38d7bbe8293b","ios":"levelo://app?vid=9a869239-5672-4a55-9235-38d7bbe8293b"},"vehicle_type_id":"4","last_reported":1748576217,"current_range_meters":3200,"station_id":"","pricing_plan_id":"cebpf4jnsgd1na2vs0mg"},{"bike_id":"45a545f2-117e-41f7-b7df-f3f699944c28","system_id":"levelo_inurba_marseille","lat":43.326604,"lon":5.409967,"is_reserved":false,"is_disabled":false,"rental_uris":{"android":"levelo://app?vid=45a545f2-117e-41f7-b7df-f3f699944c28","ios":"levelo://app?vid=45a545f2-117e-41f7-b7df-f3f699944c28"},"vehicle_type_id":"4","last_reported":1748576217,"current_range_meters":3200,"station_id":"ce4bhpp2rcd13ifvqhgg","pricing_plan_id":"cebpf4jnsgd1na2vs0mg"},{"bike_id":"3f0441b1-6cb6-41fd-b679-f454d34b2118","system_id":"levelo_inurba_marseille","lat":43.212016,"lon":5.350952,"is_reserved":false,"is_disabled":false,"rental_uris":{"android":"levelo://app?vid=3f0441b1-6cb6-41fd-b679-f454d34b2118","ios":"levelo://app?vid=3f0441b1-6cb6-41fd-b679-f454d34b2118"},"vehicle_type_id":"4","last_reported":1748576217,"current_range_meters":3600,"station_id":"st_cvj6sg6p6f1abm77japg","pricing_plan_id":"cebpf4jnsgd1na2vs0mg"},{"bike_id":"78353d3a-f046-4900-8502-614ce335636a","system_id":"levelo_inurba_marseille","lat":43.290316,"lon":5.3593,"is_reserved":false,"is_disabled":true,"rental_uris":{"android":"levelo://app?vid=78353d3a-f046-4900-8502-614ce335636a","ios":"levelo://app?vid=78353d3a-f046-4900-8502-614ce335636a"},"vehicle_type_id":"4","last_reported":1748576217,"current_range_meters":4000,"station_id":"ce4bha92rcd13ifvqeg0","pricing_plan_id":"cebpf4jnsgd1na2vs0mg"},{"bike_id":"1eed49fb-ce64-4ebd-9903-7d87835a2ccf","system_id":"levelo_inurba_marseille","lat":43.29789,"lon":5.45961,"is_reserved":false,"is_disabled":false,"rental_uris":{"android":"levelo://app?vid=1eed49fb-ce64-4ebd-9903-7d87835a2ccf","ios":"levelo://app?vid=1eed49fb-ce64-4ebd-9903-7d87835a2ccf"},"vehicle_type_id":"4","last_reported":1748576217,"current_range_meters":4000,"station_id":"","pricing_plan_id":"cebpf4jnsgd1na2vs0mg"},{"bike_id":"c519088d-a216-460f-a22b-7250a0097080","system_id":"levelo_inurba_marseille","lat":43.281518,"lon":5.426384,"is_reserved":false,"is_disabled":false,"rental_uris":{"android":"levelo://app?vid=c519088d-a216-460f-a22b-7250a0097080","ios":"levelo://app?vid=c519088d-a216-460f-a22b-7250a0097080"},"vehicle_type_id":"4","last_reported":1748576217,"current_range_meters":4000,"station_id":"ce4bhnh2rcd13ifvqgug","pricing_plan_id":"cebpf4jnsgd1na2vs0mg"},{"bike_id":"45ac51a9-9c69-482d-ad89-d9fe9c5778e6","system_id":"levelo_inurba_marseille","lat":43.298993,"lon":5.381275,"is_reserved":false,"is_disabled":true,"rental_uris":{"android":"levelo://app?vid=45ac51a9-9c69-482d-ad89-d9fe9c5778e6","ios":"levelo://app?vid=45ac51a9-9c69-482d-ad89-d9fe9c5778e6"},"vehicle_type_id":"4","last_reported":1748576217,"current_range_meters":4400,"station_id":"ce4bgj12rcd13ifvqbc0","pricing_plan_id":"cebpf4jnsgd1na2vs0mg"},{"bike_id":"c1c51125-b169-41b9-b7df-e87ff78b4aea","system_id":"levelo_inurba_marseille","lat":43.262279,"lon":5.404551,"is_reserved":false,"is_disabled":false,"rental_uris":{"android":"levelo://app?vid=c1c51125-b169-41b9-b7df-e87ff78b4aea","ios":"levelo://app?vid=c1c51125-b169-41b9-b7df-e87ff78b4aea"},"vehicle_type_id":"4","last_reported":1748576217,"current_range_meters":4400,"station_id":"ce4bhmh2rcd13ifvqgmg","pricing_plan_id":"cebpf4jnsgd1na2vs0mg"},{"bike_id":"dc5ea332-f524-4077-8b03-f9f927c43c76","system_id":"levelo_inurba_marseille","lat":43.29452,"lon":5.39753,"is_reserved":false,"is_disabled":false,"rental_uris":{"android":"levelo://app?vid=dc5ea332-f524-4077-8b03-f9f927c43c76","ios":"levelo://app?vid=dc5ea332-f524-4077-8b03-f9f927c43c76"},"vehicle_type_id":"4","last_reported":1748576217,"current_range_meters":4400,"station_id":"ce4bh3h2rcd13ifvqdo0","pricing_plan_id":"cebpf4jnsgd1na2vs0mg"},{"bike_id":"3c2c4e57-dc19-4c62-b19c-90e376fb4e55","system_id":"levelo_inurba_marseille","lat":43.27061,"lon":5.40261,"is_reserved":false,"is_disabled":false,"rental_uris":{"android":"levelo://app?vid=3c2c4e57-dc19-4c62-b19c-90e376fb4e55","ios":"levelo://app?vid=3c2c4e57-dc19-4c62-b19c-90e376fb4e55"},"vehicle_type_id":"4","last_reported":1748576217,"current_range_meters":4400,"station_id":"ce4bhk92rcd13ifvqgc0","pricing_plan_id":"cebpf4jnsgd1na2vs0mg"},{"bike_id":"47ffa892-57a8-42b9-9b58-aedbf9ea0706","system_id":"levelo_inurba_marseille","lat":43.335969,"lon":5.410162,"is_reserved":false,"is_disabled":false,"rental_uris":{"android":"levelo://app?vid=47ffa892-57a8-42b9-9b58-aedbf9ea0706","ios":"levelo://app?vid=47ffa892-57a8-42b9-9b58-aedbf9ea0706"},"vehicle_type_id":"4","last_reported":1748576217,"current_range_meters":4400,"station_id":"ce4bhqh2rcd13ifvqhmg","pricing_plan_id":"cebpf4jnsgd1na2vs0mg"},{"bike_id":"64e8cb8d-1970-49b0-a53e-fe64e8b46825","system_id":"levelo_inurba_marseille","lat":43.258173,"lon":5.394391,"is_reserved":false,"is_disabled":false,"rental_uris":{"android":"levelo://app?vid=64e8cb8d-1970-49b0-a53e-fe64e8b46825","ios":"levelo://app?vid=64e8cb8d-1970-49b0-a53e-fe64e8b46825"},"vehicle_type_id":"4","last_reported":1748576217,"current_range_meters":4400,"station_id":"ce4bhip2rcd13ifvqft0","pricing_plan_id":"cebpf4jnsgd1na2vs0mg"},{"bike_id":"56f2631b-8680-4140-8f5d-d518d0770d23","system_id":"levelo_inurba_marseille","lat":43.28124,"lon":5.37866,"is_reserved":false,"is_disabled":false,"rental_uris":{"android":"levelo://app?vid=56f2631b-8680-4140-8f5d-d518d0770d23","ios":"levelo://app?vid=56f2631b-8680-4140-8f5d-d518d0770d23"},"vehicle_type_id":"4","last_reported":1748576217,"current_range_meters":4400,"station_id":"ce4bha12rcd13ifvqee0","pricing_plan_id":"cebpf4jnsgd1na2vs0mg"},{"bike_id":"44891e48-d811-4ad7-8750-f03c080a64f0","system_id":"levelo_inurba_marseille","lat":43.29534,"lon":5.394059,"is_reserved":false,"is_disabled":false,"rental_uris":{"android":"levelo://app?vid=44891e48-d811-4ad7-8750-f03c080a64f0","ios":"levelo://app?vid=44891e48-d811-4ad7-8750-f03c080a64f0"},"vehicle_type_id":"4","last_reported":1748576217,"current_range_meters":4800,"station_id":"ce4bh292rcd13ifvqdf0","pricing_plan_id":"cebpf4jnsgd1na2vs0mg"},{"bike_id":"57b5f64c-bdd5-4a8d-b73a-f30035957fd1","system_id":"levelo_inurba_marseille","lat":43.302483,"lon":5.400628,"is_reserved":false,"is_disabled":true,"rental_uris":{"android":"levelo://app?vid=57b5f64c-bdd5-4a8d-b73a-f30035957fd1","ios":"levelo://app?vid=57b5f64c-bdd5-4a8d-b73a-f30035957fd1"},"vehicle_type_id":"4","last_reported":1748576217,"current_range_meters":4800,"station_id":"","pricing_plan_id":"cebpf4jnsgd1na2vs0mg"},{"bike_id":"c006505c-40ec-4dbb-8fb7-e9d75b9aa51f","system_id":"levelo_inurba_marseille","lat":43.331511,"lon":5.381711,"is_reserved":false,"is_disabled":false,"rental_uris":{"android":"levelo://app?vid=c006505c-40ec-4dbb-8fb7-e9d75b9aa51f","ios":"levelo://app?vid=c006505c-40ec-4dbb-8fb7-e9d75b9aa51f"},"vehicle_type_id":"4","last_reported":1748576217,"current_range_meters":5600,"station_id":"","pricing_plan_id":"cebpf4jnsgd1na2vs0mg"},{"bike_id":"11488e1b-74ae-4459-8884-1588199aa112","system_id":"levelo_inurba_marseille","lat":43.26933,"lon":5.40262,"is_reserved":false,"is_disabled":false,"rental_uris":{"android":"levelo://app?vid=11488e1b-74ae-4459-8884-1588199aa112","ios":"levelo://app?vid=11488e1b-74ae-4459-8884-1588199aa112"},"vehicle_type_id":"4","last_reported":1748576217,"current_range_meters":5600,"station_id":"cjm6bp8fraef2m0cb0m0","pricing_plan_id":"cebpf4jnsgd1na2vs0mg"},{"bike_id":"dd71510b-388a-4ae0-8708-cd581b7431eb","system_id":"levelo_inurba_marseille","lat":43.24167,"lon":5.39731,"is_reserved":false,"is_disabled":false,"rental_uris":{"android":"levelo://app?vid=dd71510b-388a-4ae0-8708-cd581b7431eb","ios":"levelo://app?vid=dd71510b-388a-4ae0-8708-cd581b7431eb"},"vehicle_type_id":"4","last_reported":1748576217,"current_range_meters":5600,"station_id":"ce4bhn12rcd13ifvqgpg","pricing_plan_id":"cebpf4jnsgd1na2vs0mg"},{"bike_id":"c981519c-d263-4c95-b9bb-0aa79abfaf38","system_id":"levelo_inurba_marseille","lat":43.2869,"lon":5.386517,"is_reserved":false,"is_disabled":false,"rental_uris":{"android":"levelo://app?vid=c981519c-d263-4c95-b9bb-0aa79abfaf38","ios":"levelo://app?vid=c981519c-d263-4c95-b9bb-0aa79abfaf38"},"vehicle_type_id":"4","last_reported":1748576217,"current_range_meters":5600,"station_id":"ce4bh492rcd13ifvqdug","pricing_plan_id":"cebpf4jnsgd1na2vs0mg"},{"bike_id":"1ce45982-ba64-4fba-87c7-d1603b1bfeda","system_id":"levelo_inurba_marseille","lat":43.323408,"lon":5.406228,"is_reserved":false,"is_disabled":false,"rental_uris":{"android":"levelo://app?vid=1ce45982-ba64-4fba-87c7-d1603b1bfeda","ios":"levelo://app?vid=1ce45982-ba64-4fba-87c7-d1603b1bfeda"},"vehicle_type_id":"4","last_reported":1748576217,"current_range_meters":6000,"station_id":"ce4bhq92rcd13ifvqhjg","pricing_plan_id":"cebpf4jnsgd1na2vs0mg"},{"bike_id":"80ed9ea3-315a-4ac8-93d9-78ae43f5c130","system_id":"levelo_inurba_marseille","lat":43.30099,"lon":5.39076,"is_reserved":false,"is_disabled":false,"rental_uris":{"android":"levelo://app?vid=80ed9ea3-315a-4ac8-93d9-78ae43f5c130","ios":"levelo://app?vid=80ed9ea3-315a-4ac8-93d9-78ae43f5c130"},"vehicle_type_id":"4","last_reported":1748576217,"current_range_meters":6000,"station_id":"ce4bh192rcd13ifvqdb0","pricing_plan_id":"cebpf4jnsgd1na2vs0mg"},{"bike_id":"2f650bb1-6027-4191-83d2-16315820a0a7","system_id":"levelo_inurba_marseille","lat":43.29946,"lon":5.37383,"is_reserved":false,"is_disabled":false,"rental_uris":{"android":"levelo://app?vid=2f650bb1-6027-4191-83d2-16315820a0a7","ios":"levelo://app?vid=2f650bb1-6027-4191-83d2-16315820a0a7"},"vehicle_type_id":"4","last_reported":1748576217,"current_range_meters":6000,"station_id":"","pricing_plan_id":"cebpf4jnsgd1na2vs0mg"},{"bike_id":"015f9af9-da45-4c09-9c85-f29c0e49ce0d","system_id":"levelo_inurba_marseille","lat":43.241679,"lon":5.363975,"is_reserved":false,"is_disabled":false,"rental_uris":{"android":"levelo://app?vid=015f9af9-da45-4c09-9c85-f29c0e49ce0d","ios":"levelo://app?vid=015f9af9-da45-4c09-9c85-f29c0e49ce0d"},"vehicle_type_id":"4","last_reported":1748576217,"current_range_meters":6400,"station_id":"cpo36qri1sfpv3e86is0","pricing_plan_id":"cebpf4jnsgd1na2vs0mg"},{"bike_id":"4c5b150b-4be1-4396-b0f3-e96a5df5ab28","system_id":"levelo_inurba_marseille","lat":43.28363,"lon":5.38118,"is_reserved":false,"is_disabled":false,"rental_uris":{"android":"levelo://app?vid=4c5b150b-4be1-4396-b0f3-e96a5df5ab28","ios":"levelo://app?vid=4c5b150b-4be1-4396-b0f3-e96a5df5ab28"},"vehicle_type_id":"4","last_reported":1748576217,"current_range_meters":6400,"station_id":"ce4bh412rcd13ifvqdr0","pricing_plan_id":"cebpf4jnsgd1na2vs0mg"},{"bike_id":"493206a8-c74b-4896-af0d-be447cde9552","system_id":"levelo_inurba_marseille","lat":43.240733,"lon":5.377643,"is_reserved":false,"is_disabled":false,"rental_uris":{"android":"levelo://app?vid=493206a8-c74b-4896-af0d-be447cde9552","ios":"levelo://app?vid=493206a8-c74b-4896-af0d-be447cde9552"},"vehicle_type_id":"4","last_reported":1748576217,"current_range_meters":6400,"station_id":"ce4bhnp2rcd13ifvqgvg","pricing_plan_id":"cebpf4jnsgd1na2vs0mg"},{"bike_id":"22771043-09b1-43eb-91e0-5c845144e1e3","system_id":"levelo_inurba_marseille","lat":43.27697,"lon":5.40848,"is_reserved":false,"is_disabled":false,"rental_uris":{"android":"levelo://app?vid=22771043-09b1-43eb-91e0-5c845144e1e3","ios":"levelo://app?vid=22771043-09b1-43eb-91e0-5c845144e1e3"},"vehicle_type_id":"4","last_reported":1748576217,"current_range_meters":6800,"station_id":"","pricing_plan_id":"cebpf4jnsgd1na2vs0mg"},{"bike_id":"eb4b3905-d697-4843-bcd5-622b64c07feb","system_id":"levelo_inurba_marseille","lat":43.23147,"lon":5.43711,"is_reserved":false,"is_disabled":false,"rental_uris":{"android":"levelo://app?vid=eb4b3905-d697-4843-bcd5-622b64c07feb","ios":"levelo://app?vid=eb4b3905-d697-4843-bcd5-622b64c07feb"},"vehicle_type_id":"4","last_reported":1748576217,"current_range_meters":6800,"station_id":"ce4bhmp2rcd13ifvqgog","pricing_plan_id":"cebpf4jnsgd1na2vs0mg"},{"bike_id":"439c2428-01fc-4528-992a-e5af19ad7cb7","system_id":"levelo_inurba_marseille","lat":43.313635,"lon":5.384958,"is_reserved":false,"is_disabled":false,"rental_uris":{"android":"levelo://app?vid=439c2428-01fc-4528-992a-e5af19ad7cb7","ios":"levelo://app?vid=439c2428-01fc-4528-992a-e5af19ad7cb7"},"vehicle_type_id":"4","last_reported":1748576217,"current_range_meters":6800,"station_id":"ce4bgt92rcd13ifvqcf0","pricing_plan_id":"cebpf4jnsgd1na2vs0mg"},{"bike_id":"583e2176-6c7f-425c-8d24-ee49a624fede","system_id":"levelo_inurba_marseille","lat":43.265669,"lon":5.390227,"is_reserved":false,"is_disabled":true,"rental_uris":{"android":"levelo://app?vid=583e2176-6c7f-425c-8d24-ee49a624fede","ios":"levelo://app?vid=583e2176-6c7f-425c-8d24-ee49a624fede"},"vehicle_type_id":"4","last_reported":1748576217,"current_range_meters":6800,"station_id":"ce4bhe12rcd13ifvqf30","pricing_plan_id":"cebpf4jnsgd1na2vs0mg"},{"bike_id":"83de063b-de3e-48c3-9e52-452e145bc76c","system_id":"levelo_inurba_marseille","lat":43.240692,"lon":5.377607,"is_reserved":false,"is_disabled":false,"rental_uris":{"android":"levelo://app?vid=83de063b-de3e-48c3-9e52-452e145bc76c","ios":"levelo://app?vid=83de063b-de3e-48c3-9e52-452e145bc76c"},"vehicle_type_id":"4","last_reported":1748576217,"current_range_meters":6800,"station_id":"ce4bhnp2rcd13ifvqgvg","pricing_plan_id":"cebpf4jnsgd1na2vs0mg"},{"bike_id":"18b13977-375c-4da1-b1e8-2b0d0ef9b74a","system_id":"levelo_inurba_marseille","lat":43.30202,"lon":5.39468,"is_reserved":false,"is_disabled":false,"rental_uris":{"android":"levelo://app?vid=18b13977-375c-4da1-b1e8-2b0d0ef9b74a","ios":"levelo://app?vid=18b13977-375c-4da1-b1e8-2b0d0ef9b74a"},"vehicle_type_id":"4","last_reported":1748576217,"current_range_meters":6800,"station_id":"ce4bh0p2rcd13ifvqd70","pricing_plan_id":"cebpf4jnsgd1na2vs0mg"},{"bike_id":"b9ae16bc-ec39-406e-9e42-55cba52b28fe","system_id":"levelo_inurba_marseille","lat":43.260224,"lon":5.417526,"is_reserved":false,"is_disabled":false,"rental_uris":{"android":"levelo://app?vid=b9ae16bc-ec39-406e-9e42-55cba52b28fe","ios":"levelo://app?vid=b9ae16bc-ec39-406e-9e42-55cba52b28fe"},"vehicle_type_id":"4","last_reported":1748576217,"current_range_meters":6800,"station_id":"","pricing_plan_id":"cebpf4jnsgd1na2vs0mg"},{"bike_id":"92cc41b1-86b4-4ddd-8208-549b320e7443","system_id":"levelo_inurba_marseille","lat":43.32641,"lon":5.4099,"is_reserved":false,"is_disabled":false,"rental_uris":{"android":"levelo://app?vid=92cc41b1-86b4-4ddd-8208-549b320e7443","ios":"levelo://app?vid=92cc41b1-86b4-4ddd-8208-549b320e7443"},"vehicle_type_id":"4","last_reported":1748576217,"current_range_meters":7200,"station_id":"ce4bhpp2rcd13ifvqhgg","pricing_plan_id":"cebpf4jnsgd1na2vs0mg"},{"bike_id":"047bbed6-33d9-4486-b038-6c0f2513bd98","system_id":"levelo_inurba_marseille","lat":43.246735,"lon":5.381599,"is_reserved":false,"is_disabled":false,"rental_uris":{"android":"levelo://app?vid=047bbed6-33d9-4486-b038-6c0f2513bd98","ios":"levelo://app?vid=047bbed6-33d9-4486-b038-6c0f2513bd98"},"vehicle_type_id":"4","last_reported":1748576217,"current_range_meters":7200,"station_id":"ce4bhih2rcd13ifvqfr0","pricing_plan_id":"cebpf4jnsgd1na2vs0mg"},{"bike_id":"a329eac8-e7c4-4479-b5f4-6f80ea2c1466","system_id":"levelo_inurba_marseille","lat":43.28409,"lon":5.37533,"is_reserved":false,"is_disabled":false,"rental_uris":{"android":"levelo://app?vid=a329eac8-e7c4-4479-b5f4-6f80ea2c1466","ios":"levelo://app?vid=a329eac8-e7c4-4479-b5f4-6f80ea2c1466"},"vehicle_type_id":"4","last_reported":1748576217,"current_range_meters":7200,"station_id":"ce4bh412rcd13ifvqds0","pricing_plan_id":"cebpf4jnsgd1na2vs0mg"},{"bike_id":"7c6e48ab-b87e-4e89-9339-a1a2992e6797","system_id":"levelo_inurba_marseille","lat":43.26109,"lon":5.41465,"is_reserved":false,"is_disabled":false,"rental_uris":{"android":"levelo://app?vid=7c6e48ab-b87e-4e89-9339-a1a2992e6797","ios":"levelo://app?vid=7c6e48ab-b87e-4e89-9339-a1a2992e6797"},"vehicle_type_id":"4","last_reported":1748576217,"current_range_meters":7200,"station_id":"","pricing_plan_id":"cebpf4jnsgd1na2vs0mg"},{"bike_id":"2a0682f8-0ba4-4e21-9326-7a5912220f6c","system_id":"levelo_inurba_marseille","lat":43.311635,"lon":5.387191,"is_reserved":false,"is_disabled":false,"rental_uris":{"android":"levelo://app?vid=2a0682f8-0ba4-4e21-9326-7a5912220f6c","ios":"levelo://app?vid=2a0682f8-0ba4-4e21-9326-7a5912220f6c"},"vehicle_type_id":"4","last_reported":1748576217,"current_range_meters":7200,"station_id":"ce4bgv12rcd13ifvqcp0","pricing_plan_id":"cebpf4jnsgd1na2vs0mg"},{"bike_id":"a0292f76-9c39-4975-8852-43249404ddac","system_id":"levelo_inurba_marseille","lat":43.28416,"lon":5.3753,"is_reserved":false,"is_disabled":false,"rental_uris":{"android":"levelo://app?vid=a0292f76-9c39-4975-8852-43249404ddac","ios":"levelo://app?vid=a0292f76-9c39-4975-8852-43249404ddac"},"vehicle_type_id":"4","last_reported":1748576217,"current_range_meters":7200,"station_id":"ce4bh412rcd13ifvqds0","pricing_plan_id":"cebpf4jnsgd1na2vs0mg"},{"bike_id":"d59936d1-8ec8-4f42-8df1-dcddc80cd126","system_id":"levelo_inurba_marseille","lat":43.289425,"lon":5.39645,"is_reserved":false,"is_disabled":true,"rental_uris":{"android":"levelo://app?vid=d59936d1-8ec8-4f42-8df1-dcddc80cd126","ios":"levelo://app?vid=d59936d1-8ec8-4f42-8df1-dcddc80cd126"},"vehicle_type_id":"4","last_reported":1748576217,"current_range_meters":7200,"station_id":"ce4bh3h2rcd13ifvqdn0","pricing_plan_id":"cebpf4jnsgd1na2vs0mg"},{"bike_id":"d5717ce5-c661-467b-a0d0-ac1d0564b554","system_id":"levelo_inurba_marseille","lat":43.32003,"lon":5.38139,"is_reserved":false,"is_disabled":false,"rental_uris":{"android":"levelo://app?vid=d5717ce5-c661-467b-a0d0-ac1d0564b554","ios":"levelo://app?vid=d5717ce5-c661-467b-a0d0-ac1d0564b554"},"vehicle_type_id":"4","last_reported":1748576217,"current_range_meters":7200,"station_id":"ce4bhr12rcd13ifvqhpg","pricing_plan_id":"cebpf4jnsgd1na2vs0mg"},{"bike_id":"56c661b2-09c6-4ae7-a74d-d7c5eda261a8","system_id":"levelo_inurba_marseille","lat":43.27995,"lon":5.41658,"is_reserved":false,"is_disabled":false,"rental_uris":{"android":"levelo://app?vid=56c661b2-09c6-4ae7-a74d-d7c5eda261a8","ios":"levelo://app?vid=56c661b2-09c6-4ae7-a74d-d7c5eda261a8"},"vehicle_type_id":"4","last_reported":1748576217,"current_range_meters":7200,"station_id":"ce4bho12rcd13ifvqh1g","pricing_plan_id":"cebpf4jnsgd1na2vs0mg"},{"bike_id":"497ec4a5-8002-40cf-b66d-3b629c958e7f","system_id":"levelo_inurba_marseille","lat":43.29173,"lon":5.40006,"is_reserved":false,"is_disabled":false,"rental_uris":{"android":"levelo://app?vid=497ec4a5-8002-40cf-b66d-3b629c958e7f","ios":"levelo://app?vid=497ec4a5-8002-40cf-b66d-3b629c958e7f"},"vehicle_type_id":"4","last_reported":1748576217,"current_range_meters":7200,"station_id":"","pricing_plan_id":"cebpf4jnsgd1na2vs0mg"},{"bike_id":"4fa5b492-f1d6-4a2b-b7f4-b14458fbd35b","system_id":"levelo_inurba_marseille","lat":43.31319,"lon":5.39695,"is_reserved":false,"is_disabled":false,"rental_uris":{"android":"levelo://app?vid=4fa5b492-f1d6-4a2b-b7f4-b14458fbd35b","ios":"levelo://app?vid=4fa5b492-f1d6-4a2b-b7f4-b14458fbd35b"},"vehicle_type_id":"4","last_reported":1748576217,"current_range_meters":7200,"station_id":"ce4bgvp2rcd13ifvqcu0","pricing_plan_id":"cebpf4jnsgd1na2vs0mg"},{"bike_id":"4fd6056e-aadb-4699-b1fa-8b8dbd97a31c","system_id":"levelo_inurba_marseille","lat":43.336,"lon":5.41037,"is_reserved":false,"is_disabled":false,"rental_uris":{"android":"levelo://app?vid=4fd6056e-aadb-4699-b1fa-8b8dbd97a31c","ios":"levelo://app?vid=4fd6056e-aadb-4699-b1fa-8b8dbd97a31c"},"vehicle_type_id":"4","last_reported":1748576217,"current_range_meters":7200,"station_id":"ce4bhqh2rcd13ifvqhmg","pricing_plan_id":"cebpf4jnsgd1na2vs0mg"},{"bike_id":"bc8bd5b8-5786-4466-9769-11fe4ef18f0f","system_id":"levelo_inurba_marseille","lat":43.2622,"lon":5.40459,"is_reserved":false,"is_disabled":false,"rental_uris":{"android":"levelo://app?vid=bc8bd5b8-5786-4466-9769-11fe4ef18f0f","ios":"levelo://app?vid=bc8bd5b8-5786-4466-9769-11fe4ef18f0f"},"vehicle_type_id":"4","last_reported":1748576217,"current_range_meters":7200,"station_id":"ce4bhmh2rcd13ifvqgmg","pricing_plan_id":"cebpf4jnsgd1na2vs0mg"},{"bike_id":"faef4eb4-18ac-462d-b4ca-b66224371625","system_id":"levelo_inurba_marseille","lat":43.307993,"lon":5.435309,"is_reserved":false,"is_disabled":false,"rental_uris":{"android":"levelo://app?vid=faef4eb4-18ac-462d-b4ca-b66224371625","ios":"levelo://app?vid=faef4eb4-18ac-462d-b4ca-b66224371625"},"vehicle_type_id":"4","last_reported":1748576217,"current_range_meters":7200,"station_id":"ce4bhph2rcd13ifvqheg","pricing_plan_id":"cebpf4jnsgd1na2vs0mg"},{"bike_id":"419806d9-a0ba-4539-b6a3-66d05e973434","system_id":"levelo_inurba_marseille","lat":43.211907,"lon":5.350727,"is_reserved":false,"is_disabled":true,"rental_uris":{"android":"levelo://app?vid=419806d9-a0ba-4539-b6a3-66d05e973434","ios":"levelo://app?vid=419806d9-a0ba-4539-b6a3-66d05e973434"},"vehicle_type_id":"4","last_reported":1748576217,"current_range_meters":7200,"station_id":"","pricing_plan_id":"cebpf4jnsgd1na2vs0mg"},{"bike_id":"956b6fae-56c8-4855-84db-9daa41ff5836","system_id":"levelo_inurba_marseille","lat":43.245426,"lon":5.395284,"is_reserved":false,"is_disabled":false,"rental_uris":{"android":"levelo://app?vid=956b6fae-56c8-4855-84db-9daa41ff5836","ios":"levelo://app?vid=956b6fae-56c8-4855-84db-9daa41ff5836"},"vehicle_type_id":"4","last_reported":1748576217,"current_range_meters":8000,"station_id":"ce4bhlp2rcd13ifvqgjg","pricing_plan_id":"cebpf4jnsgd1na2vs0mg"},{"bike_id":"7f6b38d0-dcd2-4848-86a0-7b44e451f43f","system_id":"levelo_inurba_marseille","lat":43.276961,"lon":5.415371,"is_reserved":false,"is_disabled":false,"rental_uris":{"android":"levelo://app?vid=7f6b38d0-dcd2-4848-86a0-7b44e451f43f","ios":"levelo://app?vid=7f6b38d0-dcd2-4848-86a0-7b44e451f43f"},"vehicle_type_id":"4","last_reported":1748576217,"current_range_meters":8000,"station_id":"","pricing_plan_id":"cebpf4jnsgd1na2vs0mg"},{"bike_id":"9fa3982a-78e9-408f-aaa3-19562a00ad34","system_id":"levelo_inurba_marseille","lat":43.311731,"lon":5.387077,"is_reserved":false,"is_disabled":false,"rental_uris":{"android":"levelo://app?vid=9fa3982a-78e9-408f-aaa3-19562a00ad34","ios":"levelo://app?vid=9fa3982a-78e9-408f-aaa3-19562a00ad34"},"vehicle_type_id":"4","last_reported":1748576217,"current_range_meters":8000,"station_id":"ce4bgv12rcd13ifvqcp0","pricing_plan_id":"cebpf4jnsgd1na2vs0mg"},{"bike_id":"8c869018-c2f1-47df-8e3b-e48407b32a24","system_id":"levelo_inurba_marseille","lat":43.27192,"lon":5.410064,"is_reserved":false,"is_disabled":false,"rental_uris":{"android":"levelo://app?vid=8c869018-c2f1-47df-8e3b-e48407b32a24","ios":"levelo://app?vid=8c869018-c2f1-47df-8e3b-e48407b32a24"},"vehicle_type_id":"4","last_reported":1748576217,"current_range_meters":8000,"station_id":"ce4bhl12rcd13ifvqgf0","pricing_plan_id":"cebpf4jnsgd1na2vs0mg"},{"bike_id":"3c4d4143-e75a-4a1e-aae2-22cec9f6f33a","system_id":"levelo_inurba_marseille","lat":43.28689,"lon":5.40016,"is_reserved":false,"is_disabled":false,"rental_uris":{"android":"levelo://app?vid=3c4d4143-e75a-4a1e-aae2-22cec9f6f33a","ios":"levelo://app?vid=3c4d4143-e75a-4a1e-aae2-22cec9f6f33a"},"vehicle_type_id":"4","last_reported":1748576217,"current_range_meters":8000,"station_id":"ce4bho92rcd13ifvqh3g","pricing_plan_id":"cebpf4jnsgd1na2vs0mg"},{"bike_id":"c20cde3d-efa4-4792-85cb-bcd9537bb570","system_id":"levelo_inurba_marseille","lat":43.24163,"lon":5.36401,"is_reserved":false,"is_disabled":true,"rental_uris":{"android":"levelo://app?vid=c20cde3d-efa4-4792-85cb-bcd9537bb570","ios":"levelo://app?vid=c20cde3d-efa4-4792-85cb-bcd9537bb570"},"vehicle_type_id":"4","last_reported":1748576217,"current_range_meters":8000,"station_id":"cpo36qri1sfpv3e86is0","pricing_plan_id":"cebpf4jnsgd1na2vs0mg"},{"bike_id":"d3f92fd6-293c-4ace-9e82-475ffd1b302b","system_id":"levelo_inurba_marseille","lat":43.313343,"lon":5.396916,"is_reserved":false,"is_disabled":false,"rental_uris":{"android":"levelo://app?vid=d3f92fd6-293c-4ace-9e82-475ffd1b302b","ios":"levelo://app?vid=d3f92fd6-293c-4ace-9e82-475ffd1b302b"},"vehicle_type_id":"4","last_reported":1748576217,"current_range_meters":8000,"station_id":"ce4bgvp2rcd13ifvqcu0","pricing_plan_id":"cebpf4jnsgd1na2vs0mg"},{"bike_id":"c6e0c180-aa6d-49e2-9c8b-018433f5b42d","system_id":"levelo_inurba_marseille","lat":43.25567,"lon":5.3822,"is_reserved":false,"is_disabled":false,"rental_uris":{"android":"levelo://app?vid=c6e0c180-aa6d-49e2-9c8b-018433f5b42d","ios":"levelo://app?vid=c6e0c180-aa6d-49e2-9c8b-018433f5b42d"},"vehicle_type_id":"4","last_reported":1748576217,"current_range_meters":8000,"station_id":"ce4bhih2rcd13ifvqfs0","pricing_plan_id":"cebpf4jnsgd1na2vs0mg"},{"bike_id":"cbf3cf05-175c-44e7-967c-393836dacce2","system_id":"levelo_inurba_marseille","lat":43.305926,"lon":5.393403,"is_reserved":false,"is_disabled":false,"rental_uris":{"android":"levelo://app?vid=cbf3cf05-175c-44e7-967c-393836dacce2","ios":"levelo://app?vid=cbf3cf05-175c-44e7-967c-393836dacce2"},"vehicle_type_id":"4","last_reported":1748576217,"current_range_meters":8400,"station_id":"ce4bh0p2rcd13ifvqd80","pricing_plan_id":"cebpf4jnsgd1na2vs0mg"},{"bike_id":"bd3a474e-6db6-481d-adfd-f1df8f0e3a08","system_id":"levelo_inurba_marseille","lat":43.2841,"lon":5.37514,"is_reserved":false,"is_disabled":false,"rental_uris":{"android":"levelo://app?vid=bd3a474e-6db6-481d-adfd-f1df8f0e3a08","ios":"levelo://app?vid=bd3a474e-6db6-481d-adfd-f1df8f0e3a08"},"vehicle_type_id":"4","last_reported":1748576217,"current_range_meters":8400,"station_id":"ce4bh412rcd13ifvqds0","pricing_plan_id":"cebpf4jnsgd1na2vs0mg"},{"bike_id":"0336b387-5859-40b9-80a1-1178d2ad5626","system_id":"levelo_inurba_marseille","lat":43.281497,"lon":5.426402,"is_reserved":false,"is_disabled":false,"rental_uris":{"android":"levelo://app?vid=0336b387-5859-40b9-80a1-1178d2ad5626","ios":"levelo://app?vid=0336b387-5859-40b9-80a1-1178d2ad5626"},"vehicle_type_id":"4","last_reported":1748576217,"current_range_meters":8400,"station_id":"ce4bhnh2rcd13ifvqgug","pricing_plan_id":"cebpf4jnsgd1na2vs0mg"},{"bike_id":"4c73f73e-db39-4beb-89da-9a61e6e86079","system_id":"levelo_inurba_marseille","lat":43.29422,"lon":5.39788,"is_reserved":false,"is_disabled":false,"rental_uris":{"android":"levelo://app?vid=4c73f73e-db39-4beb-89da-9a61e6e86079","ios":"levelo://app?vid=4c73f73e-db39-4beb-89da-9a61e6e86079"},"vehicle_type_id":"4","last_reported":1748576217,"current_range_meters":8400,"station_id":"ce4bh3h2rcd13ifvqdo0","pricing_plan_id":"cebpf4jnsgd1na2vs0mg"},{"bike_id":"dab2f626-29c7-41fb-b59f-689ffb6e1b9f","system_id":"levelo_inurba_marseille","lat":43.313222,"lon":5.397061,"is_reserved":false,"is_disabled":false,"rental_uris":{"android":"levelo://app?vid=dab2f626-29c7-41fb-b59f-689ffb6e1b9f","ios":"levelo://app?vid=dab2f626-29c7-41fb-b59f-689ffb6e1b9f"},"vehicle_type_id":"4","last_reported":1748576217,"current_range_meters":8400,"station_id":"ce4bgvp2rcd13ifvqcu0","pricing_plan_id":"cebpf4jnsgd1na2vs0mg"},{"bike_id":"e4db319b-ca7e-453d-ab62-af9006a40cb3","system_id":"levelo_inurba_marseille","lat":43.288508,"lon":5.393121,"is_reserved":false,"is_disabled":false,"rental_uris":{"android":"levelo://app?vid=e4db319b-ca7e-453d-ab62-af9006a40cb3","ios":"levelo://app?vid=e4db319b-ca7e-453d-ab62-af9006a40cb3"},"vehicle_type_id":"4","last_reported":1748576217,"current_range_meters":8800,"station_id":"ce4bh2p2rcd13ifvqdi0","pricing_plan_id":"cebpf4jnsgd1na2vs0mg"},{"bike_id":"ff2a370e-e43f-446f-93ec-b31861797423","system_id":"levelo_inurba_marseille","lat":43.28213,"lon":5.39057,"is_reserved":false,"is_disabled":false,"rental_uris":{"android":"levelo://app?vid=ff2a370e-e43f-446f-93ec-b31861797423","ios":"levelo://app?vid=ff2a370e-e43f-446f-93ec-b31861797423"},"vehicle_type_id":"4","last_reported":1748576217,"current_range_meters":8800,"station_id":"","pricing_plan_id":"cebpf4jnsgd1na2vs0mg"},{"bike_id":"efc83553-69ab-4f41-8bb9-e5e59a46559a","system_id":"levelo_inurba_marseille","lat":43.30645,"lon":5.40078,"is_reserved":false,"is_disabled":false,"rental_uris":{"android":"levelo://app?vid=efc83553-69ab-4f41-8bb9-e5e59a46559a","ios":"levelo://app?vid=efc83553-69ab-4f41-8bb9-e5e59a46559a"},"vehicle_type_id":"4","last_reported":1748576217,"current_range_meters":8800,"station_id":"ce4bh112rcd13ifvqda0","pricing_plan_id":"cebpf4jnsgd1na2vs0mg"},{"bike_id":"f98c3754-33f3-48ce-8b60-c394f6dc20b2","system_id":"levelo_inurba_marseille","lat":43.33603,"lon":5.41025,"is_reserved":false,"is_disabled":false,"rental_uris":{"android":"levelo://app?vid=f98c3754-33f3-48ce-8b60-c394f6dc20b2","ios":"levelo://app?vid=f98c3754-33f3-48ce-8b60-c394f6dc20b2"},"vehicle_type_id":"4","last_reported":1748576217,"current_range_meters":8800,"station_id":"ce4bhqh2rcd13ifvqhmg","pricing_plan_id":"cebpf4jnsgd1na2vs0mg"},{"bike_id":"c97c7aff-a44a-433f-b1e1-c4cf53d64484","system_id":"levelo_inurba_marseille","lat":43.279188,"lon":5.395809,"is_reserved":false,"is_disabled":false,"rental_uris":{"android":"levelo://app?vid=c97c7aff-a44a-433f-b1e1-c4cf53d64484","ios":"levelo://app?vid=c97c7aff-a44a-433f-b1e1-c4cf53d64484"},"vehicle_type_id":"4","last_reported":1748576217,"current_range_meters":8800,"station_id":"ce4bhf92rcd13ifvqf40","pricing_plan_id":"cebpf4jnsgd1na2vs0mg"},{"bike_id":"42dca157-bdb0-4361-8022-7979135f94aa","system_id":"levelo_inurba_marseille","lat":43.285684,"lon":5.365539,"is_reserved":false,"is_disabled":false,"rental_uris":{"android":"levelo://app?vid=42dca157-bdb0-4361-8022-7979135f94aa","ios":"levelo://app?vid=42dca157-bdb0-4361-8022-7979135f94aa"},"vehicle_type_id":"4","last_reported":1748576217,"current_range_meters":8800,"station_id":"","pricing_plan_id":"cebpf4jnsgd1na2vs0mg"},{"bike_id":"4f216dcf-bccf-44b7-a603-1c359cad035e","system_id":"levelo_inurba_marseille","lat":43.28436,"lon":5.39197,"is_reserved":false,"is_disabled":false,"rental_uris":{"android":"levelo://app?vid=4f216dcf-bccf-44b7-a603-1c359cad035e","ios":"levelo://app?vid=4f216dcf-bccf-44b7-a603-1c359cad035e"},"vehicle_type_id":"4","last_reported":1748576217,"current_range_meters":8400,"station_id":"ce4bhoh2rcd13ifvqh5g","pricing_plan_id":"cebpf4jnsgd1na2vs0mg"},{"bike_id":"299bc464-0062-40b9-b8fd-94e53cb49a69","system_id":"levelo_inurba_marseille","lat":43.310081,"lon":5.380171,"is_reserved":false,"is_disabled":true,"rental_uris":{"android":"levelo://app?vid=299bc464-0062-40b9-b8fd-94e53cb49a69","ios":"levelo://app?vid=299bc464-0062-40b9-b8fd-94e53cb49a69"},"vehicle_type_id":"4","last_reported":1748576217,"current_range_meters":8800,"station_id":"","pricing_plan_id":"cebpf4jnsgd1na2vs0mg"},{"bike_id":"5a519813-f6ec-4fcd-9be7-b7b6b9061df5","system_id":"levelo_inurba_marseille","lat":43.29933,"lon":5.36543,"is_reserved":false,"is_disabled":true,"rental_uris":{"android":"levelo://app?vid=5a519813-f6ec-4fcd-9be7-b7b6b9061df5","ios":"levelo://app?vid=5a519813-f6ec-4fcd-9be7-b7b6b9061df5"},"vehicle_type_id":"4","last_reported":1748576217,"current_range_meters":8800,"station_id":"ce4bgm92rcd13ifvqbr0","pricing_plan_id":"cebpf4jnsgd1na2vs0mg"},{"bike_id":"c0595c09-72f3-46b5-88be-5bad603ecb44","system_id":"levelo_inurba_marseille","lat":43.288446,"lon":5.393251,"is_reserved":false,"is_disabled":false,"rental_uris":{"android":"levelo://app?vid=c0595c09-72f3-46b5-88be-5bad603ecb44","ios":"levelo://app?vid=c0595c09-72f3-46b5-88be-5bad603ecb44"},"vehicle_type_id":"4","last_reported":1748576217,"current_range_meters":8800,"station_id":"ce4bh2p2rcd13ifvqdi0","pricing_plan_id":"cebpf4jnsgd1na2vs0mg"},{"bike_id":"aae5f7c7-b30a-474f-bb09-cb9f5f8f5101","system_id":"levelo_inurba_marseille","lat":43.24175,"lon":5.36375,"is_reserved":false,"is_disabled":false,"rental_uris":{"android":"levelo://app?vid=aae5f7c7-b30a-474f-bb09-cb9f5f8f5101","ios":"levelo://app?vid=aae5f7c7-b30a-474f-bb09-cb9f5f8f5101"},"vehicle_type_id":"4","last_reported":1748576217,"current_range_meters":8800,"station_id":"cpo36qri1sfpv3e86is0","pricing_plan_id":"cebpf4jnsgd1na2vs0mg"},{"bike_id":"279a10e7-e84b-43fd-983f-0a5dd993c8a0","system_id":"levelo_inurba_marseille","lat":43.281555,"lon":5.426479,"is_reserved":false,"is_disabled":false,"rental_uris":{"android":"levelo://app?vid=279a10e7-e84b-43fd-983f-0a5dd993c8a0","ios":"levelo://app?vid=279a10e7-e84b-43fd-983f-0a5dd993c8a0"},"vehicle_type_id":"4","last_reported":1748576217,"current_range_meters":8800,"station_id":"ce4bhnh2rcd13ifvqgug","pricing_plan_id":"cebpf4jnsgd1na2vs0mg"},{"bike_id":"92a2ca16-c950-4b2d-ac5b-d565b7fc399a","system_id":"levelo_inurba_marseille","lat":43.280261,"lon":5.369452,"is_reserved":false,"is_disabled":false,"rental_uris":{"android":"levelo://app?vid=92a2ca16-c950-4b2d-ac5b-d565b7fc399a","ios":"levelo://app?vid=92a2ca16-c950-4b2d-ac5b-d565b7fc399a"},"vehicle_type_id":"4","last_reported":1748576217,"current_range_meters":8800,"station_id":"ce4bha12rcd13ifvqef0","pricing_plan_id":"cebpf4jnsgd1na2vs0mg"},{"bike_id":"6b941fee-3867-4c7d-a895-f601524dec0c","system_id":"levelo_inurba_marseille","lat":43.26236,"lon":5.40467,"is_reserved":false,"is_disabled":false,"rental_uris":{"android":"levelo://app?vid=6b941fee-3867-4c7d-a895-f601524dec0c","ios":"levelo://app?vid=6b941fee-3867-4c7d-a895-f601524dec0c"},"vehicle_type_id":"4","last_reported":1748576217,"current_range_meters":8800,"station_id":"ce4bhmh2rcd13ifvqgmg","pricing_plan_id":"cebpf4jnsgd1na2vs0mg"},{"bike_id":"0651e6a4-fc8e-46f5-9f60-21afecbc4679","system_id":"levelo_inurba_marseille","lat":43.308975,"lon":5.372155,"is_reserved":false,"is_disabled":false,"rental_uris":{"android":"levelo://app?vid=0651e6a4-fc8e-46f5-9f60-21afecbc4679","ios":"levelo://app?vid=0651e6a4-fc8e-46f5-9f60-21afecbc4679"},"vehicle_type_id":"4","last_reported":1748576217,"current_range_meters":8800,"station_id":"ce4bguh2rcd13ifvqckg","pricing_plan_id":"cebpf4jnsgd1na2vs0mg"},{"bike_id":"e2201cbe-9b60-4fcf-8b8c-02dcf0931510","system_id":"levelo_inurba_marseille","lat":43.302493,"lon":5.401017,"is_reserved":false,"is_disabled":false,"rental_uris":{"android":"levelo://app?vid=e2201cbe-9b60-4fcf-8b8c-02dcf0931510","ios":"levelo://app?vid=e2201cbe-9b60-4fcf-8b8c-02dcf0931510"},"vehicle_type_id":"4","last_reported":1748576217,"current_range_meters":8800,"station_id":"ce4bgvh2rcd13ifvqcs0","pricing_plan_id":"cebpf4jnsgd1na2vs0mg"},{"bike_id":"0e009545-9acc-491d-b143-22cbd0096db4","system_id":"levelo_inurba_marseille","lat":43.33831,"lon":5.39252,"is_reserved":false,"is_disabled":false,"rental_uris":{"android":"levelo://app?vid=0e009545-9acc-491d-b143-22cbd0096db4","ios":"levelo://app?vid=0e009545-9acc-491d-b143-22cbd0096db4"},"vehicle_type_id":"4","last_reported":1748576217,"current_range_meters":9200,"station_id":"","pricing_plan_id":"cebpf4jnsgd1na2vs0mg"},{"bike_id":"98ed824e-3a51-4080-b8ac-5a763a3f6886","system_id":"levelo_inurba_marseille","lat":43.30935,"lon":5.401448,"is_reserved":false,"is_disabled":false,"rental_uris":{"android":"levelo://app?vid=98ed824e-3a51-4080-b8ac-5a763a3f6886","ios":"levelo://app?vid=98ed824e-3a51-4080-b8ac-5a763a3f6886"},"vehicle_type_id":"4","last_reported":1748576217,"current_range_meters":9200,"station_id":"ce4bgvp2rcd13ifvqct0","pricing_plan_id":"cebpf4jnsgd1na2vs0mg"},{"bike_id":"42457cf4-066b-4e99-be8a-c611cdb501b2","system_id":"levelo_inurba_marseille","lat":43.233264,"lon":5.361443,"is_reserved":false,"is_disabled":false,"rental_uris":{"android":"levelo://app?vid=42457cf4-066b-4e99-be8a-c611cdb501b2","ios":"levelo://app?vid=42457cf4-066b-4e99-be8a-c611cdb501b2"},"vehicle_type_id":"4","last_reported":1748576217,"current_range_meters":9200,"station_id":"","pricing_plan_id":"cebpf4jnsgd1na2vs0mg"},{"bike_id":"55f18836-1cd2-4eed-be83-e31222022d99","system_id":"levelo_inurba_marseille","lat":43.2582,"lon":5.3944,"is_reserved":false,"is_disabled":false,"rental_uris":{"android":"levelo://app?vid=55f18836-1cd2-4eed-be83-e31222022d99","ios":"levelo://app?vid=55f18836-1cd2-4eed-be83-e31222022d99"},"vehicle_type_id":"4","last_reported":1748576217,"current_range_meters":9200,"station_id":"ce4bhip2rcd13ifvqft0","pricing_plan_id":"cebpf4jnsgd1na2vs0mg"},{"bike_id":"ed1a6081-75be-44b2-a209-668e8f50f0aa","system_id":"levelo_inurba_marseille","lat":43.3064,"lon":5.40085,"is_reserved":false,"is_disabled":false,"rental_uris":{"android":"levelo://app?vid=ed1a6081-75be-44b2-a209-668e8f50f0aa","ios":"levelo://app?vid=ed1a6081-75be-44b2-a209-668e8f50f0aa"},"vehicle_type_id":"4","last_reported":1748576217,"current_range_meters":9200,"station_id":"ce4bh112rcd13ifvqda0","pricing_plan_id":"cebpf4jnsgd1na2vs0mg"},{"bike_id":"339f38b0-f75b-4455-bd41-33673ac56d64","system_id":"levelo_inurba_marseille","lat":43.309896,"lon":5.417291,"is_reserved":false,"is_disabled":false,"rental_uris":{"android":"levelo://app?vid=339f38b0-f75b-4455-bd41-33673ac56d64","ios":"levelo://app?vid=339f38b0-f75b-4455-bd41-33673ac56d64"},"vehicle_type_id":"4","last_reported":1748576217,"current_range_meters":9200,"station_id":"","pricing_plan_id":"cebpf4jnsgd1na2vs0mg"},{"bike_id":"b5339d27-0085-4d73-acbc-1f97803ffe8a","system_id":"levelo_inurba_marseille","lat":43.287061,"lon":5.399947,"is_reserved":false,"is_disabled":false,"rental_uris":{"android":"levelo://app?vid=b5339d27-0085-4d73-acbc-1f97803ffe8a","ios":"levelo://app?vid=b5339d27-0085-4d73-acbc-1f97803ffe8a"},"vehicle_type_id":"4","last_reported":1748576217,"current_range_meters":9200,"station_id":"ce4bho92rcd13ifvqh3g","pricing_plan_id":"cebpf4jnsgd1na2vs0mg"},{"bike_id":"f8bc173a-daa9-4ce4-a9bf-8100197dee35","system_id":"levelo_inurba_marseille","lat":43.31321,"lon":5.39691,"is_reserved":false,"is_disabled":false,"rental_uris":{"android":"levelo://app?vid=f8bc173a-daa9-4ce4-a9bf-8100197dee35","ios":"levelo://app?vid=f8bc173a-daa9-4ce4-a9bf-8100197dee35"},"vehicle_type_id":"4","last_reported":1748576217,"current_range_meters":9200,"station_id":"ce4bgvp2rcd13ifvqcu0","pricing_plan_id":"cebpf4jnsgd1na2vs0mg"},{"bike_id":"5498b61f-7186-410c-8c5d-2501f46ccf33","system_id":"levelo_inurba_marseille","lat":43.31354,"lon":5.38498,"is_reserved":false,"is_disabled":false,"rental_uris":{"android":"levelo://app?vid=5498b61f-7186-410c-8c5d-2501f46ccf33","ios":"levelo://app?vid=5498b61f-7186-410c-8c5d-2501f46ccf33"},"vehicle_type_id":"4","last_reported":1748576217,"current_range_meters":9200,"station_id":"ce4bgt92rcd13ifvqcf0","pricing_plan_id":"cebpf4jnsgd1na2vs0mg"},{"bike_id":"08818466-c8d1-44f6-a5b1-b36755983432","system_id":"levelo_inurba_marseille","lat":43.320849,"lon":5.44088,"is_reserved":false,"is_disabled":false,"rental_uris":{"android":"levelo://app?vid=08818466-c8d1-44f6-a5b1-b36755983432","ios":"levelo://app?vid=08818466-c8d1-44f6-a5b1-b36755983432"},"vehicle_type_id":"4","last_reported":1748576217,"current_range_meters":9200,"station_id":"","pricing_plan_id":"cebpf4jnsgd1na2vs0mg"},{"bike_id":"84615e18-e2f0-47bb-b2d3-d90928f13ba0","system_id":"levelo_inurba_marseille","lat":43.30585,"lon":5.39364,"is_reserved":false,"is_disabled":false,"rental_uris":{"android":"levelo://app?vid=84615e18-e2f0-47bb-b2d3-d90928f13ba0","ios":"levelo://app?vid=84615e18-e2f0-47bb-b2d3-d90928f13ba0"},"vehicle_type_id":"4","last_reported":1748576217,"current_range_meters":9200,"station_id":"ce4bh0p2rcd13ifvqd80","pricing_plan_id":"cebpf4jnsgd1na2vs0mg"},{"bike_id":"c48b21be-a200-48c7-b6a5-2e7f96bd845a","system_id":"levelo_inurba_marseille","lat":43.292462,"lon":5.409092,"is_reserved":false,"is_disabled":false,"rental_uris":{"android":"levelo://app?vid=c48b21be-a200-48c7-b6a5-2e7f96bd845a","ios":"levelo://app?vid=c48b21be-a200-48c7-b6a5-2e7f96bd845a"},"vehicle_type_id":"4","last_reported":1748576217,"current_range_meters":9200,"station_id":"ce4bh192rcd13ifvqdc0","pricing_plan_id":"cebpf4jnsgd1na2vs0mg"},{"bike_id":"5ed9a349-2c75-4ed8-bb5e-4863bb47c81b","system_id":"levelo_inurba_marseille","lat":43.27969,"lon":5.38723,"is_reserved":false,"is_disabled":false,"rental_uris":{"android":"levelo://app?vid=5ed9a349-2c75-4ed8-bb5e-4863bb47c81b","ios":"levelo://app?vid=5ed9a349-2c75-4ed8-bb5e-4863bb47c81b"},"vehicle_type_id":"4","last_reported":1748576217,"current_range_meters":9200,"station_id":"ce4bhg12rcd13ifvqf80","pricing_plan_id":"cebpf4jnsgd1na2vs0mg"},{"bike_id":"a9677dbc-4873-44e1-a436-f6f19cf345d4","system_id":"levelo_inurba_marseille","lat":43.29259,"lon":5.40145,"is_reserved":false,"is_disabled":false,"rental_uris":{"android":"levelo://app?vid=a9677dbc-4873-44e1-a436-f6f19cf345d4","ios":"levelo://app?vid=a9677dbc-4873-44e1-a436-f6f19cf345d4"},"vehicle_type_id":"4","last_reported":1748576217,"current_range_meters":9600,"station_id":"ce4bh312rcd13ifvqdk0","pricing_plan_id":"cebpf4jnsgd1na2vs0mg"},{"bike_id":"6ad5c3ef-6839-4e1c-9425-30e460d8bcf4","system_id":"levelo_inurba_marseille","lat":43.311716,"lon":5.38713,"is_reserved":false,"is_disabled":false,"rental_uris":{"android":"levelo://app?vid=6ad5c3ef-6839-4e1c-9425-30e460d8bcf4","ios":"levelo://app?vid=6ad5c3ef-6839-4e1c-9425-30e460d8bcf4"},"vehicle_type_id":"4","last_reported":1748576217,"current_range_meters":9600,"station_id":"ce4bgv12rcd13ifvqcp0","pricing_plan_id":"cebpf4jnsgd1na2vs0mg"},{"bike_id":"7203405e-5726-470e-b6e7-416d2f1da43a","system_id":"levelo_inurba_marseille","lat":43.284153,"lon":5.375174,"is_reserved":false,"is_disabled":false,"rental_uris":{"android":"levelo://app?vid=7203405e-5726-470e-b6e7-416d2f1da43a","ios":"levelo://app?vid=7203405e-5726-470e-b6e7-416d2f1da43a"},"vehicle_type_id":"4","last_reported":1748576217,"current_range_meters":9600,"station_id":"ce4bh412rcd13ifvqds0","pricing_plan_id":"cebpf4jnsgd1na2vs0mg"},{"bike_id":"438d1ea3-5c8f-4d35-9360-e6d605c5cfb2","system_id":"levelo_inurba_marseille","lat":43.24676,"lon":5.38161,"is_reserved":false,"is_disabled":false,"rental_uris":{"android":"levelo://app?vid=438d1ea3-5c8f-4d35-9360-e6d605c5cfb2","ios":"levelo://app?vid=438d1ea3-5c8f-4d35-9360-e6d605c5cfb2"},"vehicle_type_id":"4","last_reported":1748576217,"current_range_meters":9600,"station_id":"ce4bhih2rcd13ifvqfr0","pricing_plan_id":"cebpf4jnsgd1na2vs0mg"},{"bike_id":"b0281835-9723-4509-ae81-eaa1f1eb11df","system_id":"levelo_inurba_marseille","lat":43.30882,"lon":5.39663,"is_reserved":false,"is_disabled":false,"rental_uris":{"android":"levelo://app?vid=b0281835-9723-4509-ae81-eaa1f1eb11df","ios":"levelo://app?vid=b0281835-9723-4509-ae81-eaa1f1eb11df"},"vehicle_type_id":"4","last_reported":1748576217,"current_range_meters":9600,"station_id":"ce4bh012rcd13ifvqcv0","pricing_plan_id":"cebpf4jnsgd1na2vs0mg"},{"bike_id":"4e7bcabf-c7a4-43af-a904-ac016c8b8082","system_id":"levelo_inurba_marseille","lat":43.28458,"lon":5.3589,"is_reserved":false,"is_disabled":false,"rental_uris":{"android":"levelo://app?vid=4e7bcabf-c7a4-43af-a904-ac016c8b8082","ios":"levelo://app?vid=4e7bcabf-c7a4-43af-a904-ac016c8b8082"},"vehicle_type_id":"4","last_reported":1748576217,"current_range_meters":9600,"station_id":"ce4bhah2rcd13ifvqei0","pricing_plan_id":"cebpf4jnsgd1na2vs0mg"},{"bike_id":"00f77637-c960-45d0-b516-a2f6a0285858","system_id":"levelo_inurba_marseille","lat":43.297347,"lon":5.385447,"is_reserved":false,"is_disabled":false,"rental_uris":{"android":"levelo://app?vid=00f77637-c960-45d0-b516-a2f6a0285858","ios":"levelo://app?vid=00f77637-c960-45d0-b516-a2f6a0285858"},"vehicle_type_id":"4","last_reported":1748576217,"current_range_meters":9600,"station_id":"","pricing_plan_id":"cebpf4jnsgd1na2vs0mg"},{"bike_id":"64864384-5888-49d8-b447-ac40385fe3be","system_id":"levelo_inurba_marseille","lat":43.310814,"lon":5.424337,"is_reserved":false,"is_disabled":false,"rental_uris":{"android":"levelo://app?vid=64864384-5888-49d8-b447-ac40385fe3be","ios":"levelo://app?vid=64864384-5888-49d8-b447-ac40385fe3be"},"vehicle_type_id":"4","last_reported":1748576217,"current_range_meters":9600,"station_id":"ce4bhp92rcd13ifvqhag","pricing_plan_id":"cebpf4jnsgd1na2vs0mg"},{"bike_id":"2e1f9dd1-9cf3-4ecd-933e-eb0930ee47df","system_id":"levelo_inurba_marseille","lat":43.308846,"lon":5.3964,"is_reserved":false,"is_disabled":false,"rental_uris":{"android":"levelo://app?vid=2e1f9dd1-9cf3-4ecd-933e-eb0930ee47df","ios":"levelo://app?vid=2e1f9dd1-9cf3-4ecd-933e-eb0930ee47df"},"vehicle_type_id":"4","last_reported":1748576217,"current_range_meters":9600,"station_id":"ce4bh012rcd13ifvqcv0","pricing_plan_id":"cebpf4jnsgd1na2vs0mg"},{"bike_id":"b0f67d6d-3250-42ef-8f19-4e74e6760f9a","system_id":"levelo_inurba_marseille","lat":43.344019,"lon":5.381337,"is_reserved":false,"is_disabled":false,"rental_uris":{"android":"levelo://app?vid=b0f67d6d-3250-42ef-8f19-4e74e6760f9a","ios":"levelo://app?vid=b0f67d6d-3250-42ef-8f19-4e74e6760f9a"},"vehicle_type_id":"4","last_reported":1748576217,"current_range_meters":9600,"station_id":"","pricing_plan_id":"cebpf4jnsgd1na2vs0mg"},{"bike_id":"686ed4f1-6951-4fef-8cd5-5f765f30a155","system_id":"levelo_inurba_marseille","lat":43.27965,"lon":5.38711,"is_reserved":false,"is_disabled":false,"rental_uris":{"android":"levelo://app?vid=686ed4f1-6951-4fef-8cd5-5f765f30a155","ios":"levelo://app?vid=686ed4f1-6951-4fef-8cd5-5f765f30a155"},"vehicle_type_id":"4","last_reported":1748576217,"current_range_meters":9600,"station_id":"ce4bhg12rcd13ifvqf80","pricing_plan_id":"cebpf4jnsgd1na2vs0mg"},{"bike_id":"572f964a-6e64-4c5e-b089-ce909a800028","system_id":"levelo_inurba_marseille","lat":43.292779,"lon":5.401506,"is_reserved":false,"is_disabled":false,"rental_uris":{"android":"levelo://app?vid=572f964a-6e64-4c5e-b089-ce909a800028","ios":"levelo://app?vid=572f964a-6e64-4c5e-b089-ce909a800028"},"vehicle_type_id":"4","last_reported":1748576217,"current_range_meters":9600,"station_id":"ce4bh312rcd13ifvqdk0","pricing_plan_id":"cebpf4jnsgd1na2vs0mg"},{"bike_id":"9645fd54-db8d-4cf3-9341-8f046247c936","system_id":"levelo_inurba_marseille","lat":43.26541,"lon":5.39005,"is_reserved":false,"is_disabled":false,"rental_uris":{"android":"levelo://app?vid=9645fd54-db8d-4cf3-9341-8f046247c936","ios":"levelo://app?vid=9645fd54-db8d-4cf3-9341-8f046247c936"},"vehicle_type_id":"4","last_reported":1748576217,"current_range_meters":9600,"station_id":"ce4bhe12rcd13ifvqf30","pricing_plan_id":"cebpf4jnsgd1na2vs0mg"},{"bike_id":"fd5e4507-6c10-403b-acb1-87b9af7e800b","system_id":"levelo_inurba_marseille","lat":43.25716,"lon":5.41108,"is_reserved":false,"is_disabled":false,"rental_uris":{"android":"levelo://app?vid=fd5e4507-6c10-403b-acb1-87b9af7e800b","ios":"levelo://app?vid=fd5e4507-6c10-403b-acb1-87b9af7e800b"},"vehicle_type_id":"4","last_reported":1748576217,"current_range_meters":10000,"station_id":"ce4bhkp2rcd13ifvqgd0","pricing_plan_id":"cebpf4jnsgd1na2vs0mg"},{"bike_id":"17b814b7-40e2-4c33-82bd-5dacb1bc07d4","system_id":"levelo_inurba_marseille","lat":43.3058,"lon":5.39348,"is_reserved":false,"is_disabled":false,"rental_uris":{"android":"levelo://app?vid=17b814b7-40e2-4c33-82bd-5dacb1bc07d4","ios":"levelo://app?vid=17b814b7-40e2-4c33-82bd-5dacb1bc07d4"},"vehicle_type_id":"4","last_reported":1748576217,"current_range_meters":10000,"station_id":"ce4bh0p2rcd13ifvqd80","pricing_plan_id":"cebpf4jnsgd1na2vs0mg"},{"bike_id":"fd0636db-5b58-485b-9fb5-e4fa5a51db32","system_id":"levelo_inurba_marseille","lat":43.26483,"lon":5.39554,"is_reserved":false,"is_disabled":false,"rental_uris":{"android":"levelo://app?vid=fd0636db-5b58-485b-9fb5-e4fa5a51db32","ios":"levelo://app?vid=fd0636db-5b58-485b-9fb5-e4fa5a51db32"},"vehicle_type_id":"4","last_reported":1748576217,"current_range_meters":10000,"station_id":"ce4bhi12rcd13ifvqfq0","pricing_plan_id":"cebpf4jnsgd1na2vs0mg"},{"bike_id":"5f665ca6-63b2-4271-b021-2df8e6053e3e","system_id":"levelo_inurba_marseille","lat":43.30795,"lon":5.38174,"is_reserved":false,"is_disabled":false,"rental_uris":{"android":"levelo://app?vid=5f665ca6-63b2-4271-b021-2df8e6053e3e","ios":"levelo://app?vid=5f665ca6-63b2-4271-b021-2df8e6053e3e"},"vehicle_type_id":"4","last_reported":1748576217,"current_range_meters":10000,"station_id":"ce4bgt12rcd13ifvqce0","pricing_plan_id":"cebpf4jnsgd1na2vs0mg"},{"bike_id":"73347e41-dc3a-4a81-a49d-8afd60abbf88","system_id":"levelo_inurba_marseille","lat":43.251078,"lon":5.403282,"is_reserved":false,"is_disabled":false,"rental_uris":{"android":"levelo://app?vid=73347e41-dc3a-4a81-a49d-8afd60abbf88","ios":"levelo://app?vid=73347e41-dc3a-4a81-a49d-8afd60abbf88"},"vehicle_type_id":"4","last_reported":1748576217,"current_range_meters":10000,"station_id":"ce4bhlh2rcd13ifvqgig","pricing_plan_id":"cebpf4jnsgd1na2vs0mg"},{"bike_id":"f8ec9d78-7e62-4248-a76e-af09b5d3a770","system_id":"levelo_inurba_marseille","lat":43.29235,"lon":5.40913,"is_reserved":false,"is_disabled":false,"rental_uris":{"android":"levelo://app?vid=f8ec9d78-7e62-4248-a76e-af09b5d3a770","ios":"levelo://app?vid=f8ec9d78-7e62-4248-a76e-af09b5d3a770"},"vehicle_type_id":"4","last_reported":1748576217,"current_range_meters":10000,"station_id":"ce4bh192rcd13ifvqdc0","pricing_plan_id":"cebpf4jnsgd1na2vs0mg"},{"bike_id":"488a1823-d4ed-4b72-b4ba-ba3135c4f938","system_id":"levelo_inurba_marseille","lat":43.31326,"lon":5.39701,"is_reserved":false,"is_disabled":false,"rental_uris":{"android":"levelo://app?vid=488a1823-d4ed-4b72-b4ba-ba3135c4f938","ios":"levelo://app?vid=488a1823-d4ed-4b72-b4ba-ba3135c4f938"},"vehicle_type_id":"4","last_reported":1748576217,"current_range_meters":10000,"station_id":"ce4bgvp2rcd13ifvqcu0","pricing_plan_id":"cebpf4jnsgd1na2vs0mg"},{"bike_id":"d2efc7ef-e8cf-48f9-9e09-ac995bd4b4ef","system_id":"levelo_inurba_marseille","lat":43.28456,"lon":5.38472,"is_reserved":false,"is_disabled":false,"rental_uris":{"android":"levelo://app?vid=d2efc7ef-e8cf-48f9-9e09-ac995bd4b4ef","ios":"levelo://app?vid=d2efc7ef-e8cf-48f9-9e09-ac995bd4b4ef"},"vehicle_type_id":"4","last_reported":1748576217,"current_range_meters":10000,"station_id":"","pricing_plan_id":"cebpf4jnsgd1na2vs0mg"},{"bike_id":"c666405f-462c-40b6-aad2-05c3e84c9054","system_id":"levelo_inurba_marseille","lat":43.241683,"lon":5.364073,"is_reserved":false,"is_disabled":false,"rental_uris":{"android":"levelo://app?vid=c666405f-462c-40b6-aad2-05c3e84c9054","ios":"levelo://app?vid=c666405f-462c-40b6-aad2-05c3e84c9054"},"vehicle_type_id":"4","last_reported":1748576217,"current_range_meters":10000,"station_id":"cpo36qri1sfpv3e86is0","pricing_plan_id":"cebpf4jnsgd1na2vs0mg"},{"bike_id":"8f77d28f-93fa-4e8f-9e42-7200f9b84966","system_id":"levelo_inurba_marseille","lat":43.30652,"lon":5.40088,"is_reserved":false,"is_disabled":false,"rental_uris":{"android":"levelo://app?vid=8f77d28f-93fa-4e8f-9e42-7200f9b84966","ios":"levelo://app?vid=8f77d28f-93fa-4e8f-9e42-7200f9b84966"},"vehicle_type_id":"4","last_reported":1748576217,"current_range_meters":10000,"station_id":"ce4bh112rcd13ifvqda0","pricing_plan_id":"cebpf4jnsgd1na2vs0mg"},{"bike_id":"a426f99b-d34a-41bf-bbda-59f7dfd6939b","system_id":"levelo_inurba_marseille","lat":43.255796,"lon":5.382262,"is_reserved":false,"is_disabled":false,"rental_uris":{"android":"levelo://app?vid=a426f99b-d34a-41bf-bbda-59f7dfd6939b","ios":"levelo://app?vid=a426f99b-d34a-41bf-bbda-59f7dfd6939b"},"vehicle_type_id":"4","last_reported":1748576217,"current_range_meters":10800,"station_id":"ce501612rcd8frsf0b60","pricing_plan_id":"cebpf4jnsgd1na2vs0mg"},{"bike_id":"f5733814-9732-4748-bcc9-3b2fac8e1564","system_id":"levelo_inurba_marseille","lat":43.31256,"lon":5.37829,"is_reserved":false,"is_disabled":false,"rental_uris":{"android":"levelo://app?vid=f5733814-9732-4748-bcc9-3b2fac8e1564","ios":"levelo://app?vid=f5733814-9732-4748-bcc9-3b2fac8e1564"},"vehicle_type_id":"4","last_reported":1748576217,"current_range_meters":10800,"station_id":"","pricing_plan_id":"cebpf4jnsgd1na2vs0mg"},{"bike_id":"9106b7cd-70ae-456d-906e-062a4ff9165b","system_id":"levelo_inurba_marseille","lat":43.330188,"lon":5.394529,"is_reserved":false,"is_disabled":false,"rental_uris":{"android":"levelo://app?vid=9106b7cd-70ae-456d-906e-062a4ff9165b","ios":"levelo://app?vid=9106b7cd-70ae-456d-906e-062a4ff9165b"},"vehicle_type_id":"4","last_reported":1748576217,"current_range_meters":10800,"station_id":"","pricing_plan_id":"cebpf4jnsgd1na2vs0mg"},{"bike_id":"5c8310d7-7597-468d-8258-9640cba23bf9","system_id":"levelo_inurba_marseille","lat":43.284771,"lon":5.384329,"is_reserved":false,"is_disabled":true,"rental_uris":{"android":"levelo://app?vid=5c8310d7-7597-468d-8258-9640cba23bf9","ios":"levelo://app?vid=5c8310d7-7597-468d-8258-9640cba23bf9"},"vehicle_type_id":"4","last_reported":1748576217,"current_range_meters":10800,"station_id":"ce4bh512rcd13ifvqe3g","pricing_plan_id":"cebpf4jnsgd1na2vs0mg"},{"bike_id":"cd438c88-7f17-4c01-b238-d05b58df7798","system_id":"levelo_inurba_marseille","lat":43.279669,"lon":5.387367,"is_reserved":false,"is_disabled":false,"rental_uris":{"android":"levelo://app?vid=cd438c88-7f17-4c01-b238-d05b58df7798","ios":"levelo://app?vid=cd438c88-7f17-4c01-b238-d05b58df7798"},"vehicle_type_id":"4","last_reported":1748576217,"current_range_meters":10800,"station_id":"ce4bhg12rcd13ifvqf80","pricing_plan_id":"cebpf4jnsgd1na2vs0mg"},{"bike_id":"f8d26ebd-9168-41c8-9f49-36e1a1965f63","system_id":"levelo_inurba_marseille","lat":43.298955,"lon":5.436736,"is_reserved":false,"is_disabled":false,"rental_uris":{"android":"levelo://app?vid=f8d26ebd-9168-41c8-9f49-36e1a1965f63","ios":"levelo://app?vid=f8d26ebd-9168-41c8-9f49-36e1a1965f63"},"vehicle_type_id":"4","last_reported":1748576217,"current_range_meters":10800,"station_id":"ce4bhpp2rcd13ifvqhfg","pricing_plan_id":"cebpf4jnsgd1na2vs0mg"},{"bike_id":"81dedcf5-3b05-43e1-add4-e5585c2ab925","system_id":"levelo_inurba_marseille","lat":43.248015,"lon":5.374654,"is_reserved":false,"is_disabled":true,"rental_uris":{"android":"levelo://app?vid=81dedcf5-3b05-43e1-add4-e5585c2ab925","ios":"levelo://app?vid=81dedcf5-3b05-43e1-add4-e5585c2ab925"},"vehicle_type_id":"4","last_reported":1748576217,"current_range_meters":10800,"station_id":"ce4bhgh2rcd13ifvqfb0","pricing_plan_id":"cebpf4jnsgd1na2vs0mg"},{"bike_id":"c3708d46-6d3f-473e-a7dd-aaed7b1ccfcb","system_id":"levelo_inurba_marseille","lat":43.280993,"lon":5.378426,"is_reserved":false,"is_disabled":false,"rental_uris":{"android":"levelo://app?vid=c3708d46-6d3f-473e-a7dd-aaed7b1ccfcb","ios":"levelo://app?vid=c3708d46-6d3f-473e-a7dd-aaed7b1ccfcb"},"vehicle_type_id":"4","last_reported":1748576217,"current_range_meters":10800,"station_id":"ce4bha12rcd13ifvqee0","pricing_plan_id":"cebpf4jnsgd1na2vs0mg"},{"bike_id":"9656913e-5d0a-47f7-b654-a4bd8d02350a","system_id":"levelo_inurba_marseille","lat":43.292835,"lon":5.401231,"is_reserved":false,"is_disabled":false,"rental_uris":{"android":"levelo://app?vid=9656913e-5d0a-47f7-b654-a4bd8d02350a","ios":"levelo://app?vid=9656913e-5d0a-47f7-b654-a4bd8d02350a"},"vehicle_type_id":"4","last_reported":1748576217,"current_range_meters":10800,"station_id":"ce4bh312rcd13ifvqdk0","pricing_plan_id":"cebpf4jnsgd1na2vs0mg"},{"bike_id":"3aca9d89-7c6e-4143-a32d-6ac070d7f9ea","system_id":"levelo_inurba_marseille","lat":43.30243,"lon":5.40042,"is_reserved":false,"is_disabled":false,"rental_uris":{"android":"levelo://app?vid=3aca9d89-7c6e-4143-a32d-6ac070d7f9ea","ios":"levelo://app?vid=3aca9d89-7c6e-4143-a32d-6ac070d7f9ea"},"vehicle_type_id":"4","last_reported":1748576217,"current_range_meters":10800,"station_id":"ce4bgvh2rcd13ifvqcs0","pricing_plan_id":"cebpf4jnsgd1na2vs0mg"},{"bike_id":"cc36bf8e-c4fd-4edb-8e2f-f3e1fdb01728","system_id":"levelo_inurba_marseille","lat":43.31169,"lon":5.40753,"is_reserved":false,"is_disabled":false,"rental_uris":{"android":"levelo://app?vid=cc36bf8e-c4fd-4edb-8e2f-f3e1fdb01728","ios":"levelo://app?vid=cc36bf8e-c4fd-4edb-8e2f-f3e1fdb01728"},"vehicle_type_id":"4","last_reported":1748576217,"current_range_meters":11200,"station_id":"","pricing_plan_id":"cebpf4jnsgd1na2vs0mg"},{"bike_id":"92f680ec-a41c-453b-b4c9-7372c97b1017","system_id":"levelo_inurba_marseille","lat":43.310805,"lon":5.424319,"is_reserved":false,"is_disabled":false,"rental_uris":{"android":"levelo://app?vid=92f680ec-a41c-453b-b4c9-7372c97b1017","ios":"levelo://app?vid=92f680ec-a41c-453b-b4c9-7372c97b1017"},"vehicle_type_id":"4","last_reported":1748576217,"current_range_meters":11200,"station_id":"ce4bhp92rcd13ifvqhag","pricing_plan_id":"cebpf4jnsgd1na2vs0mg"},{"bike_id":"dddeb80d-3057-46be-833d-4a0c2415e343","system_id":"levelo_inurba_marseille","lat":43.319963,"lon":5.381386,"is_reserved":false,"is_disabled":false,"rental_uris":{"android":"levelo://app?vid=dddeb80d-3057-46be-833d-4a0c2415e343","ios":"levelo://app?vid=dddeb80d-3057-46be-833d-4a0c2415e343"},"vehicle_type_id":"4","last_reported":1748576217,"current_range_meters":11200,"station_id":"ce4bhr12rcd13ifvqhpg","pricing_plan_id":"cebpf4jnsgd1na2vs0mg"},{"bike_id":"9a2b612c-527d-44fe-b45e-6d3c52d64fdc","system_id":"levelo_inurba_marseille","lat":43.283413,"lon":5.381053,"is_reserved":false,"is_disabled":false,"rental_uris":{"android":"levelo://app?vid=9a2b612c-527d-44fe-b45e-6d3c52d64fdc","ios":"levelo://app?vid=9a2b612c-527d-44fe-b45e-6d3c52d64fdc"},"vehicle_type_id":"4","last_reported":1748576217,"current_range_meters":11200,"station_id":"ce4bh412rcd13ifvqdr0","pricing_plan_id":"cebpf4jnsgd1na2vs0mg"},{"bike_id":"a0733277-9572-4c49-b86b-a255c71a8787","system_id":"levelo_inurba_marseille","lat":43.27232,"lon":5.40971,"is_reserved":false,"is_disabled":false,"rental_uris":{"android":"levelo://app?vid=a0733277-9572-4c49-b86b-a255c71a8787","ios":"levelo://app?vid=a0733277-9572-4c49-b86b-a255c71a8787"},"vehicle_type_id":"4","last_reported":1748576217,"current_range_meters":11200,"station_id":"ce4bhl12rcd13ifvqgf0","pricing_plan_id":"cebpf4jnsgd1na2vs0mg"},{"bike_id":"1be21534-ca7b-4f38-8bff-a7515afc85f6","system_id":"levelo_inurba_marseille","lat":43.248097,"lon":5.374611,"is_reserved":false,"is_disabled":false,"rental_uris":{"android":"levelo://app?vid=1be21534-ca7b-4f38-8bff-a7515afc85f6","ios":"levelo://app?vid=1be21534-ca7b-4f38-8bff-a7515afc85f6"},"vehicle_type_id":"4","last_reported":1748576217,"current_range_meters":11200,"station_id":"ce4bhgh2rcd13ifvqfb0","pricing_plan_id":"cebpf4jnsgd1na2vs0mg"},{"bike_id":"f33ccc5f-3a44-40ad-8216-30018004066d","system_id":"levelo_inurba_marseille","lat":43.30763,"lon":5.37664,"is_reserved":false,"is_disabled":false,"rental_uris":{"android":"levelo://app?vid=f33ccc5f-3a44-40ad-8216-30018004066d","ios":"levelo://app?vid=f33ccc5f-3a44-40ad-8216-30018004066d"},"vehicle_type_id":"4","last_reported":1748576217,"current_range_meters":11200,"station_id":"ce4bgv92rcd13ifvqcq0","pricing_plan_id":"cebpf4jnsgd1na2vs0mg"},{"bike_id":"72248e32-616d-4c01-8c01-acbec0f57485","system_id":"levelo_inurba_marseille","lat":43.310824,"lon":5.424347,"is_reserved":false,"is_disabled":false,"rental_uris":{"android":"levelo://app?vid=72248e32-616d-4c01-8c01-acbec0f57485","ios":"levelo://app?vid=72248e32-616d-4c01-8c01-acbec0f57485"},"vehicle_type_id":"4","last_reported":1748576217,"current_range_meters":11600,"station_id":"ce4bhp92rcd13ifvqhag","pricing_plan_id":"cebpf4jnsgd1na2vs0mg"},{"bike_id":"0dc000bd-368c-4c59-a0e5-9ddd5a5b10f3","system_id":"levelo_inurba_marseille","lat":43.323435,"lon":5.406014,"is_reserved":false,"is_disabled":true,"rental_uris":{"android":"levelo://app?vid=0dc000bd-368c-4c59-a0e5-9ddd5a5b10f3","ios":"levelo://app?vid=0dc000bd-368c-4c59-a0e5-9ddd5a5b10f3"},"vehicle_type_id":"4","last_reported":1748576217,"current_range_meters":11600,"station_id":"ce4bhq92rcd13ifvqhjg","pricing_plan_id":"cebpf4jnsgd1na2vs0mg"},{"bike_id":"25f58006-0670-4b9b-9a5d-81321b2ee4c3","system_id":"levelo_inurba_marseille","lat":43.286997,"lon":5.39991,"is_reserved":false,"is_disabled":false,"rental_uris":{"android":"levelo://app?vid=25f58006-0670-4b9b-9a5d-81321b2ee4c3","ios":"levelo://app?vid=25f58006-0670-4b9b-9a5d-81321b2ee4c3"},"vehicle_type_id":"4","last_reported":1748576217,"current_range_meters":11600,"station_id":"ce4bho92rcd13ifvqh3g","pricing_plan_id":"cebpf4jnsgd1na2vs0mg"},{"bike_id":"e044c9db-ce02-4ecf-bf86-8eaa46f9c414","system_id":"levelo_inurba_marseille","lat":43.25699,"lon":5.39188,"is_reserved":false,"is_disabled":false,"rental_uris":{"android":"levelo://app?vid=e044c9db-ce02-4ecf-bf86-8eaa46f9c414","ios":"levelo://app?vid=e044c9db-ce02-4ecf-bf86-8eaa46f9c414"},"vehicle_type_id":"4","last_reported":1748576217,"current_range_meters":11600,"station_id":"","pricing_plan_id":"cebpf4jnsgd1na2vs0mg"},{"bike_id":"a4b76fe5-7bf0-4f86-b675-67301c06e06d","system_id":"levelo_inurba_marseille","lat":43.250028,"lon":5.389244,"is_reserved":false,"is_disabled":false,"rental_uris":{"android":"levelo://app?vid=a4b76fe5-7bf0-4f86-b675-67301c06e06d","ios":"levelo://app?vid=a4b76fe5-7bf0-4f86-b675-67301c06e06d"},"vehicle_type_id":"4","last_reported":1748576217,"current_range_meters":11600,"station_id":"ce4bhgp2rcd13ifvqfd0","pricing_plan_id":"cebpf4jnsgd1na2vs0mg"},{"bike_id":"6530242f-b0b0-4481-a762-bfc24a4d29eb","system_id":"levelo_inurba_marseille","lat":43.24668,"lon":5.38161,"is_reserved":false,"is_disabled":false,"rental_uris":{"android":"levelo://app?vid=6530242f-b0b0-4481-a762-bfc24a4d29eb","ios":"levelo://app?vid=6530242f-b0b0-4481-a762-bfc24a4d29eb"},"vehicle_type_id":"4","last_reported":1748576217,"current_range_meters":11600,"station_id":"ce4bhih2rcd13ifvqfr0","pricing_plan_id":"cebpf4jnsgd1na2vs0mg"},{"bike_id":"ccc732c7-811b-474b-ac0d-78eb7f3eba2f","system_id":"levelo_inurba_marseille","lat":43.296169,"lon":5.371534,"is_reserved":false,"is_disabled":false,"rental_uris":{"android":"levelo://app?vid=ccc732c7-811b-474b-ac0d-78eb7f3eba2f","ios":"levelo://app?vid=ccc732c7-811b-474b-ac0d-78eb7f3eba2f"},"vehicle_type_id":"4","last_reported":1748576217,"current_range_meters":11600,"station_id":"ce4bgnh2rcd13ifvqc0g","pricing_plan_id":"cebpf4jnsgd1na2vs0mg"},{"bike_id":"b1070e7a-8a40-475b-91ea-d34046de595b","system_id":"levelo_inurba_marseille","lat":43.27978,"lon":5.38767,"is_reserved":false,"is_disabled":false,"rental_uris":{"android":"levelo://app?vid=b1070e7a-8a40-475b-91ea-d34046de595b","ios":"levelo://app?vid=b1070e7a-8a40-475b-91ea-d34046de595b"},"vehicle_type_id":"4","last_reported":1748576217,"current_range_meters":11600,"station_id":"ce4bhg12rcd13ifvqf80","pricing_plan_id":"cebpf4jnsgd1na2vs0mg"},{"bike_id":"2a43368a-2db6-4afc-9126-3948147d9953","system_id":"levelo_inurba_marseille","lat":43.24037,"lon":5.37752,"is_reserved":false,"is_disabled":false,"rental_uris":{"android":"levelo://app?vid=2a43368a-2db6-4afc-9126-3948147d9953","ios":"levelo://app?vid=2a43368a-2db6-4afc-9126-3948147d9953"},"vehicle_type_id":"4","last_reported":1748576217,"current_range_meters":11600,"station_id":"ce4bhnp2rcd13ifvqgvg","pricing_plan_id":"cebpf4jnsgd1na2vs0mg"},{"bike_id":"a92fac90-321e-4229-a544-a89e9b62c0c4","system_id":"levelo_inurba_marseille","lat":43.27825,"lon":5.3922,"is_reserved":false,"is_disabled":false,"rental_uris":{"android":"levelo://app?vid=a92fac90-321e-4229-a544-a89e9b62c0c4","ios":"levelo://app?vid=a92fac90-321e-4229-a544-a89e9b62c0c4"},"vehicle_type_id":"4","last_reported":1748576217,"current_range_meters":11600,"station_id":"ce4bhjp2rcd13ifvqga0","pricing_plan_id":"cebpf4jnsgd1na2vs0mg"},{"bike_id":"e9cda520-c6f4-465d-ad7f-8c059b3dc45a","system_id":"levelo_inurba_marseille","lat":43.313967,"lon":5.383993,"is_reserved":false,"is_disabled":false,"rental_uris":{"android":"levelo://app?vid=e9cda520-c6f4-465d-ad7f-8c059b3dc45a","ios":"levelo://app?vid=e9cda520-c6f4-465d-ad7f-8c059b3dc45a"},"vehicle_type_id":"4","last_reported":1748576217,"current_range_meters":11600,"station_id":"","pricing_plan_id":"cebpf4jnsgd1na2vs0mg"},{"bike_id":"d7f1c75d-958d-4305-a2f7-b70acbe0c642","system_id":"levelo_inurba_marseille","lat":43.30923,"lon":5.40155,"is_reserved":false,"is_disabled":false,"rental_uris":{"android":"levelo://app?vid=d7f1c75d-958d-4305-a2f7-b70acbe0c642","ios":"levelo://app?vid=d7f1c75d-958d-4305-a2f7-b70acbe0c642"},"vehicle_type_id":"4","last_reported":1748576217,"current_range_meters":11600,"station_id":"ce4bgvp2rcd13ifvqct0","pricing_plan_id":"cebpf4jnsgd1na2vs0mg"},{"bike_id":"3ce395fd-7389-4f2f-9662-733b290a489c","system_id":"levelo_inurba_marseille","lat":43.30395,"lon":5.42461,"is_reserved":false,"is_disabled":true,"rental_uris":{"android":"levelo://app?vid=3ce395fd-7389-4f2f-9662-733b290a489c","ios":"levelo://app?vid=3ce395fd-7389-4f2f-9662-733b290a489c"},"vehicle_type_id":"4","last_reported":1748576217,"current_range_meters":11600,"station_id":"ce4bhoh2rcd13ifvqh6g","pricing_plan_id":"cebpf4jnsgd1na2vs0mg"},{"bike_id":"0d021fa5-f24c-4d64-a714-3c7445f5e8d8","system_id":"levelo_inurba_marseille","lat":43.283464,"lon":5.381014,"is_reserved":false,"is_disabled":false,"rental_uris":{"android":"levelo://app?vid=0d021fa5-f24c-4d64-a714-3c7445f5e8d8","ios":"levelo://app?vid=0d021fa5-f24c-4d64-a714-3c7445f5e8d8"},"vehicle_type_id":"4","last_reported":1748576217,"current_range_meters":11600,"station_id":"ce4bh412rcd13ifvqdr0","pricing_plan_id":"cebpf4jnsgd1na2vs0mg"},{"bike_id":"bc814b90-a2ac-4742-9a61-3655db91e805","system_id":"levelo_inurba_marseille","lat":43.29248,"lon":5.40914,"is_reserved":false,"is_disabled":false,"rental_uris":{"android":"levelo://app?vid=bc814b90-a2ac-4742-9a61-3655db91e805","ios":"levelo://app?vid=bc814b90-a2ac-4742-9a61-3655db91e805"},"vehicle_type_id":"4","last_reported":1748576217,"current_range_meters":12000,"station_id":"ce4bh192rcd13ifvqdc0","pricing_plan_id":"cebpf4jnsgd1na2vs0mg"},{"bike_id":"c6db7724-9a49-416b-8d08-0ca0825c616e","system_id":"levelo_inurba_marseille","lat":43.30933,"lon":5.40148,"is_reserved":false,"is_disabled":false,"rental_uris":{"android":"levelo://app?vid=c6db7724-9a49-416b-8d08-0ca0825c616e","ios":"levelo://app?vid=c6db7724-9a49-416b-8d08-0ca0825c616e"},"vehicle_type_id":"4","last_reported":1748576217,"current_range_meters":12000,"station_id":"ce4bgvp2rcd13ifvqct0","pricing_plan_id":"cebpf4jnsgd1na2vs0mg"},{"bike_id":"c81bbe6e-138d-4fd7-ab74-b00b6263d429","system_id":"levelo_inurba_marseille","lat":43.282166,"lon":5.390484,"is_reserved":false,"is_disabled":false,"rental_uris":{"android":"levelo://app?vid=c81bbe6e-138d-4fd7-ab74-b00b6263d429","ios":"levelo://app?vid=c81bbe6e-138d-4fd7-ab74-b00b6263d429"},"vehicle_type_id":"4","last_reported":1748576217,"current_range_meters":12000,"station_id":"","pricing_plan_id":"cebpf4jnsgd1na2vs0mg"},{"bike_id":"e586cd86-8a84-464b-8fd5-c53eaf4494a1","system_id":"levelo_inurba_marseille","lat":43.30599,"lon":5.39386,"is_reserved":false,"is_disabled":false,"rental_uris":{"android":"levelo://app?vid=e586cd86-8a84-464b-8fd5-c53eaf4494a1","ios":"levelo://app?vid=e586cd86-8a84-464b-8fd5-c53eaf4494a1"},"vehicle_type_id":"4","last_reported":1748576217,"current_range_meters":12000,"station_id":"ce4bh0p2rcd13ifvqd80","pricing_plan_id":"cebpf4jnsgd1na2vs0mg"},{"bike_id":"01e35211-7a7d-498f-9b85-349277cc4988","system_id":"levelo_inurba_marseille","lat":43.292486,"lon":5.409166,"is_reserved":false,"is_disabled":false,"rental_uris":{"android":"levelo://app?vid=01e35211-7a7d-498f-9b85-349277cc4988","ios":"levelo://app?vid=01e35211-7a7d-498f-9b85-349277cc4988"},"vehicle_type_id":"4","last_reported":1748576217,"current_range_meters":12000,"station_id":"ce4bh192rcd13ifvqdc0","pricing_plan_id":"cebpf4jnsgd1na2vs0mg"},{"bike_id":"d3808c41-42ed-47ca-8ccc-30122ac22887","system_id":"levelo_inurba_marseille","lat":43.28347,"lon":5.381054,"is_reserved":false,"is_disabled":false,"rental_uris":{"android":"levelo://app?vid=d3808c41-42ed-47ca-8ccc-30122ac22887","ios":"levelo://app?vid=d3808c41-42ed-47ca-8ccc-30122ac22887"},"vehicle_type_id":"4","last_reported":1748576217,"current_range_meters":12000,"station_id":"ce4bh412rcd13ifvqdr0","pricing_plan_id":"cebpf4jnsgd1na2vs0mg"},{"bike_id":"eeaaba6b-0ce0-43ef-a3d9-c4275a8344eb","system_id":"levelo_inurba_marseille","lat":43.257263,"lon":5.411102,"is_reserved":false,"is_disabled":false,"rental_uris":{"android":"levelo://app?vid=eeaaba6b-0ce0-43ef-a3d9-c4275a8344eb","ios":"levelo://app?vid=eeaaba6b-0ce0-43ef-a3d9-c4275a8344eb"},"vehicle_type_id":"4","last_reported":1748576217,"current_range_meters":12000,"station_id":"ce4bhkp2rcd13ifvqgd0","pricing_plan_id":"cebpf4jnsgd1na2vs0mg"},{"bike_id":"3dd1b342-5d0a-4155-9da3-0dd9cd16e16e","system_id":"levelo_inurba_marseille","lat":43.22926,"lon":5.35398,"is_reserved":false,"is_disabled":true,"rental_uris":{"android":"levelo://app?vid=3dd1b342-5d0a-4155-9da3-0dd9cd16e16e","ios":"levelo://app?vid=3dd1b342-5d0a-4155-9da3-0dd9cd16e16e"},"vehicle_type_id":"4","last_reported":1748576217,"current_range_meters":12400,"station_id":"cpo3532slgdg3j2ikp40","pricing_plan_id":"cebpf4jnsgd1na2vs0mg"},{"bike_id":"f98ad87e-348c-454d-b280-94c48242787c","system_id":"levelo_inurba_marseille","lat":43.336048,"lon":5.410308,"is_reserved":false,"is_disabled":false,"rental_uris":{"android":"levelo://app?vid=f98ad87e-348c-454d-b280-94c48242787c","ios":"levelo://app?vid=f98ad87e-348c-454d-b280-94c48242787c"},"vehicle_type_id":"4","last_reported":1748576217,"current_range_meters":12400,"station_id":"ce4bhqh2rcd13ifvqhmg","pricing_plan_id":"cebpf4jnsgd1na2vs0mg"},{"bike_id":"61a789b9-188c-419e-a495-9d8bb5585016","system_id":"levelo_inurba_marseille","lat":43.27974,"lon":5.41643,"is_reserved":false,"is_disabled":false,"rental_uris":{"android":"levelo://app?vid=61a789b9-188c-419e-a495-9d8bb5585016","ios":"levelo://app?vid=61a789b9-188c-419e-a495-9d8bb5585016"},"vehicle_type_id":"4","last_reported":1748576217,"current_range_meters":12400,"station_id":"ce4bho12rcd13ifvqh1g","pricing_plan_id":"cebpf4jnsgd1na2vs0mg"},{"bike_id":"da279776-c099-4cdd-acd3-f802ffed4965","system_id":"levelo_inurba_marseille","lat":43.29544,"lon":5.42297,"is_reserved":false,"is_disabled":false,"rental_uris":{"android":"levelo://app?vid=da279776-c099-4cdd-acd3-f802ffed4965","ios":"levelo://app?vid=da279776-c099-4cdd-acd3-f802ffed4965"},"vehicle_type_id":"4","last_reported":1748576217,"current_range_meters":12400,"station_id":"ce4bhph2rcd13ifvqhdg","pricing_plan_id":"cebpf4jnsgd1na2vs0mg"},{"bike_id":"00779107-410c-4955-a69f-bca552dd6244","system_id":"levelo_inurba_marseille","lat":43.29273,"lon":5.40113,"is_reserved":false,"is_disabled":false,"rental_uris":{"android":"levelo://app?vid=00779107-410c-4955-a69f-bca552dd6244","ios":"levelo://app?vid=00779107-410c-4955-a69f-bca552dd6244"},"vehicle_type_id":"4","last_reported":1748576217,"current_range_meters":12400,"station_id":"ce4bh312rcd13ifvqdk0","pricing_plan_id":"cebpf4jnsgd1na2vs0mg"},{"bike_id":"67c97a15-858d-4a2b-bbf1-43f5921d26ae","system_id":"levelo_inurba_marseille","lat":43.28673,"lon":5.36353,"is_reserved":false,"is_disabled":false,"rental_uris":{"android":"levelo://app?vid=67c97a15-858d-4a2b-bbf1-43f5921d26ae","ios":"levelo://app?vid=67c97a15-858d-4a2b-bbf1-43f5921d26ae"},"vehicle_type_id":"4","last_reported":1748576217,"current_range_meters":12400,"station_id":"ce4bhah2rcd13ifvqej0","pricing_plan_id":"cebpf4jnsgd1na2vs0mg"},{"bike_id":"94d74484-c00f-4773-98b4-43f5ef9035c3","system_id":"levelo_inurba_marseille","lat":43.26226,"lon":5.404539,"is_reserved":false,"is_disabled":false,"rental_uris":{"android":"levelo://app?vid=94d74484-c00f-4773-98b4-43f5ef9035c3","ios":"levelo://app?vid=94d74484-c00f-4773-98b4-43f5ef9035c3"},"vehicle_type_id":"4","last_reported":1748576217,"current_range_meters":12800,"station_id":"ce4bhmh2rcd13ifvqgmg","pricing_plan_id":"cebpf4jnsgd1na2vs0mg"},{"bike_id":"3f133001-de67-4a16-ba1a-1751190238ae","system_id":"levelo_inurba_marseille","lat":43.284038,"lon":5.375184,"is_reserved":false,"is_disabled":true,"rental_uris":{"android":"levelo://app?vid=3f133001-de67-4a16-ba1a-1751190238ae","ios":"levelo://app?vid=3f133001-de67-4a16-ba1a-1751190238ae"},"vehicle_type_id":"4","last_reported":1748576217,"current_range_meters":12800,"station_id":"ce4bh412rcd13ifvqds0","pricing_plan_id":"cebpf4jnsgd1na2vs0mg"},{"bike_id":"ff392818-f13b-4ef0-b2ad-6e7155767c9d","system_id":"levelo_inurba_marseille","lat":43.337264,"lon":5.391847,"is_reserved":false,"is_disabled":false,"rental_uris":{"android":"levelo://app?vid=ff392818-f13b-4ef0-b2ad-6e7155767c9d","ios":"levelo://app?vid=ff392818-f13b-4ef0-b2ad-6e7155767c9d"},"vehicle_type_id":"4","last_reported":1748576217,"current_range_meters":12800,"station_id":"ce4bhr92rcd13ifvqhsg","pricing_plan_id":"cebpf4jnsgd1na2vs0mg"},{"bike_id":"990df701-79a7-41ec-b963-3693dc590a87","system_id":"levelo_inurba_marseille","lat":43.30175,"lon":5.37909,"is_reserved":false,"is_disabled":false,"rental_uris":{"android":"levelo://app?vid=990df701-79a7-41ec-b963-3693dc590a87","ios":"levelo://app?vid=990df701-79a7-41ec-b963-3693dc590a87"},"vehicle_type_id":"4","last_reported":1748576217,"current_range_meters":12800,"station_id":"","pricing_plan_id":"cebpf4jnsgd1na2vs0mg"},{"bike_id":"7d4ba91c-7a7a-4535-9018-7a0082a8e326","system_id":"levelo_inurba_marseille","lat":43.279541,"lon":5.410207,"is_reserved":false,"is_disabled":false,"rental_uris":{"android":"levelo://app?vid=7d4ba91c-7a7a-4535-9018-7a0082a8e326","ios":"levelo://app?vid=7d4ba91c-7a7a-4535-9018-7a0082a8e326"},"vehicle_type_id":"4","last_reported":1748576217,"current_range_meters":13600,"station_id":"ce4bhnp2rcd13ifvqh0g","pricing_plan_id":"cebpf4jnsgd1na2vs0mg"},{"bike_id":"e2da91e0-a1c8-45a3-b835-1e6640875e3e","system_id":"levelo_inurba_marseille","lat":43.299334,"lon":5.365344,"is_reserved":false,"is_disabled":false,"rental_uris":{"android":"levelo://app?vid=e2da91e0-a1c8-45a3-b835-1e6640875e3e","ios":"levelo://app?vid=e2da91e0-a1c8-45a3-b835-1e6640875e3e"},"vehicle_type_id":"4","last_reported":1748576217,"current_range_meters":13600,"station_id":"ce4bgm92rcd13ifvqbr0","pricing_plan_id":"cebpf4jnsgd1na2vs0mg"},{"bike_id":"d041ba9b-b157-420b-92de-857f860b4947","system_id":"levelo_inurba_marseille","lat":43.282179,"lon":5.390431,"is_reserved":false,"is_disabled":false,"rental_uris":{"android":"levelo://app?vid=d041ba9b-b157-420b-92de-857f860b4947","ios":"levelo://app?vid=d041ba9b-b157-420b-92de-857f860b4947"},"vehicle_type_id":"4","last_reported":1748576217,"current_range_meters":13600,"station_id":"","pricing_plan_id":"cebpf4jnsgd1na2vs0mg"},{"bike_id":"d56a258c-a2b4-476e-9bb5-e6170c1c69c3","system_id":"levelo_inurba_marseille","lat":43.30591,"lon":5.37202,"is_reserved":false,"is_disabled":false,"rental_uris":{"android":"levelo://app?vid=d56a258c-a2b4-476e-9bb5-e6170c1c69c3","ios":"levelo://app?vid=d56a258c-a2b4-476e-9bb5-e6170c1c69c3"},"vehicle_type_id":"4","last_reported":1748576217,"current_range_meters":13600,"station_id":"ce4bgqh2rcd13ifvqc4g","pricing_plan_id":"cebpf4jnsgd1na2vs0mg"},{"bike_id":"6d9461e9-afcf-430b-8179-bb7d54f00db5","system_id":"levelo_inurba_marseille","lat":43.31467,"lon":5.37295,"is_reserved":false,"is_disabled":false,"rental_uris":{"android":"levelo://app?vid=6d9461e9-afcf-430b-8179-bb7d54f00db5","ios":"levelo://app?vid=6d9461e9-afcf-430b-8179-bb7d54f00db5"},"vehicle_type_id":"4","last_reported":1748576217,"current_range_meters":13600,"station_id":"ce4bgt12rcd13ifvqcd0","pricing_plan_id":"cebpf4jnsgd1na2vs0mg"},{"bike_id":"966ecf47-dd35-463a-9d74-c4c350533e80","system_id":"levelo_inurba_marseille","lat":43.26219,"lon":5.404536,"is_reserved":false,"is_disabled":false,"rental_uris":{"android":"levelo://app?vid=966ecf47-dd35-463a-9d74-c4c350533e80","ios":"levelo://app?vid=966ecf47-dd35-463a-9d74-c4c350533e80"},"vehicle_type_id":"4","last_reported":1748576217,"current_range_meters":13600,"station_id":"ce4bhmh2rcd13ifvqgmg","pricing_plan_id":"cebpf4jnsgd1na2vs0mg"},{"bike_id":"1f48eed5-d17f-4a81-83f0-526a40b04d05","system_id":"levelo_inurba_marseille","lat":43.265669,"lon":5.390196,"is_reserved":false,"is_disabled":false,"rental_uris":{"android":"levelo://app?vid=1f48eed5-d17f-4a81-83f0-526a40b04d05","ios":"levelo://app?vid=1f48eed5-d17f-4a81-83f0-526a40b04d05"},"vehicle_type_id":"4","last_reported":1748576217,"current_range_meters":13600,"station_id":"ce4bhe12rcd13ifvqf30","pricing_plan_id":"cebpf4jnsgd1na2vs0mg"},{"bike_id":"c9b16b3f-d77e-4adf-8c10-65c6e295aa7d","system_id":"levelo_inurba_marseille","lat":43.279675,"lon":5.387207,"is_reserved":false,"is_disabled":false,"rental_uris":{"android":"levelo://app?vid=c9b16b3f-d77e-4adf-8c10-65c6e295aa7d","ios":"levelo://app?vid=c9b16b3f-d77e-4adf-8c10-65c6e295aa7d"},"vehicle_type_id":"4","last_reported":1748576217,"current_range_meters":14000,"station_id":"ce4bhg12rcd13ifvqf80","pricing_plan_id":"cebpf4jnsgd1na2vs0mg"},{"bike_id":"7243d7c8-02f5-4392-89cf-8c360e846d55","system_id":"levelo_inurba_marseille","lat":43.252736,"lon":5.378333,"is_reserved":false,"is_disabled":false,"rental_uris":{"android":"levelo://app?vid=7243d7c8-02f5-4392-89cf-8c360e846d55","ios":"levelo://app?vid=7243d7c8-02f5-4392-89cf-8c360e846d55"},"vehicle_type_id":"4","last_reported":1748576217,"current_range_meters":14000,"station_id":"","pricing_plan_id":"cebpf4jnsgd1na2vs0mg"},{"bike_id":"9258f519-c82c-4ad7-8052-a9d9f50de9e0","system_id":"levelo_inurba_marseille","lat":43.295188,"lon":5.394091,"is_reserved":false,"is_disabled":false,"rental_uris":{"android":"levelo://app?vid=9258f519-c82c-4ad7-8052-a9d9f50de9e0","ios":"levelo://app?vid=9258f519-c82c-4ad7-8052-a9d9f50de9e0"},"vehicle_type_id":"4","last_reported":1748576217,"current_range_meters":14000,"station_id":"ce4bh292rcd13ifvqdf0","pricing_plan_id":"cebpf4jnsgd1na2vs0mg"},{"bike_id":"cd85ece0-e2f3-4caa-bbf2-457082671004","system_id":"levelo_inurba_marseille","lat":43.24036,"lon":5.36779,"is_reserved":false,"is_disabled":true,"rental_uris":{"android":"levelo://app?vid=cd85ece0-e2f3-4caa-bbf2-457082671004","ios":"levelo://app?vid=cd85ece0-e2f3-4caa-bbf2-457082671004"},"vehicle_type_id":"4","last_reported":1748576217,"current_range_meters":14000,"station_id":"","pricing_plan_id":"cebpf4jnsgd1na2vs0mg"},{"bike_id":"e22389ce-d4fb-4700-9f41-b20a5b9cd3f2","system_id":"levelo_inurba_marseille","lat":43.2864,"lon":5.40021,"is_reserved":false,"is_disabled":false,"rental_uris":{"android":"levelo://app?vid=e22389ce-d4fb-4700-9f41-b20a5b9cd3f2","ios":"levelo://app?vid=e22389ce-d4fb-4700-9f41-b20a5b9cd3f2"},"vehicle_type_id":"4","last_reported":1748576217,"current_range_meters":14000,"station_id":"ce4bho92rcd13ifvqh3g","pricing_plan_id":"cebpf4jnsgd1na2vs0mg"},{"bike_id":"9ea654fd-9c6b-45ea-9771-15bf83e7f507","system_id":"levelo_inurba_marseille","lat":43.269368,"lon":5.402526,"is_reserved":false,"is_disabled":false,"rental_uris":{"android":"levelo://app?vid=9ea654fd-9c6b-45ea-9771-15bf83e7f507","ios":"levelo://app?vid=9ea654fd-9c6b-45ea-9771-15bf83e7f507"},"vehicle_type_id":"4","last_reported":1748576217,"current_range_meters":14000,"station_id":"cjm6bp8fraef2m0cb0m0","pricing_plan_id":"cebpf4jnsgd1na2vs0mg"},{"bike_id":"69362ca8-aad5-4f84-99b8-c7328973ac4f","system_id":"levelo_inurba_marseille","lat":43.231494,"lon":5.437276,"is_reserved":false,"is_disabled":false,"rental_uris":{"android":"levelo://app?vid=69362ca8-aad5-4f84-99b8-c7328973ac4f","ios":"levelo://app?vid=69362ca8-aad5-4f84-99b8-c7328973ac4f"},"vehicle_type_id":"4","last_reported":1748576217,"current_range_meters":14000,"station_id":"ce4bhmp2rcd13ifvqgog","pricing_plan_id":"cebpf4jnsgd1na2vs0mg"},{"bike_id":"0bdee142-1fda-4a23-9616-8b7744765971","system_id":"levelo_inurba_marseille","lat":43.24671,"lon":5.381656,"is_reserved":false,"is_disabled":false,"rental_uris":{"android":"levelo://app?vid=0bdee142-1fda-4a23-9616-8b7744765971","ios":"levelo://app?vid=0bdee142-1fda-4a23-9616-8b7744765971"},"vehicle_type_id":"4","last_reported":1748576217,"current_range_meters":14400,"station_id":"ce4bhih2rcd13ifvqfr0","pricing_plan_id":"cebpf4jnsgd1na2vs0mg"},{"bike_id":"e9c75eff-63de-4ef0-a634-1da4ed1cbb2f","system_id":"levelo_inurba_marseille","lat":43.310782,"lon":5.424287,"is_reserved":false,"is_disabled":true,"rental_uris":{"android":"levelo://app?vid=e9c75eff-63de-4ef0-a634-1da4ed1cbb2f","ios":"levelo://app?vid=e9c75eff-63de-4ef0-a634-1da4ed1cbb2f"},"vehicle_type_id":"4","last_reported":1748576217,"current_range_meters":14400,"station_id":"ce4bhp92rcd13ifvqhag","pricing_plan_id":"cebpf4jnsgd1na2vs0mg"},{"bike_id":"55ec6299-b4d1-47ca-b040-43c90bc9c9b4","system_id":"levelo_inurba_marseille","lat":43.326571,"lon":5.409987,"is_reserved":false,"is_disabled":false,"rental_uris":{"android":"levelo://app?vid=55ec6299-b4d1-47ca-b040-43c90bc9c9b4","ios":"levelo://app?vid=55ec6299-b4d1-47ca-b040-43c90bc9c9b4"},"vehicle_type_id":"4","last_reported":1748576217,"current_range_meters":14400,"station_id":"ce4bhpp2rcd13ifvqhgg","pricing_plan_id":"cebpf4jnsgd1na2vs0mg"},{"bike_id":"9afff74f-25c0-4cce-8476-3dd3e572dd8c","system_id":"levelo_inurba_marseille","lat":43.24068,"lon":5.37747,"is_reserved":false,"is_disabled":false,"rental_uris":{"android":"levelo://app?vid=9afff74f-25c0-4cce-8476-3dd3e572dd8c","ios":"levelo://app?vid=9afff74f-25c0-4cce-8476-3dd3e572dd8c"},"vehicle_type_id":"4","last_reported":1748576217,"current_range_meters":14400,"station_id":"ce4bhnp2rcd13ifvqgvg","pricing_plan_id":"cebpf4jnsgd1na2vs0mg"},{"bike_id":"2236b6c0-f763-40f5-8e40-14b379518f91","system_id":"levelo_inurba_marseille","lat":43.24605,"lon":5.39299,"is_reserved":false,"is_disabled":false,"rental_uris":{"android":"levelo://app?vid=2236b6c0-f763-40f5-8e40-14b379518f91","ios":"levelo://app?vid=2236b6c0-f763-40f5-8e40-14b379518f91"},"vehicle_type_id":"4","last_reported":1748576217,"current_range_meters":14400,"station_id":"","pricing_plan_id":"cebpf4jnsgd1na2vs0mg"},{"bike_id":"8a17b903-cbef-4ca1-985e-91f7861d3ad0","system_id":"levelo_inurba_marseille","lat":43.24145,"lon":5.36411,"is_reserved":false,"is_disabled":true,"rental_uris":{"android":"levelo://app?vid=8a17b903-cbef-4ca1-985e-91f7861d3ad0","ios":"levelo://app?vid=8a17b903-cbef-4ca1-985e-91f7861d3ad0"},"vehicle_type_id":"4","last_reported":1748576217,"current_range_meters":14800,"station_id":"cpo36qri1sfpv3e86is0","pricing_plan_id":"cebpf4jnsgd1na2vs0mg"},{"bike_id":"eef3edab-c7bc-4626-8a57-2353989bd7cc","system_id":"levelo_inurba_marseille","lat":43.24079,"lon":5.377544,"is_reserved":false,"is_disabled":false,"rental_uris":{"android":"levelo://app?vid=eef3edab-c7bc-4626-8a57-2353989bd7cc","ios":"levelo://app?vid=eef3edab-c7bc-4626-8a57-2353989bd7cc"},"vehicle_type_id":"4","last_reported":1748576217,"current_range_meters":14800,"station_id":"ce4bhnp2rcd13ifvqgvg","pricing_plan_id":"cebpf4jnsgd1na2vs0mg"},{"bike_id":"694acfcc-04e1-4ddf-9f64-b0ddb8feaccc","system_id":"levelo_inurba_marseille","lat":43.28106,"lon":5.3789,"is_reserved":false,"is_disabled":false,"rental_uris":{"android":"levelo://app?vid=694acfcc-04e1-4ddf-9f64-b0ddb8feaccc","ios":"levelo://app?vid=694acfcc-04e1-4ddf-9f64-b0ddb8feaccc"},"vehicle_type_id":"4","last_reported":1748576217,"current_range_meters":14800,"station_id":"ce4bha12rcd13ifvqee0","pricing_plan_id":"cebpf4jnsgd1na2vs0mg"},{"bike_id":"0fbfc8d7-51f2-48ba-bf46-e03726ce033d","system_id":"levelo_inurba_marseille","lat":43.24654,"lon":5.38153,"is_reserved":false,"is_disabled":false,"rental_uris":{"android":"levelo://app?vid=0fbfc8d7-51f2-48ba-bf46-e03726ce033d","ios":"levelo://app?vid=0fbfc8d7-51f2-48ba-bf46-e03726ce033d"},"vehicle_type_id":"4","last_reported":1748576217,"current_range_meters":14800,"station_id":"ce4bhih2rcd13ifvqfr0","pricing_plan_id":"cebpf4jnsgd1na2vs0mg"},{"bike_id":"7f20e79f-7534-48cb-872e-e8fc538f0a14","system_id":"levelo_inurba_marseille","lat":43.308824,"lon":5.396491,"is_reserved":false,"is_disabled":false,"rental_uris":{"android":"levelo://app?vid=7f20e79f-7534-48cb-872e-e8fc538f0a14","ios":"levelo://app?vid=7f20e79f-7534-48cb-872e-e8fc538f0a14"},"vehicle_type_id":"4","last_reported":1748576217,"current_range_meters":14800,"station_id":"ce4bh012rcd13ifvqcv0","pricing_plan_id":"cebpf4jnsgd1na2vs0mg"},{"bike_id":"ec99f384-d898-41dd-b58c-5d977d5ab448","system_id":"levelo_inurba_marseille","lat":43.274379,"lon":5.361437,"is_reserved":false,"is_disabled":false,"rental_uris":{"android":"levelo://app?vid=ec99f384-d898-41dd-b58c-5d977d5ab448","ios":"levelo://app?vid=ec99f384-d898-41dd-b58c-5d977d5ab448"},"vehicle_type_id":"4","last_reported":1748576217,"current_range_meters":14800,"station_id":"ce4bh692rcd13ifvqea0","pricing_plan_id":"cebpf4jnsgd1na2vs0mg"},{"bike_id":"750dca5e-0985-4141-af6e-6536febb610d","system_id":"levelo_inurba_marseille","lat":43.265539,"lon":5.372851,"is_reserved":false,"is_disabled":false,"rental_uris":{"android":"levelo://app?vid=750dca5e-0985-4141-af6e-6536febb610d","ios":"levelo://app?vid=750dca5e-0985-4141-af6e-6536febb610d"},"vehicle_type_id":"4","last_reported":1748576217,"current_range_meters":14800,"station_id":"ce4bhg12rcd13ifvqf70","pricing_plan_id":"cebpf4jnsgd1na2vs0mg"},{"bike_id":"a511d578-129f-44e0-a573-a31884933e6b","system_id":"levelo_inurba_marseille","lat":43.27506,"lon":5.40939,"is_reserved":false,"is_disabled":false,"rental_uris":{"android":"levelo://app?vid=a511d578-129f-44e0-a573-a31884933e6b","ios":"levelo://app?vid=a511d578-129f-44e0-a573-a31884933e6b"},"vehicle_type_id":"4","last_reported":1748576217,"current_range_meters":14800,"station_id":"","pricing_plan_id":"cebpf4jnsgd1na2vs0mg"},{"bike_id":"94fab7f0-906e-4ec7-95e9-0bc00b03b609","system_id":"levelo_inurba_marseille","lat":43.2508,"lon":5.39505,"is_reserved":false,"is_disabled":false,"rental_uris":{"android":"levelo://app?vid=94fab7f0-906e-4ec7-95e9-0bc00b03b609","ios":"levelo://app?vid=94fab7f0-906e-4ec7-95e9-0bc00b03b609"},"vehicle_type_id":"4","last_reported":1748576217,"current_range_meters":14800,"station_id":"ce4bhm12rcd13ifvqgkg","pricing_plan_id":"cebpf4jnsgd1na2vs0mg"},{"bike_id":"9fe1e697-36ec-421f-b0be-031c2f5ed7f3","system_id":"levelo_inurba_marseille","lat":43.337808,"lon":5.374283,"is_reserved":false,"is_disabled":false,"rental_uris":{"android":"levelo://app?vid=9fe1e697-36ec-421f-b0be-031c2f5ed7f3","ios":"levelo://app?vid=9fe1e697-36ec-421f-b0be-031c2f5ed7f3"},"vehicle_type_id":"4","last_reported":1748576217,"current_range_meters":15200,"station_id":"","pricing_plan_id":"cebpf4jnsgd1na2vs0mg"},{"bike_id":"feba793f-64b7-499b-881e-97c387064e0d","system_id":"levelo_inurba_marseille","lat":43.30935,"lon":5.4017,"is_reserved":false,"is_disabled":false,"rental_uris":{"android":"levelo://app?vid=feba793f-64b7-499b-881e-97c387064e0d","ios":"levelo://app?vid=feba793f-64b7-499b-881e-97c387064e0d"},"vehicle_type_id":"4","last_reported":1748576217,"current_range_meters":15200,"station_id":"ce4bgvp2rcd13ifvqct0","pricing_plan_id":"cebpf4jnsgd1na2vs0mg"},{"bike_id":"2be6f613-1d2e-4314-b7c8-a27f95203c5e","system_id":"levelo_inurba_marseille","lat":43.279767,"lon":5.387074,"is_reserved":false,"is_disabled":false,"rental_uris":{"android":"levelo://app?vid=2be6f613-1d2e-4314-b7c8-a27f95203c5e","ios":"levelo://app?vid=2be6f613-1d2e-4314-b7c8-a27f95203c5e"},"vehicle_type_id":"4","last_reported":1748576217,"current_range_meters":15200,"station_id":"ce4bhg12rcd13ifvqf80","pricing_plan_id":"cebpf4jnsgd1na2vs0mg"},{"bike_id":"503caf17-0eca-485d-a69a-e55496762ea8","system_id":"levelo_inurba_marseille","lat":43.28664,"lon":5.363552,"is_reserved":false,"is_disabled":false,"rental_uris":{"android":"levelo://app?vid=503caf17-0eca-485d-a69a-e55496762ea8","ios":"levelo://app?vid=503caf17-0eca-485d-a69a-e55496762ea8"},"vehicle_type_id":"4","last_reported":1748576217,"current_range_meters":15200,"station_id":"ce4bhah2rcd13ifvqej0","pricing_plan_id":"cebpf4jnsgd1na2vs0mg"},{"bike_id":"8fed41b2-9d6b-4474-8486-624fae52b6a2","system_id":"levelo_inurba_marseille","lat":43.27956,"lon":5.41041,"is_reserved":false,"is_disabled":false,"rental_uris":{"android":"levelo://app?vid=8fed41b2-9d6b-4474-8486-624fae52b6a2","ios":"levelo://app?vid=8fed41b2-9d6b-4474-8486-624fae52b6a2"},"vehicle_type_id":"4","last_reported":1748576217,"current_range_meters":15200,"station_id":"ce4bhnp2rcd13ifvqh0g","pricing_plan_id":"cebpf4jnsgd1na2vs0mg"},{"bike_id":"a93e8f33-1a30-4394-8592-00223c2f4180","system_id":"levelo_inurba_marseille","lat":43.284565,"lon":5.358868,"is_reserved":false,"is_disabled":false,"rental_uris":{"android":"levelo://app?vid=a93e8f33-1a30-4394-8592-00223c2f4180","ios":"levelo://app?vid=a93e8f33-1a30-4394-8592-00223c2f4180"},"vehicle_type_id":"4","last_reported":1748576217,"current_range_meters":16000,"station_id":"ce4bhah2rcd13ifvqei0","pricing_plan_id":"cebpf4jnsgd1na2vs0mg"},{"bike_id":"552b3da3-8b76-4245-8293-d2a790feaac9","system_id":"levelo_inurba_marseille","lat":43.29762,"lon":5.46041,"is_reserved":false,"is_disabled":false,"rental_uris":{"android":"levelo://app?vid=552b3da3-8b76-4245-8293-d2a790feaac9","ios":"levelo://app?vid=552b3da3-8b76-4245-8293-d2a790feaac9"},"vehicle_type_id":"4","last_reported":1748576217,"current_range_meters":16000,"station_id":"","pricing_plan_id":"cebpf4jnsgd1na2vs0mg"},{"bike_id":"c1549b1d-96a9-4df5-b0a9-df93a80102b8","system_id":"levelo_inurba_marseille","lat":43.336,"lon":5.40996,"is_reserved":false,"is_disabled":false,"rental_uris":{"android":"levelo://app?vid=c1549b1d-96a9-4df5-b0a9-df93a80102b8","ios":"levelo://app?vid=c1549b1d-96a9-4df5-b0a9-df93a80102b8"},"vehicle_type_id":"4","last_reported":1748576217,"current_range_meters":16000,"station_id":"ce4bhqh2rcd13ifvqhmg","pricing_plan_id":"cebpf4jnsgd1na2vs0mg"},{"bike_id":"e8df6e55-a561-4b7a-912e-d9ea01a18adc","system_id":"levelo_inurba_marseille","lat":43.29279,"lon":5.401301,"is_reserved":false,"is_disabled":false,"rental_uris":{"android":"levelo://app?vid=e8df6e55-a561-4b7a-912e-d9ea01a18adc","ios":"levelo://app?vid=e8df6e55-a561-4b7a-912e-d9ea01a18adc"},"vehicle_type_id":"4","last_reported":1748576217,"current_range_meters":16000,"station_id":"ce4bh312rcd13ifvqdk0","pricing_plan_id":"cebpf4jnsgd1na2vs0mg"},{"bike_id":"b18036e4-cdbb-441f-a4f1-99c9cdbece34","system_id":"levelo_inurba_marseille","lat":43.294944,"lon":5.39072,"is_reserved":false,"is_disabled":false,"rental_uris":{"android":"levelo://app?vid=b18036e4-cdbb-441f-a4f1-99c9cdbece34","ios":"levelo://app?vid=b18036e4-cdbb-441f-a4f1-99c9cdbece34"},"vehicle_type_id":"4","last_reported":1748576217,"current_range_meters":16000,"station_id":"ce4bh3p2rcd13ifvqdp0","pricing_plan_id":"cebpf4jnsgd1na2vs0mg"},{"bike_id":"7772ee7a-25f5-4bc7-a3bc-e28a5309d741","system_id":"levelo_inurba_marseille","lat":43.303756,"lon":5.424898,"is_reserved":false,"is_disabled":true,"rental_uris":{"android":"levelo://app?vid=7772ee7a-25f5-4bc7-a3bc-e28a5309d741","ios":"levelo://app?vid=7772ee7a-25f5-4bc7-a3bc-e28a5309d741"},"vehicle_type_id":"4","last_reported":1748576217,"current_range_meters":16000,"station_id":"ce4bhoh2rcd13ifvqh6g","pricing_plan_id":"cebpf4jnsgd1na2vs0mg"},{"bike_id":"9162a4d8-7561-4771-a6d5-6cc99ea0e7b6","system_id":"levelo_inurba_marseille","lat":43.282108,"lon":5.390687,"is_reserved":false,"is_disabled":false,"rental_uris":{"android":"levelo://app?vid=9162a4d8-7561-4771-a6d5-6cc99ea0e7b6","ios":"levelo://app?vid=9162a4d8-7561-4771-a6d5-6cc99ea0e7b6"},"vehicle_type_id":"4","last_reported":1748576217,"current_range_meters":16400,"station_id":"","pricing_plan_id":"cebpf4jnsgd1na2vs0mg"},{"bike_id":"e4862250-78de-4055-9c6f-c9062be06a69","system_id":"levelo_inurba_marseille","lat":43.27913,"lon":5.3959,"is_reserved":false,"is_disabled":false,"rental_uris":{"android":"levelo://app?vid=e4862250-78de-4055-9c6f-c9062be06a69","ios":"levelo://app?vid=e4862250-78de-4055-9c6f-c9062be06a69"},"vehicle_type_id":"4","last_reported":1748576217,"current_range_meters":16400,"station_id":"ce4bhf92rcd13ifvqf40","pricing_plan_id":"cebpf4jnsgd1na2vs0mg"},{"bike_id":"03c5fbb1-cc40-457d-980a-b551faec06e9","system_id":"levelo_inurba_marseille","lat":43.250844,"lon":5.395203,"is_reserved":false,"is_disabled":false,"rental_uris":{"android":"levelo://app?vid=03c5fbb1-cc40-457d-980a-b551faec06e9","ios":"levelo://app?vid=03c5fbb1-cc40-457d-980a-b551faec06e9"},"vehicle_type_id":"4","last_reported":1748576217,"current_range_meters":16400,"station_id":"ce4bhm12rcd13ifvqgkg","pricing_plan_id":"cebpf4jnsgd1na2vs0mg"},{"bike_id":"bf9ada33-fac3-4c6c-a22e-d3b48e785518","system_id":"levelo_inurba_marseille","lat":43.27991,"lon":5.40873,"is_reserved":false,"is_disabled":false,"rental_uris":{"android":"levelo://app?vid=bf9ada33-fac3-4c6c-a22e-d3b48e785518","ios":"levelo://app?vid=bf9ada33-fac3-4c6c-a22e-d3b48e785518"},"vehicle_type_id":"4","last_reported":1748576217,"current_range_meters":16400,"station_id":"","pricing_plan_id":"cebpf4jnsgd1na2vs0mg"},{"bike_id":"67a6560c-83dc-490e-9fc7-f17e3d931afd","system_id":"levelo_inurba_marseille","lat":43.24177,"lon":5.36413,"is_reserved":false,"is_disabled":false,"rental_uris":{"android":"levelo://app?vid=67a6560c-83dc-490e-9fc7-f17e3d931afd","ios":"levelo://app?vid=67a6560c-83dc-490e-9fc7-f17e3d931afd"},"vehicle_type_id":"4","last_reported":1748576217,"current_range_meters":16400,"station_id":"cpo36qri1sfpv3e86is0","pricing_plan_id":"cebpf4jnsgd1na2vs0mg"},{"bike_id":"35154d16-2798-425c-b1af-8089047c8931","system_id":"levelo_inurba_marseille","lat":43.2992,"lon":5.3653,"is_reserved":false,"is_disabled":false,"rental_uris":{"android":"levelo://app?vid=35154d16-2798-425c-b1af-8089047c8931","ios":"levelo://app?vid=35154d16-2798-425c-b1af-8089047c8931"},"vehicle_type_id":"4","last_reported":1748576217,"current_range_meters":16400,"station_id":"ce4bgm92rcd13ifvqbr0","pricing_plan_id":"cebpf4jnsgd1na2vs0mg"},{"bike_id":"4bec59e8-2431-4556-96ff-b114cfc59a4a","system_id":"levelo_inurba_marseille","lat":43.288484,"lon":5.393115,"is_reserved":false,"is_disabled":false,"rental_uris":{"android":"levelo://app?vid=4bec59e8-2431-4556-96ff-b114cfc59a4a","ios":"levelo://app?vid=4bec59e8-2431-4556-96ff-b114cfc59a4a"},"vehicle_type_id":"4","last_reported":1748576217,"current_range_meters":16400,"station_id":"ce4bh2p2rcd13ifvqdi0","pricing_plan_id":"cebpf4jnsgd1na2vs0mg"},{"bike_id":"14960bf0-5194-4f14-bef0-766957d27bb3","system_id":"levelo_inurba_marseille","lat":43.29278,"lon":5.40136,"is_reserved":false,"is_disabled":false,"rental_uris":{"android":"levelo://app?vid=14960bf0-5194-4f14-bef0-766957d27bb3","ios":"levelo://app?vid=14960bf0-5194-4f14-bef0-766957d27bb3"},"vehicle_type_id":"4","last_reported":1748576217,"current_range_meters":16400,"station_id":"ce4bh312rcd13ifvqdk0","pricing_plan_id":"cebpf4jnsgd1na2vs0mg"},{"bike_id":"dd34afa2-f665-4263-85a8-7de7dbd3a196","system_id":"levelo_inurba_marseille","lat":43.276252,"lon":5.397033,"is_reserved":false,"is_disabled":false,"rental_uris":{"android":"levelo://app?vid=dd34afa2-f665-4263-85a8-7de7dbd3a196","ios":"levelo://app?vid=dd34afa2-f665-4263-85a8-7de7dbd3a196"},"vehicle_type_id":"4","last_reported":1748576217,"current_range_meters":16400,"station_id":"","pricing_plan_id":"cebpf4jnsgd1na2vs0mg"},{"bike_id":"6e2d32db-77f9-401a-965b-8ce24716aac7","system_id":"levelo_inurba_marseille","lat":43.30417,"lon":5.412872,"is_reserved":false,"is_disabled":false,"rental_uris":{"android":"levelo://app?vid=6e2d32db-77f9-401a-965b-8ce24716aac7","ios":"levelo://app?vid=6e2d32db-77f9-401a-965b-8ce24716aac7"},"vehicle_type_id":"4","last_reported":1748576217,"current_range_meters":16400,"station_id":"ce4bhop2rcd13ifvqh8g","pricing_plan_id":"cebpf4jnsgd1na2vs0mg"},{"bike_id":"fd7ad8b5-d599-4a91-b59b-ac2aa9cb4f73","system_id":"levelo_inurba_marseille","lat":43.271416,"lon":5.400118,"is_reserved":false,"is_disabled":false,"rental_uris":{"android":"levelo://app?vid=fd7ad8b5-d599-4a91-b59b-ac2aa9cb4f73","ios":"levelo://app?vid=fd7ad8b5-d599-4a91-b59b-ac2aa9cb4f73"},"vehicle_type_id":"4","last_reported":1748576217,"current_range_meters":16800,"station_id":"","pricing_plan_id":"cebpf4jnsgd1na2vs0mg"},{"bike_id":"5b32d118-e315-47a2-81eb-c2abc8280b28","system_id":"levelo_inurba_marseille","lat":43.30877,"lon":5.39635,"is_reserved":false,"is_disabled":false,"rental_uris":{"android":"levelo://app?vid=5b32d118-e315-47a2-81eb-c2abc8280b28","ios":"levelo://app?vid=5b32d118-e315-47a2-81eb-c2abc8280b28"},"vehicle_type_id":"4","last_reported":1748576217,"current_range_meters":16800,"station_id":"ce4bh012rcd13ifvqcv0","pricing_plan_id":"cebpf4jnsgd1na2vs0mg"},{"bike_id":"1d542995-8c8f-4777-b74d-8d8355e96125","system_id":"levelo_inurba_marseille","lat":43.287034,"lon":5.399891,"is_reserved":false,"is_disabled":false,"rental_uris":{"android":"levelo://app?vid=1d542995-8c8f-4777-b74d-8d8355e96125","ios":"levelo://app?vid=1d542995-8c8f-4777-b74d-8d8355e96125"},"vehicle_type_id":"4","last_reported":1748576217,"current_range_meters":16800,"station_id":"ce4bho92rcd13ifvqh3g","pricing_plan_id":"cebpf4jnsgd1na2vs0mg"},{"bike_id":"950a66c6-0112-4714-a007-202e42172c1f","system_id":"levelo_inurba_marseille","lat":43.248124,"lon":5.374556,"is_reserved":false,"is_disabled":false,"rental_uris":{"android":"levelo://app?vid=950a66c6-0112-4714-a007-202e42172c1f","ios":"levelo://app?vid=950a66c6-0112-4714-a007-202e42172c1f"},"vehicle_type_id":"4","last_reported":1748576217,"current_range_meters":16800,"station_id":"ce4bhgh2rcd13ifvqfb0","pricing_plan_id":"cebpf4jnsgd1na2vs0mg"},{"bike_id":"7eca6927-0eee-41fb-838c-8606d041ec62","system_id":"levelo_inurba_marseille","lat":43.26227,"lon":5.40458,"is_reserved":false,"is_disabled":false,"rental_uris":{"android":"levelo://app?vid=7eca6927-0eee-41fb-838c-8606d041ec62","ios":"levelo://app?vid=7eca6927-0eee-41fb-838c-8606d041ec62"},"vehicle_type_id":"4","last_reported":1748576217,"current_range_meters":16800,"station_id":"ce4bhmh2rcd13ifvqgmg","pricing_plan_id":"cebpf4jnsgd1na2vs0mg"},