{"last_updated":1702462054,"ttl":30,"version":"2.2","data":{"bikes":[{"bike_id":"3da9b715-16fa-4475-bbc5-32aace7b5088","system_id":"levelo_inurba_marseille","lat":43.31341,"lon":5.367098,"is_reserved":false,"is_disabled":false,"rental_uris":{"android":"levelo://app?vid=3da9b715-16fa-4475-bbc5-32aace7b5088","ios":"levelo://app?vid=3da9b715-16fa-4475-bbc5-32aace7b5088"},"vehicle_type_id":"4","last_reported":1702462054,"current_range_meters":29600,"station_id":"ce4bgr92rcd13ifvqc6g","pricing_plan_id":"free"},{"bike_id":"89cb498c-8917-4dc4-b170-cfab119c6084","system_id":"levelo_inurba_marseille","lat":43.31341,"lon":5.367098,"is_reserved":false,"is_disabled":false,"rental_uris":{"android":"levelo://app?vid=89cb498c-8917-4dc4-b170-cfab119c6084","ios":"levelo://app?vid=89cb498c-8917-4dc4-b170-cfab119c6084"},"vehicle_type_id":"4","last_reported":1702462054,"current_range_meters":11600,"station_id":"ce4bgr92rcd13ifvqc6g","pricing_plan_id":"free"},{"bike_id":"e2695bd0-ce67-4f77-90a9-96930a84434f","system_id":"levelo_inurba_marseille","lat":43.30907,"lon":5.36845,"is_reserved":false,"is_disabled":false,"rental_uris":{"android":"levelo://app?vid=e2695bd0-ce67-4f77-90a9-96930a84434f","ios":"levelo://app?vid=e2695bd0-ce67-4f77-90a9-96930a84434f"},"vehicle_type_id":"4","last_reported":1702462054,"current_range_meters":14400,"station_id":"ce4bgn92rcd13ifvqbvg","pricing_plan_id":"free"},{"bike_id":"d5073758-7e10-48e6-8c33-512d77b4eb64","system_id":"levelo_inurba_marseille","lat":43.309,"lon":5.36844,"is_reserved":false,"is_disabled":false,"rental_uris":{"android":"levelo://app?vid=d5073758-7e10-48e6-8c33-512d77b4eb64","ios":"levelo://app?vid=d5073758-7e10-48e6-8c33-512d77b4eb64"},"vehicle_type_id":"4","last_reported":1702462054,"current_range_meters":25200,"station_id":"ce4bgn92rcd13ifvqbvg","pricing_plan_id":"free"},{"bike_id":"3f8b821f-e430-4a35-bf14-f8b6e777ea11","system_id":"levelo_inurba_marseille","lat":43.313939,"lon":5.375306,"is_reserved":false,"is_disabled":false,"rental_uris":{"android":"levelo://app?vid=3f8b821f-e430-4a35-bf14-f8b6e777ea11","ios":"levelo://app?vid=3f8b821f-e430-4a35-bf14-f8b6e777ea11"},"vehicle_type_id":"4","last_reported":1702462054,"current_range_meters":8000,"station_id":"","pricing_plan_id":"free"},{"bike_id":"935dc88e-c367-4f66-b2d5-6a8cb1a8aa37","system_id":"levelo_inurba_marseille","lat":43.30549,"lon":5.36721,"is_reserved":false,"is_disabled":false,"rental_uris":{"android":"levelo://app?vid=935dc88e-c367-4f66-b2d5-6a8cb1a8aa37","ios":"levelo://app?vid=935dc88e-c367-4f66-b2d5-6a8cb1a8aa37"},"vehicle_type_id":"4","last_reported":1702462054,"current_range_meters":20000,"station_id":"ce4bgrp2rcd13ifvqc9g","pricing_plan_id":"free"},{"bike_id":"49bbc9e5-a3df-454e-a4ca-e110c3d541ac","system_id":"levelo_inurba_marseille","lat":43.305706,"lon":5.365654,"is_reserved":false,"is_disabled":false,"rental_uris":{"android":"levelo://app?vid=49bbc9e5-a3df-454e-a4ca-e110c3d541ac","ios":"levelo://app?vid=49bbc9e5-a3df-454e-a4ca-e110c3d541ac"},"vehicle_type_id":"4","last_reported":1702462054,"current_range_meters":20800,"station_id":"ce4bgs12rcd13ifvqcag","pricing_plan_id":"free"},{"bike_id":"955e4ab2-16e5-44e8-a986-a2f50ff96c06","system_id":"levelo_inurba_marseille","lat":43.305382,"lon":5.365389,"is_reserved":false,"is_disabled":false,"rental_uris":{"android":"levelo://app?vid=955e4ab2-16e5-44e8-a986-a2f50ff96c06","ios":"levelo://app?vid=955e4ab2-16e5-44e8-a986-a2f50ff96c06"},"vehicle_type_id":"4","last_reported":1702462054,"current_range_meters":27600,"station_id":"","pricing_plan_id":"free"},{"bike_id":"5068c8cc-dfdf-49ae-a09e-68aac06cdd58","system_id":"levelo_inurba_marseille","lat":43.305714,"lon":5.365633,"is_reserved":false,"is_disabled":false,"rental_uris":{"android":"levelo://app?vid=5068c8cc-dfdf-49ae-a09e-68aac06cdd58","ios":"levelo://app?vid=5068c8cc-dfdf-49ae-a09e-68aac06cdd58"},"vehicle_type_id":"4","last_reported":1702462054,"current_range_meters":27600,"station_id":"ce4bgs12rcd13ifvqcag","pricing_plan_id":"free"},{"bike_id":"31d73def-4038-4a71-bb25-805788dde480","system_id":"levelo_inurba_marseille","lat":43.305706,"lon":5.365654,"is_reserved":false,"is_disabled":false,"rental_uris":{"android":"levelo://app?vid=31d73def-4038-4a71-bb25-805788dde480","ios":"levelo://app?vid=31d73def-4038-4a71-bb25-805788dde480"},"vehicle_type_id":"4","last_reported":1702462054,"current_range_meters":31600,"station_id":"ce4bgs12rcd13ifvqcag","pricing_plan_id":"free"},{"bike_id":"dc68debd-6203-4696-b9a5-55eea857c5a0","system_id":"levelo_inurba_marseille","lat":43.317194,"lon":5.37681,"is_reserved":false,"is_disabled":false,"rental_uris":{"android":"levelo://app?vid=dc68debd-6203-4696-b9a5-55eea857c5a0","ios":"levelo://app?vid=dc68debd-6203-4696-b9a5-55eea857c5a0"},"vehicle_type_id":"4","last_reported":1702462054,"current_range_meters":24400,"station_id":"ce4bgth2rcd13ifvqch0","pricing_plan_id":"free"},{"bike_id":"165fe792-2895-4931-89bc-600da9f1fa34","system_id":"levelo_inurba_marseille","lat":43.307945,"lon":5.376487,"is_reserved":false,"is_disabled":false,"rental_uris":{"android":"levelo://app?vid=165fe792-2895-4931-89bc-600da9f1fa34","ios":"levelo://app?vid=165fe792-2895-4931-89bc-600da9f1fa34"},"vehicle_type_id":"4","last_reported":1702462054,"current_range_meters":12000,"station_id":"ce4bgv92rcd13ifvqcq0","pricing_plan_id":"free"},{"bike_id":"f0547b77-6f20-423d-98ca-ff544c3c1d23","system_id":"levelo_inurba_marseille","lat":43.317,"lon":5.37827,"is_reserved":false,"is_disabled":false,"rental_uris":{"android":"levelo://app?vid=f0547b77-6f20-423d-98ca-ff544c3c1d23","ios":"levelo://app?vid=f0547b77-6f20-423d-98ca-ff544c3c1d23"},"vehicle_type_id":"4","last_reported":1702462054,"current_range_meters":21600,"station_id":"","pricing_plan_id":"free"},{"bike_id":"f0c56b31-8ea1-48be-93cc-875174e5fd8b","system_id":"levelo_inurba_marseille","lat":43.30311,"lon":5.36902,"is_reserved":false,"is_disabled":false,"rental_uris":{"android":"levelo://app?vid=f0c56b31-8ea1-48be-93cc-875174e5fd8b","ios":"levelo://app?vid=f0c56b31-8ea1-48be-93cc-875174e5fd8b"},"vehicle_type_id":"4","last_reported":1702462054,"current_range_meters":6000,"station_id":"ce4bgqh2rcd13ifvqc5g","pricing_plan_id":"free"},{"bike_id":"fc1dd8c5-c75f-4b38-bf33-2ce27b09b80d","system_id":"levelo_inurba_marseille","lat":43.31533,"lon":5.38044,"is_reserved":false,"is_disabled":false,"rental_uris":{"android":"levelo://app?vid=fc1dd8c5-c75f-4b38-bf33-2ce27b09b80d","ios":"levelo://app?vid=fc1dd8c5-c75f-4b38-bf33-2ce27b09b80d"},"vehicle_type_id":"4","last_reported":1702462054,"current_range_meters":22800,"station_id":"ce4bhsp2rcd13ifvqi50","pricing_plan_id":"free"},{"bike_id":"af492aff-244e-43ac-9ae7-d315037263bb","system_id":"levelo_inurba_marseille","lat":43.308012,"lon":5.381511,"is_reserved":false,"is_disabled":false,"rental_uris":{"android":"levelo://app?vid=af492aff-244e-43ac-9ae7-d315037263bb","ios":"levelo://app?vid=af492aff-244e-43ac-9ae7-d315037263bb"},"vehicle_type_id":"4","last_reported":1702462054,"current_range_meters":18400,"station_id":"ce4bgt12rcd13ifvqce0","pricing_plan_id":"free"},{"bike_id":"49a260f0-253f-40fa-b4a3-a2d59cc33978","system_id":"levelo_inurba_marseille","lat":43.308012,"lon":5.381511,"is_reserved":false,"is_disabled":false,"rental_uris":{"android":"levelo://app?vid=49a260f0-253f-40fa-b4a3-a2d59cc33978","ios":"levelo://app?vid=49a260f0-253f-40fa-b4a3-a2d59cc33978"},"vehicle_type_id":"4","last_reported":1702462054,"current_range_meters":26000,"station_id":"ce4bgt12rcd13ifvqce0","pricing_plan_id":"free"},{"bike_id":"bd663495-2d00-45d9-9147-438013957ae2","system_id":"levelo_inurba_marseille","lat":43.304606,"lon":5.379026,"is_reserved":false,"is_disabled":false,"rental_uris":{"android":"levelo://app?vid=bd663495-2d00-45d9-9147-438013957ae2","ios":"levelo://app?vid=bd663495-2d00-45d9-9147-438013957ae2"},"vehicle_type_id":"4","last_reported":1702462054,"current_range_meters":21200,"station_id":"ce4bgup2rcd13ifvqcn0","pricing_plan_id":"free"},{"bike_id":"786a39c6-14d6-4dd9-912f-4bdfae06e5a6","system_id":"levelo_inurba_marseille","lat":43.304606,"lon":5.379026,"is_reserved":false,"is_disabled":false,"rental_uris":{"android":"levelo://app?vid=786a39c6-14d6-4dd9-912f-4bdfae06e5a6","ios":"levelo://app?vid=786a39c6-14d6-4dd9-912f-4bdfae06e5a6"},"vehicle_type_id":"4","last_reported":1702462054,"current_range_meters":14400,"station_id":"ce4bgup2rcd13ifvqcn0","pricing_plan_id":"free"},{"bike_id":"3ecccf1f-40d8-41f5-9602-6cc522a72bd5","system_id":"levelo_inurba_marseille","lat":43.304606,"lon":5.379026,"is_reserved":false,"is_disabled":false,"rental_uris":{"android":"levelo://app?vid=3ecccf1f-40d8-41f5-9602-6cc522a72bd5","ios":"levelo://app?vid=3ecccf1f-40d8-41f5-9602-6cc522a72bd5"},"vehicle_type_id":"4","last_reported":1702462054,"current_range_meters":0,"station_id":"ce4bgup2rcd13ifvqcn0","pricing_plan_id":"free"},{"bike_id":"eba7efd9-7888-4540-8713-9c5ac6fdf9b4","system_id":"levelo_inurba_marseille","lat":43.3046,"lon":5.37899,"is_reserved":false,"is_disabled":false,"rental_uris":{"android":"levelo://app?vid=eba7efd9-7888-4540-8713-9c5ac6fdf9b4","ios":"levelo://app?vid=eba7efd9-7888-4540-8713-9c5ac6fdf9b4"},"vehicle_type_id":"4","last_reported":1702462054,"current_range_meters":16400,"station_id":"ce4bgup2rcd13ifvqcn0","pricing_plan_id":"free"},{"bike_id":"806d1095-eba4-4b4e-a978-6519c4d6aea4","system_id":"levelo_inurba_marseille","lat":43.304606,"lon":5.379026,"is_reserved":false,"is_disabled":false,"rental_uris":{"android":"levelo://app?vid=806d1095-eba4-4b4e-a978-6519c4d6aea4","ios":"levelo://app?vid=806d1095-eba4-4b4e-a978-6519c4d6aea4"},"vehicle_type_id":"4","last_reported":1702462054,"current_range_meters":0,"station_id":"ce4bgup2rcd13ifvqcn0","pricing_plan_id":"free"},{"bike_id":"443495d3-5c95-4ec2-bf2b-82b8d38de0b4","system_id":"levelo_inurba_marseille","lat":43.324771,"lon":5.36557,"is_reserved":false,"is_disabled":false,"rental_uris":{"android":"levelo://app?vid=443495d3-5c95-4ec2-bf2b-82b8d38de0b4","ios":"levelo://app?vid=443495d3-5c95-4ec2-bf2b-82b8d38de0b4"},"vehicle_type_id":"4","last_reported":1702462054,"current_range_meters":21600,"station_id":"ce4bhs12rcd13ifvqhvg","pricing_plan_id":"free"},{"bike_id":"52aa6ea4-0821-40ea-878b-8773a1b09047","system_id":"levelo_inurba_marseille","lat":43.324771,"lon":5.36557,"is_reserved":false,"is_disabled":false,"rental_uris":{"android":"levelo://app?vid=52aa6ea4-0821-40ea-878b-8773a1b09047","ios":"levelo://app?vid=52aa6ea4-0821-40ea-878b-8773a1b09047"},"vehicle_type_id":"4","last_reported":1702462054,"current_range_meters":15200,"station_id":"ce4bhs12rcd13ifvqhvg","pricing_plan_id":"free"},{"bike_id":"aa3cdc10-a2b4-4348-a58d-ea513d683fe2","system_id":"levelo_inurba_marseille","lat":43.324771,"lon":5.36557,"is_reserved":false,"is_disabled":false,"rental_uris":{"android":"levelo://app?vid=aa3cdc10-a2b4-4348-a58d-ea513d683fe2","ios":"levelo://app?vid=aa3cdc10-a2b4-4348-a58d-ea513d683fe2"},"vehicle_type_id":"4","last_reported":1702462054,"current_range_meters":23200,"station_id":"ce4bhs12rcd13ifvqhvg","pricing_plan_id":"free"},{"bike_id":"b7ee20e8-bd1e-4140-9fe4-3bdec21128ef","system_id":"levelo_inurba_marseille","lat":43.301429,"lon":5.37413,"is_reserved":false,"is_disabled":false,"rental_uris":{"android":"levelo://app?vid=b7ee20e8-bd1e-4140-9fe4-3bdec21128ef","ios":"levelo://app?vid=b7ee20e8-bd1e-4140-9fe4-3bdec21128ef"},"vehicle_type_id":"4","last_reported":1702462054,"current_range_meters":24000,"station_id":"ce4bgs92rcd13ifvqcc0","pricing_plan_id":"free"},{"bike_id":"d2cec638-a6a3-44d3-acd3-d8b3825558e3","system_id":"levelo_inurba_marseille","lat":43.30509,"lon":5.38044,"is_reserved":false,"is_disabled":false,"rental_uris":{"android":"levelo://app?vid=d2cec638-a6a3-44d3-acd3-d8b3825558e3","ios":"levelo://app?vid=d2cec638-a6a3-44d3-acd3-d8b3825558e3"},"vehicle_type_id":"4","last_reported":1702462054,"current_range_meters":21200,"station_id":"ce4bgup2rcd13ifvqcn0","pricing_plan_id":"free"},{"bike_id":"8cb8d374-2e03-4c50-b944-a3d603dada05","system_id":"levelo_inurba_marseille","lat":43.301429,"lon":5.37413,"is_reserved":false,"is_disabled":false,"rental_uris":{"android":"levelo://app?vid=8cb8d374-2e03-4c50-b944-a3d603dada05","ios":"levelo://app?vid=8cb8d374-2e03-4c50-b944-a3d603dada05"},"vehicle_type_id":"4","last_reported":1702462054,"current_range_meters":13600,"station_id":"ce4bgs92rcd13ifvqcc0","pricing_plan_id":"free"},{"bike_id":"8ce53acd-05fe-4f4d-933b-41fa61a8f0ea","system_id":"levelo_inurba_marseille","lat":43.302784,"lon":5.377158,"is_reserved":false,"is_disabled":false,"rental_uris":{"android":"levelo://app?vid=8ce53acd-05fe-4f4d-933b-41fa61a8f0ea","ios":"levelo://app?vid=8ce53acd-05fe-4f4d-933b-41fa61a8f0ea"},"vehicle_type_id":"4","last_reported":1702462054,"current_range_meters":12800,"station_id":"ce4bguh2rcd13ifvqcj0","pricing_plan_id":"free"},{"bike_id":"f3c5162f-d4d5-4ac4-bb0b-1c24b3aa209f","system_id":"levelo_inurba_marseille","lat":43.301429,"lon":5.37413,"is_reserved":false,"is_disabled":false,"rental_uris":{"android":"levelo://app?vid=f3c5162f-d4d5-4ac4-bb0b-1c24b3aa209f","ios":"levelo://app?vid=f3c5162f-d4d5-4ac4-bb0b-1c24b3aa209f"},"vehicle_type_id":"4","last_reported":1702462054,"current_range_meters":15600,"station_id":"ce4bgs92rcd13ifvqcc0","pricing_plan_id":"free"},{"bike_id":"5b5dcf26-a151-47d4-a13d-98d287b3e762","system_id":"levelo_inurba_marseille","lat":43.301429,"lon":5.37413,"is_reserved":false,"is_disabled":false,"rental_uris":{"android":"levelo://app?vid=5b5dcf26-a151-47d4-a13d-98d287b3e762","ios":"levelo://app?vid=5b5dcf26-a151-47d4-a13d-98d287b3e762"},"vehicle_type_id":"4","last_reported":1702462054,"current_range_meters":22800,"station_id":"ce4bgs92rcd13ifvqcc0","pricing_plan_id":"free"},{"bike_id":"2312c798-7d3a-4aff-922d-f160beab9918","system_id":"levelo_inurba_marseille","lat":43.313571,"lon":5.384829,"is_reserved":false,"is_disabled":false,"rental_uris":{"android":"levelo://app?vid=2312c798-7d3a-4aff-922d-f160beab9918","ios":"levelo://app?vid=2312c798-7d3a-4aff-922d-f160beab9918"},"vehicle_type_id":"4","last_reported":1702462054,"current_range_meters":20800,"station_id":"ce4bgt92rcd13ifvqcf0","pricing_plan_id":"free"},{"bike_id":"9b40e5cd-36b8-403d-ae9d-29c69884f68b","system_id":"levelo_inurba_marseille","lat":43.29851,"lon":5.36284,"is_reserved":false,"is_disabled":false,"rental_uris":{"android":"levelo://app?vid=9b40e5cd-36b8-403d-ae9d-29c69884f68b","ios":"levelo://app?vid=9b40e5cd-36b8-403d-ae9d-29c69884f68b"},"vehicle_type_id":"4","last_reported":1702462054,"current_range_meters":9600,"station_id":"ce4bgpp2rcd13ifvqc3g","pricing_plan_id":"free"},{"bike_id":"2c2b3f82-6c5d-4f0f-8d24-54dd1bcebd06","system_id":"levelo_inurba_marseille","lat":43.298433,"lon":5.362774,"is_reserved":false,"is_disabled":false,"rental_uris":{"android":"levelo://app?vid=2c2b3f82-6c5d-4f0f-8d24-54dd1bcebd06","ios":"levelo://app?vid=2c2b3f82-6c5d-4f0f-8d24-54dd1bcebd06"},"vehicle_type_id":"4","last_reported":1702462054,"current_range_meters":31200,"station_id":"ce4bgpp2rcd13ifvqc3g","pricing_plan_id":"free"},{"bike_id":"c3c042f3-5c14-40b6-bc32-21ec2071e696","system_id":"levelo_inurba_marseille","lat":43.298433,"lon":5.362774,"is_reserved":false,"is_disabled":false,"rental_uris":{"android":"levelo://app?vid=c3c042f3-5c14-40b6-bc32-21ec2071e696","ios":"levelo://app?vid=c3c042f3-5c14-40b6-bc32-21ec2071e696"},"vehicle_type_id":"4","last_reported":1702462054,"current_range_meters":30000,"station_id":"ce4bgpp2rcd13ifvqc3g","pricing_plan_id":"free"},{"bike_id":"94dd4388-750d-4433-8817-e6d4ec041d47","system_id":"levelo_inurba_marseille","lat":43.298433,"lon":5.362774,"is_reserved":false,"is_disabled":false,"rental_uris":{"android":"levelo://app?vid=94dd4388-750d-4433-8817-e6d4ec041d47","ios":"levelo://app?vid=94dd4388-750d-4433-8817-e6d4ec041d47"},"vehicle_type_id":"4","last_reported":1702462054,"current_range_meters":31200,"station_id":"ce4bgpp2rcd13ifvqc3g","pricing_plan_id":"free"},{"bike_id":"e9dc218a-f9f8-4894-afbe-6c44c55ea5de","system_id":"levelo_inurba_marseille","lat":43.298433,"lon":5.362774,"is_reserved":false,"is_disabled":false,"rental_uris":{"android":"levelo://app?vid=e9dc218a-f9f8-4894-afbe-6c44c55ea5de","ios":"levelo://app?vid=e9dc218a-f9f8-4894-afbe-6c44c55ea5de"},"vehicle_type_id":"4","last_reported":1702462054,"current_range_meters":10800,"station_id":"ce4bgpp2rcd13ifvqc3g","pricing_plan_id":"free"},{"bike_id":"77a6c46d-d898-4e4f-8846-efa91689c7f0","system_id":"levelo_inurba_marseille","lat":43.302006,"lon":5.38065,"is_reserved":false,"is_disabled":false,"rental_uris":{"android":"levelo://app?vid=77a6c46d-d898-4e4f-8846-efa91689c7f0","ios":"levelo://app?vid=77a6c46d-d898-4e4f-8846-efa91689c7f0"},"vehicle_type_id":"4","last_reported":1702462054,"current_range_meters":0,"station_id":"","pricing_plan_id":"free"},{"bike_id":"da238a28-34d8-4678-8822-2e40331ffaa7","system_id":"levelo_inurba_marseille","lat":43.311722,"lon":5.387247,"is_reserved":false,"is_disabled":false,"rental_uris":{"android":"levelo://app?vid=da238a28-34d8-4678-8822-2e40331ffaa7","ios":"levelo://app?vid=da238a28-34d8-4678-8822-2e40331ffaa7"},"vehicle_type_id":"4","last_reported":1702462054,"current_range_meters":6400,"station_id":"ce4bgv12rcd13ifvqcp0","pricing_plan_id":"free"},{"bike_id":"21517e89-189a-4372-a34c-b4332a116eb9","system_id":"levelo_inurba_marseille","lat":43.311722,"lon":5.387247,"is_reserved":false,"is_disabled":false,"rental_uris":{"android":"levelo://app?vid=21517e89-189a-4372-a34c-b4332a116eb9","ios":"levelo://app?vid=21517e89-189a-4372-a34c-b4332a116eb9"},"vehicle_type_id":"4","last_reported":1702462054,"current_range_meters":18000,"station_id":"ce4bgv12rcd13ifvqcp0","pricing_plan_id":"free"},{"bike_id":"054e19f8-c9d6-4057-ba61-7187e527f358","system_id":"levelo_inurba_marseille","lat":43.297794,"lon":5.370888,"is_reserved":false,"is_disabled":false,"rental_uris":{"android":"levelo://app?vid=054e19f8-c9d6-4057-ba61-7187e527f358","ios":"levelo://app?vid=054e19f8-c9d6-4057-ba61-7187e527f358"},"vehicle_type_id":"4","last_reported":1702462054,"current_range_meters":17200,"station_id":"ce4bgop2rcd13ifvqc1g","pricing_plan_id":"free"},{"bike_id":"ef62d099-880c-48b4-a857-30e56a94bd16","system_id":"levelo_inurba_marseille","lat":43.322872,"lon":5.382756,"is_reserved":false,"is_disabled":false,"rental_uris":{"android":"levelo://app?vid=ef62d099-880c-48b4-a857-30e56a94bd16","ios":"levelo://app?vid=ef62d099-880c-48b4-a857-30e56a94bd16"},"vehicle_type_id":"4","last_reported":1702462054,"current_range_meters":30800,"station_id":"ce4bhr12rcd13ifvqhqg","pricing_plan_id":"free"},{"bike_id":"2f3bb280-052a-4468-af6b-ff1bc60be439","system_id":"levelo_inurba_marseille","lat":43.32827,"lon":5.36686,"is_reserved":false,"is_disabled":false,"rental_uris":{"android":"levelo://app?vid=2f3bb280-052a-4468-af6b-ff1bc60be439","ios":"levelo://app?vid=2f3bb280-052a-4468-af6b-ff1bc60be439"},"vehicle_type_id":"4","last_reported":1702462054,"current_range_meters":18000,"station_id":"ce4bhs92rcd13ifvqi0g","pricing_plan_id":"free"},{"bike_id":"f6a62362-1831-4aa5-9227-c5f949743ee8","system_id":"levelo_inurba_marseille","lat":43.328299,"lon":5.366809,"is_reserved":false,"is_disabled":false,"rental_uris":{"android":"levelo://app?vid=f6a62362-1831-4aa5-9227-c5f949743ee8","ios":"levelo://app?vid=f6a62362-1831-4aa5-9227-c5f949743ee8"},"vehicle_type_id":"4","last_reported":1702462054,"current_range_meters":26800,"station_id":"ce4bhs92rcd13ifvqi0g","pricing_plan_id":"free"},{"bike_id":"7a878ee5-6910-45dd-b3bd-722059d35da7","system_id":"levelo_inurba_marseille","lat":43.29787,"lon":5.37679,"is_reserved":false,"is_disabled":false,"rental_uris":{"android":"levelo://app?vid=7a878ee5-6910-45dd-b3bd-722059d35da7","ios":"levelo://app?vid=7a878ee5-6910-45dd-b3bd-722059d35da7"},"vehicle_type_id":"4","last_reported":1702462054,"current_range_meters":9200,"station_id":"","pricing_plan_id":"free"},{"bike_id":"cbf8ae17-2199-46eb-a0f3-91f48e6e8120","system_id":"levelo_inurba_marseille","lat":43.296935,"lon":5.376544,"is_reserved":false,"is_disabled":false,"rental_uris":{"android":"levelo://app?vid=cbf8ae17-2199-46eb-a0f3-91f48e6e8120","ios":"levelo://app?vid=cbf8ae17-2199-46eb-a0f3-91f48e6e8120"},"vehicle_type_id":"4","last_reported":1702462054,"current_range_meters":23600,"station_id":"ce4bgkh2rcd13ifvqbl0","pricing_plan_id":"free"},{"bike_id":"0338460e-39d7-43e2-9b02-df48e32acb93","system_id":"levelo_inurba_marseille","lat":43.299028,"lon":5.381509,"is_reserved":false,"is_disabled":false,"rental_uris":{"android":"levelo://app?vid=0338460e-39d7-43e2-9b02-df48e32acb93","ios":"levelo://app?vid=0338460e-39d7-43e2-9b02-df48e32acb93"},"vehicle_type_id":"4","last_reported":1702462054,"current_range_meters":12400,"station_id":"ce4bgj12rcd13ifvqbc0","pricing_plan_id":"free"},{"bike_id":"2ed1a8f0-a64f-4080-af18-6fdb3aad55d5","system_id":"levelo_inurba_marseille","lat":43.299028,"lon":5.381509,"is_reserved":false,"is_disabled":false,"rental_uris":{"android":"levelo://app?vid=2ed1a8f0-a64f-4080-af18-6fdb3aad55d5","ios":"levelo://app?vid=2ed1a8f0-a64f-4080-af18-6fdb3aad55d5"},"vehicle_type_id":"4","last_reported":1702462054,"current_range_meters":16400,"station_id":"ce4bgj12rcd13ifvqbc0","pricing_plan_id":"free"},{"bike_id":"23bbe805-c94b-4a71-b6b3-02557ecd6b8b","system_id":"levelo_inurba_marseille","lat":43.317557,"lon":5.390173,"is_reserved":false,"is_disabled":false,"rental_uris":{"android":"levelo://app?vid=23bbe805-c94b-4a71-b6b3-02557ecd6b8b","ios":"levelo://app?vid=23bbe805-c94b-4a71-b6b3-02557ecd6b8b"},"vehicle_type_id":"4","last_reported":1702462054,"current_range_meters":25600,"station_id":"ce4bhqp2rcd13ifvqhng","pricing_plan_id":"free"},{"bike_id":"88cf4a7e-2868-45c6-96f1-fdf735b866a2","system_id":"levelo_inurba_marseille","lat":43.296263,"lon":5.377094,"is_reserved":false,"is_disabled":false,"rental_uris":{"android":"levelo://app?vid=88cf4a7e-2868-45c6-96f1-fdf735b866a2","ios":"levelo://app?vid=88cf4a7e-2868-45c6-96f1-fdf735b866a2"},"vehicle_type_id":"4","last_reported":1702462054,"current_range_meters":14800,"station_id":"ce4bgi92rcd13ifvqb90","pricing_plan_id":"free"},{"bike_id":"190d4039-3fc9-4d91-b38e-022acda8d48d","system_id":"levelo_inurba_marseille","lat":43.323597,"lon":5.388827,"is_reserved":false,"is_disabled":false,"rental_uris":{"android":"levelo://app?vid=190d4039-3fc9-4d91-b38e-022acda8d48d","ios":"levelo://app?vid=190d4039-3fc9-4d91-b38e-022acda8d48d"},"vehicle_type_id":"4","last_reported":1702462054,"current_range_meters":8000,"station_id":"ce4bhqp2rcd13ifvqhog","pricing_plan_id":"free"},{"bike_id":"365d89dd-4a8a-4b09-99ab-12e88bf6270d","system_id":"levelo_inurba_marseille","lat":43.29278,"lon":5.36844,"is_reserved":false,"is_disabled":false,"rental_uris":{"android":"levelo://app?vid=365d89dd-4a8a-4b09-99ab-12e88bf6270d","ios":"levelo://app?vid=365d89dd-4a8a-4b09-99ab-12e88bf6270d"},"vehicle_type_id":"4","last_reported":1702462054,"current_range_meters":24800,"station_id":"ce4bhbp2rcd13ifvqesg","pricing_plan_id":"free"},{"bike_id":"7a9ee087-8ac5-4446-99e0-d141af274668","system_id":"levelo_inurba_marseille","lat":43.2936,"lon":5.37835,"is_reserved":false,"is_disabled":false,"rental_uris":{"android":"levelo://app?vid=7a9ee087-8ac5-4446-99e0-d141af274668","ios":"levelo://app?vid=7a9ee087-8ac5-4446-99e0-d141af274668"},"vehicle_type_id":"4","last_reported":1702462054,"current_range_meters":8000,"station_id":"ce4bgjh2rcd13ifvqbf0","pricing_plan_id":"free"},{"bike_id":"f15ec70a-db88-461b-a6e5-37de53e6e23a","system_id":"levelo_inurba_marseille","lat":43.2936,"lon":5.37835,"is_reserved":false,"is_disabled":false,"rental_uris":{"android":"levelo://app?vid=f15ec70a-db88-461b-a6e5-37de53e6e23a","ios":"levelo://app?vid=f15ec70a-db88-461b-a6e5-37de53e6e23a"},"vehicle_type_id":"4","last_reported":1702462054,"current_range_meters":14400,"station_id":"ce4bgjh2rcd13ifvqbf0","pricing_plan_id":"free"},{"bike_id":"044ecf82-9915-4c25-bc0e-9bef7765d9e4","system_id":"levelo_inurba_marseille","lat":43.2936,"lon":5.37835,"is_reserved":false,"is_disabled":false,"rental_uris":{"android":"levelo://app?vid=044ecf82-9915-4c25-bc0e-9bef7765d9e4","ios":"levelo://app?vid=044ecf82-9915-4c25-bc0e-9bef7765d9e4"},"vehicle_type_id":"4","last_reported":1702462054,"current_range_meters":4400,"station_id":"ce4bgjh2rcd13ifvqbf0","pricing_plan_id":"free"},{"bike_id":"c46bf50f-5691-4bd4-88e1-f08bdf62b715","system_id":"levelo_inurba_marseille","lat":43.292311,"lon":5.360731,"is_reserved":false,"is_disabled":false,"rental_uris":{"android":"levelo://app?vid=c46bf50f-5691-4bd4-88e1-f08bdf62b715","ios":"levelo://app?vid=c46bf50f-5691-4bd4-88e1-f08bdf62b715"},"vehicle_type_id":"4","last_reported":1702462054,"current_range_meters":20000,"station_id":"ce4bhbh2rcd13ifvqeqg","pricing_plan_id":"free"},{"bike_id":"86d21ac9-d137-4b07-b90e-faf59237f15b","system_id":"levelo_inurba_marseille","lat":43.292311,"lon":5.360731,"is_reserved":false,"is_disabled":false,"rental_uris":{"android":"levelo://app?vid=86d21ac9-d137-4b07-b90e-faf59237f15b","ios":"levelo://app?vid=86d21ac9-d137-4b07-b90e-faf59237f15b"},"vehicle_type_id":"4","last_reported":1702462054,"current_range_meters":30000,"station_id":"ce4bhbh2rcd13ifvqeqg","pricing_plan_id":"free"},{"bike_id":"af03e5aa-ccfc-4a17-a10d-76025824d200","system_id":"levelo_inurba_marseille","lat":43.292311,"lon":5.360731,"is_reserved":false,"is_disabled":false,"rental_uris":{"android":"levelo://app?vid=af03e5aa-ccfc-4a17-a10d-76025824d200","ios":"levelo://app?vid=af03e5aa-ccfc-4a17-a10d-76025824d200"},"vehicle_type_id":"4","last_reported":1702462054,"current_range_meters":28800,"station_id":"ce4bhbh2rcd13ifvqeqg","pricing_plan_id":"free"},{"bike_id":"8d8decfb-b8f6-4bdd-af07-9df092b21395","system_id":"levelo_inurba_marseille","lat":43.291994,"lon":5.357886,"is_reserved":false,"is_disabled":false,"rental_uris":{"android":"levelo://app?vid=8d8decfb-b8f6-4bdd-af07-9df092b21395","ios":"levelo://app?vid=8d8decfb-b8f6-4bdd-af07-9df092b21395"},"vehicle_type_id":"4","last_reported":1702462054,"current_range_meters":13600,"station_id":"ce4bhb12rcd13ifvqel0","pricing_plan_id":"free"},{"bike_id":"3de0a65c-53d2-4a0c-872c-be09660834c1","system_id":"levelo_inurba_marseille","lat":43.291994,"lon":5.357886,"is_reserved":false,"is_disabled":false,"rental_uris":{"android":"levelo://app?vid=3de0a65c-53d2-4a0c-872c-be09660834c1","ios":"levelo://app?vid=3de0a65c-53d2-4a0c-872c-be09660834c1"},"vehicle_type_id":"4","last_reported":1702462054,"current_range_meters":16000,"station_id":"ce4bhb12rcd13ifvqel0","pricing_plan_id":"free"},{"bike_id":"2a27af8b-26eb-4593-86d6-8ea6b4dfa97d","system_id":"levelo_inurba_marseille","lat":43.290779,"lon":5.371482,"is_reserved":false,"is_disabled":false,"rental_uris":{"android":"levelo://app?vid=2a27af8b-26eb-4593-86d6-8ea6b4dfa97d","ios":"levelo://app?vid=2a27af8b-26eb-4593-86d6-8ea6b4dfa97d"},"vehicle_type_id":"4","last_reported":1702462054,"current_range_meters":18000,"station_id":"ce4bh5p2rcd13ifvqe4g","pricing_plan_id":"free"},{"bike_id":"678ba1ed-2544-4c00-91b3-be369ff3b312","system_id":"levelo_inurba_marseille","lat":43.302008,"lon":5.394694,"is_reserved":false,"is_disabled":false,"rental_uris":{"android":"levelo://app?vid=678ba1ed-2544-4c00-91b3-be369ff3b312","ios":"levelo://app?vid=678ba1ed-2544-4c00-91b3-be369ff3b312"},"vehicle_type_id":"4","last_reported":1702462054,"current_range_meters":28000,"station_id":"ce4bh0p2rcd13ifvqd70","pricing_plan_id":"free"},{"bike_id":"76d70bca-663d-4968-9928-6759400ef74d","system_id":"levelo_inurba_marseille","lat":43.290327,"lon":5.375711,"is_reserved":false,"is_disabled":false,"rental_uris":{"android":"levelo://app?vid=76d70bca-663d-4968-9928-6759400ef74d","ios":"levelo://app?vid=76d70bca-663d-4968-9928-6759400ef74d"},"vehicle_type_id":"4","last_reported":1702462054,"current_range_meters":21200,"station_id":"ce4bh692rcd13ifvqe90","pricing_plan_id":"free"},{"bike_id":"5b25297c-02a4-4eb1-8fde-7f60f8a4a862","system_id":"levelo_inurba_marseille","lat":43.29044,"lon":5.37588,"is_reserved":false,"is_disabled":false,"rental_uris":{"android":"levelo://app?vid=5b25297c-02a4-4eb1-8fde-7f60f8a4a862","ios":"levelo://app?vid=5b25297c-02a4-4eb1-8fde-7f60f8a4a862"},"vehicle_type_id":"4","last_reported":1702462054,"current_range_meters":22800,"station_id":"","pricing_plan_id":"free"},{"bike_id":"2f3ef69e-d20a-4f03-b71d-e59bcb5e45ce","system_id":"levelo_inurba_marseille","lat":43.289184,"lon":5.366408,"is_reserved":false,"is_disabled":false,"rental_uris":{"android":"levelo://app?vid=2f3ef69e-d20a-4f03-b71d-e59bcb5e45ce","ios":"levelo://app?vid=2f3ef69e-d20a-4f03-b71d-e59bcb5e45ce"},"vehicle_type_id":"4","last_reported":1702462054,"current_range_meters":8000,"station_id":"ce4bhap2rcd13ifvqek0","pricing_plan_id":"free"},{"bike_id":"d21d8ea4-08e9-4d90-8df7-6ebf7cb86b3f","system_id":"levelo_inurba_marseille","lat":43.290327,"lon":5.375711,"is_reserved":false,"is_disabled":false,"rental_uris":{"android":"levelo://app?vid=d21d8ea4-08e9-4d90-8df7-6ebf7cb86b3f","ios":"levelo://app?vid=d21d8ea4-08e9-4d90-8df7-6ebf7cb86b3f"},"vehicle_type_id":"4","last_reported":1702462054,"current_range_meters":2800,"station_id":"ce4bh692rcd13ifvqe90","pricing_plan_id":"free"},{"bike_id":"136f4b9c-97b8-48eb-ad2d-cf3eccfcb143","system_id":"levelo_inurba_marseille","lat":43.289184,"lon":5.366408,"is_reserved":false,"is_disabled":false,"rental_uris":{"android":"levelo://app?vid=136f4b9c-97b8-48eb-ad2d-cf3eccfcb143","ios":"levelo://app?vid=136f4b9c-97b8-48eb-ad2d-cf3eccfcb143"},"vehicle_type_id":"4","last_reported":1702462054,"current_range_meters":18000,"station_id":"ce4bhap2rcd13ifvqek0","pricing_plan_id":"free"},{"bike_id":"f8f0686e-72b5-4342-8af6-2000be4c3eec","system_id":"levelo_inurba_marseille","lat":43.290161,"lon":5.375651,"is_reserved":false,"is_disabled":false,"rental_uris":{"android":"levelo://app?vid=f8f0686e-72b5-4342-8af6-2000be4c3eec","ios":"levelo://app?vid=f8f0686e-72b5-4342-8af6-2000be4c3eec"},"vehicle_type_id":"4","last_reported":1702462054,"current_range_meters":0,"station_id":"","pricing_plan_id":"free"},{"bike_id":"3d294140-9ffc-4c77-9c92-6d796411ffea","system_id":"levelo_inurba_marseille","lat":43.290103,"lon":5.356114,"is_reserved":false,"is_disabled":false,"rental_uris":{"android":"levelo://app?vid=3d294140-9ffc-4c77-9c92-6d796411ffea","ios":"levelo://app?vid=3d294140-9ffc-4c77-9c92-6d796411ffea"},"vehicle_type_id":"4","last_reported":1702462054,"current_range_meters":27200,"station_id":"ce4bhb92rcd13ifvqen0","pricing_plan_id":"free"},{"bike_id":"a140530b-8a78-48f7-a254-873744af3b9f","system_id":"levelo_inurba_marseille","lat":43.290104,"lon":5.356111,"is_reserved":false,"is_disabled":false,"rental_uris":{"android":"levelo://app?vid=a140530b-8a78-48f7-a254-873744af3b9f","ios":"levelo://app?vid=a140530b-8a78-48f7-a254-873744af3b9f"},"vehicle_type_id":"4","last_reported":1702462054,"current_range_meters":19200,"station_id":"ce4bhb92rcd13ifvqen0","pricing_plan_id":"free"},{"bike_id":"81a14f94-8577-4060-819b-cb22f46b283c","system_id":"levelo_inurba_marseille","lat":43.290995,"lon":5.381361,"is_reserved":false,"is_disabled":false,"rental_uris":{"android":"levelo://app?vid=81a14f94-8577-4060-819b-cb22f46b283c","ios":"levelo://app?vid=81a14f94-8577-4060-819b-cb22f46b283c"},"vehicle_type_id":"4","last_reported":1702462054,"current_range_meters":25200,"station_id":"ce4bh512rcd13ifvqe2g","pricing_plan_id":"free"},{"bike_id":"c4d0f41c-7ac0-405c-a400-f3c82c65fcac","system_id":"levelo_inurba_marseille","lat":43.290995,"lon":5.381361,"is_reserved":false,"is_disabled":false,"rental_uris":{"android":"levelo://app?vid=c4d0f41c-7ac0-405c-a400-f3c82c65fcac","ios":"levelo://app?vid=c4d0f41c-7ac0-405c-a400-f3c82c65fcac"},"vehicle_type_id":"4","last_reported":1702462054,"current_range_meters":22800,"station_id":"ce4bh512rcd13ifvqe2g","pricing_plan_id":"free"},{"bike_id":"e4fe33d2-28dd-447e-bdc0-de1690bccabc","system_id":"levelo_inurba_marseille","lat":43.295169,"lon":5.390426,"is_reserved":false,"is_disabled":false,"rental_uris":{"android":"levelo://app?vid=e4fe33d2-28dd-447e-bdc0-de1690bccabc","ios":"levelo://app?vid=e4fe33d2-28dd-447e-bdc0-de1690bccabc"},"vehicle_type_id":"4","last_reported":1702462054,"current_range_meters":31200,"station_id":"ce4bh3p2rcd13ifvqdp0","pricing_plan_id":"free"},{"bike_id":"3b348f42-098b-4306-9f0d-2492af5c09bf","system_id":"levelo_inurba_marseille","lat":43.290995,"lon":5.381361,"is_reserved":false,"is_disabled":false,"rental_uris":{"android":"levelo://app?vid=3b348f42-098b-4306-9f0d-2492af5c09bf","ios":"levelo://app?vid=3b348f42-098b-4306-9f0d-2492af5c09bf"},"vehicle_type_id":"4","last_reported":1702462054,"current_range_meters":2800,"station_id":"ce4bh512rcd13ifvqe2g","pricing_plan_id":"free"},{"bike_id":"463a202f-2883-44e4-9ef7-013a2ed564a1","system_id":"levelo_inurba_marseille","lat":43.28848,"lon":5.35861,"is_reserved":false,"is_disabled":false,"rental_uris":{"android":"levelo://app?vid=463a202f-2883-44e4-9ef7-013a2ed564a1","ios":"levelo://app?vid=463a202f-2883-44e4-9ef7-013a2ed564a1"},"vehicle_type_id":"4","last_reported":1702462054,"current_range_meters":18400,"station_id":"ce4bhb12rcd13ifvqem0","pricing_plan_id":"free"},{"bike_id":"67a71298-f781-4402-8d03-cdb5dd11acae","system_id":"levelo_inurba_marseille","lat":43.337451,"lon":5.37463,"is_reserved":false,"is_disabled":false,"rental_uris":{"android":"levelo://app?vid=67a71298-f781-4402-8d03-cdb5dd11acae","ios":"levelo://app?vid=67a71298-f781-4402-8d03-cdb5dd11acae"},"vehicle_type_id":"4","last_reported":1702462054,"current_range_meters":28000,"station_id":"","pricing_plan_id":"free"},{"bike_id":"3cbcbb37-a92d-4f78-b689-2f73f286e701","system_id":"levelo_inurba_marseille","lat":43.33758,"lon":5.3745,"is_reserved":false,"is_disabled":false,"rental_uris":{"android":"levelo://app?vid=3cbcbb37-a92d-4f78-b689-2f73f286e701","ios":"levelo://app?vid=3cbcbb37-a92d-4f78-b689-2f73f286e701"},"vehicle_type_id":"4","last_reported":1702462054,"current_range_meters":29200,"station_id":"","pricing_plan_id":"free"},{"bike_id":"6d0c592f-9564-4532-a262-d8d9a0b38ec4","system_id":"levelo_inurba_marseille","lat":43.33765,"lon":5.37465,"is_reserved":false,"is_disabled":false,"rental_uris":{"android":"levelo://app?vid=6d0c592f-9564-4532-a262-d8d9a0b38ec4","ios":"levelo://app?vid=6d0c592f-9564-4532-a262-d8d9a0b38ec4"},"vehicle_type_id":"4","last_reported":1702462054,"current_range_meters":30800,"station_id":"","pricing_plan_id":"free"},{"bike_id":"709bebcd-7a96-4a30-894a-152bbb656aa7","system_id":"levelo_inurba_marseille","lat":43.33768,"lon":5.37475,"is_reserved":false,"is_disabled":false,"rental_uris":{"android":"levelo://app?vid=709bebcd-7a96-4a30-894a-152bbb656aa7","ios":"levelo://app?vid=709bebcd-7a96-4a30-894a-152bbb656aa7"},"vehicle_type_id":"4","last_reported":1702462054,"current_range_meters":16400,"station_id":"","pricing_plan_id":"free"},{"bike_id":"d267a553-0eb0-4a1a-a706-ab1a1f40781b","system_id":"levelo_inurba_marseille","lat":43.301368,"lon":5.398644,"is_reserved":false,"is_disabled":false,"rental_uris":{"android":"levelo://app?vid=d267a553-0eb0-4a1a-a706-ab1a1f40781b","ios":"levelo://app?vid=d267a553-0eb0-4a1a-a706-ab1a1f40781b"},"vehicle_type_id":"4","last_reported":1702462054,"current_range_meters":5200,"station_id":"","pricing_plan_id":"free"},{"bike_id":"247e10d8-25bb-4af2-a6c9-f65f0fb6436a","system_id":"levelo_inurba_marseille","lat":43.28727,"lon":5.36078,"is_reserved":false,"is_disabled":false,"rental_uris":{"android":"levelo://app?vid=247e10d8-25bb-4af2-a6c9-f65f0fb6436a","ios":"levelo://app?vid=247e10d8-25bb-4af2-a6c9-f65f0fb6436a"},"vehicle_type_id":"4","last_reported":1702462054,"current_range_meters":25600,"station_id":"cki0cbj6b192h4jlfktg","pricing_plan_id":"free"},{"bike_id":"c6f51b3a-e34b-4807-900d-ce4e1dc52ae1","system_id":"levelo_inurba_marseille","lat":43.257079,"lon":5.411051,"is_reserved":false,"is_disabled":false,"rental_uris":{"android":"levelo://app?vid=c6f51b3a-e34b-4807-900d-ce4e1dc52ae1","ios":"levelo://app?vid=c6f51b3a-e34b-4807-900d-ce4e1dc52ae1"},"vehicle_type_id":"4","last_reported":1702462054,"current_range_meters":11200,"station_id":"ce4bhkp2rcd13ifvqgd0","pricing_plan_id":"free"},{"bike_id":"2664540a-62df-46c6-85a7-62261b5674b1","system_id":"levelo_inurba_marseille","lat":43.286593,"lon":5.363346,"is_reserved":false,"is_disabled":false,"rental_uris":{"android":"levelo://app?vid=2664540a-62df-46c6-85a7-62261b5674b1","ios":"levelo://app?vid=2664540a-62df-46c6-85a7-62261b5674b1"},"vehicle_type_id":"4","last_reported":1702462054,"current_range_meters":30400,"station_id":"ce4bhah2rcd13ifvqej0","pricing_plan_id":"free"},{"bike_id":"302a48de-139a-4a79-a939-3b469ec87209","system_id":"levelo_inurba_marseille","lat":43.29021,"lon":5.38639,"is_reserved":false,"is_disabled":false,"rental_uris":{"android":"levelo://app?vid=302a48de-139a-4a79-a939-3b469ec87209","ios":"levelo://app?vid=302a48de-139a-4a79-a939-3b469ec87209"},"vehicle_type_id":"4","last_reported":1702462054,"current_range_meters":0,"station_id":"ce4bh4p2rcd13ifvqe0g","pricing_plan_id":"free"},{"bike_id":"08f16088-71e6-4a15-bf5b-a33dc2e8074a","system_id":"levelo_inurba_marseille","lat":43.291994,"lon":5.392907,"is_reserved":false,"is_disabled":false,"rental_uris":{"android":"levelo://app?vid=08f16088-71e6-4a15-bf5b-a33dc2e8074a","ios":"levelo://app?vid=08f16088-71e6-4a15-bf5b-a33dc2e8074a"},"vehicle_type_id":"4","last_reported":1702462054,"current_range_meters":24400,"station_id":"ce4bh192rcd13ifvqdd0","pricing_plan_id":"free"},{"bike_id":"95b9793a-83d7-4b80-99bc-d6181b68f44f","system_id":"levelo_inurba_marseille","lat":43.28617,"lon":5.351,"is_reserved":false,"is_disabled":false,"rental_uris":{"android":"levelo://app?vid=95b9793a-83d7-4b80-99bc-d6181b68f44f","ios":"levelo://app?vid=95b9793a-83d7-4b80-99bc-d6181b68f44f"},"vehicle_type_id":"4","last_reported":1702462054,"current_range_meters":23200,"station_id":"ce4bhch2rcd13ifvqeug","pricing_plan_id":"free"},{"bike_id":"72daed3d-5ff3-4153-9f56-20fdfd6e38f7","system_id":"levelo_inurba_marseille","lat":43.295713,"lon":5.399639,"is_reserved":false,"is_disabled":false,"rental_uris":{"android":"levelo://app?vid=72daed3d-5ff3-4153-9f56-20fdfd6e38f7","ios":"levelo://app?vid=72daed3d-5ff3-4153-9f56-20fdfd6e38f7"},"vehicle_type_id":"4","last_reported":1702462054,"current_range_meters":28000,"station_id":"ce4bh312rcd13ifvqdj0","pricing_plan_id":"free"},{"bike_id":"b1378e90-4919-4496-a86a-6036eb619aef","system_id":"levelo_inurba_marseille","lat":43.32337,"lon":5.40623,"is_reserved":false,"is_disabled":false,"rental_uris":{"android":"levelo://app?vid=b1378e90-4919-4496-a86a-6036eb619aef","ios":"levelo://app?vid=b1378e90-4919-4496-a86a-6036eb619aef"},"vehicle_type_id":"4","last_reported":1702462054,"current_range_meters":0,"station_id":"ce4bhq92rcd13ifvqhjg","pricing_plan_id":"free"},{"bike_id":"13a66e2e-4e72-4c6b-ad22-ef60f303d3d7","system_id":"levelo_inurba_marseille","lat":43.284787,"lon":5.384116,"is_reserved":false,"is_disabled":false,"rental_uris":{"android":"levelo://app?vid=13a66e2e-4e72-4c6b-ad22-ef60f303d3d7","ios":"levelo://app?vid=13a66e2e-4e72-4c6b-ad22-ef60f303d3d7"},"vehicle_type_id":"4","last_reported":1702462054,"current_range_meters":0,"station_id":"ce4bh512rcd13ifvqe3g","pricing_plan_id":"free"},{"bike_id":"45366f3f-8c9b-42dc-b92d-59b1f0248e10","system_id":"levelo_inurba_marseille","lat":43.284219,"lon":5.3497,"is_reserved":false,"is_disabled":false,"rental_uris":{"android":"levelo://app?vid=45366f3f-8c9b-42dc-b92d-59b1f0248e10","ios":"levelo://app?vid=45366f3f-8c9b-42dc-b92d-59b1f0248e10"},"vehicle_type_id":"4","last_reported":1702462054,"current_range_meters":23200,"station_id":"ce4bhbh2rcd13ifvqepg","pricing_plan_id":"free"},{"bike_id":"d0745363-d4f1-4bd7-9320-546758b8fc47","system_id":"levelo_inurba_marseille","lat":43.282754,"lon":5.350519,"is_reserved":false,"is_disabled":false,"rental_uris":{"android":"levelo://app?vid=d0745363-d4f1-4bd7-9320-546758b8fc47","ios":"levelo://app?vid=d0745363-d4f1-4bd7-9320-546758b8fc47"},"vehicle_type_id":"4","last_reported":1702462054,"current_range_meters":24400,"station_id":"ce4bhbp2rcd13ifvqerg","pricing_plan_id":"free"},{"bike_id":"acf4ee06-ff79-4fdc-b36a-30af73b5e53a","system_id":"levelo_inurba_marseille","lat":43.281044,"lon":5.378308,"is_reserved":false,"is_disabled":false,"rental_uris":{"android":"levelo://app?vid=acf4ee06-ff79-4fdc-b36a-30af73b5e53a","ios":"levelo://app?vid=acf4ee06-ff79-4fdc-b36a-30af73b5e53a"},"vehicle_type_id":"4","last_reported":1702462054,"current_range_meters":25200,"station_id":"ce4bha12rcd13ifvqee0","pricing_plan_id":"free"},{"bike_id":"1ed7e239-c75b-4e0a-87a8-ce62da9b112d","system_id":"levelo_inurba_marseille","lat":43.283502,"lon":5.386471,"is_reserved":false,"is_disabled":false,"rental_uris":{"android":"levelo://app?vid=1ed7e239-c75b-4e0a-87a8-ce62da9b112d","ios":"levelo://app?vid=1ed7e239-c75b-4e0a-87a8-ce62da9b112d"},"vehicle_type_id":"4","last_reported":1702462054,"current_range_meters":4800,"station_id":"ce4bh492rcd13ifvqdvg","pricing_plan_id":"free"},{"bike_id":"ed82ce60-fd08-4e84-8aa2-28e9b70cc926","system_id":"levelo_inurba_marseille","lat":43.310785,"lon":5.424305,"is_reserved":false,"is_disabled":false,"rental_uris":{"android":"levelo://app?vid=ed82ce60-fd08-4e84-8aa2-28e9b70cc926","ios":"levelo://app?vid=ed82ce60-fd08-4e84-8aa2-28e9b70cc926"},"vehicle_type_id":"4","last_reported":1702462054,"current_range_meters":0,"station_id":"ce4bhp92rcd13ifvqhag","pricing_plan_id":"free"},{"bike_id":"ad943e33-beb6-4130-8767-ff328f6566e9","system_id":"levelo_inurba_marseille","lat":43.2904,"lon":5.399673,"is_reserved":false,"is_disabled":false,"rental_uris":{"android":"levelo://app?vid=ad943e33-beb6-4130-8767-ff328f6566e9","ios":"levelo://app?vid=ad943e33-beb6-4130-8767-ff328f6566e9"},"vehicle_type_id":"4","last_reported":1702462054,"current_range_meters":0,"station_id":"ce4bh392rcd13ifvqdm0","pricing_plan_id":"free"},{"bike_id":"23df6c9a-5942-4676-a40b-d566eab0de29","system_id":"levelo_inurba_marseille","lat":43.284462,"lon":5.392121,"is_reserved":false,"is_disabled":false,"rental_uris":{"android":"levelo://app?vid=23df6c9a-5942-4676-a40b-d566eab0de29","ios":"levelo://app?vid=23df6c9a-5942-4676-a40b-d566eab0de29"},"vehicle_type_id":"4","last_reported":1702462054,"current_range_meters":19200,"station_id":"ce4bhoh2rcd13ifvqh5g","pricing_plan_id":"free"},{"bike_id":"a9707593-8b18-42c9-a58c-d0c6dcf296c7","system_id":"levelo_inurba_marseille","lat":43.284462,"lon":5.392121,"is_reserved":false,"is_disabled":false,"rental_uris":{"android":"levelo://app?vid=a9707593-8b18-42c9-a58c-d0c6dcf296c7","ios":"levelo://app?vid=a9707593-8b18-42c9-a58c-d0c6dcf296c7"},"vehicle_type_id":"4","last_reported":1702462054,"current_range_meters":4400,"station_id":"ce4bhoh2rcd13ifvqh5g","pricing_plan_id":"free"},{"bike_id":"e7133296-0a82-4196-a274-c2aa25d2a808","system_id":"levelo_inurba_marseille","lat":43.284462,"lon":5.392121,"is_reserved":false,"is_disabled":false,"rental_uris":{"android":"levelo://app?vid=e7133296-0a82-4196-a274-c2aa25d2a808","ios":"levelo://app?vid=e7133296-0a82-4196-a274-c2aa25d2a808"},"vehicle_type_id":"4","last_reported":1702462054,"current_range_meters":18400,"station_id":"ce4bhoh2rcd13ifvqh5g","pricing_plan_id":"free"},{"bike_id":"c2a97232-1ab8-4ede-9f0c-879f2c3be379","system_id":"levelo_inurba_marseille","lat":43.28573,"lon":5.394992,"is_reserved":false,"is_disabled":false,"rental_uris":{"android":"levelo://app?vid=c2a97232-1ab8-4ede-9f0c-879f2c3be379","ios":"levelo://app?vid=c2a97232-1ab8-4ede-9f0c-879f2c3be379"},"vehicle_type_id":"4","last_reported":1702462054,"current_range_meters":26000,"station_id":"ce4bh292rcd13ifvqdg0","pricing_plan_id":"free"},{"bike_id":"3a4d2c9d-3dd0-44b2-bd24-6f65c04f3652","system_id":"levelo_inurba_marseille","lat":43.326605,"lon":5.409903,"is_reserved":false,"is_disabled":false,"rental_uris":{"android":"levelo://app?vid=3a4d2c9d-3dd0-44b2-bd24-6f65c04f3652","ios":"levelo://app?vid=3a4d2c9d-3dd0-44b2-bd24-6f65c04f3652"},"vehicle_type_id":"4","last_reported":1702462054,"current_range_meters":27600,"station_id":"ce4bhpp2rcd13ifvqhgg","pricing_plan_id":"free"},{"bike_id":"7b12e561-7dea-43fb-a938-03acb4d64507","system_id":"levelo_inurba_marseille","lat":43.304188,"lon":5.412904,"is_reserved":false,"is_disabled":false,"rental_uris":{"android":"levelo://app?vid=7b12e561-7dea-43fb-a938-03acb4d64507","ios":"levelo://app?vid=7b12e561-7dea-43fb-a938-03acb4d64507"},"vehicle_type_id":"4","last_reported":1702462054,"current_range_meters":30400,"station_id":"ce4bhop2rcd13ifvqh8g","pricing_plan_id":"free"},{"bike_id":"009ddf1c-589e-4881-b071-bc4f7ca3186d","system_id":"levelo_inurba_marseille","lat":43.279742,"lon":5.38744,"is_reserved":false,"is_disabled":false,"rental_uris":{"android":"levelo://app?vid=009ddf1c-589e-4881-b071-bc4f7ca3186d","ios":"levelo://app?vid=009ddf1c-589e-4881-b071-bc4f7ca3186d"},"vehicle_type_id":"4","last_reported":1702462054,"current_range_meters":23600,"station_id":"ce4bhg12rcd13ifvqf80","pricing_plan_id":"free"},{"bike_id":"7c178209-6470-420c-be24-0913cfd03e4c","system_id":"levelo_inurba_marseille","lat":43.279742,"lon":5.38744,"is_reserved":false,"is_disabled":false,"rental_uris":{"android":"levelo://app?vid=7c178209-6470-420c-be24-0913cfd03e4c","ios":"levelo://app?vid=7c178209-6470-420c-be24-0913cfd03e4c"},"vehicle_type_id":"4","last_reported":1702462054,"current_range_meters":30400,"station_id":"ce4bhg12rcd13ifvqf80","pricing_plan_id":"free"},{"bike_id":"b10e3f6b-78c7-4595-ab64-be599c6441c7","system_id":"levelo_inurba_marseille","lat":43.279742,"lon":5.38744,"is_reserved":false,"is_disabled":false,"rental_uris":{"android":"levelo://app?vid=b10e3f6b-78c7-4595-ab64-be599c6441c7","ios":"levelo://app?vid=b10e3f6b-78c7-4595-ab64-be599c6441c7"},"vehicle_type_id":"4","last_reported":1702462054,"current_range_meters":800,"station_id":"ce4bhg12rcd13ifvqf80","pricing_plan_id":"free"},{"bike_id":"4f9077e6-8330-404b-9708-862e13be6aff","system_id":"levelo_inurba_marseille","lat":43.325233,"lon":5.414318,"is_reserved":false,"is_disabled":false,"rental_uris":{"android":"levelo://app?vid=4f9077e6-8330-404b-9708-862e13be6aff","ios":"levelo://app?vid=4f9077e6-8330-404b-9708-862e13be6aff"},"vehicle_type_id":"4","last_reported":1702462054,"current_range_meters":14000,"station_id":"ce4bhq12rcd13ifvqhhg","pricing_plan_id":"free"},{"bike_id":"fada94e6-0320-4053-aa9a-9b8b71a3a503","system_id":"levelo_inurba_marseille","lat":43.325243,"lon":5.414326,"is_reserved":false,"is_disabled":false,"rental_uris":{"android":"levelo://app?vid=fada94e6-0320-4053-aa9a-9b8b71a3a503","ios":"levelo://app?vid=fada94e6-0320-4053-aa9a-9b8b71a3a503"},"vehicle_type_id":"4","last_reported":1702462054,"current_range_meters":14000,"station_id":"ce4bhq12rcd13ifvqhhg","pricing_plan_id":"free"},{"bike_id":"c6aca481-1eb7-4e97-91b4-8a13adfac883","system_id":"levelo_inurba_marseille","lat":43.325233,"lon":5.414318,"is_reserved":false,"is_disabled":false,"rental_uris":{"android":"levelo://app?vid=c6aca481-1eb7-4e97-91b4-8a13adfac883","ios":"levelo://app?vid=c6aca481-1eb7-4e97-91b4-8a13adfac883"},"vehicle_type_id":"4","last_reported":1702462054,"current_range_meters":28800,"station_id":"ce4bhq12rcd13ifvqhhg","pricing_plan_id":"free"},{"bike_id":"cdad76ba-aaf3-43f5-bf77-e53b8e256e12","system_id":"levelo_inurba_marseille","lat":43.325233,"lon":5.414318,"is_reserved":false,"is_disabled":false,"rental_uris":{"android":"levelo://app?vid=cdad76ba-aaf3-43f5-bf77-e53b8e256e12","ios":"levelo://app?vid=cdad76ba-aaf3-43f5-bf77-e53b8e256e12"},"vehicle_type_id":"4","last_reported":1702462054,"current_range_meters":31200,"station_id":"ce4bhq12rcd13ifvqhhg","pricing_plan_id":"free"},{"bike_id":"13ed7864-5e28-4879-bef0-43ec97cea419","system_id":"levelo_inurba_marseille","lat":43.325243,"lon":5.414326,"is_reserved":false,"is_disabled":false,"rental_uris":{"android":"levelo://app?vid=13ed7864-5e28-4879-bef0-43ec97cea419","ios":"levelo://app?vid=13ed7864-5e28-4879-bef0-43ec97cea419"},"vehicle_type_id":"4","last_reported":1702462054,"current_range_meters":20000,"station_id":"ce4bhq12rcd13ifvqhhg","pricing_plan_id":"free"},{"bike_id":"8e814ecb-5dbf-4da1-91b3-8823fe935348","system_id":"levelo_inurba_marseille","lat":43.325233,"lon":5.414318,"is_reserved":false,"is_disabled":false,"rental_uris":{"android":"levelo://app?vid=8e814ecb-5dbf-4da1-91b3-8823fe935348","ios":"levelo://app?vid=8e814ecb-5dbf-4da1-91b3-8823fe935348"},"vehicle_type_id":"4","last_reported":1702462054,"current_range_meters":28400,"station_id":"ce4bhq12rcd13ifvqhhg","pricing_plan_id":"free"},{"bike_id":"bca5a27f-c25f-433b-ad08-f15021e37e7e","system_id":"levelo_inurba_marseille","lat":43.325243,"lon":5.414326,"is_reserved":false,"is_disabled":false,"rental_uris":{"android":"levelo://app?vid=bca5a27f-c25f-433b-ad08-f15021e37e7e","ios":"levelo://app?vid=bca5a27f-c25f-433b-ad08-f15021e37e7e"},"vehicle_type_id":"4","last_reported":1702462054,"current_range_meters":31200,"station_id":"ce4bhq12rcd13ifvqhhg","pricing_plan_id":"free"},{"bike_id":"7fef914d-05f6-48cb-9574-76e6499d4dc4","system_id":"levelo_inurba_marseille","lat":43.325243,"lon":5.414326,"is_reserved":false,"is_disabled":false,"rental_uris":{"android":"levelo://app?vid=7fef914d-05f6-48cb-9574-76e6499d4dc4","ios":"levelo://app?vid=7fef914d-05f6-48cb-9574-76e6499d4dc4"},"vehicle_type_id":"4","last_reported":1702462054,"current_range_meters":23200,"station_id":"ce4bhq12rcd13ifvqhhg","pricing_plan_id":"free"},{"bike_id":"c50cfac3-e431-4b26-b4cb-4f9aa0dae3fd","system_id":"levelo_inurba_marseille","lat":43.280784,"lon":5.396622,"is_reserved":false,"is_disabled":false,"rental_uris":{"android":"levelo://app?vid=c50cfac3-e431-4b26-b4cb-4f9aa0dae3fd","ios":"levelo://app?vid=c50cfac3-e431-4b26-b4cb-4f9aa0dae3fd"},"vehicle_type_id":"4","last_reported":1702462054,"current_range_meters":800,"station_id":"ce4bho12rcd13ifvqh2g","pricing_plan_id":"free"},{"bike_id":"a2193a31-972a-4444-af9b-13db93a15aa4","system_id":"levelo_inurba_marseille","lat":43.278399,"lon":5.392139,"is_reserved":false,"is_disabled":false,"rental_uris":{"android":"levelo://app?vid=a2193a31-972a-4444-af9b-13db93a15aa4","ios":"levelo://app?vid=a2193a31-972a-4444-af9b-13db93a15aa4"},"vehicle_type_id":"4","last_reported":1702462054,"current_range_meters":30000,"station_id":"ce4bhjp2rcd13ifvqga0","pricing_plan_id":"free"},{"bike_id":"2a6acaf0-1a89-462b-b361-30003cd1d988","system_id":"levelo_inurba_marseille","lat":43.278401,"lon":5.392152,"is_reserved":false,"is_disabled":false,"rental_uris":{"android":"levelo://app?vid=2a6acaf0-1a89-462b-b361-30003cd1d988","ios":"levelo://app?vid=2a6acaf0-1a89-462b-b361-30003cd1d988"},"vehicle_type_id":"4","last_reported":1702462054,"current_range_meters":27200,"station_id":"ce4bhjp2rcd13ifvqga0","pricing_plan_id":"free"},{"bike_id":"9f4aac77-b9fd-4e02-8da1-4b39cb263313","system_id":"levelo_inurba_marseille","lat":43.336148,"lon":5.410349,"is_reserved":false,"is_disabled":false,"rental_uris":{"android":"levelo://app?vid=9f4aac77-b9fd-4e02-8da1-4b39cb263313","ios":"levelo://app?vid=9f4aac77-b9fd-4e02-8da1-4b39cb263313"},"vehicle_type_id":"4","last_reported":1702462054,"current_range_meters":16400,"station_id":"ce4bhqh2rcd13ifvqhmg","pricing_plan_id":"free"},{"bike_id":"b2c7d88c-210a-4321-850f-bfd0a5784e43","system_id":"levelo_inurba_marseille","lat":43.33606,"lon":5.41031,"is_reserved":false,"is_disabled":false,"rental_uris":{"android":"levelo://app?vid=b2c7d88c-210a-4321-850f-bfd0a5784e43","ios":"levelo://app?vid=b2c7d88c-210a-4321-850f-bfd0a5784e43"},"vehicle_type_id":"4","last_reported":1702462054,"current_range_meters":26000,"station_id":"ce4bhqh2rcd13ifvqhmg","pricing_plan_id":"free"},{"bike_id":"615d6c0f-be02-4cf9-b9de-3f3c234ab430","system_id":"levelo_inurba_marseille","lat":43.336148,"lon":5.410349,"is_reserved":false,"is_disabled":false,"rental_uris":{"android":"levelo://app?vid=615d6c0f-be02-4cf9-b9de-3f3c234ab430","ios":"levelo://app?vid=615d6c0f-be02-4cf9-b9de-3f3c234ab430"},"vehicle_type_id":"4","last_reported":1702462054,"current_range_meters":18400,"station_id":"ce4bhqh2rcd13ifvqhmg","pricing_plan_id":"free"},{"bike_id":"e5b15f66-7fec-45f1-a30a-a8d4a59bfbf8","system_id":"levelo_inurba_marseille","lat":43.336148,"lon":5.410349,"is_reserved":false,"is_disabled":false,"rental_uris":{"android":"levelo://app?vid=e5b15f66-7fec-45f1-a30a-a8d4a59bfbf8","ios":"levelo://app?vid=e5b15f66-7fec-45f1-a30a-a8d4a59bfbf8"},"vehicle_type_id":"4","last_reported":1702462054,"current_range_meters":10400,"station_id":"ce4bhqh2rcd13ifvqhmg","pricing_plan_id":"free"},{"bike_id":"2ebed63a-d06c-4bf2-8fe7-0a8769e4a4fb","system_id":"levelo_inurba_marseille","lat":43.336148,"lon":5.410349,"is_reserved":false,"is_disabled":false,"rental_uris":{"android":"levelo://app?vid=2ebed63a-d06c-4bf2-8fe7-0a8769e4a4fb","ios":"levelo://app?vid=2ebed63a-d06c-4bf2-8fe7-0a8769e4a4fb"},"vehicle_type_id":"4","last_reported":1702462054,"current_range_meters":18400,"station_id":"ce4bhqh2rcd13ifvqhmg","pricing_plan_id":"free"},{"bike_id":"c6d9375e-66a7-484b-b3d1-29372aeefeb1","system_id":"levelo_inurba_marseille","lat":43.336148,"lon":5.410349,"is_reserved":false,"is_disabled":false,"rental_uris":{"android":"levelo://app?vid=c6d9375e-66a7-484b-b3d1-29372aeefeb1","ios":"levelo://app?vid=c6d9375e-66a7-484b-b3d1-29372aeefeb1"},"vehicle_type_id":"4","last_reported":1702462054,"current_range_meters":28400,"station_id":"ce4bhqh2rcd13ifvqhmg","pricing_plan_id":"free"},{"bike_id":"9a3fe78b-0a72-4ac5-ba6a-5017d86f408b","system_id":"levelo_inurba_marseille","lat":43.336148,"lon":5.410349,"is_reserved":false,"is_disabled":false,"rental_uris":{"android":"levelo://app?vid=9a3fe78b-0a72-4ac5-ba6a-5017d86f408b","ios":"levelo://app?vid=9a3fe78b-0a72-4ac5-ba6a-5017d86f408b"},"vehicle_type_id":"4","last_reported":1702462054,"current_range_meters":19600,"station_id":"ce4bhqh2rcd13ifvqhmg","pricing_plan_id":"free"},{"bike_id":"fe0a789f-e57a-472a-b8c8-b3b0f92ab63e","system_id":"levelo_inurba_marseille","lat":43.317121,"lon":5.423936,"is_reserved":false,"is_disabled":false,"rental_uris":{"android":"levelo://app?vid=fe0a789f-e57a-472a-b8c8-b3b0f92ab63e","ios":"levelo://app?vid=fe0a789f-e57a-472a-b8c8-b3b0f92ab63e"},"vehicle_type_id":"4","last_reported":1702462054,"current_range_meters":27600,"station_id":"ce4bhp92rcd13ifvqhbg","pricing_plan_id":"free"},{"bike_id":"3f2ff6f7-f4b7-4970-a83f-c76ac30a4fae","system_id":"levelo_inurba_marseille","lat":43.310832,"lon":5.424281,"is_reserved":false,"is_disabled":false,"rental_uris":{"android":"levelo://app?vid=3f2ff6f7-f4b7-4970-a83f-c76ac30a4fae","ios":"levelo://app?vid=3f2ff6f7-f4b7-4970-a83f-c76ac30a4fae"},"vehicle_type_id":"4","last_reported":1702462054,"current_range_meters":10800,"station_id":"","pricing_plan_id":"free"},{"bike_id":"e15fcb76-150b-4e94-ba14-1765fbabad44","system_id":"levelo_inurba_marseille","lat":43.310785,"lon":5.424305,"is_reserved":false,"is_disabled":false,"rental_uris":{"android":"levelo://app?vid=e15fcb76-150b-4e94-ba14-1765fbabad44","ios":"levelo://app?vid=e15fcb76-150b-4e94-ba14-1765fbabad44"},"vehicle_type_id":"4","last_reported":1702462054,"current_range_meters":30800,"station_id":"ce4bhp92rcd13ifvqhag","pricing_plan_id":"free"},{"bike_id":"b1c028eb-0fe1-4afa-b35c-b9783a0e9537","system_id":"levelo_inurba_marseille","lat":43.31723,"lon":5.42405,"is_reserved":false,"is_disabled":false,"rental_uris":{"android":"levelo://app?vid=b1c028eb-0fe1-4afa-b35c-b9783a0e9537","ios":"levelo://app?vid=b1c028eb-0fe1-4afa-b35c-b9783a0e9537"},"vehicle_type_id":"4","last_reported":1702462054,"current_range_meters":2400,"station_id":"ce4bhp92rcd13ifvqhbg","pricing_plan_id":"free"},{"bike_id":"280c51f4-a63c-441a-8bb6-1199267e463c","system_id":"levelo_inurba_marseille","lat":43.340804,"lon":5.410219,"is_reserved":false,"is_disabled":false,"rental_uris":{"android":"levelo://app?vid=280c51f4-a63c-441a-8bb6-1199267e463c","ios":"levelo://app?vid=280c51f4-a63c-441a-8bb6-1199267e463c"},"vehicle_type_id":"4","last_reported":1702462054,"current_range_meters":26800,"station_id":"ce4bhqh2rcd13ifvqhlg","pricing_plan_id":"free"},{"bike_id":"3ca2c2d2-99b0-4aa6-a05d-e30f02e6a7fb","system_id":"levelo_inurba_marseille","lat":43.27588,"lon":5.39495,"is_reserved":false,"is_disabled":false,"rental_uris":{"android":"levelo://app?vid=3ca2c2d2-99b0-4aa6-a05d-e30f02e6a7fb","ios":"levelo://app?vid=3ca2c2d2-99b0-4aa6-a05d-e30f02e6a7fb"},"vehicle_type_id":"4","last_reported":1702462054,"current_range_meters":17200,"station_id":"","pricing_plan_id":"free"},{"bike_id":"32a35bb0-1c57-46be-b42d-f9548de481a1","system_id":"levelo_inurba_marseille","lat":43.273052,"lon":5.390803,"is_reserved":false,"is_disabled":false,"rental_uris":{"android":"levelo://app?vid=32a35bb0-1c57-46be-b42d-f9548de481a1","ios":"levelo://app?vid=32a35bb0-1c57-46be-b42d-f9548de481a1"},"vehicle_type_id":"4","last_reported":1702462054,"current_range_meters":16000,"station_id":"","pricing_plan_id":"free"},{"bike_id":"b570eaa6-73a8-460a-a0b7-1c0a1b9e5833","system_id":"levelo_inurba_marseille","lat":43.295523,"lon":5.422926,"is_reserved":false,"is_disabled":false,"rental_uris":{"android":"levelo://app?vid=b570eaa6-73a8-460a-a0b7-1c0a1b9e5833","ios":"levelo://app?vid=b570eaa6-73a8-460a-a0b7-1c0a1b9e5833"},"vehicle_type_id":"4","last_reported":1702462054,"current_range_meters":26800,"station_id":"ce4bhph2rcd13ifvqhdg","pricing_plan_id":"free"},{"bike_id":"07a18512-fe87-4d09-9920-18be8476b972","system_id":"levelo_inurba_marseille","lat":43.272124,"lon":5.391768,"is_reserved":false,"is_disabled":false,"rental_uris":{"android":"levelo://app?vid=07a18512-fe87-4d09-9920-18be8476b972","ios":"levelo://app?vid=07a18512-fe87-4d09-9920-18be8476b972"},"vehicle_type_id":"4","last_reported":1702462054,"current_range_meters":9200,"station_id":"ce4bhhp2rcd13ifvqfm0","pricing_plan_id":"free"},{"bike_id":"afeea8b9-bea8-4ed0-a644-9bd47d0f1f15","system_id":"levelo_inurba_marseille","lat":43.272116,"lon":5.391763,"is_reserved":false,"is_disabled":false,"rental_uris":{"android":"levelo://app?vid=afeea8b9-bea8-4ed0-a644-9bd47d0f1f15","ios":"levelo://app?vid=afeea8b9-bea8-4ed0-a644-9bd47d0f1f15"},"vehicle_type_id":"4","last_reported":1702462054,"current_range_meters":19200,"station_id":"ce4bhhp2rcd13ifvqfm0","pricing_plan_id":"free"},{"bike_id":"e35b6d8c-d466-4c60-8328-5b9d097f4293","system_id":"levelo_inurba_marseille","lat":43.272118,"lon":5.391758,"is_reserved":false,"is_disabled":false,"rental_uris":{"android":"levelo://app?vid=e35b6d8c-d466-4c60-8328-5b9d097f4293","ios":"levelo://app?vid=e35b6d8c-d466-4c60-8328-5b9d097f4293"},"vehicle_type_id":"4","last_reported":1702462054,"current_range_meters":26800,"station_id":"ce4bhhp2rcd13ifvqfm0","pricing_plan_id":"free"},{"bike_id":"07cc6a37-2ab9-4c26-ae00-0a9db5c4fca9","system_id":"levelo_inurba_marseille","lat":43.272124,"lon":5.391768,"is_reserved":false,"is_disabled":false,"rental_uris":{"android":"levelo://app?vid=07cc6a37-2ab9-4c26-ae00-0a9db5c4fca9","ios":"levelo://app?vid=07cc6a37-2ab9-4c26-ae00-0a9db5c4fca9"},"vehicle_type_id":"4","last_reported":1702462054,"current_range_meters":26000,"station_id":"ce4bhhp2rcd13ifvqfm0","pricing_plan_id":"free"},{"bike_id":"d7a6c85d-a811-4fa8-800a-8c7d7fbad1e5","system_id":"levelo_inurba_marseille","lat":43.28623,"lon":5.4171,"is_reserved":false,"is_disabled":false,"rental_uris":{"android":"levelo://app?vid=d7a6c85d-a811-4fa8-800a-8c7d7fbad1e5","ios":"levelo://app?vid=d7a6c85d-a811-4fa8-800a-8c7d7fbad1e5"},"vehicle_type_id":"4","last_reported":1702462054,"current_range_meters":0,"station_id":"","pricing_plan_id":"free"},{"bike_id":"9917382d-d253-4524-834b-5171fe0b9392","system_id":"levelo_inurba_marseille","lat":43.278128,"lon":5.407195,"is_reserved":false,"is_disabled":false,"rental_uris":{"android":"levelo://app?vid=9917382d-d253-4524-834b-5171fe0b9392","ios":"levelo://app?vid=9917382d-d253-4524-834b-5171fe0b9392"},"vehicle_type_id":"4","last_reported":1702462054,"current_range_meters":26000,"station_id":"ce4bhnh2rcd13ifvqgtg","pricing_plan_id":"free"},{"bike_id":"e9b64e48-2906-4cee-bb0b-04fb577a4c2b","system_id":"levelo_inurba_marseille","lat":43.2668,"lon":5.38267,"is_reserved":false,"is_disabled":false,"rental_uris":{"android":"levelo://app?vid=e9b64e48-2906-4cee-bb0b-04fb577a4c2b","ios":"levelo://app?vid=e9b64e48-2906-4cee-bb0b-04fb577a4c2b"},"vehicle_type_id":"4","last_reported":1702462054,"current_range_meters":9200,"station_id":"ce4bhg92rcd13ifvqf90","pricing_plan_id":"free"},{"bike_id":"1279f38c-9ffd-4f96-b2e2-0d61915e3e76","system_id":"levelo_inurba_marseille","lat":43.26681,"lon":5.382694,"is_reserved":false,"is_disabled":false,"rental_uris":{"android":"levelo://app?vid=1279f38c-9ffd-4f96-b2e2-0d61915e3e76","ios":"levelo://app?vid=1279f38c-9ffd-4f96-b2e2-0d61915e3e76"},"vehicle_type_id":"4","last_reported":1702462054,"current_range_meters":14400,"station_id":"ce4bhg92rcd13ifvqf90","pricing_plan_id":"free"},{"bike_id":"5f9ff04e-3474-4f93-bf8e-d7d9ee565e72","system_id":"levelo_inurba_marseille","lat":43.279947,"lon":5.41651,"is_reserved":false,"is_disabled":false,"rental_uris":{"android":"levelo://app?vid=5f9ff04e-3474-4f93-bf8e-d7d9ee565e72","ios":"levelo://app?vid=5f9ff04e-3474-4f93-bf8e-d7d9ee565e72"},"vehicle_type_id":"4","last_reported":1702462054,"current_range_meters":19200,"station_id":"ce4bho12rcd13ifvqh1g","pricing_plan_id":"free"},{"bike_id":"dcb63836-c70a-443a-832e-59bb779956b3","system_id":"levelo_inurba_marseille","lat":43.267966,"lon":5.393976,"is_reserved":false,"is_disabled":false,"rental_uris":{"android":"levelo://app?vid=dcb63836-c70a-443a-832e-59bb779956b3","ios":"levelo://app?vid=dcb63836-c70a-443a-832e-59bb779956b3"},"vehicle_type_id":"4","last_reported":1702462054,"current_range_meters":25600,"station_id":"ce4bhh12rcd13ifvqfg0","pricing_plan_id":"free"},{"bike_id":"43a4137c-2f74-434a-8b3b-414eeea4f039","system_id":"levelo_inurba_marseille","lat":43.27996,"lon":5.416624,"is_reserved":false,"is_disabled":false,"rental_uris":{"android":"levelo://app?vid=43a4137c-2f74-434a-8b3b-414eeea4f039","ios":"levelo://app?vid=43a4137c-2f74-434a-8b3b-414eeea4f039"},"vehicle_type_id":"4","last_reported":1702462054,"current_range_meters":22800,"station_id":"ce4bho12rcd13ifvqh1g","pricing_plan_id":"free"},{"bike_id":"04b97f10-d3af-4269-9d10-c44d6e9e0130","system_id":"levelo_inurba_marseille","lat":43.26942,"lon":5.40251,"is_reserved":false,"is_disabled":false,"rental_uris":{"android":"levelo://app?vid=04b97f10-d3af-4269-9d10-c44d6e9e0130","ios":"levelo://app?vid=04b97f10-d3af-4269-9d10-c44d6e9e0130"},"vehicle_type_id":"4","last_reported":1702462054,"current_range_meters":8000,"station_id":"cjm6bp8fraef2m0cb0m0","pricing_plan_id":"free"},{"bike_id":"275c692c-4e8c-4cea-872d-9023693f571c","system_id":"levelo_inurba_marseille","lat":43.26202,"lon":5.379299,"is_reserved":false,"is_disabled":false,"rental_uris":{"android":"levelo://app?vid=275c692c-4e8c-4cea-872d-9023693f571c","ios":"levelo://app?vid=275c692c-4e8c-4cea-872d-9023693f571c"},"vehicle_type_id":"4","last_reported":1702462054,"current_range_meters":27600,"station_id":"ce4bhjp2rcd13ifvqg90","pricing_plan_id":"free"},{"bike_id":"b817a5a9-a7c0-45af-a6a2-2048cf2896e3","system_id":"levelo_inurba_marseille","lat":43.271368,"lon":5.40928,"is_reserved":false,"is_disabled":false,"rental_uris":{"android":"levelo://app?vid=b817a5a9-a7c0-45af-a6a2-2048cf2896e3","ios":"levelo://app?vid=b817a5a9-a7c0-45af-a6a2-2048cf2896e3"},"vehicle_type_id":"4","last_reported":1702462054,"current_range_meters":11200,"station_id":"ce4bhl12rcd13ifvqgf0","pricing_plan_id":"free"},{"bike_id":"79588488-9f3a-4d10-af96-084a21295070","system_id":"levelo_inurba_marseille","lat":43.260219,"lon":5.37546,"is_reserved":false,"is_disabled":false,"rental_uris":{"android":"levelo://app?vid=79588488-9f3a-4d10-af96-084a21295070","ios":"levelo://app?vid=79588488-9f3a-4d10-af96-084a21295070"},"vehicle_type_id":"4","last_reported":1702462054,"current_range_meters":21200,"station_id":"ce4bhgh2rcd13ifvqfa0","pricing_plan_id":"free"},{"bike_id":"80ea06c0-d1ae-493c-b766-91325362e453","system_id":"levelo_inurba_marseille","lat":43.260219,"lon":5.37546,"is_reserved":false,"is_disabled":false,"rental_uris":{"android":"levelo://app?vid=80ea06c0-d1ae-493c-b766-91325362e453","ios":"levelo://app?vid=80ea06c0-d1ae-493c-b766-91325362e453"},"vehicle_type_id":"4","last_reported":1702462054,"current_range_meters":5200,"station_id":"ce4bhgh2rcd13ifvqfa0","pricing_plan_id":"free"},{"bike_id":"383e139c-3bb6-4daf-a45c-7a9d4e30f140","system_id":"levelo_inurba_marseille","lat":43.281548,"lon":5.42643,"is_reserved":false,"is_disabled":false,"rental_uris":{"android":"levelo://app?vid=383e139c-3bb6-4daf-a45c-7a9d4e30f140","ios":"levelo://app?vid=383e139c-3bb6-4daf-a45c-7a9d4e30f140"},"vehicle_type_id":"4","last_reported":1702462054,"current_range_meters":26400,"station_id":"ce4bhnh2rcd13ifvqgug","pricing_plan_id":"free"},{"bike_id":"22629fef-dcbc-451f-99d9-ae21da47c622","system_id":"levelo_inurba_marseille","lat":43.28149,"lon":5.42652,"is_reserved":false,"is_disabled":false,"rental_uris":{"android":"levelo://app?vid=22629fef-dcbc-451f-99d9-ae21da47c622","ios":"levelo://app?vid=22629fef-dcbc-451f-99d9-ae21da47c622"},"vehicle_type_id":"4","last_reported":1702462054,"current_range_meters":11200,"station_id":"ce4bhnh2rcd13ifvqgug","pricing_plan_id":"free"},{"bike_id":"145ba03e-f3d6-4f34-83d2-a2ba7062a026","system_id":"levelo_inurba_marseille","lat":43.275028,"lon":5.424534,"is_reserved":false,"is_disabled":false,"rental_uris":{"android":"levelo://app?vid=145ba03e-f3d6-4f34-83d2-a2ba7062a026","ios":"levelo://app?vid=145ba03e-f3d6-4f34-83d2-a2ba7062a026"},"vehicle_type_id":"4","last_reported":1702462054,"current_range_meters":21600,"station_id":"ce4bhn92rcd13ifvqgrg","pricing_plan_id":"free"},{"bike_id":"90d5fbb3-db78-4dbf-b663-2e69a4f8cc1b","system_id":"levelo_inurba_marseille","lat":43.275028,"lon":5.424534,"is_reserved":false,"is_disabled":false,"rental_uris":{"android":"levelo://app?vid=90d5fbb3-db78-4dbf-b663-2e69a4f8cc1b","ios":"levelo://app?vid=90d5fbb3-db78-4dbf-b663-2e69a4f8cc1b"},"vehicle_type_id":"4","last_reported":1702462054,"current_range_meters":24800,"station_id":"ce4bhn92rcd13ifvqgrg","pricing_plan_id":"free"},{"bike_id":"96435139-4e80-4111-a2d3-eddd6fd8d6da","system_id":"levelo_inurba_marseille","lat":43.275028,"lon":5.424534,"is_reserved":false,"is_disabled":false,"rental_uris":{"android":"levelo://app?vid=96435139-4e80-4111-a2d3-eddd6fd8d6da","ios":"levelo://app?vid=96435139-4e80-4111-a2d3-eddd6fd8d6da"},"vehicle_type_id":"4","last_reported":1702462054,"current_range_meters":10400,"station_id":"ce4bhn92rcd13ifvqgrg","pricing_plan_id":"free"},{"bike_id":"cce728e5-10f1-441c-af03-90a0c1e29896","system_id":"levelo_inurba_marseille","lat":43.275028,"lon":5.424534,"is_reserved":false,"is_disabled":false,"rental_uris":{"android":"levelo://app?vid=cce728e5-10f1-441c-af03-90a0c1e29896","ios":"levelo://app?vid=cce728e5-10f1-441c-af03-90a0c1e29896"},"vehicle_type_id":"4","last_reported":1702462054,"current_range_meters":22800,"station_id":"ce4bhn92rcd13ifvqgrg","pricing_plan_id":"free"},{"bike_id":"55676f63-e2aa-41d4-a9aa-18ad58bf432e","system_id":"levelo_inurba_marseille","lat":43.275028,"lon":5.424534,"is_reserved":false,"is_disabled":false,"rental_uris":{"android":"levelo://app?vid=55676f63-e2aa-41d4-a9aa-18ad58bf432e","ios":"levelo://app?vid=55676f63-e2aa-41d4-a9aa-18ad58bf432e"},"vehicle_type_id":"4","last_reported":1702462054,"current_range_meters":31200,"station_id":"ce4bhn92rcd13ifvqgrg","pricing_plan_id":"free"},{"bike_id":"30ad3222-c02e-46dc-9cb8-03a31a79a834","system_id":"levelo_inurba_marseille","lat":43.275028,"lon":5.424534,"is_reserved":false,"is_disabled":false,"rental_uris":{"android":"levelo://app?vid=30ad3222-c02e-46dc-9cb8-03a31a79a834","ios":"levelo://app?vid=30ad3222-c02e-46dc-9cb8-03a31a79a834"},"vehicle_type_id":"4","last_reported":1702462054,"current_range_meters":22800,"station_id":"ce4bhn92rcd13ifvqgrg","pricing_plan_id":"free"},{"bike_id":"edf103af-f9ea-4edb-a620-2936127ea68c","system_id":"levelo_inurba_marseille","lat":43.275028,"lon":5.424534,"is_reserved":false,"is_disabled":false,"rental_uris":{"android":"levelo://app?vid=edf103af-f9ea-4edb-a620-2936127ea68c","ios":"levelo://app?vid=edf103af-f9ea-4edb-a620-2936127ea68c"},"vehicle_type_id":"4","last_reported":1702462054,"current_range_meters":22800,"station_id":"ce4bhn92rcd13ifvqgrg","pricing_plan_id":"free"},{"bike_id":"52f7521e-0075-46ee-a221-ef2c80e3548a","system_id":"levelo_inurba_marseille","lat":43.275028,"lon":5.424534,"is_reserved":false,"is_disabled":false,"rental_uris":{"android":"levelo://app?vid=52f7521e-0075-46ee-a221-ef2c80e3548a","ios":"levelo://app?vid=52f7521e-0075-46ee-a221-ef2c80e3548a"},"vehicle_type_id":"4","last_reported":1702462054,"current_range_meters":13200,"station_id":"ce4bhn92rcd13ifvqgrg","pricing_plan_id":"free"},{"bike_id":"a9e69201-3094-4c70-b8ec-d9ce766ff471","system_id":"levelo_inurba_marseille","lat":43.275028,"lon":5.424534,"is_reserved":false,"is_disabled":false,"rental_uris":{"android":"levelo://app?vid=a9e69201-3094-4c70-b8ec-d9ce766ff471","ios":"levelo://app?vid=a9e69201-3094-4c70-b8ec-d9ce766ff471"},"vehicle_type_id":"4","last_reported":1702462054,"current_range_meters":13600,"station_id":"ce4bhn92rcd13ifvqgrg","pricing_plan_id":"free"},{"bike_id":"706d3d5b-8bb8-44aa-92cc-e2f166556867","system_id":"levelo_inurba_marseille","lat":43.27493,"lon":5.4245,"is_reserved":false,"is_disabled":false,"rental_uris":{"android":"levelo://app?vid=706d3d5b-8bb8-44aa-92cc-e2f166556867","ios":"levelo://app?vid=706d3d5b-8bb8-44aa-92cc-e2f166556867"},"vehicle_type_id":"4","last_reported":1702462054,"current_range_meters":22400,"station_id":"ce4bhn92rcd13ifvqgrg","pricing_plan_id":"free"},{"bike_id":"230d1998-3a5c-4ebd-ab97-43fbf67c09a6","system_id":"levelo_inurba_marseille","lat":43.27494,"lon":5.42454,"is_reserved":false,"is_disabled":false,"rental_uris":{"android":"levelo://app?vid=230d1998-3a5c-4ebd-ab97-43fbf67c09a6","ios":"levelo://app?vid=230d1998-3a5c-4ebd-ab97-43fbf67c09a6"},"vehicle_type_id":"4","last_reported":1702462054,"current_range_meters":24000,"station_id":"ce4bhn92rcd13ifvqgrg","pricing_plan_id":"free"},{"bike_id":"4d368ea5-0e8b-4103-8838-19e15b49f25a","system_id":"levelo_inurba_marseille","lat":43.275028,"lon":5.424534,"is_reserved":false,"is_disabled":false,"rental_uris":{"android":"levelo://app?vid=4d368ea5-0e8b-4103-8838-19e15b49f25a","ios":"levelo://app?vid=4d368ea5-0e8b-4103-8838-19e15b49f25a"},"vehicle_type_id":"4","last_reported":1702462054,"current_range_meters":18400,"station_id":"ce4bhn92rcd13ifvqgrg","pricing_plan_id":"free"},{"bike_id":"b4ca9359-4fc8-4f31-a46c-70645d2374fb","system_id":"levelo_inurba_marseille","lat":43.25583,"lon":5.3824,"is_reserved":false,"is_disabled":false,"rental_uris":{"android":"levelo://app?vid=b4ca9359-4fc8-4f31-a46c-70645d2374fb","ios":"levelo://app?vid=b4ca9359-4fc8-4f31-a46c-70645d2374fb"},"vehicle_type_id":"4","last_reported":1702462054,"current_range_meters":20000,"station_id":"ce4bhih2rcd13ifvqfs0","pricing_plan_id":"free"},{"bike_id":"4d0c71de-ce50-4c6f-9f30-74445d5a83ae","system_id":"levelo_inurba_marseille","lat":43.2558,"lon":5.38238,"is_reserved":false,"is_disabled":false,"rental_uris":{"android":"levelo://app?vid=4d0c71de-ce50-4c6f-9f30-74445d5a83ae","ios":"levelo://app?vid=4d0c71de-ce50-4c6f-9f30-74445d5a83ae"},"vehicle_type_id":"4","last_reported":1702462054,"current_range_meters":27200,"station_id":"ce4bhih2rcd13ifvqfs0","pricing_plan_id":"free"},{"bike_id":"99bcf73b-32fa-4419-8d1e-e948cdc5c836","system_id":"levelo_inurba_marseille","lat":43.255756,"lon":5.382303,"is_reserved":false,"is_disabled":false,"rental_uris":{"android":"levelo://app?vid=99bcf73b-32fa-4419-8d1e-e948cdc5c836","ios":"levelo://app?vid=99bcf73b-32fa-4419-8d1e-e948cdc5c836"},"vehicle_type_id":"4","last_reported":1702462054,"current_range_meters":6800,"station_id":"ce4bhih2rcd13ifvqfs0","pricing_plan_id":"free"},{"bike_id":"9cb2a676-4576-4b22-929a-e72b508c9605","system_id":"levelo_inurba_marseille","lat":43.255756,"lon":5.382303,"is_reserved":false,"is_disabled":false,"rental_uris":{"android":"levelo://app?vid=9cb2a676-4576-4b22-929a-e72b508c9605","ios":"levelo://app?vid=9cb2a676-4576-4b22-929a-e72b508c9605"},"vehicle_type_id":"4","last_reported":1702462054,"current_range_meters":22800,"station_id":"ce4bhih2rcd13ifvqfs0","pricing_plan_id":"free"},{"bike_id":"8f82f722-baf6-4a17-b4d5-1d388e742d98","system_id":"levelo_inurba_marseille","lat":43.255756,"lon":5.382303,"is_reserved":false,"is_disabled":false,"rental_uris":{"android":"levelo://app?vid=8f82f722-baf6-4a17-b4d5-1d388e742d98","ios":"levelo://app?vid=8f82f722-baf6-4a17-b4d5-1d388e742d98"},"vehicle_type_id":"4","last_reported":1702462054,"current_range_meters":13200,"station_id":"ce4bhih2rcd13ifvqfs0","pricing_plan_id":"free"},{"bike_id":"345a9d90-c089-4141-8cf6-0867ef195521","system_id":"levelo_inurba_marseille","lat":43.254947,"lon":5.376454,"is_reserved":false,"is_disabled":false,"rental_uris":{"android":"levelo://app?vid=345a9d90-c089-4141-8cf6-0867ef195521","ios":"levelo://app?vid=345a9d90-c089-4141-8cf6-0867ef195521"},"vehicle_type_id":"4","last_reported":1702462054,"current_range_meters":28400,"station_id":"ce4bhh12rcd13ifvqff0","pricing_plan_id":"free"},{"bike_id":"de99c830-7abb-496b-b543-608313e5f909","system_id":"levelo_inurba_marseille","lat":43.254947,"lon":5.376454,"is_reserved":false,"is_disabled":false,"rental_uris":{"android":"levelo://app?vid=de99c830-7abb-496b-b543-608313e5f909","ios":"levelo://app?vid=de99c830-7abb-496b-b543-608313e5f909"},"vehicle_type_id":"4","last_reported":1702462054,"current_range_meters":21200,"station_id":"ce4bhh12rcd13ifvqff0","pricing_plan_id":"free"},{"bike_id":"e0f77563-599c-4415-b37f-7f8cce35e671","system_id":"levelo_inurba_marseille","lat":43.27069,"lon":5.42281,"is_reserved":false,"is_disabled":false,"rental_uris":{"android":"levelo://app?vid=e0f77563-599c-4415-b37f-7f8cce35e671","ios":"levelo://app?vid=e0f77563-599c-4415-b37f-7f8cce35e671"},"vehicle_type_id":"4","last_reported":1702462054,"current_range_meters":29200,"station_id":"ce4bhk92rcd13ifvqgb0","pricing_plan_id":"free"},{"bike_id":"0a9cdefe-88ec-469b-9af2-cc7ead3d85b0","system_id":"levelo_inurba_marseille","lat":43.258658,"lon":5.398935,"is_reserved":false,"is_disabled":false,"rental_uris":{"android":"levelo://app?vid=0a9cdefe-88ec-469b-9af2-cc7ead3d85b0","ios":"levelo://app?vid=0a9cdefe-88ec-469b-9af2-cc7ead3d85b0"},"vehicle_type_id":"4","last_reported":1702462054,"current_range_meters":29200,"station_id":"ce4bhl92rcd13ifvqghg","pricing_plan_id":"free"},{"bike_id":"86c97684-2d28-40d7-a51d-bc334d0f580e","system_id":"levelo_inurba_marseille","lat":43.25938,"lon":5.40906,"is_reserved":false,"is_disabled":false,"rental_uris":{"android":"levelo://app?vid=86c97684-2d28-40d7-a51d-bc334d0f580e","ios":"levelo://app?vid=86c97684-2d28-40d7-a51d-bc334d0f580e"},"vehicle_type_id":"4","last_reported":1702462054,"current_range_meters":25600,"station_id":"ce4bhm92rcd13ifvqglg","pricing_plan_id":"free"},{"bike_id":"f6225d43-7fd2-473d-ac6d-94ea8205fe30","system_id":"levelo_inurba_marseille","lat":43.25938,"lon":5.40908,"is_reserved":false,"is_disabled":false,"rental_uris":{"android":"levelo://app?vid=f6225d43-7fd2-473d-ac6d-94ea8205fe30","ios":"levelo://app?vid=f6225d43-7fd2-473d-ac6d-94ea8205fe30"},"vehicle_type_id":"4","last_reported":1702462054,"current_range_meters":11600,"station_id":"ce4bhm92rcd13ifvqglg","pricing_plan_id":"free"},{"bike_id":"a3021670-21f8-4ec0-bb57-96aa3dbcd2bd","system_id":"levelo_inurba_marseille","lat":43.259013,"lon":5.409301,"is_reserved":false,"is_disabled":false,"rental_uris":{"android":"levelo://app?vid=a3021670-21f8-4ec0-bb57-96aa3dbcd2bd","ios":"levelo://app?vid=a3021670-21f8-4ec0-bb57-96aa3dbcd2bd"},"vehicle_type_id":"4","last_reported":1702462054,"current_range_meters":19600,"station_id":"ce4bhm92rcd13ifvqglg","pricing_plan_id":"free"},{"bike_id":"24bd5834-b673-4cb0-a1e8-d6c03ecdae8d","system_id":"levelo_inurba_marseille","lat":43.259009,"lon":5.40929,"is_reserved":false,"is_disabled":false,"rental_uris":{"android":"levelo://app?vid=24bd5834-b673-4cb0-a1e8-d6c03ecdae8d","ios":"levelo://app?vid=24bd5834-b673-4cb0-a1e8-d6c03ecdae8d"},"vehicle_type_id":"4","last_reported":1702462054,"current_range_meters":2800,"station_id":"ce4bhm92rcd13ifvqglg","pricing_plan_id":"free"},{"bike_id":"19e4093a-ac82-432d-8bbc-43176b7dbed3","system_id":"levelo_inurba_marseille","lat":43.259009,"lon":5.40929,"is_reserved":false,"is_disabled":false,"rental_uris":{"android":"levelo://app?vid=19e4093a-ac82-432d-8bbc-43176b7dbed3","ios":"levelo://app?vid=19e4093a-ac82-432d-8bbc-43176b7dbed3"},"vehicle_type_id":"4","last_reported":1702462054,"current_range_meters":0,"station_id":"ce4bhm92rcd13ifvqglg","pricing_plan_id":"free"},{"bike_id":"95aceb84-4e62-4a22-a3ba-b7c2cf268896","system_id":"levelo_inurba_marseille","lat":43.259009,"lon":5.40929,"is_reserved":false,"is_disabled":false,"rental_uris":{"android":"levelo://app?vid=95aceb84-4e62-4a22-a3ba-b7c2cf268896","ios":"levelo://app?vid=95aceb84-4e62-4a22-a3ba-b7c2cf268896"},"vehicle_type_id":"4","last_reported":1702462054,"current_range_meters":19200,"station_id":"ce4bhm92rcd13ifvqglg","pricing_plan_id":"free"},{"bike_id":"1fe35241-90af-400e-bfa5-b9dcb4673da0","system_id":"levelo_inurba_marseille","lat":43.25929,"lon":5.40905,"is_reserved":false,"is_disabled":false,"rental_uris":{"android":"levelo://app?vid=1fe35241-90af-400e-bfa5-b9dcb4673da0","ios":"levelo://app?vid=1fe35241-90af-400e-bfa5-b9dcb4673da0"},"vehicle_type_id":"4","last_reported":1702462054,"current_range_meters":20800,"station_id":"ce4bhm92rcd13ifvqglg","pricing_plan_id":"free"},{"bike_id":"373fec99-6f3a-4cfd-83ea-ddc5df00f324","system_id":"levelo_inurba_marseille","lat":43.250009,"lon":5.389195,"is_reserved":false,"is_disabled":false,"rental_uris":{"android":"levelo://app?vid=373fec99-6f3a-4cfd-83ea-ddc5df00f324","ios":"levelo://app?vid=373fec99-6f3a-4cfd-83ea-ddc5df00f324"},"vehicle_type_id":"4","last_reported":1702462054,"current_range_meters":30800,"station_id":"ce4bhgp2rcd13ifvqfd0","pricing_plan_id":"free"},{"bike_id":"4a892c67-04e1-4333-8865-6605ac9fe77f","system_id":"levelo_inurba_marseille","lat":43.24693,"lon":5.382096,"is_reserved":false,"is_disabled":false,"rental_uris":{"android":"levelo://app?vid=4a892c67-04e1-4333-8865-6605ac9fe77f","ios":"levelo://app?vid=4a892c67-04e1-4333-8865-6605ac9fe77f"},"vehicle_type_id":"4","last_reported":1702462054,"current_range_meters":14400,"station_id":"ce4bhih2rcd13ifvqfr0","pricing_plan_id":"free"},{"bike_id":"2dee0431-172c-49a5-bacc-dc8014c3b82a","system_id":"levelo_inurba_marseille","lat":43.24693,"lon":5.382096,"is_reserved":false,"is_disabled":false,"rental_uris":{"android":"levelo://app?vid=2dee0431-172c-49a5-bacc-dc8014c3b82a","ios":"levelo://app?vid=2dee0431-172c-49a5-bacc-dc8014c3b82a"},"vehicle_type_id":"4","last_reported":1702462054,"current_range_meters":24000,"station_id":"ce4bhih2rcd13ifvqfr0","pricing_plan_id":"free"},{"bike_id":"cfe1433f-7563-446a-b995-b929feae579e","system_id":"levelo_inurba_marseille","lat":43.24661,"lon":5.38161,"is_reserved":false,"is_disabled":false,"rental_uris":{"android":"levelo://app?vid=cfe1433f-7563-446a-b995-b929feae579e","ios":"levelo://app?vid=cfe1433f-7563-446a-b995-b929feae579e"},"vehicle_type_id":"4","last_reported":1702462054,"current_range_meters":4000,"station_id":"ce4bhih2rcd13ifvqfr0","pricing_plan_id":"free"},{"bike_id":"ee1f7ea6-fe6c-4b1a-868a-a43fecdc47f5","system_id":"levelo_inurba_marseille","lat":43.25102,"lon":5.403214,"is_reserved":false,"is_disabled":false,"rental_uris":{"android":"levelo://app?vid=ee1f7ea6-fe6c-4b1a-868a-a43fecdc47f5","ios":"levelo://app?vid=ee1f7ea6-fe6c-4b1a-868a-a43fecdc47f5"},"vehicle_type_id":"4","last_reported":1702462054,"current_range_meters":12800,"station_id":"ce4bhlh2rcd13ifvqgig","pricing_plan_id":"free"},{"bike_id":"ac91ced5-a204-452a-9e30-674becbcd195","system_id":"levelo_inurba_marseille","lat":43.25102,"lon":5.403214,"is_reserved":false,"is_disabled":false,"rental_uris":{"android":"levelo://app?vid=ac91ced5-a204-452a-9e30-674becbcd195","ios":"levelo://app?vid=ac91ced5-a204-452a-9e30-674becbcd195"},"vehicle_type_id":"4","last_reported":1702462054,"current_range_meters":10800,"station_id":"ce4bhlh2rcd13ifvqgig","pricing_plan_id":"free"},{"bike_id":"b6cf3801-0d9f-4ff4-bbfa-9151955455f3","system_id":"levelo_inurba_marseille","lat":43.25102,"lon":5.403214,"is_reserved":false,"is_disabled":false,"rental_uris":{"android":"levelo://app?vid=b6cf3801-0d9f-4ff4-bbfa-9151955455f3","ios":"levelo://app?vid=b6cf3801-0d9f-4ff4-bbfa-9151955455f3"},"vehicle_type_id":"4","last_reported":1702462054,"current_range_meters":28800,"station_id":"ce4bhlh2rcd13ifvqgig","pricing_plan_id":"free"},{"bike_id":"fbaa55d9-f378-4b6e-b8f8-cdacabf13355","system_id":"levelo_inurba_marseille","lat":43.246461,"lon":5.389014,"is_reserved":false,"is_disabled":false,"rental_uris":{"android":"levelo://app?vid=fbaa55d9-f378-4b6e-b8f8-cdacabf13355","ios":"levelo://app?vid=fbaa55d9-f378-4b6e-b8f8-cdacabf13355"},"vehicle_type_id":"4","last_reported":1702462054,"current_range_meters":27600,"station_id":"ce4bhg12rcd13ifvqf60","pricing_plan_id":"free"},{"bike_id":"2c6c121d-387d-4b31-8c32-d51f656332d0","system_id":"levelo_inurba_marseille","lat":43.246461,"lon":5.389014,"is_reserved":false,"is_disabled":false,"rental_uris":{"android":"levelo://app?vid=2c6c121d-387d-4b31-8c32-d51f656332d0","ios":"levelo://app?vid=2c6c121d-387d-4b31-8c32-d51f656332d0"},"vehicle_type_id":"4","last_reported":1702462054,"current_range_meters":20000,"station_id":"ce4bhg12rcd13ifvqf60","pricing_plan_id":"free"},{"bike_id":"59df037a-8885-4ca6-81c4-6454dd86ed87","system_id":"levelo_inurba_marseille","lat":43.246461,"lon":5.389014,"is_reserved":false,"is_disabled":false,"rental_uris":{"android":"levelo://app?vid=59df037a-8885-4ca6-81c4-6454dd86ed87","ios":"levelo://app?vid=59df037a-8885-4ca6-81c4-6454dd86ed87"},"vehicle_type_id":"4","last_reported":1702462054,"current_range_meters":21600,"station_id":"ce4bhg12rcd13ifvqf60","pricing_plan_id":"free"},{"bike_id":"26b6305b-3325-4309-aa3e-1d458d7a672e","system_id":"levelo_inurba_marseille","lat":43.246461,"lon":5.389014,"is_reserved":false,"is_disabled":false,"rental_uris":{"android":"levelo://app?vid=26b6305b-3325-4309-aa3e-1d458d7a672e","ios":"levelo://app?vid=26b6305b-3325-4309-aa3e-1d458d7a672e"},"vehicle_type_id":"4","last_reported":1702462054,"current_range_meters":16400,"station_id":"ce4bhg12rcd13ifvqf60","pricing_plan_id":"free"},{"bike_id":"195ccb90-de3e-4cf8-b85d-ca0be29343cd","system_id":"levelo_inurba_marseille","lat":43.243884,"lon":5.370737,"is_reserved":false,"is_disabled":false,"rental_uris":{"android":"levelo://app?vid=195ccb90-de3e-4cf8-b85d-ca0be29343cd","ios":"levelo://app?vid=195ccb90-de3e-4cf8-b85d-ca0be29343cd"},"vehicle_type_id":"4","last_reported":1702462054,"current_range_meters":24400,"station_id":"ce4bhhh2rcd13ifvqfk0","pricing_plan_id":"free"},{"bike_id":"4f653850-9c35-41a6-89dd-a759a602903e","system_id":"levelo_inurba_marseille","lat":43.24386,"lon":5.37064,"is_reserved":false,"is_disabled":false,"rental_uris":{"android":"levelo://app?vid=4f653850-9c35-41a6-89dd-a759a602903e","ios":"levelo://app?vid=4f653850-9c35-41a6-89dd-a759a602903e"},"vehicle_type_id":"4","last_reported":1702462054,"current_range_meters":24800,"station_id":"ce4bhhh2rcd13ifvqfk0","pricing_plan_id":"free"},{"bike_id":"38173cd3-5e7c-4047-87be-f81b181ca95a","system_id":"levelo_inurba_marseille","lat":43.245581,"lon":5.395069,"is_reserved":false,"is_disabled":false,"rental_uris":{"android":"levelo://app?vid=38173cd3-5e7c-4047-87be-f81b181ca95a","ios":"levelo://app?vid=38173cd3-5e7c-4047-87be-f81b181ca95a"},"vehicle_type_id":"4","last_reported":1702462054,"current_range_meters":16000,"station_id":"ce4bhlp2rcd13ifvqgjg","pricing_plan_id":"free"},{"bike_id":"045720db-19db-465c-8429-c03704b24fad","system_id":"levelo_inurba_marseille","lat":43.239588,"lon":5.366238,"is_reserved":false,"is_disabled":false,"rental_uris":{"android":"levelo://app?vid=045720db-19db-465c-8429-c03704b24fad","ios":"levelo://app?vid=045720db-19db-465c-8429-c03704b24fad"},"vehicle_type_id":"4","last_reported":1702462054,"current_range_meters":23600,"station_id":"ce4bhi12rcd13ifvqfp0","pricing_plan_id":"free"},{"bike_id":"ef35b9cc-0d3f-432b-ac3d-b32a58b646c9","system_id":"levelo_inurba_marseille","lat":43.24074,"lon":5.37761,"is_reserved":false,"is_disabled":false,"rental_uris":{"android":"levelo://app?vid=ef35b9cc-0d3f-432b-ac3d-b32a58b646c9","ios":"levelo://app?vid=ef35b9cc-0d3f-432b-ac3d-b32a58b646c9"},"vehicle_type_id":"4","last_reported":1702462054,"current_range_meters":0,"station_id":"ce4bhnp2rcd13ifvqgvg","pricing_plan_id":"free"},{"bike_id":"5b726ebf-359b-4d8e-8046-55590f3d5a03","system_id":"levelo_inurba_marseille","lat":43.24072,"lon":5.37761,"is_reserved":false,"is_disabled":false,"rental_uris":{"android":"levelo://app?vid=5b726ebf-359b-4d8e-8046-55590f3d5a03","ios":"levelo://app?vid=5b726ebf-359b-4d8e-8046-55590f3d5a03"},"vehicle_type_id":"4","last_reported":1702462054,"current_range_meters":16400,"station_id":"ce4bhnp2rcd13ifvqgvg","pricing_plan_id":"free"},{"bike_id":"d4f10a46-c26b-49e3-95d5-9f8c8454ced6","system_id":"levelo_inurba_marseille","lat":43.241782,"lon":5.397261,"is_reserved":false,"is_disabled":false,"rental_uris":{"android":"levelo://app?vid=d4f10a46-c26b-49e3-95d5-9f8c8454ced6","ios":"levelo://app?vid=d4f10a46-c26b-49e3-95d5-9f8c8454ced6"},"vehicle_type_id":"4","last_reported":1702462054,"current_range_meters":25200,"station_id":"ce4bhn12rcd13ifvqgpg","pricing_plan_id":"free"},{"bike_id":"6fb06ddb-97a9-4e82-97f4-85f411863478","system_id":"levelo_inurba_marseille","lat":43.231919,"lon":5.355532,"is_reserved":false,"is_disabled":false,"rental_uris":{"android":"levelo://app?vid=6fb06ddb-97a9-4e82-97f4-85f411863478","ios":"levelo://app?vid=6fb06ddb-97a9-4e82-97f4-85f411863478"},"vehicle_type_id":"4","last_reported":1702462054,"current_range_meters":27600,"station_id":"ce4bhu92rcd13ifvqi70","pricing_plan_id":"free"},{"bike_id":"a24e9a7d-aca6-4a9e-803e-e0faeb33511b","system_id":"levelo_inurba_marseille","lat":43.231919,"lon":5.355532,"is_reserved":false,"is_disabled":false,"rental_uris":{"android":"levelo://app?vid=a24e9a7d-aca6-4a9e-803e-e0faeb33511b","ios":"levelo://app?vid=a24e9a7d-aca6-4a9e-803e-e0faeb33511b"},"vehicle_type_id":"4","last_reported":1702462054,"current_range_meters":400,"station_id":"ce4bhu92rcd13ifvqi70","pricing_plan_id":"free"},{"bike_id":"754decda-7983-4454-a326-db70c8d8f183","system_id":"levelo_inurba_marseille","lat":43.231793,"lon":5.400044,"is_reserved":false,"is_disabled":false,"rental_uris":{"android":"levelo://app?vid=754decda-7983-4454-a326-db70c8d8f183","ios":"levelo://app?vid=754decda-7983-4454-a326-db70c8d8f183"},"vehicle_type_id":"4","last_reported":1702462054,"current_range_meters":10000,"station_id":"ce4bhn12rcd13ifvqgqg","pricing_plan_id":"free"},{"bike_id":"c83f8c95-e38d-45b0-8420-069ec0428772","system_id":"levelo_inurba_marseille","lat":43.231562,"lon":5.436933,"is_reserved":false,"is_disabled":false,"rental_uris":{"android":"levelo://app?vid=c83f8c95-e38d-45b0-8420-069ec0428772","ios":"levelo://app?vid=c83f8c95-e38d-45b0-8420-069ec0428772"},"vehicle_type_id":"4","last_reported":1702462054,"current_range_meters":24800,"station_id":"ce4bhmp2rcd13ifvqgog","pricing_plan_id":"free"},{"bike_id":"ebb80fa1-e0b5-4738-af00-71e836845110","system_id":"levelo_inurba_marseille","lat":43.231562,"lon":5.436933,"is_reserved":false,"is_disabled":false,"rental_uris":{"android":"levelo://app?vid=ebb80fa1-e0b5-4738-af00-71e836845110","ios":"levelo://app?vid=ebb80fa1-e0b5-4738-af00-71e836845110"},"vehicle_type_id":"4","last_reported":1702462054,"current_range_meters":30000,"station_id":"ce4bhmp2rcd13ifvqgog","pricing_plan_id":"free"},{"bike_id":"4d5f499d-fc5c-452d-a3ce-6e4719f7ecbb","system_id":"levelo_inurba_marseille","lat":43.231562,"lon":5.436933,"is_reserved":false,"is_disabled":false,"rental_uris":{"android":"levelo://app?vid=4d5f499d-fc5c-452d-a3ce-6e4719f7ecbb","ios":"levelo://app?vid=4d5f499d-fc5c-452d-a3ce-6e4719f7ecbb"},"vehicle_type_id":"4","last_reported":1702462054,"current_range_meters":16800,"station_id":"ce4bhmp2rcd13ifvqgog","pricing_plan_id":"free"},{"bike_id":"58ad7b1b-1e96-4241-8f3b-6d49dc932f71","system_id":"levelo_inurba_marseille","lat":43.231562,"lon":5.436933,"is_reserved":false,"is_disabled":false,"rental_uris":{"android":"levelo://app?vid=58ad7b1b-1e96-4241-8f3b-6d49dc932f71","ios":"levelo://app?vid=58ad7b1b-1e96-4241-8f3b-6d49dc932f71"},"vehicle_type_id":"4","last_reported":1702462054,"current_range_meters":11200,"station_id":"ce4bhmp2rcd13ifvqgog","pricing_plan_id":"free"},{"bike_id":"99e7b301-f409-462c-880f-dbea562217ca","system_id":"levelo_inurba_marseille","lat":43.231562,"lon":5.436933,"is_reserved":false,"is_disabled":false,"rental_uris":{"android":"levelo://app?vid=99e7b301-f409-462c-880f-dbea562217ca","ios":"levelo://app?vid=99e7b301-f409-462c-880f-dbea562217ca"},"vehicle_type_id":"4","last_reported":1702462054,"current_range_meters":4000,"station_id":"ce4bhmp2rcd13ifvqgog","pricing_plan_id":"free"},{"bike_id":"f4aec10b-8a5f-47fd-994a-96c79c18a718","system_id":"levelo_inurba_marseille","lat":43.231562,"lon":5.436933,"is_reserved":false,"is_disabled":false,"rental_uris":{"android":"levelo://app?vid=f4aec10b-8a5f-47fd-994a-96c79c18a718","ios":"levelo://app?vid=f4aec10b-8a5f-47fd-994a-96c79c18a718"},"vehicle_type_id":"4","last_reported":1702462054,"current_range_meters":7200,"station_id":"ce4bhmp2rcd13ifvqgog","pricing_plan_id":"free"},{"bike_id":"f7b60400-fc08-4a89-bfab-a480add7ef96","system_id":"levelo_inurba_marseille","lat":43.231562,"lon":5.436933,"is_reserved":false,"is_disabled":false,"rental_uris":{"android":"levelo://app?vid=f7b60400-fc08-4a89-bfab-a480add7ef96","ios":"levelo://app?vid=f7b60400-fc08-4a89-bfab-a480add7ef96"},"vehicle_type_id":"4","last_reported":1702462054,"current_range_meters":31600,"station_id":"ce4bhmp2rcd13ifvqgog","pricing_plan_id":"free"}]}}