{"last_updated":1744812640,"ttl":60,"version":"2.2","data":{"bikes":[{"bike_id":"d9c8ba67-7564-4a4d-afe4-6a10fde5a67b","system_id":"levelo_inurba_marseille","lat":43.24807,"lon":5.37454,"is_reserved":false,"is_disabled":false,"rental_uris":{"android":"levelo://app?vid=d9c8ba67-7564-4a4d-afe4-6a10fde5a67b","ios":"levelo://app?vid=d9c8ba67-7564-4a4d-afe4-6a10fde5a67b"},"vehicle_type_id":"4","last_reported":1744812640,"current_range_meters":3200,"station_id":"ce4bhgh2rcd13ifvqfb0","pricing_plan_id":"cebpf4jnsgd1na2vs0mg"},{"bike_id":"588b9a5f-c1b4-42aa-a0d7-9dc4096af0cd","system_id":"levelo_inurba_marseille","lat":43.31756,"lon":5.40412,"is_reserved":false,"is_disabled":false,"rental_uris":{"android":"levelo://app?vid=588b9a5f-c1b4-42aa-a0d7-9dc4096af0cd","ios":"levelo://app?vid=588b9a5f-c1b4-42aa-a0d7-9dc4096af0cd"},"vehicle_type_id":"4","last_reported":1744812640,"current_range_meters":3200,"station_id":"","pricing_plan_id":"cebpf4jnsgd1na2vs0mg"},{"bike_id":"0047f564-5542-46d7-bb64-e213d08eb4e9","system_id":"levelo_inurba_marseille","lat":43.31069,"lon":5.38353,"is_reserved":false,"is_disabled":false,"rental_uris":{"android":"levelo://app?vid=0047f564-5542-46d7-bb64-e213d08eb4e9","ios":"levelo://app?vid=0047f564-5542-46d7-bb64-e213d08eb4e9"},"vehicle_type_id":"4","last_reported":1744812640,"current_range_meters":3600,"station_id":"ce4bgv92rcd13ifvqcr0","pricing_plan_id":"cebpf4jnsgd1na2vs0mg"},{"bike_id":"c39162ed-7565-40ba-a953-42de5f892549","system_id":"levelo_inurba_marseille","lat":43.29531,"lon":5.38531,"is_reserved":false,"is_disabled":false,"rental_uris":{"android":"levelo://app?vid=c39162ed-7565-40ba-a953-42de5f892549","ios":"levelo://app?vid=c39162ed-7565-40ba-a953-42de5f892549"},"vehicle_type_id":"4","last_reported":1744812640,"current_range_meters":4000,"station_id":"ce4bgih2rcd13ifvqba0","pricing_plan_id":"cebpf4jnsgd1na2vs0mg"},{"bike_id":"ef4f2625-e389-408d-a6c7-2db2aa977a79","system_id":"levelo_inurba_marseille","lat":43.29734,"lon":5.37685,"is_reserved":false,"is_disabled":false,"rental_uris":{"android":"levelo://app?vid=ef4f2625-e389-408d-a6c7-2db2aa977a79","ios":"levelo://app?vid=ef4f2625-e389-408d-a6c7-2db2aa977a79"},"vehicle_type_id":"4","last_reported":1744812640,"current_range_meters":4000,"station_id":"ce4bgkh2rcd13ifvqbl0","pricing_plan_id":"cebpf4jnsgd1na2vs0mg"},{"bike_id":"b75fc7e2-35e7-4e1d-8e61-335e13a41523","system_id":"levelo_inurba_marseille","lat":43.27211,"lon":5.39196,"is_reserved":false,"is_disabled":false,"rental_uris":{"android":"levelo://app?vid=b75fc7e2-35e7-4e1d-8e61-335e13a41523","ios":"levelo://app?vid=b75fc7e2-35e7-4e1d-8e61-335e13a41523"},"vehicle_type_id":"4","last_reported":1744812640,"current_range_meters":4000,"station_id":"ce4bhhp2rcd13ifvqfm0","pricing_plan_id":"cebpf4jnsgd1na2vs0mg"},{"bike_id":"207b15a7-69f1-4c4a-a29d-f91df1564475","system_id":"levelo_inurba_marseille","lat":43.24079,"lon":5.37715,"is_reserved":false,"is_disabled":false,"rental_uris":{"android":"levelo://app?vid=207b15a7-69f1-4c4a-a29d-f91df1564475","ios":"levelo://app?vid=207b15a7-69f1-4c4a-a29d-f91df1564475"},"vehicle_type_id":"4","last_reported":1744812640,"current_range_meters":4400,"station_id":"ce4bhnp2rcd13ifvqgvg","pricing_plan_id":"cebpf4jnsgd1na2vs0mg"},{"bike_id":"8837155e-0f20-43ea-9af7-f7194c61ea8c","system_id":"levelo_inurba_marseille","lat":43.26957,"lon":5.40247,"is_reserved":false,"is_disabled":false,"rental_uris":{"android":"levelo://app?vid=8837155e-0f20-43ea-9af7-f7194c61ea8c","ios":"levelo://app?vid=8837155e-0f20-43ea-9af7-f7194c61ea8c"},"vehicle_type_id":"4","last_reported":1744812640,"current_range_meters":4400,"station_id":"cjm6bp8fraef2m0cb0m0","pricing_plan_id":"cebpf4jnsgd1na2vs0mg"},{"bike_id":"60fb4437-2483-4333-b041-ce449efe666b","system_id":"levelo_inurba_marseille","lat":43.28489,"lon":5.38419,"is_reserved":false,"is_disabled":false,"rental_uris":{"android":"levelo://app?vid=60fb4437-2483-4333-b041-ce449efe666b","ios":"levelo://app?vid=60fb4437-2483-4333-b041-ce449efe666b"},"vehicle_type_id":"4","last_reported":1744812640,"current_range_meters":4400,"station_id":"ce4bh512rcd13ifvqe3g","pricing_plan_id":"cebpf4jnsgd1na2vs0mg"},{"bike_id":"e12263cb-f2cd-4c7b-8467-ca39314c224d","system_id":"levelo_inurba_marseille","lat":43.27947,"lon":5.41046,"is_reserved":false,"is_disabled":false,"rental_uris":{"android":"levelo://app?vid=e12263cb-f2cd-4c7b-8467-ca39314c224d","ios":"levelo://app?vid=e12263cb-f2cd-4c7b-8467-ca39314c224d"},"vehicle_type_id":"4","last_reported":1744812640,"current_range_meters":4800,"station_id":"ce4bhnp2rcd13ifvqh0g","pricing_plan_id":"cebpf4jnsgd1na2vs0mg"},{"bike_id":"4d5c9219-dab2-4a84-8f6e-9bff1ce514f0","system_id":"levelo_inurba_marseille","lat":43.27815,"lon":5.39214,"is_reserved":false,"is_disabled":false,"rental_uris":{"android":"levelo://app?vid=4d5c9219-dab2-4a84-8f6e-9bff1ce514f0","ios":"levelo://app?vid=4d5c9219-dab2-4a84-8f6e-9bff1ce514f0"},"vehicle_type_id":"4","last_reported":1744812640,"current_range_meters":4800,"station_id":"ce4bhjp2rcd13ifvqga0","pricing_plan_id":"cebpf4jnsgd1na2vs0mg"},{"bike_id":"e3a860a6-7da4-4617-aa4d-c874f7205574","system_id":"levelo_inurba_marseille","lat":43.30539,"lon":5.36691,"is_reserved":false,"is_disabled":false,"rental_uris":{"android":"levelo://app?vid=e3a860a6-7da4-4617-aa4d-c874f7205574","ios":"levelo://app?vid=e3a860a6-7da4-4617-aa4d-c874f7205574"},"vehicle_type_id":"4","last_reported":1744812640,"current_range_meters":5600,"station_id":"ce4bgrp2rcd13ifvqc9g","pricing_plan_id":"cebpf4jnsgd1na2vs0mg"},{"bike_id":"c273cedc-5337-4dec-91b4-1636fd7d09ad","system_id":"levelo_inurba_marseille","lat":43.31442,"lon":5.37608,"is_reserved":false,"is_disabled":false,"rental_uris":{"android":"levelo://app?vid=c273cedc-5337-4dec-91b4-1636fd7d09ad","ios":"levelo://app?vid=c273cedc-5337-4dec-91b4-1636fd7d09ad"},"vehicle_type_id":"4","last_reported":1744812640,"current_range_meters":6000,"station_id":"","pricing_plan_id":"cebpf4jnsgd1na2vs0mg"},{"bike_id":"60c45f66-30a2-4a8c-9b1b-e164cdf3eb82","system_id":"levelo_inurba_marseille","lat":43.3015,"lon":5.38105,"is_reserved":false,"is_disabled":false,"rental_uris":{"android":"levelo://app?vid=60c45f66-30a2-4a8c-9b1b-e164cdf3eb82","ios":"levelo://app?vid=60c45f66-30a2-4a8c-9b1b-e164cdf3eb82"},"vehicle_type_id":"4","last_reported":1744812640,"current_range_meters":6400,"station_id":"ce4bgjp2rcd13ifvqbh0","pricing_plan_id":"cebpf4jnsgd1na2vs0mg"},{"bike_id":"e928d811-c26e-4316-86ec-1eab997472d4","system_id":"levelo_inurba_marseille","lat":43.24797,"lon":5.37458,"is_reserved":false,"is_disabled":false,"rental_uris":{"android":"levelo://app?vid=e928d811-c26e-4316-86ec-1eab997472d4","ios":"levelo://app?vid=e928d811-c26e-4316-86ec-1eab997472d4"},"vehicle_type_id":"4","last_reported":1744812640,"current_range_meters":6400,"station_id":"ce4bhgh2rcd13ifvqfb0","pricing_plan_id":"cebpf4jnsgd1na2vs0mg"},{"bike_id":"27a55245-8dd2-4f1a-af63-95a9d7b71690","system_id":"levelo_inurba_marseille","lat":43.31073,"lon":5.37854,"is_reserved":false,"is_disabled":false,"rental_uris":{"android":"levelo://app?vid=27a55245-8dd2-4f1a-af63-95a9d7b71690","ios":"levelo://app?vid=27a55245-8dd2-4f1a-af63-95a9d7b71690"},"vehicle_type_id":"4","last_reported":1744812640,"current_range_meters":6400,"station_id":"","pricing_plan_id":"cebpf4jnsgd1na2vs0mg"},{"bike_id":"704a5474-19cd-44fe-b5a3-a80eddfdf0fc","system_id":"levelo_inurba_marseille","lat":43.291962,"lon":5.393273,"is_reserved":false,"is_disabled":false,"rental_uris":{"android":"levelo://app?vid=704a5474-19cd-44fe-b5a3-a80eddfdf0fc","ios":"levelo://app?vid=704a5474-19cd-44fe-b5a3-a80eddfdf0fc"},"vehicle_type_id":"4","last_reported":1744812640,"current_range_meters":2800,"station_id":"ce4bh192rcd13ifvqdd0","pricing_plan_id":"cebpf4jnsgd1na2vs0mg"},{"bike_id":"bba8cb5c-8674-48da-960e-e5ce40608c9a","system_id":"levelo_inurba_marseille","lat":43.28114,"lon":5.3787,"is_reserved":false,"is_disabled":false,"rental_uris":{"android":"levelo://app?vid=bba8cb5c-8674-48da-960e-e5ce40608c9a","ios":"levelo://app?vid=bba8cb5c-8674-48da-960e-e5ce40608c9a"},"vehicle_type_id":"4","last_reported":1744812640,"current_range_meters":6800,"station_id":"ce4bha12rcd13ifvqee0","pricing_plan_id":"cebpf4jnsgd1na2vs0mg"},{"bike_id":"a0636e31-c89e-4ae1-aea4-880988d0da0e","system_id":"levelo_inurba_marseille","lat":43.295586,"lon":5.422789,"is_reserved":false,"is_disabled":false,"rental_uris":{"android":"levelo://app?vid=a0636e31-c89e-4ae1-aea4-880988d0da0e","ios":"levelo://app?vid=a0636e31-c89e-4ae1-aea4-880988d0da0e"},"vehicle_type_id":"4","last_reported":1744812640,"current_range_meters":6800,"station_id":"ce4bhph2rcd13ifvqhdg","pricing_plan_id":"cebpf4jnsgd1na2vs0mg"},{"bike_id":"b146160c-5340-4991-9225-f12e90324c04","system_id":"levelo_inurba_marseille","lat":43.29926,"lon":5.36548,"is_reserved":false,"is_disabled":false,"rental_uris":{"android":"levelo://app?vid=b146160c-5340-4991-9225-f12e90324c04","ios":"levelo://app?vid=b146160c-5340-4991-9225-f12e90324c04"},"vehicle_type_id":"4","last_reported":1744812640,"current_range_meters":6800,"station_id":"ce4bgm92rcd13ifvqbr0","pricing_plan_id":"cebpf4jnsgd1na2vs0mg"},{"bike_id":"b7ab99ba-94bb-4274-aca7-e6131d0e5ab1","system_id":"levelo_inurba_marseille","lat":43.241738,"lon":5.363985,"is_reserved":false,"is_disabled":false,"rental_uris":{"android":"levelo://app?vid=b7ab99ba-94bb-4274-aca7-e6131d0e5ab1","ios":"levelo://app?vid=b7ab99ba-94bb-4274-aca7-e6131d0e5ab1"},"vehicle_type_id":"4","last_reported":1744812640,"current_range_meters":7200,"station_id":"cpo36qri1sfpv3e86is0","pricing_plan_id":"cebpf4jnsgd1na2vs0mg"},{"bike_id":"c653fe4f-d111-4afb-a095-6490cb9ea415","system_id":"levelo_inurba_marseille","lat":43.292769,"lon":5.401172,"is_reserved":false,"is_disabled":false,"rental_uris":{"android":"levelo://app?vid=c653fe4f-d111-4afb-a095-6490cb9ea415","ios":"levelo://app?vid=c653fe4f-d111-4afb-a095-6490cb9ea415"},"vehicle_type_id":"4","last_reported":1744812640,"current_range_meters":7200,"station_id":"ce4bhbh2rcd13ifvqeqg","pricing_plan_id":"cebpf4jnsgd1na2vs0mg"},{"bike_id":"8e6b1563-3f66-4db7-aac9-950740ca4a0c","system_id":"levelo_inurba_marseille","lat":43.286651,"lon":5.363486,"is_reserved":false,"is_disabled":false,"rental_uris":{"android":"levelo://app?vid=8e6b1563-3f66-4db7-aac9-950740ca4a0c","ios":"levelo://app?vid=8e6b1563-3f66-4db7-aac9-950740ca4a0c"},"vehicle_type_id":"4","last_reported":1744812640,"current_range_meters":6800,"station_id":"ce4bhah2rcd13ifvqej0","pricing_plan_id":"cebpf4jnsgd1na2vs0mg"},{"bike_id":"25e230f4-e34c-445f-87cd-877f61101b31","system_id":"levelo_inurba_marseille","lat":43.312384,"lon":5.36866,"is_reserved":false,"is_disabled":false,"rental_uris":{"android":"levelo://app?vid=25e230f4-e34c-445f-87cd-877f61101b31","ios":"levelo://app?vid=25e230f4-e34c-445f-87cd-877f61101b31"},"vehicle_type_id":"4","last_reported":1744812640,"current_range_meters":7200,"station_id":"ce4bgl92rcd13ifvqbq0","pricing_plan_id":"cebpf4jnsgd1na2vs0mg"},{"bike_id":"46d574fa-ad49-4444-823a-4e5e8452cb2c","system_id":"levelo_inurba_marseille","lat":43.26025,"lon":5.37548,"is_reserved":false,"is_disabled":false,"rental_uris":{"android":"levelo://app?vid=46d574fa-ad49-4444-823a-4e5e8452cb2c","ios":"levelo://app?vid=46d574fa-ad49-4444-823a-4e5e8452cb2c"},"vehicle_type_id":"4","last_reported":1744812640,"current_range_meters":7200,"station_id":"ce4bhgh2rcd13ifvqfa0","pricing_plan_id":"cebpf4jnsgd1na2vs0mg"},{"bike_id":"9edfd0b5-b88e-4074-bb42-981123a4f548","system_id":"levelo_inurba_marseille","lat":43.29623,"lon":5.38115,"is_reserved":false,"is_disabled":false,"rental_uris":{"android":"levelo://app?vid=9edfd0b5-b88e-4074-bb42-981123a4f548","ios":"levelo://app?vid=9edfd0b5-b88e-4074-bb42-981123a4f548"},"vehicle_type_id":"4","last_reported":1744812640,"current_range_meters":7200,"station_id":"ce4bgl12rcd13ifvqbo0","pricing_plan_id":"cebpf4jnsgd1na2vs0mg"},{"bike_id":"f3389a1b-2719-4af7-8855-0abf17cd038d","system_id":"levelo_inurba_marseille","lat":43.2314,"lon":5.43717,"is_reserved":false,"is_disabled":false,"rental_uris":{"android":"levelo://app?vid=f3389a1b-2719-4af7-8855-0abf17cd038d","ios":"levelo://app?vid=f3389a1b-2719-4af7-8855-0abf17cd038d"},"vehicle_type_id":"4","last_reported":1744812640,"current_range_meters":8000,"station_id":"ce4bhmp2rcd13ifvqgog","pricing_plan_id":"cebpf4jnsgd1na2vs0mg"},{"bike_id":"88f5330d-bd22-4d6e-81a3-1d19da2b67e0","system_id":"levelo_inurba_marseille","lat":43.28409,"lon":5.37527,"is_reserved":false,"is_disabled":false,"rental_uris":{"android":"levelo://app?vid=88f5330d-bd22-4d6e-81a3-1d19da2b67e0","ios":"levelo://app?vid=88f5330d-bd22-4d6e-81a3-1d19da2b67e0"},"vehicle_type_id":"4","last_reported":1744812640,"current_range_meters":8000,"station_id":"ce4bh412rcd13ifvqds0","pricing_plan_id":"cebpf4jnsgd1na2vs0mg"},{"bike_id":"534e4b6c-e6c4-4a00-a42a-116d30daa09d","system_id":"levelo_inurba_marseille","lat":43.304634,"lon":5.379109,"is_reserved":false,"is_disabled":false,"rental_uris":{"android":"levelo://app?vid=534e4b6c-e6c4-4a00-a42a-116d30daa09d","ios":"levelo://app?vid=534e4b6c-e6c4-4a00-a42a-116d30daa09d"},"vehicle_type_id":"4","last_reported":1744812640,"current_range_meters":8400,"station_id":"ce4bgup2rcd13ifvqcn0","pricing_plan_id":"cebpf4jnsgd1na2vs0mg"},{"bike_id":"575d3280-f1b1-4d58-9871-ee2b1e88b486","system_id":"levelo_inurba_marseille","lat":43.26797,"lon":5.40262,"is_reserved":false,"is_disabled":false,"rental_uris":{"android":"levelo://app?vid=575d3280-f1b1-4d58-9871-ee2b1e88b486","ios":"levelo://app?vid=575d3280-f1b1-4d58-9871-ee2b1e88b486"},"vehicle_type_id":"4","last_reported":1744812640,"current_range_meters":8400,"station_id":"ce501612rcd8frsf0b60","pricing_plan_id":"cebpf4jnsgd1na2vs0mg"},{"bike_id":"13bc9b9b-080d-404a-96a8-3b8d75418292","system_id":"levelo_inurba_marseille","lat":43.24177,"lon":5.3973,"is_reserved":false,"is_disabled":false,"rental_uris":{"android":"levelo://app?vid=13bc9b9b-080d-404a-96a8-3b8d75418292","ios":"levelo://app?vid=13bc9b9b-080d-404a-96a8-3b8d75418292"},"vehicle_type_id":"4","last_reported":1744812640,"current_range_meters":8400,"station_id":"ce4bhn12rcd13ifvqgpg","pricing_plan_id":"cebpf4jnsgd1na2vs0mg"},{"bike_id":"0e71401f-211e-41d3-b544-82fb663532e4","system_id":"levelo_inurba_marseille","lat":43.32483,"lon":5.36592,"is_reserved":false,"is_disabled":false,"rental_uris":{"android":"levelo://app?vid=0e71401f-211e-41d3-b544-82fb663532e4","ios":"levelo://app?vid=0e71401f-211e-41d3-b544-82fb663532e4"},"vehicle_type_id":"4","last_reported":1744812640,"current_range_meters":8400,"station_id":"ce4bhs12rcd13ifvqhvg","pricing_plan_id":"cebpf4jnsgd1na2vs0mg"},{"bike_id":"376f754b-7bba-4962-babe-b49b1468281c","system_id":"levelo_inurba_marseille","lat":43.309289,"lon":5.401493,"is_reserved":false,"is_disabled":true,"rental_uris":{"android":"levelo://app?vid=376f754b-7bba-4962-babe-b49b1468281c","ios":"levelo://app?vid=376f754b-7bba-4962-babe-b49b1468281c"},"vehicle_type_id":"4","last_reported":1744812640,"current_range_meters":8400,"station_id":"ce4bgvp2rcd13ifvqct0","pricing_plan_id":"cebpf4jnsgd1na2vs0mg"},{"bike_id":"f443cfdb-db2e-4f4b-a88d-615075e28818","system_id":"levelo_inurba_marseille","lat":43.30539,"lon":5.36536,"is_reserved":false,"is_disabled":false,"rental_uris":{"android":"levelo://app?vid=f443cfdb-db2e-4f4b-a88d-615075e28818","ios":"levelo://app?vid=f443cfdb-db2e-4f4b-a88d-615075e28818"},"vehicle_type_id":"4","last_reported":1744812640,"current_range_meters":8800,"station_id":"ce4bgs12rcd13ifvqcag","pricing_plan_id":"cebpf4jnsgd1na2vs0mg"},{"bike_id":"c5dd7479-a2d3-42e0-8f4b-5c847ca5f7cc","system_id":"levelo_inurba_marseille","lat":43.24792,"lon":5.37455,"is_reserved":false,"is_disabled":false,"rental_uris":{"android":"levelo://app?vid=c5dd7479-a2d3-42e0-8f4b-5c847ca5f7cc","ios":"levelo://app?vid=c5dd7479-a2d3-42e0-8f4b-5c847ca5f7cc"},"vehicle_type_id":"4","last_reported":1744812640,"current_range_meters":8800,"station_id":"ce4bhgh2rcd13ifvqfb0","pricing_plan_id":"cebpf4jnsgd1na2vs0mg"},{"bike_id":"2797dcdb-c4e1-48b2-82d6-5677d371fa39","system_id":"levelo_inurba_marseille","lat":43.24162,"lon":5.36376,"is_reserved":false,"is_disabled":false,"rental_uris":{"android":"levelo://app?vid=2797dcdb-c4e1-48b2-82d6-5677d371fa39","ios":"levelo://app?vid=2797dcdb-c4e1-48b2-82d6-5677d371fa39"},"vehicle_type_id":"4","last_reported":1744812640,"current_range_meters":8800,"station_id":"cpo36qri1sfpv3e86is0","pricing_plan_id":"cebpf4jnsgd1na2vs0mg"},{"bike_id":"f9ce9565-3c06-45a5-a09b-c93917a98f53","system_id":"levelo_inurba_marseille","lat":43.30544,"lon":5.36534,"is_reserved":false,"is_disabled":false,"rental_uris":{"android":"levelo://app?vid=f9ce9565-3c06-45a5-a09b-c93917a98f53","ios":"levelo://app?vid=f9ce9565-3c06-45a5-a09b-c93917a98f53"},"vehicle_type_id":"4","last_reported":1744812640,"current_range_meters":8800,"station_id":"ce4bgs12rcd13ifvqcag","pricing_plan_id":"cebpf4jnsgd1na2vs0mg"},{"bike_id":"431cc6a8-5ff4-4b27-9aa9-89f5e26f894a","system_id":"levelo_inurba_marseille","lat":43.31996,"lon":5.38169,"is_reserved":false,"is_disabled":false,"rental_uris":{"android":"levelo://app?vid=431cc6a8-5ff4-4b27-9aa9-89f5e26f894a","ios":"levelo://app?vid=431cc6a8-5ff4-4b27-9aa9-89f5e26f894a"},"vehicle_type_id":"4","last_reported":1744812640,"current_range_meters":9200,"station_id":"ce4bhr12rcd13ifvqhpg","pricing_plan_id":"cebpf4jnsgd1na2vs0mg"},{"bike_id":"03c8cee0-a6a5-48f4-b783-f14451736b24","system_id":"levelo_inurba_marseille","lat":43.27191,"lon":5.40988,"is_reserved":false,"is_disabled":false,"rental_uris":{"android":"levelo://app?vid=03c8cee0-a6a5-48f4-b783-f14451736b24","ios":"levelo://app?vid=03c8cee0-a6a5-48f4-b783-f14451736b24"},"vehicle_type_id":"4","last_reported":1744812640,"current_range_meters":9200,"station_id":"ce4bhl12rcd13ifvqgf0","pricing_plan_id":"cebpf4jnsgd1na2vs0mg"},{"bike_id":"45c6b552-68fd-454d-84d3-cf79221aaee4","system_id":"levelo_inurba_marseille","lat":43.29848,"lon":5.40901,"is_reserved":false,"is_disabled":false,"rental_uris":{"android":"levelo://app?vid=45c6b552-68fd-454d-84d3-cf79221aaee4","ios":"levelo://app?vid=45c6b552-68fd-454d-84d3-cf79221aaee4"},"vehicle_type_id":"4","last_reported":1744812640,"current_range_meters":9600,"station_id":"","pricing_plan_id":"cebpf4jnsgd1na2vs0mg"},{"bike_id":"1c0c17d4-38c5-4a1c-8a19-a752fa5d90ed","system_id":"levelo_inurba_marseille","lat":43.23184,"lon":5.39983,"is_reserved":false,"is_disabled":false,"rental_uris":{"android":"levelo://app?vid=1c0c17d4-38c5-4a1c-8a19-a752fa5d90ed","ios":"levelo://app?vid=1c0c17d4-38c5-4a1c-8a19-a752fa5d90ed"},"vehicle_type_id":"4","last_reported":1744812640,"current_range_meters":9600,"station_id":"ce4bhn12rcd13ifvqgqg","pricing_plan_id":"cebpf4jnsgd1na2vs0mg"},{"bike_id":"7eacb872-0584-4b06-8fad-feb612d3799a","system_id":"levelo_inurba_marseille","lat":43.29885,"lon":5.38075,"is_reserved":false,"is_disabled":false,"rental_uris":{"android":"levelo://app?vid=7eacb872-0584-4b06-8fad-feb612d3799a","ios":"levelo://app?vid=7eacb872-0584-4b06-8fad-feb612d3799a"},"vehicle_type_id":"4","last_reported":1744812640,"current_range_meters":10000,"station_id":"","pricing_plan_id":"cebpf4jnsgd1na2vs0mg"},{"bike_id":"eeec4aa3-87e9-4496-be2e-938ceb91cf85","system_id":"levelo_inurba_marseille","lat":43.293153,"lon":5.372181,"is_reserved":false,"is_disabled":true,"rental_uris":{"android":"levelo://app?vid=eeec4aa3-87e9-4496-be2e-938ceb91cf85","ios":"levelo://app?vid=eeec4aa3-87e9-4496-be2e-938ceb91cf85"},"vehicle_type_id":"4","last_reported":1744812640,"current_range_meters":10800,"station_id":"ce4bgh92rcd13ifvqb40","pricing_plan_id":"cebpf4jnsgd1na2vs0mg"},{"bike_id":"ae669bac-ccfa-4f88-b834-b0199f708b96","system_id":"levelo_inurba_marseille","lat":43.28869,"lon":5.35847,"is_reserved":false,"is_disabled":false,"rental_uris":{"android":"levelo://app?vid=ae669bac-ccfa-4f88-b834-b0199f708b96","ios":"levelo://app?vid=ae669bac-ccfa-4f88-b834-b0199f708b96"},"vehicle_type_id":"4","last_reported":1744812640,"current_range_meters":10800,"station_id":"ce4bhb12rcd13ifvqem0","pricing_plan_id":"cebpf4jnsgd1na2vs0mg"},{"bike_id":"9e138a0d-26f1-42d5-99d8-dcdef6c7128f","system_id":"levelo_inurba_marseille","lat":43.28396,"lon":5.37521,"is_reserved":false,"is_disabled":false,"rental_uris":{"android":"levelo://app?vid=9e138a0d-26f1-42d5-99d8-dcdef6c7128f","ios":"levelo://app?vid=9e138a0d-26f1-42d5-99d8-dcdef6c7128f"},"vehicle_type_id":"4","last_reported":1744812640,"current_range_meters":10800,"station_id":"ce4bh412rcd13ifvqds0","pricing_plan_id":"cebpf4jnsgd1na2vs0mg"},{"bike_id":"ee465a00-80df-4308-a2c3-b5ea33f92667","system_id":"levelo_inurba_marseille","lat":43.32094,"lon":5.36776,"is_reserved":false,"is_disabled":false,"rental_uris":{"android":"levelo://app?vid=ee465a00-80df-4308-a2c3-b5ea33f92667","ios":"levelo://app?vid=ee465a00-80df-4308-a2c3-b5ea33f92667"},"vehicle_type_id":"4","last_reported":1744812640,"current_range_meters":10800,"station_id":"ce4bhrh2rcd13ifvqhug","pricing_plan_id":"cebpf4jnsgd1na2vs0mg"},{"bike_id":"c4f36b71-1e12-49c7-b15e-ebd021cfb80f","system_id":"levelo_inurba_marseille","lat":43.31059,"lon":5.38355,"is_reserved":false,"is_disabled":false,"rental_uris":{"android":"levelo://app?vid=c4f36b71-1e12-49c7-b15e-ebd021cfb80f","ios":"levelo://app?vid=c4f36b71-1e12-49c7-b15e-ebd021cfb80f"},"vehicle_type_id":"4","last_reported":1744812640,"current_range_meters":10800,"station_id":"ce4bgv92rcd13ifvqcr0","pricing_plan_id":"cebpf4jnsgd1na2vs0mg"},{"bike_id":"e78c79d4-bf64-4fe8-98ee-289bec574c77","system_id":"levelo_inurba_marseille","lat":43.28361,"lon":5.3865,"is_reserved":false,"is_disabled":false,"rental_uris":{"android":"levelo://app?vid=e78c79d4-bf64-4fe8-98ee-289bec574c77","ios":"levelo://app?vid=e78c79d4-bf64-4fe8-98ee-289bec574c77"},"vehicle_type_id":"4","last_reported":1744812640,"current_range_meters":11200,"station_id":"ce4bh492rcd13ifvqdvg","pricing_plan_id":"cebpf4jnsgd1na2vs0mg"},{"bike_id":"561936ef-54e4-4d15-b2a7-dfd018b9e12e","system_id":"levelo_inurba_marseille","lat":43.2981,"lon":5.40258,"is_reserved":false,"is_disabled":false,"rental_uris":{"android":"levelo://app?vid=561936ef-54e4-4d15-b2a7-dfd018b9e12e","ios":"levelo://app?vid=561936ef-54e4-4d15-b2a7-dfd018b9e12e"},"vehicle_type_id":"4","last_reported":1744812640,"current_range_meters":11200,"station_id":"","pricing_plan_id":"cebpf4jnsgd1na2vs0mg"},{"bike_id":"e19fb6b1-db9c-4bd0-8954-3bb5838bc4f1","system_id":"levelo_inurba_marseille","lat":43.305773,"lon":5.393494,"is_reserved":false,"is_disabled":false,"rental_uris":{"android":"levelo://app?vid=e19fb6b1-db9c-4bd0-8954-3bb5838bc4f1","ios":"levelo://app?vid=e19fb6b1-db9c-4bd0-8954-3bb5838bc4f1"},"vehicle_type_id":"4","last_reported":1744812640,"current_range_meters":11200,"station_id":"ce4bh0p2rcd13ifvqd80","pricing_plan_id":"cebpf4jnsgd1na2vs0mg"},{"bike_id":"e8412f40-a8dc-44ee-bbc2-e01b1cf2ab9a","system_id":"levelo_inurba_marseille","lat":43.27838,"lon":5.39194,"is_reserved":false,"is_disabled":false,"rental_uris":{"android":"levelo://app?vid=e8412f40-a8dc-44ee-bbc2-e01b1cf2ab9a","ios":"levelo://app?vid=e8412f40-a8dc-44ee-bbc2-e01b1cf2ab9a"},"vehicle_type_id":"4","last_reported":1744812640,"current_range_meters":11600,"station_id":"ce4bhjp2rcd13ifvqga0","pricing_plan_id":"cebpf4jnsgd1na2vs0mg"},{"bike_id":"6163a5bc-9d06-489d-969f-5e490886d399","system_id":"levelo_inurba_marseille","lat":43.27306,"lon":5.39071,"is_reserved":false,"is_disabled":false,"rental_uris":{"android":"levelo://app?vid=6163a5bc-9d06-489d-969f-5e490886d399","ios":"levelo://app?vid=6163a5bc-9d06-489d-969f-5e490886d399"},"vehicle_type_id":"4","last_reported":1744812640,"current_range_meters":11600,"station_id":"ce4bhgp2rcd13ifvqfe0","pricing_plan_id":"cebpf4jnsgd1na2vs0mg"},{"bike_id":"4220a71d-b00b-46df-8353-e10f2175efff","system_id":"levelo_inurba_marseille","lat":43.32352,"lon":5.36753,"is_reserved":false,"is_disabled":false,"rental_uris":{"android":"levelo://app?vid=4220a71d-b00b-46df-8353-e10f2175efff","ios":"levelo://app?vid=4220a71d-b00b-46df-8353-e10f2175efff"},"vehicle_type_id":"4","last_reported":1744812640,"current_range_meters":11600,"station_id":"ce4bhsh2rcd13ifvqi2g","pricing_plan_id":"cebpf4jnsgd1na2vs0mg"},{"bike_id":"5ae0ec0f-589b-4a01-89e4-84d635e5266b","system_id":"levelo_inurba_marseille","lat":43.29241,"lon":5.36847,"is_reserved":false,"is_disabled":false,"rental_uris":{"android":"levelo://app?vid=5ae0ec0f-589b-4a01-89e4-84d635e5266b","ios":"levelo://app?vid=5ae0ec0f-589b-4a01-89e4-84d635e5266b"},"vehicle_type_id":"4","last_reported":1744812640,"current_range_meters":11600,"station_id":"ce4bhbp2rcd13ifvqesg","pricing_plan_id":"cebpf4jnsgd1na2vs0mg"},{"bike_id":"f66e9184-6144-4d05-86a5-08e1062e8ef8","system_id":"levelo_inurba_marseille","lat":43.25924,"lon":5.40907,"is_reserved":false,"is_disabled":false,"rental_uris":{"android":"levelo://app?vid=f66e9184-6144-4d05-86a5-08e1062e8ef8","ios":"levelo://app?vid=f66e9184-6144-4d05-86a5-08e1062e8ef8"},"vehicle_type_id":"4","last_reported":1744812640,"current_range_meters":12000,"station_id":"ce4bhm92rcd13ifvqglg","pricing_plan_id":"cebpf4jnsgd1na2vs0mg"},{"bike_id":"cacbedbd-6ac7-43bc-a63d-1c24e8dcd33f","system_id":"levelo_inurba_marseille","lat":43.28406,"lon":5.37524,"is_reserved":false,"is_disabled":false,"rental_uris":{"android":"levelo://app?vid=cacbedbd-6ac7-43bc-a63d-1c24e8dcd33f","ios":"levelo://app?vid=cacbedbd-6ac7-43bc-a63d-1c24e8dcd33f"},"vehicle_type_id":"4","last_reported":1744812640,"current_range_meters":12000,"station_id":"ce4bh412rcd13ifvqds0","pricing_plan_id":"cebpf4jnsgd1na2vs0mg"},{"bike_id":"08665e19-be9b-4b06-a7d4-30f714f1faad","system_id":"levelo_inurba_marseille","lat":43.25725,"lon":5.41108,"is_reserved":false,"is_disabled":false,"rental_uris":{"android":"levelo://app?vid=08665e19-be9b-4b06-a7d4-30f714f1faad","ios":"levelo://app?vid=08665e19-be9b-4b06-a7d4-30f714f1faad"},"vehicle_type_id":"4","last_reported":1744812640,"current_range_meters":12400,"station_id":"ce4bhkp2rcd13ifvqgd0","pricing_plan_id":"cebpf4jnsgd1na2vs0mg"},{"bike_id":"b57b1e88-8d90-4df6-a79a-c4f958a82cd6","system_id":"levelo_inurba_marseille","lat":43.299673,"lon":5.385013,"is_reserved":false,"is_disabled":false,"rental_uris":{"android":"levelo://app?vid=b57b1e88-8d90-4df6-a79a-c4f958a82cd6","ios":"levelo://app?vid=b57b1e88-8d90-4df6-a79a-c4f958a82cd6"},"vehicle_type_id":"4","last_reported":1744812640,"current_range_meters":12400,"station_id":"ce4bgj92rcd13ifvqbd0","pricing_plan_id":"cebpf4jnsgd1na2vs0mg"},{"bike_id":"5bd2378a-0ba2-4601-8114-ff49dc777988","system_id":"levelo_inurba_marseille","lat":43.3086,"lon":5.36856,"is_reserved":false,"is_disabled":false,"rental_uris":{"android":"levelo://app?vid=5bd2378a-0ba2-4601-8114-ff49dc777988","ios":"levelo://app?vid=5bd2378a-0ba2-4601-8114-ff49dc777988"},"vehicle_type_id":"4","last_reported":1744812640,"current_range_meters":12800,"station_id":"","pricing_plan_id":"cebpf4jnsgd1na2vs0mg"},{"bike_id":"834ec9e1-9d50-4bee-85ae-d1db335c55e5","system_id":"levelo_inurba_marseille","lat":43.31542,"lon":5.36484,"is_reserved":false,"is_disabled":false,"rental_uris":{"android":"levelo://app?vid=834ec9e1-9d50-4bee-85ae-d1db335c55e5","ios":"levelo://app?vid=834ec9e1-9d50-4bee-85ae-d1db335c55e5"},"vehicle_type_id":"4","last_reported":1744812640,"current_range_meters":12800,"station_id":"","pricing_plan_id":"cebpf4jnsgd1na2vs0mg"},{"bike_id":"d32adbac-a9be-4faf-bea0-b0e0d031f8ab","system_id":"levelo_inurba_marseille","lat":43.27496,"lon":5.42451,"is_reserved":false,"is_disabled":false,"rental_uris":{"android":"levelo://app?vid=d32adbac-a9be-4faf-bea0-b0e0d031f8ab","ios":"levelo://app?vid=d32adbac-a9be-4faf-bea0-b0e0d031f8ab"},"vehicle_type_id":"4","last_reported":1744812640,"current_range_meters":12800,"station_id":"ce4bhn92rcd13ifvqgrg","pricing_plan_id":"cebpf4jnsgd1na2vs0mg"},{"bike_id":"f1d1d668-e9a3-40c6-8b34-e48aa0afdf58","system_id":"levelo_inurba_marseille","lat":43.30171,"lon":5.38071,"is_reserved":false,"is_disabled":false,"rental_uris":{"android":"levelo://app?vid=f1d1d668-e9a3-40c6-8b34-e48aa0afdf58","ios":"levelo://app?vid=f1d1d668-e9a3-40c6-8b34-e48aa0afdf58"},"vehicle_type_id":"4","last_reported":1744812640,"current_range_meters":12800,"station_id":"ce4bgjp2rcd13ifvqbh0","pricing_plan_id":"cebpf4jnsgd1na2vs0mg"},{"bike_id":"b4bba65f-7d2a-4966-8355-1ad7d975f76c","system_id":"levelo_inurba_marseille","lat":43.299197,"lon":5.374682,"is_reserved":false,"is_disabled":false,"rental_uris":{"android":"levelo://app?vid=b4bba65f-7d2a-4966-8355-1ad7d975f76c","ios":"levelo://app?vid=b4bba65f-7d2a-4966-8355-1ad7d975f76c"},"vehicle_type_id":"4","last_reported":1744812640,"current_range_meters":13600,"station_id":"ce4bgjh2rcd13ifvqbg0","pricing_plan_id":"cebpf4jnsgd1na2vs0mg"},{"bike_id":"03a015a5-5d24-4c0f-9573-f27a03521326","system_id":"levelo_inurba_marseille","lat":43.30265,"lon":5.37701,"is_reserved":false,"is_disabled":false,"rental_uris":{"android":"levelo://app?vid=03a015a5-5d24-4c0f-9573-f27a03521326","ios":"levelo://app?vid=03a015a5-5d24-4c0f-9573-f27a03521326"},"vehicle_type_id":"4","last_reported":1744812640,"current_range_meters":13600,"station_id":"ce4bguh2rcd13ifvqcj0","pricing_plan_id":"cebpf4jnsgd1na2vs0mg"},{"bike_id":"90aab251-1ff9-4010-ba90-86de6b1ffc35","system_id":"levelo_inurba_marseille","lat":43.23147,"lon":5.43718,"is_reserved":false,"is_disabled":false,"rental_uris":{"android":"levelo://app?vid=90aab251-1ff9-4010-ba90-86de6b1ffc35","ios":"levelo://app?vid=90aab251-1ff9-4010-ba90-86de6b1ffc35"},"vehicle_type_id":"4","last_reported":1744812640,"current_range_meters":14000,"station_id":"ce4bhmp2rcd13ifvqgog","pricing_plan_id":"cebpf4jnsgd1na2vs0mg"},{"bike_id":"4328369a-71e3-42f0-af9b-b3d103933d00","system_id":"levelo_inurba_marseille","lat":43.33611,"lon":5.41034,"is_reserved":false,"is_disabled":false,"rental_uris":{"android":"levelo://app?vid=4328369a-71e3-42f0-af9b-b3d103933d00","ios":"levelo://app?vid=4328369a-71e3-42f0-af9b-b3d103933d00"},"vehicle_type_id":"4","last_reported":1744812640,"current_range_meters":14400,"station_id":"ce4bhqh2rcd13ifvqhmg","pricing_plan_id":"cebpf4jnsgd1na2vs0mg"},{"bike_id":"a6d451ba-0fef-4616-9459-0a9167b4802c","system_id":"levelo_inurba_marseille","lat":43.293742,"lon":5.378539,"is_reserved":false,"is_disabled":false,"rental_uris":{"android":"levelo://app?vid=a6d451ba-0fef-4616-9459-0a9167b4802c","ios":"levelo://app?vid=a6d451ba-0fef-4616-9459-0a9167b4802c"},"vehicle_type_id":"4","last_reported":1744812640,"current_range_meters":14400,"station_id":"ce4bgjh2rcd13ifvqbf0","pricing_plan_id":"cebpf4jnsgd1na2vs0mg"},{"bike_id":"dbf6dd73-8162-48f1-bd38-854d43e56564","system_id":"levelo_inurba_marseille","lat":43.24663,"lon":5.38155,"is_reserved":false,"is_disabled":false,"rental_uris":{"android":"levelo://app?vid=dbf6dd73-8162-48f1-bd38-854d43e56564","ios":"levelo://app?vid=dbf6dd73-8162-48f1-bd38-854d43e56564"},"vehicle_type_id":"4","last_reported":1744812640,"current_range_meters":14400,"station_id":"ce4bhih2rcd13ifvqfr0","pricing_plan_id":"cebpf4jnsgd1na2vs0mg"},{"bike_id":"4b9b1e69-af86-4122-8d46-0d52505b1cab","system_id":"levelo_inurba_marseille","lat":43.273003,"lon":5.424885,"is_reserved":false,"is_disabled":false,"rental_uris":{"android":"levelo://app?vid=4b9b1e69-af86-4122-8d46-0d52505b1cab","ios":"levelo://app?vid=4b9b1e69-af86-4122-8d46-0d52505b1cab"},"vehicle_type_id":"4","last_reported":1744812640,"current_range_meters":14400,"station_id":"ce4bhn92rcd13ifvqgrg","pricing_plan_id":"cebpf4jnsgd1na2vs0mg"},{"bike_id":"dda27a58-e2ca-4fce-a851-41cf6185682c","system_id":"levelo_inurba_marseille","lat":43.30272,"lon":5.37697,"is_reserved":false,"is_disabled":false,"rental_uris":{"android":"levelo://app?vid=dda27a58-e2ca-4fce-a851-41cf6185682c","ios":"levelo://app?vid=dda27a58-e2ca-4fce-a851-41cf6185682c"},"vehicle_type_id":"4","last_reported":1744812640,"current_range_meters":14800,"station_id":"ce4bguh2rcd13ifvqcj0","pricing_plan_id":"cebpf4jnsgd1na2vs0mg"},{"bike_id":"8ece13d7-e6aa-4d06-88de-c3e6a1495859","system_id":"levelo_inurba_marseille","lat":43.2988,"lon":5.38151,"is_reserved":false,"is_disabled":false,"rental_uris":{"android":"levelo://app?vid=8ece13d7-e6aa-4d06-88de-c3e6a1495859","ios":"levelo://app?vid=8ece13d7-e6aa-4d06-88de-c3e6a1495859"},"vehicle_type_id":"4","last_reported":1744812640,"current_range_meters":14800,"station_id":"ce4bgj12rcd13ifvqbc0","pricing_plan_id":"cebpf4jnsgd1na2vs0mg"},{"bike_id":"e671135f-6e8d-4f7d-b793-34acac25fdfc","system_id":"levelo_inurba_marseille","lat":43.32362,"lon":5.36755,"is_reserved":false,"is_disabled":false,"rental_uris":{"android":"levelo://app?vid=e671135f-6e8d-4f7d-b793-34acac25fdfc","ios":"levelo://app?vid=e671135f-6e8d-4f7d-b793-34acac25fdfc"},"vehicle_type_id":"4","last_reported":1744812640,"current_range_meters":14800,"station_id":"ce4bhsh2rcd13ifvqi2g","pricing_plan_id":"cebpf4jnsgd1na2vs0mg"},{"bike_id":"eef0f7e9-3fd3-478d-8d05-1e689878276c","system_id":"levelo_inurba_marseille","lat":43.279966,"lon":5.400122,"is_reserved":false,"is_disabled":false,"rental_uris":{"android":"levelo://app?vid=eef0f7e9-3fd3-478d-8d05-1e689878276c","ios":"levelo://app?vid=eef0f7e9-3fd3-478d-8d05-1e689878276c"},"vehicle_type_id":"4","last_reported":1744812640,"current_range_meters":14800,"station_id":"ce4bho92rcd13ifvqh4g","pricing_plan_id":"cebpf4jnsgd1na2vs0mg"},{"bike_id":"7feb4729-42fd-470d-9dd7-7f0363fdf83d","system_id":"levelo_inurba_marseille","lat":43.27919,"lon":5.39579,"is_reserved":false,"is_disabled":false,"rental_uris":{"android":"levelo://app?vid=7feb4729-42fd-470d-9dd7-7f0363fdf83d","ios":"levelo://app?vid=7feb4729-42fd-470d-9dd7-7f0363fdf83d"},"vehicle_type_id":"4","last_reported":1744812640,"current_range_meters":14800,"station_id":"ce4bhf92rcd13ifvqf40","pricing_plan_id":"cebpf4jnsgd1na2vs0mg"},{"bike_id":"6bf5a380-400e-4cd6-bc1e-356afac9ee45","system_id":"levelo_inurba_marseille","lat":43.24168,"lon":5.36395,"is_reserved":false,"is_disabled":false,"rental_uris":{"android":"levelo://app?vid=6bf5a380-400e-4cd6-bc1e-356afac9ee45","ios":"levelo://app?vid=6bf5a380-400e-4cd6-bc1e-356afac9ee45"},"vehicle_type_id":"4","last_reported":1744812640,"current_range_meters":15200,"station_id":"cpo36qri1sfpv3e86is0","pricing_plan_id":"cebpf4jnsgd1na2vs0mg"},{"bike_id":"2be2e8c5-ff49-4a5a-963a-4bbeabb11512","system_id":"levelo_inurba_marseille","lat":43.3075,"lon":5.4244,"is_reserved":false,"is_disabled":false,"rental_uris":{"android":"levelo://app?vid=2be2e8c5-ff49-4a5a-963a-4bbeabb11512","ios":"levelo://app?vid=2be2e8c5-ff49-4a5a-963a-4bbeabb11512"},"vehicle_type_id":"4","last_reported":1744812640,"current_range_meters":15200,"station_id":"st_cvj6ca6bvosntc0bfgr0","pricing_plan_id":"cebpf4jnsgd1na2vs0mg"},{"bike_id":"bb4c7007-6ffb-4d6f-bebc-e65ec0473f32","system_id":"levelo_inurba_marseille","lat":43.31244,"lon":5.36835,"is_reserved":false,"is_disabled":false,"rental_uris":{"android":"levelo://app?vid=bb4c7007-6ffb-4d6f-bebc-e65ec0473f32","ios":"levelo://app?vid=bb4c7007-6ffb-4d6f-bebc-e65ec0473f32"},"vehicle_type_id":"4","last_reported":1744812640,"current_range_meters":15200,"station_id":"ce4bgl92rcd13ifvqbq0","pricing_plan_id":"cebpf4jnsgd1na2vs0mg"},{"bike_id":"88a0cb80-a51d-46bc-8228-c9a9fb028348","system_id":"levelo_inurba_marseille","lat":43.25652,"lon":5.42001,"is_reserved":false,"is_disabled":false,"rental_uris":{"android":"levelo://app?vid=88a0cb80-a51d-46bc-8228-c9a9fb028348","ios":"levelo://app?vid=88a0cb80-a51d-46bc-8228-c9a9fb028348"},"vehicle_type_id":"4","last_reported":1744812640,"current_range_meters":16000,"station_id":"","pricing_plan_id":"cebpf4jnsgd1na2vs0mg"},{"bike_id":"675d80cb-1fd3-4e80-a95c-d73accac4772","system_id":"levelo_inurba_marseille","lat":43.30203,"lon":5.39473,"is_reserved":false,"is_disabled":false,"rental_uris":{"android":"levelo://app?vid=675d80cb-1fd3-4e80-a95c-d73accac4772","ios":"levelo://app?vid=675d80cb-1fd3-4e80-a95c-d73accac4772"},"vehicle_type_id":"4","last_reported":1744812640,"current_range_meters":16000,"station_id":"ce4bh0p2rcd13ifvqd70","pricing_plan_id":"cebpf4jnsgd1na2vs0mg"},{"bike_id":"93be371e-f079-4065-9c94-f1bd2172cfd1","system_id":"levelo_inurba_marseille","lat":43.28603,"lon":5.37067,"is_reserved":false,"is_disabled":false,"rental_uris":{"android":"levelo://app?vid=93be371e-f079-4065-9c94-f1bd2172cfd1","ios":"levelo://app?vid=93be371e-f079-4065-9c94-f1bd2172cfd1"},"vehicle_type_id":"4","last_reported":1744812640,"current_range_meters":16400,"station_id":"ce4bht12rcd13ifvqi60","pricing_plan_id":"cebpf4jnsgd1na2vs0mg"},{"bike_id":"10a05b79-c3d5-4be7-a18b-8140be240501","system_id":"levelo_inurba_marseille","lat":43.29614,"lon":5.38109,"is_reserved":false,"is_disabled":false,"rental_uris":{"android":"levelo://app?vid=10a05b79-c3d5-4be7-a18b-8140be240501","ios":"levelo://app?vid=10a05b79-c3d5-4be7-a18b-8140be240501"},"vehicle_type_id":"4","last_reported":1744812640,"current_range_meters":16400,"station_id":"ce4bgl12rcd13ifvqbo0","pricing_plan_id":"cebpf4jnsgd1na2vs0mg"},{"bike_id":"c31c0ecc-e896-4522-8f59-f94ab8194ac3","system_id":"levelo_inurba_marseille","lat":43.31705,"lon":5.40426,"is_reserved":false,"is_disabled":false,"rental_uris":{"android":"levelo://app?vid=c31c0ecc-e896-4522-8f59-f94ab8194ac3","ios":"levelo://app?vid=c31c0ecc-e896-4522-8f59-f94ab8194ac3"},"vehicle_type_id":"4","last_reported":1744812640,"current_range_meters":16400,"station_id":"ce4bh012rcd13ifvqd00","pricing_plan_id":"cebpf4jnsgd1na2vs0mg"},{"bike_id":"6c753cfd-e2a2-46b2-a74f-cf2c42d3ccc5","system_id":"levelo_inurba_marseille","lat":43.30464,"lon":5.37912,"is_reserved":false,"is_disabled":false,"rental_uris":{"android":"levelo://app?vid=6c753cfd-e2a2-46b2-a74f-cf2c42d3ccc5","ios":"levelo://app?vid=6c753cfd-e2a2-46b2-a74f-cf2c42d3ccc5"},"vehicle_type_id":"4","last_reported":1744812640,"current_range_meters":16400,"station_id":"ce4bgup2rcd13ifvqcn0","pricing_plan_id":"cebpf4jnsgd1na2vs0mg"},{"bike_id":"970a4b57-ac2b-4ad4-bc8a-239431db997e","system_id":"levelo_inurba_marseille","lat":43.26934,"lon":5.4024,"is_reserved":false,"is_disabled":false,"rental_uris":{"android":"levelo://app?vid=970a4b57-ac2b-4ad4-bc8a-239431db997e","ios":"levelo://app?vid=970a4b57-ac2b-4ad4-bc8a-239431db997e"},"vehicle_type_id":"4","last_reported":1744812640,"current_range_meters":16400,"station_id":"cjm6bp8fraef2m0cb0m0","pricing_plan_id":"cebpf4jnsgd1na2vs0mg"},{"bike_id":"f462d1c0-a98e-4d8b-b578-9a1b5c4d74d9","system_id":"levelo_inurba_marseille","lat":43.29527,"lon":5.42301,"is_reserved":false,"is_disabled":false,"rental_uris":{"android":"levelo://app?vid=f462d1c0-a98e-4d8b-b578-9a1b5c4d74d9","ios":"levelo://app?vid=f462d1c0-a98e-4d8b-b578-9a1b5c4d74d9"},"vehicle_type_id":"4","last_reported":1744812640,"current_range_meters":16800,"station_id":"ce4bhph2rcd13ifvqhdg","pricing_plan_id":"cebpf4jnsgd1na2vs0mg"},{"bike_id":"b6b4fba7-65bd-4354-9ef8-9be346fbbc8a","system_id":"levelo_inurba_marseille","lat":43.30272,"lon":5.37694,"is_reserved":false,"is_disabled":false,"rental_uris":{"android":"levelo://app?vid=b6b4fba7-65bd-4354-9ef8-9be346fbbc8a","ios":"levelo://app?vid=b6b4fba7-65bd-4354-9ef8-9be346fbbc8a"},"vehicle_type_id":"4","last_reported":1744812640,"current_range_meters":16800,"station_id":"ce4bguh2rcd13ifvqcj0","pricing_plan_id":"cebpf4jnsgd1na2vs0mg"},{"bike_id":"da2251a7-2b2b-4dd1-8be8-8f047831f0e4","system_id":"levelo_inurba_marseille","lat":43.30303,"lon":5.39195,"is_reserved":false,"is_disabled":true,"rental_uris":{"android":"levelo://app?vid=da2251a7-2b2b-4dd1-8be8-8f047831f0e4","ios":"levelo://app?vid=da2251a7-2b2b-4dd1-8be8-8f047831f0e4"},"vehicle_type_id":"4","last_reported":1744812640,"current_range_meters":16800,"station_id":"ce4bgkh2rcd13ifvqbk0","pricing_plan_id":"cebpf4jnsgd1na2vs0mg"},{"bike_id":"6d808110-2d8c-4565-a3c5-2c4f66ab2217","system_id":"levelo_inurba_marseille","lat":43.29717,"lon":5.37681,"is_reserved":false,"is_disabled":false,"rental_uris":{"android":"levelo://app?vid=6d808110-2d8c-4565-a3c5-2c4f66ab2217","ios":"levelo://app?vid=6d808110-2d8c-4565-a3c5-2c4f66ab2217"},"vehicle_type_id":"4","last_reported":1744812640,"current_range_meters":16800,"station_id":"ce4bgkh2rcd13ifvqbl0","pricing_plan_id":"cebpf4jnsgd1na2vs0mg"},{"bike_id":"b2b5fca9-1c00-4f10-b835-ccdcc8af05da","system_id":"levelo_inurba_marseille","lat":43.25936,"lon":5.40921,"is_reserved":false,"is_disabled":false,"rental_uris":{"android":"levelo://app?vid=b2b5fca9-1c00-4f10-b835-ccdcc8af05da","ios":"levelo://app?vid=b2b5fca9-1c00-4f10-b835-ccdcc8af05da"},"vehicle_type_id":"4","last_reported":1744812640,"current_range_meters":16800,"station_id":"ce4bhm92rcd13ifvqglg","pricing_plan_id":"cebpf4jnsgd1na2vs0mg"},{"bike_id":"57406be6-c0b4-4691-8abf-3f6842e4ec81","system_id":"levelo_inurba_marseille","lat":43.28434,"lon":5.39209,"is_reserved":false,"is_disabled":true,"rental_uris":{"android":"levelo://app?vid=57406be6-c0b4-4691-8abf-3f6842e4ec81","ios":"levelo://app?vid=57406be6-c0b4-4691-8abf-3f6842e4ec81"},"vehicle_type_id":"4","last_reported":1744812640,"current_range_meters":16800,"station_id":"ce4bhoh2rcd13ifvqh5g","pricing_plan_id":"cebpf4jnsgd1na2vs0mg"},{"bike_id":"d01f576d-3e90-412e-8750-88651a01cd22","system_id":"levelo_inurba_marseille","lat":43.28618,"lon":5.35112,"is_reserved":false,"is_disabled":false,"rental_uris":{"android":"levelo://app?vid=d01f576d-3e90-412e-8750-88651a01cd22","ios":"levelo://app?vid=d01f576d-3e90-412e-8750-88651a01cd22"},"vehicle_type_id":"4","last_reported":1744812640,"current_range_meters":16800,"station_id":"ce4bhch2rcd13ifvqeug","pricing_plan_id":"cebpf4jnsgd1na2vs0mg"},{"bike_id":"f9568e63-26c3-4155-b371-15ce4ba30bff","system_id":"levelo_inurba_marseille","lat":43.28929,"lon":5.38408,"is_reserved":false,"is_disabled":false,"rental_uris":{"android":"levelo://app?vid=f9568e63-26c3-4155-b371-15ce4ba30bff","ios":"levelo://app?vid=f9568e63-26c3-4155-b371-15ce4ba30bff"},"vehicle_type_id":"4","last_reported":1744812640,"current_range_meters":16800,"station_id":"ce4bh612rcd13ifvqe6g","pricing_plan_id":"cebpf4jnsgd1na2vs0mg"},{"bike_id":"55ad988e-462d-4f85-8e4f-a9aaf5e402e7","system_id":"levelo_inurba_marseille","lat":43.25937,"lon":5.40898,"is_reserved":false,"is_disabled":false,"rental_uris":{"android":"levelo://app?vid=55ad988e-462d-4f85-8e4f-a9aaf5e402e7","ios":"levelo://app?vid=55ad988e-462d-4f85-8e4f-a9aaf5e402e7"},"vehicle_type_id":"4","last_reported":1744812640,"current_range_meters":17200,"station_id":"ce4bhm92rcd13ifvqglg","pricing_plan_id":"cebpf4jnsgd1na2vs0mg"},{"bike_id":"cfad297e-6e3f-46db-9682-15db71b2c04f","system_id":"levelo_inurba_marseille","lat":43.28481,"lon":5.38405,"is_reserved":false,"is_disabled":false,"rental_uris":{"android":"levelo://app?vid=cfad297e-6e3f-46db-9682-15db71b2c04f","ios":"levelo://app?vid=cfad297e-6e3f-46db-9682-15db71b2c04f"},"vehicle_type_id":"4","last_reported":1744812640,"current_range_meters":17200,"station_id":"ce4bh512rcd13ifvqe3g","pricing_plan_id":"cebpf4jnsgd1na2vs0mg"},{"bike_id":"3369f7bc-af4b-44b9-aec1-c2bceb4a7e3d","system_id":"levelo_inurba_marseille","lat":43.29577,"lon":5.37519,"is_reserved":false,"is_disabled":false,"rental_uris":{"android":"levelo://app?vid=3369f7bc-af4b-44b9-aec1-c2bceb4a7e3d","ios":"levelo://app?vid=3369f7bc-af4b-44b9-aec1-c2bceb4a7e3d"},"vehicle_type_id":"4","last_reported":1744812640,"current_range_meters":17200,"station_id":"ce4bgh92rcd13ifvqb50","pricing_plan_id":"cebpf4jnsgd1na2vs0mg"},{"bike_id":"b453c917-0db1-40bd-ad8a-e14424b609f7","system_id":"levelo_inurba_marseille","lat":43.27054,"lon":5.40255,"is_reserved":false,"is_disabled":false,"rental_uris":{"android":"levelo://app?vid=b453c917-0db1-40bd-ad8a-e14424b609f7","ios":"levelo://app?vid=b453c917-0db1-40bd-ad8a-e14424b609f7"},"vehicle_type_id":"4","last_reported":1744812640,"current_range_meters":17600,"station_id":"ce4bhk92rcd13ifvqgc0","pricing_plan_id":"cebpf4jnsgd1na2vs0mg"},{"bike_id":"fe600dd5-8036-4013-8c23-dfb23882d026","system_id":"levelo_inurba_marseille","lat":43.32471,"lon":5.36555,"is_reserved":false,"is_disabled":false,"rental_uris":{"android":"levelo://app?vid=fe600dd5-8036-4013-8c23-dfb23882d026","ios":"levelo://app?vid=fe600dd5-8036-4013-8c23-dfb23882d026"},"vehicle_type_id":"4","last_reported":1744812640,"current_range_meters":17600,"station_id":"ce4bhs12rcd13ifvqhvg","pricing_plan_id":"cebpf4jnsgd1na2vs0mg"},{"bike_id":"f490a299-9fe8-426c-ba0b-766dc14b5cdb","system_id":"levelo_inurba_marseille","lat":43.30416,"lon":5.39745,"is_reserved":false,"is_disabled":false,"rental_uris":{"android":"levelo://app?vid=f490a299-9fe8-426c-ba0b-766dc14b5cdb","ios":"levelo://app?vid=f490a299-9fe8-426c-ba0b-766dc14b5cdb"},"vehicle_type_id":"4","last_reported":1744812640,"current_range_meters":17600,"station_id":"ce4bh092rcd13ifvqd20","pricing_plan_id":"cebpf4jnsgd1na2vs0mg"},{"bike_id":"da0699e6-fffb-42fd-bda2-fa249cfedfd8","system_id":"levelo_inurba_marseille","lat":43.31508,"lon":5.37285,"is_reserved":false,"is_disabled":false,"rental_uris":{"android":"levelo://app?vid=da0699e6-fffb-42fd-bda2-fa249cfedfd8","ios":"levelo://app?vid=da0699e6-fffb-42fd-bda2-fa249cfedfd8"},"vehicle_type_id":"4","last_reported":1744812640,"current_range_meters":18000,"station_id":"ce4bgt12rcd13ifvqcd0","pricing_plan_id":"cebpf4jnsgd1na2vs0mg"},{"bike_id":"9e07f262-a79e-4ac1-a27b-fec195d73734","system_id":"levelo_inurba_marseille","lat":43.29199,"lon":5.3932,"is_reserved":false,"is_disabled":false,"rental_uris":{"android":"levelo://app?vid=9e07f262-a79e-4ac1-a27b-fec195d73734","ios":"levelo://app?vid=9e07f262-a79e-4ac1-a27b-fec195d73734"},"vehicle_type_id":"4","last_reported":1744812640,"current_range_meters":18000,"station_id":"ce4bh192rcd13ifvqdd0","pricing_plan_id":"cebpf4jnsgd1na2vs0mg"},{"bike_id":"8c95c56e-fd38-4747-b8d7-85ddf29bba6c","system_id":"levelo_inurba_marseille","lat":43.29778,"lon":5.38179,"is_reserved":false,"is_disabled":false,"rental_uris":{"android":"levelo://app?vid=8c95c56e-fd38-4747-b8d7-85ddf29bba6c","ios":"levelo://app?vid=8c95c56e-fd38-4747-b8d7-85ddf29bba6c"},"vehicle_type_id":"4","last_reported":1744812640,"current_range_meters":18000,"station_id":"ce4bgip2rcd13ifvqbb0","pricing_plan_id":"cebpf4jnsgd1na2vs0mg"},{"bike_id":"182b0849-c1c2-4e02-a196-85df37bf5057","system_id":"levelo_inurba_marseille","lat":43.25593,"lon":5.38253,"is_reserved":false,"is_disabled":false,"rental_uris":{"android":"levelo://app?vid=182b0849-c1c2-4e02-a196-85df37bf5057","ios":"levelo://app?vid=182b0849-c1c2-4e02-a196-85df37bf5057"},"vehicle_type_id":"4","last_reported":1744812640,"current_range_meters":18000,"station_id":"ce4bhih2rcd13ifvqfs0","pricing_plan_id":"cebpf4jnsgd1na2vs0mg"},{"bike_id":"c2942c94-b3df-4dac-a78e-487ce43b8feb","system_id":"levelo_inurba_marseille","lat":43.29796,"lon":5.38105,"is_reserved":false,"is_disabled":false,"rental_uris":{"android":"levelo://app?vid=c2942c94-b3df-4dac-a78e-487ce43b8feb","ios":"levelo://app?vid=c2942c94-b3df-4dac-a78e-487ce43b8feb"},"vehicle_type_id":"4","last_reported":1744812640,"current_range_meters":18000,"station_id":"ce4bgip2rcd13ifvqbb0","pricing_plan_id":"cebpf4jnsgd1na2vs0mg"},{"bike_id":"8a5efe28-9f06-4b14-a5fb-14d60c1a7f60","system_id":"levelo_inurba_marseille","lat":43.27959,"lon":5.38655,"is_reserved":false,"is_disabled":false,"rental_uris":{"android":"levelo://app?vid=8a5efe28-9f06-4b14-a5fb-14d60c1a7f60","ios":"levelo://app?vid=8a5efe28-9f06-4b14-a5fb-14d60c1a7f60"},"vehicle_type_id":"4","last_reported":1744812640,"current_range_meters":18000,"station_id":"ce4bhg12rcd13ifvqf80","pricing_plan_id":"cebpf4jnsgd1na2vs0mg"},{"bike_id":"479d5a5f-271f-4ac2-a568-4c71926ce846","system_id":"levelo_inurba_marseille","lat":43.26213,"lon":5.37441,"is_reserved":false,"is_disabled":false,"rental_uris":{"android":"levelo://app?vid=479d5a5f-271f-4ac2-a568-4c71926ce846","ios":"levelo://app?vid=479d5a5f-271f-4ac2-a568-4c71926ce846"},"vehicle_type_id":"4","last_reported":1744812640,"current_range_meters":18000,"station_id":"ce4bhgp2rcd13ifvqfc0","pricing_plan_id":"cebpf4jnsgd1na2vs0mg"},{"bike_id":"04cf4fa0-e4b0-4772-b6fb-339b99054880","system_id":"levelo_inurba_marseille","lat":43.31328,"lon":5.39693,"is_reserved":false,"is_disabled":false,"rental_uris":{"android":"levelo://app?vid=04cf4fa0-e4b0-4772-b6fb-339b99054880","ios":"levelo://app?vid=04cf4fa0-e4b0-4772-b6fb-339b99054880"},"vehicle_type_id":"4","last_reported":1744812640,"current_range_meters":18800,"station_id":"ce4bgvp2rcd13ifvqcu0","pricing_plan_id":"cebpf4jnsgd1na2vs0mg"},{"bike_id":"9f3a5dd8-a360-4b18-82ad-d26b0a34023d","system_id":"levelo_inurba_marseille","lat":43.30536,"lon":5.36537,"is_reserved":false,"is_disabled":false,"rental_uris":{"android":"levelo://app?vid=9f3a5dd8-a360-4b18-82ad-d26b0a34023d","ios":"levelo://app?vid=9f3a5dd8-a360-4b18-82ad-d26b0a34023d"},"vehicle_type_id":"4","last_reported":1744812640,"current_range_meters":18800,"station_id":"ce4bgs12rcd13ifvqcag","pricing_plan_id":"cebpf4jnsgd1na2vs0mg"},{"bike_id":"2d03e3c2-09e4-4978-8dbc-31228f7e9fd5","system_id":"levelo_inurba_marseille","lat":43.25575,"lon":5.38227,"is_reserved":false,"is_disabled":false,"rental_uris":{"android":"levelo://app?vid=2d03e3c2-09e4-4978-8dbc-31228f7e9fd5","ios":"levelo://app?vid=2d03e3c2-09e4-4978-8dbc-31228f7e9fd5"},"vehicle_type_id":"4","last_reported":1744812640,"current_range_meters":18800,"station_id":"ce4bhih2rcd13ifvqfs0","pricing_plan_id":"cebpf4jnsgd1na2vs0mg"},{"bike_id":"649e44eb-2a88-412e-9725-faa6238bc83e","system_id":"levelo_inurba_marseille","lat":43.31219,"lon":5.36867,"is_reserved":false,"is_disabled":false,"rental_uris":{"android":"levelo://app?vid=649e44eb-2a88-412e-9725-faa6238bc83e","ios":"levelo://app?vid=649e44eb-2a88-412e-9725-faa6238bc83e"},"vehicle_type_id":"4","last_reported":1744812640,"current_range_meters":18800,"station_id":"ce4bgl92rcd13ifvqbq0","pricing_plan_id":"cebpf4jnsgd1na2vs0mg"},{"bike_id":"5cdb7b28-f614-45c5-bd75-3b39342c5a42","system_id":"levelo_inurba_marseille","lat":43.27992,"lon":5.40019,"is_reserved":false,"is_disabled":false,"rental_uris":{"android":"levelo://app?vid=5cdb7b28-f614-45c5-bd75-3b39342c5a42","ios":"levelo://app?vid=5cdb7b28-f614-45c5-bd75-3b39342c5a42"},"vehicle_type_id":"4","last_reported":1744812640,"current_range_meters":18800,"station_id":"ce4bho92rcd13ifvqh4g","pricing_plan_id":"cebpf4jnsgd1na2vs0mg"},{"bike_id":"88f3759b-2c1f-4762-b11a-067d1d7bb035","system_id":"levelo_inurba_marseille","lat":43.24175,"lon":5.39735,"is_reserved":false,"is_disabled":false,"rental_uris":{"android":"levelo://app?vid=88f3759b-2c1f-4762-b11a-067d1d7bb035","ios":"levelo://app?vid=88f3759b-2c1f-4762-b11a-067d1d7bb035"},"vehicle_type_id":"4","last_reported":1744812640,"current_range_meters":18800,"station_id":"ce4bhn12rcd13ifvqgpg","pricing_plan_id":"cebpf4jnsgd1na2vs0mg"},{"bike_id":"5e438ae3-f489-48de-88fa-2a8017d6f5d4","system_id":"levelo_inurba_marseille","lat":43.30147,"lon":5.38096,"is_reserved":false,"is_disabled":false,"rental_uris":{"android":"levelo://app?vid=5e438ae3-f489-48de-88fa-2a8017d6f5d4","ios":"levelo://app?vid=5e438ae3-f489-48de-88fa-2a8017d6f5d4"},"vehicle_type_id":"4","last_reported":1744812640,"current_range_meters":18800,"station_id":"ce4bgjp2rcd13ifvqbh0","pricing_plan_id":"cebpf4jnsgd1na2vs0mg"},{"bike_id":"a0ddb0a5-f7f0-4281-aa27-9e82747cc573","system_id":"levelo_inurba_marseille","lat":43.33751,"lon":5.37483,"is_reserved":false,"is_disabled":false,"rental_uris":{"android":"levelo://app?vid=a0ddb0a5-f7f0-4281-aa27-9e82747cc573","ios":"levelo://app?vid=a0ddb0a5-f7f0-4281-aa27-9e82747cc573"},"vehicle_type_id":"4","last_reported":1744812640,"current_range_meters":18800,"station_id":"","pricing_plan_id":"cebpf4jnsgd1na2vs0mg"},{"bike_id":"cb2339f4-0371-4078-a89b-835123189f9a","system_id":"levelo_inurba_marseille","lat":43.25716,"lon":5.41102,"is_reserved":false,"is_disabled":false,"rental_uris":{"android":"levelo://app?vid=cb2339f4-0371-4078-a89b-835123189f9a","ios":"levelo://app?vid=cb2339f4-0371-4078-a89b-835123189f9a"},"vehicle_type_id":"4","last_reported":1744812640,"current_range_meters":19200,"station_id":"ce4bhkp2rcd13ifvqgd0","pricing_plan_id":"cebpf4jnsgd1na2vs0mg"},{"bike_id":"00109c26-30db-4a20-9d6c-8e14047387c2","system_id":"levelo_inurba_marseille","lat":43.29737,"lon":5.3767,"is_reserved":false,"is_disabled":false,"rental_uris":{"android":"levelo://app?vid=00109c26-30db-4a20-9d6c-8e14047387c2","ios":"levelo://app?vid=00109c26-30db-4a20-9d6c-8e14047387c2"},"vehicle_type_id":"4","last_reported":1744812640,"current_range_meters":19200,"station_id":"ce4bgkh2rcd13ifvqbl0","pricing_plan_id":"cebpf4jnsgd1na2vs0mg"},{"bike_id":"f9294aff-5b6f-4d62-9db7-b7bdca4ffaf5","system_id":"levelo_inurba_marseille","lat":43.32543,"lon":5.41434,"is_reserved":false,"is_disabled":false,"rental_uris":{"android":"levelo://app?vid=f9294aff-5b6f-4d62-9db7-b7bdca4ffaf5","ios":"levelo://app?vid=f9294aff-5b6f-4d62-9db7-b7bdca4ffaf5"},"vehicle_type_id":"4","last_reported":1744812640,"current_range_meters":19200,"station_id":"ce4bhq12rcd13ifvqhhg","pricing_plan_id":"cebpf4jnsgd1na2vs0mg"},{"bike_id":"439c6cb6-7b03-4e89-b858-34cc7d6863ae","system_id":"levelo_inurba_marseille","lat":43.31232,"lon":5.36844,"is_reserved":false,"is_disabled":false,"rental_uris":{"android":"levelo://app?vid=439c6cb6-7b03-4e89-b858-34cc7d6863ae","ios":"levelo://app?vid=439c6cb6-7b03-4e89-b858-34cc7d6863ae"},"vehicle_type_id":"4","last_reported":1744812640,"current_range_meters":19200,"station_id":"ce4bgl92rcd13ifvqbq0","pricing_plan_id":"cebpf4jnsgd1na2vs0mg"},{"bike_id":"9ce56fa1-2ee8-4fbf-a955-6bfba2e578df","system_id":"levelo_inurba_marseille","lat":43.26802,"lon":5.40267,"is_reserved":false,"is_disabled":false,"rental_uris":{"android":"levelo://app?vid=9ce56fa1-2ee8-4fbf-a955-6bfba2e578df","ios":"levelo://app?vid=9ce56fa1-2ee8-4fbf-a955-6bfba2e578df"},"vehicle_type_id":"4","last_reported":1744812640,"current_range_meters":19600,"station_id":"ce501612rcd8frsf0b60","pricing_plan_id":"cebpf4jnsgd1na2vs0mg"},{"bike_id":"8bc01458-e04d-4e1e-9f4f-473a9ad28594","system_id":"levelo_inurba_marseille","lat":43.27928,"lon":5.39593,"is_reserved":false,"is_disabled":false,"rental_uris":{"android":"levelo://app?vid=8bc01458-e04d-4e1e-9f4f-473a9ad28594","ios":"levelo://app?vid=8bc01458-e04d-4e1e-9f4f-473a9ad28594"},"vehicle_type_id":"4","last_reported":1744812640,"current_range_meters":19600,"station_id":"ce4bhf92rcd13ifvqf40","pricing_plan_id":"cebpf4jnsgd1na2vs0mg"},{"bike_id":"dda116ff-b1f2-4720-9cc4-eb1f30161ff5","system_id":"levelo_inurba_marseille","lat":43.27824,"lon":5.3921,"is_reserved":false,"is_disabled":false,"rental_uris":{"android":"levelo://app?vid=dda116ff-b1f2-4720-9cc4-eb1f30161ff5","ios":"levelo://app?vid=dda116ff-b1f2-4720-9cc4-eb1f30161ff5"},"vehicle_type_id":"4","last_reported":1744812640,"current_range_meters":19600,"station_id":"ce4bhjp2rcd13ifvqga0","pricing_plan_id":"cebpf4jnsgd1na2vs0mg"},{"bike_id":"d46b2e48-9179-435a-9682-3a6a1ec18d25","system_id":"levelo_inurba_marseille","lat":43.28709,"lon":5.39966,"is_reserved":false,"is_disabled":false,"rental_uris":{"android":"levelo://app?vid=d46b2e48-9179-435a-9682-3a6a1ec18d25","ios":"levelo://app?vid=d46b2e48-9179-435a-9682-3a6a1ec18d25"},"vehicle_type_id":"4","last_reported":1744812640,"current_range_meters":19600,"station_id":"ce4bho92rcd13ifvqh3g","pricing_plan_id":"cebpf4jnsgd1na2vs0mg"},{"bike_id":"af8aa001-7f73-471e-987b-3e247ec3c791","system_id":"levelo_inurba_marseille","lat":43.28108,"lon":5.37868,"is_reserved":false,"is_disabled":false,"rental_uris":{"android":"levelo://app?vid=af8aa001-7f73-471e-987b-3e247ec3c791","ios":"levelo://app?vid=af8aa001-7f73-471e-987b-3e247ec3c791"},"vehicle_type_id":"4","last_reported":1744812640,"current_range_meters":19600,"station_id":"ce4bha12rcd13ifvqee0","pricing_plan_id":"cebpf4jnsgd1na2vs0mg"},{"bike_id":"f8ca688b-8d89-46b7-9110-baed5a9ba379","system_id":"levelo_inurba_marseille","lat":43.31139,"lon":5.37052,"is_reserved":false,"is_disabled":false,"rental_uris":{"android":"levelo://app?vid=f8ca688b-8d89-46b7-9110-baed5a9ba379","ios":"levelo://app?vid=f8ca688b-8d89-46b7-9110-baed5a9ba379"},"vehicle_type_id":"4","last_reported":1744812640,"current_range_meters":20000,"station_id":"","pricing_plan_id":"cebpf4jnsgd1na2vs0mg"},{"bike_id":"4b997f7a-36da-47a0-b609-c2add0e7c137","system_id":"levelo_inurba_marseille","lat":43.286072,"lon":5.370595,"is_reserved":false,"is_disabled":false,"rental_uris":{"android":"levelo://app?vid=4b997f7a-36da-47a0-b609-c2add0e7c137","ios":"levelo://app?vid=4b997f7a-36da-47a0-b609-c2add0e7c137"},"vehicle_type_id":"4","last_reported":1744812640,"current_range_meters":20000,"station_id":"ce4bh0p2rcd13ifvqd70","pricing_plan_id":"cebpf4jnsgd1na2vs0mg"},{"bike_id":"bc0837a1-279f-4396-af1b-42270f8cd9b7","system_id":"levelo_inurba_marseille","lat":43.26221,"lon":5.40454,"is_reserved":false,"is_disabled":false,"rental_uris":{"android":"levelo://app?vid=bc0837a1-279f-4396-af1b-42270f8cd9b7","ios":"levelo://app?vid=bc0837a1-279f-4396-af1b-42270f8cd9b7"},"vehicle_type_id":"4","last_reported":1744812640,"current_range_meters":20000,"station_id":"ce4bhmh2rcd13ifvqgmg","pricing_plan_id":"cebpf4jnsgd1na2vs0mg"},{"bike_id":"a698e6fe-68fe-4b74-800e-582c43813e2f","system_id":"levelo_inurba_marseille","lat":43.28095,"lon":5.37863,"is_reserved":false,"is_disabled":false,"rental_uris":{"android":"levelo://app?vid=a698e6fe-68fe-4b74-800e-582c43813e2f","ios":"levelo://app?vid=a698e6fe-68fe-4b74-800e-582c43813e2f"},"vehicle_type_id":"4","last_reported":1744812640,"current_range_meters":20000,"station_id":"ce4bha12rcd13ifvqee0","pricing_plan_id":"cebpf4jnsgd1na2vs0mg"},{"bike_id":"d750596a-6ac6-4755-84cc-45acd4464f3d","system_id":"levelo_inurba_marseille","lat":43.24399,"lon":5.37061,"is_reserved":false,"is_disabled":false,"rental_uris":{"android":"levelo://app?vid=d750596a-6ac6-4755-84cc-45acd4464f3d","ios":"levelo://app?vid=d750596a-6ac6-4755-84cc-45acd4464f3d"},"vehicle_type_id":"4","last_reported":1744812640,"current_range_meters":20400,"station_id":"ce4bhhh2rcd13ifvqfk0","pricing_plan_id":"cebpf4jnsgd1na2vs0mg"},{"bike_id":"7a646f77-c728-420f-bf42-9a37eccc4037","system_id":"levelo_inurba_marseille","lat":43.22491,"lon":5.34781,"is_reserved":false,"is_disabled":false,"rental_uris":{"android":"levelo://app?vid=7a646f77-c728-420f-bf42-9a37eccc4037","ios":"levelo://app?vid=7a646f77-c728-420f-bf42-9a37eccc4037"},"vehicle_type_id":"4","last_reported":1744812640,"current_range_meters":20400,"station_id":"","pricing_plan_id":"cebpf4jnsgd1na2vs0mg"},{"bike_id":"08f4dcee-7656-4957-9022-f13783bb2667","system_id":"levelo_inurba_marseille","lat":43.29689,"lon":5.37213,"is_reserved":false,"is_disabled":false,"rental_uris":{"android":"levelo://app?vid=08f4dcee-7656-4957-9022-f13783bb2667","ios":"levelo://app?vid=08f4dcee-7656-4957-9022-f13783bb2667"},"vehicle_type_id":"4","last_reported":1744812640,"current_range_meters":20400,"station_id":"","pricing_plan_id":"cebpf4jnsgd1na2vs0mg"},{"bike_id":"6f2360da-5688-4f6a-8ebd-9e32ee7c678f","system_id":"levelo_inurba_marseille","lat":43.316923,"lon":5.404663,"is_reserved":false,"is_disabled":false,"rental_uris":{"android":"levelo://app?vid=6f2360da-5688-4f6a-8ebd-9e32ee7c678f","ios":"levelo://app?vid=6f2360da-5688-4f6a-8ebd-9e32ee7c678f"},"vehicle_type_id":"4","last_reported":1744812640,"current_range_meters":20400,"station_id":"ce4bh012rcd13ifvqd00","pricing_plan_id":"cebpf4jnsgd1na2vs0mg"},{"bike_id":"d39e5537-c00a-4bf8-9f22-53966b448679","system_id":"levelo_inurba_marseille","lat":43.29555,"lon":5.42276,"is_reserved":false,"is_disabled":false,"rental_uris":{"android":"levelo://app?vid=d39e5537-c00a-4bf8-9f22-53966b448679","ios":"levelo://app?vid=d39e5537-c00a-4bf8-9f22-53966b448679"},"vehicle_type_id":"4","last_reported":1744812640,"current_range_meters":20800,"station_id":"ce4bhph2rcd13ifvqhdg","pricing_plan_id":"cebpf4jnsgd1na2vs0mg"},{"bike_id":"ccb7a8e4-757c-4e6f-90e3-f97fac7da5b7","system_id":"levelo_inurba_marseille","lat":43.29274,"lon":5.38444,"is_reserved":false,"is_disabled":false,"rental_uris":{"android":"levelo://app?vid=ccb7a8e4-757c-4e6f-90e3-f97fac7da5b7","ios":"levelo://app?vid=ccb7a8e4-757c-4e6f-90e3-f97fac7da5b7"},"vehicle_type_id":"4","last_reported":1744812640,"current_range_meters":20800,"station_id":"ce4bh692rcd13ifvqea0","pricing_plan_id":"cebpf4jnsgd1na2vs0mg"},{"bike_id":"5ebe30d5-2e69-49c9-9d5a-72579ec5c3ee","system_id":"levelo_inurba_marseille","lat":43.30585,"lon":5.39358,"is_reserved":false,"is_disabled":false,"rental_uris":{"android":"levelo://app?vid=5ebe30d5-2e69-49c9-9d5a-72579ec5c3ee","ios":"levelo://app?vid=5ebe30d5-2e69-49c9-9d5a-72579ec5c3ee"},"vehicle_type_id":"4","last_reported":1744812640,"current_range_meters":20800,"station_id":"ce4bh0p2rcd13ifvqd80","pricing_plan_id":"cebpf4jnsgd1na2vs0mg"},{"bike_id":"3f761246-0d21-4df1-9aa1-2fe452c29abd","system_id":"levelo_inurba_marseille","lat":43.21758,"lon":5.34596,"is_reserved":false,"is_disabled":false,"rental_uris":{"android":"levelo://app?vid=3f761246-0d21-4df1-9aa1-2fe452c29abd","ios":"levelo://app?vid=3f761246-0d21-4df1-9aa1-2fe452c29abd"},"vehicle_type_id":"4","last_reported":1744812640,"current_range_meters":20800,"station_id":"st_cvj6r9ubvosntc0bgbag","pricing_plan_id":"cebpf4jnsgd1na2vs0mg"},{"bike_id":"2984cec8-23de-4a73-97a3-c0829eb8b5c7","system_id":"levelo_inurba_marseille","lat":43.27921,"lon":5.39588,"is_reserved":false,"is_disabled":false,"rental_uris":{"android":"levelo://app?vid=2984cec8-23de-4a73-97a3-c0829eb8b5c7","ios":"levelo://app?vid=2984cec8-23de-4a73-97a3-c0829eb8b5c7"},"vehicle_type_id":"4","last_reported":1744812640,"current_range_meters":21600,"station_id":"ce4bhf92rcd13ifvqf40","pricing_plan_id":"cebpf4jnsgd1na2vs0mg"},{"bike_id":"5dcdba20-c421-403e-9fc9-2e0f516a830a","system_id":"levelo_inurba_marseille","lat":43.30288,"lon":5.37708,"is_reserved":false,"is_disabled":false,"rental_uris":{"android":"levelo://app?vid=5dcdba20-c421-403e-9fc9-2e0f516a830a","ios":"levelo://app?vid=5dcdba20-c421-403e-9fc9-2e0f516a830a"},"vehicle_type_id":"4","last_reported":1744812640,"current_range_meters":21600,"station_id":"ce4bguh2rcd13ifvqcj0","pricing_plan_id":"cebpf4jnsgd1na2vs0mg"},{"bike_id":"94c8b160-29dd-45c4-9d5f-86d40f79a61c","system_id":"levelo_inurba_marseille","lat":43.2624,"lon":5.40455,"is_reserved":false,"is_disabled":false,"rental_uris":{"android":"levelo://app?vid=94c8b160-29dd-45c4-9d5f-86d40f79a61c","ios":"levelo://app?vid=94c8b160-29dd-45c4-9d5f-86d40f79a61c"},"vehicle_type_id":"4","last_reported":1744812640,"current_range_meters":21600,"station_id":"ce4bhmh2rcd13ifvqgmg","pricing_plan_id":"cebpf4jnsgd1na2vs0mg"},{"bike_id":"0c2e97a9-1e3f-48ce-9c8f-fb64db72d21b","system_id":"levelo_inurba_marseille","lat":43.29531,"lon":5.38544,"is_reserved":false,"is_disabled":false,"rental_uris":{"android":"levelo://app?vid=0c2e97a9-1e3f-48ce-9c8f-fb64db72d21b","ios":"levelo://app?vid=0c2e97a9-1e3f-48ce-9c8f-fb64db72d21b"},"vehicle_type_id":"4","last_reported":1744812640,"current_range_meters":21600,"station_id":"ce4bgih2rcd13ifvqba0","pricing_plan_id":"cebpf4jnsgd1na2vs0mg"},{"bike_id":"e09b4c34-6357-43c3-84ad-0a95a8ec10e5","system_id":"levelo_inurba_marseille","lat":43.22497,"lon":5.34777,"is_reserved":false,"is_disabled":false,"rental_uris":{"android":"levelo://app?vid=e09b4c34-6357-43c3-84ad-0a95a8ec10e5","ios":"levelo://app?vid=e09b4c34-6357-43c3-84ad-0a95a8ec10e5"},"vehicle_type_id":"4","last_reported":1744812640,"current_range_meters":22000,"station_id":"","pricing_plan_id":"cebpf4jnsgd1na2vs0mg"},{"bike_id":"f49c4e21-3368-4dd3-b8d1-f136aaf28dbc","system_id":"levelo_inurba_marseille","lat":43.31219,"lon":5.36846,"is_reserved":false,"is_disabled":false,"rental_uris":{"android":"levelo://app?vid=f49c4e21-3368-4dd3-b8d1-f136aaf28dbc","ios":"levelo://app?vid=f49c4e21-3368-4dd3-b8d1-f136aaf28dbc"},"vehicle_type_id":"4","last_reported":1744812640,"current_range_meters":22000,"station_id":"ce4bgl92rcd13ifvqbq0","pricing_plan_id":"cebpf4jnsgd1na2vs0mg"},{"bike_id":"59eaa5be-729f-4913-a23a-c932fcb9f900","system_id":"levelo_inurba_marseille","lat":43.30303,"lon":5.369,"is_reserved":false,"is_disabled":false,"rental_uris":{"android":"levelo://app?vid=59eaa5be-729f-4913-a23a-c932fcb9f900","ios":"levelo://app?vid=59eaa5be-729f-4913-a23a-c932fcb9f900"},"vehicle_type_id":"4","last_reported":1744812640,"current_range_meters":22000,"station_id":"ce4bgqh2rcd13ifvqc5g","pricing_plan_id":"cebpf4jnsgd1na2vs0mg"},{"bike_id":"8fd2cdd0-07d7-4c01-add2-10309aca4136","system_id":"levelo_inurba_marseille","lat":43.267169,"lon":5.394645,"is_reserved":false,"is_disabled":true,"rental_uris":{"android":"levelo://app?vid=8fd2cdd0-07d7-4c01-add2-10309aca4136","ios":"levelo://app?vid=8fd2cdd0-07d7-4c01-add2-10309aca4136"},"vehicle_type_id":"4","last_reported":1744812640,"current_range_meters":22000,"station_id":"","pricing_plan_id":"cebpf4jnsgd1na2vs0mg"},{"bike_id":"95cb4257-47a7-43ca-9e16-7d5e93c960cc","system_id":"levelo_inurba_marseille","lat":43.312335,"lon":5.368687,"is_reserved":false,"is_disabled":false,"rental_uris":{"android":"levelo://app?vid=95cb4257-47a7-43ca-9e16-7d5e93c960cc","ios":"levelo://app?vid=95cb4257-47a7-43ca-9e16-7d5e93c960cc"},"vehicle_type_id":"4","last_reported":1744812640,"current_range_meters":22000,"station_id":"ce4bgl92rcd13ifvqbq0","pricing_plan_id":"cebpf4jnsgd1na2vs0mg"},{"bike_id":"abb2de47-ed6b-4551-aa9e-ba4f01a38449","system_id":"levelo_inurba_marseille","lat":43.30465,"lon":5.37905,"is_reserved":false,"is_disabled":false,"rental_uris":{"android":"levelo://app?vid=abb2de47-ed6b-4551-aa9e-ba4f01a38449","ios":"levelo://app?vid=abb2de47-ed6b-4551-aa9e-ba4f01a38449"},"vehicle_type_id":"4","last_reported":1744812640,"current_range_meters":22000,"station_id":"ce4bgup2rcd13ifvqcn0","pricing_plan_id":"cebpf4jnsgd1na2vs0mg"},{"bike_id":"c9273dd9-431c-4da8-b5fd-7c34fd79e187","system_id":"levelo_inurba_marseille","lat":43.31491,"lon":5.37306,"is_reserved":false,"is_disabled":false,"rental_uris":{"android":"levelo://app?vid=c9273dd9-431c-4da8-b5fd-7c34fd79e187","ios":"levelo://app?vid=c9273dd9-431c-4da8-b5fd-7c34fd79e187"},"vehicle_type_id":"4","last_reported":1744812640,"current_range_meters":22000,"station_id":"ce4bgt12rcd13ifvqcd0","pricing_plan_id":"cebpf4jnsgd1na2vs0mg"},{"bike_id":"0bf390d3-4bdb-4303-803f-909d4f2f95e6","system_id":"levelo_inurba_marseille","lat":43.30557,"lon":5.36695,"is_reserved":false,"is_disabled":false,"rental_uris":{"android":"levelo://app?vid=0bf390d3-4bdb-4303-803f-909d4f2f95e6","ios":"levelo://app?vid=0bf390d3-4bdb-4303-803f-909d4f2f95e6"},"vehicle_type_id":"4","last_reported":1744812640,"current_range_meters":22400,"station_id":"ce4bgrp2rcd13ifvqc9g","pricing_plan_id":"cebpf4jnsgd1na2vs0mg"},{"bike_id":"04fb422e-0aec-4205-8e11-f392462c55c3","system_id":"levelo_inurba_marseille","lat":43.26778,"lon":5.40292,"is_reserved":false,"is_disabled":false,"rental_uris":{"android":"levelo://app?vid=04fb422e-0aec-4205-8e11-f392462c55c3","ios":"levelo://app?vid=04fb422e-0aec-4205-8e11-f392462c55c3"},"vehicle_type_id":"4","last_reported":1744812640,"current_range_meters":22400,"station_id":"ce501612rcd8frsf0b60","pricing_plan_id":"cebpf4jnsgd1na2vs0mg"},{"bike_id":"d173482c-33fe-4e3f-b3dc-50194ba6dd74","system_id":"levelo_inurba_marseille","lat":43.241881,"lon":5.397263,"is_reserved":false,"is_disabled":false,"rental_uris":{"android":"levelo://app?vid=d173482c-33fe-4e3f-b3dc-50194ba6dd74","ios":"levelo://app?vid=d173482c-33fe-4e3f-b3dc-50194ba6dd74"},"vehicle_type_id":"4","last_reported":1744812640,"current_range_meters":22400,"station_id":"ce4bhn12rcd13ifvqgpg","pricing_plan_id":"cebpf4jnsgd1na2vs0mg"},{"bike_id":"272ea20a-4c31-4d01-a01c-10f418156f2e","system_id":"levelo_inurba_marseille","lat":43.23156,"lon":5.43707,"is_reserved":false,"is_disabled":false,"rental_uris":{"android":"levelo://app?vid=272ea20a-4c31-4d01-a01c-10f418156f2e","ios":"levelo://app?vid=272ea20a-4c31-4d01-a01c-10f418156f2e"},"vehicle_type_id":"4","last_reported":1744812640,"current_range_meters":22400,"station_id":"ce4bhmp2rcd13ifvqgog","pricing_plan_id":"cebpf4jnsgd1na2vs0mg"},{"bike_id":"3ecbfd85-e929-4f57-b332-16d5df736053","system_id":"levelo_inurba_marseille","lat":43.29564,"lon":5.37523,"is_reserved":false,"is_disabled":false,"rental_uris":{"android":"levelo://app?vid=3ecbfd85-e929-4f57-b332-16d5df736053","ios":"levelo://app?vid=3ecbfd85-e929-4f57-b332-16d5df736053"},"vehicle_type_id":"4","last_reported":1744812640,"current_range_meters":22800,"station_id":"ce4bgh92rcd13ifvqb50","pricing_plan_id":"cebpf4jnsgd1na2vs0mg"},{"bike_id":"f4c69777-4974-401f-817d-b79514aea718","system_id":"levelo_inurba_marseille","lat":43.26218,"lon":5.37452,"is_reserved":false,"is_disabled":false,"rental_uris":{"android":"levelo://app?vid=f4c69777-4974-401f-817d-b79514aea718","ios":"levelo://app?vid=f4c69777-4974-401f-817d-b79514aea718"},"vehicle_type_id":"4","last_reported":1744812640,"current_range_meters":22800,"station_id":"ce4bhgp2rcd13ifvqfc0","pricing_plan_id":"cebpf4jnsgd1na2vs0mg"},{"bike_id":"41fb0398-f2fe-4abb-ae37-a38f47615ea9","system_id":"levelo_inurba_marseille","lat":43.32354,"lon":5.367608,"is_reserved":false,"is_disabled":false,"rental_uris":{"android":"levelo://app?vid=41fb0398-f2fe-4abb-ae37-a38f47615ea9","ios":"levelo://app?vid=41fb0398-f2fe-4abb-ae37-a38f47615ea9"},"vehicle_type_id":"4","last_reported":1744812640,"current_range_meters":22800,"station_id":"ce4bhsh2rcd13ifvqi2g","pricing_plan_id":"cebpf4jnsgd1na2vs0mg"},{"bike_id":"6b25c985-766f-4506-85f5-cbe4c5c089d4","system_id":"levelo_inurba_marseille","lat":43.29551,"lon":5.37527,"is_reserved":false,"is_disabled":false,"rental_uris":{"android":"levelo://app?vid=6b25c985-766f-4506-85f5-cbe4c5c089d4","ios":"levelo://app?vid=6b25c985-766f-4506-85f5-cbe4c5c089d4"},"vehicle_type_id":"4","last_reported":1744812640,"current_range_meters":22800,"station_id":"ce4bgh92rcd13ifvqb50","pricing_plan_id":"cebpf4jnsgd1na2vs0mg"},{"bike_id":"8934c9ff-b955-4903-b5d2-c595dc711b7c","system_id":"levelo_inurba_marseille","lat":43.29557,"lon":5.39966,"is_reserved":false,"is_disabled":true,"rental_uris":{"android":"levelo://app?vid=8934c9ff-b955-4903-b5d2-c595dc711b7c","ios":"levelo://app?vid=8934c9ff-b955-4903-b5d2-c595dc711b7c"},"vehicle_type_id":"4","last_reported":1744812640,"current_range_meters":22800,"station_id":"ce4bh312rcd13ifvqdj0","pricing_plan_id":"cebpf4jnsgd1na2vs0mg"},{"bike_id":"4ab43c8f-2442-44d2-844d-0e2cb5bfba0c","system_id":"levelo_inurba_marseille","lat":43.30545,"lon":5.36544,"is_reserved":false,"is_disabled":false,"rental_uris":{"android":"levelo://app?vid=4ab43c8f-2442-44d2-844d-0e2cb5bfba0c","ios":"levelo://app?vid=4ab43c8f-2442-44d2-844d-0e2cb5bfba0c"},"vehicle_type_id":"4","last_reported":1744812640,"current_range_meters":22800,"station_id":"ce4bgs12rcd13ifvqcag","pricing_plan_id":"cebpf4jnsgd1na2vs0mg"},{"bike_id":"c73ab921-dd9a-4810-95bf-f34353c47ee8","system_id":"levelo_inurba_marseille","lat":43.3029,"lon":5.37662,"is_reserved":false,"is_disabled":false,"rental_uris":{"android":"levelo://app?vid=c73ab921-dd9a-4810-95bf-f34353c47ee8","ios":"levelo://app?vid=c73ab921-dd9a-4810-95bf-f34353c47ee8"},"vehicle_type_id":"4","last_reported":1744812640,"current_range_meters":22800,"station_id":"ce4bguh2rcd13ifvqcj0","pricing_plan_id":"cebpf4jnsgd1na2vs0mg"},{"bike_id":"9b32d9b0-b425-4d34-812f-0c610ee31565","system_id":"levelo_inurba_marseille","lat":43.30214,"lon":5.39476,"is_reserved":false,"is_disabled":true,"rental_uris":{"android":"levelo://app?vid=9b32d9b0-b425-4d34-812f-0c610ee31565","ios":"levelo://app?vid=9b32d9b0-b425-4d34-812f-0c610ee31565"},"vehicle_type_id":"4","last_reported":1744812640,"current_range_meters":23200,"station_id":"ce4bh0p2rcd13ifvqd70","pricing_plan_id":"cebpf4jnsgd1na2vs0mg"},{"bike_id":"327df600-16a2-4306-a905-98ad19fbb263","system_id":"levelo_inurba_marseille","lat":43.2961,"lon":5.381,"is_reserved":false,"is_disabled":false,"rental_uris":{"android":"levelo://app?vid=327df600-16a2-4306-a905-98ad19fbb263","ios":"levelo://app?vid=327df600-16a2-4306-a905-98ad19fbb263"},"vehicle_type_id":"4","last_reported":1744812640,"current_range_meters":23200,"station_id":"ce4bgl12rcd13ifvqbo0","pricing_plan_id":"cebpf4jnsgd1na2vs0mg"},{"bike_id":"0f1f7a77-09e0-4e89-93d1-8f66b799b48e","system_id":"levelo_inurba_marseille","lat":43.29264,"lon":5.36847,"is_reserved":false,"is_disabled":false,"rental_uris":{"android":"levelo://app?vid=0f1f7a77-09e0-4e89-93d1-8f66b799b48e","ios":"levelo://app?vid=0f1f7a77-09e0-4e89-93d1-8f66b799b48e"},"vehicle_type_id":"4","last_reported":1744812640,"current_range_meters":23200,"station_id":"ce4bhbp2rcd13ifvqesg","pricing_plan_id":"cebpf4jnsgd1na2vs0mg"},{"bike_id":"789c3822-56ca-4769-bcd4-8845bdea2fda","system_id":"levelo_inurba_marseille","lat":43.24162,"lon":5.36397,"is_reserved":false,"is_disabled":false,"rental_uris":{"android":"levelo://app?vid=789c3822-56ca-4769-bcd4-8845bdea2fda","ios":"levelo://app?vid=789c3822-56ca-4769-bcd4-8845bdea2fda"},"vehicle_type_id":"4","last_reported":1744812640,"current_range_meters":23200,"station_id":"cpo36qri1sfpv3e86is0","pricing_plan_id":"cebpf4jnsgd1na2vs0mg"},{"bike_id":"3f9ced0f-8844-4943-b112-2f2efa3a76c8","system_id":"levelo_inurba_marseille","lat":43.28112,"lon":5.37872,"is_reserved":false,"is_disabled":false,"rental_uris":{"android":"levelo://app?vid=3f9ced0f-8844-4943-b112-2f2efa3a76c8","ios":"levelo://app?vid=3f9ced0f-8844-4943-b112-2f2efa3a76c8"},"vehicle_type_id":"4","last_reported":1744812640,"current_range_meters":23200,"station_id":"ce4bha12rcd13ifvqee0","pricing_plan_id":"cebpf4jnsgd1na2vs0mg"},{"bike_id":"ed8407f7-4e42-4d25-b902-ef1c6cb83a12","system_id":"levelo_inurba_marseille","lat":43.24162,"lon":5.36392,"is_reserved":false,"is_disabled":false,"rental_uris":{"android":"levelo://app?vid=ed8407f7-4e42-4d25-b902-ef1c6cb83a12","ios":"levelo://app?vid=ed8407f7-4e42-4d25-b902-ef1c6cb83a12"},"vehicle_type_id":"4","last_reported":1744812640,"current_range_meters":23200,"station_id":"cpo36qri1sfpv3e86is0","pricing_plan_id":"cebpf4jnsgd1na2vs0mg"},{"bike_id":"7eb8853e-3665-40f5-8308-1299f0674652","system_id":"levelo_inurba_marseille","lat":43.30371,"lon":5.42493,"is_reserved":false,"is_disabled":false,"rental_uris":{"android":"levelo://app?vid=7eb8853e-3665-40f5-8308-1299f0674652","ios":"levelo://app?vid=7eb8853e-3665-40f5-8308-1299f0674652"},"vehicle_type_id":"4","last_reported":1744812640,"current_range_meters":23200,"station_id":"ce4bhoh2rcd13ifvqh6g","pricing_plan_id":"cebpf4jnsgd1na2vs0mg"},{"bike_id":"c76f7190-361c-4f18-98aa-fcb234811cb1","system_id":"levelo_inurba_marseille","lat":43.2833,"lon":5.381,"is_reserved":false,"is_disabled":false,"rental_uris":{"android":"levelo://app?vid=c76f7190-361c-4f18-98aa-fcb234811cb1","ios":"levelo://app?vid=c76f7190-361c-4f18-98aa-fcb234811cb1"},"vehicle_type_id":"4","last_reported":1744812640,"current_range_meters":22800,"station_id":"ce4bh412rcd13ifvqdr0","pricing_plan_id":"cebpf4jnsgd1na2vs0mg"},{"bike_id":"7ed91d22-3d5b-4254-83bf-64eb2a7d5481","system_id":"levelo_inurba_marseille","lat":43.22501,"lon":5.34777,"is_reserved":false,"is_disabled":false,"rental_uris":{"android":"levelo://app?vid=7ed91d22-3d5b-4254-83bf-64eb2a7d5481","ios":"levelo://app?vid=7ed91d22-3d5b-4254-83bf-64eb2a7d5481"},"vehicle_type_id":"4","last_reported":1744812640,"current_range_meters":24000,"station_id":"","pricing_plan_id":"cebpf4jnsgd1na2vs0mg"},{"bike_id":"5c50ae30-5f77-4243-86fb-00e2d7606f9b","system_id":"levelo_inurba_marseille","lat":43.29791,"lon":5.38088,"is_reserved":false,"is_disabled":false,"rental_uris":{"android":"levelo://app?vid=5c50ae30-5f77-4243-86fb-00e2d7606f9b","ios":"levelo://app?vid=5c50ae30-5f77-4243-86fb-00e2d7606f9b"},"vehicle_type_id":"4","last_reported":1744812640,"current_range_meters":24000,"station_id":"ce4bgip2rcd13ifvqbb0","pricing_plan_id":"cebpf4jnsgd1na2vs0mg"},{"bike_id":"31bf23d9-cd8b-4cbd-8db3-6f232e71b806","system_id":"levelo_inurba_marseille","lat":43.2796,"lon":5.38721,"is_reserved":false,"is_disabled":false,"rental_uris":{"android":"levelo://app?vid=31bf23d9-cd8b-4cbd-8db3-6f232e71b806","ios":"levelo://app?vid=31bf23d9-cd8b-4cbd-8db3-6f232e71b806"},"vehicle_type_id":"4","last_reported":1744812640,"current_range_meters":24000,"station_id":"ce4bhg12rcd13ifvqf80","pricing_plan_id":"cebpf4jnsgd1na2vs0mg"},{"bike_id":"2d94ed43-5644-4e24-a254-01c8094a35f0","system_id":"levelo_inurba_marseille","lat":43.27067,"lon":5.40271,"is_reserved":false,"is_disabled":false,"rental_uris":{"android":"levelo://app?vid=2d94ed43-5644-4e24-a254-01c8094a35f0","ios":"levelo://app?vid=2d94ed43-5644-4e24-a254-01c8094a35f0"},"vehicle_type_id":"4","last_reported":1744812640,"current_range_meters":24000,"station_id":"ce4bhk92rcd13ifvqgc0","pricing_plan_id":"cebpf4jnsgd1na2vs0mg"},{"bike_id":"bc140d56-5426-4329-8de2-925ded4c3ae5","system_id":"levelo_inurba_marseille","lat":43.30516,"lon":5.36701,"is_reserved":false,"is_disabled":false,"rental_uris":{"android":"levelo://app?vid=bc140d56-5426-4329-8de2-925ded4c3ae5","ios":"levelo://app?vid=bc140d56-5426-4329-8de2-925ded4c3ae5"},"vehicle_type_id":"4","last_reported":1744812640,"current_range_meters":24000,"station_id":"ce4bgrp2rcd13ifvqc9g","pricing_plan_id":"cebpf4jnsgd1na2vs0mg"},{"bike_id":"85d57ffd-0ac1-42ff-94f2-7b6357608527","system_id":"levelo_inurba_marseille","lat":43.32485,"lon":5.3657,"is_reserved":false,"is_disabled":false,"rental_uris":{"android":"levelo://app?vid=85d57ffd-0ac1-42ff-94f2-7b6357608527","ios":"levelo://app?vid=85d57ffd-0ac1-42ff-94f2-7b6357608527"},"vehicle_type_id":"4","last_reported":1744812640,"current_range_meters":24000,"station_id":"ce4bhs12rcd13ifvqhvg","pricing_plan_id":"cebpf4jnsgd1na2vs0mg"},{"bike_id":"da9385be-9753-44ca-a738-f49ae91fe80c","system_id":"levelo_inurba_marseille","lat":43.29091,"lon":5.38148,"is_reserved":false,"is_disabled":false,"rental_uris":{"android":"levelo://app?vid=da9385be-9753-44ca-a738-f49ae91fe80c","ios":"levelo://app?vid=da9385be-9753-44ca-a738-f49ae91fe80c"},"vehicle_type_id":"4","last_reported":1744812640,"current_range_meters":24400,"station_id":"ce4bh512rcd13ifvqe2g","pricing_plan_id":"cebpf4jnsgd1na2vs0mg"},{"bike_id":"947a1f76-2990-4771-b373-54d6c124ae51","system_id":"levelo_inurba_marseille","lat":43.29789,"lon":5.40405,"is_reserved":false,"is_disabled":false,"rental_uris":{"android":"levelo://app?vid=947a1f76-2990-4771-b373-54d6c124ae51","ios":"levelo://app?vid=947a1f76-2990-4771-b373-54d6c124ae51"},"vehicle_type_id":"4","last_reported":1744812640,"current_range_meters":24400,"station_id":"ce4bh112rcd13ifvqd90","pricing_plan_id":"cebpf4jnsgd1na2vs0mg"},{"bike_id":"8d631704-7df1-4c86-bc42-234be877196a","system_id":"levelo_inurba_marseille","lat":43.30532,"lon":5.36535,"is_reserved":false,"is_disabled":false,"rental_uris":{"android":"levelo://app?vid=8d631704-7df1-4c86-bc42-234be877196a","ios":"levelo://app?vid=8d631704-7df1-4c86-bc42-234be877196a"},"vehicle_type_id":"4","last_reported":1744812640,"current_range_meters":24400,"station_id":"ce4bgs12rcd13ifvqcag","pricing_plan_id":"cebpf4jnsgd1na2vs0mg"},{"bike_id":"68342d9f-f0b6-47e7-b690-b27078e67a77","system_id":"levelo_inurba_marseille","lat":43.24171,"lon":5.36382,"is_reserved":false,"is_disabled":false,"rental_uris":{"android":"levelo://app?vid=68342d9f-f0b6-47e7-b690-b27078e67a77","ios":"levelo://app?vid=68342d9f-f0b6-47e7-b690-b27078e67a77"},"vehicle_type_id":"4","last_reported":1744812640,"current_range_meters":24400,"station_id":"cpo36qri1sfpv3e86is0","pricing_plan_id":"cebpf4jnsgd1na2vs0mg"},{"bike_id":"2a3df68e-728a-4b9c-bbc2-4259a4448e26","system_id":"levelo_inurba_marseille","lat":43.27991,"lon":5.40006,"is_reserved":false,"is_disabled":false,"rental_uris":{"android":"levelo://app?vid=2a3df68e-728a-4b9c-bbc2-4259a4448e26","ios":"levelo://app?vid=2a3df68e-728a-4b9c-bbc2-4259a4448e26"},"vehicle_type_id":"4","last_reported":1744812640,"current_range_meters":24400,"station_id":"ce4bho92rcd13ifvqh4g","pricing_plan_id":"cebpf4jnsgd1na2vs0mg"},{"bike_id":"5626c75a-e879-4a61-9cac-b2b7d62ab04c","system_id":"levelo_inurba_marseille","lat":43.28629,"lon":5.35086,"is_reserved":false,"is_disabled":false,"rental_uris":{"android":"levelo://app?vid=5626c75a-e879-4a61-9cac-b2b7d62ab04c","ios":"levelo://app?vid=5626c75a-e879-4a61-9cac-b2b7d62ab04c"},"vehicle_type_id":"4","last_reported":1744812640,"current_range_meters":24400,"station_id":"ce4bhch2rcd13ifvqeug","pricing_plan_id":"cebpf4jnsgd1na2vs0mg"},{"bike_id":"ec89c210-3c21-4708-958a-dedc8c3e7ca2","system_id":"levelo_inurba_marseille","lat":43.3053,"lon":5.36521,"is_reserved":false,"is_disabled":false,"rental_uris":{"android":"levelo://app?vid=ec89c210-3c21-4708-958a-dedc8c3e7ca2","ios":"levelo://app?vid=ec89c210-3c21-4708-958a-dedc8c3e7ca2"},"vehicle_type_id":"4","last_reported":1744812640,"current_range_meters":24400,"station_id":"ce4bgs12rcd13ifvqcag","pricing_plan_id":"cebpf4jnsgd1na2vs0mg"},{"bike_id":"efa8f913-87c0-496c-8c40-335b871b79e6","system_id":"levelo_inurba_marseille","lat":43.281,"lon":5.37844,"is_reserved":false,"is_disabled":false,"rental_uris":{"android":"levelo://app?vid=efa8f913-87c0-496c-8c40-335b871b79e6","ios":"levelo://app?vid=efa8f913-87c0-496c-8c40-335b871b79e6"},"vehicle_type_id":"4","last_reported":1744812640,"current_range_meters":24400,"station_id":"ce4bha12rcd13ifvqee0","pricing_plan_id":"cebpf4jnsgd1na2vs0mg"},{"bike_id":"6fd16c1d-68a4-4b51-8579-6a0d593dff16","system_id":"levelo_inurba_marseille","lat":43.33623,"lon":5.41019,"is_reserved":false,"is_disabled":false,"rental_uris":{"android":"levelo://app?vid=6fd16c1d-68a4-4b51-8579-6a0d593dff16","ios":"levelo://app?vid=6fd16c1d-68a4-4b51-8579-6a0d593dff16"},"vehicle_type_id":"4","last_reported":1744812640,"current_range_meters":24400,"station_id":"ce4bhqh2rcd13ifvqhmg","pricing_plan_id":"cebpf4jnsgd1na2vs0mg"},{"bike_id":"33efbe4e-e642-4271-be29-4926b421ca5b","system_id":"levelo_inurba_marseille","lat":43.24163,"lon":5.36395,"is_reserved":false,"is_disabled":false,"rental_uris":{"android":"levelo://app?vid=33efbe4e-e642-4271-be29-4926b421ca5b","ios":"levelo://app?vid=33efbe4e-e642-4271-be29-4926b421ca5b"},"vehicle_type_id":"4","last_reported":1744812640,"current_range_meters":24400,"station_id":"cpo36qri1sfpv3e86is0","pricing_plan_id":"cebpf4jnsgd1na2vs0mg"},{"bike_id":"3a7ddd32-2f52-439d-afdc-f7da2e3cfbc6","system_id":"levelo_inurba_marseille","lat":43.24997,"lon":5.38926,"is_reserved":false,"is_disabled":false,"rental_uris":{"android":"levelo://app?vid=3a7ddd32-2f52-439d-afdc-f7da2e3cfbc6","ios":"levelo://app?vid=3a7ddd32-2f52-439d-afdc-f7da2e3cfbc6"},"vehicle_type_id":"4","last_reported":1744812640,"current_range_meters":24400,"station_id":"ce4bhgp2rcd13ifvqfd0","pricing_plan_id":"cebpf4jnsgd1na2vs0mg"},{"bike_id":"89f52e97-869e-41c6-9753-303cbb680b63","system_id":"levelo_inurba_marseille","lat":43.29531,"lon":5.38549,"is_reserved":false,"is_disabled":false,"rental_uris":{"android":"levelo://app?vid=89f52e97-869e-41c6-9753-303cbb680b63","ios":"levelo://app?vid=89f52e97-869e-41c6-9753-303cbb680b63"},"vehicle_type_id":"4","last_reported":1744812640,"current_range_meters":24400,"station_id":"ce4bgih2rcd13ifvqba0","pricing_plan_id":"cebpf4jnsgd1na2vs0mg"},{"bike_id":"3d03a228-5dff-430f-942d-e5ceaa114072","system_id":"levelo_inurba_marseille","lat":43.29199,"lon":5.37585,"is_reserved":false,"is_disabled":false,"rental_uris":{"android":"levelo://app?vid=3d03a228-5dff-430f-942d-e5ceaa114072","ios":"levelo://app?vid=3d03a228-5dff-430f-942d-e5ceaa114072"},"vehicle_type_id":"4","last_reported":1744812640,"current_range_meters":24800,"station_id":"ce4bgi12rcd13ifvqb80","pricing_plan_id":"cebpf4jnsgd1na2vs0mg"},{"bike_id":"873bcab6-b973-48ed-b129-34762c209441","system_id":"levelo_inurba_marseille","lat":43.31495,"lon":5.37285,"is_reserved":false,"is_disabled":false,"rental_uris":{"android":"levelo://app?vid=873bcab6-b973-48ed-b129-34762c209441","ios":"levelo://app?vid=873bcab6-b973-48ed-b129-34762c209441"},"vehicle_type_id":"4","last_reported":1744812640,"current_range_meters":24800,"station_id":"ce4bgt12rcd13ifvqcd0","pricing_plan_id":"cebpf4jnsgd1na2vs0mg"},{"bike_id":"748ce7be-303b-4e02-8a76-47e344a3d081","system_id":"levelo_inurba_marseille","lat":43.30159,"lon":5.38099,"is_reserved":false,"is_disabled":false,"rental_uris":{"android":"levelo://app?vid=748ce7be-303b-4e02-8a76-47e344a3d081","ios":"levelo://app?vid=748ce7be-303b-4e02-8a76-47e344a3d081"},"vehicle_type_id":"4","last_reported":1744812640,"current_range_meters":24800,"station_id":"ce4bgjp2rcd13ifvqbh0","pricing_plan_id":"cebpf4jnsgd1na2vs0mg"},{"bike_id":"50942032-0a92-46b4-af35-4f352cc42e7a","system_id":"levelo_inurba_marseille","lat":43.30925,"lon":5.36872,"is_reserved":false,"is_disabled":false,"rental_uris":{"android":"levelo://app?vid=50942032-0a92-46b4-af35-4f352cc42e7a","ios":"levelo://app?vid=50942032-0a92-46b4-af35-4f352cc42e7a"},"vehicle_type_id":"4","last_reported":1744812640,"current_range_meters":24800,"station_id":"ce4bgn92rcd13ifvqbvg","pricing_plan_id":"cebpf4jnsgd1na2vs0mg"},{"bike_id":"8c0be09f-1a08-4f03-adf3-9ab53d05b7e1","system_id":"levelo_inurba_marseille","lat":43.3041,"lon":5.4127,"is_reserved":false,"is_disabled":true,"rental_uris":{"android":"levelo://app?vid=8c0be09f-1a08-4f03-adf3-9ab53d05b7e1","ios":"levelo://app?vid=8c0be09f-1a08-4f03-adf3-9ab53d05b7e1"},"vehicle_type_id":"4","last_reported":1744812640,"current_range_meters":24800,"station_id":"ce4bhop2rcd13ifvqh8g","pricing_plan_id":"cebpf4jnsgd1na2vs0mg"},{"bike_id":"fbabf7b0-78a5-4b82-a9af-f78e9febc44b","system_id":"levelo_inurba_marseille","lat":43.31352,"lon":5.36727,"is_reserved":false,"is_disabled":false,"rental_uris":{"android":"levelo://app?vid=fbabf7b0-78a5-4b82-a9af-f78e9febc44b","ios":"levelo://app?vid=fbabf7b0-78a5-4b82-a9af-f78e9febc44b"},"vehicle_type_id":"4","last_reported":1744812640,"current_range_meters":24800,"station_id":"ce4bgr92rcd13ifvqc6g","pricing_plan_id":"cebpf4jnsgd1na2vs0mg"},{"bike_id":"f9d3fbe6-73e5-424e-af02-f446d5b07152","system_id":"levelo_inurba_marseille","lat":43.21779,"lon":5.34617,"is_reserved":false,"is_disabled":false,"rental_uris":{"android":"levelo://app?vid=f9d3fbe6-73e5-424e-af02-f446d5b07152","ios":"levelo://app?vid=f9d3fbe6-73e5-424e-af02-f446d5b07152"},"vehicle_type_id":"4","last_reported":1744812640,"current_range_meters":24800,"station_id":"st_cvj6r9ubvosntc0bgbag","pricing_plan_id":"cebpf4jnsgd1na2vs0mg"},{"bike_id":"831a4537-6201-4ed0-864c-c6f639c19a24","system_id":"levelo_inurba_marseille","lat":43.32471,"lon":5.36571,"is_reserved":false,"is_disabled":false,"rental_uris":{"android":"levelo://app?vid=831a4537-6201-4ed0-864c-c6f639c19a24","ios":"levelo://app?vid=831a4537-6201-4ed0-864c-c6f639c19a24"},"vehicle_type_id":"4","last_reported":1744812640,"current_range_meters":24800,"station_id":"ce4bhs12rcd13ifvqhvg","pricing_plan_id":"cebpf4jnsgd1na2vs0mg"},{"bike_id":"c305c827-8b59-4e6c-91de-4d8a3fcbcac2","system_id":"levelo_inurba_marseille","lat":43.24167,"lon":5.36391,"is_reserved":false,"is_disabled":false,"rental_uris":{"android":"levelo://app?vid=c305c827-8b59-4e6c-91de-4d8a3fcbcac2","ios":"levelo://app?vid=c305c827-8b59-4e6c-91de-4d8a3fcbcac2"},"vehicle_type_id":"4","last_reported":1744812640,"current_range_meters":24800,"station_id":"cpo36qri1sfpv3e86is0","pricing_plan_id":"cebpf4jnsgd1na2vs0mg"},{"bike_id":"a7175ac2-4bce-45fe-82e0-b54a265cd310","system_id":"levelo_inurba_marseille","lat":43.29018,"lon":5.3814,"is_reserved":false,"is_disabled":false,"rental_uris":{"android":"levelo://app?vid=a7175ac2-4bce-45fe-82e0-b54a265cd310","ios":"levelo://app?vid=a7175ac2-4bce-45fe-82e0-b54a265cd310"},"vehicle_type_id":"4","last_reported":1744812640,"current_range_meters":24800,"station_id":"ce4bh4p2rcd13ifvqe1g","pricing_plan_id":"cebpf4jnsgd1na2vs0mg"},{"bike_id":"82772b13-ddb0-4283-8668-047adf81dd9b","system_id":"levelo_inurba_marseille","lat":43.29854,"lon":5.36266,"is_reserved":false,"is_disabled":false,"rental_uris":{"android":"levelo://app?vid=82772b13-ddb0-4283-8668-047adf81dd9b","ios":"levelo://app?vid=82772b13-ddb0-4283-8668-047adf81dd9b"},"vehicle_type_id":"4","last_reported":1744812640,"current_range_meters":25200,"station_id":"ce4bgpp2rcd13ifvqc3g","pricing_plan_id":"cebpf4jnsgd1na2vs0mg"},{"bike_id":"7bed040b-9d65-4254-ae2c-e2a18b358087","system_id":"levelo_inurba_marseille","lat":43.26224,"lon":5.37444,"is_reserved":false,"is_disabled":false,"rental_uris":{"android":"levelo://app?vid=7bed040b-9d65-4254-ae2c-e2a18b358087","ios":"levelo://app?vid=7bed040b-9d65-4254-ae2c-e2a18b358087"},"vehicle_type_id":"4","last_reported":1744812640,"current_range_meters":25200,"station_id":"ce4bhgp2rcd13ifvqfc0","pricing_plan_id":"cebpf4jnsgd1na2vs0mg"},{"bike_id":"c292ce06-3065-4f08-89c5-72ba03ee342f","system_id":"levelo_inurba_marseille","lat":43.27439,"lon":5.39403,"is_reserved":false,"is_disabled":false,"rental_uris":{"android":"levelo://app?vid=c292ce06-3065-4f08-89c5-72ba03ee342f","ios":"levelo://app?vid=c292ce06-3065-4f08-89c5-72ba03ee342f"},"vehicle_type_id":"4","last_reported":1744812640,"current_range_meters":25200,"station_id":"ce4bhdp2rcd13ifvqf20","pricing_plan_id":"cebpf4jnsgd1na2vs0mg"},{"bike_id":"04cd718a-739b-4f09-8fdf-74e445452766","system_id":"levelo_inurba_marseille","lat":43.31509,"lon":5.37285,"is_reserved":false,"is_disabled":false,"rental_uris":{"android":"levelo://app?vid=04cd718a-739b-4f09-8fdf-74e445452766","ios":"levelo://app?vid=04cd718a-739b-4f09-8fdf-74e445452766"},"vehicle_type_id":"4","last_reported":1744812640,"current_range_meters":25200,"station_id":"ce4bgt12rcd13ifvqcd0","pricing_plan_id":"cebpf4jnsgd1na2vs0mg"},{"bike_id":"b0487ad7-b525-4c48-a103-705afe5b3c0f","system_id":"levelo_inurba_marseille","lat":43.3016,"lon":5.38091,"is_reserved":false,"is_disabled":false,"rental_uris":{"android":"levelo://app?vid=b0487ad7-b525-4c48-a103-705afe5b3c0f","ios":"levelo://app?vid=b0487ad7-b525-4c48-a103-705afe5b3c0f"},"vehicle_type_id":"4","last_reported":1744812640,"current_range_meters":25200,"station_id":"ce4bgjp2rcd13ifvqbh0","pricing_plan_id":"cebpf4jnsgd1na2vs0mg"},{"bike_id":"39cdcda5-1688-4ef8-a8ba-562ba29d65b6","system_id":"levelo_inurba_marseille","lat":43.27918,"lon":5.39577,"is_reserved":false,"is_disabled":false,"rental_uris":{"android":"levelo://app?vid=39cdcda5-1688-4ef8-a8ba-562ba29d65b6","ios":"levelo://app?vid=39cdcda5-1688-4ef8-a8ba-562ba29d65b6"},"vehicle_type_id":"4","last_reported":1744812640,"current_range_meters":25200,"station_id":"ce4bhf92rcd13ifvqf40","pricing_plan_id":"cebpf4jnsgd1na2vs0mg"},{"bike_id":"cd37d00f-1491-48fa-9efd-a37c3c323cd5","system_id":"levelo_inurba_marseille","lat":43.2972,"lon":5.37696,"is_reserved":false,"is_disabled":false,"rental_uris":{"android":"levelo://app?vid=cd37d00f-1491-48fa-9efd-a37c3c323cd5","ios":"levelo://app?vid=cd37d00f-1491-48fa-9efd-a37c3c323cd5"},"vehicle_type_id":"4","last_reported":1744812640,"current_range_meters":25200,"station_id":"ce4bgkh2rcd13ifvqbl0","pricing_plan_id":"cebpf4jnsgd1na2vs0mg"},{"bike_id":"d240c5c7-d336-49ca-a35b-6edc4c737b17","system_id":"levelo_inurba_marseille","lat":43.28621,"lon":5.35111,"is_reserved":false,"is_disabled":false,"rental_uris":{"android":"levelo://app?vid=d240c5c7-d336-49ca-a35b-6edc4c737b17","ios":"levelo://app?vid=d240c5c7-d336-49ca-a35b-6edc4c737b17"},"vehicle_type_id":"4","last_reported":1744812640,"current_range_meters":25200,"station_id":"ce4bhch2rcd13ifvqeug","pricing_plan_id":"cebpf4jnsgd1na2vs0mg"},{"bike_id":"3c9b2525-0ba5-462f-bbcb-3e391ef7072a","system_id":"levelo_inurba_marseille","lat":43.29913,"lon":5.37461,"is_reserved":false,"is_disabled":false,"rental_uris":{"android":"levelo://app?vid=3c9b2525-0ba5-462f-bbcb-3e391ef7072a","ios":"levelo://app?vid=3c9b2525-0ba5-462f-bbcb-3e391ef7072a"},"vehicle_type_id":"4","last_reported":1744812640,"current_range_meters":25600,"station_id":"ce4bgjh2rcd13ifvqbg0","pricing_plan_id":"cebpf4jnsgd1na2vs0mg"},{"bike_id":"9ff5a7ef-d1e0-4ae6-9224-c69447f908f9","system_id":"levelo_inurba_marseille","lat":43.29835,"lon":5.36269,"is_reserved":false,"is_disabled":false,"rental_uris":{"android":"levelo://app?vid=9ff5a7ef-d1e0-4ae6-9224-c69447f908f9","ios":"levelo://app?vid=9ff5a7ef-d1e0-4ae6-9224-c69447f908f9"},"vehicle_type_id":"4","last_reported":1744812640,"current_range_meters":25600,"station_id":"ce4bgpp2rcd13ifvqc3g","pricing_plan_id":"cebpf4jnsgd1na2vs0mg"},{"bike_id":"3c863c1e-5703-459e-86f2-3e252f5541e4","system_id":"levelo_inurba_marseille","lat":43.29419,"lon":5.38609,"is_reserved":false,"is_disabled":true,"rental_uris":{"android":"levelo://app?vid=3c863c1e-5703-459e-86f2-3e252f5541e4","ios":"levelo://app?vid=3c863c1e-5703-459e-86f2-3e252f5541e4"},"vehicle_type_id":"4","last_reported":1744812640,"current_range_meters":25600,"station_id":"ce4bh2h2rcd13ifvqdh0","pricing_plan_id":"cebpf4jnsgd1na2vs0mg"},{"bike_id":"603e0957-45c6-4b02-9585-2babcca99d6f","system_id":"levelo_inurba_marseille","lat":43.26934,"lon":5.40246,"is_reserved":false,"is_disabled":false,"rental_uris":{"android":"levelo://app?vid=603e0957-45c6-4b02-9585-2babcca99d6f","ios":"levelo://app?vid=603e0957-45c6-4b02-9585-2babcca99d6f"},"vehicle_type_id":"4","last_reported":1744812640,"current_range_meters":25200,"station_id":"cjm6bp8fraef2m0cb0m0","pricing_plan_id":"cebpf4jnsgd1na2vs0mg"},{"bike_id":"b58db4fe-417f-47ef-b6bf-43e86c5ef397","system_id":"levelo_inurba_marseille","lat":43.268066,"lon":5.402648,"is_reserved":false,"is_disabled":false,"rental_uris":{"android":"levelo://app?vid=b58db4fe-417f-47ef-b6bf-43e86c5ef397","ios":"levelo://app?vid=b58db4fe-417f-47ef-b6bf-43e86c5ef397"},"vehicle_type_id":"4","last_reported":1744812640,"current_range_meters":25600,"station_id":"ce501612rcd8frsf0b60","pricing_plan_id":"cebpf4jnsgd1na2vs0mg"},{"bike_id":"94c9894d-3c2d-4f37-b8e5-4a8fbbd9742f","system_id":"levelo_inurba_marseille","lat":43.276344,"lon":5.426625,"is_reserved":false,"is_disabled":false,"rental_uris":{"android":"levelo://app?vid=94c9894d-3c2d-4f37-b8e5-4a8fbbd9742f","ios":"levelo://app?vid=94c9894d-3c2d-4f37-b8e5-4a8fbbd9742f"},"vehicle_type_id":"4","last_reported":1744812640,"current_range_meters":25600,"station_id":"","pricing_plan_id":"cebpf4jnsgd1na2vs0mg"},{"bike_id":"4f7bc508-0505-44fd-ba44-fccc64589167","system_id":"levelo_inurba_marseille","lat":43.24175,"lon":5.3973,"is_reserved":false,"is_disabled":false,"rental_uris":{"android":"levelo://app?vid=4f7bc508-0505-44fd-ba44-fccc64589167","ios":"levelo://app?vid=4f7bc508-0505-44fd-ba44-fccc64589167"},"vehicle_type_id":"4","last_reported":1744812640,"current_range_meters":25600,"station_id":"ce4bhn12rcd13ifvqgpg","pricing_plan_id":"cebpf4jnsgd1na2vs0mg"},{"bike_id":"367ad2e5-8746-4a8a-bd13-fdfea2afdd3f","system_id":"levelo_inurba_marseille","lat":43.28108,"lon":5.37838,"is_reserved":false,"is_disabled":false,"rental_uris":{"android":"levelo://app?vid=367ad2e5-8746-4a8a-bd13-fdfea2afdd3f","ios":"levelo://app?vid=367ad2e5-8746-4a8a-bd13-fdfea2afdd3f"},"vehicle_type_id":"4","last_reported":1744812640,"current_range_meters":25600,"station_id":"ce4bha12rcd13ifvqee0","pricing_plan_id":"cebpf4jnsgd1na2vs0mg"},{"bike_id":"f9653653-58f6-4fdd-8ddf-d9e24a4f8674","system_id":"levelo_inurba_marseille","lat":43.24802,"lon":5.37465,"is_reserved":false,"is_disabled":false,"rental_uris":{"android":"levelo://app?vid=f9653653-58f6-4fdd-8ddf-d9e24a4f8674","ios":"levelo://app?vid=f9653653-58f6-4fdd-8ddf-d9e24a4f8674"},"vehicle_type_id":"4","last_reported":1744812640,"current_range_meters":25600,"station_id":"ce4bhgh2rcd13ifvqfb0","pricing_plan_id":"cebpf4jnsgd1na2vs0mg"},{"bike_id":"0a0f370f-fdd7-4e06-ad19-0aa0e844850f","system_id":"levelo_inurba_marseille","lat":43.27922,"lon":5.39589,"is_reserved":false,"is_disabled":false,"rental_uris":{"android":"levelo://app?vid=0a0f370f-fdd7-4e06-ad19-0aa0e844850f","ios":"levelo://app?vid=0a0f370f-fdd7-4e06-ad19-0aa0e844850f"},"vehicle_type_id":"4","last_reported":1744812640,"current_range_meters":25600,"station_id":"ce4bhf92rcd13ifvqf40","pricing_plan_id":"cebpf4jnsgd1na2vs0mg"},{"bike_id":"d1a2b493-7d30-4a9c-a02b-dfad0b4f73f7","system_id":"levelo_inurba_marseille","lat":43.24799,"lon":5.37466,"is_reserved":false,"is_disabled":false,"rental_uris":{"android":"levelo://app?vid=d1a2b493-7d30-4a9c-a02b-dfad0b4f73f7","ios":"levelo://app?vid=d1a2b493-7d30-4a9c-a02b-dfad0b4f73f7"},"vehicle_type_id":"4","last_reported":1744812640,"current_range_meters":25600,"station_id":"ce4bhgh2rcd13ifvqfb0","pricing_plan_id":"cebpf4jnsgd1na2vs0mg"},{"bike_id":"cbc26eb3-91dd-4e10-93a9-a0e367e405a7","system_id":"levelo_inurba_marseille","lat":43.26919,"lon":5.40271,"is_reserved":false,"is_disabled":false,"rental_uris":{"android":"levelo://app?vid=cbc26eb3-91dd-4e10-93a9-a0e367e405a7","ios":"levelo://app?vid=cbc26eb3-91dd-4e10-93a9-a0e367e405a7"},"vehicle_type_id":"4","last_reported":1744812640,"current_range_meters":25600,"station_id":"cjm6bp8fraef2m0cb0m0","pricing_plan_id":"cebpf4jnsgd1na2vs0mg"},{"bike_id":"b65ca21e-f00a-42d2-9b84-d9cba9e3f7c6","system_id":"levelo_inurba_marseille","lat":43.2894,"lon":5.36626,"is_reserved":false,"is_disabled":false,"rental_uris":{"android":"levelo://app?vid=b65ca21e-f00a-42d2-9b84-d9cba9e3f7c6","ios":"levelo://app?vid=b65ca21e-f00a-42d2-9b84-d9cba9e3f7c6"},"vehicle_type_id":"4","last_reported":1744812640,"current_range_meters":26000,"station_id":"ce4bhap2rcd13ifvqek0","pricing_plan_id":"cebpf4jnsgd1na2vs0mg"},{"bike_id":"e6741fc4-eb42-48ca-bd63-43b577c02663","system_id":"levelo_inurba_marseille","lat":43.30529,"lon":5.36696,"is_reserved":false,"is_disabled":false,"rental_uris":{"android":"levelo://app?vid=e6741fc4-eb42-48ca-bd63-43b577c02663","ios":"levelo://app?vid=e6741fc4-eb42-48ca-bd63-43b577c02663"},"vehicle_type_id":"4","last_reported":1744812640,"current_range_meters":26000,"station_id":"ce4bgrp2rcd13ifvqc9g","pricing_plan_id":"cebpf4jnsgd1na2vs0mg"},{"bike_id":"29f42d10-4742-49ce-945b-5557aaa9ad76","system_id":"levelo_inurba_marseille","lat":43.29257,"lon":5.37619,"is_reserved":false,"is_disabled":false,"rental_uris":{"android":"levelo://app?vid=29f42d10-4742-49ce-945b-5557aaa9ad76","ios":"levelo://app?vid=29f42d10-4742-49ce-945b-5557aaa9ad76"},"vehicle_type_id":"4","last_reported":1744812640,"current_range_meters":26000,"station_id":"ce4bgi12rcd13ifvqb80","pricing_plan_id":"cebpf4jnsgd1na2vs0mg"},{"bike_id":"db3f61c8-5340-4682-8118-fc423fbe004d","system_id":"levelo_inurba_marseille","lat":43.28991,"lon":5.35607,"is_reserved":false,"is_disabled":false,"rental_uris":{"android":"levelo://app?vid=db3f61c8-5340-4682-8118-fc423fbe004d","ios":"levelo://app?vid=db3f61c8-5340-4682-8118-fc423fbe004d"},"vehicle_type_id":"4","last_reported":1744812640,"current_range_meters":26000,"station_id":"ce4bhb92rcd13ifvqen0","pricing_plan_id":"cebpf4jnsgd1na2vs0mg"},{"bike_id":"2a8804da-e65e-4085-acca-f4569c2d6885","system_id":"levelo_inurba_marseille","lat":43.30526,"lon":5.36533,"is_reserved":false,"is_disabled":false,"rental_uris":{"android":"levelo://app?vid=2a8804da-e65e-4085-acca-f4569c2d6885","ios":"levelo://app?vid=2a8804da-e65e-4085-acca-f4569c2d6885"},"vehicle_type_id":"4","last_reported":1744812640,"current_range_meters":26000,"station_id":"ce4bgs12rcd13ifvqcag","pricing_plan_id":"cebpf4jnsgd1na2vs0mg"},{"bike_id":"b40af1c4-8a23-4c38-8e2d-462177f822c8","system_id":"levelo_inurba_marseille","lat":43.315435,"lon":5.380149,"is_reserved":false,"is_disabled":false,"rental_uris":{"android":"levelo://app?vid=b40af1c4-8a23-4c38-8e2d-462177f822c8","ios":"levelo://app?vid=b40af1c4-8a23-4c38-8e2d-462177f822c8"},"vehicle_type_id":"4","last_reported":1744812640,"current_range_meters":26000,"station_id":"ce4bhsp2rcd13ifvqi50","pricing_plan_id":"cebpf4jnsgd1na2vs0mg"},{"bike_id":"80bac1fe-218c-4068-937c-4aa733df023f","system_id":"levelo_inurba_marseille","lat":43.28605,"lon":5.37069,"is_reserved":false,"is_disabled":false,"rental_uris":{"android":"levelo://app?vid=80bac1fe-218c-4068-937c-4aa733df023f","ios":"levelo://app?vid=80bac1fe-218c-4068-937c-4aa733df023f"},"vehicle_type_id":"4","last_reported":1744812640,"current_range_meters":26000,"station_id":"ce4bht12rcd13ifvqi60","pricing_plan_id":"cebpf4jnsgd1na2vs0mg"},