{"last_updated":1692288482,"ttl":30,"version":"2.2","data":{"bikes":[{"bike_id":"7c2435b7-4bcc-4d96-8543-cd35abc7bc9e","system_id":"levelo_inurba_marseille","lat":43.31225,"lon":5.36863,"is_reserved":false,"is_disabled":false,"rental_uris":{"android":"levelo://app?vid=7c2435b7-4bcc-4d96-8543-cd35abc7bc9e","ios":"levelo://app?vid=7c2435b7-4bcc-4d96-8543-cd35abc7bc9e"},"vehicle_type_id":"4","last_reported":1692288483,"current_range_meters":24400,"station_id":"ce4bgl92rcd13ifvqbq0","pricing_plan_id":"free"},{"bike_id":"2b7f5ee7-73f5-432a-98c4-323d0d02ded9","system_id":"levelo_inurba_marseille","lat":43.3122,"lon":5.36865,"is_reserved":false,"is_disabled":false,"rental_uris":{"android":"levelo://app?vid=2b7f5ee7-73f5-432a-98c4-323d0d02ded9","ios":"levelo://app?vid=2b7f5ee7-73f5-432a-98c4-323d0d02ded9"},"vehicle_type_id":"4","last_reported":1692288483,"current_range_meters":12000,"station_id":"ce4bgl92rcd13ifvqbq0","pricing_plan_id":"free"},{"bike_id":"79d4e2ab-b0f5-48f2-869c-72f84770e77f","system_id":"levelo_inurba_marseille","lat":43.31224,"lon":5.36874,"is_reserved":false,"is_disabled":false,"rental_uris":{"android":"levelo://app?vid=79d4e2ab-b0f5-48f2-869c-72f84770e77f","ios":"levelo://app?vid=79d4e2ab-b0f5-48f2-869c-72f84770e77f"},"vehicle_type_id":"4","last_reported":1692288483,"current_range_meters":15200,"station_id":"ce4bgl92rcd13ifvqbq0","pricing_plan_id":"free"},{"bike_id":"7f7b653d-9082-4425-a4a2-7ed54c98142e","system_id":"levelo_inurba_marseille","lat":43.30886,"lon":5.37188,"is_reserved":false,"is_disabled":false,"rental_uris":{"android":"levelo://app?vid=7f7b653d-9082-4425-a4a2-7ed54c98142e","ios":"levelo://app?vid=7f7b653d-9082-4425-a4a2-7ed54c98142e"},"vehicle_type_id":"4","last_reported":1692288483,"current_range_meters":25200,"station_id":"ce4bguh2rcd13ifvqckg","pricing_plan_id":"free"},{"bike_id":"a904af8e-e60f-4783-a85b-8eca0b69ce63","system_id":"levelo_inurba_marseille","lat":43.30587,"lon":5.36532,"is_reserved":false,"is_disabled":false,"rental_uris":{"android":"levelo://app?vid=a904af8e-e60f-4783-a85b-8eca0b69ce63","ios":"levelo://app?vid=a904af8e-e60f-4783-a85b-8eca0b69ce63"},"vehicle_type_id":"4","last_reported":1692288483,"current_range_meters":3200,"station_id":"","pricing_plan_id":"free"},{"bike_id":"9fbe6e18-d192-44c2-98b5-cafb68b41aa4","system_id":"levelo_inurba_marseille","lat":43.3055,"lon":5.36533,"is_reserved":false,"is_disabled":false,"rental_uris":{"android":"levelo://app?vid=9fbe6e18-d192-44c2-98b5-cafb68b41aa4","ios":"levelo://app?vid=9fbe6e18-d192-44c2-98b5-cafb68b41aa4"},"vehicle_type_id":"4","last_reported":1692288483,"current_range_meters":20400,"station_id":"ce4bgs12rcd13ifvqcag","pricing_plan_id":"free"},{"bike_id":"386ed8e3-b71e-4f68-86af-202c5b76503e","system_id":"levelo_inurba_marseille","lat":43.305989,"lon":5.37225,"is_reserved":false,"is_disabled":false,"rental_uris":{"android":"levelo://app?vid=386ed8e3-b71e-4f68-86af-202c5b76503e","ios":"levelo://app?vid=386ed8e3-b71e-4f68-86af-202c5b76503e"},"vehicle_type_id":"4","last_reported":1692288483,"current_range_meters":31200,"station_id":"ce4bgqh2rcd13ifvqc4g","pricing_plan_id":"free"},{"bike_id":"b493b79a-b914-4f8a-9af8-6ee8d9cf527c","system_id":"levelo_inurba_marseille","lat":43.305989,"lon":5.37225,"is_reserved":false,"is_disabled":false,"rental_uris":{"android":"levelo://app?vid=b493b79a-b914-4f8a-9af8-6ee8d9cf527c","ios":"levelo://app?vid=b493b79a-b914-4f8a-9af8-6ee8d9cf527c"},"vehicle_type_id":"4","last_reported":1692288483,"current_range_meters":21600,"station_id":"ce4bgqh2rcd13ifvqc4g","pricing_plan_id":"free"},{"bike_id":"035a5bcf-ecc1-43ca-b3ec-6c0440e6aed1","system_id":"levelo_inurba_marseille","lat":43.30791,"lon":5.37653,"is_reserved":false,"is_disabled":false,"rental_uris":{"android":"levelo://app?vid=035a5bcf-ecc1-43ca-b3ec-6c0440e6aed1","ios":"levelo://app?vid=035a5bcf-ecc1-43ca-b3ec-6c0440e6aed1"},"vehicle_type_id":"4","last_reported":1692288483,"current_range_meters":29200,"station_id":"ce4bgv92rcd13ifvqcq0","pricing_plan_id":"free"},{"bike_id":"e540ab50-6b11-4902-ac0b-550a50f63a79","system_id":"levelo_inurba_marseille","lat":43.30796,"lon":5.37659,"is_reserved":false,"is_disabled":false,"rental_uris":{"android":"levelo://app?vid=e540ab50-6b11-4902-ac0b-550a50f63a79","ios":"levelo://app?vid=e540ab50-6b11-4902-ac0b-550a50f63a79"},"vehicle_type_id":"4","last_reported":1692288483,"current_range_meters":22800,"station_id":"ce4bgv92rcd13ifvqcq0","pricing_plan_id":"free"},{"bike_id":"ee624d5d-b033-4fa8-b1c5-6a39ce2be68f","system_id":"levelo_inurba_marseille","lat":43.307945,"lon":5.376487,"is_reserved":false,"is_disabled":false,"rental_uris":{"android":"levelo://app?vid=ee624d5d-b033-4fa8-b1c5-6a39ce2be68f","ios":"levelo://app?vid=ee624d5d-b033-4fa8-b1c5-6a39ce2be68f"},"vehicle_type_id":"4","last_reported":1692288483,"current_range_meters":13600,"station_id":"ce4bgv92rcd13ifvqcq0","pricing_plan_id":"free"},{"bike_id":"a83c2eea-65c7-47fd-aae1-079d9f39cfb5","system_id":"levelo_inurba_marseille","lat":43.307945,"lon":5.376487,"is_reserved":false,"is_disabled":false,"rental_uris":{"android":"levelo://app?vid=a83c2eea-65c7-47fd-aae1-079d9f39cfb5","ios":"levelo://app?vid=a83c2eea-65c7-47fd-aae1-079d9f39cfb5"},"vehicle_type_id":"4","last_reported":1692288483,"current_range_meters":7600,"station_id":"ce4bgv92rcd13ifvqcq0","pricing_plan_id":"free"},{"bike_id":"82d69ae9-2b57-402b-a576-ef80d02e2aa5","system_id":"levelo_inurba_marseille","lat":43.30778,"lon":5.37646,"is_reserved":false,"is_disabled":false,"rental_uris":{"android":"levelo://app?vid=82d69ae9-2b57-402b-a576-ef80d02e2aa5","ios":"levelo://app?vid=82d69ae9-2b57-402b-a576-ef80d02e2aa5"},"vehicle_type_id":"4","last_reported":1692288483,"current_range_meters":29600,"station_id":"ce4bgv92rcd13ifvqcq0","pricing_plan_id":"free"},{"bike_id":"abe02008-48b9-4a39-a492-745d55fbe8f7","system_id":"levelo_inurba_marseille","lat":43.31712,"lon":5.37748,"is_reserved":false,"is_disabled":false,"rental_uris":{"android":"levelo://app?vid=abe02008-48b9-4a39-a492-745d55fbe8f7","ios":"levelo://app?vid=abe02008-48b9-4a39-a492-745d55fbe8f7"},"vehicle_type_id":"4","last_reported":1692288483,"current_range_meters":19600,"station_id":"ce4bgth2rcd13ifvqch0","pricing_plan_id":"free"},{"bike_id":"1d0f0a43-76ce-4375-a3aa-29bf47521cec","system_id":"levelo_inurba_marseille","lat":43.317075,"lon":5.377367,"is_reserved":false,"is_disabled":false,"rental_uris":{"android":"levelo://app?vid=1d0f0a43-76ce-4375-a3aa-29bf47521cec","ios":"levelo://app?vid=1d0f0a43-76ce-4375-a3aa-29bf47521cec"},"vehicle_type_id":"4","last_reported":1692288483,"current_range_meters":20400,"station_id":"ce4bgth2rcd13ifvqch0","pricing_plan_id":"free"},{"bike_id":"a4ea0fac-f9e3-4c41-ab7c-aecbf3ccd389","system_id":"levelo_inurba_marseille","lat":43.317075,"lon":5.377367,"is_reserved":false,"is_disabled":false,"rental_uris":{"android":"levelo://app?vid=a4ea0fac-f9e3-4c41-ab7c-aecbf3ccd389","ios":"levelo://app?vid=a4ea0fac-f9e3-4c41-ab7c-aecbf3ccd389"},"vehicle_type_id":"4","last_reported":1692288483,"current_range_meters":28400,"station_id":"ce4bgth2rcd13ifvqch0","pricing_plan_id":"free"},{"bike_id":"17fc1e44-4b59-41d8-9f44-c29372c57aee","system_id":"levelo_inurba_marseille","lat":43.317075,"lon":5.377367,"is_reserved":false,"is_disabled":false,"rental_uris":{"android":"levelo://app?vid=17fc1e44-4b59-41d8-9f44-c29372c57aee","ios":"levelo://app?vid=17fc1e44-4b59-41d8-9f44-c29372c57aee"},"vehicle_type_id":"4","last_reported":1692288483,"current_range_meters":27200,"station_id":"ce4bgth2rcd13ifvqch0","pricing_plan_id":"free"},{"bike_id":"18fbcdcc-d37e-43b7-9445-9e60c363eaf4","system_id":"levelo_inurba_marseille","lat":43.30297,"lon":5.36868,"is_reserved":false,"is_disabled":false,"rental_uris":{"android":"levelo://app?vid=18fbcdcc-d37e-43b7-9445-9e60c363eaf4","ios":"levelo://app?vid=18fbcdcc-d37e-43b7-9445-9e60c363eaf4"},"vehicle_type_id":"4","last_reported":1692288483,"current_range_meters":22400,"station_id":"ce4bgqh2rcd13ifvqc5g","pricing_plan_id":"free"},{"bike_id":"b0d24aa5-9183-4394-b9e6-529e7d21441c","system_id":"levelo_inurba_marseille","lat":43.31534,"lon":5.38036,"is_reserved":false,"is_disabled":false,"rental_uris":{"android":"levelo://app?vid=b0d24aa5-9183-4394-b9e6-529e7d21441c","ios":"levelo://app?vid=b0d24aa5-9183-4394-b9e6-529e7d21441c"},"vehicle_type_id":"4","last_reported":1692288483,"current_range_meters":0,"station_id":"ce4bhsp2rcd13ifvqi50","pricing_plan_id":"free"},{"bike_id":"b328d323-4e49-4e11-8d47-6f47f1998c64","system_id":"levelo_inurba_marseille","lat":43.31997,"lon":5.38151,"is_reserved":false,"is_disabled":false,"rental_uris":{"android":"levelo://app?vid=b328d323-4e49-4e11-8d47-6f47f1998c64","ios":"levelo://app?vid=b328d323-4e49-4e11-8d47-6f47f1998c64"},"vehicle_type_id":"4","last_reported":1692288483,"current_range_meters":26800,"station_id":"ce4bhr12rcd13ifvqhpg","pricing_plan_id":"free"},{"bike_id":"8edc98e9-ff68-4abb-9aed-439fc370eb1d","system_id":"levelo_inurba_marseille","lat":43.31997,"lon":5.38159,"is_reserved":false,"is_disabled":false,"rental_uris":{"android":"levelo://app?vid=8edc98e9-ff68-4abb-9aed-439fc370eb1d","ios":"levelo://app?vid=8edc98e9-ff68-4abb-9aed-439fc370eb1d"},"vehicle_type_id":"4","last_reported":1692288483,"current_range_meters":11600,"station_id":"ce4bhr12rcd13ifvqhpg","pricing_plan_id":"free"},{"bike_id":"0199fadd-d0a9-4074-adc4-86b80fffb7d6","system_id":"levelo_inurba_marseille","lat":43.31991,"lon":5.38166,"is_reserved":false,"is_disabled":false,"rental_uris":{"android":"levelo://app?vid=0199fadd-d0a9-4074-adc4-86b80fffb7d6","ios":"levelo://app?vid=0199fadd-d0a9-4074-adc4-86b80fffb7d6"},"vehicle_type_id":"4","last_reported":1692288483,"current_range_meters":30800,"station_id":"ce4bhr12rcd13ifvqhpg","pricing_plan_id":"free"},{"bike_id":"9ac8ba80-1b63-435f-b693-61252fcddc01","system_id":"levelo_inurba_marseille","lat":43.313571,"lon":5.384829,"is_reserved":false,"is_disabled":false,"rental_uris":{"android":"levelo://app?vid=9ac8ba80-1b63-435f-b693-61252fcddc01","ios":"levelo://app?vid=9ac8ba80-1b63-435f-b693-61252fcddc01"},"vehicle_type_id":"4","last_reported":1692288483,"current_range_meters":27200,"station_id":"ce4bgt92rcd13ifvqcf0","pricing_plan_id":"free"},{"bike_id":"782dfb65-8f21-4cd9-b7a1-26f06a8d6034","system_id":"levelo_inurba_marseille","lat":43.299243,"lon":5.37481,"is_reserved":false,"is_disabled":false,"rental_uris":{"android":"levelo://app?vid=782dfb65-8f21-4cd9-b7a1-26f06a8d6034","ios":"levelo://app?vid=782dfb65-8f21-4cd9-b7a1-26f06a8d6034"},"vehicle_type_id":"4","last_reported":1692288483,"current_range_meters":14000,"station_id":"ce4bgjh2rcd13ifvqbg0","pricing_plan_id":"free"},{"bike_id":"d65cacfa-a601-44ed-8baa-c3234faf82b4","system_id":"levelo_inurba_marseille","lat":43.322872,"lon":5.382756,"is_reserved":false,"is_disabled":false,"rental_uris":{"android":"levelo://app?vid=d65cacfa-a601-44ed-8baa-c3234faf82b4","ios":"levelo://app?vid=d65cacfa-a601-44ed-8baa-c3234faf82b4"},"vehicle_type_id":"4","last_reported":1692288483,"current_range_meters":4800,"station_id":"ce4bhr12rcd13ifvqhqg","pricing_plan_id":"free"},{"bike_id":"2655ed25-ff91-44e2-9350-639e39275cf7","system_id":"levelo_inurba_marseille","lat":43.32287,"lon":5.38268,"is_reserved":false,"is_disabled":false,"rental_uris":{"android":"levelo://app?vid=2655ed25-ff91-44e2-9350-639e39275cf7","ios":"levelo://app?vid=2655ed25-ff91-44e2-9350-639e39275cf7"},"vehicle_type_id":"4","last_reported":1692288483,"current_range_meters":30800,"station_id":"ce4bhr12rcd13ifvqhqg","pricing_plan_id":"free"},{"bike_id":"67c43f86-fcb6-41cc-8957-c0d7033c94b6","system_id":"levelo_inurba_marseille","lat":43.32293,"lon":5.38261,"is_reserved":false,"is_disabled":false,"rental_uris":{"android":"levelo://app?vid=67c43f86-fcb6-41cc-8957-c0d7033c94b6","ios":"levelo://app?vid=67c43f86-fcb6-41cc-8957-c0d7033c94b6"},"vehicle_type_id":"4","last_reported":1692288483,"current_range_meters":27600,"station_id":"ce4bhr12rcd13ifvqhqg","pricing_plan_id":"free"},{"bike_id":"5b5c8cae-b425-4976-9ba8-5ae205664d6b","system_id":"levelo_inurba_marseille","lat":43.32294,"lon":5.3826,"is_reserved":false,"is_disabled":false,"rental_uris":{"android":"levelo://app?vid=5b5c8cae-b425-4976-9ba8-5ae205664d6b","ios":"levelo://app?vid=5b5c8cae-b425-4976-9ba8-5ae205664d6b"},"vehicle_type_id":"4","last_reported":1692288483,"current_range_meters":28400,"station_id":"ce4bhr12rcd13ifvqhqg","pricing_plan_id":"free"},{"bike_id":"4ea834d1-267f-41ec-b789-6c09255ff5cc","system_id":"levelo_inurba_marseille","lat":43.322872,"lon":5.382756,"is_reserved":false,"is_disabled":false,"rental_uris":{"android":"levelo://app?vid=4ea834d1-267f-41ec-b789-6c09255ff5cc","ios":"levelo://app?vid=4ea834d1-267f-41ec-b789-6c09255ff5cc"},"vehicle_type_id":"4","last_reported":1692288483,"current_range_meters":28800,"station_id":"ce4bhr12rcd13ifvqhqg","pricing_plan_id":"free"},{"bike_id":"5f91fc7d-0833-4a7c-a0d8-21ec0ad5455a","system_id":"levelo_inurba_marseille","lat":43.322872,"lon":5.382756,"is_reserved":false,"is_disabled":false,"rental_uris":{"android":"levelo://app?vid=5f91fc7d-0833-4a7c-a0d8-21ec0ad5455a","ios":"levelo://app?vid=5f91fc7d-0833-4a7c-a0d8-21ec0ad5455a"},"vehicle_type_id":"4","last_reported":1692288483,"current_range_meters":30000,"station_id":"ce4bhr12rcd13ifvqhqg","pricing_plan_id":"free"},{"bike_id":"b9784bc4-a1f4-4e7b-a996-3746dcc4c656","system_id":"levelo_inurba_marseille","lat":43.32286,"lon":5.38276,"is_reserved":false,"is_disabled":false,"rental_uris":{"android":"levelo://app?vid=b9784bc4-a1f4-4e7b-a996-3746dcc4c656","ios":"levelo://app?vid=b9784bc4-a1f4-4e7b-a996-3746dcc4c656"},"vehicle_type_id":"4","last_reported":1692288483,"current_range_meters":19200,"station_id":"ce4bhr12rcd13ifvqhqg","pricing_plan_id":"free"},{"bike_id":"2b488fa5-6690-49f1-8674-7d2969f31eb4","system_id":"levelo_inurba_marseille","lat":43.32288,"lon":5.38275,"is_reserved":false,"is_disabled":false,"rental_uris":{"android":"levelo://app?vid=2b488fa5-6690-49f1-8674-7d2969f31eb4","ios":"levelo://app?vid=2b488fa5-6690-49f1-8674-7d2969f31eb4"},"vehicle_type_id":"4","last_reported":1692288483,"current_range_meters":21200,"station_id":"ce4bhr12rcd13ifvqhqg","pricing_plan_id":"free"},{"bike_id":"673200d6-9c00-4797-bd65-06254571f6fe","system_id":"levelo_inurba_marseille","lat":43.32289,"lon":5.38274,"is_reserved":false,"is_disabled":false,"rental_uris":{"android":"levelo://app?vid=673200d6-9c00-4797-bd65-06254571f6fe","ios":"levelo://app?vid=673200d6-9c00-4797-bd65-06254571f6fe"},"vehicle_type_id":"4","last_reported":1692288483,"current_range_meters":31200,"station_id":"ce4bhr12rcd13ifvqhqg","pricing_plan_id":"free"},{"bike_id":"a1f7b084-f437-4e0c-8b20-334f54c48d59","system_id":"levelo_inurba_marseille","lat":43.322872,"lon":5.382756,"is_reserved":false,"is_disabled":false,"rental_uris":{"android":"levelo://app?vid=a1f7b084-f437-4e0c-8b20-334f54c48d59","ios":"levelo://app?vid=a1f7b084-f437-4e0c-8b20-334f54c48d59"},"vehicle_type_id":"4","last_reported":1692288483,"current_range_meters":28000,"station_id":"ce4bhr12rcd13ifvqhqg","pricing_plan_id":"free"},{"bike_id":"15120a69-1dc0-488d-b5dc-3813b3f3db2b","system_id":"levelo_inurba_marseille","lat":43.322872,"lon":5.382756,"is_reserved":false,"is_disabled":false,"rental_uris":{"android":"levelo://app?vid=15120a69-1dc0-488d-b5dc-3813b3f3db2b","ios":"levelo://app?vid=15120a69-1dc0-488d-b5dc-3813b3f3db2b"},"vehicle_type_id":"4","last_reported":1692288483,"current_range_meters":6800,"station_id":"ce4bhr12rcd13ifvqhqg","pricing_plan_id":"free"},{"bike_id":"20066552-063e-4d3e-9e10-e0e8a6d2c838","system_id":"levelo_inurba_marseille","lat":43.322872,"lon":5.382756,"is_reserved":false,"is_disabled":false,"rental_uris":{"android":"levelo://app?vid=20066552-063e-4d3e-9e10-e0e8a6d2c838","ios":"levelo://app?vid=20066552-063e-4d3e-9e10-e0e8a6d2c838"},"vehicle_type_id":"4","last_reported":1692288483,"current_range_meters":11200,"station_id":"ce4bhr12rcd13ifvqhqg","pricing_plan_id":"free"},{"bike_id":"71ebd10a-ba59-46f1-8364-4c1d1ca6dbfe","system_id":"levelo_inurba_marseille","lat":43.328371,"lon":5.366909,"is_reserved":false,"is_disabled":false,"rental_uris":{"android":"levelo://app?vid=71ebd10a-ba59-46f1-8364-4c1d1ca6dbfe","ios":"levelo://app?vid=71ebd10a-ba59-46f1-8364-4c1d1ca6dbfe"},"vehicle_type_id":"4","last_reported":1692288483,"current_range_meters":9600,"station_id":"ce4bhs92rcd13ifvqi0g","pricing_plan_id":"free"},{"bike_id":"7eee4fa1-7665-490a-b158-87b9e04e8769","system_id":"levelo_inurba_marseille","lat":43.328371,"lon":5.366909,"is_reserved":false,"is_disabled":false,"rental_uris":{"android":"levelo://app?vid=7eee4fa1-7665-490a-b158-87b9e04e8769","ios":"levelo://app?vid=7eee4fa1-7665-490a-b158-87b9e04e8769"},"vehicle_type_id":"4","last_reported":1692288483,"current_range_meters":15600,"station_id":"ce4bhs92rcd13ifvqi0g","pricing_plan_id":"free"},{"bike_id":"3dc8ddfd-e386-4774-938c-dc3a7b25274a","system_id":"levelo_inurba_marseille","lat":43.32828,"lon":5.36679,"is_reserved":false,"is_disabled":false,"rental_uris":{"android":"levelo://app?vid=3dc8ddfd-e386-4774-938c-dc3a7b25274a","ios":"levelo://app?vid=3dc8ddfd-e386-4774-938c-dc3a7b25274a"},"vehicle_type_id":"4","last_reported":1692288483,"current_range_meters":13600,"station_id":"ce4bhs92rcd13ifvqi0g","pricing_plan_id":"free"},{"bike_id":"24f3c8f4-fe07-40d9-be4a-29460369c3da","system_id":"levelo_inurba_marseille","lat":43.3283,"lon":5.36688,"is_reserved":false,"is_disabled":false,"rental_uris":{"android":"levelo://app?vid=24f3c8f4-fe07-40d9-be4a-29460369c3da","ios":"levelo://app?vid=24f3c8f4-fe07-40d9-be4a-29460369c3da"},"vehicle_type_id":"4","last_reported":1692288483,"current_range_meters":18800,"station_id":"ce4bhs92rcd13ifvqi0g","pricing_plan_id":"free"},{"bike_id":"4ed96fad-2e51-49a2-879d-e8c05ef80263","system_id":"levelo_inurba_marseille","lat":43.328371,"lon":5.366909,"is_reserved":false,"is_disabled":false,"rental_uris":{"android":"levelo://app?vid=4ed96fad-2e51-49a2-879d-e8c05ef80263","ios":"levelo://app?vid=4ed96fad-2e51-49a2-879d-e8c05ef80263"},"vehicle_type_id":"4","last_reported":1692288483,"current_range_meters":10000,"station_id":"ce4bhs92rcd13ifvqi0g","pricing_plan_id":"free"},{"bike_id":"2cacf4ba-30f0-4f40-92af-cee799fe4c0c","system_id":"levelo_inurba_marseille","lat":43.328371,"lon":5.366909,"is_reserved":false,"is_disabled":false,"rental_uris":{"android":"levelo://app?vid=2cacf4ba-30f0-4f40-92af-cee799fe4c0c","ios":"levelo://app?vid=2cacf4ba-30f0-4f40-92af-cee799fe4c0c"},"vehicle_type_id":"4","last_reported":1692288483,"current_range_meters":22800,"station_id":"ce4bhs92rcd13ifvqi0g","pricing_plan_id":"free"},{"bike_id":"dd789220-e7b5-42c1-b9dc-dc4243148021","system_id":"levelo_inurba_marseille","lat":43.297163,"lon":5.365866,"is_reserved":false,"is_disabled":false,"rental_uris":{"android":"levelo://app?vid=dd789220-e7b5-42c1-b9dc-dc4243148021","ios":"levelo://app?vid=dd789220-e7b5-42c1-b9dc-dc4243148021"},"vehicle_type_id":"4","last_reported":1692288483,"current_range_meters":31200,"station_id":"ce4bgn12rcd13ifvqbt0","pricing_plan_id":"free"},{"bike_id":"5f8a6ca0-5dfe-4c06-929a-c1030bd48d99","system_id":"levelo_inurba_marseille","lat":43.32838,"lon":5.36683,"is_reserved":false,"is_disabled":false,"rental_uris":{"android":"levelo://app?vid=5f8a6ca0-5dfe-4c06-929a-c1030bd48d99","ios":"levelo://app?vid=5f8a6ca0-5dfe-4c06-929a-c1030bd48d99"},"vehicle_type_id":"4","last_reported":1692288483,"current_range_meters":10000,"station_id":"ce4bhs92rcd13ifvqi0g","pricing_plan_id":"free"},{"bike_id":"d3139180-8ba9-4c91-b6e4-8baae3c22113","system_id":"levelo_inurba_marseille","lat":43.296131,"lon":5.370773,"is_reserved":false,"is_disabled":false,"rental_uris":{"android":"levelo://app?vid=d3139180-8ba9-4c91-b6e4-8baae3c22113","ios":"levelo://app?vid=d3139180-8ba9-4c91-b6e4-8baae3c22113"},"vehicle_type_id":"4","last_reported":1692288483,"current_range_meters":31200,"station_id":"ce4bgnh2rcd13ifvqc0g","pricing_plan_id":"free"},{"bike_id":"bb155e93-116e-494a-9911-2df351c7dae8","system_id":"levelo_inurba_marseille","lat":43.296131,"lon":5.370791,"is_reserved":false,"is_disabled":false,"rental_uris":{"android":"levelo://app?vid=bb155e93-116e-494a-9911-2df351c7dae8","ios":"levelo://app?vid=bb155e93-116e-494a-9911-2df351c7dae8"},"vehicle_type_id":"4","last_reported":1692288483,"current_range_meters":30400,"station_id":"ce4bgnh2rcd13ifvqc0g","pricing_plan_id":"free"},{"bike_id":"3e3983f3-0fdd-4793-9dd0-88ef478363d8","system_id":"levelo_inurba_marseille","lat":43.29573,"lon":5.367355,"is_reserved":false,"is_disabled":false,"rental_uris":{"android":"levelo://app?vid=3e3983f3-0fdd-4793-9dd0-88ef478363d8","ios":"levelo://app?vid=3e3983f3-0fdd-4793-9dd0-88ef478363d8"},"vehicle_type_id":"4","last_reported":1692288483,"current_range_meters":4000,"station_id":"ce4bgph2rcd13ifvqc2g","pricing_plan_id":"free"},{"bike_id":"ce280888-e14e-4216-aabf-27ba3412b5a8","system_id":"levelo_inurba_marseille","lat":43.29573,"lon":5.367355,"is_reserved":false,"is_disabled":false,"rental_uris":{"android":"levelo://app?vid=ce280888-e14e-4216-aabf-27ba3412b5a8","ios":"levelo://app?vid=ce280888-e14e-4216-aabf-27ba3412b5a8"},"vehicle_type_id":"4","last_reported":1692288483,"current_range_meters":31200,"station_id":"ce4bgph2rcd13ifvqc2g","pricing_plan_id":"free"},{"bike_id":"abdd4379-3a35-4e77-95c3-c8b1f7e035ab","system_id":"levelo_inurba_marseille","lat":43.299028,"lon":5.381509,"is_reserved":false,"is_disabled":false,"rental_uris":{"android":"levelo://app?vid=abdd4379-3a35-4e77-95c3-c8b1f7e035ab","ios":"levelo://app?vid=abdd4379-3a35-4e77-95c3-c8b1f7e035ab"},"vehicle_type_id":"4","last_reported":1692288483,"current_range_meters":20800,"station_id":"ce4bgj12rcd13ifvqbc0","pricing_plan_id":"free"},{"bike_id":"3213bfb4-9e07-47b9-bf5b-8e0be8003881","system_id":"levelo_inurba_marseille","lat":43.299028,"lon":5.381509,"is_reserved":false,"is_disabled":false,"rental_uris":{"android":"levelo://app?vid=3213bfb4-9e07-47b9-bf5b-8e0be8003881","ios":"levelo://app?vid=3213bfb4-9e07-47b9-bf5b-8e0be8003881"},"vehicle_type_id":"4","last_reported":1692288483,"current_range_meters":4400,"station_id":"ce4bgj12rcd13ifvqbc0","pricing_plan_id":"free"},{"bike_id":"be472a66-12d7-4b1c-a801-1b9205d156df","system_id":"levelo_inurba_marseille","lat":43.317557,"lon":5.390173,"is_reserved":false,"is_disabled":false,"rental_uris":{"android":"levelo://app?vid=be472a66-12d7-4b1c-a801-1b9205d156df","ios":"levelo://app?vid=be472a66-12d7-4b1c-a801-1b9205d156df"},"vehicle_type_id":"4","last_reported":1692288483,"current_range_meters":28800,"station_id":"ce4bhqp2rcd13ifvqhng","pricing_plan_id":"free"},{"bike_id":"b9a855a0-d9d8-4782-943a-840cbcde0bb8","system_id":"levelo_inurba_marseille","lat":43.31763,"lon":5.39014,"is_reserved":false,"is_disabled":false,"rental_uris":{"android":"levelo://app?vid=b9a855a0-d9d8-4782-943a-840cbcde0bb8","ios":"levelo://app?vid=b9a855a0-d9d8-4782-943a-840cbcde0bb8"},"vehicle_type_id":"4","last_reported":1692288483,"current_range_meters":17600,"station_id":"ce4bhqp2rcd13ifvqhng","pricing_plan_id":"free"},{"bike_id":"ab42f1cd-8601-4586-9f99-8a6dc874b84a","system_id":"levelo_inurba_marseille","lat":43.298037,"lon":5.381066,"is_reserved":false,"is_disabled":false,"rental_uris":{"android":"levelo://app?vid=ab42f1cd-8601-4586-9f99-8a6dc874b84a","ios":"levelo://app?vid=ab42f1cd-8601-4586-9f99-8a6dc874b84a"},"vehicle_type_id":"4","last_reported":1692288483,"current_range_meters":16400,"station_id":"ce4bgip2rcd13ifvqbb0","pricing_plan_id":"free"},{"bike_id":"810cfcd1-46ba-4440-99b9-1c382f89845a","system_id":"levelo_inurba_marseille","lat":43.3043,"lon":5.38886,"is_reserved":false,"is_disabled":false,"rental_uris":{"android":"levelo://app?vid=810cfcd1-46ba-4440-99b9-1c382f89845a","ios":"levelo://app?vid=810cfcd1-46ba-4440-99b9-1c382f89845a"},"vehicle_type_id":"4","last_reported":1692288483,"current_range_meters":20000,"station_id":"ce4bgk12rcd13ifvqbi0","pricing_plan_id":"free"},{"bike_id":"a4df99ce-0488-49dd-a888-94686f562e88","system_id":"levelo_inurba_marseille","lat":43.295748,"lon":5.37522,"is_reserved":false,"is_disabled":false,"rental_uris":{"android":"levelo://app?vid=a4df99ce-0488-49dd-a888-94686f562e88","ios":"levelo://app?vid=a4df99ce-0488-49dd-a888-94686f562e88"},"vehicle_type_id":"4","last_reported":1692288483,"current_range_meters":27600,"station_id":"ce4bgh92rcd13ifvqb50","pricing_plan_id":"free"},{"bike_id":"df7def8c-fdba-4728-9baf-0155776f43a1","system_id":"levelo_inurba_marseille","lat":43.299717,"lon":5.384845,"is_reserved":false,"is_disabled":false,"rental_uris":{"android":"levelo://app?vid=df7def8c-fdba-4728-9baf-0155776f43a1","ios":"levelo://app?vid=df7def8c-fdba-4728-9baf-0155776f43a1"},"vehicle_type_id":"4","last_reported":1692288483,"current_range_meters":13600,"station_id":"ce4bgj92rcd13ifvqbd0","pricing_plan_id":"free"},{"bike_id":"c32c0a92-66d7-43b5-b632-7a5c6c0c056e","system_id":"levelo_inurba_marseille","lat":43.299717,"lon":5.384845,"is_reserved":false,"is_disabled":false,"rental_uris":{"android":"levelo://app?vid=c32c0a92-66d7-43b5-b632-7a5c6c0c056e","ios":"levelo://app?vid=c32c0a92-66d7-43b5-b632-7a5c6c0c056e"},"vehicle_type_id":"4","last_reported":1692288483,"current_range_meters":3200,"station_id":"ce4bgj92rcd13ifvqbd0","pricing_plan_id":"free"},{"bike_id":"450b6384-3b45-4695-a86b-848539f6da31","system_id":"levelo_inurba_marseille","lat":43.32362,"lon":5.3888,"is_reserved":false,"is_disabled":false,"rental_uris":{"android":"levelo://app?vid=450b6384-3b45-4695-a86b-848539f6da31","ios":"levelo://app?vid=450b6384-3b45-4695-a86b-848539f6da31"},"vehicle_type_id":"4","last_reported":1692288483,"current_range_meters":18800,"station_id":"ce4bhqp2rcd13ifvqhog","pricing_plan_id":"free"},{"bike_id":"1c6f1d13-f1af-4035-bd43-ec40eddb996e","system_id":"levelo_inurba_marseille","lat":43.32365,"lon":5.38879,"is_reserved":false,"is_disabled":false,"rental_uris":{"android":"levelo://app?vid=1c6f1d13-f1af-4035-bd43-ec40eddb996e","ios":"levelo://app?vid=1c6f1d13-f1af-4035-bd43-ec40eddb996e"},"vehicle_type_id":"4","last_reported":1692288483,"current_range_meters":7600,"station_id":"ce4bhqp2rcd13ifvqhog","pricing_plan_id":"free"},{"bike_id":"1b5c2691-bd33-46db-b85d-232fc0684773","system_id":"levelo_inurba_marseille","lat":43.32365,"lon":5.38881,"is_reserved":false,"is_disabled":false,"rental_uris":{"android":"levelo://app?vid=1b5c2691-bd33-46db-b85d-232fc0684773","ios":"levelo://app?vid=1b5c2691-bd33-46db-b85d-232fc0684773"},"vehicle_type_id":"4","last_reported":1692288483,"current_range_meters":27600,"station_id":"ce4bhqp2rcd13ifvqhog","pricing_plan_id":"free"},{"bike_id":"6b6cba89-d2b8-44bb-8454-5df08cf65f67","system_id":"levelo_inurba_marseille","lat":43.32367,"lon":5.388836,"is_reserved":false,"is_disabled":false,"rental_uris":{"android":"levelo://app?vid=6b6cba89-d2b8-44bb-8454-5df08cf65f67","ios":"levelo://app?vid=6b6cba89-d2b8-44bb-8454-5df08cf65f67"},"vehicle_type_id":"4","last_reported":1692288483,"current_range_meters":22400,"station_id":"ce4bhqp2rcd13ifvqhog","pricing_plan_id":"free"},{"bike_id":"5deca036-ea7a-461b-9966-cca000531f2a","system_id":"levelo_inurba_marseille","lat":43.32366,"lon":5.38882,"is_reserved":false,"is_disabled":false,"rental_uris":{"android":"levelo://app?vid=5deca036-ea7a-461b-9966-cca000531f2a","ios":"levelo://app?vid=5deca036-ea7a-461b-9966-cca000531f2a"},"vehicle_type_id":"4","last_reported":1692288483,"current_range_meters":24800,"station_id":"ce4bhqp2rcd13ifvqhog","pricing_plan_id":"free"},{"bike_id":"95514392-84bd-4ad0-8d9a-b606fc2167ce","system_id":"levelo_inurba_marseille","lat":43.32367,"lon":5.388836,"is_reserved":false,"is_disabled":false,"rental_uris":{"android":"levelo://app?vid=95514392-84bd-4ad0-8d9a-b606fc2167ce","ios":"levelo://app?vid=95514392-84bd-4ad0-8d9a-b606fc2167ce"},"vehicle_type_id":"4","last_reported":1692288483,"current_range_meters":15200,"station_id":"ce4bhqp2rcd13ifvqhog","pricing_plan_id":"free"},{"bike_id":"55f08f4d-333e-4077-9882-16e72e12ddbf","system_id":"levelo_inurba_marseille","lat":43.32362,"lon":5.38887,"is_reserved":false,"is_disabled":false,"rental_uris":{"android":"levelo://app?vid=55f08f4d-333e-4077-9882-16e72e12ddbf","ios":"levelo://app?vid=55f08f4d-333e-4077-9882-16e72e12ddbf"},"vehicle_type_id":"4","last_reported":1692288483,"current_range_meters":14400,"station_id":"ce4bhqp2rcd13ifvqhog","pricing_plan_id":"free"},{"bike_id":"810e5c4e-cfbd-4fb4-b6d8-02289cde4c80","system_id":"levelo_inurba_marseille","lat":43.32365,"lon":5.38886,"is_reserved":false,"is_disabled":false,"rental_uris":{"android":"levelo://app?vid=810e5c4e-cfbd-4fb4-b6d8-02289cde4c80","ios":"levelo://app?vid=810e5c4e-cfbd-4fb4-b6d8-02289cde4c80"},"vehicle_type_id":"4","last_reported":1692288483,"current_range_meters":22000,"station_id":"ce4bhqp2rcd13ifvqhog","pricing_plan_id":"free"},{"bike_id":"cbffe489-c68c-4e68-b63d-cbf52cd3cc48","system_id":"levelo_inurba_marseille","lat":43.32367,"lon":5.388836,"is_reserved":false,"is_disabled":false,"rental_uris":{"android":"levelo://app?vid=cbffe489-c68c-4e68-b63d-cbf52cd3cc48","ios":"levelo://app?vid=cbffe489-c68c-4e68-b63d-cbf52cd3cc48"},"vehicle_type_id":"4","last_reported":1692288483,"current_range_meters":29600,"station_id":"ce4bhqp2rcd13ifvqhog","pricing_plan_id":"free"},{"bike_id":"63a75cfd-c68d-41eb-84a8-54aaa3adaa9a","system_id":"levelo_inurba_marseille","lat":43.29602,"lon":5.381084,"is_reserved":false,"is_disabled":false,"rental_uris":{"android":"levelo://app?vid=63a75cfd-c68d-41eb-84a8-54aaa3adaa9a","ios":"levelo://app?vid=63a75cfd-c68d-41eb-84a8-54aaa3adaa9a"},"vehicle_type_id":"4","last_reported":1692288483,"current_range_meters":10000,"station_id":"ce4bgl12rcd13ifvqbo0","pricing_plan_id":"free"},{"bike_id":"b6565fa0-d7bb-45d4-9922-baf6db23843c","system_id":"levelo_inurba_marseille","lat":43.29306,"lon":5.37175,"is_reserved":false,"is_disabled":false,"rental_uris":{"android":"levelo://app?vid=b6565fa0-d7bb-45d4-9922-baf6db23843c","ios":"levelo://app?vid=b6565fa0-d7bb-45d4-9922-baf6db23843c"},"vehicle_type_id":"4","last_reported":1692288483,"current_range_meters":13200,"station_id":"ce4bgh92rcd13ifvqb40","pricing_plan_id":"free"},{"bike_id":"e9614e02-33bc-4da4-837b-6f9848b9d42f","system_id":"levelo_inurba_marseille","lat":43.292749,"lon":5.368402,"is_reserved":false,"is_disabled":false,"rental_uris":{"android":"levelo://app?vid=e9614e02-33bc-4da4-837b-6f9848b9d42f","ios":"levelo://app?vid=e9614e02-33bc-4da4-837b-6f9848b9d42f"},"vehicle_type_id":"4","last_reported":1692288483,"current_range_meters":16000,"station_id":"ce4bhbp2rcd13ifvqesg","pricing_plan_id":"free"},{"bike_id":"32290b7c-baef-4319-87a8-fcee85e5da59","system_id":"levelo_inurba_marseille","lat":43.292749,"lon":5.368402,"is_reserved":false,"is_disabled":false,"rental_uris":{"android":"levelo://app?vid=32290b7c-baef-4319-87a8-fcee85e5da59","ios":"levelo://app?vid=32290b7c-baef-4319-87a8-fcee85e5da59"},"vehicle_type_id":"4","last_reported":1692288483,"current_range_meters":7200,"station_id":"ce4bhbp2rcd13ifvqesg","pricing_plan_id":"free"},{"bike_id":"38fef587-7cc5-4800-b069-87b8f296a10a","system_id":"levelo_inurba_marseille","lat":43.293009,"lon":5.374584,"is_reserved":false,"is_disabled":false,"rental_uris":{"android":"levelo://app?vid=38fef587-7cc5-4800-b069-87b8f296a10a","ios":"levelo://app?vid=38fef587-7cc5-4800-b069-87b8f296a10a"},"vehicle_type_id":"4","last_reported":1692288483,"current_range_meters":31200,"station_id":"ce4bgi12rcd13ifvqb70","pricing_plan_id":"free"},{"bike_id":"bc4dd81b-7946-4415-b17f-9dc1c55129fb","system_id":"levelo_inurba_marseille","lat":43.2936,"lon":5.37835,"is_reserved":false,"is_disabled":false,"rental_uris":{"android":"levelo://app?vid=bc4dd81b-7946-4415-b17f-9dc1c55129fb","ios":"levelo://app?vid=bc4dd81b-7946-4415-b17f-9dc1c55129fb"},"vehicle_type_id":"4","last_reported":1692288483,"current_range_meters":26400,"station_id":"ce4bgjh2rcd13ifvqbf0","pricing_plan_id":"free"},{"bike_id":"a4f7f542-c1cf-47a1-a92d-433d7c406f43","system_id":"levelo_inurba_marseille","lat":43.30103,"lon":5.39072,"is_reserved":false,"is_disabled":false,"rental_uris":{"android":"levelo://app?vid=a4f7f542-c1cf-47a1-a92d-433d7c406f43","ios":"levelo://app?vid=a4f7f542-c1cf-47a1-a92d-433d7c406f43"},"vehicle_type_id":"4","last_reported":1692288483,"current_range_meters":30000,"station_id":"ce4bh192rcd13ifvqdb0","pricing_plan_id":"free"},{"bike_id":"30be9f82-4f31-41d7-91d8-9cec2fe87381","system_id":"levelo_inurba_marseille","lat":43.292311,"lon":5.360731,"is_reserved":false,"is_disabled":false,"rental_uris":{"android":"levelo://app?vid=30be9f82-4f31-41d7-91d8-9cec2fe87381","ios":"levelo://app?vid=30be9f82-4f31-41d7-91d8-9cec2fe87381"},"vehicle_type_id":"4","last_reported":1692288483,"current_range_meters":24000,"station_id":"ce4bhbh2rcd13ifvqeqg","pricing_plan_id":"free"},{"bike_id":"4f00c715-abb3-4429-bbdd-e7295504a731","system_id":"levelo_inurba_marseille","lat":43.298764,"lon":5.388973,"is_reserved":false,"is_disabled":false,"rental_uris":{"android":"levelo://app?vid=4f00c715-abb3-4429-bbdd-e7295504a731","ios":"levelo://app?vid=4f00c715-abb3-4429-bbdd-e7295504a731"},"vehicle_type_id":"4","last_reported":1692288483,"current_range_meters":14400,"station_id":"ce4bh392rcd13ifvqdl0","pricing_plan_id":"free"},{"bike_id":"0593049e-ace4-4f06-8981-9a94ccb212ff","system_id":"levelo_inurba_marseille","lat":43.29211,"lon":5.36061,"is_reserved":false,"is_disabled":false,"rental_uris":{"android":"levelo://app?vid=0593049e-ace4-4f06-8981-9a94ccb212ff","ios":"levelo://app?vid=0593049e-ace4-4f06-8981-9a94ccb212ff"},"vehicle_type_id":"4","last_reported":1692288483,"current_range_meters":15600,"station_id":"ce4bhbh2rcd13ifvqeqg","pricing_plan_id":"free"},{"bike_id":"ccc6bff8-8c26-43c2-a8c5-fb5fe6f20438","system_id":"levelo_inurba_marseille","lat":43.29885,"lon":5.38901,"is_reserved":false,"is_disabled":false,"rental_uris":{"android":"levelo://app?vid=ccc6bff8-8c26-43c2-a8c5-fb5fe6f20438","ios":"levelo://app?vid=ccc6bff8-8c26-43c2-a8c5-fb5fe6f20438"},"vehicle_type_id":"4","last_reported":1692288483,"current_range_meters":12000,"station_id":"ce4bh392rcd13ifvqdl0","pricing_plan_id":"free"},{"bike_id":"6385dd4c-5e15-467e-9e18-1692e7f4a06e","system_id":"levelo_inurba_marseille","lat":43.29188,"lon":5.358,"is_reserved":false,"is_disabled":false,"rental_uris":{"android":"levelo://app?vid=6385dd4c-5e15-467e-9e18-1692e7f4a06e","ios":"levelo://app?vid=6385dd4c-5e15-467e-9e18-1692e7f4a06e"},"vehicle_type_id":"4","last_reported":1692288483,"current_range_meters":10800,"station_id":"ce4bhb12rcd13ifvqel0","pricing_plan_id":"free"},{"bike_id":"be9f3e76-ff0f-453f-900f-c285491cb1a9","system_id":"levelo_inurba_marseille","lat":43.313291,"lon":5.396838,"is_reserved":false,"is_disabled":false,"rental_uris":{"android":"levelo://app?vid=be9f3e76-ff0f-453f-900f-c285491cb1a9","ios":"levelo://app?vid=be9f3e76-ff0f-453f-900f-c285491cb1a9"},"vehicle_type_id":"4","last_reported":1692288483,"current_range_meters":17600,"station_id":"ce4bgvp2rcd13ifvqcu0","pricing_plan_id":"free"},{"bike_id":"519c7ee9-aa5e-43e4-bfd1-2c72dd858008","system_id":"levelo_inurba_marseille","lat":43.291994,"lon":5.357886,"is_reserved":false,"is_disabled":false,"rental_uris":{"android":"levelo://app?vid=519c7ee9-aa5e-43e4-bfd1-2c72dd858008","ios":"levelo://app?vid=519c7ee9-aa5e-43e4-bfd1-2c72dd858008"},"vehicle_type_id":"4","last_reported":1692288483,"current_range_meters":21600,"station_id":"ce4bhb12rcd13ifvqel0","pricing_plan_id":"free"},{"bike_id":"ec629684-dfc0-4833-9238-b413e2a8ccd8","system_id":"levelo_inurba_marseille","lat":43.294153,"lon":5.386305,"is_reserved":false,"is_disabled":false,"rental_uris":{"android":"levelo://app?vid=ec629684-dfc0-4833-9238-b413e2a8ccd8","ios":"levelo://app?vid=ec629684-dfc0-4833-9238-b413e2a8ccd8"},"vehicle_type_id":"4","last_reported":1692288483,"current_range_meters":24800,"station_id":"ce4bh2h2rcd13ifvqdh0","pricing_plan_id":"free"},{"bike_id":"db5d1f47-da51-496f-9e60-458297b81cf1","system_id":"levelo_inurba_marseille","lat":43.290631,"lon":5.359244,"is_reserved":false,"is_disabled":false,"rental_uris":{"android":"levelo://app?vid=db5d1f47-da51-496f-9e60-458297b81cf1","ios":"levelo://app?vid=db5d1f47-da51-496f-9e60-458297b81cf1"},"vehicle_type_id":"4","last_reported":1692288483,"current_range_meters":22000,"station_id":"ce4bha92rcd13ifvqeg0","pricing_plan_id":"free"},{"bike_id":"1d455bd4-6651-4665-b909-e27a5c701276","system_id":"levelo_inurba_marseille","lat":43.290624,"lon":5.359245,"is_reserved":false,"is_disabled":false,"rental_uris":{"android":"levelo://app?vid=1d455bd4-6651-4665-b909-e27a5c701276","ios":"levelo://app?vid=1d455bd4-6651-4665-b909-e27a5c701276"},"vehicle_type_id":"4","last_reported":1692288483,"current_range_meters":20400,"station_id":"ce4bha92rcd13ifvqeg0","pricing_plan_id":"free"},{"bike_id":"6cd98c52-6e26-4852-ab57-930b50add71e","system_id":"levelo_inurba_marseille","lat":43.294153,"lon":5.386305,"is_reserved":false,"is_disabled":false,"rental_uris":{"android":"levelo://app?vid=6cd98c52-6e26-4852-ab57-930b50add71e","ios":"levelo://app?vid=6cd98c52-6e26-4852-ab57-930b50add71e"},"vehicle_type_id":"4","last_reported":1692288483,"current_range_meters":2800,"station_id":"ce4bh2h2rcd13ifvqdh0","pricing_plan_id":"free"},{"bike_id":"59d14af7-4ce0-4fd6-9e30-cc063b811126","system_id":"levelo_inurba_marseille","lat":43.294153,"lon":5.386305,"is_reserved":false,"is_disabled":false,"rental_uris":{"android":"levelo://app?vid=59d14af7-4ce0-4fd6-9e30-cc063b811126","ios":"levelo://app?vid=59d14af7-4ce0-4fd6-9e30-cc063b811126"},"vehicle_type_id":"4","last_reported":1692288483,"current_range_meters":8400,"station_id":"ce4bh2h2rcd13ifvqdh0","pricing_plan_id":"free"},{"bike_id":"adc9da6b-1c9c-432a-994f-1963de3de459","system_id":"levelo_inurba_marseille","lat":43.289184,"lon":5.366408,"is_reserved":false,"is_disabled":false,"rental_uris":{"android":"levelo://app?vid=adc9da6b-1c9c-432a-994f-1963de3de459","ios":"levelo://app?vid=adc9da6b-1c9c-432a-994f-1963de3de459"},"vehicle_type_id":"4","last_reported":1692288483,"current_range_meters":12400,"station_id":"ce4bhap2rcd13ifvqek0","pricing_plan_id":"free"},{"bike_id":"1ab7f8f1-80c5-4f41-bbd3-da8ca361938f","system_id":"levelo_inurba_marseille","lat":43.2909,"lon":5.37963,"is_reserved":false,"is_disabled":false,"rental_uris":{"android":"levelo://app?vid=1ab7f8f1-80c5-4f41-bbd3-da8ca361938f","ios":"levelo://app?vid=1ab7f8f1-80c5-4f41-bbd3-da8ca361938f"},"vehicle_type_id":"4","last_reported":1692288483,"current_range_meters":14400,"station_id":"","pricing_plan_id":"free"},{"bike_id":"e8982288-1029-444d-9fc2-82ca8e6cfae0","system_id":"levelo_inurba_marseille","lat":43.29005,"lon":5.35655,"is_reserved":false,"is_disabled":false,"rental_uris":{"android":"levelo://app?vid=e8982288-1029-444d-9fc2-82ca8e6cfae0","ios":"levelo://app?vid=e8982288-1029-444d-9fc2-82ca8e6cfae0"},"vehicle_type_id":"4","last_reported":1692288483,"current_range_meters":30000,"station_id":"ce4bhb92rcd13ifvqen0","pricing_plan_id":"free"},{"bike_id":"be005e4f-d207-40fd-bd99-241d744b2797","system_id":"levelo_inurba_marseille","lat":43.33039,"lon":5.38915,"is_reserved":false,"is_disabled":false,"rental_uris":{"android":"levelo://app?vid=be005e4f-d207-40fd-bd99-241d744b2797","ios":"levelo://app?vid=be005e4f-d207-40fd-bd99-241d744b2797"},"vehicle_type_id":"4","last_reported":1692288483,"current_range_meters":11600,"station_id":"ce4bhr92rcd13ifvqhrg","pricing_plan_id":"free"},{"bike_id":"859ece1b-eaf2-4429-915d-1d151e169e7f","system_id":"levelo_inurba_marseille","lat":43.33037,"lon":5.3892,"is_reserved":false,"is_disabled":false,"rental_uris":{"android":"levelo://app?vid=859ece1b-eaf2-4429-915d-1d151e169e7f","ios":"levelo://app?vid=859ece1b-eaf2-4429-915d-1d151e169e7f"},"vehicle_type_id":"4","last_reported":1692288483,"current_range_meters":14000,"station_id":"ce4bhr92rcd13ifvqhrg","pricing_plan_id":"free"},{"bike_id":"b96b9694-dd31-4b0a-bced-202298195360","system_id":"levelo_inurba_marseille","lat":43.290103,"lon":5.356114,"is_reserved":false,"is_disabled":false,"rental_uris":{"android":"levelo://app?vid=b96b9694-dd31-4b0a-bced-202298195360","ios":"levelo://app?vid=b96b9694-dd31-4b0a-bced-202298195360"},"vehicle_type_id":"4","last_reported":1692288483,"current_range_meters":18000,"station_id":"ce4bhb92rcd13ifvqen0","pricing_plan_id":"free"},{"bike_id":"d4ad8918-8ab6-4278-b772-6948b5c39e1d","system_id":"levelo_inurba_marseille","lat":43.33047,"lon":5.38908,"is_reserved":false,"is_disabled":false,"rental_uris":{"android":"levelo://app?vid=d4ad8918-8ab6-4278-b772-6948b5c39e1d","ios":"levelo://app?vid=d4ad8918-8ab6-4278-b772-6948b5c39e1d"},"vehicle_type_id":"4","last_reported":1692288483,"current_range_meters":16800,"station_id":"ce4bhr92rcd13ifvqhrg","pricing_plan_id":"free"},{"bike_id":"d684134b-b342-42aa-ba92-b8e9bdffba86","system_id":"levelo_inurba_marseille","lat":43.290103,"lon":5.356114,"is_reserved":false,"is_disabled":false,"rental_uris":{"android":"levelo://app?vid=d684134b-b342-42aa-ba92-b8e9bdffba86","ios":"levelo://app?vid=d684134b-b342-42aa-ba92-b8e9bdffba86"},"vehicle_type_id":"4","last_reported":1692288483,"current_range_meters":27200,"station_id":"ce4bhb92rcd13ifvqen0","pricing_plan_id":"free"},{"bike_id":"d5578a77-3302-4d8a-ae9c-7edceb0f071e","system_id":"levelo_inurba_marseille","lat":43.33044,"lon":5.38921,"is_reserved":false,"is_disabled":false,"rental_uris":{"android":"levelo://app?vid=d5578a77-3302-4d8a-ae9c-7edceb0f071e","ios":"levelo://app?vid=d5578a77-3302-4d8a-ae9c-7edceb0f071e"},"vehicle_type_id":"4","last_reported":1692288483,"current_range_meters":21600,"station_id":"ce4bhr92rcd13ifvqhrg","pricing_plan_id":"free"},{"bike_id":"78f1a325-e5b4-4a72-bb0e-b29d3285ba24","system_id":"levelo_inurba_marseille","lat":43.290104,"lon":5.356111,"is_reserved":false,"is_disabled":false,"rental_uris":{"android":"levelo://app?vid=78f1a325-e5b4-4a72-bb0e-b29d3285ba24","ios":"levelo://app?vid=78f1a325-e5b4-4a72-bb0e-b29d3285ba24"},"vehicle_type_id":"4","last_reported":1692288483,"current_range_meters":31200,"station_id":"ce4bhb92rcd13ifvqen0","pricing_plan_id":"free"},{"bike_id":"8d4d81b8-21d9-4d48-96aa-0988022a3976","system_id":"levelo_inurba_marseille","lat":43.28989,"lon":5.3564,"is_reserved":false,"is_disabled":false,"rental_uris":{"android":"levelo://app?vid=8d4d81b8-21d9-4d48-96aa-0988022a3976","ios":"levelo://app?vid=8d4d81b8-21d9-4d48-96aa-0988022a3976"},"vehicle_type_id":"4","last_reported":1692288483,"current_range_meters":29200,"station_id":"ce4bhb92rcd13ifvqen0","pricing_plan_id":"free"},{"bike_id":"d3ac08ae-7968-4a52-99c8-f96cd5b44706","system_id":"levelo_inurba_marseille","lat":43.28856,"lon":5.358371,"is_reserved":false,"is_disabled":false,"rental_uris":{"android":"levelo://app?vid=d3ac08ae-7968-4a52-99c8-f96cd5b44706","ios":"levelo://app?vid=d3ac08ae-7968-4a52-99c8-f96cd5b44706"},"vehicle_type_id":"4","last_reported":1692288483,"current_range_meters":14800,"station_id":"ce4bhb12rcd13ifvqem0","pricing_plan_id":"free"},{"bike_id":"95384e12-9055-4ae1-80f1-ea940fbf9262","system_id":"levelo_inurba_marseille","lat":43.28865,"lon":5.35841,"is_reserved":false,"is_disabled":false,"rental_uris":{"android":"levelo://app?vid=95384e12-9055-4ae1-80f1-ea940fbf9262","ios":"levelo://app?vid=95384e12-9055-4ae1-80f1-ea940fbf9262"},"vehicle_type_id":"4","last_reported":1692288483,"current_range_meters":8000,"station_id":"ce4bhb12rcd13ifvqem0","pricing_plan_id":"free"},{"bike_id":"e0f55597-3786-40b8-b379-66abf87f466d","system_id":"levelo_inurba_marseille","lat":43.28856,"lon":5.358371,"is_reserved":false,"is_disabled":false,"rental_uris":{"android":"levelo://app?vid=e0f55597-3786-40b8-b379-66abf87f466d","ios":"levelo://app?vid=e0f55597-3786-40b8-b379-66abf87f466d"},"vehicle_type_id":"4","last_reported":1692288483,"current_range_meters":18800,"station_id":"ce4bhb12rcd13ifvqem0","pricing_plan_id":"free"},{"bike_id":"c83ad0c3-26ec-4e89-a7c9-2e25ec20d160","system_id":"levelo_inurba_marseille","lat":43.28856,"lon":5.358371,"is_reserved":false,"is_disabled":false,"rental_uris":{"android":"levelo://app?vid=c83ad0c3-26ec-4e89-a7c9-2e25ec20d160","ios":"levelo://app?vid=c83ad0c3-26ec-4e89-a7c9-2e25ec20d160"},"vehicle_type_id":"4","last_reported":1692288483,"current_range_meters":25200,"station_id":"ce4bhb12rcd13ifvqem0","pricing_plan_id":"free"},{"bike_id":"1f60912d-f53f-4cfc-b984-e361ff64e002","system_id":"levelo_inurba_marseille","lat":43.28856,"lon":5.358371,"is_reserved":false,"is_disabled":false,"rental_uris":{"android":"levelo://app?vid=1f60912d-f53f-4cfc-b984-e361ff64e002","ios":"levelo://app?vid=1f60912d-f53f-4cfc-b984-e361ff64e002"},"vehicle_type_id":"4","last_reported":1692288483,"current_range_meters":18400,"station_id":"ce4bhb12rcd13ifvqem0","pricing_plan_id":"free"},{"bike_id":"c2b31f34-9454-448e-88ea-5d3794496f19","system_id":"levelo_inurba_marseille","lat":43.28856,"lon":5.358371,"is_reserved":false,"is_disabled":false,"rental_uris":{"android":"levelo://app?vid=c2b31f34-9454-448e-88ea-5d3794496f19","ios":"levelo://app?vid=c2b31f34-9454-448e-88ea-5d3794496f19"},"vehicle_type_id":"4","last_reported":1692288483,"current_range_meters":17600,"station_id":"ce4bhb12rcd13ifvqem0","pricing_plan_id":"free"},{"bike_id":"3f6ab344-d55c-4bba-8b88-a8126bb81627","system_id":"levelo_inurba_marseille","lat":43.28856,"lon":5.358371,"is_reserved":false,"is_disabled":false,"rental_uris":{"android":"levelo://app?vid=3f6ab344-d55c-4bba-8b88-a8126bb81627","ios":"levelo://app?vid=3f6ab344-d55c-4bba-8b88-a8126bb81627"},"vehicle_type_id":"4","last_reported":1692288483,"current_range_meters":10400,"station_id":"ce4bhb12rcd13ifvqem0","pricing_plan_id":"free"},{"bike_id":"00ac26c9-3a09-424b-af6b-f79064a78f3b","system_id":"levelo_inurba_marseille","lat":43.28856,"lon":5.358371,"is_reserved":false,"is_disabled":false,"rental_uris":{"android":"levelo://app?vid=00ac26c9-3a09-424b-af6b-f79064a78f3b","ios":"levelo://app?vid=00ac26c9-3a09-424b-af6b-f79064a78f3b"},"vehicle_type_id":"4","last_reported":1692288483,"current_range_meters":17600,"station_id":"ce4bhb12rcd13ifvqem0","pricing_plan_id":"free"},{"bike_id":"b2f48414-cd3c-40da-8db5-3acb9c4d63cf","system_id":"levelo_inurba_marseille","lat":43.312609,"lon":5.401662,"is_reserved":false,"is_disabled":false,"rental_uris":{"android":"levelo://app?vid=b2f48414-cd3c-40da-8db5-3acb9c4d63cf","ios":"levelo://app?vid=b2f48414-cd3c-40da-8db5-3acb9c4d63cf"},"vehicle_type_id":"4","last_reported":1692288483,"current_range_meters":13600,"station_id":"ce4bh092rcd13ifvqd30","pricing_plan_id":"free"},{"bike_id":"d60d4eac-b8f8-4de5-9167-61aec9c72dcc","system_id":"levelo_inurba_marseille","lat":43.31271,"lon":5.40171,"is_reserved":false,"is_disabled":false,"rental_uris":{"android":"levelo://app?vid=d60d4eac-b8f8-4de5-9167-61aec9c72dcc","ios":"levelo://app?vid=d60d4eac-b8f8-4de5-9167-61aec9c72dcc"},"vehicle_type_id":"4","last_reported":1692288483,"current_range_meters":6000,"station_id":"ce4bh092rcd13ifvqd30","pricing_plan_id":"free"},{"bike_id":"87534a1b-22e7-43b3-9953-4922c7d3b060","system_id":"levelo_inurba_marseille","lat":43.312609,"lon":5.401662,"is_reserved":false,"is_disabled":false,"rental_uris":{"android":"levelo://app?vid=87534a1b-22e7-43b3-9953-4922c7d3b060","ios":"levelo://app?vid=87534a1b-22e7-43b3-9953-4922c7d3b060"},"vehicle_type_id":"4","last_reported":1692288483,"current_range_meters":23200,"station_id":"ce4bh092rcd13ifvqd30","pricing_plan_id":"free"},{"bike_id":"4e223b6f-3c25-48b2-bf29-64fb04ae9c60","system_id":"levelo_inurba_marseille","lat":43.33754,"lon":5.37428,"is_reserved":false,"is_disabled":false,"rental_uris":{"android":"levelo://app?vid=4e223b6f-3c25-48b2-bf29-64fb04ae9c60","ios":"levelo://app?vid=4e223b6f-3c25-48b2-bf29-64fb04ae9c60"},"vehicle_type_id":"4","last_reported":1692288483,"current_range_meters":30000,"station_id":"","pricing_plan_id":"free"},{"bike_id":"86b1c357-8b13-4217-a8cb-559265c177ff","system_id":"levelo_inurba_marseille","lat":43.33748,"lon":5.37478,"is_reserved":false,"is_disabled":false,"rental_uris":{"android":"levelo://app?vid=86b1c357-8b13-4217-a8cb-559265c177ff","ios":"levelo://app?vid=86b1c357-8b13-4217-a8cb-559265c177ff"},"vehicle_type_id":"4","last_reported":1692288483,"current_range_meters":28400,"station_id":"","pricing_plan_id":"free"},{"bike_id":"f1a999d0-6cce-4b52-97e7-5d117e4a0a20","system_id":"levelo_inurba_marseille","lat":43.3376,"lon":5.37427,"is_reserved":false,"is_disabled":false,"rental_uris":{"android":"levelo://app?vid=f1a999d0-6cce-4b52-97e7-5d117e4a0a20","ios":"levelo://app?vid=f1a999d0-6cce-4b52-97e7-5d117e4a0a20"},"vehicle_type_id":"4","last_reported":1692288483,"current_range_meters":30000,"station_id":"","pricing_plan_id":"free"},{"bike_id":"af780357-a8f8-4cbd-a818-396599dd4299","system_id":"levelo_inurba_marseille","lat":43.33764,"lon":5.37448,"is_reserved":false,"is_disabled":false,"rental_uris":{"android":"levelo://app?vid=af780357-a8f8-4cbd-a818-396599dd4299","ios":"levelo://app?vid=af780357-a8f8-4cbd-a818-396599dd4299"},"vehicle_type_id":"4","last_reported":1692288483,"current_range_meters":21200,"station_id":"","pricing_plan_id":"free"},{"bike_id":"c8e36187-835d-4ae5-a596-75160776a381","system_id":"levelo_inurba_marseille","lat":43.33766,"lon":5.37494,"is_reserved":false,"is_disabled":false,"rental_uris":{"android":"levelo://app?vid=c8e36187-835d-4ae5-a596-75160776a381","ios":"levelo://app?vid=c8e36187-835d-4ae5-a596-75160776a381"},"vehicle_type_id":"4","last_reported":1692288483,"current_range_meters":29600,"station_id":"","pricing_plan_id":"free"},{"bike_id":"aa18735b-a009-493a-a8ad-923628302ac4","system_id":"levelo_inurba_marseille","lat":43.286961,"lon":5.373785,"is_reserved":false,"is_disabled":false,"rental_uris":{"android":"levelo://app?vid=aa18735b-a009-493a-a8ad-923628302ac4","ios":"levelo://app?vid=aa18735b-a009-493a-a8ad-923628302ac4"},"vehicle_type_id":"4","last_reported":1692288483,"current_range_meters":16000,"station_id":"ce4bh3p2rcd13ifvqdq0","pricing_plan_id":"free"},{"bike_id":"1efef7cc-0959-4787-a6ab-4993bbfb05c1","system_id":"levelo_inurba_marseille","lat":43.286593,"lon":5.363346,"is_reserved":false,"is_disabled":false,"rental_uris":{"android":"levelo://app?vid=1efef7cc-0959-4787-a6ab-4993bbfb05c1","ios":"levelo://app?vid=1efef7cc-0959-4787-a6ab-4993bbfb05c1"},"vehicle_type_id":"4","last_reported":1692288483,"current_range_meters":17600,"station_id":"ce4bhah2rcd13ifvqej0","pricing_plan_id":"free"},{"bike_id":"3a60fe37-9703-439c-9481-f2c69d662040","system_id":"levelo_inurba_marseille","lat":43.286961,"lon":5.373785,"is_reserved":false,"is_disabled":false,"rental_uris":{"android":"levelo://app?vid=3a60fe37-9703-439c-9481-f2c69d662040","ios":"levelo://app?vid=3a60fe37-9703-439c-9481-f2c69d662040"},"vehicle_type_id":"4","last_reported":1692288483,"current_range_meters":19200,"station_id":"ce4bh3p2rcd13ifvqdq0","pricing_plan_id":"free"},{"bike_id":"b45b27dd-e5a1-423a-b02c-cc6a4bd4d2ba","system_id":"levelo_inurba_marseille","lat":43.286961,"lon":5.373785,"is_reserved":false,"is_disabled":false,"rental_uris":{"android":"levelo://app?vid=b45b27dd-e5a1-423a-b02c-cc6a4bd4d2ba","ios":"levelo://app?vid=b45b27dd-e5a1-423a-b02c-cc6a4bd4d2ba"},"vehicle_type_id":"4","last_reported":1692288483,"current_range_meters":27200,"station_id":"ce4bh3p2rcd13ifvqdq0","pricing_plan_id":"free"},{"bike_id":"b054ed1e-2bdf-493e-be49-27fbd1f35328","system_id":"levelo_inurba_marseille","lat":43.286593,"lon":5.363346,"is_reserved":false,"is_disabled":false,"rental_uris":{"android":"levelo://app?vid=b054ed1e-2bdf-493e-be49-27fbd1f35328","ios":"levelo://app?vid=b054ed1e-2bdf-493e-be49-27fbd1f35328"},"vehicle_type_id":"4","last_reported":1692288483,"current_range_meters":24400,"station_id":"ce4bhah2rcd13ifvqej0","pricing_plan_id":"free"},{"bike_id":"75199276-b705-4ad7-b6a9-49aeaa84628a","system_id":"levelo_inurba_marseille","lat":43.286591,"lon":5.363346,"is_reserved":false,"is_disabled":false,"rental_uris":{"android":"levelo://app?vid=75199276-b705-4ad7-b6a9-49aeaa84628a","ios":"levelo://app?vid=75199276-b705-4ad7-b6a9-49aeaa84628a"},"vehicle_type_id":"4","last_reported":1692288483,"current_range_meters":30800,"station_id":"ce4bhah2rcd13ifvqej0","pricing_plan_id":"free"},{"bike_id":"16af83b0-568e-4a9b-907d-92c3e4e622de","system_id":"levelo_inurba_marseille","lat":43.295194,"lon":5.39397,"is_reserved":false,"is_disabled":false,"rental_uris":{"android":"levelo://app?vid=16af83b0-568e-4a9b-907d-92c3e4e622de","ios":"levelo://app?vid=16af83b0-568e-4a9b-907d-92c3e4e622de"},"vehicle_type_id":"4","last_reported":1692288483,"current_range_meters":19600,"station_id":"ce4bh292rcd13ifvqdf0","pricing_plan_id":"free"},{"bike_id":"0bac4ed7-af63-4150-bbed-0974647023ed","system_id":"levelo_inurba_marseille","lat":43.287184,"lon":5.37937,"is_reserved":false,"is_disabled":false,"rental_uris":{"android":"levelo://app?vid=0bac4ed7-af63-4150-bbed-0974647023ed","ios":"levelo://app?vid=0bac4ed7-af63-4150-bbed-0974647023ed"},"vehicle_type_id":"4","last_reported":1692288483,"current_range_meters":24800,"station_id":"ce4bh9p2rcd13ifvqec0","pricing_plan_id":"free"},{"bike_id":"358eb173-e08d-40cd-b923-c824a785469a","system_id":"levelo_inurba_marseille","lat":43.316517,"lon":5.404375,"is_reserved":false,"is_disabled":false,"rental_uris":{"android":"levelo://app?vid=358eb173-e08d-40cd-b923-c824a785469a","ios":"levelo://app?vid=358eb173-e08d-40cd-b923-c824a785469a"},"vehicle_type_id":"4","last_reported":1692288483,"current_range_meters":2400,"station_id":"ce4bh012rcd13ifvqd00","pricing_plan_id":"free"},{"bike_id":"7da9e437-1e79-4b5f-9ab0-65254ac17dd7","system_id":"levelo_inurba_marseille","lat":43.31646,"lon":5.4044,"is_reserved":false,"is_disabled":false,"rental_uris":{"android":"levelo://app?vid=7da9e437-1e79-4b5f-9ab0-65254ac17dd7","ios":"levelo://app?vid=7da9e437-1e79-4b5f-9ab0-65254ac17dd7"},"vehicle_type_id":"4","last_reported":1692288483,"current_range_meters":9600,"station_id":"ce4bh012rcd13ifvqd00","pricing_plan_id":"free"},{"bike_id":"7d2ac425-c527-4cec-82c7-94f8383af92a","system_id":"levelo_inurba_marseille","lat":43.29202,"lon":5.39318,"is_reserved":false,"is_disabled":false,"rental_uris":{"android":"levelo://app?vid=7d2ac425-c527-4cec-82c7-94f8383af92a","ios":"levelo://app?vid=7d2ac425-c527-4cec-82c7-94f8383af92a"},"vehicle_type_id":"4","last_reported":1692288483,"current_range_meters":0,"station_id":"ce4bh192rcd13ifvqdd0","pricing_plan_id":"free"},{"bike_id":"b62cec32-b201-44d0-b0fe-e5c826f60250","system_id":"levelo_inurba_marseille","lat":43.291994,"lon":5.392907,"is_reserved":false,"is_disabled":false,"rental_uris":{"android":"levelo://app?vid=b62cec32-b201-44d0-b0fe-e5c826f60250","ios":"levelo://app?vid=b62cec32-b201-44d0-b0fe-e5c826f60250"},"vehicle_type_id":"4","last_reported":1692288483,"current_range_meters":14000,"station_id":"ce4bh192rcd13ifvqdd0","pricing_plan_id":"free"},{"bike_id":"162c2784-01bd-4eab-a6a9-3c1b590a71c9","system_id":"levelo_inurba_marseille","lat":43.291994,"lon":5.392907,"is_reserved":false,"is_disabled":false,"rental_uris":{"android":"levelo://app?vid=162c2784-01bd-4eab-a6a9-3c1b590a71c9","ios":"levelo://app?vid=162c2784-01bd-4eab-a6a9-3c1b590a71c9"},"vehicle_type_id":"4","last_reported":1692288483,"current_range_meters":16400,"station_id":"ce4bh192rcd13ifvqdd0","pricing_plan_id":"free"},{"bike_id":"3458877a-ff70-4626-b33b-3c1760a090e0","system_id":"levelo_inurba_marseille","lat":43.284538,"lon":5.358657,"is_reserved":false,"is_disabled":false,"rental_uris":{"android":"levelo://app?vid=3458877a-ff70-4626-b33b-3c1760a090e0","ios":"levelo://app?vid=3458877a-ff70-4626-b33b-3c1760a090e0"},"vehicle_type_id":"4","last_reported":1692288483,"current_range_meters":10400,"station_id":"ce4bhah2rcd13ifvqei0","pricing_plan_id":"free"},{"bike_id":"cadbb20f-9055-4bd0-bf48-cc0b55f2d485","system_id":"levelo_inurba_marseille","lat":43.284538,"lon":5.358657,"is_reserved":false,"is_disabled":false,"rental_uris":{"android":"levelo://app?vid=cadbb20f-9055-4bd0-bf48-cc0b55f2d485","ios":"levelo://app?vid=cadbb20f-9055-4bd0-bf48-cc0b55f2d485"},"vehicle_type_id":"4","last_reported":1692288483,"current_range_meters":18800,"station_id":"ce4bhah2rcd13ifvqei0","pricing_plan_id":"free"},{"bike_id":"dc990388-bd22-43fc-97fd-138a831c7173","system_id":"levelo_inurba_marseille","lat":43.284534,"lon":5.358662,"is_reserved":false,"is_disabled":false,"rental_uris":{"android":"levelo://app?vid=dc990388-bd22-43fc-97fd-138a831c7173","ios":"levelo://app?vid=dc990388-bd22-43fc-97fd-138a831c7173"},"vehicle_type_id":"4","last_reported":1692288483,"current_range_meters":31200,"station_id":"ce4bhah2rcd13ifvqei0","pricing_plan_id":"free"},{"bike_id":"e3551d0d-4a14-4835-8b43-b14f8de5d832","system_id":"levelo_inurba_marseille","lat":43.284534,"lon":5.358662,"is_reserved":false,"is_disabled":false,"rental_uris":{"android":"levelo://app?vid=e3551d0d-4a14-4835-8b43-b14f8de5d832","ios":"levelo://app?vid=e3551d0d-4a14-4835-8b43-b14f8de5d832"},"vehicle_type_id":"4","last_reported":1692288483,"current_range_meters":14800,"station_id":"ce4bhah2rcd13ifvqei0","pricing_plan_id":"free"},{"bike_id":"90d6bd8e-59d8-42d2-b89b-110fc264b1b6","system_id":"levelo_inurba_marseille","lat":43.284538,"lon":5.358657,"is_reserved":false,"is_disabled":false,"rental_uris":{"android":"levelo://app?vid=90d6bd8e-59d8-42d2-b89b-110fc264b1b6","ios":"levelo://app?vid=90d6bd8e-59d8-42d2-b89b-110fc264b1b6"},"vehicle_type_id":"4","last_reported":1692288483,"current_range_meters":30800,"station_id":"ce4bhah2rcd13ifvqei0","pricing_plan_id":"free"},{"bike_id":"2443d613-7341-4e92-9262-1bb7d629bbc8","system_id":"levelo_inurba_marseille","lat":43.284534,"lon":5.358662,"is_reserved":false,"is_disabled":false,"rental_uris":{"android":"levelo://app?vid=2443d613-7341-4e92-9262-1bb7d629bbc8","ios":"levelo://app?vid=2443d613-7341-4e92-9262-1bb7d629bbc8"},"vehicle_type_id":"4","last_reported":1692288483,"current_range_meters":30400,"station_id":"ce4bhah2rcd13ifvqei0","pricing_plan_id":"free"},{"bike_id":"e9823cde-2f90-4761-a5d4-f41461cfc8f6","system_id":"levelo_inurba_marseille","lat":43.284534,"lon":5.358662,"is_reserved":false,"is_disabled":false,"rental_uris":{"android":"levelo://app?vid=e9823cde-2f90-4761-a5d4-f41461cfc8f6","ios":"levelo://app?vid=e9823cde-2f90-4761-a5d4-f41461cfc8f6"},"vehicle_type_id":"4","last_reported":1692288483,"current_range_meters":10800,"station_id":"ce4bhah2rcd13ifvqei0","pricing_plan_id":"free"},{"bike_id":"5919e7bf-5cf3-4659-8975-9c396db3dc2a","system_id":"levelo_inurba_marseille","lat":43.284534,"lon":5.358662,"is_reserved":false,"is_disabled":false,"rental_uris":{"android":"levelo://app?vid=5919e7bf-5cf3-4659-8975-9c396db3dc2a","ios":"levelo://app?vid=5919e7bf-5cf3-4659-8975-9c396db3dc2a"},"vehicle_type_id":"4","last_reported":1692288483,"current_range_meters":9200,"station_id":"ce4bhah2rcd13ifvqei0","pricing_plan_id":"free"},{"bike_id":"747f55a0-48c4-4a0d-a689-7780a175247e","system_id":"levelo_inurba_marseille","lat":43.28621,"lon":5.35103,"is_reserved":false,"is_disabled":false,"rental_uris":{"android":"levelo://app?vid=747f55a0-48c4-4a0d-a689-7780a175247e","ios":"levelo://app?vid=747f55a0-48c4-4a0d-a689-7780a175247e"},"vehicle_type_id":"4","last_reported":1692288483,"current_range_meters":31200,"station_id":"ce4bhch2rcd13ifvqeug","pricing_plan_id":"free"},{"bike_id":"1943ce88-9c2b-4a9d-8b91-d6ba433f771a","system_id":"levelo_inurba_marseille","lat":43.28619,"lon":5.35106,"is_reserved":false,"is_disabled":false,"rental_uris":{"android":"levelo://app?vid=1943ce88-9c2b-4a9d-8b91-d6ba433f771a","ios":"levelo://app?vid=1943ce88-9c2b-4a9d-8b91-d6ba433f771a"},"vehicle_type_id":"4","last_reported":1692288483,"current_range_meters":18800,"station_id":"ce4bhch2rcd13ifvqeug","pricing_plan_id":"free"},{"bike_id":"8c785e39-8938-4cdf-89da-68382fd418f4","system_id":"levelo_inurba_marseille","lat":43.29436,"lon":5.3977,"is_reserved":false,"is_disabled":false,"rental_uris":{"android":"levelo://app?vid=8c785e39-8938-4cdf-89da-68382fd418f4","ios":"levelo://app?vid=8c785e39-8938-4cdf-89da-68382fd418f4"},"vehicle_type_id":"4","last_reported":1692288483,"current_range_meters":19600,"station_id":"ce4bh3h2rcd13ifvqdo0","pricing_plan_id":"free"},{"bike_id":"1bfd5608-6610-4bd4-9ad2-8b74c0c083c3","system_id":"levelo_inurba_marseille","lat":43.28618,"lon":5.35102,"is_reserved":false,"is_disabled":false,"rental_uris":{"android":"levelo://app?vid=1bfd5608-6610-4bd4-9ad2-8b74c0c083c3","ios":"levelo://app?vid=1bfd5608-6610-4bd4-9ad2-8b74c0c083c3"},"vehicle_type_id":"4","last_reported":1692288483,"current_range_meters":800,"station_id":"ce4bhch2rcd13ifvqeug","pricing_plan_id":"free"},{"bike_id":"b026b783-100e-4519-a52a-279e82dd2231","system_id":"levelo_inurba_marseille","lat":43.285856,"lon":5.350771,"is_reserved":false,"is_disabled":false,"rental_uris":{"android":"levelo://app?vid=b026b783-100e-4519-a52a-279e82dd2231","ios":"levelo://app?vid=b026b783-100e-4519-a52a-279e82dd2231"},"vehicle_type_id":"4","last_reported":1692288483,"current_range_meters":26800,"station_id":"ce4bhch2rcd13ifvqeug","pricing_plan_id":"free"},{"bike_id":"16992dd0-1034-498e-a1e2-1ed019206f9e","system_id":"levelo_inurba_marseille","lat":43.28616,"lon":5.35104,"is_reserved":false,"is_disabled":false,"rental_uris":{"android":"levelo://app?vid=16992dd0-1034-498e-a1e2-1ed019206f9e","ios":"levelo://app?vid=16992dd0-1034-498e-a1e2-1ed019206f9e"},"vehicle_type_id":"4","last_reported":1692288483,"current_range_meters":19200,"station_id":"ce4bhch2rcd13ifvqeug","pricing_plan_id":"free"},{"bike_id":"78851861-3a45-48c9-a005-5bd5473c34fe","system_id":"levelo_inurba_marseille","lat":43.28617,"lon":5.351,"is_reserved":false,"is_disabled":false,"rental_uris":{"android":"levelo://app?vid=78851861-3a45-48c9-a005-5bd5473c34fe","ios":"levelo://app?vid=78851861-3a45-48c9-a005-5bd5473c34fe"},"vehicle_type_id":"4","last_reported":1692288483,"current_range_meters":28000,"station_id":"ce4bhch2rcd13ifvqeug","pricing_plan_id":"free"},{"bike_id":"182e1893-912e-47fe-8a6b-14e2002e5d05","system_id":"levelo_inurba_marseille","lat":43.28614,"lon":5.35108,"is_reserved":false,"is_disabled":false,"rental_uris":{"android":"levelo://app?vid=182e1893-912e-47fe-8a6b-14e2002e5d05","ios":"levelo://app?vid=182e1893-912e-47fe-8a6b-14e2002e5d05"},"vehicle_type_id":"4","last_reported":1692288483,"current_range_meters":9200,"station_id":"ce4bhch2rcd13ifvqeug","pricing_plan_id":"free"},{"bike_id":"f6b1dbf8-718d-4104-837b-fb8b6576a810","system_id":"levelo_inurba_marseille","lat":43.285848,"lon":5.350787,"is_reserved":false,"is_disabled":false,"rental_uris":{"android":"levelo://app?vid=f6b1dbf8-718d-4104-837b-fb8b6576a810","ios":"levelo://app?vid=f6b1dbf8-718d-4104-837b-fb8b6576a810"},"vehicle_type_id":"4","last_reported":1692288483,"current_range_meters":23200,"station_id":"ce4bhch2rcd13ifvqeug","pricing_plan_id":"free"},{"bike_id":"e3faabc5-a0fd-4482-ac8e-046a321e81d0","system_id":"levelo_inurba_marseille","lat":43.290104,"lon":5.356111,"is_reserved":false,"is_disabled":false,"rental_uris":{"android":"levelo://app?vid=e3faabc5-a0fd-4482-ac8e-046a321e81d0","ios":"levelo://app?vid=e3faabc5-a0fd-4482-ac8e-046a321e81d0"},"vehicle_type_id":"4","last_reported":1692288483,"current_range_meters":6800,"station_id":"ce4bhb92rcd13ifvqen0","pricing_plan_id":"free"},{"bike_id":"54fc6275-1686-4e0c-87b4-ceb05a1ce595","system_id":"levelo_inurba_marseille","lat":43.286099,"lon":5.351122,"is_reserved":false,"is_disabled":false,"rental_uris":{"android":"levelo://app?vid=54fc6275-1686-4e0c-87b4-ceb05a1ce595","ios":"levelo://app?vid=54fc6275-1686-4e0c-87b4-ceb05a1ce595"},"vehicle_type_id":"4","last_reported":1692288483,"current_range_meters":28000,"station_id":"ce4bhch2rcd13ifvqeug","pricing_plan_id":"free"},{"bike_id":"d7236768-cf42-4d82-9dea-780a3057ecf0","system_id":"levelo_inurba_marseille","lat":43.28614,"lon":5.35098,"is_reserved":false,"is_disabled":false,"rental_uris":{"android":"levelo://app?vid=d7236768-cf42-4d82-9dea-780a3057ecf0","ios":"levelo://app?vid=d7236768-cf42-4d82-9dea-780a3057ecf0"},"vehicle_type_id":"4","last_reported":1692288483,"current_range_meters":16000,"station_id":"ce4bhch2rcd13ifvqeug","pricing_plan_id":"free"},{"bike_id":"5e7b3002-70a4-49c4-8e8b-ec5ecea8e766","system_id":"levelo_inurba_marseille","lat":43.286115,"lon":5.351046,"is_reserved":false,"is_disabled":false,"rental_uris":{"android":"levelo://app?vid=5e7b3002-70a4-49c4-8e8b-ec5ecea8e766","ios":"levelo://app?vid=5e7b3002-70a4-49c4-8e8b-ec5ecea8e766"},"vehicle_type_id":"4","last_reported":1692288483,"current_range_meters":4400,"station_id":"ce4bhch2rcd13ifvqeug","pricing_plan_id":"free"},{"bike_id":"7fe6bfff-88b4-4d19-abd8-067d55f2d02d","system_id":"levelo_inurba_marseille","lat":43.286082,"lon":5.351123,"is_reserved":false,"is_disabled":false,"rental_uris":{"android":"levelo://app?vid=7fe6bfff-88b4-4d19-abd8-067d55f2d02d","ios":"levelo://app?vid=7fe6bfff-88b4-4d19-abd8-067d55f2d02d"},"vehicle_type_id":"4","last_reported":1692288483,"current_range_meters":4400,"station_id":"ce4bhch2rcd13ifvqeug","pricing_plan_id":"free"},{"bike_id":"a62c35ad-ceb5-42d4-a20c-e1bb54e66ee6","system_id":"levelo_inurba_marseille","lat":43.285848,"lon":5.350787,"is_reserved":false,"is_disabled":false,"rental_uris":{"android":"levelo://app?vid=a62c35ad-ceb5-42d4-a20c-e1bb54e66ee6","ios":"levelo://app?vid=a62c35ad-ceb5-42d4-a20c-e1bb54e66ee6"},"vehicle_type_id":"4","last_reported":1692288483,"current_range_meters":28800,"station_id":"ce4bhch2rcd13ifvqeug","pricing_plan_id":"free"},{"bike_id":"35eec3a1-aa54-4990-8eb4-78e6c0dd24d0","system_id":"levelo_inurba_marseille","lat":43.285856,"lon":5.350771,"is_reserved":false,"is_disabled":false,"rental_uris":{"android":"levelo://app?vid=35eec3a1-aa54-4990-8eb4-78e6c0dd24d0","ios":"levelo://app?vid=35eec3a1-aa54-4990-8eb4-78e6c0dd24d0"},"vehicle_type_id":"4","last_reported":1692288483,"current_range_meters":13600,"station_id":"ce4bhch2rcd13ifvqeug","pricing_plan_id":"free"},{"bike_id":"2a2968f8-0134-4dc5-944a-cd48eaf959db","system_id":"levelo_inurba_marseille","lat":43.283998,"lon":5.375062,"is_reserved":false,"is_disabled":false,"rental_uris":{"android":"levelo://app?vid=2a2968f8-0134-4dc5-944a-cd48eaf959db","ios":"levelo://app?vid=2a2968f8-0134-4dc5-944a-cd48eaf959db"},"vehicle_type_id":"4","last_reported":1692288483,"current_range_meters":5200,"station_id":"ce4bh412rcd13ifvqds0","pricing_plan_id":"free"},{"bike_id":"f459c8ce-4d71-4821-981e-dc1831fa16da","system_id":"levelo_inurba_marseille","lat":43.283998,"lon":5.375062,"is_reserved":false,"is_disabled":false,"rental_uris":{"android":"levelo://app?vid=f459c8ce-4d71-4821-981e-dc1831fa16da","ios":"levelo://app?vid=f459c8ce-4d71-4821-981e-dc1831fa16da"},"vehicle_type_id":"4","last_reported":1692288483,"current_range_meters":20400,"station_id":"ce4bh412rcd13ifvqds0","pricing_plan_id":"free"},{"bike_id":"d9fb5634-447c-4a0e-b4e9-d0ad1c2ec451","system_id":"levelo_inurba_marseille","lat":43.284,"lon":5.37516,"is_reserved":false,"is_disabled":false,"rental_uris":{"android":"levelo://app?vid=d9fb5634-447c-4a0e-b4e9-d0ad1c2ec451","ios":"levelo://app?vid=d9fb5634-447c-4a0e-b4e9-d0ad1c2ec451"},"vehicle_type_id":"4","last_reported":1692288483,"current_range_meters":0,"station_id":"ce4bh412rcd13ifvqds0","pricing_plan_id":"free"},{"bike_id":"4e913479-552d-4244-866d-96963297748e","system_id":"levelo_inurba_marseille","lat":43.286595,"lon":5.386795,"is_reserved":false,"is_disabled":false,"rental_uris":{"android":"levelo://app?vid=4e913479-552d-4244-866d-96963297748e","ios":"levelo://app?vid=4e913479-552d-4244-866d-96963297748e"},"vehicle_type_id":"4","last_reported":1692288483,"current_range_meters":27600,"station_id":"ce4bh492rcd13ifvqdug","pricing_plan_id":"free"},{"bike_id":"e7d603f4-8aba-4163-ae14-f0811801c3f9","system_id":"levelo_inurba_marseille","lat":43.319179,"lon":5.407725,"is_reserved":false,"is_disabled":false,"rental_uris":{"android":"levelo://app?vid=e7d603f4-8aba-4163-ae14-f0811801c3f9","ios":"levelo://app?vid=e7d603f4-8aba-4163-ae14-f0811801c3f9"},"vehicle_type_id":"4","last_reported":1692288483,"current_range_meters":10000,"station_id":"ce4bhq12rcd13ifvqhig","pricing_plan_id":"free"},{"bike_id":"93c97879-13c1-416c-a8d5-5fb9b6b73136","system_id":"levelo_inurba_marseille","lat":43.319179,"lon":5.407725,"is_reserved":false,"is_disabled":false,"rental_uris":{"android":"levelo://app?vid=93c97879-13c1-416c-a8d5-5fb9b6b73136","ios":"levelo://app?vid=93c97879-13c1-416c-a8d5-5fb9b6b73136"},"vehicle_type_id":"4","last_reported":1692288483,"current_range_meters":19200,"station_id":"ce4bhq12rcd13ifvqhig","pricing_plan_id":"free"},{"bike_id":"c7f55b38-f91b-41fb-a480-21b4dec7e541","system_id":"levelo_inurba_marseille","lat":43.33723,"lon":5.39174,"is_reserved":false,"is_disabled":false,"rental_uris":{"android":"levelo://app?vid=c7f55b38-f91b-41fb-a480-21b4dec7e541","ios":"levelo://app?vid=c7f55b38-f91b-41fb-a480-21b4dec7e541"},"vehicle_type_id":"4","last_reported":1692288483,"current_range_meters":16000,"station_id":"ce4bhr92rcd13ifvqhsg","pricing_plan_id":"free"},{"bike_id":"89086dc9-0ce2-4ae4-a0b1-2294601012d7","system_id":"levelo_inurba_marseille","lat":43.337168,"lon":5.391825,"is_reserved":false,"is_disabled":false,"rental_uris":{"android":"levelo://app?vid=89086dc9-0ce2-4ae4-a0b1-2294601012d7","ios":"levelo://app?vid=89086dc9-0ce2-4ae4-a0b1-2294601012d7"},"vehicle_type_id":"4","last_reported":1692288483,"current_range_meters":5600,"station_id":"ce4bhr92rcd13ifvqhsg","pricing_plan_id":"free"},{"bike_id":"ea40413c-7c2f-4273-aab4-6a724e79b1ba","system_id":"levelo_inurba_marseille","lat":43.33717,"lon":5.391857,"is_reserved":false,"is_disabled":false,"rental_uris":{"android":"levelo://app?vid=ea40413c-7c2f-4273-aab4-6a724e79b1ba","ios":"levelo://app?vid=ea40413c-7c2f-4273-aab4-6a724e79b1ba"},"vehicle_type_id":"4","last_reported":1692288483,"current_range_meters":31200,"station_id":"ce4bhr92rcd13ifvqhsg","pricing_plan_id":"free"},{"bike_id":"5998f81c-1eca-456a-a4d5-b95c154b11b7","system_id":"levelo_inurba_marseille","lat":43.337168,"lon":5.391825,"is_reserved":false,"is_disabled":false,"rental_uris":{"android":"levelo://app?vid=5998f81c-1eca-456a-a4d5-b95c154b11b7","ios":"levelo://app?vid=5998f81c-1eca-456a-a4d5-b95c154b11b7"},"vehicle_type_id":"4","last_reported":1692288483,"current_range_meters":20400,"station_id":"ce4bhr92rcd13ifvqhsg","pricing_plan_id":"free"},{"bike_id":"63452722-4262-4d11-badc-56692eba7623","system_id":"levelo_inurba_marseille","lat":43.33726,"lon":5.39185,"is_reserved":false,"is_disabled":false,"rental_uris":{"android":"levelo://app?vid=63452722-4262-4d11-badc-56692eba7623","ios":"levelo://app?vid=63452722-4262-4d11-badc-56692eba7623"},"vehicle_type_id":"4","last_reported":1692288483,"current_range_meters":20400,"station_id":"ce4bhr92rcd13ifvqhsg","pricing_plan_id":"free"},{"bike_id":"3e734aef-a0e8-4114-aece-d2e0d2aa6e78","system_id":"levelo_inurba_marseille","lat":43.33725,"lon":5.39187,"is_reserved":false,"is_disabled":false,"rental_uris":{"android":"levelo://app?vid=3e734aef-a0e8-4114-aece-d2e0d2aa6e78","ios":"levelo://app?vid=3e734aef-a0e8-4114-aece-d2e0d2aa6e78"},"vehicle_type_id":"4","last_reported":1692288483,"current_range_meters":30000,"station_id":"ce4bhr92rcd13ifvqhsg","pricing_plan_id":"free"},{"bike_id":"85edd6fb-c834-4dae-9ec1-95d5b7abaecd","system_id":"levelo_inurba_marseille","lat":43.33727,"lon":5.39184,"is_reserved":false,"is_disabled":false,"rental_uris":{"android":"levelo://app?vid=85edd6fb-c834-4dae-9ec1-95d5b7abaecd","ios":"levelo://app?vid=85edd6fb-c834-4dae-9ec1-95d5b7abaecd"},"vehicle_type_id":"4","last_reported":1692288483,"current_range_meters":28800,"station_id":"ce4bhr92rcd13ifvqhsg","pricing_plan_id":"free"},{"bike_id":"f6375ec0-4f1d-47c6-91ac-8f9e093e062b","system_id":"levelo_inurba_marseille","lat":43.33725,"lon":5.39191,"is_reserved":false,"is_disabled":false,"rental_uris":{"android":"levelo://app?vid=f6375ec0-4f1d-47c6-91ac-8f9e093e062b","ios":"levelo://app?vid=f6375ec0-4f1d-47c6-91ac-8f9e093e062b"},"vehicle_type_id":"4","last_reported":1692288483,"current_range_meters":11600,"station_id":"ce4bhr92rcd13ifvqhsg","pricing_plan_id":"free"},{"bike_id":"476cd7b5-612d-4b02-be80-aeb0d05297f3","system_id":"levelo_inurba_marseille","lat":43.33734,"lon":5.39181,"is_reserved":false,"is_disabled":false,"rental_uris":{"android":"levelo://app?vid=476cd7b5-612d-4b02-be80-aeb0d05297f3","ios":"levelo://app?vid=476cd7b5-612d-4b02-be80-aeb0d05297f3"},"vehicle_type_id":"4","last_reported":1692288483,"current_range_meters":7600,"station_id":"ce4bhr92rcd13ifvqhsg","pricing_plan_id":"free"},{"bike_id":"e82e2e4b-eeba-459d-9089-7a1fe57b1565","system_id":"levelo_inurba_marseille","lat":43.337316,"lon":5.391936,"is_reserved":false,"is_disabled":false,"rental_uris":{"android":"levelo://app?vid=e82e2e4b-eeba-459d-9089-7a1fe57b1565","ios":"levelo://app?vid=e82e2e4b-eeba-459d-9089-7a1fe57b1565"},"vehicle_type_id":"4","last_reported":1692288483,"current_range_meters":400,"station_id":"ce4bhr92rcd13ifvqhsg","pricing_plan_id":"free"},{"bike_id":"ccff8188-7b5a-4e62-9c46-2225d2a50d34","system_id":"levelo_inurba_marseille","lat":43.2848,"lon":5.38408,"is_reserved":false,"is_disabled":false,"rental_uris":{"android":"levelo://app?vid=ccff8188-7b5a-4e62-9c46-2225d2a50d34","ios":"levelo://app?vid=ccff8188-7b5a-4e62-9c46-2225d2a50d34"},"vehicle_type_id":"4","last_reported":1692288483,"current_range_meters":8000,"station_id":"ce4bh512rcd13ifvqe3g","pricing_plan_id":"free"},{"bike_id":"fd47dd98-d7b7-4eaa-9110-4a8dde24a382","system_id":"levelo_inurba_marseille","lat":43.2848,"lon":5.38413,"is_reserved":false,"is_disabled":false,"rental_uris":{"android":"levelo://app?vid=fd47dd98-d7b7-4eaa-9110-4a8dde24a382","ios":"levelo://app?vid=fd47dd98-d7b7-4eaa-9110-4a8dde24a382"},"vehicle_type_id":"4","last_reported":1692288483,"current_range_meters":22800,"station_id":"ce4bh512rcd13ifvqe3g","pricing_plan_id":"free"},{"bike_id":"12183042-9e77-4320-ad24-570d2ff636ec","system_id":"levelo_inurba_marseille","lat":43.284787,"lon":5.384116,"is_reserved":false,"is_disabled":false,"rental_uris":{"android":"levelo://app?vid=12183042-9e77-4320-ad24-570d2ff636ec","ios":"levelo://app?vid=12183042-9e77-4320-ad24-570d2ff636ec"},"vehicle_type_id":"4","last_reported":1692288483,"current_range_meters":21600,"station_id":"ce4bh512rcd13ifvqe3g","pricing_plan_id":"free"},{"bike_id":"23f5f11c-1631-4826-9b70-90ab56e6e026","system_id":"levelo_inurba_marseille","lat":43.32386,"lon":5.40642,"is_reserved":false,"is_disabled":false,"rental_uris":{"android":"levelo://app?vid=23f5f11c-1631-4826-9b70-90ab56e6e026","ios":"levelo://app?vid=23f5f11c-1631-4826-9b70-90ab56e6e026"},"vehicle_type_id":"4","last_reported":1692288483,"current_range_meters":12400,"station_id":"ce4bhq92rcd13ifvqhjg","pricing_plan_id":"free"},{"bike_id":"a5c9c176-073e-428f-9789-79d0b98c1dec","system_id":"levelo_inurba_marseille","lat":43.288497,"lon":5.393089,"is_reserved":false,"is_disabled":false,"rental_uris":{"android":"levelo://app?vid=a5c9c176-073e-428f-9789-79d0b98c1dec","ios":"levelo://app?vid=a5c9c176-073e-428f-9789-79d0b98c1dec"},"vehicle_type_id":"4","last_reported":1692288483,"current_range_meters":12400,"station_id":"ce4bh2p2rcd13ifvqdi0","pricing_plan_id":"free"},{"bike_id":"6fb36002-bc24-427c-a16e-585470e55deb","system_id":"levelo_inurba_marseille","lat":43.32594,"lon":5.4055,"is_reserved":false,"is_disabled":false,"rental_uris":{"android":"levelo://app?vid=6fb36002-bc24-427c-a16e-585470e55deb","ios":"levelo://app?vid=6fb36002-bc24-427c-a16e-585470e55deb"},"vehicle_type_id":"4","last_reported":1692288483,"current_range_meters":21600,"station_id":"","pricing_plan_id":"free"},{"bike_id":"812dcb97-d94f-44bf-90d2-384e0cdd3455","system_id":"levelo_inurba_marseille","lat":43.284219,"lon":5.3497,"is_reserved":false,"is_disabled":false,"rental_uris":{"android":"levelo://app?vid=812dcb97-d94f-44bf-90d2-384e0cdd3455","ios":"levelo://app?vid=812dcb97-d94f-44bf-90d2-384e0cdd3455"},"vehicle_type_id":"4","last_reported":1692288483,"current_range_meters":2800,"station_id":"ce4bhbh2rcd13ifvqepg","pricing_plan_id":"free"},{"bike_id":"867c45cd-5e4d-47cb-817b-5558dee91986","system_id":"levelo_inurba_marseille","lat":43.284219,"lon":5.3497,"is_reserved":false,"is_disabled":false,"rental_uris":{"android":"levelo://app?vid=867c45cd-5e4d-47cb-817b-5558dee91986","ios":"levelo://app?vid=867c45cd-5e4d-47cb-817b-5558dee91986"},"vehicle_type_id":"4","last_reported":1692288483,"current_range_meters":23200,"station_id":"ce4bhbh2rcd13ifvqepg","pricing_plan_id":"free"},{"bike_id":"8543f796-c9bb-4ca3-a8d1-8b4702f5b5e7","system_id":"levelo_inurba_marseille","lat":43.284219,"lon":5.3497,"is_reserved":false,"is_disabled":false,"rental_uris":{"android":"levelo://app?vid=8543f796-c9bb-4ca3-a8d1-8b4702f5b5e7","ios":"levelo://app?vid=8543f796-c9bb-4ca3-a8d1-8b4702f5b5e7"},"vehicle_type_id":"4","last_reported":1692288483,"current_range_meters":24000,"station_id":"ce4bhbh2rcd13ifvqepg","pricing_plan_id":"free"},{"bike_id":"331019f0-8d9b-4495-902e-e17800881071","system_id":"levelo_inurba_marseille","lat":43.28424,"lon":5.34984,"is_reserved":false,"is_disabled":false,"rental_uris":{"android":"levelo://app?vid=331019f0-8d9b-4495-902e-e17800881071","ios":"levelo://app?vid=331019f0-8d9b-4495-902e-e17800881071"},"vehicle_type_id":"4","last_reported":1692288483,"current_range_meters":31200,"station_id":"ce4bhbh2rcd13ifvqepg","pricing_plan_id":"free"},{"bike_id":"51d3d8c9-2b93-4113-9809-7a450da6ad5a","system_id":"levelo_inurba_marseille","lat":43.284219,"lon":5.3497,"is_reserved":false,"is_disabled":false,"rental_uris":{"android":"levelo://app?vid=51d3d8c9-2b93-4113-9809-7a450da6ad5a","ios":"levelo://app?vid=51d3d8c9-2b93-4113-9809-7a450da6ad5a"},"vehicle_type_id":"4","last_reported":1692288483,"current_range_meters":29600,"station_id":"ce4bhbh2rcd13ifvqepg","pricing_plan_id":"free"},{"bike_id":"6ca679fc-a036-4ca9-854b-5a03b6dab690","system_id":"levelo_inurba_marseille","lat":43.284219,"lon":5.3497,"is_reserved":false,"is_disabled":false,"rental_uris":{"android":"levelo://app?vid=6ca679fc-a036-4ca9-854b-5a03b6dab690","ios":"levelo://app?vid=6ca679fc-a036-4ca9-854b-5a03b6dab690"},"vehicle_type_id":"4","last_reported":1692288483,"current_range_meters":28800,"station_id":"ce4bhbh2rcd13ifvqepg","pricing_plan_id":"free"},{"bike_id":"a068a3b2-4025-46a6-97bd-e05025ae8b27","system_id":"levelo_inurba_marseille","lat":43.284219,"lon":5.3497,"is_reserved":false,"is_disabled":false,"rental_uris":{"android":"levelo://app?vid=a068a3b2-4025-46a6-97bd-e05025ae8b27","ios":"levelo://app?vid=a068a3b2-4025-46a6-97bd-e05025ae8b27"},"vehicle_type_id":"4","last_reported":1692288483,"current_range_meters":31600,"station_id":"ce4bhbh2rcd13ifvqepg","pricing_plan_id":"free"},{"bike_id":"5fbe32d3-a79f-4b57-a146-a12381cbc393","system_id":"levelo_inurba_marseille","lat":43.284217,"lon":5.349697,"is_reserved":false,"is_disabled":false,"rental_uris":{"android":"levelo://app?vid=5fbe32d3-a79f-4b57-a146-a12381cbc393","ios":"levelo://app?vid=5fbe32d3-a79f-4b57-a146-a12381cbc393"},"vehicle_type_id":"4","last_reported":1692288483,"current_range_meters":22400,"station_id":"ce4bhbh2rcd13ifvqepg","pricing_plan_id":"free"},{"bike_id":"44c93f00-142d-4e12-b9ac-b14456936ec6","system_id":"levelo_inurba_marseille","lat":43.284219,"lon":5.3497,"is_reserved":false,"is_disabled":false,"rental_uris":{"android":"levelo://app?vid=44c93f00-142d-4e12-b9ac-b14456936ec6","ios":"levelo://app?vid=44c93f00-142d-4e12-b9ac-b14456936ec6"},"vehicle_type_id":"4","last_reported":1692288483,"current_range_meters":29600,"station_id":"ce4bhbh2rcd13ifvqepg","pricing_plan_id":"free"},{"bike_id":"3928bd4b-16b8-460d-b151-c745c71b5ac5","system_id":"levelo_inurba_marseille","lat":43.284217,"lon":5.349697,"is_reserved":false,"is_disabled":false,"rental_uris":{"android":"levelo://app?vid=3928bd4b-16b8-460d-b151-c745c71b5ac5","ios":"levelo://app?vid=3928bd4b-16b8-460d-b151-c745c71b5ac5"},"vehicle_type_id":"4","last_reported":1692288483,"current_range_meters":4800,"station_id":"ce4bhbh2rcd13ifvqepg","pricing_plan_id":"free"},{"bike_id":"57c6f6ac-9e3c-4925-aed2-8113bdc32e9e","system_id":"levelo_inurba_marseille","lat":43.284217,"lon":5.349697,"is_reserved":false,"is_disabled":false,"rental_uris":{"android":"levelo://app?vid=57c6f6ac-9e3c-4925-aed2-8113bdc32e9e","ios":"levelo://app?vid=57c6f6ac-9e3c-4925-aed2-8113bdc32e9e"},"vehicle_type_id":"4","last_reported":1692288483,"current_range_meters":15600,"station_id":"ce4bhbh2rcd13ifvqepg","pricing_plan_id":"free"},{"bike_id":"1045e0e2-0503-4135-bf28-8044724adb0b","system_id":"levelo_inurba_marseille","lat":43.284219,"lon":5.3497,"is_reserved":false,"is_disabled":false,"rental_uris":{"android":"levelo://app?vid=1045e0e2-0503-4135-bf28-8044724adb0b","ios":"levelo://app?vid=1045e0e2-0503-4135-bf28-8044724adb0b"},"vehicle_type_id":"4","last_reported":1692288483,"current_range_meters":31200,"station_id":"ce4bhbh2rcd13ifvqepg","pricing_plan_id":"free"},{"bike_id":"0d3cc702-25e8-413d-996e-74acdf4ab436","system_id":"levelo_inurba_marseille","lat":43.284219,"lon":5.3497,"is_reserved":false,"is_disabled":false,"rental_uris":{"android":"levelo://app?vid=0d3cc702-25e8-413d-996e-74acdf4ab436","ios":"levelo://app?vid=0d3cc702-25e8-413d-996e-74acdf4ab436"},"vehicle_type_id":"4","last_reported":1692288483,"current_range_meters":31600,"station_id":"ce4bhbh2rcd13ifvqepg","pricing_plan_id":"free"},{"bike_id":"d977c5a1-c940-4a14-b3b2-a9bb63152455","system_id":"levelo_inurba_marseille","lat":43.284217,"lon":5.349697,"is_reserved":false,"is_disabled":false,"rental_uris":{"android":"levelo://app?vid=d977c5a1-c940-4a14-b3b2-a9bb63152455","ios":"levelo://app?vid=d977c5a1-c940-4a14-b3b2-a9bb63152455"},"vehicle_type_id":"4","last_reported":1692288483,"current_range_meters":20400,"station_id":"ce4bhbh2rcd13ifvqepg","pricing_plan_id":"free"},{"bike_id":"2c67b80f-0c86-4481-9e59-fb6f7c250be6","system_id":"levelo_inurba_marseille","lat":43.284217,"lon":5.349697,"is_reserved":false,"is_disabled":false,"rental_uris":{"android":"levelo://app?vid=2c67b80f-0c86-4481-9e59-fb6f7c250be6","ios":"levelo://app?vid=2c67b80f-0c86-4481-9e59-fb6f7c250be6"},"vehicle_type_id":"4","last_reported":1692288483,"current_range_meters":15200,"station_id":"ce4bhbh2rcd13ifvqepg","pricing_plan_id":"free"},{"bike_id":"9c5b2bd7-db5b-428c-b280-82f397e00b1f","system_id":"levelo_inurba_marseille","lat":43.284217,"lon":5.349697,"is_reserved":false,"is_disabled":false,"rental_uris":{"android":"levelo://app?vid=9c5b2bd7-db5b-428c-b280-82f397e00b1f","ios":"levelo://app?vid=9c5b2bd7-db5b-428c-b280-82f397e00b1f"},"vehicle_type_id":"4","last_reported":1692288483,"current_range_meters":16000,"station_id":"ce4bhbh2rcd13ifvqepg","pricing_plan_id":"free"},{"bike_id":"1fdc4b0c-01e2-4497-94c3-d5cef5851cb9","system_id":"levelo_inurba_marseille","lat":43.284217,"lon":5.349697,"is_reserved":false,"is_disabled":false,"rental_uris":{"android":"levelo://app?vid=1fdc4b0c-01e2-4497-94c3-d5cef5851cb9","ios":"levelo://app?vid=1fdc4b0c-01e2-4497-94c3-d5cef5851cb9"},"vehicle_type_id":"4","last_reported":1692288483,"current_range_meters":24800,"station_id":"ce4bhbh2rcd13ifvqepg","pricing_plan_id":"free"},{"bike_id":"fb2036d5-a3ae-48aa-ba38-5c9e2ba39469","system_id":"levelo_inurba_marseille","lat":43.284217,"lon":5.349697,"is_reserved":false,"is_disabled":false,"rental_uris":{"android":"levelo://app?vid=fb2036d5-a3ae-48aa-ba38-5c9e2ba39469","ios":"levelo://app?vid=fb2036d5-a3ae-48aa-ba38-5c9e2ba39469"},"vehicle_type_id":"4","last_reported":1692288483,"current_range_meters":22400,"station_id":"ce4bhbh2rcd13ifvqepg","pricing_plan_id":"free"},{"bike_id":"22c6dc14-b4c1-4f2e-87db-a9c04a8d07ea","system_id":"levelo_inurba_marseille","lat":43.284217,"lon":5.349697,"is_reserved":false,"is_disabled":false,"rental_uris":{"android":"levelo://app?vid=22c6dc14-b4c1-4f2e-87db-a9c04a8d07ea","ios":"levelo://app?vid=22c6dc14-b4c1-4f2e-87db-a9c04a8d07ea"},"vehicle_type_id":"4","last_reported":1692288483,"current_range_meters":19200,"station_id":"ce4bhbh2rcd13ifvqepg","pricing_plan_id":"free"},{"bike_id":"d5420df9-e960-4ad8-bf6c-68824240640c","system_id":"levelo_inurba_marseille","lat":43.284178,"lon":5.349786,"is_reserved":false,"is_disabled":false,"rental_uris":{"android":"levelo://app?vid=d5420df9-e960-4ad8-bf6c-68824240640c","ios":"levelo://app?vid=d5420df9-e960-4ad8-bf6c-68824240640c"},"vehicle_type_id":"4","last_reported":1692288483,"current_range_meters":31200,"station_id":"ce4bhbh2rcd13ifvqepg","pricing_plan_id":"free"},{"bike_id":"47063736-6edc-4f33-a49a-b818b66cacb0","system_id":"levelo_inurba_marseille","lat":43.284217,"lon":5.349697,"is_reserved":false,"is_disabled":false,"rental_uris":{"android":"levelo://app?vid=47063736-6edc-4f33-a49a-b818b66cacb0","ios":"levelo://app?vid=47063736-6edc-4f33-a49a-b818b66cacb0"},"vehicle_type_id":"4","last_reported":1692288483,"current_range_meters":20000,"station_id":"ce4bhbh2rcd13ifvqepg","pricing_plan_id":"free"},{"bike_id":"9e827104-1433-4619-9fdf-f9ec3677451a","system_id":"levelo_inurba_marseille","lat":43.284219,"lon":5.3497,"is_reserved":false,"is_disabled":false,"rental_uris":{"android":"levelo://app?vid=9e827104-1433-4619-9fdf-f9ec3677451a","ios":"levelo://app?vid=9e827104-1433-4619-9fdf-f9ec3677451a"},"vehicle_type_id":"4","last_reported":1692288483,"current_range_meters":27600,"station_id":"ce4bhbh2rcd13ifvqepg","pricing_plan_id":"free"},{"bike_id":"c3b07066-292b-4195-b61a-563cd567d70d","system_id":"levelo_inurba_marseille","lat":43.284217,"lon":5.349697,"is_reserved":false,"is_disabled":false,"rental_uris":{"android":"levelo://app?vid=c3b07066-292b-4195-b61a-563cd567d70d","ios":"levelo://app?vid=c3b07066-292b-4195-b61a-563cd567d70d"},"vehicle_type_id":"4","last_reported":1692288483,"current_range_meters":31200,"station_id":"ce4bhbh2rcd13ifvqepg","pricing_plan_id":"free"},{"bike_id":"9a80e8e8-6ceb-4c9e-8b37-e97024e3e3ae","system_id":"levelo_inurba_marseille","lat":43.284178,"lon":5.349769,"is_reserved":false,"is_disabled":false,"rental_uris":{"android":"levelo://app?vid=9a80e8e8-6ceb-4c9e-8b37-e97024e3e3ae","ios":"levelo://app?vid=9a80e8e8-6ceb-4c9e-8b37-e97024e3e3ae"},"vehicle_type_id":"4","last_reported":1692288483,"current_range_meters":31200,"station_id":"ce4bhbh2rcd13ifvqepg","pricing_plan_id":"free"},{"bike_id":"c9eea355-9833-418c-a65b-89b270aaa968","system_id":"levelo_inurba_marseille","lat":43.284217,"lon":5.349697,"is_reserved":false,"is_disabled":false,"rental_uris":{"android":"levelo://app?vid=c9eea355-9833-418c-a65b-89b270aaa968","ios":"levelo://app?vid=c9eea355-9833-418c-a65b-89b270aaa968"},"vehicle_type_id":"4","last_reported":1692288483,"current_range_meters":31200,"station_id":"ce4bhbh2rcd13ifvqepg","pricing_plan_id":"free"},{"bike_id":"a1f50857-6718-495f-a35f-fc8d0671db05","system_id":"levelo_inurba_marseille","lat":43.284219,"lon":5.3497,"is_reserved":false,"is_disabled":false,"rental_uris":{"android":"levelo://app?vid=a1f50857-6718-495f-a35f-fc8d0671db05","ios":"levelo://app?vid=a1f50857-6718-495f-a35f-fc8d0671db05"},"vehicle_type_id":"4","last_reported":1692288483,"current_range_meters":13200,"station_id":"ce4bhbh2rcd13ifvqepg","pricing_plan_id":"free"},{"bike_id":"a09a18d8-de31-485f-8c55-57747980ec4d","system_id":"levelo_inurba_marseille","lat":43.284178,"lon":5.349727,"is_reserved":false,"is_disabled":false,"rental_uris":{"android":"levelo://app?vid=a09a18d8-de31-485f-8c55-57747980ec4d","ios":"levelo://app?vid=a09a18d8-de31-485f-8c55-57747980ec4d"},"vehicle_type_id":"4","last_reported":1692288483,"current_range_meters":31200,"station_id":"ce4bhbh2rcd13ifvqepg","pricing_plan_id":"free"},{"bike_id":"f501d692-d03b-409f-93eb-3e52ee5d1529","system_id":"levelo_inurba_marseille","lat":43.284178,"lon":5.349727,"is_reserved":false,"is_disabled":false,"rental_uris":{"android":"levelo://app?vid=f501d692-d03b-409f-93eb-3e52ee5d1529","ios":"levelo://app?vid=f501d692-d03b-409f-93eb-3e52ee5d1529"},"vehicle_type_id":"4","last_reported":1692288483,"current_range_meters":31200,"station_id":"ce4bhbh2rcd13ifvqepg","pricing_plan_id":"free"},{"bike_id":"24945462-2d7f-459b-9454-cdc2bc26d500","system_id":"levelo_inurba_marseille","lat":43.284219,"lon":5.3497,"is_reserved":false,"is_disabled":false,"rental_uris":{"android":"levelo://app?vid=24945462-2d7f-459b-9454-cdc2bc26d500","ios":"levelo://app?vid=24945462-2d7f-459b-9454-cdc2bc26d500"},"vehicle_type_id":"4","last_reported":1692288483,"current_range_meters":12400,"station_id":"ce4bhbh2rcd13ifvqepg","pricing_plan_id":"free"},{"bike_id":"74f6984b-c752-4c59-8e28-827e96af1562","system_id":"levelo_inurba_marseille","lat":43.284217,"lon":5.349697,"is_reserved":false,"is_disabled":false,"rental_uris":{"android":"levelo://app?vid=74f6984b-c752-4c59-8e28-827e96af1562","ios":"levelo://app?vid=74f6984b-c752-4c59-8e28-827e96af1562"},"vehicle_type_id":"4","last_reported":1692288483,"current_range_meters":24400,"station_id":"ce4bhbh2rcd13ifvqepg","pricing_plan_id":"free"},{"bike_id":"28d8286a-2dbe-4448-8aae-98542901a526","system_id":"levelo_inurba_marseille","lat":43.284219,"lon":5.3497,"is_reserved":false,"is_disabled":false,"rental_uris":{"android":"levelo://app?vid=28d8286a-2dbe-4448-8aae-98542901a526","ios":"levelo://app?vid=28d8286a-2dbe-4448-8aae-98542901a526"},"vehicle_type_id":"4","last_reported":1692288483,"current_range_meters":31600,"station_id":"ce4bhbh2rcd13ifvqepg","pricing_plan_id":"free"},{"bike_id":"2fbccaaa-9eed-473d-acba-27f6c631478b","system_id":"levelo_inurba_marseille","lat":43.284217,"lon":5.349697,"is_reserved":false,"is_disabled":false,"rental_uris":{"android":"levelo://app?vid=2fbccaaa-9eed-473d-acba-27f6c631478b","ios":"levelo://app?vid=2fbccaaa-9eed-473d-acba-27f6c631478b"},"vehicle_type_id":"4","last_reported":1692288483,"current_range_meters":15200,"station_id":"ce4bhbh2rcd13ifvqepg","pricing_plan_id":"free"},{"bike_id":"9000ce1a-8890-4ecd-90c9-d52e4df686db","system_id":"levelo_inurba_marseille","lat":43.289338,"lon":5.396258,"is_reserved":false,"is_disabled":false,"rental_uris":{"android":"levelo://app?vid=9000ce1a-8890-4ecd-90c9-d52e4df686db","ios":"levelo://app?vid=9000ce1a-8890-4ecd-90c9-d52e4df686db"},"vehicle_type_id":"4","last_reported":1692288483,"current_range_meters":27200,"station_id":"ce4bh3h2rcd13ifvqdn0","pricing_plan_id":"free"},{"bike_id":"5cec26ac-344f-432b-af34-450b75305b9b","system_id":"levelo_inurba_marseille","lat":43.29268,"lon":5.40124,"is_reserved":false,"is_disabled":false,"rental_uris":{"android":"levelo://app?vid=5cec26ac-344f-432b-af34-450b75305b9b","ios":"levelo://app?vid=5cec26ac-344f-432b-af34-450b75305b9b"},"vehicle_type_id":"4","last_reported":1692288483,"current_range_meters":31600,"station_id":"ce4bh312rcd13ifvqdk0","pricing_plan_id":"free"},{"bike_id":"3a2f98ae-aecb-43b1-9cef-b46af4c694e1","system_id":"levelo_inurba_marseille","lat":43.282744,"lon":5.350533,"is_reserved":false,"is_disabled":false,"rental_uris":{"android":"levelo://app?vid=3a2f98ae-aecb-43b1-9cef-b46af4c694e1","ios":"levelo://app?vid=3a2f98ae-aecb-43b1-9cef-b46af4c694e1"},"vehicle_type_id":"4","last_reported":1692288483,"current_range_meters":16000,"station_id":"ce4bhbp2rcd13ifvqerg","pricing_plan_id":"free"},{"bike_id":"00211301-9c4f-48e9-a568-34b9b95a1c3a","system_id":"levelo_inurba_marseille","lat":43.28276,"lon":5.35069,"is_reserved":false,"is_disabled":false,"rental_uris":{"android":"levelo://app?vid=00211301-9c4f-48e9-a568-34b9b95a1c3a","ios":"levelo://app?vid=00211301-9c4f-48e9-a568-34b9b95a1c3a"},"vehicle_type_id":"4","last_reported":1692288483,"current_range_meters":11600,"station_id":"ce4bhbp2rcd13ifvqerg","pricing_plan_id":"free"},{"bike_id":"9f73d849-55f6-4c79-8ef3-03a6e7f6cee2","system_id":"levelo_inurba_marseille","lat":43.282744,"lon":5.350533,"is_reserved":false,"is_disabled":false,"rental_uris":{"android":"levelo://app?vid=9f73d849-55f6-4c79-8ef3-03a6e7f6cee2","ios":"levelo://app?vid=9f73d849-55f6-4c79-8ef3-03a6e7f6cee2"},"vehicle_type_id":"4","last_reported":1692288483,"current_range_meters":18400,"station_id":"ce4bhbp2rcd13ifvqerg","pricing_plan_id":"free"},{"bike_id":"7c394639-fece-47e5-b4f7-2f81a5ee49e5","system_id":"levelo_inurba_marseille","lat":43.28274,"lon":5.35071,"is_reserved":false,"is_disabled":false,"rental_uris":{"android":"levelo://app?vid=7c394639-fece-47e5-b4f7-2f81a5ee49e5","ios":"levelo://app?vid=7c394639-fece-47e5-b4f7-2f81a5ee49e5"},"vehicle_type_id":"4","last_reported":1692288483,"current_range_meters":2000,"station_id":"ce4bhbp2rcd13ifvqerg","pricing_plan_id":"free"},{"bike_id":"32763ef5-1fe8-43f6-ac0c-410ec1e73111","system_id":"levelo_inurba_marseille","lat":43.28273,"lon":5.35072,"is_reserved":false,"is_disabled":false,"rental_uris":{"android":"levelo://app?vid=32763ef5-1fe8-43f6-ac0c-410ec1e73111","ios":"levelo://app?vid=32763ef5-1fe8-43f6-ac0c-410ec1e73111"},"vehicle_type_id":"4","last_reported":1692288483,"current_range_meters":19600,"station_id":"ce4bhbp2rcd13ifvqerg","pricing_plan_id":"free"},{"bike_id":"7c2da21d-096a-425e-993b-ecdf7f998adb","system_id":"levelo_inurba_marseille","lat":43.28273,"lon":5.35072,"is_reserved":false,"is_disabled":false,"rental_uris":{"android":"levelo://app?vid=7c2da21d-096a-425e-993b-ecdf7f998adb","ios":"levelo://app?vid=7c2da21d-096a-425e-993b-ecdf7f998adb"},"vehicle_type_id":"4","last_reported":1692288483,"current_range_meters":31200,"station_id":"ce4bhbp2rcd13ifvqerg","pricing_plan_id":"free"},{"bike_id":"eed26f9a-30fe-4056-9127-6a47862b6eeb","system_id":"levelo_inurba_marseille","lat":43.28274,"lon":5.350678,"is_reserved":false,"is_disabled":false,"rental_uris":{"android":"levelo://app?vid=eed26f9a-30fe-4056-9127-6a47862b6eeb","ios":"levelo://app?vid=eed26f9a-30fe-4056-9127-6a47862b6eeb"},"vehicle_type_id":"4","last_reported":1692288483,"current_range_meters":15600,"station_id":"","pricing_plan_id":"free"},{"bike_id":"3652a999-b01c-4342-a0ae-22e1a9264b01","system_id":"levelo_inurba_marseille","lat":43.28271,"lon":5.35073,"is_reserved":false,"is_disabled":false,"rental_uris":{"android":"levelo://app?vid=3652a999-b01c-4342-a0ae-22e1a9264b01","ios":"levelo://app?vid=3652a999-b01c-4342-a0ae-22e1a9264b01"},"vehicle_type_id":"4","last_reported":1692288483,"current_range_meters":20400,"station_id":"ce4bhbp2rcd13ifvqerg","pricing_plan_id":"free"},{"bike_id":"b7f83256-3dbd-4d87-a153-bbe7ab17e681","system_id":"levelo_inurba_marseille","lat":43.28271,"lon":5.35072,"is_reserved":false,"is_disabled":false,"rental_uris":{"android":"levelo://app?vid=b7f83256-3dbd-4d87-a153-bbe7ab17e681","ios":"levelo://app?vid=b7f83256-3dbd-4d87-a153-bbe7ab17e681"},"vehicle_type_id":"4","last_reported":1692288483,"current_range_meters":31200,"station_id":"ce4bhbp2rcd13ifvqerg","pricing_plan_id":"free"},{"bike_id":"e70f65e8-8223-40f7-b8b3-c571d2fec61d","system_id":"levelo_inurba_marseille","lat":43.28272,"lon":5.35068,"is_reserved":false,"is_disabled":false,"rental_uris":{"android":"levelo://app?vid=e70f65e8-8223-40f7-b8b3-c571d2fec61d","ios":"levelo://app?vid=e70f65e8-8223-40f7-b8b3-c571d2fec61d"},"vehicle_type_id":"4","last_reported":1692288483,"current_range_meters":19200,"station_id":"ce4bhbp2rcd13ifvqerg","pricing_plan_id":"free"},{"bike_id":"2e270d51-3db7-43c5-9ebc-0d3b16ef836c","system_id":"levelo_inurba_marseille","lat":43.28273,"lon":5.35064,"is_reserved":false,"is_disabled":false,"rental_uris":{"android":"levelo://app?vid=2e270d51-3db7-43c5-9ebc-0d3b16ef836c","ios":"levelo://app?vid=2e270d51-3db7-43c5-9ebc-0d3b16ef836c"},"vehicle_type_id":"4","last_reported":1692288483,"current_range_meters":31200,"station_id":"ce4bhbp2rcd13ifvqerg","pricing_plan_id":"free"},{"bike_id":"72cbf2b1-6e6e-4f19-9ba2-809e6f32fe56","system_id":"levelo_inurba_marseille","lat":43.282744,"lon":5.350533,"is_reserved":false,"is_disabled":false,"rental_uris":{"android":"levelo://app?vid=72cbf2b1-6e6e-4f19-9ba2-809e6f32fe56","ios":"levelo://app?vid=72cbf2b1-6e6e-4f19-9ba2-809e6f32fe56"},"vehicle_type_id":"4","last_reported":1692288483,"current_range_meters":5200,"station_id":"ce4bhbp2rcd13ifvqerg","pricing_plan_id":"free"},{"bike_id":"3c57dfd5-b476-47aa-9a4d-4ed9405a1c24","system_id":"levelo_inurba_marseille","lat":43.28271,"lon":5.35067,"is_reserved":false,"is_disabled":false,"rental_uris":{"android":"levelo://app?vid=3c57dfd5-b476-47aa-9a4d-4ed9405a1c24","ios":"levelo://app?vid=3c57dfd5-b476-47aa-9a4d-4ed9405a1c24"},"vehicle_type_id":"4","last_reported":1692288483,"current_range_meters":16400,"station_id":"ce4bhbp2rcd13ifvqerg","pricing_plan_id":"free"},{"bike_id":"769c10f4-9262-438a-9e8a-3610dc731d87","system_id":"levelo_inurba_marseille","lat":43.28273,"lon":5.3506,"is_reserved":false,"is_disabled":false,"rental_uris":{"android":"levelo://app?vid=769c10f4-9262-438a-9e8a-3610dc731d87","ios":"levelo://app?vid=769c10f4-9262-438a-9e8a-3610dc731d87"},"vehicle_type_id":"4","last_reported":1692288483,"current_range_meters":26000,"station_id":"ce4bhbp2rcd13ifvqerg","pricing_plan_id":"free"},{"bike_id":"a81ac478-88f2-4f0b-9dfe-ea22adbb1cce","system_id":"levelo_inurba_marseille","lat":43.28273,"lon":5.3506,"is_reserved":false,"is_disabled":false,"rental_uris":{"android":"levelo://app?vid=a81ac478-88f2-4f0b-9dfe-ea22adbb1cce","ios":"levelo://app?vid=a81ac478-88f2-4f0b-9dfe-ea22adbb1cce"},"vehicle_type_id":"4","last_reported":1692288483,"current_range_meters":16000,"station_id":"ce4bhbp2rcd13ifvqerg","pricing_plan_id":"free"},{"bike_id":"e96f3610-538d-42c5-bfc3-82a9219a4406","system_id":"levelo_inurba_marseille","lat":43.28274,"lon":5.35056,"is_reserved":false,"is_disabled":false,"rental_uris":{"android":"levelo://app?vid=e96f3610-538d-42c5-bfc3-82a9219a4406","ios":"levelo://app?vid=e96f3610-538d-42c5-bfc3-82a9219a4406"},"vehicle_type_id":"4","last_reported":1692288483,"current_range_meters":22000,"station_id":"ce4bhbp2rcd13ifvqerg","pricing_plan_id":"free"},{"bike_id":"4625e82f-b0e5-4d8e-a845-5ffa9c909819","system_id":"levelo_inurba_marseille","lat":43.28269,"lon":5.35067,"is_reserved":false,"is_disabled":false,"rental_uris":{"android":"levelo://app?vid=4625e82f-b0e5-4d8e-a845-5ffa9c909819","ios":"levelo://app?vid=4625e82f-b0e5-4d8e-a845-5ffa9c909819"},"vehicle_type_id":"4","last_reported":1692288483,"current_range_meters":10800,"station_id":"ce4bhbp2rcd13ifvqerg","pricing_plan_id":"free"},{"bike_id":"88940920-727e-47f8-bee6-24feedff1167","system_id":"levelo_inurba_marseille","lat":43.28269,"lon":5.35067,"is_reserved":false,"is_disabled":false,"rental_uris":{"android":"levelo://app?vid=88940920-727e-47f8-bee6-24feedff1167","ios":"levelo://app?vid=88940920-727e-47f8-bee6-24feedff1167"},"vehicle_type_id":"4","last_reported":1692288483,"current_range_meters":30000,"station_id":"ce4bhbp2rcd13ifvqerg","pricing_plan_id":"free"},{"bike_id":"070d8029-3a79-42ce-b6d7-94a19f422c0a","system_id":"levelo_inurba_marseille","lat":43.28268,"lon":5.35069,"is_reserved":false,"is_disabled":false,"rental_uris":{"android":"levelo://app?vid=070d8029-3a79-42ce-b6d7-94a19f422c0a","ios":"levelo://app?vid=070d8029-3a79-42ce-b6d7-94a19f422c0a"},"vehicle_type_id":"4","last_reported":1692288483,"current_range_meters":18800,"station_id":"ce4bhbp2rcd13ifvqerg","pricing_plan_id":"free"},{"bike_id":"eefa3eea-355c-4d0d-b228-a518c3c9d662","system_id":"levelo_inurba_marseille","lat":43.282682,"lon":5.35063,"is_reserved":false,"is_disabled":false,"rental_uris":{"android":"levelo://app?vid=eefa3eea-355c-4d0d-b228-a518c3c9d662","ios":"levelo://app?vid=eefa3eea-355c-4d0d-b228-a518c3c9d662"},"vehicle_type_id":"4","last_reported":1692288483,"current_range_meters":9600,"station_id":"ce4bhbp2rcd13ifvqerg","pricing_plan_id":"free"},{"bike_id":"e53c6206-e147-4f44-823d-f68f0f273d95","system_id":"levelo_inurba_marseille","lat":43.28268,"lon":5.35061,"is_reserved":false,"is_disabled":false,"rental_uris":{"android":"levelo://app?vid=e53c6206-e147-4f44-823d-f68f0f273d95","ios":"levelo://app?vid=e53c6206-e147-4f44-823d-f68f0f273d95"},"vehicle_type_id":"4","last_reported":1692288483,"current_range_meters":27600,"station_id":"ce4bhbp2rcd13ifvqerg","pricing_plan_id":"free"},