{"last_updated":1770634015,"ttl":60,"version":"2.2","data":{"bikes":[{"bike_id":"16c5dc4a-b33e-45fb-a371-93d1beb7da83","system_id":"levelo_inurba_marseille","lat":43.26573,"lon":5.40313,"is_reserved":false,"is_disabled":false,"rental_uris":{"android":"levelo://app?vid=16c5dc4a-b33e-45fb-a371-93d1beb7da83","ios":"levelo://app?vid=16c5dc4a-b33e-45fb-a371-93d1beb7da83"},"vehicle_type_id":"4","last_reported":1770634015,"current_range_meters":2800,"station_id":"ce4bhmp2rcd13ifvqgng","pricing_plan_id":"cebpf4jnsgd1na2vs0mg"},{"bike_id":"daab287f-a808-42a9-9a3c-13ea8f2a6e4b","system_id":"levelo_inurba_marseille","lat":43.33553,"lon":5.37483,"is_reserved":false,"is_disabled":false,"rental_uris":{"android":"levelo://app?vid=daab287f-a808-42a9-9a3c-13ea8f2a6e4b","ios":"levelo://app?vid=daab287f-a808-42a9-9a3c-13ea8f2a6e4b"},"vehicle_type_id":"4","last_reported":1770634015,"current_range_meters":2800,"station_id":"","pricing_plan_id":"cebpf4jnsgd1na2vs0mg"},{"bike_id":"f3f7bfc8-934b-4d38-8dc0-6afe94cc9f05","system_id":"levelo_inurba_marseille","lat":43.29766,"lon":5.37378,"is_reserved":false,"is_disabled":false,"rental_uris":{"android":"levelo://app?vid=f3f7bfc8-934b-4d38-8dc0-6afe94cc9f05","ios":"levelo://app?vid=f3f7bfc8-934b-4d38-8dc0-6afe94cc9f05"},"vehicle_type_id":"4","last_reported":1770634015,"current_range_meters":2800,"station_id":"","pricing_plan_id":"cebpf4jnsgd1na2vs0mg"},{"bike_id":"ba0e2cff-378c-43b6-973a-5254544605da","system_id":"levelo_inurba_marseille","lat":43.28357,"lon":5.38114,"is_reserved":false,"is_disabled":false,"rental_uris":{"android":"levelo://app?vid=ba0e2cff-378c-43b6-973a-5254544605da","ios":"levelo://app?vid=ba0e2cff-378c-43b6-973a-5254544605da"},"vehicle_type_id":"4","last_reported":1770634015,"current_range_meters":2800,"station_id":"ce4bh412rcd13ifvqdr0","pricing_plan_id":"cebpf4jnsgd1na2vs0mg"},{"bike_id":"b5dc5c0c-94cf-40ba-865e-e8184d67432a","system_id":"levelo_inurba_marseille","lat":43.32096,"lon":5.36819,"is_reserved":false,"is_disabled":false,"rental_uris":{"android":"levelo://app?vid=b5dc5c0c-94cf-40ba-865e-e8184d67432a","ios":"levelo://app?vid=b5dc5c0c-94cf-40ba-865e-e8184d67432a"},"vehicle_type_id":"4","last_reported":1770634015,"current_range_meters":2800,"station_id":"ce4bhrh2rcd13ifvqhug","pricing_plan_id":"cebpf4jnsgd1na2vs0mg"},{"bike_id":"ba8ef613-96d2-49bc-ac95-731a5078ae82","system_id":"levelo_inurba_marseille","lat":43.301404,"lon":5.387689,"is_reserved":false,"is_disabled":true,"rental_uris":{"android":"levelo://app?vid=ba8ef613-96d2-49bc-ac95-731a5078ae82","ios":"levelo://app?vid=ba8ef613-96d2-49bc-ac95-731a5078ae82"},"vehicle_type_id":"4","last_reported":1770634015,"current_range_meters":3200,"station_id":"ce4bgkh2rcd13ifvqbk0","pricing_plan_id":"cebpf4jnsgd1na2vs0mg"},{"bike_id":"e9238960-d4ac-4a8e-9976-8813d9f67878","system_id":"levelo_inurba_marseille","lat":43.249376,"lon":5.402659,"is_reserved":false,"is_disabled":false,"rental_uris":{"android":"levelo://app?vid=e9238960-d4ac-4a8e-9976-8813d9f67878","ios":"levelo://app?vid=e9238960-d4ac-4a8e-9976-8813d9f67878"},"vehicle_type_id":"4","last_reported":1770634015,"current_range_meters":3200,"station_id":"","pricing_plan_id":"cebpf4jnsgd1na2vs0mg"},{"bike_id":"a9de86c6-f619-4313-9ebc-5fa5305f1682","system_id":"levelo_inurba_marseille","lat":43.24469,"lon":5.42532,"is_reserved":false,"is_disabled":false,"rental_uris":{"android":"levelo://app?vid=a9de86c6-f619-4313-9ebc-5fa5305f1682","ios":"levelo://app?vid=a9de86c6-f619-4313-9ebc-5fa5305f1682"},"vehicle_type_id":"4","last_reported":1770634015,"current_range_meters":3200,"station_id":"st_d4a3vfp97mjs738cd8kg","pricing_plan_id":"cebpf4jnsgd1na2vs0mg"},{"bike_id":"09bf1b5a-5c7f-4c10-aadd-75daf4135afd","system_id":"levelo_inurba_marseille","lat":43.309535,"lon":5.390212,"is_reserved":false,"is_disabled":false,"rental_uris":{"android":"levelo://app?vid=09bf1b5a-5c7f-4c10-aadd-75daf4135afd","ios":"levelo://app?vid=09bf1b5a-5c7f-4c10-aadd-75daf4135afd"},"vehicle_type_id":"4","last_reported":1770634015,"current_range_meters":3200,"station_id":"ce4bgup2rcd13ifvqco0","pricing_plan_id":"cebpf4jnsgd1na2vs0mg"},{"bike_id":"d4451d30-c48c-44da-a789-dbad5081ff1e","system_id":"levelo_inurba_marseille","lat":43.2339,"lon":5.41237,"is_reserved":false,"is_disabled":false,"rental_uris":{"android":"levelo://app?vid=d4451d30-c48c-44da-a789-dbad5081ff1e","ios":"levelo://app?vid=d4451d30-c48c-44da-a789-dbad5081ff1e"},"vehicle_type_id":"4","last_reported":1770634015,"current_range_meters":3200,"station_id":"","pricing_plan_id":"cebpf4jnsgd1na2vs0mg"},{"bike_id":"c620e79b-7199-4607-a8a8-fb72ed4a1c27","system_id":"levelo_inurba_marseille","lat":43.28106,"lon":5.42649,"is_reserved":false,"is_disabled":false,"rental_uris":{"android":"levelo://app?vid=c620e79b-7199-4607-a8a8-fb72ed4a1c27","ios":"levelo://app?vid=c620e79b-7199-4607-a8a8-fb72ed4a1c27"},"vehicle_type_id":"4","last_reported":1770634015,"current_range_meters":3200,"station_id":"","pricing_plan_id":"cebpf4jnsgd1na2vs0mg"},{"bike_id":"d82f5ff6-e535-4212-898e-1318cc4df2f2","system_id":"levelo_inurba_marseille","lat":43.2711,"lon":5.42265,"is_reserved":false,"is_disabled":false,"rental_uris":{"android":"levelo://app?vid=d82f5ff6-e535-4212-898e-1318cc4df2f2","ios":"levelo://app?vid=d82f5ff6-e535-4212-898e-1318cc4df2f2"},"vehicle_type_id":"4","last_reported":1770634015,"current_range_meters":3200,"station_id":"ce4bhk92rcd13ifvqgb0","pricing_plan_id":"cebpf4jnsgd1na2vs0mg"},{"bike_id":"cb2de75c-6daa-4a4e-bbee-83853f0e755e","system_id":"levelo_inurba_marseille","lat":43.33167,"lon":5.37694,"is_reserved":false,"is_disabled":false,"rental_uris":{"android":"levelo://app?vid=cb2de75c-6daa-4a4e-bbee-83853f0e755e","ios":"levelo://app?vid=cb2de75c-6daa-4a4e-bbee-83853f0e755e"},"vehicle_type_id":"4","last_reported":1770634015,"current_range_meters":3600,"station_id":"st_d46cu089ee8s73dldbu0","pricing_plan_id":"cebpf4jnsgd1na2vs0mg"},{"bike_id":"f031ebdc-e7fd-4860-b35e-fca828d7b97e","system_id":"levelo_inurba_marseille","lat":43.32052,"lon":5.36767,"is_reserved":false,"is_disabled":false,"rental_uris":{"android":"levelo://app?vid=f031ebdc-e7fd-4860-b35e-fca828d7b97e","ios":"levelo://app?vid=f031ebdc-e7fd-4860-b35e-fca828d7b97e"},"vehicle_type_id":"4","last_reported":1770634015,"current_range_meters":3600,"station_id":"ce4bhrh2rcd13ifvqhug","pricing_plan_id":"cebpf4jnsgd1na2vs0mg"},{"bike_id":"072a53d2-7752-4745-bc6b-4e32780afe7d","system_id":"levelo_inurba_marseille","lat":43.23149,"lon":5.43715,"is_reserved":false,"is_disabled":false,"rental_uris":{"android":"levelo://app?vid=072a53d2-7752-4745-bc6b-4e32780afe7d","ios":"levelo://app?vid=072a53d2-7752-4745-bc6b-4e32780afe7d"},"vehicle_type_id":"4","last_reported":1770634015,"current_range_meters":3600,"station_id":"ce4bhmp2rcd13ifvqgog","pricing_plan_id":"cebpf4jnsgd1na2vs0mg"},{"bike_id":"d896e061-9356-46a7-8e21-9b23aa89cf4f","system_id":"levelo_inurba_marseille","lat":43.33549,"lon":5.37474,"is_reserved":false,"is_disabled":false,"rental_uris":{"android":"levelo://app?vid=d896e061-9356-46a7-8e21-9b23aa89cf4f","ios":"levelo://app?vid=d896e061-9356-46a7-8e21-9b23aa89cf4f"},"vehicle_type_id":"4","last_reported":1770634015,"current_range_meters":3600,"station_id":"","pricing_plan_id":"cebpf4jnsgd1na2vs0mg"},{"bike_id":"3189d820-b1b0-45fb-963d-5f50496a2d3d","system_id":"levelo_inurba_marseille","lat":43.31368,"lon":5.36709,"is_reserved":false,"is_disabled":true,"rental_uris":{"android":"levelo://app?vid=3189d820-b1b0-45fb-963d-5f50496a2d3d","ios":"levelo://app?vid=3189d820-b1b0-45fb-963d-5f50496a2d3d"},"vehicle_type_id":"4","last_reported":1770634015,"current_range_meters":4000,"station_id":"ce4bgr92rcd13ifvqc6g","pricing_plan_id":"cebpf4jnsgd1na2vs0mg"},{"bike_id":"1efe1a19-fbf0-44a6-870c-a91345e7555b","system_id":"levelo_inurba_marseille","lat":43.337444,"lon":5.374475,"is_reserved":false,"is_disabled":false,"rental_uris":{"android":"levelo://app?vid=1efe1a19-fbf0-44a6-870c-a91345e7555b","ios":"levelo://app?vid=1efe1a19-fbf0-44a6-870c-a91345e7555b"},"vehicle_type_id":"4","last_reported":1770634015,"current_range_meters":4000,"station_id":"","pricing_plan_id":"cebpf4jnsgd1na2vs0mg"},{"bike_id":"f544884a-5218-4b88-b50a-75fefe22a51f","system_id":"levelo_inurba_marseille","lat":43.28256,"lon":5.35072,"is_reserved":false,"is_disabled":false,"rental_uris":{"android":"levelo://app?vid=f544884a-5218-4b88-b50a-75fefe22a51f","ios":"levelo://app?vid=f544884a-5218-4b88-b50a-75fefe22a51f"},"vehicle_type_id":"4","last_reported":1770634015,"current_range_meters":4000,"station_id":"ce4bhbp2rcd13ifvqerg","pricing_plan_id":"cebpf4jnsgd1na2vs0mg"},{"bike_id":"d9c49242-2714-4c46-9072-ad91dfc1418d","system_id":"levelo_inurba_marseille","lat":43.314616,"lon":5.453784,"is_reserved":false,"is_disabled":false,"rental_uris":{"android":"levelo://app?vid=d9c49242-2714-4c46-9072-ad91dfc1418d","ios":"levelo://app?vid=d9c49242-2714-4c46-9072-ad91dfc1418d"},"vehicle_type_id":"4","last_reported":1770634015,"current_range_meters":4000,"station_id":"","pricing_plan_id":"cebpf4jnsgd1na2vs0mg"},{"bike_id":"f420962d-2fa7-4799-9625-4e165d6e7959","system_id":"levelo_inurba_marseille","lat":43.26363,"lon":5.41084,"is_reserved":false,"is_disabled":false,"rental_uris":{"android":"levelo://app?vid=f420962d-2fa7-4799-9625-4e165d6e7959","ios":"levelo://app?vid=f420962d-2fa7-4799-9625-4e165d6e7959"},"vehicle_type_id":"4","last_reported":1770634015,"current_range_meters":4000,"station_id":"st_d4e5ca6na9uc73bfl5fg","pricing_plan_id":"cebpf4jnsgd1na2vs0mg"},{"bike_id":"04e7e3cf-4cc9-4698-bc1b-f65b45163b12","system_id":"levelo_inurba_marseille","lat":43.29977,"lon":5.38494,"is_reserved":false,"is_disabled":false,"rental_uris":{"android":"levelo://app?vid=04e7e3cf-4cc9-4698-bc1b-f65b45163b12","ios":"levelo://app?vid=04e7e3cf-4cc9-4698-bc1b-f65b45163b12"},"vehicle_type_id":"4","last_reported":1770634015,"current_range_meters":4400,"station_id":"ce4bgj92rcd13ifvqbd0","pricing_plan_id":"cebpf4jnsgd1na2vs0mg"},{"bike_id":"0673bc9b-9eef-422f-9b7b-b98d0821a7b9","system_id":"levelo_inurba_marseille","lat":43.26503,"lon":5.38009,"is_reserved":false,"is_disabled":false,"rental_uris":{"android":"levelo://app?vid=0673bc9b-9eef-422f-9b7b-b98d0821a7b9","ios":"levelo://app?vid=0673bc9b-9eef-422f-9b7b-b98d0821a7b9"},"vehicle_type_id":"4","last_reported":1770634015,"current_range_meters":4400,"station_id":"ce4bhg92rcd13ifvqf90","pricing_plan_id":"cebpf4jnsgd1na2vs0mg"},{"bike_id":"1b84052b-00e3-425a-8137-55e6c3c51687","system_id":"levelo_inurba_marseille","lat":43.27575,"lon":5.38414,"is_reserved":false,"is_disabled":false,"rental_uris":{"android":"levelo://app?vid=1b84052b-00e3-425a-8137-55e6c3c51687","ios":"levelo://app?vid=1b84052b-00e3-425a-8137-55e6c3c51687"},"vehicle_type_id":"4","last_reported":1770634015,"current_range_meters":4400,"station_id":"ce4bhh92rcd13ifvqfi0","pricing_plan_id":"cebpf4jnsgd1na2vs0mg"},{"bike_id":"62468bc0-7c46-4734-a9fc-6c79792208c6","system_id":"levelo_inurba_marseille","lat":43.275629,"lon":5.384192,"is_reserved":false,"is_disabled":false,"rental_uris":{"android":"levelo://app?vid=62468bc0-7c46-4734-a9fc-6c79792208c6","ios":"levelo://app?vid=62468bc0-7c46-4734-a9fc-6c79792208c6"},"vehicle_type_id":"4","last_reported":1770634015,"current_range_meters":4400,"station_id":"ce4bh0h2rcd13ifvqd60","pricing_plan_id":"cebpf4jnsgd1na2vs0mg"},{"bike_id":"a2f08b7b-3148-4ae3-b1d5-0ad2ed6e132c","system_id":"levelo_inurba_marseille","lat":43.28639,"lon":5.44345,"is_reserved":false,"is_disabled":false,"rental_uris":{"android":"levelo://app?vid=a2f08b7b-3148-4ae3-b1d5-0ad2ed6e132c","ios":"levelo://app?vid=a2f08b7b-3148-4ae3-b1d5-0ad2ed6e132c"},"vehicle_type_id":"4","last_reported":1770634015,"current_range_meters":4400,"station_id":"","pricing_plan_id":"cebpf4jnsgd1na2vs0mg"},{"bike_id":"b24abe0a-ca88-48f6-80b5-bf9661bcfa95","system_id":"levelo_inurba_marseille","lat":43.308807,"lon":5.372034,"is_reserved":false,"is_disabled":false,"rental_uris":{"android":"levelo://app?vid=b24abe0a-ca88-48f6-80b5-bf9661bcfa95","ios":"levelo://app?vid=b24abe0a-ca88-48f6-80b5-bf9661bcfa95"},"vehicle_type_id":"4","last_reported":1770634015,"current_range_meters":4800,"station_id":"ce4bguh2rcd13ifvqckg","pricing_plan_id":"cebpf4jnsgd1na2vs0mg"},{"bike_id":"6dedaafe-5ee7-4a4b-b764-f1f9e016d363","system_id":"levelo_inurba_marseille","lat":43.29824,"lon":5.44081,"is_reserved":false,"is_disabled":false,"rental_uris":{"android":"levelo://app?vid=6dedaafe-5ee7-4a4b-b764-f1f9e016d363","ios":"levelo://app?vid=6dedaafe-5ee7-4a4b-b764-f1f9e016d363"},"vehicle_type_id":"4","last_reported":1770634015,"current_range_meters":4800,"station_id":"st_d3jp68qikq2c7381ktn0","pricing_plan_id":"cebpf4jnsgd1na2vs0mg"},{"bike_id":"ffcfb0a6-be0d-4d3d-b9ec-3a4698a83e7b","system_id":"levelo_inurba_marseille","lat":43.25952,"lon":5.40901,"is_reserved":false,"is_disabled":false,"rental_uris":{"android":"levelo://app?vid=ffcfb0a6-be0d-4d3d-b9ec-3a4698a83e7b","ios":"levelo://app?vid=ffcfb0a6-be0d-4d3d-b9ec-3a4698a83e7b"},"vehicle_type_id":"4","last_reported":1770634015,"current_range_meters":4800,"station_id":"ce4bhm92rcd13ifvqglg","pricing_plan_id":"cebpf4jnsgd1na2vs0mg"},{"bike_id":"9d7be1be-d4b3-47bd-8edc-15cdfef5477b","system_id":"levelo_inurba_marseille","lat":43.335957,"lon":5.41033,"is_reserved":false,"is_disabled":false,"rental_uris":{"android":"levelo://app?vid=9d7be1be-d4b3-47bd-8edc-15cdfef5477b","ios":"levelo://app?vid=9d7be1be-d4b3-47bd-8edc-15cdfef5477b"},"vehicle_type_id":"4","last_reported":1770634015,"current_range_meters":4800,"station_id":"ce4bhqh2rcd13ifvqhmg","pricing_plan_id":"cebpf4jnsgd1na2vs0mg"},{"bike_id":"716c4e80-e8b9-4c75-80e7-583969387289","system_id":"levelo_inurba_marseille","lat":43.28525,"lon":5.44106,"is_reserved":false,"is_disabled":false,"rental_uris":{"android":"levelo://app?vid=716c4e80-e8b9-4c75-80e7-583969387289","ios":"levelo://app?vid=716c4e80-e8b9-4c75-80e7-583969387289"},"vehicle_type_id":"4","last_reported":1770634015,"current_range_meters":4800,"station_id":"st_d3j3df2ikq2c7380ej80","pricing_plan_id":"cebpf4jnsgd1na2vs0mg"},{"bike_id":"d5242b4a-769b-48b8-8522-816e7c28d15b","system_id":"levelo_inurba_marseille","lat":43.26212,"lon":5.37455,"is_reserved":false,"is_disabled":false,"rental_uris":{"android":"levelo://app?vid=d5242b4a-769b-48b8-8522-816e7c28d15b","ios":"levelo://app?vid=d5242b4a-769b-48b8-8522-816e7c28d15b"},"vehicle_type_id":"4","last_reported":1770634015,"current_range_meters":5600,"station_id":"ce4bhgp2rcd13ifvqfc0","pricing_plan_id":"cebpf4jnsgd1na2vs0mg"},{"bike_id":"f88ec0e0-baf0-4f65-91ed-a8d87b3ccb23","system_id":"levelo_inurba_marseille","lat":43.30924,"lon":5.37161,"is_reserved":false,"is_disabled":true,"rental_uris":{"android":"levelo://app?vid=f88ec0e0-baf0-4f65-91ed-a8d87b3ccb23","ios":"levelo://app?vid=f88ec0e0-baf0-4f65-91ed-a8d87b3ccb23"},"vehicle_type_id":"4","last_reported":1770634015,"current_range_meters":5600,"station_id":"ce4bguh2rcd13ifvqckg","pricing_plan_id":"cebpf4jnsgd1na2vs0mg"},{"bike_id":"26d7c725-c8cf-43a0-af15-0ec272e88ca6","system_id":"levelo_inurba_marseille","lat":43.28683,"lon":5.38664,"is_reserved":false,"is_disabled":false,"rental_uris":{"android":"levelo://app?vid=26d7c725-c8cf-43a0-af15-0ec272e88ca6","ios":"levelo://app?vid=26d7c725-c8cf-43a0-af15-0ec272e88ca6"},"vehicle_type_id":"4","last_reported":1770634015,"current_range_meters":5600,"station_id":"ce4bh492rcd13ifvqdug","pricing_plan_id":"cebpf4jnsgd1na2vs0mg"},{"bike_id":"cb4e831c-6025-4234-bd44-dc892f6a6133","system_id":"levelo_inurba_marseille","lat":43.26554,"lon":5.40322,"is_reserved":false,"is_disabled":false,"rental_uris":{"android":"levelo://app?vid=cb4e831c-6025-4234-bd44-dc892f6a6133","ios":"levelo://app?vid=cb4e831c-6025-4234-bd44-dc892f6a6133"},"vehicle_type_id":"4","last_reported":1770634015,"current_range_meters":5600,"station_id":"ce4bhmp2rcd13ifvqgng","pricing_plan_id":"cebpf4jnsgd1na2vs0mg"},{"bike_id":"3cb4772e-3717-4e7c-a43b-daaf5c1a631a","system_id":"levelo_inurba_marseille","lat":43.2958,"lon":5.39986,"is_reserved":false,"is_disabled":true,"rental_uris":{"android":"levelo://app?vid=3cb4772e-3717-4e7c-a43b-daaf5c1a631a","ios":"levelo://app?vid=3cb4772e-3717-4e7c-a43b-daaf5c1a631a"},"vehicle_type_id":"4","last_reported":1770634015,"current_range_meters":6000,"station_id":"ce4bh312rcd13ifvqdj0","pricing_plan_id":"cebpf4jnsgd1na2vs0mg"},{"bike_id":"9c5847f8-2630-4e30-96ca-9059778cf36a","system_id":"levelo_inurba_marseille","lat":43.29255,"lon":5.36846,"is_reserved":false,"is_disabled":false,"rental_uris":{"android":"levelo://app?vid=9c5847f8-2630-4e30-96ca-9059778cf36a","ios":"levelo://app?vid=9c5847f8-2630-4e30-96ca-9059778cf36a"},"vehicle_type_id":"4","last_reported":1770634015,"current_range_meters":6000,"station_id":"ce4bhbp2rcd13ifvqesg","pricing_plan_id":"cebpf4jnsgd1na2vs0mg"},{"bike_id":"fb42dd14-8842-4c1b-bf3c-4ce250e467ea","system_id":"levelo_inurba_marseille","lat":43.25723,"lon":5.41093,"is_reserved":false,"is_disabled":false,"rental_uris":{"android":"levelo://app?vid=fb42dd14-8842-4c1b-bf3c-4ce250e467ea","ios":"levelo://app?vid=fb42dd14-8842-4c1b-bf3c-4ce250e467ea"},"vehicle_type_id":"4","last_reported":1770634015,"current_range_meters":6000,"station_id":"ce4bhkp2rcd13ifvqgd0","pricing_plan_id":"cebpf4jnsgd1na2vs0mg"},{"bike_id":"3a2aef7a-27f5-4e5a-a3e0-1d76c9641196","system_id":"levelo_inurba_marseille","lat":43.2495,"lon":5.40502,"is_reserved":false,"is_disabled":false,"rental_uris":{"android":"levelo://app?vid=3a2aef7a-27f5-4e5a-a3e0-1d76c9641196","ios":"levelo://app?vid=3a2aef7a-27f5-4e5a-a3e0-1d76c9641196"},"vehicle_type_id":"4","last_reported":1770634015,"current_range_meters":6000,"station_id":"st_d2ngiaodas8pm72gd1h0","pricing_plan_id":"cebpf4jnsgd1na2vs0mg"},{"bike_id":"89b99a3d-1f2b-4844-80de-72e6b7013b18","system_id":"levelo_inurba_marseille","lat":43.289402,"lon":5.396383,"is_reserved":false,"is_disabled":false,"rental_uris":{"android":"levelo://app?vid=89b99a3d-1f2b-4844-80de-72e6b7013b18","ios":"levelo://app?vid=89b99a3d-1f2b-4844-80de-72e6b7013b18"},"vehicle_type_id":"4","last_reported":1770634015,"current_range_meters":6000,"station_id":"ce4bh3h2rcd13ifvqdn0","pricing_plan_id":"cebpf4jnsgd1na2vs0mg"},{"bike_id":"c88a56b7-93cb-4228-bcff-c78517066df8","system_id":"levelo_inurba_marseille","lat":43.26549,"lon":5.37287,"is_reserved":false,"is_disabled":false,"rental_uris":{"android":"levelo://app?vid=c88a56b7-93cb-4228-bcff-c78517066df8","ios":"levelo://app?vid=c88a56b7-93cb-4228-bcff-c78517066df8"},"vehicle_type_id":"4","last_reported":1770634015,"current_range_meters":6000,"station_id":"ce4bhg12rcd13ifvqf70","pricing_plan_id":"cebpf4jnsgd1na2vs0mg"},{"bike_id":"450d6a8b-224a-40f5-a0ce-e4c12d8e4908","system_id":"levelo_inurba_marseille","lat":43.27045,"lon":5.4027,"is_reserved":false,"is_disabled":false,"rental_uris":{"android":"levelo://app?vid=450d6a8b-224a-40f5-a0ce-e4c12d8e4908","ios":"levelo://app?vid=450d6a8b-224a-40f5-a0ce-e4c12d8e4908"},"vehicle_type_id":"4","last_reported":1770634015,"current_range_meters":6400,"station_id":"ce4bhk92rcd13ifvqgc0","pricing_plan_id":"cebpf4jnsgd1na2vs0mg"},{"bike_id":"66ba7245-79ac-4300-aebf-0d4bf969ab90","system_id":"levelo_inurba_marseille","lat":43.26679,"lon":5.38266,"is_reserved":false,"is_disabled":false,"rental_uris":{"android":"levelo://app?vid=66ba7245-79ac-4300-aebf-0d4bf969ab90","ios":"levelo://app?vid=66ba7245-79ac-4300-aebf-0d4bf969ab90"},"vehicle_type_id":"4","last_reported":1770634015,"current_range_meters":6400,"station_id":"ce4bhg92rcd13ifvqf90","pricing_plan_id":"cebpf4jnsgd1na2vs0mg"},{"bike_id":"7793efe0-796a-47b9-b395-f00d6d2ba2f3","system_id":"levelo_inurba_marseille","lat":43.335403,"lon":5.374661,"is_reserved":false,"is_disabled":false,"rental_uris":{"android":"levelo://app?vid=7793efe0-796a-47b9-b395-f00d6d2ba2f3","ios":"levelo://app?vid=7793efe0-796a-47b9-b395-f00d6d2ba2f3"},"vehicle_type_id":"4","last_reported":1770634015,"current_range_meters":6400,"station_id":"st_d46tts09ee8s73dlu43g","pricing_plan_id":"cebpf4jnsgd1na2vs0mg"},{"bike_id":"eb4c876b-88dd-43ec-8628-44a384f402f0","system_id":"levelo_inurba_marseille","lat":43.33528,"lon":5.37475,"is_reserved":false,"is_disabled":false,"rental_uris":{"android":"levelo://app?vid=eb4c876b-88dd-43ec-8628-44a384f402f0","ios":"levelo://app?vid=eb4c876b-88dd-43ec-8628-44a384f402f0"},"vehicle_type_id":"4","last_reported":1770634015,"current_range_meters":6400,"station_id":"st_d46tts09ee8s73dlu43g","pricing_plan_id":"cebpf4jnsgd1na2vs0mg"},{"bike_id":"fe67d4e7-d614-4470-a44b-7eb400bc724a","system_id":"levelo_inurba_marseille","lat":43.30969,"lon":5.39041,"is_reserved":false,"is_disabled":false,"rental_uris":{"android":"levelo://app?vid=fe67d4e7-d614-4470-a44b-7eb400bc724a","ios":"levelo://app?vid=fe67d4e7-d614-4470-a44b-7eb400bc724a"},"vehicle_type_id":"4","last_reported":1770634015,"current_range_meters":6400,"station_id":"ce4bgup2rcd13ifvqco0","pricing_plan_id":"cebpf4jnsgd1na2vs0mg"},{"bike_id":"c9cf4557-be10-4d6a-a984-153726ffbc0f","system_id":"levelo_inurba_marseille","lat":43.29032,"lon":5.39973,"is_reserved":false,"is_disabled":false,"rental_uris":{"android":"levelo://app?vid=c9cf4557-be10-4d6a-a984-153726ffbc0f","ios":"levelo://app?vid=c9cf4557-be10-4d6a-a984-153726ffbc0f"},"vehicle_type_id":"4","last_reported":1770634015,"current_range_meters":6400,"station_id":"ce4bh392rcd13ifvqdm0","pricing_plan_id":"cebpf4jnsgd1na2vs0mg"},{"bike_id":"42d14ae0-b057-4881-a435-4d88ebb79611","system_id":"levelo_inurba_marseille","lat":43.26693,"lon":5.38262,"is_reserved":false,"is_disabled":false,"rental_uris":{"android":"levelo://app?vid=42d14ae0-b057-4881-a435-4d88ebb79611","ios":"levelo://app?vid=42d14ae0-b057-4881-a435-4d88ebb79611"},"vehicle_type_id":"4","last_reported":1770634015,"current_range_meters":6400,"station_id":"ce4bhg92rcd13ifvqf90","pricing_plan_id":"cebpf4jnsgd1na2vs0mg"},{"bike_id":"febbbf4f-df5c-4a6e-be2f-796eb0a563bc","system_id":"levelo_inurba_marseille","lat":43.28484,"lon":5.3841,"is_reserved":false,"is_disabled":false,"rental_uris":{"android":"levelo://app?vid=febbbf4f-df5c-4a6e-be2f-796eb0a563bc","ios":"levelo://app?vid=febbbf4f-df5c-4a6e-be2f-796eb0a563bc"},"vehicle_type_id":"4","last_reported":1770634015,"current_range_meters":6400,"station_id":"ce4bh512rcd13ifvqe3g","pricing_plan_id":"cebpf4jnsgd1na2vs0mg"},{"bike_id":"822e5c69-0f22-40ec-abb1-cf711ea349a4","system_id":"levelo_inurba_marseille","lat":43.26559,"lon":5.37283,"is_reserved":false,"is_disabled":false,"rental_uris":{"android":"levelo://app?vid=822e5c69-0f22-40ec-abb1-cf711ea349a4","ios":"levelo://app?vid=822e5c69-0f22-40ec-abb1-cf711ea349a4"},"vehicle_type_id":"4","last_reported":1770634015,"current_range_meters":6400,"station_id":"ce4bhg12rcd13ifvqf70","pricing_plan_id":"cebpf4jnsgd1na2vs0mg"},{"bike_id":"61003dcb-1e04-4ea0-9829-a482153db859","system_id":"levelo_inurba_marseille","lat":43.29852,"lon":5.37578,"is_reserved":false,"is_disabled":false,"rental_uris":{"android":"levelo://app?vid=61003dcb-1e04-4ea0-9829-a482153db859","ios":"levelo://app?vid=61003dcb-1e04-4ea0-9829-a482153db859"},"vehicle_type_id":"4","last_reported":1770634015,"current_range_meters":6400,"station_id":"","pricing_plan_id":"cebpf4jnsgd1na2vs0mg"},{"bike_id":"ac645712-adb7-427c-9a1d-bbc03b4ccac1","system_id":"levelo_inurba_marseille","lat":43.21189,"lon":5.3507,"is_reserved":false,"is_disabled":false,"rental_uris":{"android":"levelo://app?vid=ac645712-adb7-427c-9a1d-bbc03b4ccac1","ios":"levelo://app?vid=ac645712-adb7-427c-9a1d-bbc03b4ccac1"},"vehicle_type_id":"4","last_reported":1770634015,"current_range_meters":6400,"station_id":"st_cvj6sg6p6f1abm77japg","pricing_plan_id":"cebpf4jnsgd1na2vs0mg"},{"bike_id":"19d8982e-e70c-4b5b-98db-88bf29b75db0","system_id":"levelo_inurba_marseille","lat":43.27372,"lon":5.3625,"is_reserved":false,"is_disabled":false,"rental_uris":{"android":"levelo://app?vid=19d8982e-e70c-4b5b-98db-88bf29b75db0","ios":"levelo://app?vid=19d8982e-e70c-4b5b-98db-88bf29b75db0"},"vehicle_type_id":"4","last_reported":1770634015,"current_range_meters":6400,"station_id":"ce4bhbh2rcd13ifvqeo0","pricing_plan_id":"cebpf4jnsgd1na2vs0mg"},{"bike_id":"7d68d387-7e5a-4cd9-9821-209e9d96865f","system_id":"levelo_inurba_marseille","lat":43.27954,"lon":5.38687,"is_reserved":false,"is_disabled":false,"rental_uris":{"android":"levelo://app?vid=7d68d387-7e5a-4cd9-9821-209e9d96865f","ios":"levelo://app?vid=7d68d387-7e5a-4cd9-9821-209e9d96865f"},"vehicle_type_id":"4","last_reported":1770634015,"current_range_meters":6800,"station_id":"","pricing_plan_id":"cebpf4jnsgd1na2vs0mg"},{"bike_id":"2bd2f347-3f90-42b9-8e50-1564e6d953ce","system_id":"levelo_inurba_marseille","lat":43.2732,"lon":5.39123,"is_reserved":false,"is_disabled":false,"rental_uris":{"android":"levelo://app?vid=2bd2f347-3f90-42b9-8e50-1564e6d953ce","ios":"levelo://app?vid=2bd2f347-3f90-42b9-8e50-1564e6d953ce"},"vehicle_type_id":"4","last_reported":1770634015,"current_range_meters":6800,"station_id":"ce4bhgp2rcd13ifvqfe0","pricing_plan_id":"cebpf4jnsgd1na2vs0mg"},{"bike_id":"5aba6095-7643-4143-8b09-182d2f94183c","system_id":"levelo_inurba_marseille","lat":43.29853,"lon":5.36287,"is_reserved":false,"is_disabled":false,"rental_uris":{"android":"levelo://app?vid=5aba6095-7643-4143-8b09-182d2f94183c","ios":"levelo://app?vid=5aba6095-7643-4143-8b09-182d2f94183c"},"vehicle_type_id":"4","last_reported":1770634015,"current_range_meters":6800,"station_id":"ce4bgpp2rcd13ifvqc3g","pricing_plan_id":"cebpf4jnsgd1na2vs0mg"},{"bike_id":"ea5b640c-f9cc-4437-aff2-20b9a17b6db1","system_id":"levelo_inurba_marseille","lat":43.25935,"lon":5.40889,"is_reserved":false,"is_disabled":false,"rental_uris":{"android":"levelo://app?vid=ea5b640c-f9cc-4437-aff2-20b9a17b6db1","ios":"levelo://app?vid=ea5b640c-f9cc-4437-aff2-20b9a17b6db1"},"vehicle_type_id":"4","last_reported":1770634015,"current_range_meters":6800,"station_id":"ce4bhm92rcd13ifvqglg","pricing_plan_id":"cebpf4jnsgd1na2vs0mg"},{"bike_id":"4b6ae7cf-a20c-45bf-93e3-f78d3a6e7a98","system_id":"levelo_inurba_marseille","lat":43.25927,"lon":5.4089,"is_reserved":false,"is_disabled":false,"rental_uris":{"android":"levelo://app?vid=4b6ae7cf-a20c-45bf-93e3-f78d3a6e7a98","ios":"levelo://app?vid=4b6ae7cf-a20c-45bf-93e3-f78d3a6e7a98"},"vehicle_type_id":"4","last_reported":1770634015,"current_range_meters":6800,"station_id":"ce4bhm92rcd13ifvqglg","pricing_plan_id":"cebpf4jnsgd1na2vs0mg"},{"bike_id":"29e16d7e-c9a8-4168-973d-2ccd3e563939","system_id":"levelo_inurba_marseille","lat":43.30728,"lon":5.42434,"is_reserved":false,"is_disabled":false,"rental_uris":{"android":"levelo://app?vid=29e16d7e-c9a8-4168-973d-2ccd3e563939","ios":"levelo://app?vid=29e16d7e-c9a8-4168-973d-2ccd3e563939"},"vehicle_type_id":"4","last_reported":1770634015,"current_range_meters":6800,"station_id":"st_cvj6ca6bvosntc0bfgr0","pricing_plan_id":"cebpf4jnsgd1na2vs0mg"},{"bike_id":"d899ede1-2156-41eb-8a97-40db0f8e1193","system_id":"levelo_inurba_marseille","lat":43.2654,"lon":5.3952,"is_reserved":false,"is_disabled":false,"rental_uris":{"android":"levelo://app?vid=d899ede1-2156-41eb-8a97-40db0f8e1193","ios":"levelo://app?vid=d899ede1-2156-41eb-8a97-40db0f8e1193"},"vehicle_type_id":"4","last_reported":1770634015,"current_range_meters":6800,"station_id":"","pricing_plan_id":"cebpf4jnsgd1na2vs0mg"},{"bike_id":"3677d988-5978-44c4-82e7-a7994579bc69","system_id":"levelo_inurba_marseille","lat":43.28473,"lon":5.38429,"is_reserved":false,"is_disabled":true,"rental_uris":{"android":"levelo://app?vid=3677d988-5978-44c4-82e7-a7994579bc69","ios":"levelo://app?vid=3677d988-5978-44c4-82e7-a7994579bc69"},"vehicle_type_id":"4","last_reported":1770634015,"current_range_meters":6800,"station_id":"ce4bh512rcd13ifvqe3g","pricing_plan_id":"cebpf4jnsgd1na2vs0mg"},{"bike_id":"758472e9-ba57-4978-929b-69aa407f7f43","system_id":"levelo_inurba_marseille","lat":43.274922,"lon":5.424503,"is_reserved":false,"is_disabled":false,"rental_uris":{"android":"levelo://app?vid=758472e9-ba57-4978-929b-69aa407f7f43","ios":"levelo://app?vid=758472e9-ba57-4978-929b-69aa407f7f43"},"vehicle_type_id":"4","last_reported":1770634015,"current_range_meters":6800,"station_id":"ce4bhn92rcd13ifvqgrg","pricing_plan_id":"cebpf4jnsgd1na2vs0mg"},{"bike_id":"2a41a4e7-1277-4985-ba78-22bce5859488","system_id":"levelo_inurba_marseille","lat":43.259403,"lon":5.409083,"is_reserved":false,"is_disabled":false,"rental_uris":{"android":"levelo://app?vid=2a41a4e7-1277-4985-ba78-22bce5859488","ios":"levelo://app?vid=2a41a4e7-1277-4985-ba78-22bce5859488"},"vehicle_type_id":"4","last_reported":1770634015,"current_range_meters":6800,"station_id":"ce4bhm92rcd13ifvqglg","pricing_plan_id":"cebpf4jnsgd1na2vs0mg"},{"bike_id":"27c29ef9-6971-4a98-8030-2f3da3364f50","system_id":"levelo_inurba_marseille","lat":43.27488,"lon":5.42481,"is_reserved":false,"is_disabled":false,"rental_uris":{"android":"levelo://app?vid=27c29ef9-6971-4a98-8030-2f3da3364f50","ios":"levelo://app?vid=27c29ef9-6971-4a98-8030-2f3da3364f50"},"vehicle_type_id":"4","last_reported":1770634015,"current_range_meters":7200,"station_id":"ce4bhn92rcd13ifvqgrg","pricing_plan_id":"cebpf4jnsgd1na2vs0mg"},{"bike_id":"a0031dff-ef69-495e-a40e-21326973f320","system_id":"levelo_inurba_marseille","lat":43.27587,"lon":5.38423,"is_reserved":false,"is_disabled":false,"rental_uris":{"android":"levelo://app?vid=a0031dff-ef69-495e-a40e-21326973f320","ios":"levelo://app?vid=a0031dff-ef69-495e-a40e-21326973f320"},"vehicle_type_id":"4","last_reported":1770634015,"current_range_meters":7200,"station_id":"ce4bhh92rcd13ifvqfi0","pricing_plan_id":"cebpf4jnsgd1na2vs0mg"},{"bike_id":"fc830711-c6c4-41fc-8c3c-a2ef4151426a","system_id":"levelo_inurba_marseille","lat":43.267951,"lon":5.402715,"is_reserved":false,"is_disabled":false,"rental_uris":{"android":"levelo://app?vid=fc830711-c6c4-41fc-8c3c-a2ef4151426a","ios":"levelo://app?vid=fc830711-c6c4-41fc-8c3c-a2ef4151426a"},"vehicle_type_id":"4","last_reported":1770634015,"current_range_meters":7200,"station_id":"ce501612rcd8frsf0b60","pricing_plan_id":"cebpf4jnsgd1na2vs0mg"},{"bike_id":"cf016afa-8583-400e-9a37-9cb1dbcd7006","system_id":"levelo_inurba_marseille","lat":43.312097,"lon":5.368602,"is_reserved":false,"is_disabled":false,"rental_uris":{"android":"levelo://app?vid=cf016afa-8583-400e-9a37-9cb1dbcd7006","ios":"levelo://app?vid=cf016afa-8583-400e-9a37-9cb1dbcd7006"},"vehicle_type_id":"4","last_reported":1770634015,"current_range_meters":7200,"station_id":"ce4bgl92rcd13ifvqbq0","pricing_plan_id":"cebpf4jnsgd1na2vs0mg"},{"bike_id":"210923d6-98fe-4f0a-baba-3cc94a178193","system_id":"levelo_inurba_marseille","lat":43.269525,"lon":5.386335,"is_reserved":false,"is_disabled":false,"rental_uris":{"android":"levelo://app?vid=210923d6-98fe-4f0a-baba-3cc94a178193","ios":"levelo://app?vid=210923d6-98fe-4f0a-baba-3cc94a178193"},"vehicle_type_id":"4","last_reported":1770634015,"current_range_meters":7200,"station_id":"ce4bhh92rcd13ifvqfh0","pricing_plan_id":"cebpf4jnsgd1na2vs0mg"},{"bike_id":"a372dc85-a1fc-4ed4-83c8-fddfd18c87ba","system_id":"levelo_inurba_marseille","lat":43.24072,"lon":5.37764,"is_reserved":false,"is_disabled":false,"rental_uris":{"android":"levelo://app?vid=a372dc85-a1fc-4ed4-83c8-fddfd18c87ba","ios":"levelo://app?vid=a372dc85-a1fc-4ed4-83c8-fddfd18c87ba"},"vehicle_type_id":"4","last_reported":1770634015,"current_range_meters":7200,"station_id":"ce4bhnp2rcd13ifvqgvg","pricing_plan_id":"cebpf4jnsgd1na2vs0mg"},{"bike_id":"ecda0c56-c418-4b46-83fd-07fed390378a","system_id":"levelo_inurba_marseille","lat":43.33606,"lon":5.41032,"is_reserved":false,"is_disabled":false,"rental_uris":{"android":"levelo://app?vid=ecda0c56-c418-4b46-83fd-07fed390378a","ios":"levelo://app?vid=ecda0c56-c418-4b46-83fd-07fed390378a"},"vehicle_type_id":"4","last_reported":1770634015,"current_range_meters":7200,"station_id":"ce4bhqh2rcd13ifvqhmg","pricing_plan_id":"cebpf4jnsgd1na2vs0mg"},{"bike_id":"15287a7c-5fed-4d6d-992f-66ee54d7d61b","system_id":"levelo_inurba_marseille","lat":43.28094,"lon":5.37866,"is_reserved":false,"is_disabled":true,"rental_uris":{"android":"levelo://app?vid=15287a7c-5fed-4d6d-992f-66ee54d7d61b","ios":"levelo://app?vid=15287a7c-5fed-4d6d-992f-66ee54d7d61b"},"vehicle_type_id":"4","last_reported":1770634015,"current_range_meters":7200,"station_id":"ce4bha12rcd13ifvqee0","pricing_plan_id":"cebpf4jnsgd1na2vs0mg"},{"bike_id":"0c19d373-6eb2-4333-8212-205e194a0e67","system_id":"levelo_inurba_marseille","lat":43.24392,"lon":5.37072,"is_reserved":false,"is_disabled":false,"rental_uris":{"android":"levelo://app?vid=0c19d373-6eb2-4333-8212-205e194a0e67","ios":"levelo://app?vid=0c19d373-6eb2-4333-8212-205e194a0e67"},"vehicle_type_id":"4","last_reported":1770634015,"current_range_meters":7200,"station_id":"ce4bhhh2rcd13ifvqfk0","pricing_plan_id":"cebpf4jnsgd1na2vs0mg"},{"bike_id":"8c139d21-9d12-4792-a44d-13109cee3e0a","system_id":"levelo_inurba_marseille","lat":43.26543,"lon":5.41892,"is_reserved":false,"is_disabled":false,"rental_uris":{"android":"levelo://app?vid=8c139d21-9d12-4792-a44d-13109cee3e0a","ios":"levelo://app?vid=8c139d21-9d12-4792-a44d-13109cee3e0a"},"vehicle_type_id":"4","last_reported":1770634015,"current_range_meters":7200,"station_id":"","pricing_plan_id":"cebpf4jnsgd1na2vs0mg"},{"bike_id":"660eccfb-5611-468b-99ec-ac7e67fffa78","system_id":"levelo_inurba_marseille","lat":43.25563,"lon":5.38236,"is_reserved":false,"is_disabled":false,"rental_uris":{"android":"levelo://app?vid=660eccfb-5611-468b-99ec-ac7e67fffa78","ios":"levelo://app?vid=660eccfb-5611-468b-99ec-ac7e67fffa78"},"vehicle_type_id":"4","last_reported":1770634015,"current_range_meters":7200,"station_id":"ce4bhih2rcd13ifvqfs0","pricing_plan_id":"cebpf4jnsgd1na2vs0mg"},{"bike_id":"777f1f50-9ccf-46db-a1bf-cfe765ca1373","system_id":"levelo_inurba_marseille","lat":43.260592,"lon":5.393988,"is_reserved":false,"is_disabled":false,"rental_uris":{"android":"levelo://app?vid=777f1f50-9ccf-46db-a1bf-cfe765ca1373","ios":"levelo://app?vid=777f1f50-9ccf-46db-a1bf-cfe765ca1373"},"vehicle_type_id":"4","last_reported":1770634015,"current_range_meters":7200,"station_id":"ce4bhh92rcd13ifvqfj0","pricing_plan_id":"cebpf4jnsgd1na2vs0mg"},{"bike_id":"e53bb33f-75f4-4644-8307-d635f97cc7aa","system_id":"levelo_inurba_marseille","lat":43.3136,"lon":5.3674,"is_reserved":false,"is_disabled":false,"rental_uris":{"android":"levelo://app?vid=e53bb33f-75f4-4644-8307-d635f97cc7aa","ios":"levelo://app?vid=e53bb33f-75f4-4644-8307-d635f97cc7aa"},"vehicle_type_id":"4","last_reported":1770634015,"current_range_meters":7200,"station_id":"ce4bgr92rcd13ifvqc6g","pricing_plan_id":"cebpf4jnsgd1na2vs0mg"},{"bike_id":"f30e0345-389d-4598-aa88-9f89109b8708","system_id":"levelo_inurba_marseille","lat":43.2986,"lon":5.36288,"is_reserved":false,"is_disabled":true,"rental_uris":{"android":"levelo://app?vid=f30e0345-389d-4598-aa88-9f89109b8708","ios":"levelo://app?vid=f30e0345-389d-4598-aa88-9f89109b8708"},"vehicle_type_id":"4","last_reported":1770634015,"current_range_meters":8000,"station_id":"ce4bgpp2rcd13ifvqc3g","pricing_plan_id":"cebpf4jnsgd1na2vs0mg"},{"bike_id":"b65a7e72-9e74-4b3f-b167-e422d10fb3a2","system_id":"levelo_inurba_marseille","lat":43.29964,"lon":5.38517,"is_reserved":false,"is_disabled":false,"rental_uris":{"android":"levelo://app?vid=b65a7e72-9e74-4b3f-b167-e422d10fb3a2","ios":"levelo://app?vid=b65a7e72-9e74-4b3f-b167-e422d10fb3a2"},"vehicle_type_id":"4","last_reported":1770634015,"current_range_meters":8000,"station_id":"ce4bgj92rcd13ifvqbd0","pricing_plan_id":"cebpf4jnsgd1na2vs0mg"},{"bike_id":"24684bde-2b80-4376-aa7d-f2022a9fd390","system_id":"levelo_inurba_marseille","lat":43.23181,"lon":5.39985,"is_reserved":false,"is_disabled":false,"rental_uris":{"android":"levelo://app?vid=24684bde-2b80-4376-aa7d-f2022a9fd390","ios":"levelo://app?vid=24684bde-2b80-4376-aa7d-f2022a9fd390"},"vehicle_type_id":"4","last_reported":1770634015,"current_range_meters":8000,"station_id":"ce4bhn12rcd13ifvqgqg","pricing_plan_id":"cebpf4jnsgd1na2vs0mg"},{"bike_id":"68db5110-1cfd-4904-97ca-6d30a554e468","system_id":"levelo_inurba_marseille","lat":43.23151,"lon":5.43716,"is_reserved":false,"is_disabled":false,"rental_uris":{"android":"levelo://app?vid=68db5110-1cfd-4904-97ca-6d30a554e468","ios":"levelo://app?vid=68db5110-1cfd-4904-97ca-6d30a554e468"},"vehicle_type_id":"4","last_reported":1770634015,"current_range_meters":8000,"station_id":"ce4bhmp2rcd13ifvqgog","pricing_plan_id":"cebpf4jnsgd1na2vs0mg"},{"bike_id":"89d77ec3-bd2a-4597-9f78-059f61c79d0d","system_id":"levelo_inurba_marseille","lat":43.284712,"lon":5.384154,"is_reserved":false,"is_disabled":false,"rental_uris":{"android":"levelo://app?vid=89d77ec3-bd2a-4597-9f78-059f61c79d0d","ios":"levelo://app?vid=89d77ec3-bd2a-4597-9f78-059f61c79d0d"},"vehicle_type_id":"4","last_reported":1770634015,"current_range_meters":8000,"station_id":"ce4bh512rcd13ifvqe3g","pricing_plan_id":"cebpf4jnsgd1na2vs0mg"},{"bike_id":"f1fc2053-4395-4376-9224-a3696af091bf","system_id":"levelo_inurba_marseille","lat":43.305497,"lon":5.36547,"is_reserved":false,"is_disabled":false,"rental_uris":{"android":"levelo://app?vid=f1fc2053-4395-4376-9224-a3696af091bf","ios":"levelo://app?vid=f1fc2053-4395-4376-9224-a3696af091bf"},"vehicle_type_id":"4","last_reported":1770634015,"current_range_meters":8000,"station_id":"ce4bgs12rcd13ifvqcag","pricing_plan_id":"cebpf4jnsgd1na2vs0mg"},{"bike_id":"f6a0fc22-d80a-4031-abbc-7a663bb38332","system_id":"levelo_inurba_marseille","lat":43.231593,"lon":5.437219,"is_reserved":false,"is_disabled":false,"rental_uris":{"android":"levelo://app?vid=f6a0fc22-d80a-4031-abbc-7a663bb38332","ios":"levelo://app?vid=f6a0fc22-d80a-4031-abbc-7a663bb38332"},"vehicle_type_id":"4","last_reported":1770634015,"current_range_meters":8000,"station_id":"ce4bhmp2rcd13ifvqgog","pricing_plan_id":"cebpf4jnsgd1na2vs0mg"},{"bike_id":"e83d9e2f-7571-4d83-99bc-489b34ff4643","system_id":"levelo_inurba_marseille","lat":43.25339,"lon":5.42172,"is_reserved":false,"is_disabled":false,"rental_uris":{"android":"levelo://app?vid=e83d9e2f-7571-4d83-99bc-489b34ff4643","ios":"levelo://app?vid=e83d9e2f-7571-4d83-99bc-489b34ff4643"},"vehicle_type_id":"4","last_reported":1770634015,"current_range_meters":8000,"station_id":"st_d2m65c5bi1j21697t3ng","pricing_plan_id":"cebpf4jnsgd1na2vs0mg"},{"bike_id":"c0b6c3eb-4055-48c5-be4e-2f3633e2e95f","system_id":"levelo_inurba_marseille","lat":43.22572,"lon":5.41634,"is_reserved":false,"is_disabled":false,"rental_uris":{"android":"levelo://app?vid=c0b6c3eb-4055-48c5-be4e-2f3633e2e95f","ios":"levelo://app?vid=c0b6c3eb-4055-48c5-be4e-2f3633e2e95f"},"vehicle_type_id":"4","last_reported":1770634015,"current_range_meters":8000,"station_id":"st_d2o4gvlbi1j2169b742g","pricing_plan_id":"cebpf4jnsgd1na2vs0mg"},{"bike_id":"8233bce1-1f1b-4c4d-a84e-780316ddb438","system_id":"levelo_inurba_marseille","lat":43.27611,"lon":5.42425,"is_reserved":false,"is_disabled":false,"rental_uris":{"android":"levelo://app?vid=8233bce1-1f1b-4c4d-a84e-780316ddb438","ios":"levelo://app?vid=8233bce1-1f1b-4c4d-a84e-780316ddb438"},"vehicle_type_id":"4","last_reported":1770634015,"current_range_meters":8000,"station_id":"","pricing_plan_id":"cebpf4jnsgd1na2vs0mg"},{"bike_id":"e1242b72-e1d7-481b-8195-5c5f6d9a0b11","system_id":"levelo_inurba_marseille","lat":43.246302,"lon":5.431489,"is_reserved":false,"is_disabled":false,"rental_uris":{"android":"levelo://app?vid=e1242b72-e1d7-481b-8195-5c5f6d9a0b11","ios":"levelo://app?vid=e1242b72-e1d7-481b-8195-5c5f6d9a0b11"},"vehicle_type_id":"4","last_reported":1770634015,"current_range_meters":8000,"station_id":"st_d2m6c4gdas8pm72e190g","pricing_plan_id":"cebpf4jnsgd1na2vs0mg"},{"bike_id":"d6aee196-cc92-4d64-b6e5-12dab2bf06f5","system_id":"levelo_inurba_marseille","lat":43.33541,"lon":5.37454,"is_reserved":false,"is_disabled":false,"rental_uris":{"android":"levelo://app?vid=d6aee196-cc92-4d64-b6e5-12dab2bf06f5","ios":"levelo://app?vid=d6aee196-cc92-4d64-b6e5-12dab2bf06f5"},"vehicle_type_id":"4","last_reported":1770634015,"current_range_meters":8000,"station_id":"st_d46tts09ee8s73dlu43g","pricing_plan_id":"cebpf4jnsgd1na2vs0mg"},{"bike_id":"7e01f57b-ade8-4cc3-81c3-76e88fac1321","system_id":"levelo_inurba_marseille","lat":43.284691,"lon":5.484026,"is_reserved":false,"is_disabled":false,"rental_uris":{"android":"levelo://app?vid=7e01f57b-ade8-4cc3-81c3-76e88fac1321","ios":"levelo://app?vid=7e01f57b-ade8-4cc3-81c3-76e88fac1321"},"vehicle_type_id":"4","last_reported":1770634015,"current_range_meters":8000,"station_id":"st_d3svhcjqgbts73a3dn0g","pricing_plan_id":"cebpf4jnsgd1na2vs0mg"},{"bike_id":"cc7c725c-badb-41ba-b925-0f8178f5d1f8","system_id":"levelo_inurba_marseille","lat":43.28961,"lon":5.39615,"is_reserved":false,"is_disabled":false,"rental_uris":{"android":"levelo://app?vid=cc7c725c-badb-41ba-b925-0f8178f5d1f8","ios":"levelo://app?vid=cc7c725c-badb-41ba-b925-0f8178f5d1f8"},"vehicle_type_id":"4","last_reported":1770634015,"current_range_meters":8000,"station_id":"ce4bh3h2rcd13ifvqdn0","pricing_plan_id":"cebpf4jnsgd1na2vs0mg"},{"bike_id":"06c6246e-28ca-45b4-9c8e-b7776d02151f","system_id":"levelo_inurba_marseille","lat":43.27055,"lon":5.38317,"is_reserved":false,"is_disabled":false,"rental_uris":{"android":"levelo://app?vid=06c6246e-28ca-45b4-9c8e-b7776d02151f","ios":"levelo://app?vid=06c6246e-28ca-45b4-9c8e-b7776d02151f"},"vehicle_type_id":"4","last_reported":1770634015,"current_range_meters":8000,"station_id":"st_d3n2fo6cfp8s73cte1j0","pricing_plan_id":"cebpf4jnsgd1na2vs0mg"},{"bike_id":"4e67b6c5-490d-4151-b728-8cbd3ebc33e3","system_id":"levelo_inurba_marseille","lat":43.2655,"lon":5.4033,"is_reserved":false,"is_disabled":false,"rental_uris":{"android":"levelo://app?vid=4e67b6c5-490d-4151-b728-8cbd3ebc33e3","ios":"levelo://app?vid=4e67b6c5-490d-4151-b728-8cbd3ebc33e3"},"vehicle_type_id":"4","last_reported":1770634015,"current_range_meters":8000,"station_id":"ce4bhmp2rcd13ifvqgng","pricing_plan_id":"cebpf4jnsgd1na2vs0mg"},{"bike_id":"9a0a4f5b-d5f2-4be0-a4fa-450256499716","system_id":"levelo_inurba_marseille","lat":43.27004,"lon":5.39879,"is_reserved":false,"is_disabled":false,"rental_uris":{"android":"levelo://app?vid=9a0a4f5b-d5f2-4be0-a4fa-450256499716","ios":"levelo://app?vid=9a0a4f5b-d5f2-4be0-a4fa-450256499716"},"vehicle_type_id":"4","last_reported":1770634015,"current_range_meters":8000,"station_id":"","pricing_plan_id":"cebpf4jnsgd1na2vs0mg"},{"bike_id":"372b76e2-1199-486a-929d-2aa0411c769f","system_id":"levelo_inurba_marseille","lat":43.32492,"lon":5.38292,"is_reserved":false,"is_disabled":false,"rental_uris":{"android":"levelo://app?vid=372b76e2-1199-486a-929d-2aa0411c769f","ios":"levelo://app?vid=372b76e2-1199-486a-929d-2aa0411c769f"},"vehicle_type_id":"4","last_reported":1770634015,"current_range_meters":8000,"station_id":"st_d4asgbiv49dc73anf9m0","pricing_plan_id":"cebpf4jnsgd1na2vs0mg"},{"bike_id":"3b51b137-b0f5-4720-8050-df6e6c8f19ea","system_id":"levelo_inurba_marseille","lat":43.25923,"lon":5.40886,"is_reserved":false,"is_disabled":false,"rental_uris":{"android":"levelo://app?vid=3b51b137-b0f5-4720-8050-df6e6c8f19ea","ios":"levelo://app?vid=3b51b137-b0f5-4720-8050-df6e6c8f19ea"},"vehicle_type_id":"4","last_reported":1770634015,"current_range_meters":8400,"station_id":"ce4bhm92rcd13ifvqglg","pricing_plan_id":"cebpf4jnsgd1na2vs0mg"},{"bike_id":"0cb155af-e933-43d7-91b8-1c7202a0f4be","system_id":"levelo_inurba_marseille","lat":43.29219,"lon":5.36057,"is_reserved":false,"is_disabled":false,"rental_uris":{"android":"levelo://app?vid=0cb155af-e933-43d7-91b8-1c7202a0f4be","ios":"levelo://app?vid=0cb155af-e933-43d7-91b8-1c7202a0f4be"},"vehicle_type_id":"4","last_reported":1770634015,"current_range_meters":8400,"station_id":"ce4bhbh2rcd13ifvqeqg","pricing_plan_id":"cebpf4jnsgd1na2vs0mg"},{"bike_id":"7d59f1f1-2621-4853-91a8-34ee2eea3bf8","system_id":"levelo_inurba_marseille","lat":43.24401,"lon":5.37073,"is_reserved":false,"is_disabled":false,"rental_uris":{"android":"levelo://app?vid=7d59f1f1-2621-4853-91a8-34ee2eea3bf8","ios":"levelo://app?vid=7d59f1f1-2621-4853-91a8-34ee2eea3bf8"},"vehicle_type_id":"4","last_reported":1770634015,"current_range_meters":8400,"station_id":"ce4bhhh2rcd13ifvqfk0","pricing_plan_id":"cebpf4jnsgd1na2vs0mg"},{"bike_id":"c494ea00-8657-431c-b02a-5c614eac3be3","system_id":"levelo_inurba_marseille","lat":43.2857,"lon":5.39504,"is_reserved":false,"is_disabled":false,"rental_uris":{"android":"levelo://app?vid=c494ea00-8657-431c-b02a-5c614eac3be3","ios":"levelo://app?vid=c494ea00-8657-431c-b02a-5c614eac3be3"},"vehicle_type_id":"4","last_reported":1770634015,"current_range_meters":8400,"station_id":"ce4bh292rcd13ifvqdg0","pricing_plan_id":"cebpf4jnsgd1na2vs0mg"},{"bike_id":"db2e5c22-9f82-4c32-b356-f06e3f0ce6ed","system_id":"levelo_inurba_marseille","lat":43.2408,"lon":5.37708,"is_reserved":false,"is_disabled":false,"rental_uris":{"android":"levelo://app?vid=db2e5c22-9f82-4c32-b356-f06e3f0ce6ed","ios":"levelo://app?vid=db2e5c22-9f82-4c32-b356-f06e3f0ce6ed"},"vehicle_type_id":"4","last_reported":1770634015,"current_range_meters":8400,"station_id":"ce4bhnp2rcd13ifvqgvg","pricing_plan_id":"cebpf4jnsgd1na2vs0mg"},{"bike_id":"fe6f8294-65ba-45f1-a4f6-c1ee0f12ef18","system_id":"levelo_inurba_marseille","lat":43.22574,"lon":5.41622,"is_reserved":false,"is_disabled":false,"rental_uris":{"android":"levelo://app?vid=fe6f8294-65ba-45f1-a4f6-c1ee0f12ef18","ios":"levelo://app?vid=fe6f8294-65ba-45f1-a4f6-c1ee0f12ef18"},"vehicle_type_id":"4","last_reported":1770634015,"current_range_meters":8400,"station_id":"st_d2o4gvlbi1j2169b742g","pricing_plan_id":"cebpf4jnsgd1na2vs0mg"},{"bike_id":"f1a9e62c-bfe0-42e4-ab84-82eb9e1c47d6","system_id":"levelo_inurba_marseille","lat":43.267,"lon":5.38259,"is_reserved":false,"is_disabled":false,"rental_uris":{"android":"levelo://app?vid=f1a9e62c-bfe0-42e4-ab84-82eb9e1c47d6","ios":"levelo://app?vid=f1a9e62c-bfe0-42e4-ab84-82eb9e1c47d6"},"vehicle_type_id":"4","last_reported":1770634015,"current_range_meters":8400,"station_id":"ce4bhg92rcd13ifvqf90","pricing_plan_id":"cebpf4jnsgd1na2vs0mg"},{"bike_id":"fe572b1e-12c8-4d03-a152-0918528b3927","system_id":"levelo_inurba_marseille","lat":43.2925,"lon":5.38446,"is_reserved":false,"is_disabled":false,"rental_uris":{"android":"levelo://app?vid=fe572b1e-12c8-4d03-a152-0918528b3927","ios":"levelo://app?vid=fe572b1e-12c8-4d03-a152-0918528b3927"},"vehicle_type_id":"4","last_reported":1770634015,"current_range_meters":8400,"station_id":"ce4bh692rcd13ifvqea0","pricing_plan_id":"cebpf4jnsgd1na2vs0mg"},{"bike_id":"15b58f47-748f-41df-af35-c90ad9f44241","system_id":"levelo_inurba_marseille","lat":43.31385,"lon":5.36611,"is_reserved":false,"is_disabled":false,"rental_uris":{"android":"levelo://app?vid=15b58f47-748f-41df-af35-c90ad9f44241","ios":"levelo://app?vid=15b58f47-748f-41df-af35-c90ad9f44241"},"vehicle_type_id":"4","last_reported":1770634015,"current_range_meters":8400,"station_id":"","pricing_plan_id":"cebpf4jnsgd1na2vs0mg"},{"bike_id":"73320306-7966-4f19-87ef-d184d89d1baf","system_id":"levelo_inurba_marseille","lat":43.27314,"lon":5.39086,"is_reserved":false,"is_disabled":false,"rental_uris":{"android":"levelo://app?vid=73320306-7966-4f19-87ef-d184d89d1baf","ios":"levelo://app?vid=73320306-7966-4f19-87ef-d184d89d1baf"},"vehicle_type_id":"4","last_reported":1770634015,"current_range_meters":8400,"station_id":"ce4bhgp2rcd13ifvqfe0","pricing_plan_id":"cebpf4jnsgd1na2vs0mg"},{"bike_id":"ce0cecbe-8c0b-481c-b282-21c339b01f5d","system_id":"levelo_inurba_marseille","lat":43.240738,"lon":5.377623,"is_reserved":false,"is_disabled":false,"rental_uris":{"android":"levelo://app?vid=ce0cecbe-8c0b-481c-b282-21c339b01f5d","ios":"levelo://app?vid=ce0cecbe-8c0b-481c-b282-21c339b01f5d"},"vehicle_type_id":"4","last_reported":1770634015,"current_range_meters":8400,"station_id":"ce4bhnp2rcd13ifvqgvg","pricing_plan_id":"cebpf4jnsgd1na2vs0mg"},{"bike_id":"a6ac5bf6-fd73-4284-9bef-ae3d5e3079de","system_id":"levelo_inurba_marseille","lat":43.240744,"lon":5.377609,"is_reserved":false,"is_disabled":false,"rental_uris":{"android":"levelo://app?vid=a6ac5bf6-fd73-4284-9bef-ae3d5e3079de","ios":"levelo://app?vid=a6ac5bf6-fd73-4284-9bef-ae3d5e3079de"},"vehicle_type_id":"4","last_reported":1770634015,"current_range_meters":8400,"station_id":"ce4bhnp2rcd13ifvqgvg","pricing_plan_id":"cebpf4jnsgd1na2vs0mg"},{"bike_id":"caf1dcac-fc86-4d80-b5eb-bd2c680959d3","system_id":"levelo_inurba_marseille","lat":43.25332,"lon":5.42158,"is_reserved":false,"is_disabled":false,"rental_uris":{"android":"levelo://app?vid=caf1dcac-fc86-4d80-b5eb-bd2c680959d3","ios":"levelo://app?vid=caf1dcac-fc86-4d80-b5eb-bd2c680959d3"},"vehicle_type_id":"4","last_reported":1770634015,"current_range_meters":8400,"station_id":"st_d2m65c5bi1j21697t3ng","pricing_plan_id":"cebpf4jnsgd1na2vs0mg"},{"bike_id":"91fdd7ab-d339-4963-8616-9757378509a7","system_id":"levelo_inurba_marseille","lat":43.28611,"lon":5.37091,"is_reserved":false,"is_disabled":false,"rental_uris":{"android":"levelo://app?vid=91fdd7ab-d339-4963-8616-9757378509a7","ios":"levelo://app?vid=91fdd7ab-d339-4963-8616-9757378509a7"},"vehicle_type_id":"4","last_reported":1770634015,"current_range_meters":8400,"station_id":"ce4bht12rcd13ifvqi60","pricing_plan_id":"cebpf4jnsgd1na2vs0mg"},{"bike_id":"a36b6f8e-e657-434c-ae48-b869c309949f","system_id":"levelo_inurba_marseille","lat":43.28568,"lon":5.395,"is_reserved":false,"is_disabled":true,"rental_uris":{"android":"levelo://app?vid=a36b6f8e-e657-434c-ae48-b869c309949f","ios":"levelo://app?vid=a36b6f8e-e657-434c-ae48-b869c309949f"},"vehicle_type_id":"4","last_reported":1770634015,"current_range_meters":8400,"station_id":"ce4bh292rcd13ifvqdg0","pricing_plan_id":"cebpf4jnsgd1na2vs0mg"},{"bike_id":"8e06dce6-30b1-48b6-bf88-0747565090f3","system_id":"levelo_inurba_marseille","lat":43.255818,"lon":5.382251,"is_reserved":false,"is_disabled":false,"rental_uris":{"android":"levelo://app?vid=8e06dce6-30b1-48b6-bf88-0747565090f3","ios":"levelo://app?vid=8e06dce6-30b1-48b6-bf88-0747565090f3"},"vehicle_type_id":"4","last_reported":1770634015,"current_range_meters":8400,"station_id":"ce4bhih2rcd13ifvqfs0","pricing_plan_id":"cebpf4jnsgd1na2vs0mg"},{"bike_id":"45fe5c03-5616-4b74-b335-2f4a37f2be98","system_id":"levelo_inurba_marseille","lat":43.2796,"lon":5.38694,"is_reserved":false,"is_disabled":false,"rental_uris":{"android":"levelo://app?vid=45fe5c03-5616-4b74-b335-2f4a37f2be98","ios":"levelo://app?vid=45fe5c03-5616-4b74-b335-2f4a37f2be98"},"vehicle_type_id":"4","last_reported":1770634015,"current_range_meters":8400,"station_id":"ce4bhg12rcd13ifvqf80","pricing_plan_id":"cebpf4jnsgd1na2vs0mg"},{"bike_id":"40ca09fe-7866-480e-ac60-f7b7f539bb36","system_id":"levelo_inurba_marseille","lat":43.2339,"lon":5.41249,"is_reserved":false,"is_disabled":false,"rental_uris":{"android":"levelo://app?vid=40ca09fe-7866-480e-ac60-f7b7f539bb36","ios":"levelo://app?vid=40ca09fe-7866-480e-ac60-f7b7f539bb36"},"vehicle_type_id":"4","last_reported":1770634015,"current_range_meters":8400,"station_id":"","pricing_plan_id":"cebpf4jnsgd1na2vs0mg"},{"bike_id":"eb7b89f2-b5c9-4236-bac4-e69244d87b10","system_id":"levelo_inurba_marseille","lat":43.25011,"lon":5.38917,"is_reserved":false,"is_disabled":false,"rental_uris":{"android":"levelo://app?vid=eb7b89f2-b5c9-4236-bac4-e69244d87b10","ios":"levelo://app?vid=eb7b89f2-b5c9-4236-bac4-e69244d87b10"},"vehicle_type_id":"4","last_reported":1770634015,"current_range_meters":8400,"station_id":"ce4bhgp2rcd13ifvqfd0","pricing_plan_id":"cebpf4jnsgd1na2vs0mg"},{"bike_id":"08123ffd-cf54-4fca-b606-094403526111","system_id":"levelo_inurba_marseille","lat":43.27994,"lon":5.40018,"is_reserved":false,"is_disabled":false,"rental_uris":{"android":"levelo://app?vid=08123ffd-cf54-4fca-b606-094403526111","ios":"levelo://app?vid=08123ffd-cf54-4fca-b606-094403526111"},"vehicle_type_id":"4","last_reported":1770634015,"current_range_meters":8800,"station_id":"ce4bho92rcd13ifvqh4g","pricing_plan_id":"cebpf4jnsgd1na2vs0mg"},{"bike_id":"54bd52e6-912c-41e4-90a6-85e5c05a7d3d","system_id":"levelo_inurba_marseille","lat":43.22576,"lon":5.41627,"is_reserved":false,"is_disabled":false,"rental_uris":{"android":"levelo://app?vid=54bd52e6-912c-41e4-90a6-85e5c05a7d3d","ios":"levelo://app?vid=54bd52e6-912c-41e4-90a6-85e5c05a7d3d"},"vehicle_type_id":"4","last_reported":1770634015,"current_range_meters":8800,"station_id":"st_d2o4gvlbi1j2169b742g","pricing_plan_id":"cebpf4jnsgd1na2vs0mg"},{"bike_id":"8fb04c3b-a8ab-4065-ad23-c60c7dfc0177","system_id":"levelo_inurba_marseille","lat":43.295529,"lon":5.374903,"is_reserved":false,"is_disabled":false,"rental_uris":{"android":"levelo://app?vid=8fb04c3b-a8ab-4065-ad23-c60c7dfc0177","ios":"levelo://app?vid=8fb04c3b-a8ab-4065-ad23-c60c7dfc0177"},"vehicle_type_id":"4","last_reported":1770634015,"current_range_meters":8800,"station_id":"ce4bgkp2rcd13ifvqbmg","pricing_plan_id":"cebpf4jnsgd1na2vs0mg"},{"bike_id":"f2a253d3-2594-49d5-b6c5-19ac15981ee9","system_id":"levelo_inurba_marseille","lat":43.279377,"lon":5.410489,"is_reserved":false,"is_disabled":false,"rental_uris":{"android":"levelo://app?vid=f2a253d3-2594-49d5-b6c5-19ac15981ee9","ios":"levelo://app?vid=f2a253d3-2594-49d5-b6c5-19ac15981ee9"},"vehicle_type_id":"4","last_reported":1770634015,"current_range_meters":8800,"station_id":"ce4bhnp2rcd13ifvqh0g","pricing_plan_id":"cebpf4jnsgd1na2vs0mg"},{"bike_id":"fd158031-c8ec-435b-b315-8360533800f5","system_id":"levelo_inurba_marseille","lat":43.26242,"lon":5.40444,"is_reserved":false,"is_disabled":true,"rental_uris":{"android":"levelo://app?vid=fd158031-c8ec-435b-b315-8360533800f5","ios":"levelo://app?vid=fd158031-c8ec-435b-b315-8360533800f5"},"vehicle_type_id":"4","last_reported":1770634015,"current_range_meters":8800,"station_id":"ce4bhmh2rcd13ifvqgmg","pricing_plan_id":"cebpf4jnsgd1na2vs0mg"},{"bike_id":"a07cd24c-7e73-437e-917a-60bdbc1072fc","system_id":"levelo_inurba_marseille","lat":43.24414,"lon":5.37066,"is_reserved":false,"is_disabled":false,"rental_uris":{"android":"levelo://app?vid=a07cd24c-7e73-437e-917a-60bdbc1072fc","ios":"levelo://app?vid=a07cd24c-7e73-437e-917a-60bdbc1072fc"},"vehicle_type_id":"4","last_reported":1770634015,"current_range_meters":8800,"station_id":"ce4bhhh2rcd13ifvqfk0","pricing_plan_id":"cebpf4jnsgd1na2vs0mg"},{"bike_id":"f23a5ea8-cccd-472e-abcc-91e4bbd449a7","system_id":"levelo_inurba_marseille","lat":43.30313,"lon":5.36918,"is_reserved":false,"is_disabled":true,"rental_uris":{"android":"levelo://app?vid=f23a5ea8-cccd-472e-abcc-91e4bbd449a7","ios":"levelo://app?vid=f23a5ea8-cccd-472e-abcc-91e4bbd449a7"},"vehicle_type_id":"4","last_reported":1770634015,"current_range_meters":8800,"station_id":"ce4bgqh2rcd13ifvqc5g","pricing_plan_id":"cebpf4jnsgd1na2vs0mg"},{"bike_id":"8d65ea59-159e-4e8e-8acb-244f43059bc9","system_id":"levelo_inurba_marseille","lat":43.24161,"lon":5.36408,"is_reserved":false,"is_disabled":false,"rental_uris":{"android":"levelo://app?vid=8d65ea59-159e-4e8e-8acb-244f43059bc9","ios":"levelo://app?vid=8d65ea59-159e-4e8e-8acb-244f43059bc9"},"vehicle_type_id":"4","last_reported":1770634015,"current_range_meters":8800,"station_id":"cpo36qri1sfpv3e86is0","pricing_plan_id":"cebpf4jnsgd1na2vs0mg"},{"bike_id":"d917330e-8029-461a-95c3-ed551a62a88f","system_id":"levelo_inurba_marseille","lat":43.2256,"lon":5.41633,"is_reserved":false,"is_disabled":false,"rental_uris":{"android":"levelo://app?vid=d917330e-8029-461a-95c3-ed551a62a88f","ios":"levelo://app?vid=d917330e-8029-461a-95c3-ed551a62a88f"},"vehicle_type_id":"4","last_reported":1770634015,"current_range_meters":8800,"station_id":"st_d2o4gvlbi1j2169b742g","pricing_plan_id":"cebpf4jnsgd1na2vs0mg"},{"bike_id":"83062ade-c076-467d-b125-720c7e101dca","system_id":"levelo_inurba_marseille","lat":43.2963,"lon":5.37745,"is_reserved":false,"is_disabled":true,"rental_uris":{"android":"levelo://app?vid=83062ade-c076-467d-b125-720c7e101dca","ios":"levelo://app?vid=83062ade-c076-467d-b125-720c7e101dca"},"vehicle_type_id":"4","last_reported":1770634015,"current_range_meters":8800,"station_id":"ce4bgi92rcd13ifvqb90","pricing_plan_id":"cebpf4jnsgd1na2vs0mg"},{"bike_id":"5f8199e3-96b8-4f8c-bc87-d14e0794b6c0","system_id":"levelo_inurba_marseille","lat":43.28474,"lon":5.38419,"is_reserved":false,"is_disabled":false,"rental_uris":{"android":"levelo://app?vid=5f8199e3-96b8-4f8c-bc87-d14e0794b6c0","ios":"levelo://app?vid=5f8199e3-96b8-4f8c-bc87-d14e0794b6c0"},"vehicle_type_id":"4","last_reported":1770634015,"current_range_meters":8800,"station_id":"ce4bh512rcd13ifvqe3g","pricing_plan_id":"cebpf4jnsgd1na2vs0mg"},{"bike_id":"b1429378-b93e-4184-b373-85f0415c9919","system_id":"levelo_inurba_marseille","lat":43.24639,"lon":5.43154,"is_reserved":false,"is_disabled":false,"rental_uris":{"android":"levelo://app?vid=b1429378-b93e-4184-b373-85f0415c9919","ios":"levelo://app?vid=b1429378-b93e-4184-b373-85f0415c9919"},"vehicle_type_id":"4","last_reported":1770634015,"current_range_meters":8800,"station_id":"st_d2m6c4gdas8pm72e190g","pricing_plan_id":"cebpf4jnsgd1na2vs0mg"},{"bike_id":"8f91f29e-0897-43d8-a3cf-8b8240b92337","system_id":"levelo_inurba_marseille","lat":43.299041,"lon":5.436612,"is_reserved":false,"is_disabled":false,"rental_uris":{"android":"levelo://app?vid=8f91f29e-0897-43d8-a3cf-8b8240b92337","ios":"levelo://app?vid=8f91f29e-0897-43d8-a3cf-8b8240b92337"},"vehicle_type_id":"4","last_reported":1770634015,"current_range_meters":8800,"station_id":"ce4bhpp2rcd13ifvqhfg","pricing_plan_id":"cebpf4jnsgd1na2vs0mg"},{"bike_id":"e2c3118e-ecc2-476a-9be9-aafebb10c1c9","system_id":"levelo_inurba_marseille","lat":43.24625,"lon":5.43144,"is_reserved":false,"is_disabled":false,"rental_uris":{"android":"levelo://app?vid=e2c3118e-ecc2-476a-9be9-aafebb10c1c9","ios":"levelo://app?vid=e2c3118e-ecc2-476a-9be9-aafebb10c1c9"},"vehicle_type_id":"4","last_reported":1770634015,"current_range_meters":8800,"station_id":"st_d2m6c4gdas8pm72e190g","pricing_plan_id":"cebpf4jnsgd1na2vs0mg"},{"bike_id":"2cdec53d-6be2-4404-91f9-bfd63ab928a6","system_id":"levelo_inurba_marseille","lat":43.255762,"lon":5.382404,"is_reserved":false,"is_disabled":false,"rental_uris":{"android":"levelo://app?vid=2cdec53d-6be2-4404-91f9-bfd63ab928a6","ios":"levelo://app?vid=2cdec53d-6be2-4404-91f9-bfd63ab928a6"},"vehicle_type_id":"4","last_reported":1770634015,"current_range_meters":8800,"station_id":"ce4bhih2rcd13ifvqfs0","pricing_plan_id":"cebpf4jnsgd1na2vs0mg"},{"bike_id":"e20506fc-81c8-45aa-af10-6b0aa01b93ce","system_id":"levelo_inurba_marseille","lat":43.25579,"lon":5.38245,"is_reserved":false,"is_disabled":false,"rental_uris":{"android":"levelo://app?vid=e20506fc-81c8-45aa-af10-6b0aa01b93ce","ios":"levelo://app?vid=e20506fc-81c8-45aa-af10-6b0aa01b93ce"},"vehicle_type_id":"4","last_reported":1770634015,"current_range_meters":8800,"station_id":"ce4bhih2rcd13ifvqfs0","pricing_plan_id":"cebpf4jnsgd1na2vs0mg"},{"bike_id":"97baf141-ab6b-4a08-bebe-b0f0b4c42187","system_id":"levelo_inurba_marseille","lat":43.24161,"lon":5.36409,"is_reserved":false,"is_disabled":false,"rental_uris":{"android":"levelo://app?vid=97baf141-ab6b-4a08-bebe-b0f0b4c42187","ios":"levelo://app?vid=97baf141-ab6b-4a08-bebe-b0f0b4c42187"},"vehicle_type_id":"4","last_reported":1770634015,"current_range_meters":8800,"station_id":"cpo36qri1sfpv3e86is0","pricing_plan_id":"cebpf4jnsgd1na2vs0mg"},{"bike_id":"6e79fd0f-9e8e-4459-8240-57d4fd86c647","system_id":"levelo_inurba_marseille","lat":43.297777,"lon":5.381333,"is_reserved":false,"is_disabled":false,"rental_uris":{"android":"levelo://app?vid=6e79fd0f-9e8e-4459-8240-57d4fd86c647","ios":"levelo://app?vid=6e79fd0f-9e8e-4459-8240-57d4fd86c647"},"vehicle_type_id":"4","last_reported":1770634015,"current_range_meters":8800,"station_id":"ce4bgip2rcd13ifvqbb0","pricing_plan_id":"cebpf4jnsgd1na2vs0mg"},{"bike_id":"b6ef09ed-d357-4465-bd2f-ee587e4263cc","system_id":"levelo_inurba_marseille","lat":43.28436,"lon":5.40998,"is_reserved":false,"is_disabled":false,"rental_uris":{"android":"levelo://app?vid=b6ef09ed-d357-4465-bd2f-ee587e4263cc","ios":"levelo://app?vid=b6ef09ed-d357-4465-bd2f-ee587e4263cc"},"vehicle_type_id":"4","last_reported":1770634015,"current_range_meters":8800,"station_id":"","pricing_plan_id":"cebpf4jnsgd1na2vs0mg"},{"bike_id":"6316a440-6079-4cd7-8710-8e12c6c0a2b7","system_id":"levelo_inurba_marseille","lat":43.29904,"lon":5.43664,"is_reserved":false,"is_disabled":false,"rental_uris":{"android":"levelo://app?vid=6316a440-6079-4cd7-8710-8e12c6c0a2b7","ios":"levelo://app?vid=6316a440-6079-4cd7-8710-8e12c6c0a2b7"},"vehicle_type_id":"4","last_reported":1770634015,"current_range_meters":8800,"station_id":"ce4bhpp2rcd13ifvqhfg","pricing_plan_id":"cebpf4jnsgd1na2vs0mg"},{"bike_id":"af109b45-02d2-41f8-be4b-42b484fd3394","system_id":"levelo_inurba_marseille","lat":43.299028,"lon":5.436751,"is_reserved":false,"is_disabled":false,"rental_uris":{"android":"levelo://app?vid=af109b45-02d2-41f8-be4b-42b484fd3394","ios":"levelo://app?vid=af109b45-02d2-41f8-be4b-42b484fd3394"},"vehicle_type_id":"4","last_reported":1770634015,"current_range_meters":8800,"station_id":"ce4bhpp2rcd13ifvqhfg","pricing_plan_id":"cebpf4jnsgd1na2vs0mg"},{"bike_id":"7a22d627-be6a-4320-af72-59f0409579a5","system_id":"levelo_inurba_marseille","lat":43.29599,"lon":5.38109,"is_reserved":false,"is_disabled":false,"rental_uris":{"android":"levelo://app?vid=7a22d627-be6a-4320-af72-59f0409579a5","ios":"levelo://app?vid=7a22d627-be6a-4320-af72-59f0409579a5"},"vehicle_type_id":"4","last_reported":1770634015,"current_range_meters":9200,"station_id":"ce4bgl12rcd13ifvqbo0","pricing_plan_id":"cebpf4jnsgd1na2vs0mg"},{"bike_id":"7750374d-5c9a-454f-b78c-169bddbed9b0","system_id":"levelo_inurba_marseille","lat":43.29579,"lon":5.36735,"is_reserved":false,"is_disabled":false,"rental_uris":{"android":"levelo://app?vid=7750374d-5c9a-454f-b78c-169bddbed9b0","ios":"levelo://app?vid=7750374d-5c9a-454f-b78c-169bddbed9b0"},"vehicle_type_id":"4","last_reported":1770634015,"current_range_meters":9200,"station_id":"ce4bgph2rcd13ifvqc2g","pricing_plan_id":"cebpf4jnsgd1na2vs0mg"},{"bike_id":"654a8c69-e34e-48fa-b792-a1983317de36","system_id":"levelo_inurba_marseille","lat":43.28468,"lon":5.48419,"is_reserved":false,"is_disabled":false,"rental_uris":{"android":"levelo://app?vid=654a8c69-e34e-48fa-b792-a1983317de36","ios":"levelo://app?vid=654a8c69-e34e-48fa-b792-a1983317de36"},"vehicle_type_id":"4","last_reported":1770634015,"current_range_meters":9200,"station_id":"","pricing_plan_id":"cebpf4jnsgd1na2vs0mg"},{"bike_id":"0d435044-39b2-4402-857a-610b31675306","system_id":"levelo_inurba_marseille","lat":43.31093,"lon":5.37448,"is_reserved":false,"is_disabled":true,"rental_uris":{"android":"levelo://app?vid=0d435044-39b2-4402-857a-610b31675306","ios":"levelo://app?vid=0d435044-39b2-4402-857a-610b31675306"},"vehicle_type_id":"4","last_reported":1770634015,"current_range_meters":9200,"station_id":"","pricing_plan_id":"cebpf4jnsgd1na2vs0mg"},{"bike_id":"36ac8fb1-1e6b-4c04-8e8e-9441a471d5f6","system_id":"levelo_inurba_marseille","lat":43.28482,"lon":5.48396,"is_reserved":false,"is_disabled":false,"rental_uris":{"android":"levelo://app?vid=36ac8fb1-1e6b-4c04-8e8e-9441a471d5f6","ios":"levelo://app?vid=36ac8fb1-1e6b-4c04-8e8e-9441a471d5f6"},"vehicle_type_id":"4","last_reported":1770634015,"current_range_meters":9200,"station_id":"","pricing_plan_id":"cebpf4jnsgd1na2vs0mg"},{"bike_id":"d90864a0-3e39-4d6f-a6b9-5dcbde7b93cd","system_id":"levelo_inurba_marseille","lat":43.33161,"lon":5.37679,"is_reserved":false,"is_disabled":false,"rental_uris":{"android":"levelo://app?vid=d90864a0-3e39-4d6f-a6b9-5dcbde7b93cd","ios":"levelo://app?vid=d90864a0-3e39-4d6f-a6b9-5dcbde7b93cd"},"vehicle_type_id":"4","last_reported":1770634015,"current_range_meters":9200,"station_id":"st_d46cu089ee8s73dldbu0","pricing_plan_id":"cebpf4jnsgd1na2vs0mg"},{"bike_id":"738ace95-69b5-422f-91a8-940bb61d6675","system_id":"levelo_inurba_marseille","lat":43.32104,"lon":5.36795,"is_reserved":false,"is_disabled":false,"rental_uris":{"android":"levelo://app?vid=738ace95-69b5-422f-91a8-940bb61d6675","ios":"levelo://app?vid=738ace95-69b5-422f-91a8-940bb61d6675"},"vehicle_type_id":"4","last_reported":1770634015,"current_range_meters":9200,"station_id":"ce4bhrh2rcd13ifvqhug","pricing_plan_id":"cebpf4jnsgd1na2vs0mg"},{"bike_id":"a4490e7a-8d6e-4f72-9d9b-ac98f4393ed9","system_id":"levelo_inurba_marseille","lat":43.26546,"lon":5.39023,"is_reserved":false,"is_disabled":false,"rental_uris":{"android":"levelo://app?vid=a4490e7a-8d6e-4f72-9d9b-ac98f4393ed9","ios":"levelo://app?vid=a4490e7a-8d6e-4f72-9d9b-ac98f4393ed9"},"vehicle_type_id":"4","last_reported":1770634015,"current_range_meters":9200,"station_id":"ce4bhe12rcd13ifvqf30","pricing_plan_id":"cebpf4jnsgd1na2vs0mg"},{"bike_id":"f8c8c74c-aee3-4b52-a42f-cddfe270a480","system_id":"levelo_inurba_marseille","lat":43.25712,"lon":5.41113,"is_reserved":false,"is_disabled":false,"rental_uris":{"android":"levelo://app?vid=f8c8c74c-aee3-4b52-a42f-cddfe270a480","ios":"levelo://app?vid=f8c8c74c-aee3-4b52-a42f-cddfe270a480"},"vehicle_type_id":"4","last_reported":1770634015,"current_range_meters":9200,"station_id":"ce4bhkp2rcd13ifvqgd0","pricing_plan_id":"cebpf4jnsgd1na2vs0mg"},{"bike_id":"ab2f3432-4c0e-4e17-b057-2c32757d53e2","system_id":"levelo_inurba_marseille","lat":43.244732,"lon":5.425388,"is_reserved":false,"is_disabled":false,"rental_uris":{"android":"levelo://app?vid=ab2f3432-4c0e-4e17-b057-2c32757d53e2","ios":"levelo://app?vid=ab2f3432-4c0e-4e17-b057-2c32757d53e2"},"vehicle_type_id":"4","last_reported":1770634015,"current_range_meters":9200,"station_id":"st_d4a3vfp97mjs738cd8kg","pricing_plan_id":"cebpf4jnsgd1na2vs0mg"},{"bike_id":"b7d0e6f7-718b-4613-940f-bbad03bea246","system_id":"levelo_inurba_marseille","lat":43.29264,"lon":5.36838,"is_reserved":false,"is_disabled":false,"rental_uris":{"android":"levelo://app?vid=b7d0e6f7-718b-4613-940f-bbad03bea246","ios":"levelo://app?vid=b7d0e6f7-718b-4613-940f-bbad03bea246"},"vehicle_type_id":"4","last_reported":1770634015,"current_range_meters":9200,"station_id":"ce4bhbp2rcd13ifvqesg","pricing_plan_id":"cebpf4jnsgd1na2vs0mg"},{"bike_id":"e60a504d-2633-407b-ab82-e9486a72275e","system_id":"levelo_inurba_marseille","lat":43.30831,"lon":5.37401,"is_reserved":false,"is_disabled":false,"rental_uris":{"android":"levelo://app?vid=e60a504d-2633-407b-ab82-e9486a72275e","ios":"levelo://app?vid=e60a504d-2633-407b-ab82-e9486a72275e"},"vehicle_type_id":"4","last_reported":1770634015,"current_range_meters":9200,"station_id":"","pricing_plan_id":"cebpf4jnsgd1na2vs0mg"},{"bike_id":"712c14bb-f088-4288-9a63-2b8aff05f032","system_id":"levelo_inurba_marseille","lat":43.29097,"lon":5.38128,"is_reserved":false,"is_disabled":false,"rental_uris":{"android":"levelo://app?vid=712c14bb-f088-4288-9a63-2b8aff05f032","ios":"levelo://app?vid=712c14bb-f088-4288-9a63-2b8aff05f032"},"vehicle_type_id":"4","last_reported":1770634015,"current_range_meters":9200,"station_id":"ce4bh512rcd13ifvqe2g","pricing_plan_id":"cebpf4jnsgd1na2vs0mg"},{"bike_id":"98fe643a-2789-4fb0-9cb9-57bbe23f949f","system_id":"levelo_inurba_marseille","lat":43.284763,"lon":5.483961,"is_reserved":false,"is_disabled":false,"rental_uris":{"android":"levelo://app?vid=98fe643a-2789-4fb0-9cb9-57bbe23f949f","ios":"levelo://app?vid=98fe643a-2789-4fb0-9cb9-57bbe23f949f"},"vehicle_type_id":"4","last_reported":1770634015,"current_range_meters":9200,"station_id":"st_d3svhcjqgbts73a3dn0g","pricing_plan_id":"cebpf4jnsgd1na2vs0mg"},{"bike_id":"9ea94610-2776-4012-8e86-4e06f9c62206","system_id":"levelo_inurba_marseille","lat":43.3105,"lon":5.3717,"is_reserved":false,"is_disabled":false,"rental_uris":{"android":"levelo://app?vid=9ea94610-2776-4012-8e86-4e06f9c62206","ios":"levelo://app?vid=9ea94610-2776-4012-8e86-4e06f9c62206"},"vehicle_type_id":"4","last_reported":1770634015,"current_range_meters":9200,"station_id":"st_d4kl2rp97mjs73e7tdfg","pricing_plan_id":"cebpf4jnsgd1na2vs0mg"},{"bike_id":"4240880d-88bf-48aa-91ea-700e773e4fa1","system_id":"levelo_inurba_marseille","lat":43.2557,"lon":5.38239,"is_reserved":false,"is_disabled":false,"rental_uris":{"android":"levelo://app?vid=4240880d-88bf-48aa-91ea-700e773e4fa1","ios":"levelo://app?vid=4240880d-88bf-48aa-91ea-700e773e4fa1"},"vehicle_type_id":"4","last_reported":1770634015,"current_range_meters":9600,"station_id":"ce4bhih2rcd13ifvqfs0","pricing_plan_id":"cebpf4jnsgd1na2vs0mg"},{"bike_id":"54368038-1aa5-4bac-a318-02c8e4c449fa","system_id":"levelo_inurba_marseille","lat":43.23159,"lon":5.43697,"is_reserved":false,"is_disabled":false,"rental_uris":{"android":"levelo://app?vid=54368038-1aa5-4bac-a318-02c8e4c449fa","ios":"levelo://app?vid=54368038-1aa5-4bac-a318-02c8e4c449fa"},"vehicle_type_id":"4","last_reported":1770634015,"current_range_meters":9600,"station_id":"ce4bhmp2rcd13ifvqgog","pricing_plan_id":"cebpf4jnsgd1na2vs0mg"},{"bike_id":"04566f04-5f37-4847-8fd9-aad36a20879f","system_id":"levelo_inurba_marseille","lat":43.28947,"lon":5.39637,"is_reserved":false,"is_disabled":false,"rental_uris":{"android":"levelo://app?vid=04566f04-5f37-4847-8fd9-aad36a20879f","ios":"levelo://app?vid=04566f04-5f37-4847-8fd9-aad36a20879f"},"vehicle_type_id":"4","last_reported":1770634015,"current_range_meters":9600,"station_id":"ce4bh3h2rcd13ifvqdn0","pricing_plan_id":"cebpf4jnsgd1na2vs0mg"},{"bike_id":"cf60cc3b-e0ae-4fed-9dce-60af07927064","system_id":"levelo_inurba_marseille","lat":43.29628,"lon":5.37717,"is_reserved":false,"is_disabled":false,"rental_uris":{"android":"levelo://app?vid=cf60cc3b-e0ae-4fed-9dce-60af07927064","ios":"levelo://app?vid=cf60cc3b-e0ae-4fed-9dce-60af07927064"},"vehicle_type_id":"4","last_reported":1770634015,"current_range_meters":9600,"station_id":"ce4bgi92rcd13ifvqb90","pricing_plan_id":"cebpf4jnsgd1na2vs0mg"},{"bike_id":"022a5c3b-bd1b-4970-bf8c-b0fc57d86d12","system_id":"levelo_inurba_marseille","lat":43.26688,"lon":5.38276,"is_reserved":false,"is_disabled":false,"rental_uris":{"android":"levelo://app?vid=022a5c3b-bd1b-4970-bf8c-b0fc57d86d12","ios":"levelo://app?vid=022a5c3b-bd1b-4970-bf8c-b0fc57d86d12"},"vehicle_type_id":"4","last_reported":1770634015,"current_range_meters":9600,"station_id":"ce4bhg92rcd13ifvqf90","pricing_plan_id":"cebpf4jnsgd1na2vs0mg"},{"bike_id":"05d628e9-781f-4f77-a9a7-087d759ed084","system_id":"levelo_inurba_marseille","lat":43.22945,"lon":5.35377,"is_reserved":false,"is_disabled":false,"rental_uris":{"android":"levelo://app?vid=05d628e9-781f-4f77-a9a7-087d759ed084","ios":"levelo://app?vid=05d628e9-781f-4f77-a9a7-087d759ed084"},"vehicle_type_id":"4","last_reported":1770634015,"current_range_meters":9600,"station_id":"cpo3532slgdg3j2ikp40","pricing_plan_id":"cebpf4jnsgd1na2vs0mg"},{"bike_id":"259eb163-286b-41f2-bfa5-dc66d1571623","system_id":"levelo_inurba_marseille","lat":43.305374,"lon":5.365434,"is_reserved":false,"is_disabled":false,"rental_uris":{"android":"levelo://app?vid=259eb163-286b-41f2-bfa5-dc66d1571623","ios":"levelo://app?vid=259eb163-286b-41f2-bfa5-dc66d1571623"},"vehicle_type_id":"4","last_reported":1770634015,"current_range_meters":9600,"station_id":"ce4bgs12rcd13ifvqcag","pricing_plan_id":"cebpf4jnsgd1na2vs0mg"},{"bike_id":"8789a082-40b6-4b48-a7ba-4195da8e2f77","system_id":"levelo_inurba_marseille","lat":43.23156,"lon":5.43714,"is_reserved":false,"is_disabled":false,"rental_uris":{"android":"levelo://app?vid=8789a082-40b6-4b48-a7ba-4195da8e2f77","ios":"levelo://app?vid=8789a082-40b6-4b48-a7ba-4195da8e2f77"},"vehicle_type_id":"4","last_reported":1770634015,"current_range_meters":9600,"station_id":"ce4bhmp2rcd13ifvqgog","pricing_plan_id":"cebpf4jnsgd1na2vs0mg"},{"bike_id":"3b5567a6-efa3-498b-ad01-b9c12c6390c4","system_id":"levelo_inurba_marseille","lat":43.31697,"lon":5.42414,"is_reserved":false,"is_disabled":false,"rental_uris":{"android":"levelo://app?vid=3b5567a6-efa3-498b-ad01-b9c12c6390c4","ios":"levelo://app?vid=3b5567a6-efa3-498b-ad01-b9c12c6390c4"},"vehicle_type_id":"4","last_reported":1770634015,"current_range_meters":9600,"station_id":"ce4bhp92rcd13ifvqhbg","pricing_plan_id":"cebpf4jnsgd1na2vs0mg"},{"bike_id":"88f0075a-4fe2-4763-bf2c-585ea83a418b","system_id":"levelo_inurba_marseille","lat":43.23156,"lon":5.43693,"is_reserved":false,"is_disabled":false,"rental_uris":{"android":"levelo://app?vid=88f0075a-4fe2-4763-bf2c-585ea83a418b","ios":"levelo://app?vid=88f0075a-4fe2-4763-bf2c-585ea83a418b"},"vehicle_type_id":"4","last_reported":1770634015,"current_range_meters":9600,"station_id":"ce4bhmp2rcd13ifvqgog","pricing_plan_id":"cebpf4jnsgd1na2vs0mg"},{"bike_id":"4ad688a0-b50a-4727-94f8-e49897c44a8a","system_id":"levelo_inurba_marseille","lat":43.28479,"lon":5.38565,"is_reserved":false,"is_disabled":false,"rental_uris":{"android":"levelo://app?vid=4ad688a0-b50a-4727-94f8-e49897c44a8a","ios":"levelo://app?vid=4ad688a0-b50a-4727-94f8-e49897c44a8a"},"vehicle_type_id":"4","last_reported":1770634015,"current_range_meters":9600,"station_id":"ce4bh8p2rcd13ifvqeb0","pricing_plan_id":"cebpf4jnsgd1na2vs0mg"},{"bike_id":"0ce7b4c2-2b0b-4cd4-abef-9a2969948b92","system_id":"levelo_inurba_marseille","lat":43.25113,"lon":5.40314,"is_reserved":false,"is_disabled":false,"rental_uris":{"android":"levelo://app?vid=0ce7b4c2-2b0b-4cd4-abef-9a2969948b92","ios":"levelo://app?vid=0ce7b4c2-2b0b-4cd4-abef-9a2969948b92"},"vehicle_type_id":"4","last_reported":1770634015,"current_range_meters":9600,"station_id":"ce4bhlh2rcd13ifvqgig","pricing_plan_id":"cebpf4jnsgd1na2vs0mg"},{"bike_id":"4897c4ec-e698-4aca-9b35-e9523f667dcc","system_id":"levelo_inurba_marseille","lat":43.30136,"lon":5.38084,"is_reserved":false,"is_disabled":false,"rental_uris":{"android":"levelo://app?vid=4897c4ec-e698-4aca-9b35-e9523f667dcc","ios":"levelo://app?vid=4897c4ec-e698-4aca-9b35-e9523f667dcc"},"vehicle_type_id":"4","last_reported":1770634015,"current_range_meters":9600,"station_id":"ce4bgjp2rcd13ifvqbh0","pricing_plan_id":"cebpf4jnsgd1na2vs0mg"},{"bike_id":"30513758-c61b-4fc7-a14e-4781c9806bbc","system_id":"levelo_inurba_marseille","lat":43.31716,"lon":5.42404,"is_reserved":false,"is_disabled":false,"rental_uris":{"android":"levelo://app?vid=30513758-c61b-4fc7-a14e-4781c9806bbc","ios":"levelo://app?vid=30513758-c61b-4fc7-a14e-4781c9806bbc"},"vehicle_type_id":"4","last_reported":1770634015,"current_range_meters":9600,"station_id":"ce4bhp92rcd13ifvqhbg","pricing_plan_id":"cebpf4jnsgd1na2vs0mg"},{"bike_id":"f7e19dd1-0952-4cdb-9c24-4334f293ec1f","system_id":"levelo_inurba_marseille","lat":43.31337,"lon":5.36676,"is_reserved":false,"is_disabled":false,"rental_uris":{"android":"levelo://app?vid=f7e19dd1-0952-4cdb-9c24-4334f293ec1f","ios":"levelo://app?vid=f7e19dd1-0952-4cdb-9c24-4334f293ec1f"},"vehicle_type_id":"4","last_reported":1770634015,"current_range_meters":9600,"station_id":"ce4bgr92rcd13ifvqc6g","pricing_plan_id":"cebpf4jnsgd1na2vs0mg"},{"bike_id":"a948137a-4200-4a90-ae91-35161837f029","system_id":"levelo_inurba_marseille","lat":43.30635,"lon":5.37651,"is_reserved":false,"is_disabled":false,"rental_uris":{"android":"levelo://app?vid=a948137a-4200-4a90-ae91-35161837f029","ios":"levelo://app?vid=a948137a-4200-4a90-ae91-35161837f029"},"vehicle_type_id":"4","last_reported":1770634015,"current_range_meters":9600,"station_id":"","pricing_plan_id":"cebpf4jnsgd1na2vs0mg"},{"bike_id":"bfc07130-be47-4eef-8325-e33d6610d729","system_id":"levelo_inurba_marseille","lat":43.30118,"lon":5.43108,"is_reserved":false,"is_disabled":false,"rental_uris":{"android":"levelo://app?vid=bfc07130-be47-4eef-8325-e33d6610d729","ios":"levelo://app?vid=bfc07130-be47-4eef-8325-e33d6610d729"},"vehicle_type_id":"4","last_reported":1770634015,"current_range_meters":10000,"station_id":"st_d3js3co5814s73ftftug","pricing_plan_id":"cebpf4jnsgd1na2vs0mg"},{"bike_id":"dcffb64c-9bea-40cd-a5fe-c7eeb8475cd8","system_id":"levelo_inurba_marseille","lat":43.30308,"lon":5.37686,"is_reserved":false,"is_disabled":true,"rental_uris":{"android":"levelo://app?vid=dcffb64c-9bea-40cd-a5fe-c7eeb8475cd8","ios":"levelo://app?vid=dcffb64c-9bea-40cd-a5fe-c7eeb8475cd8"},"vehicle_type_id":"4","last_reported":1770634015,"current_range_meters":10000,"station_id":"ce4bguh2rcd13ifvqcj0","pricing_plan_id":"cebpf4jnsgd1na2vs0mg"},{"bike_id":"c704a501-b920-4ba5-82ac-cf3939b9400d","system_id":"levelo_inurba_marseille","lat":43.312296,"lon":5.368711,"is_reserved":false,"is_disabled":false,"rental_uris":{"android":"levelo://app?vid=c704a501-b920-4ba5-82ac-cf3939b9400d","ios":"levelo://app?vid=c704a501-b920-4ba5-82ac-cf3939b9400d"},"vehicle_type_id":"4","last_reported":1770634015,"current_range_meters":10000,"station_id":"ce4bgl92rcd13ifvqbq0","pricing_plan_id":"cebpf4jnsgd1na2vs0mg"},{"bike_id":"652029fd-7389-40d5-a0bd-e85f7aa43d7c","system_id":"levelo_inurba_marseille","lat":43.22551,"lon":5.41655,"is_reserved":false,"is_disabled":false,"rental_uris":{"android":"levelo://app?vid=652029fd-7389-40d5-a0bd-e85f7aa43d7c","ios":"levelo://app?vid=652029fd-7389-40d5-a0bd-e85f7aa43d7c"},"vehicle_type_id":"4","last_reported":1770634015,"current_range_meters":10000,"station_id":"st_d2o4gvlbi1j2169b742g","pricing_plan_id":"cebpf4jnsgd1na2vs0mg"},{"bike_id":"ee213b40-802c-442b-9390-5e22834db5df","system_id":"levelo_inurba_marseille","lat":43.24172,"lon":5.36391,"is_reserved":false,"is_disabled":false,"rental_uris":{"android":"levelo://app?vid=ee213b40-802c-442b-9390-5e22834db5df","ios":"levelo://app?vid=ee213b40-802c-442b-9390-5e22834db5df"},"vehicle_type_id":"4","last_reported":1770634015,"current_range_meters":10000,"station_id":"cpo36qri1sfpv3e86is0","pricing_plan_id":"cebpf4jnsgd1na2vs0mg"},{"bike_id":"85dd1ff3-48fb-473b-a6b8-2f438c995677","system_id":"levelo_inurba_marseille","lat":43.29898,"lon":5.43669,"is_reserved":false,"is_disabled":false,"rental_uris":{"android":"levelo://app?vid=85dd1ff3-48fb-473b-a6b8-2f438c995677","ios":"levelo://app?vid=85dd1ff3-48fb-473b-a6b8-2f438c995677"},"vehicle_type_id":"4","last_reported":1770634015,"current_range_meters":10000,"station_id":"ce4bhpp2rcd13ifvqhfg","pricing_plan_id":"cebpf4jnsgd1na2vs0mg"},{"bike_id":"7b190d17-d91e-4195-bf16-1efb23870c75","system_id":"levelo_inurba_marseille","lat":43.29561,"lon":5.37504,"is_reserved":false,"is_disabled":false,"rental_uris":{"android":"levelo://app?vid=7b190d17-d91e-4195-bf16-1efb23870c75","ios":"levelo://app?vid=7b190d17-d91e-4195-bf16-1efb23870c75"},"vehicle_type_id":"4","last_reported":1770634015,"current_range_meters":10000,"station_id":"ce4bgh92rcd13ifvqb50","pricing_plan_id":"cebpf4jnsgd1na2vs0mg"},{"bike_id":"8421ab96-057e-4c56-8da9-39ca27ce7356","system_id":"levelo_inurba_marseille","lat":43.29956,"lon":5.4133,"is_reserved":false,"is_disabled":false,"rental_uris":{"android":"levelo://app?vid=8421ab96-057e-4c56-8da9-39ca27ce7356","ios":"levelo://app?vid=8421ab96-057e-4c56-8da9-39ca27ce7356"},"vehicle_type_id":"4","last_reported":1770634015,"current_range_meters":10000,"station_id":"ce4bhp12rcd13ifvqh9g","pricing_plan_id":"cebpf4jnsgd1na2vs0mg"},{"bike_id":"6f387dae-813b-46d7-a64a-f5ba6a352621","system_id":"levelo_inurba_marseille","lat":43.26672,"lon":5.38269,"is_reserved":false,"is_disabled":false,"rental_uris":{"android":"levelo://app?vid=6f387dae-813b-46d7-a64a-f5ba6a352621","ios":"levelo://app?vid=6f387dae-813b-46d7-a64a-f5ba6a352621"},"vehicle_type_id":"4","last_reported":1770634015,"current_range_meters":10000,"station_id":"ce4bhg92rcd13ifvqf90","pricing_plan_id":"cebpf4jnsgd1na2vs0mg"},{"bike_id":"f12f6f11-1feb-482e-8dc3-a79b8963e979","system_id":"levelo_inurba_marseille","lat":43.33538,"lon":5.3749,"is_reserved":false,"is_disabled":false,"rental_uris":{"android":"levelo://app?vid=f12f6f11-1feb-482e-8dc3-a79b8963e979","ios":"levelo://app?vid=f12f6f11-1feb-482e-8dc3-a79b8963e979"},"vehicle_type_id":"4","last_reported":1770634015,"current_range_meters":10000,"station_id":"st_d46tts09ee8s73dlu43g","pricing_plan_id":"cebpf4jnsgd1na2vs0mg"},{"bike_id":"49b25e78-dc72-4f2d-9e49-836c68716364","system_id":"levelo_inurba_marseille","lat":43.25922,"lon":5.40903,"is_reserved":false,"is_disabled":false,"rental_uris":{"android":"levelo://app?vid=49b25e78-dc72-4f2d-9e49-836c68716364","ios":"levelo://app?vid=49b25e78-dc72-4f2d-9e49-836c68716364"},"vehicle_type_id":"4","last_reported":1770634015,"current_range_meters":10000,"station_id":"ce4bhm92rcd13ifvqglg","pricing_plan_id":"cebpf4jnsgd1na2vs0mg"},{"bike_id":"41489d1d-8f65-4acc-ad4a-a6a8dc9439fd","system_id":"levelo_inurba_marseille","lat":43.29421,"lon":5.41326,"is_reserved":false,"is_disabled":false,"rental_uris":{"android":"levelo://app?vid=41489d1d-8f65-4acc-ad4a-a6a8dc9439fd","ios":"levelo://app?vid=41489d1d-8f65-4acc-ad4a-a6a8dc9439fd"},"vehicle_type_id":"4","last_reported":1770634015,"current_range_meters":10000,"station_id":"","pricing_plan_id":"cebpf4jnsgd1na2vs0mg"},{"bike_id":"2c1de8d2-348f-448c-8fee-f98ae9ffe993","system_id":"levelo_inurba_marseille","lat":43.28107,"lon":5.37835,"is_reserved":false,"is_disabled":false,"rental_uris":{"android":"levelo://app?vid=2c1de8d2-348f-448c-8fee-f98ae9ffe993","ios":"levelo://app?vid=2c1de8d2-348f-448c-8fee-f98ae9ffe993"},"vehicle_type_id":"4","last_reported":1770634015,"current_range_meters":10000,"station_id":"ce4bha12rcd13ifvqee0","pricing_plan_id":"cebpf4jnsgd1na2vs0mg"},{"bike_id":"d0a5394f-bd4b-4d2d-bc44-bf329428d920","system_id":"levelo_inurba_marseille","lat":43.29851,"lon":5.36269,"is_reserved":false,"is_disabled":false,"rental_uris":{"android":"levelo://app?vid=d0a5394f-bd4b-4d2d-bc44-bf329428d920","ios":"levelo://app?vid=d0a5394f-bd4b-4d2d-bc44-bf329428d920"},"vehicle_type_id":"4","last_reported":1770634015,"current_range_meters":10800,"station_id":"ce4bgpp2rcd13ifvqc3g","pricing_plan_id":"cebpf4jnsgd1na2vs0mg"},{"bike_id":"8ae17b81-0000-4570-ac79-fe68f254c27c","system_id":"levelo_inurba_marseille","lat":43.29606,"lon":5.37729,"is_reserved":false,"is_disabled":true,"rental_uris":{"android":"levelo://app?vid=8ae17b81-0000-4570-ac79-fe68f254c27c","ios":"levelo://app?vid=8ae17b81-0000-4570-ac79-fe68f254c27c"},"vehicle_type_id":"4","last_reported":1770634015,"current_range_meters":10800,"station_id":"ce4bgi92rcd13ifvqb90","pricing_plan_id":"cebpf4jnsgd1na2vs0mg"},{"bike_id":"d587feeb-d002-423c-a60d-ce0bbea9f2cb","system_id":"levelo_inurba_marseille","lat":43.29036,"lon":5.40003,"is_reserved":false,"is_disabled":false,"rental_uris":{"android":"levelo://app?vid=d587feeb-d002-423c-a60d-ce0bbea9f2cb","ios":"levelo://app?vid=d587feeb-d002-423c-a60d-ce0bbea9f2cb"},"vehicle_type_id":"4","last_reported":1770634015,"current_range_meters":10800,"station_id":"ce4bh392rcd13ifvqdm0","pricing_plan_id":"cebpf4jnsgd1na2vs0mg"},{"bike_id":"c11b48aa-5b4e-4ac0-bbcc-eafa246b4e92","system_id":"levelo_inurba_marseille","lat":43.27635,"lon":5.36119,"is_reserved":false,"is_disabled":false,"rental_uris":{"android":"levelo://app?vid=c11b48aa-5b4e-4ac0-bbcc-eafa246b4e92","ios":"levelo://app?vid=c11b48aa-5b4e-4ac0-bbcc-eafa246b4e92"},"vehicle_type_id":"4","last_reported":1770634015,"current_range_meters":10800,"station_id":"ce4bgj92rcd13ifvqbe0","pricing_plan_id":"cebpf4jnsgd1na2vs0mg"},{"bike_id":"cc9d8b4e-9bda-47b4-8088-3f93b11014d1","system_id":"levelo_inurba_marseille","lat":43.25197,"lon":5.40707,"is_reserved":false,"is_disabled":false,"rental_uris":{"android":"levelo://app?vid=cc9d8b4e-9bda-47b4-8088-3f93b11014d1","ios":"levelo://app?vid=cc9d8b4e-9bda-47b4-8088-3f93b11014d1"},"vehicle_type_id":"4","last_reported":1770634015,"current_range_meters":10800,"station_id":"","pricing_plan_id":"cebpf4jnsgd1na2vs0mg"},{"bike_id":"6da7b2c8-ded6-41b1-b326-7acbfdccc073","system_id":"levelo_inurba_marseille","lat":43.29638,"lon":5.38021,"is_reserved":false,"is_disabled":false,"rental_uris":{"android":"levelo://app?vid=6da7b2c8-ded6-41b1-b326-7acbfdccc073","ios":"levelo://app?vid=6da7b2c8-ded6-41b1-b326-7acbfdccc073"},"vehicle_type_id":"4","last_reported":1770634015,"current_range_meters":10800,"station_id":"","pricing_plan_id":"cebpf4jnsgd1na2vs0mg"},{"bike_id":"89446920-5bad-4011-b083-61088b42ddfa","system_id":"levelo_inurba_marseille","lat":43.248098,"lon":5.374586,"is_reserved":false,"is_disabled":false,"rental_uris":{"android":"levelo://app?vid=89446920-5bad-4011-b083-61088b42ddfa","ios":"levelo://app?vid=89446920-5bad-4011-b083-61088b42ddfa"},"vehicle_type_id":"4","last_reported":1770634015,"current_range_meters":10800,"station_id":"ce4bhgh2rcd13ifvqfb0","pricing_plan_id":"cebpf4jnsgd1na2vs0mg"},{"bike_id":"f62a384c-82ea-406f-b454-65dc89a8251e","system_id":"levelo_inurba_marseille","lat":43.27361,"lon":5.41036,"is_reserved":false,"is_disabled":false,"rental_uris":{"android":"levelo://app?vid=f62a384c-82ea-406f-b454-65dc89a8251e","ios":"levelo://app?vid=f62a384c-82ea-406f-b454-65dc89a8251e"},"vehicle_type_id":"4","last_reported":1770634015,"current_range_meters":10800,"station_id":"","pricing_plan_id":"cebpf4jnsgd1na2vs0mg"},{"bike_id":"9afb2f8c-959c-475c-aee4-864089796f55","system_id":"levelo_inurba_marseille","lat":43.28539,"lon":5.44111,"is_reserved":false,"is_disabled":false,"rental_uris":{"android":"levelo://app?vid=9afb2f8c-959c-475c-aee4-864089796f55","ios":"levelo://app?vid=9afb2f8c-959c-475c-aee4-864089796f55"},"vehicle_type_id":"4","last_reported":1770634015,"current_range_meters":10800,"station_id":"st_d3j3df2ikq2c7380ej80","pricing_plan_id":"cebpf4jnsgd1na2vs0mg"},{"bike_id":"e8b39e87-db12-4a5a-8d12-761f8810adba","system_id":"levelo_inurba_marseille","lat":43.27072,"lon":5.42278,"is_reserved":false,"is_disabled":false,"rental_uris":{"android":"levelo://app?vid=e8b39e87-db12-4a5a-8d12-761f8810adba","ios":"levelo://app?vid=e8b39e87-db12-4a5a-8d12-761f8810adba"},"vehicle_type_id":"4","last_reported":1770634015,"current_range_meters":10800,"station_id":"ce4bhk92rcd13ifvqgb0","pricing_plan_id":"cebpf4jnsgd1na2vs0mg"},{"bike_id":"1d84a6a9-53dd-4546-9d02-4bb696d8451e","system_id":"levelo_inurba_marseille","lat":43.31735,"lon":5.37693,"is_reserved":false,"is_disabled":false,"rental_uris":{"android":"levelo://app?vid=1d84a6a9-53dd-4546-9d02-4bb696d8451e","ios":"levelo://app?vid=1d84a6a9-53dd-4546-9d02-4bb696d8451e"},"vehicle_type_id":"4","last_reported":1770634015,"current_range_meters":10800,"station_id":"ce4bgth2rcd13ifvqch0","pricing_plan_id":"cebpf4jnsgd1na2vs0mg"},{"bike_id":"855a3475-1980-4d64-b472-752292241c3d","system_id":"levelo_inurba_marseille","lat":43.29491,"lon":5.43303,"is_reserved":false,"is_disabled":false,"rental_uris":{"android":"levelo://app?vid=855a3475-1980-4d64-b472-752292241c3d","ios":"levelo://app?vid=855a3475-1980-4d64-b472-752292241c3d"},"vehicle_type_id":"4","last_reported":1770634015,"current_range_meters":10800,"station_id":"st_d3j5ugp08ojc73fj9d10","pricing_plan_id":"cebpf4jnsgd1na2vs0mg"},{"bike_id":"30ecf885-bc5e-4062-9f2c-0b2cea59a43d","system_id":"levelo_inurba_marseille","lat":43.29038,"lon":5.39959,"is_reserved":false,"is_disabled":false,"rental_uris":{"android":"levelo://app?vid=30ecf885-bc5e-4062-9f2c-0b2cea59a43d","ios":"levelo://app?vid=30ecf885-bc5e-4062-9f2c-0b2cea59a43d"},"vehicle_type_id":"4","last_reported":1770634015,"current_range_meters":10800,"station_id":"ce4bh392rcd13ifvqdm0","pricing_plan_id":"cebpf4jnsgd1na2vs0mg"},{"bike_id":"f98434fa-bf6c-41c9-9e4e-431aea2a6104","system_id":"levelo_inurba_marseille","lat":43.23143,"lon":5.43731,"is_reserved":false,"is_disabled":false,"rental_uris":{"android":"levelo://app?vid=f98434fa-bf6c-41c9-9e4e-431aea2a6104","ios":"levelo://app?vid=f98434fa-bf6c-41c9-9e4e-431aea2a6104"},"vehicle_type_id":"4","last_reported":1770634015,"current_range_meters":11200,"station_id":"ce4bhmp2rcd13ifvqgog","pricing_plan_id":"cebpf4jnsgd1na2vs0mg"},{"bike_id":"29dced35-e380-4021-a625-fb42f9a9138f","system_id":"levelo_inurba_marseille","lat":43.24387,"lon":5.37057,"is_reserved":false,"is_disabled":false,"rental_uris":{"android":"levelo://app?vid=29dced35-e380-4021-a625-fb42f9a9138f","ios":"levelo://app?vid=29dced35-e380-4021-a625-fb42f9a9138f"},"vehicle_type_id":"4","last_reported":1770634015,"current_range_meters":11200,"station_id":"ce4bhhh2rcd13ifvqfk0","pricing_plan_id":"cebpf4jnsgd1na2vs0mg"},{"bike_id":"81089c31-0f23-400c-91cf-65461521d37b","system_id":"levelo_inurba_marseille","lat":43.2583,"lon":5.39439,"is_reserved":false,"is_disabled":false,"rental_uris":{"android":"levelo://app?vid=81089c31-0f23-400c-91cf-65461521d37b","ios":"levelo://app?vid=81089c31-0f23-400c-91cf-65461521d37b"},"vehicle_type_id":"4","last_reported":1770634015,"current_range_meters":11200,"station_id":"ce4bhip2rcd13ifvqft0","pricing_plan_id":"cebpf4jnsgd1na2vs0mg"},{"bike_id":"30dcf271-c66c-4ee7-94a9-1e221751bad2","system_id":"levelo_inurba_marseille","lat":43.25918,"lon":5.40909,"is_reserved":false,"is_disabled":false,"rental_uris":{"android":"levelo://app?vid=30dcf271-c66c-4ee7-94a9-1e221751bad2","ios":"levelo://app?vid=30dcf271-c66c-4ee7-94a9-1e221751bad2"},"vehicle_type_id":"4","last_reported":1770634015,"current_range_meters":11200,"station_id":"ce4bhm92rcd13ifvqglg","pricing_plan_id":"cebpf4jnsgd1na2vs0mg"},{"bike_id":"3b757ffd-af75-43c1-8156-7802d1fd142d","system_id":"levelo_inurba_marseille","lat":43.29254,"lon":5.38449,"is_reserved":false,"is_disabled":true,"rental_uris":{"android":"levelo://app?vid=3b757ffd-af75-43c1-8156-7802d1fd142d","ios":"levelo://app?vid=3b757ffd-af75-43c1-8156-7802d1fd142d"},"vehicle_type_id":"4","last_reported":1770634015,"current_range_meters":11200,"station_id":"ce4bh692rcd13ifvqea0","pricing_plan_id":"cebpf4jnsgd1na2vs0mg"},{"bike_id":"6aa6da6f-1976-49d0-ac99-282daecf7451","system_id":"levelo_inurba_marseille","lat":43.240776,"lon":5.377553,"is_reserved":false,"is_disabled":false,"rental_uris":{"android":"levelo://app?vid=6aa6da6f-1976-49d0-ac99-282daecf7451","ios":"levelo://app?vid=6aa6da6f-1976-49d0-ac99-282daecf7451"},"vehicle_type_id":"4","last_reported":1770634015,"current_range_meters":11200,"station_id":"","pricing_plan_id":"cebpf4jnsgd1na2vs0mg"},{"bike_id":"a1a1e459-dc33-458a-a156-5735d4cb79a9","system_id":"levelo_inurba_marseille","lat":43.29553,"lon":5.422883,"is_reserved":false,"is_disabled":false,"rental_uris":{"android":"levelo://app?vid=a1a1e459-dc33-458a-a156-5735d4cb79a9","ios":"levelo://app?vid=a1a1e459-dc33-458a-a156-5735d4cb79a9"},"vehicle_type_id":"4","last_reported":1770634015,"current_range_meters":11200,"station_id":"ce4bhph2rcd13ifvqhdg","pricing_plan_id":"cebpf4jnsgd1na2vs0mg"},{"bike_id":"ffbe3718-fb64-481b-bbfe-6664f18f61cb","system_id":"levelo_inurba_marseille","lat":43.24626,"lon":5.43152,"is_reserved":false,"is_disabled":false,"rental_uris":{"android":"levelo://app?vid=ffbe3718-fb64-481b-bbfe-6664f18f61cb","ios":"levelo://app?vid=ffbe3718-fb64-481b-bbfe-6664f18f61cb"},"vehicle_type_id":"4","last_reported":1770634015,"current_range_meters":11200,"station_id":"st_d2m6c4gdas8pm72e190g","pricing_plan_id":"cebpf4jnsgd1na2vs0mg"},{"bike_id":"cbc40f0e-c367-448b-90ea-5a0e1e4f4ac2","system_id":"levelo_inurba_marseille","lat":43.265663,"lon":5.403232,"is_reserved":false,"is_disabled":false,"rental_uris":{"android":"levelo://app?vid=cbc40f0e-c367-448b-90ea-5a0e1e4f4ac2","ios":"levelo://app?vid=cbc40f0e-c367-448b-90ea-5a0e1e4f4ac2"},"vehicle_type_id":"4","last_reported":1770634015,"current_range_meters":11200,"station_id":"ce4bhmp2rcd13ifvqgng","pricing_plan_id":"cebpf4jnsgd1na2vs0mg"},{"bike_id":"5d86506f-f4ce-4e04-998c-995692a6b98c","system_id":"levelo_inurba_marseille","lat":43.2121,"lon":5.35069,"is_reserved":false,"is_disabled":false,"rental_uris":{"android":"levelo://app?vid=5d86506f-f4ce-4e04-998c-995692a6b98c","ios":"levelo://app?vid=5d86506f-f4ce-4e04-998c-995692a6b98c"},"vehicle_type_id":"4","last_reported":1770634015,"current_range_meters":11200,"station_id":"st_cvj6sg6p6f1abm77japg","pricing_plan_id":"cebpf4jnsgd1na2vs0mg"},{"bike_id":"990e96c3-1411-40db-8c41-21f5095438bf","system_id":"levelo_inurba_marseille","lat":43.30595,"lon":5.36559,"is_reserved":false,"is_disabled":false,"rental_uris":{"android":"levelo://app?vid=990e96c3-1411-40db-8c41-21f5095438bf","ios":"levelo://app?vid=990e96c3-1411-40db-8c41-21f5095438bf"},"vehicle_type_id":"4","last_reported":1770634015,"current_range_meters":11200,"station_id":"ce4bgs12rcd13ifvqcag","pricing_plan_id":"cebpf4jnsgd1na2vs0mg"},{"bike_id":"fd26d1c5-b1c5-423d-91d3-56da6f563925","system_id":"levelo_inurba_marseille","lat":43.33146,"lon":5.377,"is_reserved":false,"is_disabled":false,"rental_uris":{"android":"levelo://app?vid=fd26d1c5-b1c5-423d-91d3-56da6f563925","ios":"levelo://app?vid=fd26d1c5-b1c5-423d-91d3-56da6f563925"},"vehicle_type_id":"4","last_reported":1770634015,"current_range_meters":11200,"station_id":"st_d46cu089ee8s73dldbu0","pricing_plan_id":"cebpf4jnsgd1na2vs0mg"},{"bike_id":"b0577ca1-afa8-48fa-be5c-f4673c1a2294","system_id":"levelo_inurba_marseille","lat":43.27979,"lon":5.41307,"is_reserved":false,"is_disabled":false,"rental_uris":{"android":"levelo://app?vid=b0577ca1-afa8-48fa-be5c-f4673c1a2294","ios":"levelo://app?vid=b0577ca1-afa8-48fa-be5c-f4673c1a2294"},"vehicle_type_id":"4","last_reported":1770634015,"current_range_meters":11200,"station_id":"","pricing_plan_id":"cebpf4jnsgd1na2vs0mg"},{"bike_id":"fbf2ee9c-6bb8-4094-8b37-53871d20f3ba","system_id":"levelo_inurba_marseille","lat":43.31393,"lon":5.36697,"is_reserved":false,"is_disabled":false,"rental_uris":{"android":"levelo://app?vid=fbf2ee9c-6bb8-4094-8b37-53871d20f3ba","ios":"levelo://app?vid=fbf2ee9c-6bb8-4094-8b37-53871d20f3ba"},"vehicle_type_id":"4","last_reported":1770634015,"current_range_meters":11200,"station_id":"","pricing_plan_id":"cebpf4jnsgd1na2vs0mg"},{"bike_id":"d4cbef21-bdbe-4161-8c2f-b11f0fc07eff","system_id":"levelo_inurba_marseille","lat":43.33604,"lon":5.41031,"is_reserved":false,"is_disabled":false,"rental_uris":{"android":"levelo://app?vid=d4cbef21-bdbe-4161-8c2f-b11f0fc07eff","ios":"levelo://app?vid=d4cbef21-bdbe-4161-8c2f-b11f0fc07eff"},"vehicle_type_id":"4","last_reported":1770634015,"current_range_meters":11200,"station_id":"ce4bhqh2rcd13ifvqhmg","pricing_plan_id":"cebpf4jnsgd1na2vs0mg"},{"bike_id":"22d8d839-db4c-4efa-bd5d-d78efaca55ca","system_id":"levelo_inurba_marseille","lat":43.25575,"lon":5.3824,"is_reserved":false,"is_disabled":false,"rental_uris":{"android":"levelo://app?vid=22d8d839-db4c-4efa-bd5d-d78efaca55ca","ios":"levelo://app?vid=22d8d839-db4c-4efa-bd5d-d78efaca55ca"},"vehicle_type_id":"4","last_reported":1770634015,"current_range_meters":11200,"station_id":"ce4bhih2rcd13ifvqfs0","pricing_plan_id":"cebpf4jnsgd1na2vs0mg"},{"bike_id":"c087cd0a-f330-4a61-b53b-d6f17de6de96","system_id":"levelo_inurba_marseille","lat":43.2695,"lon":5.38626,"is_reserved":false,"is_disabled":false,"rental_uris":{"android":"levelo://app?vid=c087cd0a-f330-4a61-b53b-d6f17de6de96","ios":"levelo://app?vid=c087cd0a-f330-4a61-b53b-d6f17de6de96"},"vehicle_type_id":"4","last_reported":1770634015,"current_range_meters":11200,"station_id":"ce4bhh92rcd13ifvqfh0","pricing_plan_id":"cebpf4jnsgd1na2vs0mg"},{"bike_id":"c067ca78-bad6-401b-90fb-e71f131a6d8e","system_id":"levelo_inurba_marseille","lat":43.244696,"lon":5.425407,"is_reserved":false,"is_disabled":false,"rental_uris":{"android":"levelo://app?vid=c067ca78-bad6-401b-90fb-e71f131a6d8e","ios":"levelo://app?vid=c067ca78-bad6-401b-90fb-e71f131a6d8e"},"vehicle_type_id":"4","last_reported":1770634015,"current_range_meters":11200,"station_id":"st_d4a3vfp97mjs738cd8kg","pricing_plan_id":"cebpf4jnsgd1na2vs0mg"},{"bike_id":"534d0005-0d9d-4965-ae77-43e2af08857e","system_id":"levelo_inurba_marseille","lat":43.26371,"lon":5.41056,"is_reserved":false,"is_disabled":false,"rental_uris":{"android":"levelo://app?vid=534d0005-0d9d-4965-ae77-43e2af08857e","ios":"levelo://app?vid=534d0005-0d9d-4965-ae77-43e2af08857e"},"vehicle_type_id":"4","last_reported":1770634015,"current_range_meters":11200,"station_id":"st_d4e5ca6na9uc73bfl5fg","pricing_plan_id":"cebpf4jnsgd1na2vs0mg"},{"bike_id":"1033425d-154c-4c12-8e89-fad1291dbc92","system_id":"levelo_inurba_marseille","lat":43.2438,"lon":5.37045,"is_reserved":false,"is_disabled":false,"rental_uris":{"android":"levelo://app?vid=1033425d-154c-4c12-8e89-fad1291dbc92","ios":"levelo://app?vid=1033425d-154c-4c12-8e89-fad1291dbc92"},"vehicle_type_id":"4","last_reported":1770634015,"current_range_meters":11200,"station_id":"ce4bhhh2rcd13ifvqfk0","pricing_plan_id":"cebpf4jnsgd1na2vs0mg"},{"bike_id":"914bd365-2174-44e8-81f6-c3c68ba64874","system_id":"levelo_inurba_marseille","lat":43.23177,"lon":5.39993,"is_reserved":false,"is_disabled":false,"rental_uris":{"android":"levelo://app?vid=914bd365-2174-44e8-81f6-c3c68ba64874","ios":"levelo://app?vid=914bd365-2174-44e8-81f6-c3c68ba64874"},"vehicle_type_id":"4","last_reported":1770634015,"current_range_meters":11200,"station_id":"ce4bhn12rcd13ifvqgqg","pricing_plan_id":"cebpf4jnsgd1na2vs0mg"},{"bike_id":"05abb5d5-7a0f-4692-a6b6-119f614f1bb6","system_id":"levelo_inurba_marseille","lat":43.2556,"lon":5.38244,"is_reserved":false,"is_disabled":false,"rental_uris":{"android":"levelo://app?vid=05abb5d5-7a0f-4692-a6b6-119f614f1bb6","ios":"levelo://app?vid=05abb5d5-7a0f-4692-a6b6-119f614f1bb6"},"vehicle_type_id":"4","last_reported":1770634015,"current_range_meters":11600,"station_id":"ce4bhih2rcd13ifvqfs0","pricing_plan_id":"cebpf4jnsgd1na2vs0mg"},{"bike_id":"389ec4ca-6e75-4d67-8274-10b33caca106","system_id":"levelo_inurba_marseille","lat":43.251,"lon":5.40321,"is_reserved":false,"is_disabled":false,"rental_uris":{"android":"levelo://app?vid=389ec4ca-6e75-4d67-8274-10b33caca106","ios":"levelo://app?vid=389ec4ca-6e75-4d67-8274-10b33caca106"},"vehicle_type_id":"4","last_reported":1770634015,"current_range_meters":11600,"station_id":"ce4bhlh2rcd13ifvqgig","pricing_plan_id":"cebpf4jnsgd1na2vs0mg"},{"bike_id":"e0450db0-c8b3-4403-bc43-ed5a007877b8","system_id":"levelo_inurba_marseille","lat":43.24628,"lon":5.43129,"is_reserved":false,"is_disabled":false,"rental_uris":{"android":"levelo://app?vid=e0450db0-c8b3-4403-bc43-ed5a007877b8","ios":"levelo://app?vid=e0450db0-c8b3-4403-bc43-ed5a007877b8"},"vehicle_type_id":"4","last_reported":1770634015,"current_range_meters":11600,"station_id":"st_d2m6c4gdas8pm72e190g","pricing_plan_id":"cebpf4jnsgd1na2vs0mg"},{"bike_id":"38370158-fe74-49c7-b2b0-0072e2c97500","system_id":"levelo_inurba_marseille","lat":43.22928,"lon":5.35382,"is_reserved":false,"is_disabled":false,"rental_uris":{"android":"levelo://app?vid=38370158-fe74-49c7-b2b0-0072e2c97500","ios":"levelo://app?vid=38370158-fe74-49c7-b2b0-0072e2c97500"},"vehicle_type_id":"4","last_reported":1770634015,"current_range_meters":11600,"station_id":"cpo3532slgdg3j2ikp40","pricing_plan_id":"cebpf4jnsgd1na2vs0mg"},{"bike_id":"27267fc6-f735-4e4b-a5ed-432bd8592e5c","system_id":"levelo_inurba_marseille","lat":43.29594,"lon":5.37733,"is_reserved":false,"is_disabled":false,"rental_uris":{"android":"levelo://app?vid=27267fc6-f735-4e4b-a5ed-432bd8592e5c","ios":"levelo://app?vid=27267fc6-f735-4e4b-a5ed-432bd8592e5c"},"vehicle_type_id":"4","last_reported":1770634015,"current_range_meters":11600,"station_id":"ce4bgi92rcd13ifvqb90","pricing_plan_id":"cebpf4jnsgd1na2vs0mg"},{"bike_id":"f91f91e7-cb75-4d46-ab53-f570e2e26557","system_id":"levelo_inurba_marseille","lat":43.27666,"lon":5.38094,"is_reserved":false,"is_disabled":false,"rental_uris":{"android":"levelo://app?vid=f91f91e7-cb75-4d46-ab53-f570e2e26557","ios":"levelo://app?vid=f91f91e7-cb75-4d46-ab53-f570e2e26557"},"vehicle_type_id":"4","last_reported":1770634015,"current_range_meters":11600,"station_id":"","pricing_plan_id":"cebpf4jnsgd1na2vs0mg"},{"bike_id":"2ae71ecb-b292-4ec1-976f-40086ddb12d2","system_id":"levelo_inurba_marseille","lat":43.308364,"lon":5.368078,"is_reserved":false,"is_disabled":false,"rental_uris":{"android":"levelo://app?vid=2ae71ecb-b292-4ec1-976f-40086ddb12d2","ios":"levelo://app?vid=2ae71ecb-b292-4ec1-976f-40086ddb12d2"},"vehicle_type_id":"4","last_reported":1770634015,"current_range_meters":11600,"station_id":"ce4bgn92rcd13ifvqbvg","pricing_plan_id":"cebpf4jnsgd1na2vs0mg"},{"bike_id":"eeb9bf2a-3a97-42c6-9a69-dafaca2f9b13","system_id":"levelo_inurba_marseille","lat":43.29801,"lon":5.380903,"is_reserved":false,"is_disabled":false,"rental_uris":{"android":"levelo://app?vid=eeb9bf2a-3a97-42c6-9a69-dafaca2f9b13","ios":"levelo://app?vid=eeb9bf2a-3a97-42c6-9a69-dafaca2f9b13"},"vehicle_type_id":"4","last_reported":1770634015,"current_range_meters":12000,"station_id":"ce4bgip2rcd13ifvqbb0","pricing_plan_id":"cebpf4jnsgd1na2vs0mg"},