{"last_updated":1710792407,"ttl":30,"version":"2.2","data":{"bikes":[{"bike_id":"b7926872-7008-4368-b40b-c80ffc8a2856","system_id":"levelo_inurba_marseille","lat":43.313391,"lon":5.36706,"is_reserved":false,"is_disabled":false,"rental_uris":{"android":"levelo://app?vid=b7926872-7008-4368-b40b-c80ffc8a2856","ios":"levelo://app?vid=b7926872-7008-4368-b40b-c80ffc8a2856"},"vehicle_type_id":"4","last_reported":1710792407,"current_range_meters":23200,"station_id":"ce4bgr92rcd13ifvqc6g","pricing_plan_id":"cebpf4jnsgd1na2vs0mg"},{"bike_id":"beb59635-3ac7-4d9d-851d-83eefa8286d0","system_id":"levelo_inurba_marseille","lat":43.312239,"lon":5.368562,"is_reserved":false,"is_disabled":false,"rental_uris":{"android":"levelo://app?vid=beb59635-3ac7-4d9d-851d-83eefa8286d0","ios":"levelo://app?vid=beb59635-3ac7-4d9d-851d-83eefa8286d0"},"vehicle_type_id":"4","last_reported":1710792407,"current_range_meters":21600,"station_id":"ce4bgl92rcd13ifvqbq0","pricing_plan_id":"cebpf4jnsgd1na2vs0mg"},{"bike_id":"b10a6feb-7d6f-4741-83c1-8aaa98275e73","system_id":"levelo_inurba_marseille","lat":43.312239,"lon":5.368562,"is_reserved":false,"is_disabled":false,"rental_uris":{"android":"levelo://app?vid=b10a6feb-7d6f-4741-83c1-8aaa98275e73","ios":"levelo://app?vid=b10a6feb-7d6f-4741-83c1-8aaa98275e73"},"vehicle_type_id":"4","last_reported":1710792407,"current_range_meters":0,"station_id":"ce4bgl92rcd13ifvqbq0","pricing_plan_id":"cebpf4jnsgd1na2vs0mg"},{"bike_id":"f77352b4-7a5e-4a1f-8f51-6529ee7a4ccd","system_id":"levelo_inurba_marseille","lat":43.312239,"lon":5.368562,"is_reserved":false,"is_disabled":false,"rental_uris":{"android":"levelo://app?vid=f77352b4-7a5e-4a1f-8f51-6529ee7a4ccd","ios":"levelo://app?vid=f77352b4-7a5e-4a1f-8f51-6529ee7a4ccd"},"vehicle_type_id":"4","last_reported":1710792407,"current_range_meters":0,"station_id":"ce4bgl92rcd13ifvqbq0","pricing_plan_id":"cebpf4jnsgd1na2vs0mg"},{"bike_id":"cf6c5588-01a0-47c2-9771-64ad978831c9","system_id":"levelo_inurba_marseille","lat":43.312239,"lon":5.368562,"is_reserved":false,"is_disabled":false,"rental_uris":{"android":"levelo://app?vid=cf6c5588-01a0-47c2-9771-64ad978831c9","ios":"levelo://app?vid=cf6c5588-01a0-47c2-9771-64ad978831c9"},"vehicle_type_id":"4","last_reported":1710792407,"current_range_meters":12000,"station_id":"ce4bgl92rcd13ifvqbq0","pricing_plan_id":"cebpf4jnsgd1na2vs0mg"},{"bike_id":"8f672cb2-fd92-4632-bcce-80417710f18b","system_id":"levelo_inurba_marseille","lat":43.312239,"lon":5.368562,"is_reserved":false,"is_disabled":false,"rental_uris":{"android":"levelo://app?vid=8f672cb2-fd92-4632-bcce-80417710f18b","ios":"levelo://app?vid=8f672cb2-fd92-4632-bcce-80417710f18b"},"vehicle_type_id":"4","last_reported":1710792407,"current_range_meters":2000,"station_id":"ce4bgl92rcd13ifvqbq0","pricing_plan_id":"cebpf4jnsgd1na2vs0mg"},{"bike_id":"3b77d2d4-eea3-45d0-8f45-159b1f4c579a","system_id":"levelo_inurba_marseille","lat":43.312239,"lon":5.368562,"is_reserved":false,"is_disabled":false,"rental_uris":{"android":"levelo://app?vid=3b77d2d4-eea3-45d0-8f45-159b1f4c579a","ios":"levelo://app?vid=3b77d2d4-eea3-45d0-8f45-159b1f4c579a"},"vehicle_type_id":"4","last_reported":1710792407,"current_range_meters":800,"station_id":"ce4bgl92rcd13ifvqbq0","pricing_plan_id":"cebpf4jnsgd1na2vs0mg"},{"bike_id":"aa34a194-e73a-4a64-92dc-920254e89d5c","system_id":"levelo_inurba_marseille","lat":43.314811,"lon":5.373103,"is_reserved":false,"is_disabled":false,"rental_uris":{"android":"levelo://app?vid=aa34a194-e73a-4a64-92dc-920254e89d5c","ios":"levelo://app?vid=aa34a194-e73a-4a64-92dc-920254e89d5c"},"vehicle_type_id":"4","last_reported":1710792407,"current_range_meters":22000,"station_id":"ce4bgt12rcd13ifvqcd0","pricing_plan_id":"cebpf4jnsgd1na2vs0mg"},{"bike_id":"ff790eb8-cabc-45ae-8451-661fa7323125","system_id":"levelo_inurba_marseille","lat":43.309039,"lon":5.371797,"is_reserved":false,"is_disabled":false,"rental_uris":{"android":"levelo://app?vid=ff790eb8-cabc-45ae-8451-661fa7323125","ios":"levelo://app?vid=ff790eb8-cabc-45ae-8451-661fa7323125"},"vehicle_type_id":"4","last_reported":1710792407,"current_range_meters":11200,"station_id":"ce4bguh2rcd13ifvqckg","pricing_plan_id":"cebpf4jnsgd1na2vs0mg"},{"bike_id":"9eca312e-76fb-4ab3-a6a0-46fdf794e63a","system_id":"levelo_inurba_marseille","lat":43.305368,"lon":5.367343,"is_reserved":false,"is_disabled":false,"rental_uris":{"android":"levelo://app?vid=9eca312e-76fb-4ab3-a6a0-46fdf794e63a","ios":"levelo://app?vid=9eca312e-76fb-4ab3-a6a0-46fdf794e63a"},"vehicle_type_id":"4","last_reported":1710792407,"current_range_meters":0,"station_id":"ce4bgrp2rcd13ifvqc9g","pricing_plan_id":"cebpf4jnsgd1na2vs0mg"},{"bike_id":"8a919797-f788-4e70-aa73-685ab4f53a2a","system_id":"levelo_inurba_marseille","lat":43.30538,"lon":5.36715,"is_reserved":false,"is_disabled":false,"rental_uris":{"android":"levelo://app?vid=8a919797-f788-4e70-aa73-685ab4f53a2a","ios":"levelo://app?vid=8a919797-f788-4e70-aa73-685ab4f53a2a"},"vehicle_type_id":"4","last_reported":1710792407,"current_range_meters":0,"station_id":"ce4bgrp2rcd13ifvqc9g","pricing_plan_id":"cebpf4jnsgd1na2vs0mg"},{"bike_id":"7939e73c-62e4-48b8-bb92-3872e47628b2","system_id":"levelo_inurba_marseille","lat":43.305368,"lon":5.367343,"is_reserved":false,"is_disabled":false,"rental_uris":{"android":"levelo://app?vid=7939e73c-62e4-48b8-bb92-3872e47628b2","ios":"levelo://app?vid=7939e73c-62e4-48b8-bb92-3872e47628b2"},"vehicle_type_id":"4","last_reported":1710792407,"current_range_meters":19200,"station_id":"ce4bgrp2rcd13ifvqc9g","pricing_plan_id":"cebpf4jnsgd1na2vs0mg"},{"bike_id":"485da98e-e384-4b8e-8a95-b9223d57f248","system_id":"levelo_inurba_marseille","lat":43.305368,"lon":5.367343,"is_reserved":false,"is_disabled":false,"rental_uris":{"android":"levelo://app?vid=485da98e-e384-4b8e-8a95-b9223d57f248","ios":"levelo://app?vid=485da98e-e384-4b8e-8a95-b9223d57f248"},"vehicle_type_id":"4","last_reported":1710792407,"current_range_meters":18400,"station_id":"ce4bgrp2rcd13ifvqc9g","pricing_plan_id":"cebpf4jnsgd1na2vs0mg"},{"bike_id":"b58cd5d4-3fd7-4fd8-b99a-8266a5229f92","system_id":"levelo_inurba_marseille","lat":43.304274,"lon":5.388873,"is_reserved":false,"is_disabled":false,"rental_uris":{"android":"levelo://app?vid=b58cd5d4-3fd7-4fd8-b99a-8266a5229f92","ios":"levelo://app?vid=b58cd5d4-3fd7-4fd8-b99a-8266a5229f92"},"vehicle_type_id":"4","last_reported":1710792407,"current_range_meters":0,"station_id":"ce4bgk12rcd13ifvqbi0","pricing_plan_id":"cebpf4jnsgd1na2vs0mg"},{"bike_id":"91ae875c-c747-4fd6-b961-9fec7de1ce4c","system_id":"levelo_inurba_marseille","lat":43.305989,"lon":5.37225,"is_reserved":false,"is_disabled":false,"rental_uris":{"android":"levelo://app?vid=91ae875c-c747-4fd6-b961-9fec7de1ce4c","ios":"levelo://app?vid=91ae875c-c747-4fd6-b961-9fec7de1ce4c"},"vehicle_type_id":"4","last_reported":1710792407,"current_range_meters":25200,"station_id":"ce4bgqh2rcd13ifvqc4g","pricing_plan_id":"cebpf4jnsgd1na2vs0mg"},{"bike_id":"a1616a93-8457-4944-ae59-c1d7170aaab6","system_id":"levelo_inurba_marseille","lat":43.305989,"lon":5.37225,"is_reserved":false,"is_disabled":false,"rental_uris":{"android":"levelo://app?vid=a1616a93-8457-4944-ae59-c1d7170aaab6","ios":"levelo://app?vid=a1616a93-8457-4944-ae59-c1d7170aaab6"},"vehicle_type_id":"4","last_reported":1710792407,"current_range_meters":1200,"station_id":"ce4bgqh2rcd13ifvqc4g","pricing_plan_id":"cebpf4jnsgd1na2vs0mg"},{"bike_id":"6069e4e4-17f2-41a9-8d4e-0b5705801886","system_id":"levelo_inurba_marseille","lat":43.305989,"lon":5.37225,"is_reserved":false,"is_disabled":false,"rental_uris":{"android":"levelo://app?vid=6069e4e4-17f2-41a9-8d4e-0b5705801886","ios":"levelo://app?vid=6069e4e4-17f2-41a9-8d4e-0b5705801886"},"vehicle_type_id":"4","last_reported":1710792407,"current_range_meters":7200,"station_id":"ce4bgqh2rcd13ifvqc4g","pricing_plan_id":"cebpf4jnsgd1na2vs0mg"},{"bike_id":"0e1f9570-7815-41ba-b9f9-1b6063e1b464","system_id":"levelo_inurba_marseille","lat":43.305989,"lon":5.37225,"is_reserved":false,"is_disabled":false,"rental_uris":{"android":"levelo://app?vid=0e1f9570-7815-41ba-b9f9-1b6063e1b464","ios":"levelo://app?vid=0e1f9570-7815-41ba-b9f9-1b6063e1b464"},"vehicle_type_id":"4","last_reported":1710792407,"current_range_meters":17600,"station_id":"ce4bgqh2rcd13ifvqc4g","pricing_plan_id":"cebpf4jnsgd1na2vs0mg"},{"bike_id":"ba2565c0-1c4e-418e-8c4c-380edc036b43","system_id":"levelo_inurba_marseille","lat":43.305989,"lon":5.37225,"is_reserved":false,"is_disabled":false,"rental_uris":{"android":"levelo://app?vid=ba2565c0-1c4e-418e-8c4c-380edc036b43","ios":"levelo://app?vid=ba2565c0-1c4e-418e-8c4c-380edc036b43"},"vehicle_type_id":"4","last_reported":1710792407,"current_range_meters":2800,"station_id":"ce4bgqh2rcd13ifvqc4g","pricing_plan_id":"cebpf4jnsgd1na2vs0mg"},{"bike_id":"bf0cc631-2b94-4c94-bbb3-d10f4a92a1b1","system_id":"levelo_inurba_marseille","lat":43.305989,"lon":5.37225,"is_reserved":false,"is_disabled":false,"rental_uris":{"android":"levelo://app?vid=bf0cc631-2b94-4c94-bbb3-d10f4a92a1b1","ios":"levelo://app?vid=bf0cc631-2b94-4c94-bbb3-d10f4a92a1b1"},"vehicle_type_id":"4","last_reported":1710792407,"current_range_meters":15600,"station_id":"ce4bgqh2rcd13ifvqc4g","pricing_plan_id":"cebpf4jnsgd1na2vs0mg"},{"bike_id":"62a8a025-807f-40a7-a74c-d3dcea97d3f8","system_id":"levelo_inurba_marseille","lat":43.305989,"lon":5.37225,"is_reserved":false,"is_disabled":false,"rental_uris":{"android":"levelo://app?vid=62a8a025-807f-40a7-a74c-d3dcea97d3f8","ios":"levelo://app?vid=62a8a025-807f-40a7-a74c-d3dcea97d3f8"},"vehicle_type_id":"4","last_reported":1710792407,"current_range_meters":20400,"station_id":"ce4bgqh2rcd13ifvqc4g","pricing_plan_id":"cebpf4jnsgd1na2vs0mg"},{"bike_id":"3fb4b159-6f28-47c4-8fb5-7345cced8991","system_id":"levelo_inurba_marseille","lat":43.305989,"lon":5.37225,"is_reserved":false,"is_disabled":false,"rental_uris":{"android":"levelo://app?vid=3fb4b159-6f28-47c4-8fb5-7345cced8991","ios":"levelo://app?vid=3fb4b159-6f28-47c4-8fb5-7345cced8991"},"vehicle_type_id":"4","last_reported":1710792407,"current_range_meters":1600,"station_id":"ce4bgqh2rcd13ifvqc4g","pricing_plan_id":"cebpf4jnsgd1na2vs0mg"},{"bike_id":"67f49362-5983-4f37-84bb-9577f66a1bc9","system_id":"levelo_inurba_marseille","lat":43.305989,"lon":5.37225,"is_reserved":false,"is_disabled":false,"rental_uris":{"android":"levelo://app?vid=67f49362-5983-4f37-84bb-9577f66a1bc9","ios":"levelo://app?vid=67f49362-5983-4f37-84bb-9577f66a1bc9"},"vehicle_type_id":"4","last_reported":1710792407,"current_range_meters":24000,"station_id":"ce4bgqh2rcd13ifvqc4g","pricing_plan_id":"cebpf4jnsgd1na2vs0mg"},{"bike_id":"c9e757de-aa48-4b01-bf3d-b21568e56765","system_id":"levelo_inurba_marseille","lat":43.305989,"lon":5.37225,"is_reserved":false,"is_disabled":false,"rental_uris":{"android":"levelo://app?vid=c9e757de-aa48-4b01-bf3d-b21568e56765","ios":"levelo://app?vid=c9e757de-aa48-4b01-bf3d-b21568e56765"},"vehicle_type_id":"4","last_reported":1710792407,"current_range_meters":0,"station_id":"ce4bgqh2rcd13ifvqc4g","pricing_plan_id":"cebpf4jnsgd1na2vs0mg"},{"bike_id":"e013eeff-397b-4280-99fc-1ef880f4645e","system_id":"levelo_inurba_marseille","lat":43.305989,"lon":5.37225,"is_reserved":false,"is_disabled":false,"rental_uris":{"android":"levelo://app?vid=e013eeff-397b-4280-99fc-1ef880f4645e","ios":"levelo://app?vid=e013eeff-397b-4280-99fc-1ef880f4645e"},"vehicle_type_id":"4","last_reported":1710792407,"current_range_meters":11200,"station_id":"ce4bgqh2rcd13ifvqc4g","pricing_plan_id":"cebpf4jnsgd1na2vs0mg"},{"bike_id":"65bca4df-48b4-43c6-a726-712e1c762b12","system_id":"levelo_inurba_marseille","lat":43.305989,"lon":5.37225,"is_reserved":false,"is_disabled":false,"rental_uris":{"android":"levelo://app?vid=65bca4df-48b4-43c6-a726-712e1c762b12","ios":"levelo://app?vid=65bca4df-48b4-43c6-a726-712e1c762b12"},"vehicle_type_id":"4","last_reported":1710792407,"current_range_meters":0,"station_id":"ce4bgqh2rcd13ifvqc4g","pricing_plan_id":"cebpf4jnsgd1na2vs0mg"},{"bike_id":"0eb76088-9429-4041-9c0c-e860636835ae","system_id":"levelo_inurba_marseille","lat":43.311131,"lon":5.377651,"is_reserved":false,"is_disabled":false,"rental_uris":{"android":"levelo://app?vid=0eb76088-9429-4041-9c0c-e860636835ae","ios":"levelo://app?vid=0eb76088-9429-4041-9c0c-e860636835ae"},"vehicle_type_id":"4","last_reported":1710792407,"current_range_meters":3200,"station_id":"ce4bgt92rcd13ifvqcg0","pricing_plan_id":"cebpf4jnsgd1na2vs0mg"},{"bike_id":"a6fa6a5c-ecc8-4aa3-af74-41cef5e31c9c","system_id":"levelo_inurba_marseille","lat":43.311131,"lon":5.377651,"is_reserved":false,"is_disabled":false,"rental_uris":{"android":"levelo://app?vid=a6fa6a5c-ecc8-4aa3-af74-41cef5e31c9c","ios":"levelo://app?vid=a6fa6a5c-ecc8-4aa3-af74-41cef5e31c9c"},"vehicle_type_id":"4","last_reported":1710792407,"current_range_meters":0,"station_id":"ce4bgt92rcd13ifvqcg0","pricing_plan_id":"cebpf4jnsgd1na2vs0mg"},{"bike_id":"2dd714ec-343d-4f9d-ba29-8d35177482bd","system_id":"levelo_inurba_marseille","lat":43.307945,"lon":5.376487,"is_reserved":false,"is_disabled":false,"rental_uris":{"android":"levelo://app?vid=2dd714ec-343d-4f9d-ba29-8d35177482bd","ios":"levelo://app?vid=2dd714ec-343d-4f9d-ba29-8d35177482bd"},"vehicle_type_id":"4","last_reported":1710792407,"current_range_meters":11600,"station_id":"ce4bgv92rcd13ifvqcq0","pricing_plan_id":"cebpf4jnsgd1na2vs0mg"},{"bike_id":"3f5a9491-e030-4580-9ec2-6f85c307a4b0","system_id":"levelo_inurba_marseille","lat":43.307945,"lon":5.376487,"is_reserved":false,"is_disabled":false,"rental_uris":{"android":"levelo://app?vid=3f5a9491-e030-4580-9ec2-6f85c307a4b0","ios":"levelo://app?vid=3f5a9491-e030-4580-9ec2-6f85c307a4b0"},"vehicle_type_id":"4","last_reported":1710792407,"current_range_meters":4800,"station_id":"ce4bgv92rcd13ifvqcq0","pricing_plan_id":"cebpf4jnsgd1na2vs0mg"},{"bike_id":"2f1be5c5-6773-4fa6-b358-3dc4e7f929ca","system_id":"levelo_inurba_marseille","lat":43.307945,"lon":5.376487,"is_reserved":false,"is_disabled":false,"rental_uris":{"android":"levelo://app?vid=2f1be5c5-6773-4fa6-b358-3dc4e7f929ca","ios":"levelo://app?vid=2f1be5c5-6773-4fa6-b358-3dc4e7f929ca"},"vehicle_type_id":"4","last_reported":1710792407,"current_range_meters":2800,"station_id":"ce4bgv92rcd13ifvqcq0","pricing_plan_id":"cebpf4jnsgd1na2vs0mg"},{"bike_id":"2a44bd04-96b1-410d-9615-135428be1b7f","system_id":"levelo_inurba_marseille","lat":43.317075,"lon":5.377367,"is_reserved":false,"is_disabled":false,"rental_uris":{"android":"levelo://app?vid=2a44bd04-96b1-410d-9615-135428be1b7f","ios":"levelo://app?vid=2a44bd04-96b1-410d-9615-135428be1b7f"},"vehicle_type_id":"4","last_reported":1710792407,"current_range_meters":9200,"station_id":"ce4bgth2rcd13ifvqch0","pricing_plan_id":"cebpf4jnsgd1na2vs0mg"},{"bike_id":"dbcc1b07-42a3-484b-90ca-de829cf39713","system_id":"levelo_inurba_marseille","lat":43.317106,"lon":5.377574,"is_reserved":false,"is_disabled":false,"rental_uris":{"android":"levelo://app?vid=dbcc1b07-42a3-484b-90ca-de829cf39713","ios":"levelo://app?vid=dbcc1b07-42a3-484b-90ca-de829cf39713"},"vehicle_type_id":"4","last_reported":1710792407,"current_range_meters":14400,"station_id":"ce4bgth2rcd13ifvqch0","pricing_plan_id":"cebpf4jnsgd1na2vs0mg"},{"bike_id":"2d9bdcd6-c636-4f90-9b51-c640c7008bb9","system_id":"levelo_inurba_marseille","lat":43.317188,"lon":5.377552,"is_reserved":false,"is_disabled":false,"rental_uris":{"android":"levelo://app?vid=2d9bdcd6-c636-4f90-9b51-c640c7008bb9","ios":"levelo://app?vid=2d9bdcd6-c636-4f90-9b51-c640c7008bb9"},"vehicle_type_id":"4","last_reported":1710792407,"current_range_meters":16000,"station_id":"","pricing_plan_id":"cebpf4jnsgd1na2vs0mg"},{"bike_id":"d9bfbf9e-0c8e-4fa7-b7da-2493407971e3","system_id":"levelo_inurba_marseille","lat":43.303046,"lon":5.368981,"is_reserved":false,"is_disabled":false,"rental_uris":{"android":"levelo://app?vid=d9bfbf9e-0c8e-4fa7-b7da-2493407971e3","ios":"levelo://app?vid=d9bfbf9e-0c8e-4fa7-b7da-2493407971e3"},"vehicle_type_id":"4","last_reported":1710792407,"current_range_meters":2400,"station_id":"ce4bgqh2rcd13ifvqc5g","pricing_plan_id":"cebpf4jnsgd1na2vs0mg"},{"bike_id":"a5755d2e-536f-4cd6-870b-5dc413b48a8a","system_id":"levelo_inurba_marseille","lat":43.303187,"lon":5.369133,"is_reserved":false,"is_disabled":false,"rental_uris":{"android":"levelo://app?vid=a5755d2e-536f-4cd6-870b-5dc413b48a8a","ios":"levelo://app?vid=a5755d2e-536f-4cd6-870b-5dc413b48a8a"},"vehicle_type_id":"4","last_reported":1710792407,"current_range_meters":0,"station_id":"ce4bgqh2rcd13ifvqc5g","pricing_plan_id":"cebpf4jnsgd1na2vs0mg"},{"bike_id":"c7ddc5e7-5888-46a5-977b-b52c6c7ce114","system_id":"levelo_inurba_marseille","lat":43.315289,"lon":5.380349,"is_reserved":false,"is_disabled":false,"rental_uris":{"android":"levelo://app?vid=c7ddc5e7-5888-46a5-977b-b52c6c7ce114","ios":"levelo://app?vid=c7ddc5e7-5888-46a5-977b-b52c6c7ce114"},"vehicle_type_id":"4","last_reported":1710792407,"current_range_meters":10800,"station_id":"ce4bhsp2rcd13ifvqi50","pricing_plan_id":"cebpf4jnsgd1na2vs0mg"},{"bike_id":"8e255f8b-0d64-4b4e-b89e-d86810bd0165","system_id":"levelo_inurba_marseille","lat":43.315289,"lon":5.380349,"is_reserved":false,"is_disabled":false,"rental_uris":{"android":"levelo://app?vid=8e255f8b-0d64-4b4e-b89e-d86810bd0165","ios":"levelo://app?vid=8e255f8b-0d64-4b4e-b89e-d86810bd0165"},"vehicle_type_id":"4","last_reported":1710792407,"current_range_meters":2000,"station_id":"ce4bhsp2rcd13ifvqi50","pricing_plan_id":"cebpf4jnsgd1na2vs0mg"},{"bike_id":"850ed1c8-4739-4861-82e5-201f476f008d","system_id":"levelo_inurba_marseille","lat":43.315289,"lon":5.380349,"is_reserved":false,"is_disabled":false,"rental_uris":{"android":"levelo://app?vid=850ed1c8-4739-4861-82e5-201f476f008d","ios":"levelo://app?vid=850ed1c8-4739-4861-82e5-201f476f008d"},"vehicle_type_id":"4","last_reported":1710792407,"current_range_meters":0,"station_id":"ce4bhsp2rcd13ifvqi50","pricing_plan_id":"cebpf4jnsgd1na2vs0mg"},{"bike_id":"0f7cc778-bbe3-44ce-85c1-ef41fc360de7","system_id":"levelo_inurba_marseille","lat":43.315293,"lon":5.380349,"is_reserved":false,"is_disabled":false,"rental_uris":{"android":"levelo://app?vid=0f7cc778-bbe3-44ce-85c1-ef41fc360de7","ios":"levelo://app?vid=0f7cc778-bbe3-44ce-85c1-ef41fc360de7"},"vehicle_type_id":"4","last_reported":1710792407,"current_range_meters":17600,"station_id":"ce4bhsp2rcd13ifvqi50","pricing_plan_id":"cebpf4jnsgd1na2vs0mg"},{"bike_id":"ece9366f-34fa-4220-b6bf-13d947d5753c","system_id":"levelo_inurba_marseille","lat":43.301939,"lon":5.366286,"is_reserved":false,"is_disabled":false,"rental_uris":{"android":"levelo://app?vid=ece9366f-34fa-4220-b6bf-13d947d5753c","ios":"levelo://app?vid=ece9366f-34fa-4220-b6bf-13d947d5753c"},"vehicle_type_id":"4","last_reported":1710792407,"current_range_meters":2800,"station_id":"ce4bgrh2rcd13ifvqc8g","pricing_plan_id":"cebpf4jnsgd1na2vs0mg"},{"bike_id":"be78a422-d070-4a34-9eae-df67d08faac1","system_id":"levelo_inurba_marseille","lat":43.301939,"lon":5.366286,"is_reserved":false,"is_disabled":false,"rental_uris":{"android":"levelo://app?vid=be78a422-d070-4a34-9eae-df67d08faac1","ios":"levelo://app?vid=be78a422-d070-4a34-9eae-df67d08faac1"},"vehicle_type_id":"4","last_reported":1710792407,"current_range_meters":7200,"station_id":"ce4bgrh2rcd13ifvqc8g","pricing_plan_id":"cebpf4jnsgd1na2vs0mg"},{"bike_id":"63f72258-146b-4fa1-bcd1-8844ef24f287","system_id":"levelo_inurba_marseille","lat":43.30182,"lon":5.3662,"is_reserved":false,"is_disabled":false,"rental_uris":{"android":"levelo://app?vid=63f72258-146b-4fa1-bcd1-8844ef24f287","ios":"levelo://app?vid=63f72258-146b-4fa1-bcd1-8844ef24f287"},"vehicle_type_id":"4","last_reported":1710792407,"current_range_meters":0,"station_id":"ce4bgrh2rcd13ifvqc8g","pricing_plan_id":"cebpf4jnsgd1na2vs0mg"},{"bike_id":"2004b14b-5c0d-4b4e-a07a-ac9816e01d51","system_id":"levelo_inurba_marseille","lat":43.3018,"lon":5.36614,"is_reserved":false,"is_disabled":false,"rental_uris":{"android":"levelo://app?vid=2004b14b-5c0d-4b4e-a07a-ac9816e01d51","ios":"levelo://app?vid=2004b14b-5c0d-4b4e-a07a-ac9816e01d51"},"vehicle_type_id":"4","last_reported":1710792407,"current_range_meters":0,"station_id":"ce4bgrh2rcd13ifvqc8g","pricing_plan_id":"cebpf4jnsgd1na2vs0mg"},{"bike_id":"78bbc87d-e2cd-4fcc-9772-838b77512da0","system_id":"levelo_inurba_marseille","lat":43.308012,"lon":5.381511,"is_reserved":false,"is_disabled":false,"rental_uris":{"android":"levelo://app?vid=78bbc87d-e2cd-4fcc-9772-838b77512da0","ios":"levelo://app?vid=78bbc87d-e2cd-4fcc-9772-838b77512da0"},"vehicle_type_id":"4","last_reported":1710792407,"current_range_meters":800,"station_id":"ce4bgt12rcd13ifvqce0","pricing_plan_id":"cebpf4jnsgd1na2vs0mg"},{"bike_id":"441d5266-a8b0-4998-b946-218c78c77cf1","system_id":"levelo_inurba_marseille","lat":43.308017,"lon":5.381437,"is_reserved":false,"is_disabled":false,"rental_uris":{"android":"levelo://app?vid=441d5266-a8b0-4998-b946-218c78c77cf1","ios":"levelo://app?vid=441d5266-a8b0-4998-b946-218c78c77cf1"},"vehicle_type_id":"4","last_reported":1710792407,"current_range_meters":0,"station_id":"ce4bgt12rcd13ifvqce0","pricing_plan_id":"cebpf4jnsgd1na2vs0mg"},{"bike_id":"ef12b338-aeff-4c5f-9552-0046b766dfcb","system_id":"levelo_inurba_marseille","lat":43.308012,"lon":5.381511,"is_reserved":false,"is_disabled":false,"rental_uris":{"android":"levelo://app?vid=ef12b338-aeff-4c5f-9552-0046b766dfcb","ios":"levelo://app?vid=ef12b338-aeff-4c5f-9552-0046b766dfcb"},"vehicle_type_id":"4","last_reported":1710792407,"current_range_meters":10000,"station_id":"ce4bgt12rcd13ifvqce0","pricing_plan_id":"cebpf4jnsgd1na2vs0mg"},{"bike_id":"91218e93-80c2-4ff5-b1b7-dfa46705baa0","system_id":"levelo_inurba_marseille","lat":43.308012,"lon":5.381511,"is_reserved":false,"is_disabled":false,"rental_uris":{"android":"levelo://app?vid=91218e93-80c2-4ff5-b1b7-dfa46705baa0","ios":"levelo://app?vid=91218e93-80c2-4ff5-b1b7-dfa46705baa0"},"vehicle_type_id":"4","last_reported":1710792407,"current_range_meters":0,"station_id":"ce4bgt12rcd13ifvqce0","pricing_plan_id":"cebpf4jnsgd1na2vs0mg"},{"bike_id":"c69ae619-ff3a-4b02-a9d9-4fe1177389bd","system_id":"levelo_inurba_marseille","lat":43.324771,"lon":5.36557,"is_reserved":false,"is_disabled":false,"rental_uris":{"android":"levelo://app?vid=c69ae619-ff3a-4b02-a9d9-4fe1177389bd","ios":"levelo://app?vid=c69ae619-ff3a-4b02-a9d9-4fe1177389bd"},"vehicle_type_id":"4","last_reported":1710792407,"current_range_meters":21600,"station_id":"ce4bhs12rcd13ifvqhvg","pricing_plan_id":"cebpf4jnsgd1na2vs0mg"},{"bike_id":"0816793d-1fca-4134-92d4-90b3bf1313d5","system_id":"levelo_inurba_marseille","lat":43.324771,"lon":5.36557,"is_reserved":false,"is_disabled":false,"rental_uris":{"android":"levelo://app?vid=0816793d-1fca-4134-92d4-90b3bf1313d5","ios":"levelo://app?vid=0816793d-1fca-4134-92d4-90b3bf1313d5"},"vehicle_type_id":"4","last_reported":1710792407,"current_range_meters":12400,"station_id":"ce4bhs12rcd13ifvqhvg","pricing_plan_id":"cebpf4jnsgd1na2vs0mg"},{"bike_id":"50414698-59d1-4dd1-95e9-1c1e788af058","system_id":"levelo_inurba_marseille","lat":43.324771,"lon":5.36557,"is_reserved":false,"is_disabled":false,"rental_uris":{"android":"levelo://app?vid=50414698-59d1-4dd1-95e9-1c1e788af058","ios":"levelo://app?vid=50414698-59d1-4dd1-95e9-1c1e788af058"},"vehicle_type_id":"4","last_reported":1710792407,"current_range_meters":14000,"station_id":"ce4bhs12rcd13ifvqhvg","pricing_plan_id":"cebpf4jnsgd1na2vs0mg"},{"bike_id":"79a9f218-61ec-4a13-ae01-39c83265df8b","system_id":"levelo_inurba_marseille","lat":43.324771,"lon":5.36557,"is_reserved":false,"is_disabled":false,"rental_uris":{"android":"levelo://app?vid=79a9f218-61ec-4a13-ae01-39c83265df8b","ios":"levelo://app?vid=79a9f218-61ec-4a13-ae01-39c83265df8b"},"vehicle_type_id":"4","last_reported":1710792407,"current_range_meters":16400,"station_id":"ce4bhs12rcd13ifvqhvg","pricing_plan_id":"cebpf4jnsgd1na2vs0mg"},{"bike_id":"c59bee61-0974-4e45-8386-bda8425ea8fd","system_id":"levelo_inurba_marseille","lat":43.324771,"lon":5.36557,"is_reserved":false,"is_disabled":false,"rental_uris":{"android":"levelo://app?vid=c59bee61-0974-4e45-8386-bda8425ea8fd","ios":"levelo://app?vid=c59bee61-0974-4e45-8386-bda8425ea8fd"},"vehicle_type_id":"4","last_reported":1710792407,"current_range_meters":29600,"station_id":"ce4bhs12rcd13ifvqhvg","pricing_plan_id":"cebpf4jnsgd1na2vs0mg"},{"bike_id":"8e19bf73-b01f-4c74-99be-550febd51e79","system_id":"levelo_inurba_marseille","lat":43.310804,"lon":5.38359,"is_reserved":false,"is_disabled":false,"rental_uris":{"android":"levelo://app?vid=8e19bf73-b01f-4c74-99be-550febd51e79","ios":"levelo://app?vid=8e19bf73-b01f-4c74-99be-550febd51e79"},"vehicle_type_id":"4","last_reported":1710792407,"current_range_meters":0,"station_id":"ce4bgv92rcd13ifvqcr0","pricing_plan_id":"cebpf4jnsgd1na2vs0mg"},{"bike_id":"cb44fa02-77bb-47ec-b2bd-87f1bde1bdc0","system_id":"levelo_inurba_marseille","lat":43.30144,"lon":5.37413,"is_reserved":false,"is_disabled":false,"rental_uris":{"android":"levelo://app?vid=cb44fa02-77bb-47ec-b2bd-87f1bde1bdc0","ios":"levelo://app?vid=cb44fa02-77bb-47ec-b2bd-87f1bde1bdc0"},"vehicle_type_id":"4","last_reported":1710792407,"current_range_meters":0,"station_id":"ce4bgs92rcd13ifvqcc0","pricing_plan_id":"cebpf4jnsgd1na2vs0mg"},{"bike_id":"801f5fe0-91c3-45e0-8625-b6391ac56432","system_id":"levelo_inurba_marseille","lat":43.30142,"lon":5.37415,"is_reserved":false,"is_disabled":false,"rental_uris":{"android":"levelo://app?vid=801f5fe0-91c3-45e0-8625-b6391ac56432","ios":"levelo://app?vid=801f5fe0-91c3-45e0-8625-b6391ac56432"},"vehicle_type_id":"4","last_reported":1710792407,"current_range_meters":30800,"station_id":"ce4bgs92rcd13ifvqcc0","pricing_plan_id":"cebpf4jnsgd1na2vs0mg"},{"bike_id":"7775c046-3e8e-44d2-a200-6e765fa35f18","system_id":"levelo_inurba_marseille","lat":43.301258,"lon":5.374232,"is_reserved":false,"is_disabled":false,"rental_uris":{"android":"levelo://app?vid=7775c046-3e8e-44d2-a200-6e765fa35f18","ios":"levelo://app?vid=7775c046-3e8e-44d2-a200-6e765fa35f18"},"vehicle_type_id":"4","last_reported":1710792407,"current_range_meters":16000,"station_id":"ce4bgs92rcd13ifvqcc0","pricing_plan_id":"cebpf4jnsgd1na2vs0mg"},{"bike_id":"4bc451a1-3314-4300-994e-f9fd16ea23b7","system_id":"levelo_inurba_marseille","lat":43.319936,"lon":5.38148,"is_reserved":false,"is_disabled":false,"rental_uris":{"android":"levelo://app?vid=4bc451a1-3314-4300-994e-f9fd16ea23b7","ios":"levelo://app?vid=4bc451a1-3314-4300-994e-f9fd16ea23b7"},"vehicle_type_id":"4","last_reported":1710792407,"current_range_meters":15200,"station_id":"ce4bhr12rcd13ifvqhpg","pricing_plan_id":"cebpf4jnsgd1na2vs0mg"},{"bike_id":"e56266a3-315d-4809-950e-29919c2ecca0","system_id":"levelo_inurba_marseille","lat":43.31994,"lon":5.38157,"is_reserved":false,"is_disabled":false,"rental_uris":{"android":"levelo://app?vid=e56266a3-315d-4809-950e-29919c2ecca0","ios":"levelo://app?vid=e56266a3-315d-4809-950e-29919c2ecca0"},"vehicle_type_id":"4","last_reported":1710792407,"current_range_meters":3200,"station_id":"ce4bhr12rcd13ifvqhpg","pricing_plan_id":"cebpf4jnsgd1na2vs0mg"},{"bike_id":"bf310d92-9fb8-4e92-9e5c-7371b2a2f5f5","system_id":"levelo_inurba_marseille","lat":43.320008,"lon":5.38151,"is_reserved":false,"is_disabled":false,"rental_uris":{"android":"levelo://app?vid=bf310d92-9fb8-4e92-9e5c-7371b2a2f5f5","ios":"levelo://app?vid=bf310d92-9fb8-4e92-9e5c-7371b2a2f5f5"},"vehicle_type_id":"4","last_reported":1710792407,"current_range_meters":7600,"station_id":"ce4bhr12rcd13ifvqhpg","pricing_plan_id":"cebpf4jnsgd1na2vs0mg"},{"bike_id":"99b6d252-0b8b-4d81-bda6-bfc67dc33b41","system_id":"levelo_inurba_marseille","lat":43.31997,"lon":5.38156,"is_reserved":false,"is_disabled":false,"rental_uris":{"android":"levelo://app?vid=99b6d252-0b8b-4d81-bda6-bfc67dc33b41","ios":"levelo://app?vid=99b6d252-0b8b-4d81-bda6-bfc67dc33b41"},"vehicle_type_id":"4","last_reported":1710792407,"current_range_meters":14800,"station_id":"ce4bhr12rcd13ifvqhpg","pricing_plan_id":"cebpf4jnsgd1na2vs0mg"},{"bike_id":"be83824f-cd7e-44ed-bda3-89905b40ab1f","system_id":"levelo_inurba_marseille","lat":43.319959,"lon":5.381578,"is_reserved":false,"is_disabled":false,"rental_uris":{"android":"levelo://app?vid=be83824f-cd7e-44ed-bda3-89905b40ab1f","ios":"levelo://app?vid=be83824f-cd7e-44ed-bda3-89905b40ab1f"},"vehicle_type_id":"4","last_reported":1710792407,"current_range_meters":10800,"station_id":"ce4bhr12rcd13ifvqhpg","pricing_plan_id":"cebpf4jnsgd1na2vs0mg"},{"bike_id":"b3015aab-550e-45d6-9e44-61aef91bf99b","system_id":"levelo_inurba_marseille","lat":43.31996,"lon":5.381596,"is_reserved":false,"is_disabled":false,"rental_uris":{"android":"levelo://app?vid=b3015aab-550e-45d6-9e44-61aef91bf99b","ios":"levelo://app?vid=b3015aab-550e-45d6-9e44-61aef91bf99b"},"vehicle_type_id":"4","last_reported":1710792407,"current_range_meters":16000,"station_id":"ce4bhr12rcd13ifvqhpg","pricing_plan_id":"cebpf4jnsgd1na2vs0mg"},{"bike_id":"32f4d226-b8f1-44f0-8277-cfd05f9842a8","system_id":"levelo_inurba_marseille","lat":43.32004,"lon":5.38156,"is_reserved":false,"is_disabled":false,"rental_uris":{"android":"levelo://app?vid=32f4d226-b8f1-44f0-8277-cfd05f9842a8","ios":"levelo://app?vid=32f4d226-b8f1-44f0-8277-cfd05f9842a8"},"vehicle_type_id":"4","last_reported":1710792407,"current_range_meters":17600,"station_id":"ce4bhr12rcd13ifvqhpg","pricing_plan_id":"cebpf4jnsgd1na2vs0mg"},{"bike_id":"cc25c133-2c66-4eeb-b4be-2abcbea65b60","system_id":"levelo_inurba_marseille","lat":43.313571,"lon":5.384829,"is_reserved":false,"is_disabled":false,"rental_uris":{"android":"levelo://app?vid=cc25c133-2c66-4eeb-b4be-2abcbea65b60","ios":"levelo://app?vid=cc25c133-2c66-4eeb-b4be-2abcbea65b60"},"vehicle_type_id":"4","last_reported":1710792407,"current_range_meters":11600,"station_id":"ce4bgt92rcd13ifvqcf0","pricing_plan_id":"cebpf4jnsgd1na2vs0mg"},{"bike_id":"19160eea-23dd-4a59-8f9a-b2c332406e56","system_id":"levelo_inurba_marseille","lat":43.31351,"lon":5.38489,"is_reserved":false,"is_disabled":false,"rental_uris":{"android":"levelo://app?vid=19160eea-23dd-4a59-8f9a-b2c332406e56","ios":"levelo://app?vid=19160eea-23dd-4a59-8f9a-b2c332406e56"},"vehicle_type_id":"4","last_reported":1710792407,"current_range_meters":23600,"station_id":"ce4bgt92rcd13ifvqcf0","pricing_plan_id":"cebpf4jnsgd1na2vs0mg"},{"bike_id":"52e63f99-e49a-4e61-a2ff-1a3bbf761d32","system_id":"levelo_inurba_marseille","lat":43.313571,"lon":5.384829,"is_reserved":false,"is_disabled":false,"rental_uris":{"android":"levelo://app?vid=52e63f99-e49a-4e61-a2ff-1a3bbf761d32","ios":"levelo://app?vid=52e63f99-e49a-4e61-a2ff-1a3bbf761d32"},"vehicle_type_id":"4","last_reported":1710792407,"current_range_meters":19200,"station_id":"ce4bgt92rcd13ifvqcf0","pricing_plan_id":"cebpf4jnsgd1na2vs0mg"},{"bike_id":"cf46a32e-977d-4b55-9926-e8e66d6dae3a","system_id":"levelo_inurba_marseille","lat":43.313571,"lon":5.384829,"is_reserved":false,"is_disabled":false,"rental_uris":{"android":"levelo://app?vid=cf46a32e-977d-4b55-9926-e8e66d6dae3a","ios":"levelo://app?vid=cf46a32e-977d-4b55-9926-e8e66d6dae3a"},"vehicle_type_id":"4","last_reported":1710792407,"current_range_meters":23600,"station_id":"ce4bgt92rcd13ifvqcf0","pricing_plan_id":"cebpf4jnsgd1na2vs0mg"},{"bike_id":"5b0382a0-7823-4dd2-9397-1eb81b12adae","system_id":"levelo_inurba_marseille","lat":43.299516,"lon":5.365478,"is_reserved":false,"is_disabled":false,"rental_uris":{"android":"levelo://app?vid=5b0382a0-7823-4dd2-9397-1eb81b12adae","ios":"levelo://app?vid=5b0382a0-7823-4dd2-9397-1eb81b12adae"},"vehicle_type_id":"4","last_reported":1710792407,"current_range_meters":9200,"station_id":"ce4bgm92rcd13ifvqbr0","pricing_plan_id":"cebpf4jnsgd1na2vs0mg"},{"bike_id":"0ad83a4f-b68f-43fd-8be1-fda67a92a76d","system_id":"levelo_inurba_marseille","lat":43.299222,"lon":5.365554,"is_reserved":false,"is_disabled":false,"rental_uris":{"android":"levelo://app?vid=0ad83a4f-b68f-43fd-8be1-fda67a92a76d","ios":"levelo://app?vid=0ad83a4f-b68f-43fd-8be1-fda67a92a76d"},"vehicle_type_id":"4","last_reported":1710792407,"current_range_meters":0,"station_id":"ce4bgm92rcd13ifvqbr0","pricing_plan_id":"cebpf4jnsgd1na2vs0mg"},{"bike_id":"87606346-82ec-4ea1-8c4a-7628eb90a6db","system_id":"levelo_inurba_marseille","lat":43.299724,"lon":5.371829,"is_reserved":false,"is_disabled":false,"rental_uris":{"android":"levelo://app?vid=87606346-82ec-4ea1-8c4a-7628eb90a6db","ios":"levelo://app?vid=87606346-82ec-4ea1-8c4a-7628eb90a6db"},"vehicle_type_id":"4","last_reported":1710792407,"current_range_meters":26800,"station_id":"ce4bgr92rcd13ifvqc7g","pricing_plan_id":"cebpf4jnsgd1na2vs0mg"},{"bike_id":"4bf728c9-9d6f-4468-b9d6-0613eca64002","system_id":"levelo_inurba_marseille","lat":43.298433,"lon":5.362774,"is_reserved":false,"is_disabled":false,"rental_uris":{"android":"levelo://app?vid=4bf728c9-9d6f-4468-b9d6-0613eca64002","ios":"levelo://app?vid=4bf728c9-9d6f-4468-b9d6-0613eca64002"},"vehicle_type_id":"4","last_reported":1710792407,"current_range_meters":2800,"station_id":"ce4bgpp2rcd13ifvqc3g","pricing_plan_id":"cebpf4jnsgd1na2vs0mg"},{"bike_id":"17116104-ce1a-4b8a-8101-cc71cb4fc583","system_id":"levelo_inurba_marseille","lat":43.298433,"lon":5.362774,"is_reserved":false,"is_disabled":false,"rental_uris":{"android":"levelo://app?vid=17116104-ce1a-4b8a-8101-cc71cb4fc583","ios":"levelo://app?vid=17116104-ce1a-4b8a-8101-cc71cb4fc583"},"vehicle_type_id":"4","last_reported":1710792407,"current_range_meters":12000,"station_id":"ce4bgpp2rcd13ifvqc3g","pricing_plan_id":"cebpf4jnsgd1na2vs0mg"},{"bike_id":"d64bf169-5e88-490b-a0c0-849d15f7ffc4","system_id":"levelo_inurba_marseille","lat":43.299243,"lon":5.374807,"is_reserved":false,"is_disabled":false,"rental_uris":{"android":"levelo://app?vid=d64bf169-5e88-490b-a0c0-849d15f7ffc4","ios":"levelo://app?vid=d64bf169-5e88-490b-a0c0-849d15f7ffc4"},"vehicle_type_id":"4","last_reported":1710792407,"current_range_meters":0,"station_id":"ce4bgjh2rcd13ifvqbg0","pricing_plan_id":"cebpf4jnsgd1na2vs0mg"},{"bike_id":"40b09d18-4c97-4e55-be7f-a6fcf0025a71","system_id":"levelo_inurba_marseille","lat":43.298433,"lon":5.362774,"is_reserved":false,"is_disabled":false,"rental_uris":{"android":"levelo://app?vid=40b09d18-4c97-4e55-be7f-a6fcf0025a71","ios":"levelo://app?vid=40b09d18-4c97-4e55-be7f-a6fcf0025a71"},"vehicle_type_id":"4","last_reported":1710792407,"current_range_meters":11600,"station_id":"ce4bgpp2rcd13ifvqc3g","pricing_plan_id":"cebpf4jnsgd1na2vs0mg"},{"bike_id":"febc5af7-02fa-436b-b57d-a9734c36dd59","system_id":"levelo_inurba_marseille","lat":43.305364,"lon":5.384119,"is_reserved":false,"is_disabled":false,"rental_uris":{"android":"levelo://app?vid=febc5af7-02fa-436b-b57d-a9734c36dd59","ios":"levelo://app?vid=febc5af7-02fa-436b-b57d-a9734c36dd59"},"vehicle_type_id":"4","last_reported":1710792407,"current_range_meters":2800,"station_id":"ce4bgg92rcd13ifvqb30","pricing_plan_id":"cebpf4jnsgd1na2vs0mg"},{"bike_id":"0a8153b9-6884-462d-8042-9fbfe054ffdb","system_id":"levelo_inurba_marseille","lat":43.299243,"lon":5.374807,"is_reserved":false,"is_disabled":false,"rental_uris":{"android":"levelo://app?vid=0a8153b9-6884-462d-8042-9fbfe054ffdb","ios":"levelo://app?vid=0a8153b9-6884-462d-8042-9fbfe054ffdb"},"vehicle_type_id":"4","last_reported":1710792407,"current_range_meters":0,"station_id":"ce4bgjh2rcd13ifvqbg0","pricing_plan_id":"cebpf4jnsgd1na2vs0mg"},{"bike_id":"b9a7ae21-acad-44e1-b67f-11334a5f48f2","system_id":"levelo_inurba_marseille","lat":43.299243,"lon":5.374807,"is_reserved":false,"is_disabled":false,"rental_uris":{"android":"levelo://app?vid=b9a7ae21-acad-44e1-b67f-11334a5f48f2","ios":"levelo://app?vid=b9a7ae21-acad-44e1-b67f-11334a5f48f2"},"vehicle_type_id":"4","last_reported":1710792407,"current_range_meters":2000,"station_id":"ce4bgjh2rcd13ifvqbg0","pricing_plan_id":"cebpf4jnsgd1na2vs0mg"},{"bike_id":"b2ac6343-7575-4a65-a761-ab1fda5926ab","system_id":"levelo_inurba_marseille","lat":43.297853,"lon":5.371127,"is_reserved":false,"is_disabled":false,"rental_uris":{"android":"levelo://app?vid=b2ac6343-7575-4a65-a761-ab1fda5926ab","ios":"levelo://app?vid=b2ac6343-7575-4a65-a761-ab1fda5926ab"},"vehicle_type_id":"4","last_reported":1710792407,"current_range_meters":0,"station_id":"ce4bgop2rcd13ifvqc1g","pricing_plan_id":"cebpf4jnsgd1na2vs0mg"},{"bike_id":"88a63eaa-7088-4c33-a8a5-44cf5cffa30b","system_id":"levelo_inurba_marseille","lat":43.322905,"lon":5.382583,"is_reserved":false,"is_disabled":false,"rental_uris":{"android":"levelo://app?vid=88a63eaa-7088-4c33-a8a5-44cf5cffa30b","ios":"levelo://app?vid=88a63eaa-7088-4c33-a8a5-44cf5cffa30b"},"vehicle_type_id":"4","last_reported":1710792407,"current_range_meters":0,"station_id":"ce4bhr12rcd13ifvqhqg","pricing_plan_id":"cebpf4jnsgd1na2vs0mg"},{"bike_id":"2cee7f84-3c6f-4a6b-8a16-ad9ac9638800","system_id":"levelo_inurba_marseille","lat":43.32287,"lon":5.38263,"is_reserved":false,"is_disabled":false,"rental_uris":{"android":"levelo://app?vid=2cee7f84-3c6f-4a6b-8a16-ad9ac9638800","ios":"levelo://app?vid=2cee7f84-3c6f-4a6b-8a16-ad9ac9638800"},"vehicle_type_id":"4","last_reported":1710792407,"current_range_meters":8000,"station_id":"ce4bhr12rcd13ifvqhqg","pricing_plan_id":"cebpf4jnsgd1na2vs0mg"},{"bike_id":"bd6b6545-b45a-4dc0-b743-d330ab6c2563","system_id":"levelo_inurba_marseille","lat":43.32287,"lon":5.38263,"is_reserved":false,"is_disabled":false,"rental_uris":{"android":"levelo://app?vid=bd6b6545-b45a-4dc0-b743-d330ab6c2563","ios":"levelo://app?vid=bd6b6545-b45a-4dc0-b743-d330ab6c2563"},"vehicle_type_id":"4","last_reported":1710792407,"current_range_meters":31200,"station_id":"ce4bhr12rcd13ifvqhqg","pricing_plan_id":"cebpf4jnsgd1na2vs0mg"},{"bike_id":"accb2f69-ca20-4b2f-9b54-89cf5f810bdd","system_id":"levelo_inurba_marseille","lat":43.322909,"lon":5.382586,"is_reserved":false,"is_disabled":false,"rental_uris":{"android":"levelo://app?vid=accb2f69-ca20-4b2f-9b54-89cf5f810bdd","ios":"levelo://app?vid=accb2f69-ca20-4b2f-9b54-89cf5f810bdd"},"vehicle_type_id":"4","last_reported":1710792407,"current_range_meters":28400,"station_id":"ce4bhr12rcd13ifvqhqg","pricing_plan_id":"cebpf4jnsgd1na2vs0mg"},{"bike_id":"36727d06-0af4-4c64-88de-4193d3d2494b","system_id":"levelo_inurba_marseille","lat":43.32286,"lon":5.38267,"is_reserved":false,"is_disabled":false,"rental_uris":{"android":"levelo://app?vid=36727d06-0af4-4c64-88de-4193d3d2494b","ios":"levelo://app?vid=36727d06-0af4-4c64-88de-4193d3d2494b"},"vehicle_type_id":"4","last_reported":1710792407,"current_range_meters":20400,"station_id":"ce4bhr12rcd13ifvqhqg","pricing_plan_id":"cebpf4jnsgd1na2vs0mg"},{"bike_id":"3ff125a5-dff1-4591-b6cc-449dc2424878","system_id":"levelo_inurba_marseille","lat":43.322881,"lon":5.382656,"is_reserved":false,"is_disabled":false,"rental_uris":{"android":"levelo://app?vid=3ff125a5-dff1-4591-b6cc-449dc2424878","ios":"levelo://app?vid=3ff125a5-dff1-4591-b6cc-449dc2424878"},"vehicle_type_id":"4","last_reported":1710792407,"current_range_meters":22400,"station_id":"ce4bhr12rcd13ifvqhqg","pricing_plan_id":"cebpf4jnsgd1na2vs0mg"},{"bike_id":"91661059-3a23-4a59-a092-324bcd819f8c","system_id":"levelo_inurba_marseille","lat":43.322908,"lon":5.382658,"is_reserved":false,"is_disabled":false,"rental_uris":{"android":"levelo://app?vid=91661059-3a23-4a59-a092-324bcd819f8c","ios":"levelo://app?vid=91661059-3a23-4a59-a092-324bcd819f8c"},"vehicle_type_id":"4","last_reported":1710792407,"current_range_meters":8800,"station_id":"ce4bhr12rcd13ifvqhqg","pricing_plan_id":"cebpf4jnsgd1na2vs0mg"},{"bike_id":"2a9146f5-559c-464c-8ede-4996d3f2e7eb","system_id":"levelo_inurba_marseille","lat":43.32296,"lon":5.3826,"is_reserved":false,"is_disabled":false,"rental_uris":{"android":"levelo://app?vid=2a9146f5-559c-464c-8ede-4996d3f2e7eb","ios":"levelo://app?vid=2a9146f5-559c-464c-8ede-4996d3f2e7eb"},"vehicle_type_id":"4","last_reported":1710792407,"current_range_meters":1200,"station_id":"ce4bhr12rcd13ifvqhqg","pricing_plan_id":"cebpf4jnsgd1na2vs0mg"},{"bike_id":"5f8b4803-e4ba-4452-a9f1-55c7a87b5d2b","system_id":"levelo_inurba_marseille","lat":43.32291,"lon":5.38268,"is_reserved":false,"is_disabled":false,"rental_uris":{"android":"levelo://app?vid=5f8b4803-e4ba-4452-a9f1-55c7a87b5d2b","ios":"levelo://app?vid=5f8b4803-e4ba-4452-a9f1-55c7a87b5d2b"},"vehicle_type_id":"4","last_reported":1710792407,"current_range_meters":20800,"station_id":"ce4bhr12rcd13ifvqhqg","pricing_plan_id":"cebpf4jnsgd1na2vs0mg"},{"bike_id":"7401316c-083f-4d8b-955b-b19d29b3e073","system_id":"levelo_inurba_marseille","lat":43.32287,"lon":5.38273,"is_reserved":false,"is_disabled":false,"rental_uris":{"android":"levelo://app?vid=7401316c-083f-4d8b-955b-b19d29b3e073","ios":"levelo://app?vid=7401316c-083f-4d8b-955b-b19d29b3e073"},"vehicle_type_id":"4","last_reported":1710792407,"current_range_meters":4800,"station_id":"ce4bhr12rcd13ifvqhqg","pricing_plan_id":"cebpf4jnsgd1na2vs0mg"},{"bike_id":"16decc57-ed9a-40d4-8633-e2f1ee463781","system_id":"levelo_inurba_marseille","lat":43.32287,"lon":5.382732,"is_reserved":false,"is_disabled":false,"rental_uris":{"android":"levelo://app?vid=16decc57-ed9a-40d4-8633-e2f1ee463781","ios":"levelo://app?vid=16decc57-ed9a-40d4-8633-e2f1ee463781"},"vehicle_type_id":"4","last_reported":1710792407,"current_range_meters":28800,"station_id":"ce4bhr12rcd13ifvqhqg","pricing_plan_id":"cebpf4jnsgd1na2vs0mg"},{"bike_id":"feead7e7-9cee-4c57-94a6-da647512767c","system_id":"levelo_inurba_marseille","lat":43.32295,"lon":5.38264,"is_reserved":false,"is_disabled":false,"rental_uris":{"android":"levelo://app?vid=feead7e7-9cee-4c57-94a6-da647512767c","ios":"levelo://app?vid=feead7e7-9cee-4c57-94a6-da647512767c"},"vehicle_type_id":"4","last_reported":1710792407,"current_range_meters":21600,"station_id":"ce4bhr12rcd13ifvqhqg","pricing_plan_id":"cebpf4jnsgd1na2vs0mg"},{"bike_id":"4f4a75fa-11e1-4b9c-9fc5-7e2938322638","system_id":"levelo_inurba_marseille","lat":43.32292,"lon":5.3827,"is_reserved":false,"is_disabled":false,"rental_uris":{"android":"levelo://app?vid=4f4a75fa-11e1-4b9c-9fc5-7e2938322638","ios":"levelo://app?vid=4f4a75fa-11e1-4b9c-9fc5-7e2938322638"},"vehicle_type_id":"4","last_reported":1710792407,"current_range_meters":30400,"station_id":"ce4bhr12rcd13ifvqhqg","pricing_plan_id":"cebpf4jnsgd1na2vs0mg"},{"bike_id":"bbaa44f1-e76b-48bc-a428-cf353df54683","system_id":"levelo_inurba_marseille","lat":43.322912,"lon":5.382783,"is_reserved":false,"is_disabled":false,"rental_uris":{"android":"levelo://app?vid=bbaa44f1-e76b-48bc-a428-cf353df54683","ios":"levelo://app?vid=bbaa44f1-e76b-48bc-a428-cf353df54683"},"vehicle_type_id":"4","last_reported":1710792407,"current_range_meters":0,"station_id":"ce4bhr12rcd13ifvqhqg","pricing_plan_id":"cebpf4jnsgd1na2vs0mg"},{"bike_id":"eddeac31-d118-4f00-9fae-66dd1f398919","system_id":"levelo_inurba_marseille","lat":43.32298,"lon":5.38281,"is_reserved":false,"is_disabled":false,"rental_uris":{"android":"levelo://app?vid=eddeac31-d118-4f00-9fae-66dd1f398919","ios":"levelo://app?vid=eddeac31-d118-4f00-9fae-66dd1f398919"},"vehicle_type_id":"4","last_reported":1710792407,"current_range_meters":11600,"station_id":"ce4bhr12rcd13ifvqhqg","pricing_plan_id":"cebpf4jnsgd1na2vs0mg"},{"bike_id":"ef20d79a-95cd-4249-bfd1-0bff90ae8847","system_id":"levelo_inurba_marseille","lat":43.299243,"lon":5.374807,"is_reserved":false,"is_disabled":false,"rental_uris":{"android":"levelo://app?vid=ef20d79a-95cd-4249-bfd1-0bff90ae8847","ios":"levelo://app?vid=ef20d79a-95cd-4249-bfd1-0bff90ae8847"},"vehicle_type_id":"4","last_reported":1710792407,"current_range_meters":0,"station_id":"ce4bgjh2rcd13ifvqbg0","pricing_plan_id":"cebpf4jnsgd1na2vs0mg"},{"bike_id":"f2471fba-85a4-4792-a214-b094b5b6bf9f","system_id":"levelo_inurba_marseille","lat":43.297163,"lon":5.365866,"is_reserved":false,"is_disabled":false,"rental_uris":{"android":"levelo://app?vid=f2471fba-85a4-4792-a214-b094b5b6bf9f","ios":"levelo://app?vid=f2471fba-85a4-4792-a214-b094b5b6bf9f"},"vehicle_type_id":"4","last_reported":1710792407,"current_range_meters":10000,"station_id":"ce4bgn12rcd13ifvqbt0","pricing_plan_id":"cebpf4jnsgd1na2vs0mg"},{"bike_id":"82bb1f92-9910-4409-96d6-983dfab326d1","system_id":"levelo_inurba_marseille","lat":43.297163,"lon":5.365866,"is_reserved":false,"is_disabled":false,"rental_uris":{"android":"levelo://app?vid=82bb1f92-9910-4409-96d6-983dfab326d1","ios":"levelo://app?vid=82bb1f92-9910-4409-96d6-983dfab326d1"},"vehicle_type_id":"4","last_reported":1710792407,"current_range_meters":13600,"station_id":"ce4bgn12rcd13ifvqbt0","pricing_plan_id":"cebpf4jnsgd1na2vs0mg"},{"bike_id":"a83c3a49-1dc2-4ff6-97bb-3ec10dcceaa9","system_id":"levelo_inurba_marseille","lat":43.297163,"lon":5.365866,"is_reserved":false,"is_disabled":false,"rental_uris":{"android":"levelo://app?vid=a83c3a49-1dc2-4ff6-97bb-3ec10dcceaa9","ios":"levelo://app?vid=a83c3a49-1dc2-4ff6-97bb-3ec10dcceaa9"},"vehicle_type_id":"4","last_reported":1710792407,"current_range_meters":17200,"station_id":"ce4bgn12rcd13ifvqbt0","pricing_plan_id":"cebpf4jnsgd1na2vs0mg"},{"bike_id":"1f261923-6b55-44f7-ac93-b2312dbeef42","system_id":"levelo_inurba_marseille","lat":43.29692,"lon":5.37291,"is_reserved":false,"is_disabled":false,"rental_uris":{"android":"levelo://app?vid=1f261923-6b55-44f7-ac93-b2312dbeef42","ios":"levelo://app?vid=1f261923-6b55-44f7-ac93-b2312dbeef42"},"vehicle_type_id":"4","last_reported":1710792407,"current_range_meters":0,"station_id":"ce4bgk12rcd13ifvqbj0","pricing_plan_id":"cebpf4jnsgd1na2vs0mg"},{"bike_id":"9729f34c-d945-45bc-8d2c-3768299bb8cb","system_id":"levelo_inurba_marseille","lat":43.29687,"lon":5.372793,"is_reserved":false,"is_disabled":false,"rental_uris":{"android":"levelo://app?vid=9729f34c-d945-45bc-8d2c-3768299bb8cb","ios":"levelo://app?vid=9729f34c-d945-45bc-8d2c-3768299bb8cb"},"vehicle_type_id":"4","last_reported":1710792407,"current_range_meters":18400,"station_id":"ce4bgk12rcd13ifvqbj0","pricing_plan_id":"cebpf4jnsgd1na2vs0mg"},{"bike_id":"1e2b8ccb-64fa-4abf-a0a3-9ce45aa3b2b2","system_id":"levelo_inurba_marseille","lat":43.296921,"lon":5.376579,"is_reserved":false,"is_disabled":false,"rental_uris":{"android":"levelo://app?vid=1e2b8ccb-64fa-4abf-a0a3-9ce45aa3b2b2","ios":"levelo://app?vid=1e2b8ccb-64fa-4abf-a0a3-9ce45aa3b2b2"},"vehicle_type_id":"4","last_reported":1710792407,"current_range_meters":4400,"station_id":"ce4bgkh2rcd13ifvqbl0","pricing_plan_id":"cebpf4jnsgd1na2vs0mg"},{"bike_id":"7755c456-80c6-413e-aab2-019af5c706fb","system_id":"levelo_inurba_marseille","lat":43.2973,"lon":5.37694,"is_reserved":false,"is_disabled":false,"rental_uris":{"android":"levelo://app?vid=7755c456-80c6-413e-aab2-019af5c706fb","ios":"levelo://app?vid=7755c456-80c6-413e-aab2-019af5c706fb"},"vehicle_type_id":"4","last_reported":1710792407,"current_range_meters":0,"station_id":"ce4bgkh2rcd13ifvqbl0","pricing_plan_id":"cebpf4jnsgd1na2vs0mg"},{"bike_id":"7149f7ac-b525-4a8b-bbdc-743cd50056b4","system_id":"levelo_inurba_marseille","lat":43.296921,"lon":5.376579,"is_reserved":false,"is_disabled":false,"rental_uris":{"android":"levelo://app?vid=7149f7ac-b525-4a8b-bbdc-743cd50056b4","ios":"levelo://app?vid=7149f7ac-b525-4a8b-bbdc-743cd50056b4"},"vehicle_type_id":"4","last_reported":1710792407,"current_range_meters":18000,"station_id":"ce4bgkh2rcd13ifvqbl0","pricing_plan_id":"cebpf4jnsgd1na2vs0mg"},{"bike_id":"a19d2863-bfa9-4a20-9831-ac356bbc71c6","system_id":"levelo_inurba_marseille","lat":43.309589,"lon":5.390258,"is_reserved":false,"is_disabled":false,"rental_uris":{"android":"levelo://app?vid=a19d2863-bfa9-4a20-9831-ac356bbc71c6","ios":"levelo://app?vid=a19d2863-bfa9-4a20-9831-ac356bbc71c6"},"vehicle_type_id":"4","last_reported":1710792407,"current_range_meters":24400,"station_id":"ce4bgup2rcd13ifvqco0","pricing_plan_id":"cebpf4jnsgd1na2vs0mg"},{"bike_id":"cbfa6661-df31-4bf0-a145-48fc95f3eec7","system_id":"levelo_inurba_marseille","lat":43.299028,"lon":5.381509,"is_reserved":false,"is_disabled":false,"rental_uris":{"android":"levelo://app?vid=cbfa6661-df31-4bf0-a145-48fc95f3eec7","ios":"levelo://app?vid=cbfa6661-df31-4bf0-a145-48fc95f3eec7"},"vehicle_type_id":"4","last_reported":1710792407,"current_range_meters":4400,"station_id":"ce4bgj12rcd13ifvqbc0","pricing_plan_id":"cebpf4jnsgd1na2vs0mg"},{"bike_id":"dbcc12a8-793a-4520-9cf8-774d5f84cfbc","system_id":"levelo_inurba_marseille","lat":43.299028,"lon":5.381509,"is_reserved":false,"is_disabled":false,"rental_uris":{"android":"levelo://app?vid=dbcc12a8-793a-4520-9cf8-774d5f84cfbc","ios":"levelo://app?vid=dbcc12a8-793a-4520-9cf8-774d5f84cfbc"},"vehicle_type_id":"4","last_reported":1710792407,"current_range_meters":0,"station_id":"ce4bgj12rcd13ifvqbc0","pricing_plan_id":"cebpf4jnsgd1na2vs0mg"},{"bike_id":"111faf41-07da-4c4d-bf72-44e0fd16cfdd","system_id":"levelo_inurba_marseille","lat":43.296935,"lon":5.376544,"is_reserved":false,"is_disabled":false,"rental_uris":{"android":"levelo://app?vid=111faf41-07da-4c4d-bf72-44e0fd16cfdd","ios":"levelo://app?vid=111faf41-07da-4c4d-bf72-44e0fd16cfdd"},"vehicle_type_id":"4","last_reported":1710792407,"current_range_meters":4400,"station_id":"ce4bgkh2rcd13ifvqbl0","pricing_plan_id":"cebpf4jnsgd1na2vs0mg"},{"bike_id":"20cff5eb-2208-4446-8d47-edb399b75297","system_id":"levelo_inurba_marseille","lat":43.317557,"lon":5.390173,"is_reserved":false,"is_disabled":false,"rental_uris":{"android":"levelo://app?vid=20cff5eb-2208-4446-8d47-edb399b75297","ios":"levelo://app?vid=20cff5eb-2208-4446-8d47-edb399b75297"},"vehicle_type_id":"4","last_reported":1710792407,"current_range_meters":30800,"station_id":"ce4bhqp2rcd13ifvqhng","pricing_plan_id":"cebpf4jnsgd1na2vs0mg"},{"bike_id":"d2eed6b0-de73-4d7e-b709-ada308cde675","system_id":"levelo_inurba_marseille","lat":43.31756,"lon":5.39013,"is_reserved":false,"is_disabled":false,"rental_uris":{"android":"levelo://app?vid=d2eed6b0-de73-4d7e-b709-ada308cde675","ios":"levelo://app?vid=d2eed6b0-de73-4d7e-b709-ada308cde675"},"vehicle_type_id":"4","last_reported":1710792407,"current_range_meters":15600,"station_id":"ce4bhqp2rcd13ifvqhng","pricing_plan_id":"cebpf4jnsgd1na2vs0mg"},{"bike_id":"f69b0fb1-822f-474f-a2ba-b12e62644654","system_id":"levelo_inurba_marseille","lat":43.317557,"lon":5.390173,"is_reserved":false,"is_disabled":false,"rental_uris":{"android":"levelo://app?vid=f69b0fb1-822f-474f-a2ba-b12e62644654","ios":"levelo://app?vid=f69b0fb1-822f-474f-a2ba-b12e62644654"},"vehicle_type_id":"4","last_reported":1710792407,"current_range_meters":25200,"station_id":"ce4bhqp2rcd13ifvqhng","pricing_plan_id":"cebpf4jnsgd1na2vs0mg"},{"bike_id":"97dc5621-0125-4f99-9fc3-7b824027f68c","system_id":"levelo_inurba_marseille","lat":43.317557,"lon":5.390173,"is_reserved":false,"is_disabled":false,"rental_uris":{"android":"levelo://app?vid=97dc5621-0125-4f99-9fc3-7b824027f68c","ios":"levelo://app?vid=97dc5621-0125-4f99-9fc3-7b824027f68c"},"vehicle_type_id":"4","last_reported":1710792407,"current_range_meters":20800,"station_id":"ce4bhqp2rcd13ifvqhng","pricing_plan_id":"cebpf4jnsgd1na2vs0mg"},{"bike_id":"4c1c4806-ceb3-4412-a3b1-42cda738f23e","system_id":"levelo_inurba_marseille","lat":43.31758,"lon":5.390172,"is_reserved":false,"is_disabled":false,"rental_uris":{"android":"levelo://app?vid=4c1c4806-ceb3-4412-a3b1-42cda738f23e","ios":"levelo://app?vid=4c1c4806-ceb3-4412-a3b1-42cda738f23e"},"vehicle_type_id":"4","last_reported":1710792407,"current_range_meters":15600,"station_id":"ce4bhqp2rcd13ifvqhng","pricing_plan_id":"cebpf4jnsgd1na2vs0mg"},{"bike_id":"d9bf7767-42df-4f07-8c9e-4ff35698ce28","system_id":"levelo_inurba_marseille","lat":43.317557,"lon":5.390173,"is_reserved":false,"is_disabled":false,"rental_uris":{"android":"levelo://app?vid=d9bf7767-42df-4f07-8c9e-4ff35698ce28","ios":"levelo://app?vid=d9bf7767-42df-4f07-8c9e-4ff35698ce28"},"vehicle_type_id":"4","last_reported":1710792407,"current_range_meters":20000,"station_id":"ce4bhqp2rcd13ifvqhng","pricing_plan_id":"cebpf4jnsgd1na2vs0mg"},{"bike_id":"b9585748-59ed-4215-a39d-36ba1614c135","system_id":"levelo_inurba_marseille","lat":43.31759,"lon":5.390235,"is_reserved":false,"is_disabled":false,"rental_uris":{"android":"levelo://app?vid=b9585748-59ed-4215-a39d-36ba1614c135","ios":"levelo://app?vid=b9585748-59ed-4215-a39d-36ba1614c135"},"vehicle_type_id":"4","last_reported":1710792407,"current_range_meters":14400,"station_id":"ce4bhqp2rcd13ifvqhng","pricing_plan_id":"cebpf4jnsgd1na2vs0mg"},{"bike_id":"1fe52651-8b1d-46be-bac0-9a2a5252bd0b","system_id":"levelo_inurba_marseille","lat":43.29793,"lon":5.38083,"is_reserved":false,"is_disabled":false,"rental_uris":{"android":"levelo://app?vid=1fe52651-8b1d-46be-bac0-9a2a5252bd0b","ios":"levelo://app?vid=1fe52651-8b1d-46be-bac0-9a2a5252bd0b"},"vehicle_type_id":"4","last_reported":1710792407,"current_range_meters":0,"station_id":"ce4bgip2rcd13ifvqbb0","pricing_plan_id":"cebpf4jnsgd1na2vs0mg"},{"bike_id":"8bc16360-48ad-4396-9911-432d808c77c6","system_id":"levelo_inurba_marseille","lat":43.29656,"lon":5.37795,"is_reserved":false,"is_disabled":false,"rental_uris":{"android":"levelo://app?vid=8bc16360-48ad-4396-9911-432d808c77c6","ios":"levelo://app?vid=8bc16360-48ad-4396-9911-432d808c77c6"},"vehicle_type_id":"4","last_reported":1710792407,"current_range_meters":18400,"station_id":"","pricing_plan_id":"cebpf4jnsgd1na2vs0mg"},{"bike_id":"ff69b729-4767-4370-aca9-fa1815d50769","system_id":"levelo_inurba_marseille","lat":43.2968,"lon":5.37291,"is_reserved":false,"is_disabled":false,"rental_uris":{"android":"levelo://app?vid=ff69b729-4767-4370-aca9-fa1815d50769","ios":"levelo://app?vid=ff69b729-4767-4370-aca9-fa1815d50769"},"vehicle_type_id":"4","last_reported":1710792407,"current_range_meters":22000,"station_id":"ce4bgk12rcd13ifvqbj0","pricing_plan_id":"cebpf4jnsgd1na2vs0mg"},{"bike_id":"5ad7f0b9-d0ba-4777-b885-1187557cbf20","system_id":"levelo_inurba_marseille","lat":43.297904,"lon":5.381124,"is_reserved":false,"is_disabled":false,"rental_uris":{"android":"levelo://app?vid=5ad7f0b9-d0ba-4777-b885-1187557cbf20","ios":"levelo://app?vid=5ad7f0b9-d0ba-4777-b885-1187557cbf20"},"vehicle_type_id":"4","last_reported":1710792407,"current_range_meters":0,"station_id":"ce4bgip2rcd13ifvqbb0","pricing_plan_id":"cebpf4jnsgd1na2vs0mg"},{"bike_id":"9c71bda9-7b70-4548-bcf8-402184db6c68","system_id":"levelo_inurba_marseille","lat":43.304278,"lon":5.388868,"is_reserved":false,"is_disabled":false,"rental_uris":{"android":"levelo://app?vid=9c71bda9-7b70-4548-bcf8-402184db6c68","ios":"levelo://app?vid=9c71bda9-7b70-4548-bcf8-402184db6c68"},"vehicle_type_id":"4","last_reported":1710792407,"current_range_meters":21600,"station_id":"ce4bgk12rcd13ifvqbi0","pricing_plan_id":"cebpf4jnsgd1na2vs0mg"},{"bike_id":"ec6e4ee8-25f2-41d3-b74e-ea53e1e9dabc","system_id":"levelo_inurba_marseille","lat":43.304278,"lon":5.388868,"is_reserved":false,"is_disabled":false,"rental_uris":{"android":"levelo://app?vid=ec6e4ee8-25f2-41d3-b74e-ea53e1e9dabc","ios":"levelo://app?vid=ec6e4ee8-25f2-41d3-b74e-ea53e1e9dabc"},"vehicle_type_id":"4","last_reported":1710792407,"current_range_meters":22800,"station_id":"ce4bgk12rcd13ifvqbi0","pricing_plan_id":"cebpf4jnsgd1na2vs0mg"},{"bike_id":"4f6ea26c-5c1c-4903-85a6-8ed1e20df3e6","system_id":"levelo_inurba_marseille","lat":43.29762,"lon":5.38057,"is_reserved":false,"is_disabled":false,"rental_uris":{"android":"levelo://app?vid=4f6ea26c-5c1c-4903-85a6-8ed1e20df3e6","ios":"levelo://app?vid=4f6ea26c-5c1c-4903-85a6-8ed1e20df3e6"},"vehicle_type_id":"4","last_reported":1710792407,"current_range_meters":20000,"station_id":"","pricing_plan_id":"cebpf4jnsgd1na2vs0mg"},{"bike_id":"9dd940c9-093f-4967-ace9-6ebd1dae695c","system_id":"levelo_inurba_marseille","lat":43.304278,"lon":5.388868,"is_reserved":false,"is_disabled":false,"rental_uris":{"android":"levelo://app?vid=9dd940c9-093f-4967-ace9-6ebd1dae695c","ios":"levelo://app?vid=9dd940c9-093f-4967-ace9-6ebd1dae695c"},"vehicle_type_id":"4","last_reported":1710792407,"current_range_meters":0,"station_id":"ce4bgk12rcd13ifvqbi0","pricing_plan_id":"cebpf4jnsgd1na2vs0mg"},{"bike_id":"94bc02c8-43d1-43ce-97fc-91d9b77575bb","system_id":"levelo_inurba_marseille","lat":43.296263,"lon":5.377094,"is_reserved":false,"is_disabled":false,"rental_uris":{"android":"levelo://app?vid=94bc02c8-43d1-43ce-97fc-91d9b77575bb","ios":"levelo://app?vid=94bc02c8-43d1-43ce-97fc-91d9b77575bb"},"vehicle_type_id":"4","last_reported":1710792407,"current_range_meters":28000,"station_id":"ce4bgi92rcd13ifvqb90","pricing_plan_id":"cebpf4jnsgd1na2vs0mg"},{"bike_id":"cf958d25-178a-476e-88f6-df3a7a2aa68d","system_id":"levelo_inurba_marseille","lat":43.2998,"lon":5.38482,"is_reserved":false,"is_disabled":false,"rental_uris":{"android":"levelo://app?vid=cf958d25-178a-476e-88f6-df3a7a2aa68d","ios":"levelo://app?vid=cf958d25-178a-476e-88f6-df3a7a2aa68d"},"vehicle_type_id":"4","last_reported":1710792407,"current_range_meters":0,"station_id":"ce4bgj92rcd13ifvqbd0","pricing_plan_id":"cebpf4jnsgd1na2vs0mg"},{"bike_id":"de46934d-e5e4-4611-93a6-920d17bbc0ce","system_id":"levelo_inurba_marseille","lat":43.299707,"lon":5.384859,"is_reserved":false,"is_disabled":false,"rental_uris":{"android":"levelo://app?vid=de46934d-e5e4-4611-93a6-920d17bbc0ce","ios":"levelo://app?vid=de46934d-e5e4-4611-93a6-920d17bbc0ce"},"vehicle_type_id":"4","last_reported":1710792407,"current_range_meters":2400,"station_id":"ce4bgj92rcd13ifvqbd0","pricing_plan_id":"cebpf4jnsgd1na2vs0mg"},{"bike_id":"91c94b79-ce5a-4931-8905-6900f0803b6c","system_id":"levelo_inurba_marseille","lat":43.29973,"lon":5.38489,"is_reserved":false,"is_disabled":false,"rental_uris":{"android":"levelo://app?vid=91c94b79-ce5a-4931-8905-6900f0803b6c","ios":"levelo://app?vid=91c94b79-ce5a-4931-8905-6900f0803b6c"},"vehicle_type_id":"4","last_reported":1710792407,"current_range_meters":0,"station_id":"ce4bgj92rcd13ifvqbd0","pricing_plan_id":"cebpf4jnsgd1na2vs0mg"},{"bike_id":"38a1e037-ea89-4dab-a4f8-7272b038a667","system_id":"levelo_inurba_marseille","lat":43.299707,"lon":5.384859,"is_reserved":false,"is_disabled":false,"rental_uris":{"android":"levelo://app?vid=38a1e037-ea89-4dab-a4f8-7272b038a667","ios":"levelo://app?vid=38a1e037-ea89-4dab-a4f8-7272b038a667"},"vehicle_type_id":"4","last_reported":1710792407,"current_range_meters":9200,"station_id":"ce4bgj92rcd13ifvqbd0","pricing_plan_id":"cebpf4jnsgd1na2vs0mg"},{"bike_id":"91c34018-e4f0-4b25-b75d-81011d66d95d","system_id":"levelo_inurba_marseille","lat":43.299724,"lon":5.384848,"is_reserved":false,"is_disabled":false,"rental_uris":{"android":"levelo://app?vid=91c34018-e4f0-4b25-b75d-81011d66d95d","ios":"levelo://app?vid=91c34018-e4f0-4b25-b75d-81011d66d95d"},"vehicle_type_id":"4","last_reported":1710792407,"current_range_meters":0,"station_id":"ce4bgj92rcd13ifvqbd0","pricing_plan_id":"cebpf4jnsgd1na2vs0mg"},{"bike_id":"5045e201-9625-4ace-a873-b6262324a1f8","system_id":"levelo_inurba_marseille","lat":43.299724,"lon":5.384848,"is_reserved":false,"is_disabled":false,"rental_uris":{"android":"levelo://app?vid=5045e201-9625-4ace-a873-b6262324a1f8","ios":"levelo://app?vid=5045e201-9625-4ace-a873-b6262324a1f8"},"vehicle_type_id":"4","last_reported":1710792407,"current_range_meters":4800,"station_id":"ce4bgj92rcd13ifvqbd0","pricing_plan_id":"cebpf4jnsgd1na2vs0mg"},{"bike_id":"baf8232b-e0b5-4257-8ac0-8735e2959bec","system_id":"levelo_inurba_marseille","lat":43.32366,"lon":5.3888,"is_reserved":false,"is_disabled":false,"rental_uris":{"android":"levelo://app?vid=baf8232b-e0b5-4257-8ac0-8735e2959bec","ios":"levelo://app?vid=baf8232b-e0b5-4257-8ac0-8735e2959bec"},"vehicle_type_id":"4","last_reported":1710792407,"current_range_meters":18000,"station_id":"ce4bhqp2rcd13ifvqhog","pricing_plan_id":"cebpf4jnsgd1na2vs0mg"},{"bike_id":"9b43ae9f-97c3-4da0-938b-50afec46d2a5","system_id":"levelo_inurba_marseille","lat":43.32367,"lon":5.388836,"is_reserved":false,"is_disabled":false,"rental_uris":{"android":"levelo://app?vid=9b43ae9f-97c3-4da0-938b-50afec46d2a5","ios":"levelo://app?vid=9b43ae9f-97c3-4da0-938b-50afec46d2a5"},"vehicle_type_id":"4","last_reported":1710792407,"current_range_meters":21200,"station_id":"ce4bhqp2rcd13ifvqhog","pricing_plan_id":"cebpf4jnsgd1na2vs0mg"},{"bike_id":"dd91e73d-c135-4bed-92d4-bbb6465e1949","system_id":"levelo_inurba_marseille","lat":43.32369,"lon":5.38883,"is_reserved":false,"is_disabled":false,"rental_uris":{"android":"levelo://app?vid=dd91e73d-c135-4bed-92d4-bbb6465e1949","ios":"levelo://app?vid=dd91e73d-c135-4bed-92d4-bbb6465e1949"},"vehicle_type_id":"4","last_reported":1710792407,"current_range_meters":26400,"station_id":"ce4bhqp2rcd13ifvqhog","pricing_plan_id":"cebpf4jnsgd1na2vs0mg"},{"bike_id":"4bfd14d0-5343-477d-b9ee-5c0686f22a7d","system_id":"levelo_inurba_marseille","lat":43.32366,"lon":5.38886,"is_reserved":false,"is_disabled":false,"rental_uris":{"android":"levelo://app?vid=4bfd14d0-5343-477d-b9ee-5c0686f22a7d","ios":"levelo://app?vid=4bfd14d0-5343-477d-b9ee-5c0686f22a7d"},"vehicle_type_id":"4","last_reported":1710792407,"current_range_meters":14400,"station_id":"ce4bhqp2rcd13ifvqhog","pricing_plan_id":"cebpf4jnsgd1na2vs0mg"},{"bike_id":"41128f1f-2f01-4d9d-b223-5480079df37b","system_id":"levelo_inurba_marseille","lat":43.32368,"lon":5.38885,"is_reserved":false,"is_disabled":false,"rental_uris":{"android":"levelo://app?vid=41128f1f-2f01-4d9d-b223-5480079df37b","ios":"levelo://app?vid=41128f1f-2f01-4d9d-b223-5480079df37b"},"vehicle_type_id":"4","last_reported":1710792407,"current_range_meters":8000,"station_id":"ce4bhqp2rcd13ifvqhog","pricing_plan_id":"cebpf4jnsgd1na2vs0mg"},{"bike_id":"d1c473ef-8f57-4a45-a518-f2821a73640e","system_id":"levelo_inurba_marseille","lat":43.32368,"lon":5.38887,"is_reserved":false,"is_disabled":false,"rental_uris":{"android":"levelo://app?vid=d1c473ef-8f57-4a45-a518-f2821a73640e","ios":"levelo://app?vid=d1c473ef-8f57-4a45-a518-f2821a73640e"},"vehicle_type_id":"4","last_reported":1710792407,"current_range_meters":18800,"station_id":"ce4bhqp2rcd13ifvqhog","pricing_plan_id":"cebpf4jnsgd1na2vs0mg"},{"bike_id":"b2e38440-d9ce-4f95-9da7-79ff5c2c1ed5","system_id":"levelo_inurba_marseille","lat":43.32366,"lon":5.38889,"is_reserved":false,"is_disabled":false,"rental_uris":{"android":"levelo://app?vid=b2e38440-d9ce-4f95-9da7-79ff5c2c1ed5","ios":"levelo://app?vid=b2e38440-d9ce-4f95-9da7-79ff5c2c1ed5"},"vehicle_type_id":"4","last_reported":1710792407,"current_range_meters":15200,"station_id":"ce4bhqp2rcd13ifvqhog","pricing_plan_id":"cebpf4jnsgd1na2vs0mg"},{"bike_id":"88c09819-0132-49e1-a848-b83c3e55111a","system_id":"levelo_inurba_marseille","lat":43.32367,"lon":5.388836,"is_reserved":false,"is_disabled":false,"rental_uris":{"android":"levelo://app?vid=88c09819-0132-49e1-a848-b83c3e55111a","ios":"levelo://app?vid=88c09819-0132-49e1-a848-b83c3e55111a"},"vehicle_type_id":"4","last_reported":1710792407,"current_range_meters":24400,"station_id":"ce4bhqp2rcd13ifvqhog","pricing_plan_id":"cebpf4jnsgd1na2vs0mg"},{"bike_id":"bc149946-4553-424d-a87c-7dea59884772","system_id":"levelo_inurba_marseille","lat":43.32372,"lon":5.388859,"is_reserved":false,"is_disabled":false,"rental_uris":{"android":"levelo://app?vid=bc149946-4553-424d-a87c-7dea59884772","ios":"levelo://app?vid=bc149946-4553-424d-a87c-7dea59884772"},"vehicle_type_id":"4","last_reported":1710792407,"current_range_meters":8000,"station_id":"ce4bhqp2rcd13ifvqhog","pricing_plan_id":"cebpf4jnsgd1na2vs0mg"},{"bike_id":"f19a425e-2e36-4fa8-83c3-0fe07e567d65","system_id":"levelo_inurba_marseille","lat":43.29609,"lon":5.38094,"is_reserved":false,"is_disabled":false,"rental_uris":{"android":"levelo://app?vid=f19a425e-2e36-4fa8-83c3-0fe07e567d65","ios":"levelo://app?vid=f19a425e-2e36-4fa8-83c3-0fe07e567d65"},"vehicle_type_id":"4","last_reported":1710792407,"current_range_meters":0,"station_id":"ce4bgl12rcd13ifvqbo0","pricing_plan_id":"cebpf4jnsgd1na2vs0mg"},{"bike_id":"3c730b1f-0faf-40eb-ae54-e803438f9127","system_id":"levelo_inurba_marseille","lat":43.29602,"lon":5.381084,"is_reserved":false,"is_disabled":false,"rental_uris":{"android":"levelo://app?vid=3c730b1f-0faf-40eb-ae54-e803438f9127","ios":"levelo://app?vid=3c730b1f-0faf-40eb-ae54-e803438f9127"},"vehicle_type_id":"4","last_reported":1710792407,"current_range_meters":0,"station_id":"ce4bgl12rcd13ifvqbo0","pricing_plan_id":"cebpf4jnsgd1na2vs0mg"},{"bike_id":"52832f81-67cb-441b-8847-1c0b524ec23a","system_id":"levelo_inurba_marseille","lat":43.305994,"lon":5.393687,"is_reserved":false,"is_disabled":false,"rental_uris":{"android":"levelo://app?vid=52832f81-67cb-441b-8847-1c0b524ec23a","ios":"levelo://app?vid=52832f81-67cb-441b-8847-1c0b524ec23a"},"vehicle_type_id":"4","last_reported":1710792407,"current_range_meters":15200,"station_id":"ce4bh0p2rcd13ifvqd80","pricing_plan_id":"cebpf4jnsgd1na2vs0mg"},{"bike_id":"4c18c5d3-5256-4b52-918c-c5135af9dccd","system_id":"levelo_inurba_marseille","lat":43.29602,"lon":5.381084,"is_reserved":false,"is_disabled":false,"rental_uris":{"android":"levelo://app?vid=4c18c5d3-5256-4b52-918c-c5135af9dccd","ios":"levelo://app?vid=4c18c5d3-5256-4b52-918c-c5135af9dccd"},"vehicle_type_id":"4","last_reported":1710792407,"current_range_meters":0,"station_id":"ce4bgl12rcd13ifvqbo0","pricing_plan_id":"cebpf4jnsgd1na2vs0mg"},{"bike_id":"58523960-3e36-47ab-9e7c-8022b7f3047e","system_id":"levelo_inurba_marseille","lat":43.29601,"lon":5.38103,"is_reserved":false,"is_disabled":false,"rental_uris":{"android":"levelo://app?vid=58523960-3e36-47ab-9e7c-8022b7f3047e","ios":"levelo://app?vid=58523960-3e36-47ab-9e7c-8022b7f3047e"},"vehicle_type_id":"4","last_reported":1710792407,"current_range_meters":22800,"station_id":"ce4bgl12rcd13ifvqbo0","pricing_plan_id":"cebpf4jnsgd1na2vs0mg"},{"bike_id":"9ee8e6cb-95a8-46be-8c1b-d099e1826a15","system_id":"levelo_inurba_marseille","lat":43.29334,"lon":5.37154,"is_reserved":false,"is_disabled":false,"rental_uris":{"android":"levelo://app?vid=9ee8e6cb-95a8-46be-8c1b-d099e1826a15","ios":"levelo://app?vid=9ee8e6cb-95a8-46be-8c1b-d099e1826a15"},"vehicle_type_id":"4","last_reported":1710792407,"current_range_meters":17200,"station_id":"ce4bgh92rcd13ifvqb40","pricing_plan_id":"cebpf4jnsgd1na2vs0mg"},{"bike_id":"490d2782-93f1-4094-8adb-e49b1f2de7d4","system_id":"levelo_inurba_marseille","lat":43.292749,"lon":5.368402,"is_reserved":false,"is_disabled":false,"rental_uris":{"android":"levelo://app?vid=490d2782-93f1-4094-8adb-e49b1f2de7d4","ios":"levelo://app?vid=490d2782-93f1-4094-8adb-e49b1f2de7d4"},"vehicle_type_id":"4","last_reported":1710792407,"current_range_meters":0,"station_id":"ce4bhbp2rcd13ifvqesg","pricing_plan_id":"cebpf4jnsgd1na2vs0mg"},{"bike_id":"314d6ce7-08dc-4dc3-b2b0-47c0bf7e6a9d","system_id":"levelo_inurba_marseille","lat":43.293259,"lon":5.371586,"is_reserved":false,"is_disabled":false,"rental_uris":{"android":"levelo://app?vid=314d6ce7-08dc-4dc3-b2b0-47c0bf7e6a9d","ios":"levelo://app?vid=314d6ce7-08dc-4dc3-b2b0-47c0bf7e6a9d"},"vehicle_type_id":"4","last_reported":1710792407,"current_range_meters":5600,"station_id":"ce4bgh92rcd13ifvqb40","pricing_plan_id":"cebpf4jnsgd1na2vs0mg"},{"bike_id":"1168dfcd-a5c3-4c61-ae79-5267eeac7c14","system_id":"levelo_inurba_marseille","lat":43.296091,"lon":5.381929,"is_reserved":false,"is_disabled":false,"rental_uris":{"android":"levelo://app?vid=1168dfcd-a5c3-4c61-ae79-5267eeac7c14","ios":"levelo://app?vid=1168dfcd-a5c3-4c61-ae79-5267eeac7c14"},"vehicle_type_id":"4","last_reported":1710792407,"current_range_meters":17200,"station_id":"ce4bh2h2rcd13ifvqdh0","pricing_plan_id":"cebpf4jnsgd1na2vs0mg"},{"bike_id":"46eafc49-b4f1-4776-b5e1-b6613c202593","system_id":"levelo_inurba_marseille","lat":43.29279,"lon":5.36834,"is_reserved":false,"is_disabled":false,"rental_uris":{"android":"levelo://app?vid=46eafc49-b4f1-4776-b5e1-b6613c202593","ios":"levelo://app?vid=46eafc49-b4f1-4776-b5e1-b6613c202593"},"vehicle_type_id":"4","last_reported":1710792407,"current_range_meters":0,"station_id":"ce4bhbp2rcd13ifvqesg","pricing_plan_id":"cebpf4jnsgd1na2vs0mg"},{"bike_id":"3e4f00a5-23b3-4c47-8d4f-5ff0e107c4a1","system_id":"levelo_inurba_marseille","lat":43.292773,"lon":5.368368,"is_reserved":false,"is_disabled":false,"rental_uris":{"android":"levelo://app?vid=3e4f00a5-23b3-4c47-8d4f-5ff0e107c4a1","ios":"levelo://app?vid=3e4f00a5-23b3-4c47-8d4f-5ff0e107c4a1"},"vehicle_type_id":"4","last_reported":1710792407,"current_range_meters":0,"station_id":"ce4bhbp2rcd13ifvqesg","pricing_plan_id":"cebpf4jnsgd1na2vs0mg"},{"bike_id":"bc6ee3cd-0aca-4b5c-9d91-e404acb1ff03","system_id":"levelo_inurba_marseille","lat":43.293259,"lon":5.371586,"is_reserved":false,"is_disabled":false,"rental_uris":{"android":"levelo://app?vid=bc6ee3cd-0aca-4b5c-9d91-e404acb1ff03","ios":"levelo://app?vid=bc6ee3cd-0aca-4b5c-9d91-e404acb1ff03"},"vehicle_type_id":"4","last_reported":1710792407,"current_range_meters":8400,"station_id":"ce4bgh92rcd13ifvqb40","pricing_plan_id":"cebpf4jnsgd1na2vs0mg"},{"bike_id":"10a6e4aa-d912-4e57-b375-1689ec348cb3","system_id":"levelo_inurba_marseille","lat":43.293259,"lon":5.371586,"is_reserved":false,"is_disabled":false,"rental_uris":{"android":"levelo://app?vid=10a6e4aa-d912-4e57-b375-1689ec348cb3","ios":"levelo://app?vid=10a6e4aa-d912-4e57-b375-1689ec348cb3"},"vehicle_type_id":"4","last_reported":1710792407,"current_range_meters":11600,"station_id":"ce4bgh92rcd13ifvqb40","pricing_plan_id":"cebpf4jnsgd1na2vs0mg"},{"bike_id":"e9ad0abe-f2f2-4d28-82a5-88044e47e6ec","system_id":"levelo_inurba_marseille","lat":43.293259,"lon":5.371586,"is_reserved":false,"is_disabled":false,"rental_uris":{"android":"levelo://app?vid=e9ad0abe-f2f2-4d28-82a5-88044e47e6ec","ios":"levelo://app?vid=e9ad0abe-f2f2-4d28-82a5-88044e47e6ec"},"vehicle_type_id":"4","last_reported":1710792407,"current_range_meters":15200,"station_id":"ce4bgh92rcd13ifvqb40","pricing_plan_id":"cebpf4jnsgd1na2vs0mg"},{"bike_id":"7bf7962a-aea6-4c1b-8cc9-1b1df7470a08","system_id":"levelo_inurba_marseille","lat":43.292748,"lon":5.368392,"is_reserved":false,"is_disabled":false,"rental_uris":{"android":"levelo://app?vid=7bf7962a-aea6-4c1b-8cc9-1b1df7470a08","ios":"levelo://app?vid=7bf7962a-aea6-4c1b-8cc9-1b1df7470a08"},"vehicle_type_id":"4","last_reported":1710792407,"current_range_meters":29600,"station_id":"ce4bhbp2rcd13ifvqesg","pricing_plan_id":"cebpf4jnsgd1na2vs0mg"},{"bike_id":"a11f5980-3081-487d-8d1c-982e71c41164","system_id":"levelo_inurba_marseille","lat":43.292728,"lon":5.368368,"is_reserved":false,"is_disabled":false,"rental_uris":{"android":"levelo://app?vid=a11f5980-3081-487d-8d1c-982e71c41164","ios":"levelo://app?vid=a11f5980-3081-487d-8d1c-982e71c41164"},"vehicle_type_id":"4","last_reported":1710792407,"current_range_meters":20400,"station_id":"ce4bhbp2rcd13ifvqesg","pricing_plan_id":"cebpf4jnsgd1na2vs0mg"},{"bike_id":"70bfcc0c-744e-416c-933f-cf2263f4d8f2","system_id":"levelo_inurba_marseille","lat":43.29272,"lon":5.36839,"is_reserved":false,"is_disabled":false,"rental_uris":{"android":"levelo://app?vid=70bfcc0c-744e-416c-933f-cf2263f4d8f2","ios":"levelo://app?vid=70bfcc0c-744e-416c-933f-cf2263f4d8f2"},"vehicle_type_id":"4","last_reported":1710792407,"current_range_meters":24800,"station_id":"ce4bhbp2rcd13ifvqesg","pricing_plan_id":"cebpf4jnsgd1na2vs0mg"},{"bike_id":"a75a5682-b9b4-45a3-8c60-487e54e733df","system_id":"levelo_inurba_marseille","lat":43.293009,"lon":5.374584,"is_reserved":false,"is_disabled":false,"rental_uris":{"android":"levelo://app?vid=a75a5682-b9b4-45a3-8c60-487e54e733df","ios":"levelo://app?vid=a75a5682-b9b4-45a3-8c60-487e54e733df"},"vehicle_type_id":"4","last_reported":1710792407,"current_range_meters":10800,"station_id":"ce4bgi12rcd13ifvqb70","pricing_plan_id":"cebpf4jnsgd1na2vs0mg"},{"bike_id":"fdd8f3e0-45e9-46df-9755-6e1a1262038a","system_id":"levelo_inurba_marseille","lat":43.293009,"lon":5.374584,"is_reserved":false,"is_disabled":false,"rental_uris":{"android":"levelo://app?vid=fdd8f3e0-45e9-46df-9755-6e1a1262038a","ios":"levelo://app?vid=fdd8f3e0-45e9-46df-9755-6e1a1262038a"},"vehicle_type_id":"4","last_reported":1710792407,"current_range_meters":2000,"station_id":"ce4bgi12rcd13ifvqb70","pricing_plan_id":"cebpf4jnsgd1na2vs0mg"},{"bike_id":"5f65cdc7-4558-4dfc-bfc1-efca521f56e3","system_id":"levelo_inurba_marseille","lat":43.303002,"lon":5.392142,"is_reserved":false,"is_disabled":false,"rental_uris":{"android":"levelo://app?vid=5f65cdc7-4558-4dfc-bfc1-efca521f56e3","ios":"levelo://app?vid=5f65cdc7-4558-4dfc-bfc1-efca521f56e3"},"vehicle_type_id":"4","last_reported":1710792407,"current_range_meters":14800,"station_id":"ce4bgkh2rcd13ifvqbk0","pricing_plan_id":"cebpf4jnsgd1na2vs0mg"},{"bike_id":"e53de477-ae5b-4eba-88fb-d0c03fcb4bd0","system_id":"levelo_inurba_marseille","lat":43.30301,"lon":5.39201,"is_reserved":false,"is_disabled":false,"rental_uris":{"android":"levelo://app?vid=e53de477-ae5b-4eba-88fb-d0c03fcb4bd0","ios":"levelo://app?vid=e53de477-ae5b-4eba-88fb-d0c03fcb4bd0"},"vehicle_type_id":"4","last_reported":1710792407,"current_range_meters":6000,"station_id":"ce4bgkh2rcd13ifvqbk0","pricing_plan_id":"cebpf4jnsgd1na2vs0mg"},{"bike_id":"8fe10d32-ab70-4aa4-85d8-7999ab26fb5a","system_id":"levelo_inurba_marseille","lat":43.30301,"lon":5.39202,"is_reserved":false,"is_disabled":false,"rental_uris":{"android":"levelo://app?vid=8fe10d32-ab70-4aa4-85d8-7999ab26fb5a","ios":"levelo://app?vid=8fe10d32-ab70-4aa4-85d8-7999ab26fb5a"},"vehicle_type_id":"4","last_reported":1710792407,"current_range_meters":3600,"station_id":"ce4bgkh2rcd13ifvqbk0","pricing_plan_id":"cebpf4jnsgd1na2vs0mg"},{"bike_id":"6353bf43-2e9a-4908-8047-64f5943c7c6b","system_id":"levelo_inurba_marseille","lat":43.303002,"lon":5.392142,"is_reserved":false,"is_disabled":false,"rental_uris":{"android":"levelo://app?vid=6353bf43-2e9a-4908-8047-64f5943c7c6b","ios":"levelo://app?vid=6353bf43-2e9a-4908-8047-64f5943c7c6b"},"vehicle_type_id":"4","last_reported":1710792407,"current_range_meters":3600,"station_id":"ce4bgkh2rcd13ifvqbk0","pricing_plan_id":"cebpf4jnsgd1na2vs0mg"},{"bike_id":"2fc46dfd-6553-477d-b90e-82e464954edb","system_id":"levelo_inurba_marseille","lat":43.30288,"lon":5.39203,"is_reserved":false,"is_disabled":false,"rental_uris":{"android":"levelo://app?vid=2fc46dfd-6553-477d-b90e-82e464954edb","ios":"levelo://app?vid=2fc46dfd-6553-477d-b90e-82e464954edb"},"vehicle_type_id":"4","last_reported":1710792407,"current_range_meters":0,"station_id":"ce4bgkh2rcd13ifvqbk0","pricing_plan_id":"cebpf4jnsgd1na2vs0mg"},{"bike_id":"6b721f89-f409-4e80-9a17-41d007488da0","system_id":"levelo_inurba_marseille","lat":43.2936,"lon":5.37835,"is_reserved":false,"is_disabled":false,"rental_uris":{"android":"levelo://app?vid=6b721f89-f409-4e80-9a17-41d007488da0","ios":"levelo://app?vid=6b721f89-f409-4e80-9a17-41d007488da0"},"vehicle_type_id":"4","last_reported":1710792407,"current_range_meters":0,"station_id":"ce4bgjh2rcd13ifvqbf0","pricing_plan_id":"cebpf4jnsgd1na2vs0mg"},{"bike_id":"55809549-9a09-461c-aed8-1266a9fd3deb","system_id":"levelo_inurba_marseille","lat":43.303002,"lon":5.392142,"is_reserved":false,"is_disabled":false,"rental_uris":{"android":"levelo://app?vid=55809549-9a09-461c-aed8-1266a9fd3deb","ios":"levelo://app?vid=55809549-9a09-461c-aed8-1266a9fd3deb"},"vehicle_type_id":"4","last_reported":1710792407,"current_range_meters":11600,"station_id":"ce4bgkh2rcd13ifvqbk0","pricing_plan_id":"cebpf4jnsgd1na2vs0mg"},{"bike_id":"a100ef96-a8e7-4f08-be0d-f7c6a1e22d70","system_id":"levelo_inurba_marseille","lat":43.2936,"lon":5.37835,"is_reserved":false,"is_disabled":false,"rental_uris":{"android":"levelo://app?vid=a100ef96-a8e7-4f08-be0d-f7c6a1e22d70","ios":"levelo://app?vid=a100ef96-a8e7-4f08-be0d-f7c6a1e22d70"},"vehicle_type_id":"4","last_reported":1710792407,"current_range_meters":8400,"station_id":"ce4bgjh2rcd13ifvqbf0","pricing_plan_id":"cebpf4jnsgd1na2vs0mg"},{"bike_id":"b5c8332e-f7fc-4356-8acc-feb7aebf58dc","system_id":"levelo_inurba_marseille","lat":43.2936,"lon":5.37835,"is_reserved":false,"is_disabled":false,"rental_uris":{"android":"levelo://app?vid=b5c8332e-f7fc-4356-8acc-feb7aebf58dc","ios":"levelo://app?vid=b5c8332e-f7fc-4356-8acc-feb7aebf58dc"},"vehicle_type_id":"4","last_reported":1710792407,"current_range_meters":16800,"station_id":"ce4bgjh2rcd13ifvqbf0","pricing_plan_id":"cebpf4jnsgd1na2vs0mg"},{"bike_id":"7192ac74-afe9-4078-a2d4-67f3cee60aa4","system_id":"levelo_inurba_marseille","lat":43.30085,"lon":5.390856,"is_reserved":false,"is_disabled":false,"rental_uris":{"android":"levelo://app?vid=7192ac74-afe9-4078-a2d4-67f3cee60aa4","ios":"levelo://app?vid=7192ac74-afe9-4078-a2d4-67f3cee60aa4"},"vehicle_type_id":"4","last_reported":1710792407,"current_range_meters":17600,"station_id":"ce4bh192rcd13ifvqdb0","pricing_plan_id":"cebpf4jnsgd1na2vs0mg"},{"bike_id":"17b368ad-fbf8-4979-b9cb-f76e1ac7c6ab","system_id":"levelo_inurba_marseille","lat":43.30301,"lon":5.39232,"is_reserved":false,"is_disabled":false,"rental_uris":{"android":"levelo://app?vid=17b368ad-fbf8-4979-b9cb-f76e1ac7c6ab","ios":"levelo://app?vid=17b368ad-fbf8-4979-b9cb-f76e1ac7c6ab"},"vehicle_type_id":"4","last_reported":1710792407,"current_range_meters":3200,"station_id":"ce4bgkh2rcd13ifvqbk0","pricing_plan_id":"cebpf4jnsgd1na2vs0mg"},{"bike_id":"7b75af97-e64d-493a-bc65-75db2ee31ead","system_id":"levelo_inurba_marseille","lat":43.2936,"lon":5.37835,"is_reserved":false,"is_disabled":false,"rental_uris":{"android":"levelo://app?vid=7b75af97-e64d-493a-bc65-75db2ee31ead","ios":"levelo://app?vid=7b75af97-e64d-493a-bc65-75db2ee31ead"},"vehicle_type_id":"4","last_reported":1710792407,"current_range_meters":23600,"station_id":"ce4bgjh2rcd13ifvqbf0","pricing_plan_id":"cebpf4jnsgd1na2vs0mg"},{"bike_id":"4220ed85-6220-46fe-9614-09b27e82aa43","system_id":"levelo_inurba_marseille","lat":43.292311,"lon":5.360731,"is_reserved":false,"is_disabled":false,"rental_uris":{"android":"levelo://app?vid=4220ed85-6220-46fe-9614-09b27e82aa43","ios":"levelo://app?vid=4220ed85-6220-46fe-9614-09b27e82aa43"},"vehicle_type_id":"4","last_reported":1710792407,"current_range_meters":0,"station_id":"ce4bhbh2rcd13ifvqeqg","pricing_plan_id":"cebpf4jnsgd1na2vs0mg"},{"bike_id":"f755cdc4-bb03-4ae8-a899-daf56d5563ba","system_id":"levelo_inurba_marseille","lat":43.292311,"lon":5.360731,"is_reserved":false,"is_disabled":false,"rental_uris":{"android":"levelo://app?vid=f755cdc4-bb03-4ae8-a899-daf56d5563ba","ios":"levelo://app?vid=f755cdc4-bb03-4ae8-a899-daf56d5563ba"},"vehicle_type_id":"4","last_reported":1710792407,"current_range_meters":2400,"station_id":"ce4bhbh2rcd13ifvqeqg","pricing_plan_id":"cebpf4jnsgd1na2vs0mg"},{"bike_id":"8467dd30-3ad4-4d0e-835e-714764f492a1","system_id":"levelo_inurba_marseille","lat":43.29268,"lon":5.37631,"is_reserved":false,"is_disabled":false,"rental_uris":{"android":"levelo://app?vid=8467dd30-3ad4-4d0e-835e-714764f492a1","ios":"levelo://app?vid=8467dd30-3ad4-4d0e-835e-714764f492a1"},"vehicle_type_id":"4","last_reported":1710792407,"current_range_meters":7600,"station_id":"","pricing_plan_id":"cebpf4jnsgd1na2vs0mg"},{"bike_id":"03a34097-2d60-460d-b4e1-bec74c94302e","system_id":"levelo_inurba_marseille","lat":43.29266,"lon":5.3763,"is_reserved":false,"is_disabled":false,"rental_uris":{"android":"levelo://app?vid=03a34097-2d60-460d-b4e1-bec74c94302e","ios":"levelo://app?vid=03a34097-2d60-460d-b4e1-bec74c94302e"},"vehicle_type_id":"4","last_reported":1710792407,"current_range_meters":14800,"station_id":"","pricing_plan_id":"cebpf4jnsgd1na2vs0mg"},{"bike_id":"b0a4bf3e-12e5-4735-ae9a-73ce3240be60","system_id":"levelo_inurba_marseille","lat":43.291675,"lon":5.371583,"is_reserved":false,"is_disabled":false,"rental_uris":{"android":"levelo://app?vid=b0a4bf3e-12e5-4735-ae9a-73ce3240be60","ios":"levelo://app?vid=b0a4bf3e-12e5-4735-ae9a-73ce3240be60"},"vehicle_type_id":"4","last_reported":1710792407,"current_range_meters":6000,"station_id":"ce4bha92rcd13ifvqeh0","pricing_plan_id":"cebpf4jnsgd1na2vs0mg"},{"bike_id":"a2f9e564-5229-4137-b136-7ab0beae716a","system_id":"levelo_inurba_marseille","lat":43.291671,"lon":5.371575,"is_reserved":false,"is_disabled":false,"rental_uris":{"android":"levelo://app?vid=a2f9e564-5229-4137-b136-7ab0beae716a","ios":"levelo://app?vid=a2f9e564-5229-4137-b136-7ab0beae716a"},"vehicle_type_id":"4","last_reported":1710792407,"current_range_meters":20800,"station_id":"ce4bha92rcd13ifvqeh0","pricing_plan_id":"cebpf4jnsgd1na2vs0mg"},{"bike_id":"aac7a5eb-c779-4ca9-ae5d-818bb232d752","system_id":"levelo_inurba_marseille","lat":43.291675,"lon":5.371583,"is_reserved":false,"is_disabled":false,"rental_uris":{"android":"levelo://app?vid=aac7a5eb-c779-4ca9-ae5d-818bb232d752","ios":"levelo://app?vid=aac7a5eb-c779-4ca9-ae5d-818bb232d752"},"vehicle_type_id":"4","last_reported":1710792407,"current_range_meters":10000,"station_id":"ce4bha92rcd13ifvqeh0","pricing_plan_id":"cebpf4jnsgd1na2vs0mg"},{"bike_id":"eb884b32-d97c-4812-86cb-4e60fcd9e4c3","system_id":"levelo_inurba_marseille","lat":43.291671,"lon":5.371575,"is_reserved":false,"is_disabled":false,"rental_uris":{"android":"levelo://app?vid=eb884b32-d97c-4812-86cb-4e60fcd9e4c3","ios":"levelo://app?vid=eb884b32-d97c-4812-86cb-4e60fcd9e4c3"},"vehicle_type_id":"4","last_reported":1710792407,"current_range_meters":0,"station_id":"ce4bha92rcd13ifvqeh0","pricing_plan_id":"cebpf4jnsgd1na2vs0mg"},{"bike_id":"dc5628c1-09c9-4236-b706-41f38140984f","system_id":"levelo_inurba_marseille","lat":43.291671,"lon":5.371575,"is_reserved":false,"is_disabled":false,"rental_uris":{"android":"levelo://app?vid=dc5628c1-09c9-4236-b706-41f38140984f","ios":"levelo://app?vid=dc5628c1-09c9-4236-b706-41f38140984f"},"vehicle_type_id":"4","last_reported":1710792407,"current_range_meters":0,"station_id":"ce4bha92rcd13ifvqeh0","pricing_plan_id":"cebpf4jnsgd1na2vs0mg"},{"bike_id":"80808dce-6ff1-45ba-865a-e428cfbd266f","system_id":"levelo_inurba_marseille","lat":43.291671,"lon":5.371575,"is_reserved":false,"is_disabled":false,"rental_uris":{"android":"levelo://app?vid=80808dce-6ff1-45ba-865a-e428cfbd266f","ios":"levelo://app?vid=80808dce-6ff1-45ba-865a-e428cfbd266f"},"vehicle_type_id":"4","last_reported":1710792407,"current_range_meters":8400,"station_id":"ce4bha92rcd13ifvqeh0","pricing_plan_id":"cebpf4jnsgd1na2vs0mg"},{"bike_id":"a0ff8fbf-f340-4da1-94b6-af4df72a92a1","system_id":"levelo_inurba_marseille","lat":43.291675,"lon":5.371583,"is_reserved":false,"is_disabled":false,"rental_uris":{"android":"levelo://app?vid=a0ff8fbf-f340-4da1-94b6-af4df72a92a1","ios":"levelo://app?vid=a0ff8fbf-f340-4da1-94b6-af4df72a92a1"},"vehicle_type_id":"4","last_reported":1710792407,"current_range_meters":24800,"station_id":"ce4bha92rcd13ifvqeh0","pricing_plan_id":"cebpf4jnsgd1na2vs0mg"},{"bike_id":"7e71418c-916c-496b-b1b9-73fd03f2dc6f","system_id":"levelo_inurba_marseille","lat":43.30892,"lon":5.39622,"is_reserved":false,"is_disabled":false,"rental_uris":{"android":"levelo://app?vid=7e71418c-916c-496b-b1b9-73fd03f2dc6f","ios":"levelo://app?vid=7e71418c-916c-496b-b1b9-73fd03f2dc6f"},"vehicle_type_id":"4","last_reported":1710792407,"current_range_meters":15200,"station_id":"ce4bh012rcd13ifvqcv0","pricing_plan_id":"cebpf4jnsgd1na2vs0mg"},{"bike_id":"7cc1d042-4f28-4062-a8f9-6372809f45e8","system_id":"levelo_inurba_marseille","lat":43.309038,"lon":5.396546,"is_reserved":false,"is_disabled":false,"rental_uris":{"android":"levelo://app?vid=7cc1d042-4f28-4062-a8f9-6372809f45e8","ios":"levelo://app?vid=7cc1d042-4f28-4062-a8f9-6372809f45e8"},"vehicle_type_id":"4","last_reported":1710792407,"current_range_meters":0,"station_id":"ce4bh012rcd13ifvqcv0","pricing_plan_id":"cebpf4jnsgd1na2vs0mg"},{"bike_id":"66a3a767-34bd-4a17-b384-69d17513dc35","system_id":"levelo_inurba_marseille","lat":43.30886,"lon":5.39632,"is_reserved":false,"is_disabled":false,"rental_uris":{"android":"levelo://app?vid=66a3a767-34bd-4a17-b384-69d17513dc35","ios":"levelo://app?vid=66a3a767-34bd-4a17-b384-69d17513dc35"},"vehicle_type_id":"4","last_reported":1710792407,"current_range_meters":22800,"station_id":"ce4bh012rcd13ifvqcv0","pricing_plan_id":"cebpf4jnsgd1na2vs0mg"},{"bike_id":"5de711f3-451a-4346-82a9-e135bb9c535b","system_id":"levelo_inurba_marseille","lat":43.292,"lon":5.35796,"is_reserved":false,"is_disabled":false,"rental_uris":{"android":"levelo://app?vid=5de711f3-451a-4346-82a9-e135bb9c535b","ios":"levelo://app?vid=5de711f3-451a-4346-82a9-e135bb9c535b"},"vehicle_type_id":"4","last_reported":1710792407,"current_range_meters":26800,"station_id":"ce4bhb12rcd13ifvqel0","pricing_plan_id":"cebpf4jnsgd1na2vs0mg"},{"bike_id":"ca214b54-a448-435b-aed5-bc1a963eebc7","system_id":"levelo_inurba_marseille","lat":43.308939,"lon":5.396349,"is_reserved":false,"is_disabled":false,"rental_uris":{"android":"levelo://app?vid=ca214b54-a448-435b-aed5-bc1a963eebc7","ios":"levelo://app?vid=ca214b54-a448-435b-aed5-bc1a963eebc7"},"vehicle_type_id":"4","last_reported":1710792407,"current_range_meters":0,"station_id":"ce4bh012rcd13ifvqcv0","pricing_plan_id":"cebpf4jnsgd1na2vs0mg"},{"bike_id":"5e8668ca-9cf0-4ecc-9cbd-f26cb38a4010","system_id":"levelo_inurba_marseille","lat":43.308863,"lon":5.396341,"is_reserved":false,"is_disabled":false,"rental_uris":{"android":"levelo://app?vid=5e8668ca-9cf0-4ecc-9cbd-f26cb38a4010","ios":"levelo://app?vid=5e8668ca-9cf0-4ecc-9cbd-f26cb38a4010"},"vehicle_type_id":"4","last_reported":1710792407,"current_range_meters":2800,"station_id":"ce4bh012rcd13ifvqcv0","pricing_plan_id":"cebpf4jnsgd1na2vs0mg"},{"bike_id":"18211a7d-3edc-4035-b4c7-136b86b2807e","system_id":"levelo_inurba_marseille","lat":43.291994,"lon":5.357886,"is_reserved":false,"is_disabled":false,"rental_uris":{"android":"levelo://app?vid=18211a7d-3edc-4035-b4c7-136b86b2807e","ios":"levelo://app?vid=18211a7d-3edc-4035-b4c7-136b86b2807e"},"vehicle_type_id":"4","last_reported":1710792407,"current_range_meters":29600,"station_id":"ce4bhb12rcd13ifvqel0","pricing_plan_id":"cebpf4jnsgd1na2vs0mg"},{"bike_id":"f5df6827-d621-4b4e-82ea-b4db323913dc","system_id":"levelo_inurba_marseille","lat":43.29199,"lon":5.35795,"is_reserved":false,"is_disabled":false,"rental_uris":{"android":"levelo://app?vid=f5df6827-d621-4b4e-82ea-b4db323913dc","ios":"levelo://app?vid=f5df6827-d621-4b4e-82ea-b4db323913dc"},"vehicle_type_id":"4","last_reported":1710792407,"current_range_meters":28800,"station_id":"ce4bhb12rcd13ifvqel0","pricing_plan_id":"cebpf4jnsgd1na2vs0mg"},{"bike_id":"6d33c51a-be9e-44ce-9c31-11f37f6d5e46","system_id":"levelo_inurba_marseille","lat":43.30892,"lon":5.39637,"is_reserved":false,"is_disabled":false,"rental_uris":{"android":"levelo://app?vid=6d33c51a-be9e-44ce-9c31-11f37f6d5e46","ios":"levelo://app?vid=6d33c51a-be9e-44ce-9c31-11f37f6d5e46"},"vehicle_type_id":"4","last_reported":1710792407,"current_range_meters":12000,"station_id":"ce4bh012rcd13ifvqcv0","pricing_plan_id":"cebpf4jnsgd1na2vs0mg"},{"bike_id":"0bb15e8b-8acb-4c4d-8986-939f9f14de56","system_id":"levelo_inurba_marseille","lat":43.29197,"lon":5.35793,"is_reserved":false,"is_disabled":false,"rental_uris":{"android":"levelo://app?vid=0bb15e8b-8acb-4c4d-8986-939f9f14de56","ios":"levelo://app?vid=0bb15e8b-8acb-4c4d-8986-939f9f14de56"},"vehicle_type_id":"4","last_reported":1710792407,"current_range_meters":18000,"station_id":"ce4bhb12rcd13ifvqel0","pricing_plan_id":"cebpf4jnsgd1na2vs0mg"},{"bike_id":"2f9675b7-93b8-4e24-880e-3b0a6aeb26aa","system_id":"levelo_inurba_marseille","lat":43.291994,"lon":5.357886,"is_reserved":false,"is_disabled":false,"rental_uris":{"android":"levelo://app?vid=2f9675b7-93b8-4e24-880e-3b0a6aeb26aa","ios":"levelo://app?vid=2f9675b7-93b8-4e24-880e-3b0a6aeb26aa"},"vehicle_type_id":"4","last_reported":1710792407,"current_range_meters":8800,"station_id":"ce4bhb12rcd13ifvqel0","pricing_plan_id":"cebpf4jnsgd1na2vs0mg"},{"bike_id":"153e7480-e1d4-4032-a3eb-ddb7af5d91e8","system_id":"levelo_inurba_marseille","lat":43.291994,"lon":5.357886,"is_reserved":false,"is_disabled":false,"rental_uris":{"android":"levelo://app?vid=153e7480-e1d4-4032-a3eb-ddb7af5d91e8","ios":"levelo://app?vid=153e7480-e1d4-4032-a3eb-ddb7af5d91e8"},"vehicle_type_id":"4","last_reported":1710792407,"current_range_meters":25600,"station_id":"ce4bhb12rcd13ifvqel0","pricing_plan_id":"cebpf4jnsgd1na2vs0mg"},{"bike_id":"cca2a2dc-7502-4d2b-b0d8-7d022a8d823b","system_id":"levelo_inurba_marseille","lat":43.31327,"lon":5.39687,"is_reserved":false,"is_disabled":false,"rental_uris":{"android":"levelo://app?vid=cca2a2dc-7502-4d2b-b0d8-7d022a8d823b","ios":"levelo://app?vid=cca2a2dc-7502-4d2b-b0d8-7d022a8d823b"},"vehicle_type_id":"4","last_reported":1710792407,"current_range_meters":9600,"station_id":"ce4bgvp2rcd13ifvqcu0","pricing_plan_id":"cebpf4jnsgd1na2vs0mg"},{"bike_id":"b0fd7457-162a-4f59-bc93-7818c2aa5c43","system_id":"levelo_inurba_marseille","lat":43.31326,"lon":5.3969,"is_reserved":false,"is_disabled":false,"rental_uris":{"android":"levelo://app?vid=b0fd7457-162a-4f59-bc93-7818c2aa5c43","ios":"levelo://app?vid=b0fd7457-162a-4f59-bc93-7818c2aa5c43"},"vehicle_type_id":"4","last_reported":1710792407,"current_range_meters":18800,"station_id":"ce4bgvp2rcd13ifvqcu0","pricing_plan_id":"cebpf4jnsgd1na2vs0mg"},{"bike_id":"aadf9756-2172-4fa9-b5f9-044cad6fc6e1","system_id":"levelo_inurba_marseille","lat":43.31332,"lon":5.3969,"is_reserved":false,"is_disabled":false,"rental_uris":{"android":"levelo://app?vid=aadf9756-2172-4fa9-b5f9-044cad6fc6e1","ios":"levelo://app?vid=aadf9756-2172-4fa9-b5f9-044cad6fc6e1"},"vehicle_type_id":"4","last_reported":1710792407,"current_range_meters":0,"station_id":"ce4bgvp2rcd13ifvqcu0","pricing_plan_id":"cebpf4jnsgd1na2vs0mg"},{"bike_id":"b5bcac87-7631-4270-9206-ca8781416e02","system_id":"levelo_inurba_marseille","lat":43.30884,"lon":5.396432,"is_reserved":false,"is_disabled":false,"rental_uris":{"android":"levelo://app?vid=b5bcac87-7631-4270-9206-ca8781416e02","ios":"levelo://app?vid=b5bcac87-7631-4270-9206-ca8781416e02"},"vehicle_type_id":"4","last_reported":1710792407,"current_range_meters":0,"station_id":"ce4bh012rcd13ifvqcv0","pricing_plan_id":"cebpf4jnsgd1na2vs0mg"},{"bike_id":"e9cfe8a9-df39-4c1b-bba7-57d17ef7ac37","system_id":"levelo_inurba_marseille","lat":43.291913,"lon":5.357943,"is_reserved":false,"is_disabled":false,"rental_uris":{"android":"levelo://app?vid=e9cfe8a9-df39-4c1b-bba7-57d17ef7ac37","ios":"levelo://app?vid=e9cfe8a9-df39-4c1b-bba7-57d17ef7ac37"},"vehicle_type_id":"4","last_reported":1710792407,"current_range_meters":16000,"station_id":"ce4bhb12rcd13ifvqel0","pricing_plan_id":"cebpf4jnsgd1na2vs0mg"},{"bike_id":"617b0e6f-676e-40f0-bbaf-c9395e5b4dcd","system_id":"levelo_inurba_marseille","lat":43.313293,"lon":5.39692,"is_reserved":false,"is_disabled":false,"rental_uris":{"android":"levelo://app?vid=617b0e6f-676e-40f0-bbaf-c9395e5b4dcd","ios":"levelo://app?vid=617b0e6f-676e-40f0-bbaf-c9395e5b4dcd"},"vehicle_type_id":"4","last_reported":1710792407,"current_range_meters":28800,"station_id":"ce4bgvp2rcd13ifvqcu0","pricing_plan_id":"cebpf4jnsgd1na2vs0mg"},{"bike_id":"fd327592-bcf3-43bf-9594-86c819354f99","system_id":"levelo_inurba_marseille","lat":43.31326,"lon":5.39693,"is_reserved":false,"is_disabled":false,"rental_uris":{"android":"levelo://app?vid=fd327592-bcf3-43bf-9594-86c819354f99","ios":"levelo://app?vid=fd327592-bcf3-43bf-9594-86c819354f99"},"vehicle_type_id":"4","last_reported":1710792407,"current_range_meters":30400,"station_id":"ce4bgvp2rcd13ifvqcu0","pricing_plan_id":"cebpf4jnsgd1na2vs0mg"},{"bike_id":"88f8c006-3663-43ee-a7c3-5ec8a5d44b37","system_id":"levelo_inurba_marseille","lat":43.31329,"lon":5.39693,"is_reserved":false,"is_disabled":false,"rental_uris":{"android":"levelo://app?vid=88f8c006-3663-43ee-a7c3-5ec8a5d44b37","ios":"levelo://app?vid=88f8c006-3663-43ee-a7c3-5ec8a5d44b37"},"vehicle_type_id":"4","last_reported":1710792407,"current_range_meters":31200,"station_id":"ce4bgvp2rcd13ifvqcu0","pricing_plan_id":"cebpf4jnsgd1na2vs0mg"},{"bike_id":"baf70c3a-b47d-4608-b1b1-50ad62d22bff","system_id":"levelo_inurba_marseille","lat":43.3133,"lon":5.39693,"is_reserved":false,"is_disabled":false,"rental_uris":{"android":"levelo://app?vid=baf70c3a-b47d-4608-b1b1-50ad62d22bff","ios":"levelo://app?vid=baf70c3a-b47d-4608-b1b1-50ad62d22bff"},"vehicle_type_id":"4","last_reported":1710792407,"current_range_meters":31200,"station_id":"ce4bgvp2rcd13ifvqcu0","pricing_plan_id":"cebpf4jnsgd1na2vs0mg"},{"bike_id":"5e84aace-d6e2-4b8e-a64a-6d2f2b35a36c","system_id":"levelo_inurba_marseille","lat":43.31331,"lon":5.39695,"is_reserved":false,"is_disabled":false,"rental_uris":{"android":"levelo://app?vid=5e84aace-d6e2-4b8e-a64a-6d2f2b35a36c","ios":"levelo://app?vid=5e84aace-d6e2-4b8e-a64a-6d2f2b35a36c"},"vehicle_type_id":"4","last_reported":1710792407,"current_range_meters":21200,"station_id":"ce4bgvp2rcd13ifvqcu0","pricing_plan_id":"cebpf4jnsgd1na2vs0mg"},{"bike_id":"68f4ec78-6cea-485c-a7f0-f742113abab5","system_id":"levelo_inurba_marseille","lat":43.31332,"lon":5.39695,"is_reserved":false,"is_disabled":false,"rental_uris":{"android":"levelo://app?vid=68f4ec78-6cea-485c-a7f0-f742113abab5","ios":"levelo://app?vid=68f4ec78-6cea-485c-a7f0-f742113abab5"},"vehicle_type_id":"4","last_reported":1710792407,"current_range_meters":31200,"station_id":"ce4bgvp2rcd13ifvqcu0","pricing_plan_id":"cebpf4jnsgd1na2vs0mg"},{"bike_id":"abb11673-b40c-40c4-b8f4-1baa48a2e387","system_id":"levelo_inurba_marseille","lat":43.31337,"lon":5.39695,"is_reserved":false,"is_disabled":false,"rental_uris":{"android":"levelo://app?vid=abb11673-b40c-40c4-b8f4-1baa48a2e387","ios":"levelo://app?vid=abb11673-b40c-40c4-b8f4-1baa48a2e387"},"vehicle_type_id":"4","last_reported":1710792407,"current_range_meters":22800,"station_id":"ce4bgvp2rcd13ifvqcu0","pricing_plan_id":"cebpf4jnsgd1na2vs0mg"},{"bike_id":"47d20761-d881-4f8f-8a47-ff786e168f50","system_id":"levelo_inurba_marseille","lat":43.31334,"lon":5.39698,"is_reserved":false,"is_disabled":false,"rental_uris":{"android":"levelo://app?vid=47d20761-d881-4f8f-8a47-ff786e168f50","ios":"levelo://app?vid=47d20761-d881-4f8f-8a47-ff786e168f50"},"vehicle_type_id":"4","last_reported":1710792407,"current_range_meters":0,"station_id":"ce4bgvp2rcd13ifvqcu0","pricing_plan_id":"cebpf4jnsgd1na2vs0mg"},{"bike_id":"4112e78b-a83b-4144-bf4b-846372bc7b46","system_id":"levelo_inurba_marseille","lat":43.291857,"lon":5.357957,"is_reserved":false,"is_disabled":false,"rental_uris":{"android":"levelo://app?vid=4112e78b-a83b-4144-bf4b-846372bc7b46","ios":"levelo://app?vid=4112e78b-a83b-4144-bf4b-846372bc7b46"},"vehicle_type_id":"4","last_reported":1710792407,"current_range_meters":28000,"station_id":"ce4bhb12rcd13ifvqel0","pricing_plan_id":"cebpf4jnsgd1na2vs0mg"},{"bike_id":"4e82e8b3-e400-45e2-9bff-fe38ba01a722","system_id":"levelo_inurba_marseille","lat":43.31331,"lon":5.39701,"is_reserved":false,"is_disabled":false,"rental_uris":{"android":"levelo://app?vid=4e82e8b3-e400-45e2-9bff-fe38ba01a722","ios":"levelo://app?vid=4e82e8b3-e400-45e2-9bff-fe38ba01a722"},"vehicle_type_id":"4","last_reported":1710792407,"current_range_meters":24800,"station_id":"ce4bgvp2rcd13ifvqcu0","pricing_plan_id":"cebpf4jnsgd1na2vs0mg"},{"bike_id":"111e3c83-132e-4e33-8730-121418fa5e29","system_id":"levelo_inurba_marseille","lat":43.313247,"lon":5.397093,"is_reserved":false,"is_disabled":false,"rental_uris":{"android":"levelo://app?vid=111e3c83-132e-4e33-8730-121418fa5e29","ios":"levelo://app?vid=111e3c83-132e-4e33-8730-121418fa5e29"},"vehicle_type_id":"4","last_reported":1710792407,"current_range_meters":7600,"station_id":"ce4bgvp2rcd13ifvqcu0","pricing_plan_id":"cebpf4jnsgd1na2vs0mg"},{"bike_id":"1da5f597-2ef9-4709-ad8b-94a50d58b623","system_id":"levelo_inurba_marseille","lat":43.29529,"lon":5.38538,"is_reserved":false,"is_disabled":false,"rental_uris":{"android":"levelo://app?vid=1da5f597-2ef9-4709-ad8b-94a50d58b623","ios":"levelo://app?vid=1da5f597-2ef9-4709-ad8b-94a50d58b623"},"vehicle_type_id":"4","last_reported":1710792407,"current_range_meters":0,"station_id":"ce4bgih2rcd13ifvqba0","pricing_plan_id":"cebpf4jnsgd1na2vs0mg"},{"bike_id":"81cf7ca7-1f5a-4b6b-8ca7-93426b8873c6","system_id":"levelo_inurba_marseille","lat":43.29532,"lon":5.38549,"is_reserved":false,"is_disabled":false,"rental_uris":{"android":"levelo://app?vid=81cf7ca7-1f5a-4b6b-8ca7-93426b8873c6","ios":"levelo://app?vid=81cf7ca7-1f5a-4b6b-8ca7-93426b8873c6"},"vehicle_type_id":"4","last_reported":1710792407,"current_range_meters":6400,"station_id":"ce4bgih2rcd13ifvqba0","pricing_plan_id":"cebpf4jnsgd1na2vs0mg"},{"bike_id":"46efe81f-a402-4499-84af-5f3d798fab7f","system_id":"levelo_inurba_marseille","lat":43.29529,"lon":5.385581,"is_reserved":false,"is_disabled":false,"rental_uris":{"android":"levelo://app?vid=46efe81f-a402-4499-84af-5f3d798fab7f","ios":"levelo://app?vid=46efe81f-a402-4499-84af-5f3d798fab7f"},"vehicle_type_id":"4","last_reported":1710792407,"current_range_meters":12000,"station_id":"ce4bgih2rcd13ifvqba0","pricing_plan_id":"cebpf4jnsgd1na2vs0mg"},{"bike_id":"768697aa-425e-4712-a3f3-aaad6bfcbdd1","system_id":"levelo_inurba_marseille","lat":43.29529,"lon":5.385581,"is_reserved":false,"is_disabled":false,"rental_uris":{"android":"levelo://app?vid=768697aa-425e-4712-a3f3-aaad6bfcbdd1","ios":"levelo://app?vid=768697aa-425e-4712-a3f3-aaad6bfcbdd1"},"vehicle_type_id":"4","last_reported":1710792407,"current_range_meters":3200,"station_id":"ce4bgih2rcd13ifvqba0","pricing_plan_id":"cebpf4jnsgd1na2vs0mg"},{"bike_id":"1c4e756c-737e-49e4-8b0c-6f1e74222ffb","system_id":"levelo_inurba_marseille","lat":43.29529,"lon":5.385581,"is_reserved":false,"is_disabled":false,"rental_uris":{"android":"levelo://app?vid=1c4e756c-737e-49e4-8b0c-6f1e74222ffb","ios":"levelo://app?vid=1c4e756c-737e-49e4-8b0c-6f1e74222ffb"},"vehicle_type_id":"4","last_reported":1710792407,"current_range_meters":5200,"station_id":"ce4bgih2rcd13ifvqba0","pricing_plan_id":"cebpf4jnsgd1na2vs0mg"},{"bike_id":"522ba46e-c40d-4033-a91c-cedf3a064e5f","system_id":"levelo_inurba_marseille","lat":43.29078,"lon":5.37171,"is_reserved":false,"is_disabled":false,"rental_uris":{"android":"levelo://app?vid=522ba46e-c40d-4033-a91c-cedf3a064e5f","ios":"levelo://app?vid=522ba46e-c40d-4033-a91c-cedf3a064e5f"},"vehicle_type_id":"4","last_reported":1710792407,"current_range_meters":28400,"station_id":"ce4bh5p2rcd13ifvqe4g","pricing_plan_id":"cebpf4jnsgd1na2vs0mg"},{"bike_id":"985bf2cb-3e19-499f-9982-6044a016b29f","system_id":"levelo_inurba_marseille","lat":43.29076,"lon":5.37173,"is_reserved":false,"is_disabled":false,"rental_uris":{"android":"levelo://app?vid=985bf2cb-3e19-499f-9982-6044a016b29f","ios":"levelo://app?vid=985bf2cb-3e19-499f-9982-6044a016b29f"},"vehicle_type_id":"4","last_reported":1710792407,"current_range_meters":6400,"station_id":"ce4bh5p2rcd13ifvqe4g","pricing_plan_id":"cebpf4jnsgd1na2vs0mg"},{"bike_id":"7db8e591-d6e5-4e58-b719-b7ec658b41a6","system_id":"levelo_inurba_marseille","lat":43.290779,"lon":5.371482,"is_reserved":false,"is_disabled":false,"rental_uris":{"android":"levelo://app?vid=7db8e591-d6e5-4e58-b719-b7ec658b41a6","ios":"levelo://app?vid=7db8e591-d6e5-4e58-b719-b7ec658b41a6"},"vehicle_type_id":"4","last_reported":1710792407,"current_range_meters":8400,"station_id":"ce4bh5p2rcd13ifvqe4g","pricing_plan_id":"cebpf4jnsgd1na2vs0mg"},{"bike_id":"6620b7f2-783e-43a1-a6c8-53b85fd9e50c","system_id":"levelo_inurba_marseille","lat":43.29069,"lon":5.37171,"is_reserved":false,"is_disabled":false,"rental_uris":{"android":"levelo://app?vid=6620b7f2-783e-43a1-a6c8-53b85fd9e50c","ios":"levelo://app?vid=6620b7f2-783e-43a1-a6c8-53b85fd9e50c"},"vehicle_type_id":"4","last_reported":1710792407,"current_range_meters":15600,"station_id":"ce4bh5p2rcd13ifvqe4g","pricing_plan_id":"cebpf4jnsgd1na2vs0mg"},{"bike_id":"5fc3395a-f495-4157-a8a7-554d9fab0b35","system_id":"levelo_inurba_marseille","lat":43.302008,"lon":5.394694,"is_reserved":false,"is_disabled":false,"rental_uris":{"android":"levelo://app?vid=5fc3395a-f495-4157-a8a7-554d9fab0b35","ios":"levelo://app?vid=5fc3395a-f495-4157-a8a7-554d9fab0b35"},"vehicle_type_id":"4","last_reported":1710792407,"current_range_meters":1600,"station_id":"ce4bh0p2rcd13ifvqd70","pricing_plan_id":"cebpf4jnsgd1na2vs0mg"},{"bike_id":"172650de-4723-4c50-9cbd-0ad092e1502f","system_id":"levelo_inurba_marseille","lat":43.302008,"lon":5.394694,"is_reserved":false,"is_disabled":false,"rental_uris":{"android":"levelo://app?vid=172650de-4723-4c50-9cbd-0ad092e1502f","ios":"levelo://app?vid=172650de-4723-4c50-9cbd-0ad092e1502f"},