{"last_updated":1751721639,"ttl":60,"version":"2.2","data":{"bikes":[{"bike_id":"3da29fb8-fc97-44c6-b9ac-31dd456b2fd4","system_id":"levelo_inurba_marseille","lat":43.33771,"lon":5.37424,"is_reserved":false,"is_disabled":true,"rental_uris":{"android":"levelo://app?vid=3da29fb8-fc97-44c6-b9ac-31dd456b2fd4","ios":"levelo://app?vid=3da29fb8-fc97-44c6-b9ac-31dd456b2fd4"},"vehicle_type_id":"4","last_reported":1751721640,"current_range_meters":0,"station_id":"","pricing_plan_id":"cebpf4jnsgd1na2vs0mg"},{"bike_id":"01861ad8-a8d7-4be6-816e-651927c87584","system_id":"levelo_inurba_marseille","lat":43.33751,"lon":5.37456,"is_reserved":false,"is_disabled":true,"rental_uris":{"android":"levelo://app?vid=01861ad8-a8d7-4be6-816e-651927c87584","ios":"levelo://app?vid=01861ad8-a8d7-4be6-816e-651927c87584"},"vehicle_type_id":"4","last_reported":1751721640,"current_range_meters":0,"station_id":"","pricing_plan_id":"cebpf4jnsgd1na2vs0mg"},{"bike_id":"f70f4eac-3f58-4e34-b450-f4227420bc3d","system_id":"levelo_inurba_marseille","lat":43.30534,"lon":5.39155,"is_reserved":false,"is_disabled":true,"rental_uris":{"android":"levelo://app?vid=f70f4eac-3f58-4e34-b450-f4227420bc3d","ios":"levelo://app?vid=f70f4eac-3f58-4e34-b450-f4227420bc3d"},"vehicle_type_id":"4","last_reported":1751721640,"current_range_meters":0,"station_id":"","pricing_plan_id":"cebpf4jnsgd1na2vs0mg"},{"bike_id":"c8885025-0b30-48c0-846f-ea87c2948681","system_id":"levelo_inurba_marseille","lat":43.30144,"lon":5.37742,"is_reserved":false,"is_disabled":true,"rental_uris":{"android":"levelo://app?vid=c8885025-0b30-48c0-846f-ea87c2948681","ios":"levelo://app?vid=c8885025-0b30-48c0-846f-ea87c2948681"},"vehicle_type_id":"4","last_reported":1751721640,"current_range_meters":0,"station_id":"","pricing_plan_id":"cebpf4jnsgd1na2vs0mg"},{"bike_id":"2e954a0d-0828-47d5-82a3-2c3a43b9e5b8","system_id":"levelo_inurba_marseille","lat":43.301861,"lon":5.366343,"is_reserved":false,"is_disabled":true,"rental_uris":{"android":"levelo://app?vid=2e954a0d-0828-47d5-82a3-2c3a43b9e5b8","ios":"levelo://app?vid=2e954a0d-0828-47d5-82a3-2c3a43b9e5b8"},"vehicle_type_id":"4","last_reported":1751721640,"current_range_meters":0,"station_id":"ce4bgrh2rcd13ifvqc8g","pricing_plan_id":"cebpf4jnsgd1na2vs0mg"},{"bike_id":"5c24dfbb-618c-44fe-a8d0-88a673731d78","system_id":"levelo_inurba_marseille","lat":43.30536,"lon":5.36529,"is_reserved":false,"is_disabled":true,"rental_uris":{"android":"levelo://app?vid=5c24dfbb-618c-44fe-a8d0-88a673731d78","ios":"levelo://app?vid=5c24dfbb-618c-44fe-a8d0-88a673731d78"},"vehicle_type_id":"4","last_reported":1751721640,"current_range_meters":0,"station_id":"ce4bgs12rcd13ifvqcag","pricing_plan_id":"cebpf4jnsgd1na2vs0mg"},{"bike_id":"c9c1daf4-a7c2-403a-9448-2d7f40669937","system_id":"levelo_inurba_marseille","lat":43.31351,"lon":5.38487,"is_reserved":false,"is_disabled":true,"rental_uris":{"android":"levelo://app?vid=c9c1daf4-a7c2-403a-9448-2d7f40669937","ios":"levelo://app?vid=c9c1daf4-a7c2-403a-9448-2d7f40669937"},"vehicle_type_id":"4","last_reported":1751721640,"current_range_meters":0,"station_id":"ce4bgt92rcd13ifvqcf0","pricing_plan_id":"cebpf4jnsgd1na2vs0mg"},{"bike_id":"030833f6-f365-4b0a-ab3c-50584a2e4a9a","system_id":"levelo_inurba_marseille","lat":43.31063,"lon":5.38387,"is_reserved":false,"is_disabled":true,"rental_uris":{"android":"levelo://app?vid=030833f6-f365-4b0a-ab3c-50584a2e4a9a","ios":"levelo://app?vid=030833f6-f365-4b0a-ab3c-50584a2e4a9a"},"vehicle_type_id":"4","last_reported":1751721640,"current_range_meters":0,"station_id":"ce4bgv92rcd13ifvqcr0","pricing_plan_id":"cebpf4jnsgd1na2vs0mg"},{"bike_id":"56de602d-14ff-4550-b4c9-68af322bc745","system_id":"levelo_inurba_marseille","lat":43.31693,"lon":5.40473,"is_reserved":false,"is_disabled":true,"rental_uris":{"android":"levelo://app?vid=56de602d-14ff-4550-b4c9-68af322bc745","ios":"levelo://app?vid=56de602d-14ff-4550-b4c9-68af322bc745"},"vehicle_type_id":"4","last_reported":1751721640,"current_range_meters":0,"station_id":"ce4bh012rcd13ifvqd00","pricing_plan_id":"cebpf4jnsgd1na2vs0mg"},{"bike_id":"b505c84e-2ac5-431f-8668-9df1df747490","system_id":"levelo_inurba_marseille","lat":43.27368,"lon":5.36261,"is_reserved":false,"is_disabled":true,"rental_uris":{"android":"levelo://app?vid=b505c84e-2ac5-431f-8668-9df1df747490","ios":"levelo://app?vid=b505c84e-2ac5-431f-8668-9df1df747490"},"vehicle_type_id":"4","last_reported":1751721640,"current_range_meters":0,"station_id":"ce4bhbh2rcd13ifvqeo0","pricing_plan_id":"cebpf4jnsgd1na2vs0mg"},{"bike_id":"608fec31-3d54-44b6-8bd7-100fbc337631","system_id":"levelo_inurba_marseille","lat":43.26212,"lon":5.37446,"is_reserved":false,"is_disabled":true,"rental_uris":{"android":"levelo://app?vid=608fec31-3d54-44b6-8bd7-100fbc337631","ios":"levelo://app?vid=608fec31-3d54-44b6-8bd7-100fbc337631"},"vehicle_type_id":"4","last_reported":1751721640,"current_range_meters":0,"station_id":"ce4bhgp2rcd13ifvqfc0","pricing_plan_id":"cebpf4jnsgd1na2vs0mg"},{"bike_id":"b07bf002-4527-4575-b014-2d32d1152fc7","system_id":"levelo_inurba_marseille","lat":43.32103,"lon":5.36768,"is_reserved":false,"is_disabled":true,"rental_uris":{"android":"levelo://app?vid=b07bf002-4527-4575-b014-2d32d1152fc7","ios":"levelo://app?vid=b07bf002-4527-4575-b014-2d32d1152fc7"},"vehicle_type_id":"4","last_reported":1751721640,"current_range_meters":0,"station_id":"ce4bhrh2rcd13ifvqhug","pricing_plan_id":"cebpf4jnsgd1na2vs0mg"},{"bike_id":"e7c6deae-0c29-4c96-9984-aab4f56779bc","system_id":"levelo_inurba_marseille","lat":43.2319,"lon":5.35557,"is_reserved":false,"is_disabled":true,"rental_uris":{"android":"levelo://app?vid=e7c6deae-0c29-4c96-9984-aab4f56779bc","ios":"levelo://app?vid=e7c6deae-0c29-4c96-9984-aab4f56779bc"},"vehicle_type_id":"4","last_reported":1751721640,"current_range_meters":0,"station_id":"ce4bhu92rcd13ifvqi70","pricing_plan_id":"cebpf4jnsgd1na2vs0mg"},{"bike_id":"7b59b02f-d11f-4605-98d5-ae20c43c1982","system_id":"levelo_inurba_marseille","lat":43.24174,"lon":5.36398,"is_reserved":false,"is_disabled":true,"rental_uris":{"android":"levelo://app?vid=7b59b02f-d11f-4605-98d5-ae20c43c1982","ios":"levelo://app?vid=7b59b02f-d11f-4605-98d5-ae20c43c1982"},"vehicle_type_id":"4","last_reported":1751721640,"current_range_meters":0,"station_id":"cpo36qri1sfpv3e86is0","pricing_plan_id":"cebpf4jnsgd1na2vs0mg"},{"bike_id":"c889741c-0b7a-4e29-8dbe-1d9534a24f3c","system_id":"levelo_inurba_marseille","lat":43.31362,"lon":5.38511,"is_reserved":false,"is_disabled":true,"rental_uris":{"android":"levelo://app?vid=c889741c-0b7a-4e29-8dbe-1d9534a24f3c","ios":"levelo://app?vid=c889741c-0b7a-4e29-8dbe-1d9534a24f3c"},"vehicle_type_id":"4","last_reported":1751721640,"current_range_meters":400,"station_id":"ce4bgt92rcd13ifvqcf0","pricing_plan_id":"cebpf4jnsgd1na2vs0mg"},{"bike_id":"fa644a43-da22-468b-bd0c-dc406370f527","system_id":"levelo_inurba_marseille","lat":43.30785,"lon":5.37641,"is_reserved":false,"is_disabled":true,"rental_uris":{"android":"levelo://app?vid=fa644a43-da22-468b-bd0c-dc406370f527","ios":"levelo://app?vid=fa644a43-da22-468b-bd0c-dc406370f527"},"vehicle_type_id":"4","last_reported":1751721640,"current_range_meters":400,"station_id":"ce4bgv92rcd13ifvqcq0","pricing_plan_id":"cebpf4jnsgd1na2vs0mg"},{"bike_id":"9cb6bca1-bbac-4425-a581-4f8ba7ee5806","system_id":"levelo_inurba_marseille","lat":43.30933,"lon":5.40146,"is_reserved":false,"is_disabled":true,"rental_uris":{"android":"levelo://app?vid=9cb6bca1-bbac-4425-a581-4f8ba7ee5806","ios":"levelo://app?vid=9cb6bca1-bbac-4425-a581-4f8ba7ee5806"},"vehicle_type_id":"4","last_reported":1751721640,"current_range_meters":400,"station_id":"ce4bgvp2rcd13ifvqct0","pricing_plan_id":"cebpf4jnsgd1na2vs0mg"},{"bike_id":"af0c595a-ea81-4ed5-b24a-c1a96f06f8fd","system_id":"levelo_inurba_marseille","lat":43.28479,"lon":5.38413,"is_reserved":false,"is_disabled":true,"rental_uris":{"android":"levelo://app?vid=af0c595a-ea81-4ed5-b24a-c1a96f06f8fd","ios":"levelo://app?vid=af0c595a-ea81-4ed5-b24a-c1a96f06f8fd"},"vehicle_type_id":"4","last_reported":1751721640,"current_range_meters":400,"station_id":"ce4bh512rcd13ifvqe3g","pricing_plan_id":"cebpf4jnsgd1na2vs0mg"},{"bike_id":"b30b5418-c51c-4b52-9e46-680065ba5403","system_id":"levelo_inurba_marseille","lat":43.2927,"lon":5.38434,"is_reserved":false,"is_disabled":true,"rental_uris":{"android":"levelo://app?vid=b30b5418-c51c-4b52-9e46-680065ba5403","ios":"levelo://app?vid=b30b5418-c51c-4b52-9e46-680065ba5403"},"vehicle_type_id":"4","last_reported":1751721640,"current_range_meters":400,"station_id":"ce4bh692rcd13ifvqea0","pricing_plan_id":"cebpf4jnsgd1na2vs0mg"},{"bike_id":"8afa7640-ebe8-4025-983a-c83f3912a2dd","system_id":"levelo_inurba_marseille","lat":43.212133,"lon":5.350676,"is_reserved":false,"is_disabled":true,"rental_uris":{"android":"levelo://app?vid=8afa7640-ebe8-4025-983a-c83f3912a2dd","ios":"levelo://app?vid=8afa7640-ebe8-4025-983a-c83f3912a2dd"},"vehicle_type_id":"4","last_reported":1751721640,"current_range_meters":400,"station_id":"st_cvj6sg6p6f1abm77japg","pricing_plan_id":"cebpf4jnsgd1na2vs0mg"},{"bike_id":"cf009ed5-001b-40a0-89bc-4d918287205f","system_id":"levelo_inurba_marseille","lat":43.30604,"lon":5.37216,"is_reserved":false,"is_disabled":true,"rental_uris":{"android":"levelo://app?vid=cf009ed5-001b-40a0-89bc-4d918287205f","ios":"levelo://app?vid=cf009ed5-001b-40a0-89bc-4d918287205f"},"vehicle_type_id":"4","last_reported":1751721640,"current_range_meters":800,"station_id":"ce4bgqh2rcd13ifvqc4g","pricing_plan_id":"cebpf4jnsgd1na2vs0mg"},{"bike_id":"7ccc3a00-b749-4581-91cc-c47d77018a56","system_id":"levelo_inurba_marseille","lat":43.30139,"lon":5.37401,"is_reserved":false,"is_disabled":true,"rental_uris":{"android":"levelo://app?vid=7ccc3a00-b749-4581-91cc-c47d77018a56","ios":"levelo://app?vid=7ccc3a00-b749-4581-91cc-c47d77018a56"},"vehicle_type_id":"4","last_reported":1751721640,"current_range_meters":800,"station_id":"ce4bgs92rcd13ifvqcc0","pricing_plan_id":"cebpf4jnsgd1na2vs0mg"},{"bike_id":"0c49a7d6-f9db-4a6c-978f-71d3ca86d4a3","system_id":"levelo_inurba_marseille","lat":43.22503,"lon":5.34787,"is_reserved":false,"is_disabled":true,"rental_uris":{"android":"levelo://app?vid=0c49a7d6-f9db-4a6c-978f-71d3ca86d4a3","ios":"levelo://app?vid=0c49a7d6-f9db-4a6c-978f-71d3ca86d4a3"},"vehicle_type_id":"4","last_reported":1751721640,"current_range_meters":800,"station_id":"st_cvj5dfep6f1abm77gieg","pricing_plan_id":"cebpf4jnsgd1na2vs0mg"},{"bike_id":"d9c90620-26c1-4d3c-8a03-7cc318565518","system_id":"levelo_inurba_marseille","lat":43.300404,"lon":5.380812,"is_reserved":false,"is_disabled":true,"rental_uris":{"android":"levelo://app?vid=d9c90620-26c1-4d3c-8a03-7cc318565518","ios":"levelo://app?vid=d9c90620-26c1-4d3c-8a03-7cc318565518"},"vehicle_type_id":"4","last_reported":1751721640,"current_range_meters":1200,"station_id":"ce4bgjp2rcd13ifvqbh0","pricing_plan_id":"cebpf4jnsgd1na2vs0mg"},{"bike_id":"445d8989-2eec-4504-9405-7d1e88488192","system_id":"levelo_inurba_marseille","lat":43.30325,"lon":5.40434,"is_reserved":false,"is_disabled":true,"rental_uris":{"android":"levelo://app?vid=445d8989-2eec-4504-9405-7d1e88488192","ios":"levelo://app?vid=445d8989-2eec-4504-9405-7d1e88488192"},"vehicle_type_id":"4","last_reported":1751721640,"current_range_meters":1200,"station_id":"ce4bh012rcd13ifvqd10","pricing_plan_id":"cebpf4jnsgd1na2vs0mg"},{"bike_id":"aef5dba8-dff6-417f-b93a-471c87a4986f","system_id":"levelo_inurba_marseille","lat":43.31274,"lon":5.40184,"is_reserved":false,"is_disabled":true,"rental_uris":{"android":"levelo://app?vid=aef5dba8-dff6-417f-b93a-471c87a4986f","ios":"levelo://app?vid=aef5dba8-dff6-417f-b93a-471c87a4986f"},"vehicle_type_id":"4","last_reported":1751721640,"current_range_meters":1200,"station_id":"ce4bh092rcd13ifvqd30","pricing_plan_id":"cebpf4jnsgd1na2vs0mg"},{"bike_id":"7d700fe5-59ec-4d47-b8c2-c85d7cc322a5","system_id":"levelo_inurba_marseille","lat":43.28563,"lon":5.37763,"is_reserved":false,"is_disabled":true,"rental_uris":{"android":"levelo://app?vid=7d700fe5-59ec-4d47-b8c2-c85d7cc322a5","ios":"levelo://app?vid=7d700fe5-59ec-4d47-b8c2-c85d7cc322a5"},"vehicle_type_id":"4","last_reported":1751721640,"current_range_meters":1600,"station_id":"","pricing_plan_id":"cebpf4jnsgd1na2vs0mg"},{"bike_id":"e26ba497-efc7-4420-b8c5-9fa5e27f2ce4","system_id":"levelo_inurba_marseille","lat":43.31385,"lon":5.3706,"is_reserved":false,"is_disabled":true,"rental_uris":{"android":"levelo://app?vid=e26ba497-efc7-4420-b8c5-9fa5e27f2ce4","ios":"levelo://app?vid=e26ba497-efc7-4420-b8c5-9fa5e27f2ce4"},"vehicle_type_id":"4","last_reported":1751721640,"current_range_meters":1600,"station_id":"","pricing_plan_id":"cebpf4jnsgd1na2vs0mg"},{"bike_id":"f77150ce-4cd4-476f-9334-d57d261c98f1","system_id":"levelo_inurba_marseille","lat":43.2762,"lon":5.36106,"is_reserved":false,"is_disabled":true,"rental_uris":{"android":"levelo://app?vid=f77150ce-4cd4-476f-9334-d57d261c98f1","ios":"levelo://app?vid=f77150ce-4cd4-476f-9334-d57d261c98f1"},"vehicle_type_id":"4","last_reported":1751721640,"current_range_meters":1600,"station_id":"ce4bgj92rcd13ifvqbe0","pricing_plan_id":"cebpf4jnsgd1na2vs0mg"},{"bike_id":"31d8b9c0-c696-4066-9008-e7c22acf2abb","system_id":"levelo_inurba_marseille","lat":43.28326,"lon":5.3809,"is_reserved":false,"is_disabled":true,"rental_uris":{"android":"levelo://app?vid=31d8b9c0-c696-4066-9008-e7c22acf2abb","ios":"levelo://app?vid=31d8b9c0-c696-4066-9008-e7c22acf2abb"},"vehicle_type_id":"4","last_reported":1751721640,"current_range_meters":1600,"station_id":"ce4bh412rcd13ifvqdr0","pricing_plan_id":"cebpf4jnsgd1na2vs0mg"},{"bike_id":"d9de979a-79f9-473a-a42b-22a1a18a6c50","system_id":"levelo_inurba_marseille","lat":43.2841,"lon":5.37518,"is_reserved":false,"is_disabled":true,"rental_uris":{"android":"levelo://app?vid=d9de979a-79f9-473a-a42b-22a1a18a6c50","ios":"levelo://app?vid=d9de979a-79f9-473a-a42b-22a1a18a6c50"},"vehicle_type_id":"4","last_reported":1751721640,"current_range_meters":1600,"station_id":"ce4bh412rcd13ifvqds0","pricing_plan_id":"cebpf4jnsgd1na2vs0mg"},{"bike_id":"9cfb2590-7e47-482e-a1fd-95367edcfe62","system_id":"levelo_inurba_marseille","lat":43.217468,"lon":5.346022,"is_reserved":false,"is_disabled":true,"rental_uris":{"android":"levelo://app?vid=9cfb2590-7e47-482e-a1fd-95367edcfe62","ios":"levelo://app?vid=9cfb2590-7e47-482e-a1fd-95367edcfe62"},"vehicle_type_id":"4","last_reported":1751721640,"current_range_meters":1600,"station_id":"st_cvj6r9ubvosntc0bgbag","pricing_plan_id":"cebpf4jnsgd1na2vs0mg"},{"bike_id":"efbc9e93-b897-4ea7-a171-955eb1ed616a","system_id":"levelo_inurba_marseille","lat":43.28416,"lon":5.37509,"is_reserved":false,"is_disabled":false,"rental_uris":{"android":"levelo://app?vid=efbc9e93-b897-4ea7-a171-955eb1ed616a","ios":"levelo://app?vid=efbc9e93-b897-4ea7-a171-955eb1ed616a"},"vehicle_type_id":"4","last_reported":1751721640,"current_range_meters":2800,"station_id":"ce4bh412rcd13ifvqds0","pricing_plan_id":"cebpf4jnsgd1na2vs0mg"},{"bike_id":"c415e7d8-cde4-49d5-b7dc-67b0139d9f9c","system_id":"levelo_inurba_marseille","lat":43.26024,"lon":5.3755,"is_reserved":false,"is_disabled":false,"rental_uris":{"android":"levelo://app?vid=c415e7d8-cde4-49d5-b7dc-67b0139d9f9c","ios":"levelo://app?vid=c415e7d8-cde4-49d5-b7dc-67b0139d9f9c"},"vehicle_type_id":"4","last_reported":1751721640,"current_range_meters":2800,"station_id":"ce4bhgh2rcd13ifvqfa0","pricing_plan_id":"cebpf4jnsgd1na2vs0mg"},{"bike_id":"9bfc7d3d-4e60-4f8a-9c32-ef3d0e77ec5b","system_id":"levelo_inurba_marseille","lat":43.21195,"lon":5.35076,"is_reserved":false,"is_disabled":false,"rental_uris":{"android":"levelo://app?vid=9bfc7d3d-4e60-4f8a-9c32-ef3d0e77ec5b","ios":"levelo://app?vid=9bfc7d3d-4e60-4f8a-9c32-ef3d0e77ec5b"},"vehicle_type_id":"4","last_reported":1751721640,"current_range_meters":2800,"station_id":"st_cvj6sg6p6f1abm77japg","pricing_plan_id":"cebpf4jnsgd1na2vs0mg"},{"bike_id":"e6e3ebe5-5d8f-437c-8f99-f6bd243ac5b2","system_id":"levelo_inurba_marseille","lat":43.30482,"lon":5.3699,"is_reserved":false,"is_disabled":false,"rental_uris":{"android":"levelo://app?vid=e6e3ebe5-5d8f-437c-8f99-f6bd243ac5b2","ios":"levelo://app?vid=e6e3ebe5-5d8f-437c-8f99-f6bd243ac5b2"},"vehicle_type_id":"4","last_reported":1751721640,"current_range_meters":3200,"station_id":"","pricing_plan_id":"cebpf4jnsgd1na2vs0mg"},{"bike_id":"61f6e411-32eb-47c5-a2b4-c10472f69205","system_id":"levelo_inurba_marseille","lat":43.2794,"lon":5.41049,"is_reserved":false,"is_disabled":false,"rental_uris":{"android":"levelo://app?vid=61f6e411-32eb-47c5-a2b4-c10472f69205","ios":"levelo://app?vid=61f6e411-32eb-47c5-a2b4-c10472f69205"},"vehicle_type_id":"4","last_reported":1751721640,"current_range_meters":3200,"station_id":"ce4bhnp2rcd13ifvqh0g","pricing_plan_id":"cebpf4jnsgd1na2vs0mg"},{"bike_id":"5f658937-1c8c-418c-89ea-3fbcd9a3431c","system_id":"levelo_inurba_marseille","lat":43.29027,"lon":5.35925,"is_reserved":false,"is_disabled":false,"rental_uris":{"android":"levelo://app?vid=5f658937-1c8c-418c-89ea-3fbcd9a3431c","ios":"levelo://app?vid=5f658937-1c8c-418c-89ea-3fbcd9a3431c"},"vehicle_type_id":"4","last_reported":1751721640,"current_range_meters":3600,"station_id":"","pricing_plan_id":"cebpf4jnsgd1na2vs0mg"},{"bike_id":"661a0078-a904-4cbd-8409-3264100ba5bc","system_id":"levelo_inurba_marseille","lat":43.26948,"lon":5.38629,"is_reserved":false,"is_disabled":false,"rental_uris":{"android":"levelo://app?vid=661a0078-a904-4cbd-8409-3264100ba5bc","ios":"levelo://app?vid=661a0078-a904-4cbd-8409-3264100ba5bc"},"vehicle_type_id":"4","last_reported":1751721640,"current_range_meters":3600,"station_id":"ce4bhh92rcd13ifvqfh0","pricing_plan_id":"cebpf4jnsgd1na2vs0mg"},{"bike_id":"c13560f5-9e5e-4052-b363-aa4fda80089b","system_id":"levelo_inurba_marseille","lat":43.2119,"lon":5.35071,"is_reserved":false,"is_disabled":false,"rental_uris":{"android":"levelo://app?vid=c13560f5-9e5e-4052-b363-aa4fda80089b","ios":"levelo://app?vid=c13560f5-9e5e-4052-b363-aa4fda80089b"},"vehicle_type_id":"4","last_reported":1751721640,"current_range_meters":3600,"station_id":"st_cvj6sg6p6f1abm77japg","pricing_plan_id":"cebpf4jnsgd1na2vs0mg"},{"bike_id":"be4e2ba2-f83c-4be6-923a-932d435bb5ce","system_id":"levelo_inurba_marseille","lat":43.2819,"lon":5.4046,"is_reserved":false,"is_disabled":false,"rental_uris":{"android":"levelo://app?vid=be4e2ba2-f83c-4be6-923a-932d435bb5ce","ios":"levelo://app?vid=be4e2ba2-f83c-4be6-923a-932d435bb5ce"},"vehicle_type_id":"4","last_reported":1751721640,"current_range_meters":4000,"station_id":"","pricing_plan_id":"cebpf4jnsgd1na2vs0mg"},{"bike_id":"8ddac4a4-e299-4007-8f2d-db8b270c328f","system_id":"levelo_inurba_marseille","lat":43.31886,"lon":5.40729,"is_reserved":false,"is_disabled":false,"rental_uris":{"android":"levelo://app?vid=8ddac4a4-e299-4007-8f2d-db8b270c328f","ios":"levelo://app?vid=8ddac4a4-e299-4007-8f2d-db8b270c328f"},"vehicle_type_id":"4","last_reported":1751721640,"current_range_meters":4000,"station_id":"ce4bhq12rcd13ifvqhig","pricing_plan_id":"cebpf4jnsgd1na2vs0mg"},{"bike_id":"f6ac2ca1-a3ac-4f58-b1a1-b74be8a76990","system_id":"levelo_inurba_marseille","lat":43.298967,"lon":5.436424,"is_reserved":false,"is_disabled":false,"rental_uris":{"android":"levelo://app?vid=f6ac2ca1-a3ac-4f58-b1a1-b74be8a76990","ios":"levelo://app?vid=f6ac2ca1-a3ac-4f58-b1a1-b74be8a76990"},"vehicle_type_id":"4","last_reported":1751721640,"current_range_meters":4400,"station_id":"ce4bhpp2rcd13ifvqhfg","pricing_plan_id":"cebpf4jnsgd1na2vs0mg"},{"bike_id":"0c289fe8-9fae-4628-9be6-18ca1444fe29","system_id":"levelo_inurba_marseille","lat":43.29314,"lon":5.37192,"is_reserved":false,"is_disabled":false,"rental_uris":{"android":"levelo://app?vid=0c289fe8-9fae-4628-9be6-18ca1444fe29","ios":"levelo://app?vid=0c289fe8-9fae-4628-9be6-18ca1444fe29"},"vehicle_type_id":"4","last_reported":1751721640,"current_range_meters":4800,"station_id":"ce4bgh92rcd13ifvqb40","pricing_plan_id":"cebpf4jnsgd1na2vs0mg"},{"bike_id":"cdfa7aca-f281-42b1-9e99-699e4ac74c02","system_id":"levelo_inurba_marseille","lat":43.27373,"lon":5.36262,"is_reserved":false,"is_disabled":false,"rental_uris":{"android":"levelo://app?vid=cdfa7aca-f281-42b1-9e99-699e4ac74c02","ios":"levelo://app?vid=cdfa7aca-f281-42b1-9e99-699e4ac74c02"},"vehicle_type_id":"4","last_reported":1751721640,"current_range_meters":4800,"station_id":"ce4bhbh2rcd13ifvqeo0","pricing_plan_id":"cebpf4jnsgd1na2vs0mg"},{"bike_id":"e4e49737-2622-473d-bcde-0e589bc70649","system_id":"levelo_inurba_marseille","lat":43.24166,"lon":5.364,"is_reserved":false,"is_disabled":false,"rental_uris":{"android":"levelo://app?vid=e4e49737-2622-473d-bcde-0e589bc70649","ios":"levelo://app?vid=e4e49737-2622-473d-bcde-0e589bc70649"},"vehicle_type_id":"4","last_reported":1751721640,"current_range_meters":4800,"station_id":"cpo36qri1sfpv3e86is0","pricing_plan_id":"cebpf4jnsgd1na2vs0mg"},{"bike_id":"42d8e91c-de8c-4e78-a52c-98e45b268630","system_id":"levelo_inurba_marseille","lat":43.21189,"lon":5.35072,"is_reserved":false,"is_disabled":false,"rental_uris":{"android":"levelo://app?vid=42d8e91c-de8c-4e78-a52c-98e45b268630","ios":"levelo://app?vid=42d8e91c-de8c-4e78-a52c-98e45b268630"},"vehicle_type_id":"4","last_reported":1751721640,"current_range_meters":4800,"station_id":"st_cvj6sg6p6f1abm77japg","pricing_plan_id":"cebpf4jnsgd1na2vs0mg"},{"bike_id":"6a30e364-6fd4-4339-a7a1-0558c61b5111","system_id":"levelo_inurba_marseille","lat":43.32489,"lon":5.3657,"is_reserved":false,"is_disabled":false,"rental_uris":{"android":"levelo://app?vid=6a30e364-6fd4-4339-a7a1-0558c61b5111","ios":"levelo://app?vid=6a30e364-6fd4-4339-a7a1-0558c61b5111"},"vehicle_type_id":"4","last_reported":1751721640,"current_range_meters":5600,"station_id":"ce4bhs12rcd13ifvqhvg","pricing_plan_id":"cebpf4jnsgd1na2vs0mg"},{"bike_id":"33d63bdf-de3b-4638-b96e-2f67317f8dbf","system_id":"levelo_inurba_marseille","lat":43.21186,"lon":5.3507,"is_reserved":false,"is_disabled":false,"rental_uris":{"android":"levelo://app?vid=33d63bdf-de3b-4638-b96e-2f67317f8dbf","ios":"levelo://app?vid=33d63bdf-de3b-4638-b96e-2f67317f8dbf"},"vehicle_type_id":"4","last_reported":1751721640,"current_range_meters":5600,"station_id":"st_cvj6sg6p6f1abm77japg","pricing_plan_id":"cebpf4jnsgd1na2vs0mg"},{"bike_id":"d799b321-3a7d-4201-b46e-ffe2ad124f19","system_id":"levelo_inurba_marseille","lat":43.32888,"lon":5.38422,"is_reserved":false,"is_disabled":false,"rental_uris":{"android":"levelo://app?vid=d799b321-3a7d-4201-b46e-ffe2ad124f19","ios":"levelo://app?vid=d799b321-3a7d-4201-b46e-ffe2ad124f19"},"vehicle_type_id":"4","last_reported":1751721640,"current_range_meters":6000,"station_id":"","pricing_plan_id":"cebpf4jnsgd1na2vs0mg"},{"bike_id":"53b37705-1bf5-450b-82ff-7e3dc3df707c","system_id":"levelo_inurba_marseille","lat":43.28,"lon":5.40016,"is_reserved":false,"is_disabled":false,"rental_uris":{"android":"levelo://app?vid=53b37705-1bf5-450b-82ff-7e3dc3df707c","ios":"levelo://app?vid=53b37705-1bf5-450b-82ff-7e3dc3df707c"},"vehicle_type_id":"4","last_reported":1751721640,"current_range_meters":6000,"station_id":"ce4bho92rcd13ifvqh4g","pricing_plan_id":"cebpf4jnsgd1na2vs0mg"},{"bike_id":"0f640d46-a2b5-4d98-b259-647b90dcae18","system_id":"levelo_inurba_marseille","lat":43.30029,"lon":5.40167,"is_reserved":false,"is_disabled":false,"rental_uris":{"android":"levelo://app?vid=0f640d46-a2b5-4d98-b259-647b90dcae18","ios":"levelo://app?vid=0f640d46-a2b5-4d98-b259-647b90dcae18"},"vehicle_type_id":"4","last_reported":1751721640,"current_range_meters":6400,"station_id":"","pricing_plan_id":"cebpf4jnsgd1na2vs0mg"},{"bike_id":"20ccfc80-4a71-4aff-a61e-6d0c3818cf7c","system_id":"levelo_inurba_marseille","lat":43.262,"lon":5.3793,"is_reserved":false,"is_disabled":false,"rental_uris":{"android":"levelo://app?vid=20ccfc80-4a71-4aff-a61e-6d0c3818cf7c","ios":"levelo://app?vid=20ccfc80-4a71-4aff-a61e-6d0c3818cf7c"},"vehicle_type_id":"4","last_reported":1751721640,"current_range_meters":6400,"station_id":"ce4bhjp2rcd13ifvqg90","pricing_plan_id":"cebpf4jnsgd1na2vs0mg"},{"bike_id":"b88885d1-6186-48f4-b815-163d161e8a08","system_id":"levelo_inurba_marseille","lat":43.279429,"lon":5.410551,"is_reserved":false,"is_disabled":false,"rental_uris":{"android":"levelo://app?vid=b88885d1-6186-48f4-b815-163d161e8a08","ios":"levelo://app?vid=b88885d1-6186-48f4-b815-163d161e8a08"},"vehicle_type_id":"4","last_reported":1751721640,"current_range_meters":6400,"station_id":"ce4bhnp2rcd13ifvqh0g","pricing_plan_id":"cebpf4jnsgd1na2vs0mg"},{"bike_id":"ba154a12-11bd-42a5-958a-5992f5d043d1","system_id":"levelo_inurba_marseille","lat":43.30496,"lon":5.37052,"is_reserved":false,"is_disabled":false,"rental_uris":{"android":"levelo://app?vid=ba154a12-11bd-42a5-958a-5992f5d043d1","ios":"levelo://app?vid=ba154a12-11bd-42a5-958a-5992f5d043d1"},"vehicle_type_id":"4","last_reported":1751721640,"current_range_meters":6800,"station_id":"","pricing_plan_id":"cebpf4jnsgd1na2vs0mg"},{"bike_id":"9f99ac77-5f81-43dc-8c5d-172f35cab14f","system_id":"levelo_inurba_marseille","lat":43.26183,"lon":5.37463,"is_reserved":false,"is_disabled":false,"rental_uris":{"android":"levelo://app?vid=9f99ac77-5f81-43dc-8c5d-172f35cab14f","ios":"levelo://app?vid=9f99ac77-5f81-43dc-8c5d-172f35cab14f"},"vehicle_type_id":"4","last_reported":1751721640,"current_range_meters":6800,"station_id":"ce4bhgp2rcd13ifvqfc0","pricing_plan_id":"cebpf4jnsgd1na2vs0mg"},{"bike_id":"43e5dda0-0b77-4587-9703-1510bd35dfc6","system_id":"levelo_inurba_marseille","lat":43.23955,"lon":5.36647,"is_reserved":false,"is_disabled":false,"rental_uris":{"android":"levelo://app?vid=43e5dda0-0b77-4587-9703-1510bd35dfc6","ios":"levelo://app?vid=43e5dda0-0b77-4587-9703-1510bd35dfc6"},"vehicle_type_id":"4","last_reported":1751721640,"current_range_meters":6800,"station_id":"ce4bhi12rcd13ifvqfp0","pricing_plan_id":"cebpf4jnsgd1na2vs0mg"},{"bike_id":"a57434b9-cc81-4f0b-ba91-1feeb211115e","system_id":"levelo_inurba_marseille","lat":43.30565,"lon":5.36524,"is_reserved":false,"is_disabled":false,"rental_uris":{"android":"levelo://app?vid=a57434b9-cc81-4f0b-ba91-1feeb211115e","ios":"levelo://app?vid=a57434b9-cc81-4f0b-ba91-1feeb211115e"},"vehicle_type_id":"4","last_reported":1751721640,"current_range_meters":7200,"station_id":"ce4bgs12rcd13ifvqcag","pricing_plan_id":"cebpf4jnsgd1na2vs0mg"},{"bike_id":"8080c49b-2834-4081-a8c2-7ba051a50b48","system_id":"levelo_inurba_marseille","lat":43.274976,"lon":5.424501,"is_reserved":false,"is_disabled":false,"rental_uris":{"android":"levelo://app?vid=8080c49b-2834-4081-a8c2-7ba051a50b48","ios":"levelo://app?vid=8080c49b-2834-4081-a8c2-7ba051a50b48"},"vehicle_type_id":"4","last_reported":1751721640,"current_range_meters":7200,"station_id":"ce4bhn92rcd13ifvqgrg","pricing_plan_id":"cebpf4jnsgd1na2vs0mg"},{"bike_id":"0c4b7fdb-b39e-49b3-a2b0-ae3d0f43e89d","system_id":"levelo_inurba_marseille","lat":43.32915,"lon":5.40563,"is_reserved":false,"is_disabled":false,"rental_uris":{"android":"levelo://app?vid=0c4b7fdb-b39e-49b3-a2b0-ae3d0f43e89d","ios":"levelo://app?vid=0c4b7fdb-b39e-49b3-a2b0-ae3d0f43e89d"},"vehicle_type_id":"4","last_reported":1751721640,"current_range_meters":8000,"station_id":"","pricing_plan_id":"cebpf4jnsgd1na2vs0mg"},{"bike_id":"e4e34612-0d98-4547-bfb6-fd8b5e3b1022","system_id":"levelo_inurba_marseille","lat":43.31486,"lon":5.37312,"is_reserved":false,"is_disabled":false,"rental_uris":{"android":"levelo://app?vid=e4e34612-0d98-4547-bfb6-fd8b5e3b1022","ios":"levelo://app?vid=e4e34612-0d98-4547-bfb6-fd8b5e3b1022"},"vehicle_type_id":"4","last_reported":1751721640,"current_range_meters":8000,"station_id":"ce4bgt12rcd13ifvqcd0","pricing_plan_id":"cebpf4jnsgd1na2vs0mg"},{"bike_id":"d58cbc83-474d-4c6a-a3b3-4788eee825a7","system_id":"levelo_inurba_marseille","lat":43.3148,"lon":5.37302,"is_reserved":false,"is_disabled":false,"rental_uris":{"android":"levelo://app?vid=d58cbc83-474d-4c6a-a3b3-4788eee825a7","ios":"levelo://app?vid=d58cbc83-474d-4c6a-a3b3-4788eee825a7"},"vehicle_type_id":"4","last_reported":1751721640,"current_range_meters":8000,"station_id":"ce4bgt12rcd13ifvqcd0","pricing_plan_id":"cebpf4jnsgd1na2vs0mg"},{"bike_id":"571abec9-12fe-4261-907b-5b08f5260cfb","system_id":"levelo_inurba_marseille","lat":43.23174,"lon":5.43729,"is_reserved":false,"is_disabled":false,"rental_uris":{"android":"levelo://app?vid=571abec9-12fe-4261-907b-5b08f5260cfb","ios":"levelo://app?vid=571abec9-12fe-4261-907b-5b08f5260cfb"},"vehicle_type_id":"4","last_reported":1751721640,"current_range_meters":8000,"station_id":"ce4bhmp2rcd13ifvqgog","pricing_plan_id":"cebpf4jnsgd1na2vs0mg"},{"bike_id":"2ffeba7a-8316-4052-8019-91454da58cbe","system_id":"levelo_inurba_marseille","lat":43.26982,"lon":5.4201,"is_reserved":false,"is_disabled":false,"rental_uris":{"android":"levelo://app?vid=2ffeba7a-8316-4052-8019-91454da58cbe","ios":"levelo://app?vid=2ffeba7a-8316-4052-8019-91454da58cbe"},"vehicle_type_id":"4","last_reported":1751721640,"current_range_meters":8400,"station_id":"","pricing_plan_id":"cebpf4jnsgd1na2vs0mg"},{"bike_id":"b85894d0-bdbe-465c-9124-e6bc1bafaf4e","system_id":"levelo_inurba_marseille","lat":43.29538,"lon":5.39395,"is_reserved":false,"is_disabled":false,"rental_uris":{"android":"levelo://app?vid=b85894d0-bdbe-465c-9124-e6bc1bafaf4e","ios":"levelo://app?vid=b85894d0-bdbe-465c-9124-e6bc1bafaf4e"},"vehicle_type_id":"4","last_reported":1751721640,"current_range_meters":8400,"station_id":"ce4bh292rcd13ifvqdf0","pricing_plan_id":"cebpf4jnsgd1na2vs0mg"},{"bike_id":"25caef1e-046d-4ea9-8fd5-adae008d1578","system_id":"levelo_inurba_marseille","lat":43.29004,"lon":5.35621,"is_reserved":false,"is_disabled":false,"rental_uris":{"android":"levelo://app?vid=25caef1e-046d-4ea9-8fd5-adae008d1578","ios":"levelo://app?vid=25caef1e-046d-4ea9-8fd5-adae008d1578"},"vehicle_type_id":"4","last_reported":1751721640,"current_range_meters":8400,"station_id":"ce4bhb92rcd13ifvqen0","pricing_plan_id":"cebpf4jnsgd1na2vs0mg"},{"bike_id":"8f9c8f5a-63c7-4b77-b496-4851631c0608","system_id":"levelo_inurba_marseille","lat":43.2738,"lon":5.36246,"is_reserved":false,"is_disabled":false,"rental_uris":{"android":"levelo://app?vid=8f9c8f5a-63c7-4b77-b496-4851631c0608","ios":"levelo://app?vid=8f9c8f5a-63c7-4b77-b496-4851631c0608"},"vehicle_type_id":"4","last_reported":1751721640,"current_range_meters":8400,"station_id":"ce4bhbh2rcd13ifvqeo0","pricing_plan_id":"cebpf4jnsgd1na2vs0mg"},{"bike_id":"0da28be7-6429-4fa6-9c63-647a2a04ef06","system_id":"levelo_inurba_marseille","lat":43.21739,"lon":5.34639,"is_reserved":false,"is_disabled":false,"rental_uris":{"android":"levelo://app?vid=0da28be7-6429-4fa6-9c63-647a2a04ef06","ios":"levelo://app?vid=0da28be7-6429-4fa6-9c63-647a2a04ef06"},"vehicle_type_id":"4","last_reported":1751721640,"current_range_meters":8400,"station_id":"st_cvj6r9ubvosntc0bgbag","pricing_plan_id":"cebpf4jnsgd1na2vs0mg"},{"bike_id":"6917bed5-c21f-48c3-870d-5408dab99803","system_id":"levelo_inurba_marseille","lat":43.29686,"lon":5.36888,"is_reserved":false,"is_disabled":false,"rental_uris":{"android":"levelo://app?vid=6917bed5-c21f-48c3-870d-5408dab99803","ios":"levelo://app?vid=6917bed5-c21f-48c3-870d-5408dab99803"},"vehicle_type_id":"4","last_reported":1751721640,"current_range_meters":8800,"station_id":"","pricing_plan_id":"cebpf4jnsgd1na2vs0mg"},{"bike_id":"c7d87659-cbb6-4acc-90f3-a138f37cd3df","system_id":"levelo_inurba_marseille","lat":43.28927,"lon":5.36621,"is_reserved":false,"is_disabled":false,"rental_uris":{"android":"levelo://app?vid=c7d87659-cbb6-4acc-90f3-a138f37cd3df","ios":"levelo://app?vid=c7d87659-cbb6-4acc-90f3-a138f37cd3df"},"vehicle_type_id":"4","last_reported":1751721640,"current_range_meters":8800,"station_id":"ce4bhap2rcd13ifvqek0","pricing_plan_id":"cebpf4jnsgd1na2vs0mg"},{"bike_id":"2f47a0b3-fd72-4314-816a-30303669fbae","system_id":"levelo_inurba_marseille","lat":43.28856,"lon":5.35856,"is_reserved":false,"is_disabled":false,"rental_uris":{"android":"levelo://app?vid=2f47a0b3-fd72-4314-816a-30303669fbae","ios":"levelo://app?vid=2f47a0b3-fd72-4314-816a-30303669fbae"},"vehicle_type_id":"4","last_reported":1751721640,"current_range_meters":8800,"station_id":"ce4bhb12rcd13ifvqem0","pricing_plan_id":"cebpf4jnsgd1na2vs0mg"},{"bike_id":"124257f7-e8f9-4632-8c6b-3a1e687884d2","system_id":"levelo_inurba_marseille","lat":43.303284,"lon":5.404388,"is_reserved":false,"is_disabled":false,"rental_uris":{"android":"levelo://app?vid=124257f7-e8f9-4632-8c6b-3a1e687884d2","ios":"levelo://app?vid=124257f7-e8f9-4632-8c6b-3a1e687884d2"},"vehicle_type_id":"4","last_reported":1751721640,"current_range_meters":9200,"station_id":"ce4bh012rcd13ifvqd10","pricing_plan_id":"cebpf4jnsgd1na2vs0mg"},{"bike_id":"2c6dece5-6a69-4a34-b926-2252928e63d9","system_id":"levelo_inurba_marseille","lat":43.27382,"lon":5.36255,"is_reserved":false,"is_disabled":false,"rental_uris":{"android":"levelo://app?vid=2c6dece5-6a69-4a34-b926-2252928e63d9","ios":"levelo://app?vid=2c6dece5-6a69-4a34-b926-2252928e63d9"},"vehicle_type_id":"4","last_reported":1751721640,"current_range_meters":9200,"station_id":"ce4bhbh2rcd13ifvqeo0","pricing_plan_id":"cebpf4jnsgd1na2vs0mg"},{"bike_id":"f0ce6050-ce40-4b15-9100-e80686238f24","system_id":"levelo_inurba_marseille","lat":43.24176,"lon":5.39736,"is_reserved":false,"is_disabled":false,"rental_uris":{"android":"levelo://app?vid=f0ce6050-ce40-4b15-9100-e80686238f24","ios":"levelo://app?vid=f0ce6050-ce40-4b15-9100-e80686238f24"},"vehicle_type_id":"4","last_reported":1751721640,"current_range_meters":9200,"station_id":"ce4bhn12rcd13ifvqgpg","pricing_plan_id":"cebpf4jnsgd1na2vs0mg"},{"bike_id":"1c8ab180-05fd-405f-9922-b2b2c2d5142f","system_id":"levelo_inurba_marseille","lat":43.337905,"lon":5.381293,"is_reserved":false,"is_disabled":false,"rental_uris":{"android":"levelo://app?vid=1c8ab180-05fd-405f-9922-b2b2c2d5142f","ios":"levelo://app?vid=1c8ab180-05fd-405f-9922-b2b2c2d5142f"},"vehicle_type_id":"4","last_reported":1751721640,"current_range_meters":9600,"station_id":"","pricing_plan_id":"cebpf4jnsgd1na2vs0mg"},{"bike_id":"6b0a1fd8-d9c6-42b7-8aee-05d9231cf95a","system_id":"levelo_inurba_marseille","lat":43.29222,"lon":5.40069,"is_reserved":false,"is_disabled":false,"rental_uris":{"android":"levelo://app?vid=6b0a1fd8-d9c6-42b7-8aee-05d9231cf95a","ios":"levelo://app?vid=6b0a1fd8-d9c6-42b7-8aee-05d9231cf95a"},"vehicle_type_id":"4","last_reported":1751721640,"current_range_meters":9600,"station_id":"","pricing_plan_id":"cebpf4jnsgd1na2vs0mg"},{"bike_id":"3d5a6589-f236-4abd-ada7-00f01b32aa03","system_id":"levelo_inurba_marseille","lat":43.28412,"lon":5.34991,"is_reserved":false,"is_disabled":false,"rental_uris":{"android":"levelo://app?vid=3d5a6589-f236-4abd-ada7-00f01b32aa03","ios":"levelo://app?vid=3d5a6589-f236-4abd-ada7-00f01b32aa03"},"vehicle_type_id":"4","last_reported":1751721640,"current_range_meters":9600,"station_id":"ce4bhbh2rcd13ifvqepg","pricing_plan_id":"cebpf4jnsgd1na2vs0mg"},{"bike_id":"e0c01446-5176-4397-80f9-d12a75855164","system_id":"levelo_inurba_marseille","lat":43.21752,"lon":5.34606,"is_reserved":false,"is_disabled":false,"rental_uris":{"android":"levelo://app?vid=e0c01446-5176-4397-80f9-d12a75855164","ios":"levelo://app?vid=e0c01446-5176-4397-80f9-d12a75855164"},"vehicle_type_id":"4","last_reported":1751721640,"current_range_meters":9600,"station_id":"st_cvj6r9ubvosntc0bgbag","pricing_plan_id":"cebpf4jnsgd1na2vs0mg"},{"bike_id":"b26fae72-751e-4090-a9c4-76ff5de1ad66","system_id":"levelo_inurba_marseille","lat":43.33245,"lon":5.38018,"is_reserved":false,"is_disabled":false,"rental_uris":{"android":"levelo://app?vid=b26fae72-751e-4090-a9c4-76ff5de1ad66","ios":"levelo://app?vid=b26fae72-751e-4090-a9c4-76ff5de1ad66"},"vehicle_type_id":"4","last_reported":1751721640,"current_range_meters":10000,"station_id":"","pricing_plan_id":"cebpf4jnsgd1na2vs0mg"},{"bike_id":"b2af4a6c-cc23-4b08-804e-761ba133a3ff","system_id":"levelo_inurba_marseille","lat":43.30905,"lon":5.36811,"is_reserved":false,"is_disabled":false,"rental_uris":{"android":"levelo://app?vid=b2af4a6c-cc23-4b08-804e-761ba133a3ff","ios":"levelo://app?vid=b2af4a6c-cc23-4b08-804e-761ba133a3ff"},"vehicle_type_id":"4","last_reported":1751721640,"current_range_meters":10000,"station_id":"ce4bgn92rcd13ifvqbvg","pricing_plan_id":"cebpf4jnsgd1na2vs0mg"},{"bike_id":"d52317ec-9d8e-4e5d-a5ef-563eb0952a26","system_id":"levelo_inurba_marseille","lat":43.3177,"lon":5.39012,"is_reserved":false,"is_disabled":false,"rental_uris":{"android":"levelo://app?vid=d52317ec-9d8e-4e5d-a5ef-563eb0952a26","ios":"levelo://app?vid=d52317ec-9d8e-4e5d-a5ef-563eb0952a26"},"vehicle_type_id":"4","last_reported":1751721640,"current_range_meters":10000,"station_id":"ce4bhqp2rcd13ifvqhng","pricing_plan_id":"cebpf4jnsgd1na2vs0mg"},{"bike_id":"76d127a6-3385-47a2-9e3a-490d1d976c59","system_id":"levelo_inurba_marseille","lat":43.31158,"lon":5.38239,"is_reserved":false,"is_disabled":false,"rental_uris":{"android":"levelo://app?vid=76d127a6-3385-47a2-9e3a-490d1d976c59","ios":"levelo://app?vid=76d127a6-3385-47a2-9e3a-490d1d976c59"},"vehicle_type_id":"4","last_reported":1751721640,"current_range_meters":10800,"station_id":"","pricing_plan_id":"cebpf4jnsgd1na2vs0mg"},{"bike_id":"7c5585cd-78bd-475f-81e5-7672880ce8de","system_id":"levelo_inurba_marseille","lat":43.30437,"lon":5.3889,"is_reserved":false,"is_disabled":false,"rental_uris":{"android":"levelo://app?vid=7c5585cd-78bd-475f-81e5-7672880ce8de","ios":"levelo://app?vid=7c5585cd-78bd-475f-81e5-7672880ce8de"},"vehicle_type_id":"4","last_reported":1751721640,"current_range_meters":10800,"station_id":"ce4bgk12rcd13ifvqbi0","pricing_plan_id":"cebpf4jnsgd1na2vs0mg"},{"bike_id":"7532b715-3225-47f3-8260-cb8ac2603c10","system_id":"levelo_inurba_marseille","lat":43.22929,"lon":5.35375,"is_reserved":false,"is_disabled":false,"rental_uris":{"android":"levelo://app?vid=7532b715-3225-47f3-8260-cb8ac2603c10","ios":"levelo://app?vid=7532b715-3225-47f3-8260-cb8ac2603c10"},"vehicle_type_id":"4","last_reported":1751721640,"current_range_meters":10800,"station_id":"cpo3532slgdg3j2ikp40","pricing_plan_id":"cebpf4jnsgd1na2vs0mg"},{"bike_id":"5b2997e6-5893-48c5-978e-cb0e5722fbef","system_id":"levelo_inurba_marseille","lat":43.217499,"lon":5.34603,"is_reserved":false,"is_disabled":false,"rental_uris":{"android":"levelo://app?vid=5b2997e6-5893-48c5-978e-cb0e5722fbef","ios":"levelo://app?vid=5b2997e6-5893-48c5-978e-cb0e5722fbef"},"vehicle_type_id":"4","last_reported":1751721640,"current_range_meters":10800,"station_id":"st_cvj6r9ubvosntc0bgbag","pricing_plan_id":"cebpf4jnsgd1na2vs0mg"},{"bike_id":"4b8da722-ee9e-48a4-a5e5-3a8a10364708","system_id":"levelo_inurba_marseille","lat":43.31223,"lon":5.37816,"is_reserved":false,"is_disabled":false,"rental_uris":{"android":"levelo://app?vid=4b8da722-ee9e-48a4-a5e5-3a8a10364708","ios":"levelo://app?vid=4b8da722-ee9e-48a4-a5e5-3a8a10364708"},"vehicle_type_id":"4","last_reported":1751721640,"current_range_meters":11200,"station_id":"","pricing_plan_id":"cebpf4jnsgd1na2vs0mg"},{"bike_id":"69c2280d-9883-47db-99f2-c073a6babae6","system_id":"levelo_inurba_marseille","lat":43.30847,"lon":5.37048,"is_reserved":false,"is_disabled":false,"rental_uris":{"android":"levelo://app?vid=69c2280d-9883-47db-99f2-c073a6babae6","ios":"levelo://app?vid=69c2280d-9883-47db-99f2-c073a6babae6"},"vehicle_type_id":"4","last_reported":1751721640,"current_range_meters":11200,"station_id":"","pricing_plan_id":"cebpf4jnsgd1na2vs0mg"},{"bike_id":"8540eae3-ead3-4b83-ba8b-6b7654e615e1","system_id":"levelo_inurba_marseille","lat":43.28128,"lon":5.42664,"is_reserved":false,"is_disabled":false,"rental_uris":{"android":"levelo://app?vid=8540eae3-ead3-4b83-ba8b-6b7654e615e1","ios":"levelo://app?vid=8540eae3-ead3-4b83-ba8b-6b7654e615e1"},"vehicle_type_id":"4","last_reported":1751721640,"current_range_meters":11200,"station_id":"ce4bhnh2rcd13ifvqgug","pricing_plan_id":"cebpf4jnsgd1na2vs0mg"},{"bike_id":"04edf994-7a6f-42bd-bdb9-6db229bd33ae","system_id":"levelo_inurba_marseille","lat":43.29563,"lon":5.42287,"is_reserved":false,"is_disabled":false,"rental_uris":{"android":"levelo://app?vid=04edf994-7a6f-42bd-bdb9-6db229bd33ae","ios":"levelo://app?vid=04edf994-7a6f-42bd-bdb9-6db229bd33ae"},"vehicle_type_id":"4","last_reported":1751721640,"current_range_meters":11600,"station_id":"ce4bhph2rcd13ifvqhdg","pricing_plan_id":"cebpf4jnsgd1na2vs0mg"},{"bike_id":"4db45513-e520-4598-82fa-5809d80d4f3d","system_id":"levelo_inurba_marseille","lat":43.28093,"lon":5.35498,"is_reserved":false,"is_disabled":false,"rental_uris":{"android":"levelo://app?vid=4db45513-e520-4598-82fa-5809d80d4f3d","ios":"levelo://app?vid=4db45513-e520-4598-82fa-5809d80d4f3d"},"vehicle_type_id":"4","last_reported":1751721640,"current_range_meters":12000,"station_id":"","pricing_plan_id":"cebpf4jnsgd1na2vs0mg"},{"bike_id":"a45c87af-110d-47ca-ab1f-4c5ed8b463db","system_id":"levelo_inurba_marseille","lat":43.296343,"lon":5.405985,"is_reserved":false,"is_disabled":false,"rental_uris":{"android":"levelo://app?vid=a45c87af-110d-47ca-ab1f-4c5ed8b463db","ios":"levelo://app?vid=a45c87af-110d-47ca-ab1f-4c5ed8b463db"},"vehicle_type_id":"4","last_reported":1751721640,"current_range_meters":12000,"station_id":"ce4bh0h2rcd13ifvqd60","pricing_plan_id":"cebpf4jnsgd1na2vs0mg"},{"bike_id":"29f87ba2-6d9f-4960-848f-2bbfcacce462","system_id":"levelo_inurba_marseille","lat":43.292725,"lon":5.368355,"is_reserved":false,"is_disabled":false,"rental_uris":{"android":"levelo://app?vid=29f87ba2-6d9f-4960-848f-2bbfcacce462","ios":"levelo://app?vid=29f87ba2-6d9f-4960-848f-2bbfcacce462"},"vehicle_type_id":"4","last_reported":1751721640,"current_range_meters":12000,"station_id":"ce4bhbp2rcd13ifvqesg","pricing_plan_id":"cebpf4jnsgd1na2vs0mg"},{"bike_id":"97c1dcd5-710d-4d50-87dc-175ec1f0efd6","system_id":"levelo_inurba_marseille","lat":43.231105,"lon":5.35454,"is_reserved":false,"is_disabled":false,"rental_uris":{"android":"levelo://app?vid=97c1dcd5-710d-4d50-87dc-175ec1f0efd6","ios":"levelo://app?vid=97c1dcd5-710d-4d50-87dc-175ec1f0efd6"},"vehicle_type_id":"4","last_reported":1751721640,"current_range_meters":12000,"station_id":"cpo3532slgdg3j2ikp40","pricing_plan_id":"cebpf4jnsgd1na2vs0mg"},{"bike_id":"672fc69a-31c0-4b40-a532-4a811d670207","system_id":"levelo_inurba_marseille","lat":43.211896,"lon":5.350672,"is_reserved":false,"is_disabled":false,"rental_uris":{"android":"levelo://app?vid=672fc69a-31c0-4b40-a532-4a811d670207","ios":"levelo://app?vid=672fc69a-31c0-4b40-a532-4a811d670207"},"vehicle_type_id":"4","last_reported":1751721640,"current_range_meters":12000,"station_id":"st_cvj6sg6p6f1abm77japg","pricing_plan_id":"cebpf4jnsgd1na2vs0mg"},{"bike_id":"12a7116c-6782-401e-8fb8-08ed436de6df","system_id":"levelo_inurba_marseille","lat":43.29158,"lon":5.37951,"is_reserved":false,"is_disabled":false,"rental_uris":{"android":"levelo://app?vid=12a7116c-6782-401e-8fb8-08ed436de6df","ios":"levelo://app?vid=12a7116c-6782-401e-8fb8-08ed436de6df"},"vehicle_type_id":"4","last_reported":1751721640,"current_range_meters":12400,"station_id":"","pricing_plan_id":"cebpf4jnsgd1na2vs0mg"},{"bike_id":"13893440-1ff4-4200-b237-da736c1afc8a","system_id":"levelo_inurba_marseille","lat":43.30563,"lon":5.36546,"is_reserved":false,"is_disabled":false,"rental_uris":{"android":"levelo://app?vid=13893440-1ff4-4200-b237-da736c1afc8a","ios":"levelo://app?vid=13893440-1ff4-4200-b237-da736c1afc8a"},"vehicle_type_id":"4","last_reported":1751721640,"current_range_meters":12400,"station_id":"ce4bgs12rcd13ifvqcag","pricing_plan_id":"cebpf4jnsgd1na2vs0mg"},{"bike_id":"f69a5fb8-4b43-4c92-b9a1-575ca9077199","system_id":"levelo_inurba_marseille","lat":43.26227,"lon":5.40475,"is_reserved":false,"is_disabled":false,"rental_uris":{"android":"levelo://app?vid=f69a5fb8-4b43-4c92-b9a1-575ca9077199","ios":"levelo://app?vid=f69a5fb8-4b43-4c92-b9a1-575ca9077199"},"vehicle_type_id":"4","last_reported":1751721640,"current_range_meters":12400,"station_id":"ce4bhmh2rcd13ifvqgmg","pricing_plan_id":"cebpf4jnsgd1na2vs0mg"},{"bike_id":"5c5bcca8-ce1b-4fb2-ade6-e9b96c84bdd4","system_id":"levelo_inurba_marseille","lat":43.23198,"lon":5.39969,"is_reserved":false,"is_disabled":false,"rental_uris":{"android":"levelo://app?vid=5c5bcca8-ce1b-4fb2-ade6-e9b96c84bdd4","ios":"levelo://app?vid=5c5bcca8-ce1b-4fb2-ade6-e9b96c84bdd4"},"vehicle_type_id":"4","last_reported":1751721640,"current_range_meters":12400,"station_id":"ce4bhn12rcd13ifvqgqg","pricing_plan_id":"cebpf4jnsgd1na2vs0mg"},{"bike_id":"29b19e99-4845-4ee3-b1ee-35721cd36dc7","system_id":"levelo_inurba_marseille","lat":43.231986,"lon":5.355481,"is_reserved":false,"is_disabled":false,"rental_uris":{"android":"levelo://app?vid=29b19e99-4845-4ee3-b1ee-35721cd36dc7","ios":"levelo://app?vid=29b19e99-4845-4ee3-b1ee-35721cd36dc7"},"vehicle_type_id":"4","last_reported":1751721640,"current_range_meters":12400,"station_id":"ce4bhu92rcd13ifvqi70","pricing_plan_id":"cebpf4jnsgd1na2vs0mg"},{"bike_id":"5e811c86-824d-4978-918d-a61aa3a543ea","system_id":"levelo_inurba_marseille","lat":43.30415,"lon":5.413,"is_reserved":false,"is_disabled":false,"rental_uris":{"android":"levelo://app?vid=5e811c86-824d-4978-918d-a61aa3a543ea","ios":"levelo://app?vid=5e811c86-824d-4978-918d-a61aa3a543ea"},"vehicle_type_id":"4","last_reported":1751721640,"current_range_meters":12800,"station_id":"ce4bhop2rcd13ifvqh8g","pricing_plan_id":"cebpf4jnsgd1na2vs0mg"},{"bike_id":"c5b91b0a-5fc4-4165-b464-20e1a4c673fb","system_id":"levelo_inurba_marseille","lat":43.32385,"lon":5.36735,"is_reserved":false,"is_disabled":false,"rental_uris":{"android":"levelo://app?vid=c5b91b0a-5fc4-4165-b464-20e1a4c673fb","ios":"levelo://app?vid=c5b91b0a-5fc4-4165-b464-20e1a4c673fb"},"vehicle_type_id":"4","last_reported":1751721640,"current_range_meters":12800,"station_id":"ce4bhsh2rcd13ifvqi2g","pricing_plan_id":"cebpf4jnsgd1na2vs0mg"},{"bike_id":"25d65b54-2483-49ad-9e8c-b4102ded682f","system_id":"levelo_inurba_marseille","lat":43.224933,"lon":5.34787,"is_reserved":false,"is_disabled":false,"rental_uris":{"android":"levelo://app?vid=25d65b54-2483-49ad-9e8c-b4102ded682f","ios":"levelo://app?vid=25d65b54-2483-49ad-9e8c-b4102ded682f"},"vehicle_type_id":"4","last_reported":1751721640,"current_range_meters":12800,"station_id":"st_cvj5dfep6f1abm77gieg","pricing_plan_id":"cebpf4jnsgd1na2vs0mg"},{"bike_id":"daeee1e5-3b93-44da-8e47-7b24df6d544e","system_id":"levelo_inurba_marseille","lat":43.300082,"lon":5.373719,"is_reserved":false,"is_disabled":false,"rental_uris":{"android":"levelo://app?vid=daeee1e5-3b93-44da-8e47-7b24df6d544e","ios":"levelo://app?vid=daeee1e5-3b93-44da-8e47-7b24df6d544e"},"vehicle_type_id":"4","last_reported":1751721640,"current_range_meters":13600,"station_id":"","pricing_plan_id":"cebpf4jnsgd1na2vs0mg"},{"bike_id":"3913ad23-cf89-4f24-8bec-6574be33c73e","system_id":"levelo_inurba_marseille","lat":43.31275,"lon":5.4015,"is_reserved":false,"is_disabled":false,"rental_uris":{"android":"levelo://app?vid=3913ad23-cf89-4f24-8bec-6574be33c73e","ios":"levelo://app?vid=3913ad23-cf89-4f24-8bec-6574be33c73e"},"vehicle_type_id":"4","last_reported":1751721640,"current_range_meters":13600,"station_id":"ce4bh092rcd13ifvqd30","pricing_plan_id":"cebpf4jnsgd1na2vs0mg"},{"bike_id":"18be639e-9be8-4b3b-8c5f-7247919c247a","system_id":"levelo_inurba_marseille","lat":43.28266,"lon":5.35061,"is_reserved":false,"is_disabled":false,"rental_uris":{"android":"levelo://app?vid=18be639e-9be8-4b3b-8c5f-7247919c247a","ios":"levelo://app?vid=18be639e-9be8-4b3b-8c5f-7247919c247a"},"vehicle_type_id":"4","last_reported":1751721640,"current_range_meters":13600,"station_id":"ce4bhbp2rcd13ifvqerg","pricing_plan_id":"cebpf4jnsgd1na2vs0mg"},{"bike_id":"aa62821f-7404-4a04-8433-3a5bc6cc525f","system_id":"levelo_inurba_marseille","lat":43.26556,"lon":5.37283,"is_reserved":false,"is_disabled":false,"rental_uris":{"android":"levelo://app?vid=aa62821f-7404-4a04-8433-3a5bc6cc525f","ios":"levelo://app?vid=aa62821f-7404-4a04-8433-3a5bc6cc525f"},"vehicle_type_id":"4","last_reported":1751721640,"current_range_meters":13600,"station_id":"ce4bhg12rcd13ifvqf70","pricing_plan_id":"cebpf4jnsgd1na2vs0mg"},{"bike_id":"ef9a3fd3-835b-41cc-9186-4274c0979c01","system_id":"levelo_inurba_marseille","lat":43.30259,"lon":5.40079,"is_reserved":false,"is_disabled":false,"rental_uris":{"android":"levelo://app?vid=ef9a3fd3-835b-41cc-9186-4274c0979c01","ios":"levelo://app?vid=ef9a3fd3-835b-41cc-9186-4274c0979c01"},"vehicle_type_id":"4","last_reported":1751721640,"current_range_meters":14000,"station_id":"ce4bgvh2rcd13ifvqcs0","pricing_plan_id":"cebpf4jnsgd1na2vs0mg"},{"bike_id":"3ddbba30-83fc-4406-8b51-decfffba50fc","system_id":"levelo_inurba_marseille","lat":43.25726,"lon":5.41144,"is_reserved":false,"is_disabled":false,"rental_uris":{"android":"levelo://app?vid=3ddbba30-83fc-4406-8b51-decfffba50fc","ios":"levelo://app?vid=3ddbba30-83fc-4406-8b51-decfffba50fc"},"vehicle_type_id":"4","last_reported":1751721640,"current_range_meters":14000,"station_id":"ce4bhkp2rcd13ifvqgd0","pricing_plan_id":"cebpf4jnsgd1na2vs0mg"},{"bike_id":"89c4c171-fa34-44ee-8818-b4f1de745083","system_id":"levelo_inurba_marseille","lat":43.23189,"lon":5.3555,"is_reserved":false,"is_disabled":false,"rental_uris":{"android":"levelo://app?vid=89c4c171-fa34-44ee-8818-b4f1de745083","ios":"levelo://app?vid=89c4c171-fa34-44ee-8818-b4f1de745083"},"vehicle_type_id":"4","last_reported":1751721640,"current_range_meters":14000,"station_id":"ce4bhu92rcd13ifvqi70","pricing_plan_id":"cebpf4jnsgd1na2vs0mg"},{"bike_id":"d008f2d7-a6e8-4370-83cd-46244114c79c","system_id":"levelo_inurba_marseille","lat":43.23184,"lon":5.35574,"is_reserved":false,"is_disabled":false,"rental_uris":{"android":"levelo://app?vid=d008f2d7-a6e8-4370-83cd-46244114c79c","ios":"levelo://app?vid=d008f2d7-a6e8-4370-83cd-46244114c79c"},"vehicle_type_id":"4","last_reported":1751721640,"current_range_meters":14400,"station_id":"ce4bhu92rcd13ifvqi70","pricing_plan_id":"cebpf4jnsgd1na2vs0mg"},{"bike_id":"85e59ae2-b351-4789-8c40-11e04c4e6808","system_id":"levelo_inurba_marseille","lat":43.23193,"lon":5.35541,"is_reserved":false,"is_disabled":false,"rental_uris":{"android":"levelo://app?vid=85e59ae2-b351-4789-8c40-11e04c4e6808","ios":"levelo://app?vid=85e59ae2-b351-4789-8c40-11e04c4e6808"},"vehicle_type_id":"4","last_reported":1751721640,"current_range_meters":14400,"station_id":"ce4bhu92rcd13ifvqi70","pricing_plan_id":"cebpf4jnsgd1na2vs0mg"},{"bike_id":"80a6d8ab-a155-4179-bbd2-a622d95d2145","system_id":"levelo_inurba_marseille","lat":43.30295,"lon":5.39221,"is_reserved":false,"is_disabled":false,"rental_uris":{"android":"levelo://app?vid=80a6d8ab-a155-4179-bbd2-a622d95d2145","ios":"levelo://app?vid=80a6d8ab-a155-4179-bbd2-a622d95d2145"},"vehicle_type_id":"4","last_reported":1751721640,"current_range_meters":14800,"station_id":"ce4bgkh2rcd13ifvqbk0","pricing_plan_id":"cebpf4jnsgd1na2vs0mg"},{"bike_id":"cfbb5926-86a2-4f94-b051-0688e6aefe02","system_id":"levelo_inurba_marseille","lat":43.30556,"lon":5.36554,"is_reserved":false,"is_disabled":false,"rental_uris":{"android":"levelo://app?vid=cfbb5926-86a2-4f94-b051-0688e6aefe02","ios":"levelo://app?vid=cfbb5926-86a2-4f94-b051-0688e6aefe02"},"vehicle_type_id":"4","last_reported":1751721640,"current_range_meters":14800,"station_id":"ce4bgs12rcd13ifvqcag","pricing_plan_id":"cebpf4jnsgd1na2vs0mg"},{"bike_id":"3b94207c-4139-4abc-9bb5-5a1e38510ecd","system_id":"levelo_inurba_marseille","lat":43.26214,"lon":5.40446,"is_reserved":false,"is_disabled":false,"rental_uris":{"android":"levelo://app?vid=3b94207c-4139-4abc-9bb5-5a1e38510ecd","ios":"levelo://app?vid=3b94207c-4139-4abc-9bb5-5a1e38510ecd"},"vehicle_type_id":"4","last_reported":1751721640,"current_range_meters":14800,"station_id":"ce4bhmh2rcd13ifvqgmg","pricing_plan_id":"cebpf4jnsgd1na2vs0mg"},{"bike_id":"dc3cb026-8582-4182-81b9-b4cd7611214c","system_id":"levelo_inurba_marseille","lat":43.28728,"lon":5.36082,"is_reserved":false,"is_disabled":false,"rental_uris":{"android":"levelo://app?vid=dc3cb026-8582-4182-81b9-b4cd7611214c","ios":"levelo://app?vid=dc3cb026-8582-4182-81b9-b4cd7611214c"},"vehicle_type_id":"4","last_reported":1751721640,"current_range_meters":14800,"station_id":"cki0cbj6b192h4jlfktg","pricing_plan_id":"cebpf4jnsgd1na2vs0mg"},{"bike_id":"b1d40197-e49c-4962-8cd8-0babe05d31a6","system_id":"levelo_inurba_marseille","lat":43.21244,"lon":5.3528,"is_reserved":false,"is_disabled":false,"rental_uris":{"android":"levelo://app?vid=b1d40197-e49c-4962-8cd8-0babe05d31a6","ios":"levelo://app?vid=b1d40197-e49c-4962-8cd8-0babe05d31a6"},"vehicle_type_id":"4","last_reported":1751721640,"current_range_meters":15200,"station_id":"","pricing_plan_id":"cebpf4jnsgd1na2vs0mg"},{"bike_id":"3be35b49-0917-4f5a-ae4f-01570020e578","system_id":"levelo_inurba_marseille","lat":43.29578,"lon":5.37512,"is_reserved":false,"is_disabled":false,"rental_uris":{"android":"levelo://app?vid=3be35b49-0917-4f5a-ae4f-01570020e578","ios":"levelo://app?vid=3be35b49-0917-4f5a-ae4f-01570020e578"},"vehicle_type_id":"4","last_reported":1751721640,"current_range_meters":15200,"station_id":"ce4bgh92rcd13ifvqb50","pricing_plan_id":"cebpf4jnsgd1na2vs0mg"},{"bike_id":"fcbb47f0-480f-4647-b620-44d3e4ef9dc8","system_id":"levelo_inurba_marseille","lat":43.25512,"lon":5.37651,"is_reserved":false,"is_disabled":false,"rental_uris":{"android":"levelo://app?vid=fcbb47f0-480f-4647-b620-44d3e4ef9dc8","ios":"levelo://app?vid=fcbb47f0-480f-4647-b620-44d3e4ef9dc8"},"vehicle_type_id":"4","last_reported":1751721640,"current_range_meters":15200,"station_id":"ce4bhh12rcd13ifvqff0","pricing_plan_id":"cebpf4jnsgd1na2vs0mg"},{"bike_id":"8501c7f1-4540-433a-9226-9677bd87b71a","system_id":"levelo_inurba_marseille","lat":43.21194,"lon":5.35068,"is_reserved":false,"is_disabled":false,"rental_uris":{"android":"levelo://app?vid=8501c7f1-4540-433a-9226-9677bd87b71a","ios":"levelo://app?vid=8501c7f1-4540-433a-9226-9677bd87b71a"},"vehicle_type_id":"4","last_reported":1751721640,"current_range_meters":15200,"station_id":"st_cvj6sg6p6f1abm77japg","pricing_plan_id":"cebpf4jnsgd1na2vs0mg"},{"bike_id":"adf1d38d-1f03-40cf-9b57-0a8f15f62b2d","system_id":"levelo_inurba_marseille","lat":43.32945,"lon":5.36425,"is_reserved":false,"is_disabled":false,"rental_uris":{"android":"levelo://app?vid=adf1d38d-1f03-40cf-9b57-0a8f15f62b2d","ios":"levelo://app?vid=adf1d38d-1f03-40cf-9b57-0a8f15f62b2d"},"vehicle_type_id":"4","last_reported":1751721640,"current_range_meters":16000,"station_id":"","pricing_plan_id":"cebpf4jnsgd1na2vs0mg"},{"bike_id":"cca681f4-cce5-4fb7-9918-cb13c2d9cbe6","system_id":"levelo_inurba_marseille","lat":43.2573,"lon":5.41107,"is_reserved":false,"is_disabled":false,"rental_uris":{"android":"levelo://app?vid=cca681f4-cce5-4fb7-9918-cb13c2d9cbe6","ios":"levelo://app?vid=cca681f4-cce5-4fb7-9918-cb13c2d9cbe6"},"vehicle_type_id":"4","last_reported":1751721640,"current_range_meters":16000,"station_id":"","pricing_plan_id":"cebpf4jnsgd1na2vs0mg"},{"bike_id":"f5da6e67-ba0a-4417-aa08-bfa90adeb091","system_id":"levelo_inurba_marseille","lat":43.28264,"lon":5.35064,"is_reserved":false,"is_disabled":false,"rental_uris":{"android":"levelo://app?vid=f5da6e67-ba0a-4417-aa08-bfa90adeb091","ios":"levelo://app?vid=f5da6e67-ba0a-4417-aa08-bfa90adeb091"},"vehicle_type_id":"4","last_reported":1751721640,"current_range_meters":16000,"station_id":"ce4bhbp2rcd13ifvqerg","pricing_plan_id":"cebpf4jnsgd1na2vs0mg"},{"bike_id":"aeede861-5b57-441b-ba12-2c9071ad4f5d","system_id":"levelo_inurba_marseille","lat":43.25499,"lon":5.37652,"is_reserved":false,"is_disabled":false,"rental_uris":{"android":"levelo://app?vid=aeede861-5b57-441b-ba12-2c9071ad4f5d","ios":"levelo://app?vid=aeede861-5b57-441b-ba12-2c9071ad4f5d"},"vehicle_type_id":"4","last_reported":1751721640,"current_range_meters":16000,"station_id":"ce4bhh12rcd13ifvqff0","pricing_plan_id":"cebpf4jnsgd1na2vs0mg"},{"bike_id":"e71bcd81-9ad3-4c70-8aed-a8c086e789ac","system_id":"levelo_inurba_marseille","lat":43.25929,"lon":5.40903,"is_reserved":false,"is_disabled":false,"rental_uris":{"android":"levelo://app?vid=e71bcd81-9ad3-4c70-8aed-a8c086e789ac","ios":"levelo://app?vid=e71bcd81-9ad3-4c70-8aed-a8c086e789ac"},"vehicle_type_id":"4","last_reported":1751721640,"current_range_meters":16000,"station_id":"ce4bhm92rcd13ifvqglg","pricing_plan_id":"cebpf4jnsgd1na2vs0mg"},{"bike_id":"18e903c3-bd69-4cad-bc4b-fefd2f289489","system_id":"levelo_inurba_marseille","lat":43.26225,"lon":5.40467,"is_reserved":false,"is_disabled":false,"rental_uris":{"android":"levelo://app?vid=18e903c3-bd69-4cad-bc4b-fefd2f289489","ios":"levelo://app?vid=18e903c3-bd69-4cad-bc4b-fefd2f289489"},"vehicle_type_id":"4","last_reported":1751721640,"current_range_meters":16000,"station_id":"ce4bhmh2rcd13ifvqgmg","pricing_plan_id":"cebpf4jnsgd1na2vs0mg"},{"bike_id":"c3fae141-3322-46bb-976b-c85803ceeb5f","system_id":"levelo_inurba_marseille","lat":43.29559,"lon":5.42307,"is_reserved":false,"is_disabled":false,"rental_uris":{"android":"levelo://app?vid=c3fae141-3322-46bb-976b-c85803ceeb5f","ios":"levelo://app?vid=c3fae141-3322-46bb-976b-c85803ceeb5f"},"vehicle_type_id":"4","last_reported":1751721640,"current_range_meters":16000,"station_id":"ce4bhph2rcd13ifvqhdg","pricing_plan_id":"cebpf4jnsgd1na2vs0mg"},{"bike_id":"134a6fd1-cb8b-4ade-a0c2-0b22bf7dca76","system_id":"levelo_inurba_marseille","lat":43.22495,"lon":5.34794,"is_reserved":false,"is_disabled":false,"rental_uris":{"android":"levelo://app?vid=134a6fd1-cb8b-4ade-a0c2-0b22bf7dca76","ios":"levelo://app?vid=134a6fd1-cb8b-4ade-a0c2-0b22bf7dca76"},"vehicle_type_id":"4","last_reported":1751721640,"current_range_meters":16000,"station_id":"st_cvj5dfep6f1abm77gieg","pricing_plan_id":"cebpf4jnsgd1na2vs0mg"},{"bike_id":"a6fe0581-5daf-4b07-9e14-c0bfec26b1cd","system_id":"levelo_inurba_marseille","lat":43.21752,"lon":5.34599,"is_reserved":false,"is_disabled":false,"rental_uris":{"android":"levelo://app?vid=a6fe0581-5daf-4b07-9e14-c0bfec26b1cd","ios":"levelo://app?vid=a6fe0581-5daf-4b07-9e14-c0bfec26b1cd"},"vehicle_type_id":"4","last_reported":1751721640,"current_range_meters":16000,"station_id":"st_cvj6r9ubvosntc0bgbag","pricing_plan_id":"cebpf4jnsgd1na2vs0mg"},{"bike_id":"bb4a28ca-bcb8-4241-b0fb-7b24851d517f","system_id":"levelo_inurba_marseille","lat":43.211925,"lon":5.350721,"is_reserved":false,"is_disabled":false,"rental_uris":{"android":"levelo://app?vid=bb4a28ca-bcb8-4241-b0fb-7b24851d517f","ios":"levelo://app?vid=bb4a28ca-bcb8-4241-b0fb-7b24851d517f"},"vehicle_type_id":"4","last_reported":1751721640,"current_range_meters":16000,"station_id":"st_cvj6sg6p6f1abm77japg","pricing_plan_id":"cebpf4jnsgd1na2vs0mg"},{"bike_id":"856c776b-976c-4e7f-97c1-3dc27b8380dd","system_id":"levelo_inurba_marseille","lat":43.31644,"lon":5.38306,"is_reserved":false,"is_disabled":false,"rental_uris":{"android":"levelo://app?vid=856c776b-976c-4e7f-97c1-3dc27b8380dd","ios":"levelo://app?vid=856c776b-976c-4e7f-97c1-3dc27b8380dd"},"vehicle_type_id":"4","last_reported":1751721640,"current_range_meters":16400,"station_id":"","pricing_plan_id":"cebpf4jnsgd1na2vs0mg"},{"bike_id":"fe8ee84c-fdfc-40aa-a1c2-6e36409c0740","system_id":"levelo_inurba_marseille","lat":43.26802,"lon":5.39079,"is_reserved":false,"is_disabled":false,"rental_uris":{"android":"levelo://app?vid=fe8ee84c-fdfc-40aa-a1c2-6e36409c0740","ios":"levelo://app?vid=fe8ee84c-fdfc-40aa-a1c2-6e36409c0740"},"vehicle_type_id":"4","last_reported":1751721640,"current_range_meters":16400,"station_id":"","pricing_plan_id":"cebpf4jnsgd1na2vs0mg"},{"bike_id":"38f7fbb9-ddf9-4adc-90d7-9ce9e9c6f27c","system_id":"levelo_inurba_marseille","lat":43.28231,"lon":5.38575,"is_reserved":false,"is_disabled":false,"rental_uris":{"android":"levelo://app?vid=38f7fbb9-ddf9-4adc-90d7-9ce9e9c6f27c","ios":"levelo://app?vid=38f7fbb9-ddf9-4adc-90d7-9ce9e9c6f27c"},"vehicle_type_id":"4","last_reported":1751721640,"current_range_meters":16400,"station_id":"","pricing_plan_id":"cebpf4jnsgd1na2vs0mg"},{"bike_id":"75c3b754-79ac-4fc9-813d-cc3df78729fc","system_id":"levelo_inurba_marseille","lat":43.30597,"lon":5.37215,"is_reserved":false,"is_disabled":false,"rental_uris":{"android":"levelo://app?vid=75c3b754-79ac-4fc9-813d-cc3df78729fc","ios":"levelo://app?vid=75c3b754-79ac-4fc9-813d-cc3df78729fc"},"vehicle_type_id":"4","last_reported":1751721640,"current_range_meters":16400,"station_id":"ce4bgqh2rcd13ifvqc4g","pricing_plan_id":"cebpf4jnsgd1na2vs0mg"},{"bike_id":"47bf70e7-c1eb-44a7-9839-bcb19b32ccfc","system_id":"levelo_inurba_marseille","lat":43.29027,"lon":5.39965,"is_reserved":false,"is_disabled":false,"rental_uris":{"android":"levelo://app?vid=47bf70e7-c1eb-44a7-9839-bcb19b32ccfc","ios":"levelo://app?vid=47bf70e7-c1eb-44a7-9839-bcb19b32ccfc"},"vehicle_type_id":"4","last_reported":1751721640,"current_range_meters":16400,"station_id":"ce4bh392rcd13ifvqdm0","pricing_plan_id":"cebpf4jnsgd1na2vs0mg"},{"bike_id":"71405d94-4847-4f53-8727-fe9cd87a2c8d","system_id":"levelo_inurba_marseille","lat":43.25502,"lon":5.37656,"is_reserved":false,"is_disabled":false,"rental_uris":{"android":"levelo://app?vid=71405d94-4847-4f53-8727-fe9cd87a2c8d","ios":"levelo://app?vid=71405d94-4847-4f53-8727-fe9cd87a2c8d"},"vehicle_type_id":"4","last_reported":1751721640,"current_range_meters":16400,"station_id":"ce4bhh12rcd13ifvqff0","pricing_plan_id":"cebpf4jnsgd1na2vs0mg"},{"bike_id":"1133fa96-960d-45e6-9328-aa458deeee07","system_id":"levelo_inurba_marseille","lat":43.26201,"lon":5.40505,"is_reserved":false,"is_disabled":false,"rental_uris":{"android":"levelo://app?vid=1133fa96-960d-45e6-9328-aa458deeee07","ios":"levelo://app?vid=1133fa96-960d-45e6-9328-aa458deeee07"},"vehicle_type_id":"4","last_reported":1751721640,"current_range_meters":16400,"station_id":"ce4bhmh2rcd13ifvqgmg","pricing_plan_id":"cebpf4jnsgd1na2vs0mg"},{"bike_id":"7d7ca329-d013-418c-84c4-2b0666103eeb","system_id":"levelo_inurba_marseille","lat":43.29891,"lon":5.43664,"is_reserved":false,"is_disabled":false,"rental_uris":{"android":"levelo://app?vid=7d7ca329-d013-418c-84c4-2b0666103eeb","ios":"levelo://app?vid=7d7ca329-d013-418c-84c4-2b0666103eeb"},"vehicle_type_id":"4","last_reported":1751721640,"current_range_meters":16400,"station_id":"ce4bhpp2rcd13ifvqhfg","pricing_plan_id":"cebpf4jnsgd1na2vs0mg"},{"bike_id":"e9f184b7-4c52-47df-adfb-be4fdc9c8ed3","system_id":"levelo_inurba_marseille","lat":43.232174,"lon":5.355743,"is_reserved":false,"is_disabled":false,"rental_uris":{"android":"levelo://app?vid=e9f184b7-4c52-47df-adfb-be4fdc9c8ed3","ios":"levelo://app?vid=e9f184b7-4c52-47df-adfb-be4fdc9c8ed3"},"vehicle_type_id":"4","last_reported":1751721640,"current_range_meters":16400,"station_id":"ce4bhu92rcd13ifvqi70","pricing_plan_id":"cebpf4jnsgd1na2vs0mg"},{"bike_id":"07ba84a8-f478-421c-96ed-6c0402ece04f","system_id":"levelo_inurba_marseille","lat":43.2295,"lon":5.35376,"is_reserved":false,"is_disabled":false,"rental_uris":{"android":"levelo://app?vid=07ba84a8-f478-421c-96ed-6c0402ece04f","ios":"levelo://app?vid=07ba84a8-f478-421c-96ed-6c0402ece04f"},"vehicle_type_id":"4","last_reported":1751721640,"current_range_meters":16400,"station_id":"cpo3532slgdg3j2ikp40","pricing_plan_id":"cebpf4jnsgd1na2vs0mg"},{"bike_id":"a9bd35a6-9215-4e3b-b7d0-0e671843e1f2","system_id":"levelo_inurba_marseille","lat":43.24171,"lon":5.3642,"is_reserved":false,"is_disabled":false,"rental_uris":{"android":"levelo://app?vid=a9bd35a6-9215-4e3b-b7d0-0e671843e1f2","ios":"levelo://app?vid=a9bd35a6-9215-4e3b-b7d0-0e671843e1f2"},"vehicle_type_id":"4","last_reported":1751721640,"current_range_meters":16400,"station_id":"cpo36qri1sfpv3e86is0","pricing_plan_id":"cebpf4jnsgd1na2vs0mg"},{"bike_id":"cd6f91d4-bdaf-4e38-b4f5-14f6e83055e8","system_id":"levelo_inurba_marseille","lat":43.21191,"lon":5.35093,"is_reserved":false,"is_disabled":false,"rental_uris":{"android":"levelo://app?vid=cd6f91d4-bdaf-4e38-b4f5-14f6e83055e8","ios":"levelo://app?vid=cd6f91d4-bdaf-4e38-b4f5-14f6e83055e8"},"vehicle_type_id":"4","last_reported":1751721640,"current_range_meters":16400,"station_id":"st_cvj6sg6p6f1abm77japg","pricing_plan_id":"cebpf4jnsgd1na2vs0mg"},{"bike_id":"bf24b26e-7f51-4120-9a48-54c87edaa2f7","system_id":"levelo_inurba_marseille","lat":43.211964,"lon":5.350723,"is_reserved":false,"is_disabled":false,"rental_uris":{"android":"levelo://app?vid=bf24b26e-7f51-4120-9a48-54c87edaa2f7","ios":"levelo://app?vid=bf24b26e-7f51-4120-9a48-54c87edaa2f7"},"vehicle_type_id":"4","last_reported":1751721640,"current_range_meters":16400,"station_id":"st_cvj6sg6p6f1abm77japg","pricing_plan_id":"cebpf4jnsgd1na2vs0mg"},{"bike_id":"8a42812b-a6a1-406d-afe6-f3a1f04badd8","system_id":"levelo_inurba_marseille","lat":43.30849,"lon":5.36989,"is_reserved":false,"is_disabled":false,"rental_uris":{"android":"levelo://app?vid=8a42812b-a6a1-406d-afe6-f3a1f04badd8","ios":"levelo://app?vid=8a42812b-a6a1-406d-afe6-f3a1f04badd8"},"vehicle_type_id":"4","last_reported":1751721640,"current_range_meters":16800,"station_id":"","pricing_plan_id":"cebpf4jnsgd1na2vs0mg"},{"bike_id":"68089ae8-441c-439b-9d1e-7c42b799eea3","system_id":"levelo_inurba_marseille","lat":43.29295,"lon":5.37175,"is_reserved":false,"is_disabled":false,"rental_uris":{"android":"levelo://app?vid=68089ae8-441c-439b-9d1e-7c42b799eea3","ios":"levelo://app?vid=68089ae8-441c-439b-9d1e-7c42b799eea3"},"vehicle_type_id":"4","last_reported":1751721640,"current_range_meters":16800,"station_id":"ce4bgh92rcd13ifvqb40","pricing_plan_id":"cebpf4jnsgd1na2vs0mg"},{"bike_id":"3b1af0a0-df1c-488f-988f-fff7a843b587","system_id":"levelo_inurba_marseille","lat":43.30261,"lon":5.40077,"is_reserved":false,"is_disabled":false,"rental_uris":{"android":"levelo://app?vid=3b1af0a0-df1c-488f-988f-fff7a843b587","ios":"levelo://app?vid=3b1af0a0-df1c-488f-988f-fff7a843b587"},"vehicle_type_id":"4","last_reported":1751721640,"current_range_meters":16800,"station_id":"ce4bgvh2rcd13ifvqcs0","pricing_plan_id":"cebpf4jnsgd1na2vs0mg"},{"bike_id":"a432562a-30ff-4df9-a4a5-167573d04372","system_id":"levelo_inurba_marseille","lat":43.3171,"lon":5.40464,"is_reserved":false,"is_disabled":false,"rental_uris":{"android":"levelo://app?vid=a432562a-30ff-4df9-a4a5-167573d04372","ios":"levelo://app?vid=a432562a-30ff-4df9-a4a5-167573d04372"},"vehicle_type_id":"4","last_reported":1751721640,"current_range_meters":16800,"station_id":"ce4bh012rcd13ifvqd00","pricing_plan_id":"cebpf4jnsgd1na2vs0mg"},{"bike_id":"5e4669bd-8536-4919-8da2-15409e182044","system_id":"levelo_inurba_marseille","lat":43.23172,"lon":5.43717,"is_reserved":false,"is_disabled":false,"rental_uris":{"android":"levelo://app?vid=5e4669bd-8536-4919-8da2-15409e182044","ios":"levelo://app?vid=5e4669bd-8536-4919-8da2-15409e182044"},"vehicle_type_id":"4","last_reported":1751721640,"current_range_meters":16800,"station_id":"ce4bhmp2rcd13ifvqgog","pricing_plan_id":"cebpf4jnsgd1na2vs0mg"},{"bike_id":"84303959-8cba-4981-9cd0-d7bbd107feff","system_id":"levelo_inurba_marseille","lat":43.3041,"lon":5.41286,"is_reserved":false,"is_disabled":false,"rental_uris":{"android":"levelo://app?vid=84303959-8cba-4981-9cd0-d7bbd107feff","ios":"levelo://app?vid=84303959-8cba-4981-9cd0-d7bbd107feff"},"vehicle_type_id":"4","last_reported":1751721640,"current_range_meters":16800,"station_id":"ce4bhop2rcd13ifvqh8g","pricing_plan_id":"cebpf4jnsgd1na2vs0mg"},{"bike_id":"486a7961-ac13-4d32-be9e-fcb654db67b5","system_id":"levelo_inurba_marseille","lat":43.23188,"lon":5.35559,"is_reserved":false,"is_disabled":false,"rental_uris":{"android":"levelo://app?vid=486a7961-ac13-4d32-be9e-fcb654db67b5","ios":"levelo://app?vid=486a7961-ac13-4d32-be9e-fcb654db67b5"},"vehicle_type_id":"4","last_reported":1751721640,"current_range_meters":16800,"station_id":"ce4bhu92rcd13ifvqi70","pricing_plan_id":"cebpf4jnsgd1na2vs0mg"},{"bike_id":"4b80d130-8a50-433f-8c4e-43528aebea1b","system_id":"levelo_inurba_marseille","lat":43.29962,"lon":5.38497,"is_reserved":false,"is_disabled":false,"rental_uris":{"android":"levelo://app?vid=4b80d130-8a50-433f-8c4e-43528aebea1b","ios":"levelo://app?vid=4b80d130-8a50-433f-8c4e-43528aebea1b"},"vehicle_type_id":"4","last_reported":1751721640,"current_range_meters":17200,"station_id":"ce4bgj92rcd13ifvqbd0","pricing_plan_id":"cebpf4jnsgd1na2vs0mg"},{"bike_id":"84ecec0c-2f91-42a5-8791-abca74e53738","system_id":"levelo_inurba_marseille","lat":43.261994,"lon":5.379351,"is_reserved":false,"is_disabled":false,"rental_uris":{"android":"levelo://app?vid=84ecec0c-2f91-42a5-8791-abca74e53738","ios":"levelo://app?vid=84ecec0c-2f91-42a5-8791-abca74e53738"},"vehicle_type_id":"4","last_reported":1751721640,"current_range_meters":17200,"station_id":"ce4bhjp2rcd13ifvqg90","pricing_plan_id":"cebpf4jnsgd1na2vs0mg"},{"bike_id":"47e95a77-63f5-40d0-98fa-31e76fbfeca4","system_id":"levelo_inurba_marseille","lat":43.25719,"lon":5.41116,"is_reserved":false,"is_disabled":false,"rental_uris":{"android":"levelo://app?vid=47e95a77-63f5-40d0-98fa-31e76fbfeca4","ios":"levelo://app?vid=47e95a77-63f5-40d0-98fa-31e76fbfeca4"},"vehicle_type_id":"4","last_reported":1751721640,"current_range_meters":17200,"station_id":"ce4bhkp2rcd13ifvqgd0","pricing_plan_id":"cebpf4jnsgd1na2vs0mg"},{"bike_id":"7f0c1e3c-145d-459e-b135-55934e2c45cf","system_id":"levelo_inurba_marseille","lat":43.28172,"lon":5.42653,"is_reserved":false,"is_disabled":false,"rental_uris":{"android":"levelo://app?vid=7f0c1e3c-145d-459e-b135-55934e2c45cf","ios":"levelo://app?vid=7f0c1e3c-145d-459e-b135-55934e2c45cf"},"vehicle_type_id":"4","last_reported":1751721640,"current_range_meters":17200,"station_id":"ce4bhnh2rcd13ifvqgug","pricing_plan_id":"cebpf4jnsgd1na2vs0mg"},{"bike_id":"cfedde4d-29e4-48a6-bc2a-67d1ad344395","system_id":"levelo_inurba_marseille","lat":43.23202,"lon":5.35552,"is_reserved":false,"is_disabled":false,"rental_uris":{"android":"levelo://app?vid=cfedde4d-29e4-48a6-bc2a-67d1ad344395","ios":"levelo://app?vid=cfedde4d-29e4-48a6-bc2a-67d1ad344395"},"vehicle_type_id":"4","last_reported":1751721640,"current_range_meters":17200,"station_id":"ce4bhu92rcd13ifvqi70","pricing_plan_id":"cebpf4jnsgd1na2vs0mg"},{"bike_id":"e449aa29-cae1-4432-9aec-dedc13360b20","system_id":"levelo_inurba_marseille","lat":43.21186,"lon":5.35078,"is_reserved":false,"is_disabled":false,"rental_uris":{"android":"levelo://app?vid=e449aa29-cae1-4432-9aec-dedc13360b20","ios":"levelo://app?vid=e449aa29-cae1-4432-9aec-dedc13360b20"},"vehicle_type_id":"4","last_reported":1751721640,"current_range_meters":17200,"station_id":"st_cvj6sg6p6f1abm77japg","pricing_plan_id":"cebpf4jnsgd1na2vs0mg"},{"bike_id":"8b885149-cf7a-4df4-824d-7d686b7d76d4","system_id":"levelo_inurba_marseille","lat":43.28028,"lon":5.4088,"is_reserved":false,"is_disabled":false,"rental_uris":{"android":"levelo://app?vid=8b885149-cf7a-4df4-824d-7d686b7d76d4","ios":"levelo://app?vid=8b885149-cf7a-4df4-824d-7d686b7d76d4"},"vehicle_type_id":"4","last_reported":1751721640,"current_range_meters":17600,"station_id":"","pricing_plan_id":"cebpf4jnsgd1na2vs0mg"},{"bike_id":"192a4ca2-6394-48d6-b87c-512a90481611","system_id":"levelo_inurba_marseille","lat":43.28414,"lon":5.35005,"is_reserved":false,"is_disabled":false,"rental_uris":{"android":"levelo://app?vid=192a4ca2-6394-48d6-b87c-512a90481611","ios":"levelo://app?vid=192a4ca2-6394-48d6-b87c-512a90481611"},"vehicle_type_id":"4","last_reported":1751721640,"current_range_meters":17600,"station_id":"ce4bhbh2rcd13ifvqepg","pricing_plan_id":"cebpf4jnsgd1na2vs0mg"},{"bike_id":"f96b9af3-4da1-48df-be81-6aa23024f562","system_id":"levelo_inurba_marseille","lat":43.28611,"lon":5.35113,"is_reserved":false,"is_disabled":false,"rental_uris":{"android":"levelo://app?vid=f96b9af3-4da1-48df-be81-6aa23024f562","ios":"levelo://app?vid=f96b9af3-4da1-48df-be81-6aa23024f562"},"vehicle_type_id":"4","last_reported":1751721640,"current_range_meters":17600,"station_id":"ce4bhch2rcd13ifvqeug","pricing_plan_id":"cebpf4jnsgd1na2vs0mg"},{"bike_id":"f50f85f1-af85-490b-9cf4-959afe5e0b8c","system_id":"levelo_inurba_marseille","lat":43.26552,"lon":5.37277,"is_reserved":false,"is_disabled":false,"rental_uris":{"android":"levelo://app?vid=f50f85f1-af85-490b-9cf4-959afe5e0b8c","ios":"levelo://app?vid=f50f85f1-af85-490b-9cf4-959afe5e0b8c"},"vehicle_type_id":"4","last_reported":1751721640,"current_range_meters":17600,"station_id":"ce4bhg12rcd13ifvqf70","pricing_plan_id":"cebpf4jnsgd1na2vs0mg"},{"bike_id":"fd900928-a6cc-465d-a048-c9a63fb1e07d","system_id":"levelo_inurba_marseille","lat":43.25859,"lon":5.39897,"is_reserved":false,"is_disabled":false,"rental_uris":{"android":"levelo://app?vid=fd900928-a6cc-465d-a048-c9a63fb1e07d","ios":"levelo://app?vid=fd900928-a6cc-465d-a048-c9a63fb1e07d"},"vehicle_type_id":"4","last_reported":1751721640,"current_range_meters":17600,"station_id":"ce4bhl92rcd13ifvqghg","pricing_plan_id":"cebpf4jnsgd1na2vs0mg"},{"bike_id":"98aac28d-b860-4179-8d39-1798550d6dac","system_id":"levelo_inurba_marseille","lat":43.211912,"lon":5.350717,"is_reserved":false,"is_disabled":false,"rental_uris":{"android":"levelo://app?vid=98aac28d-b860-4179-8d39-1798550d6dac","ios":"levelo://app?vid=98aac28d-b860-4179-8d39-1798550d6dac"},"vehicle_type_id":"4","last_reported":1751721640,"current_range_meters":17600,"station_id":"st_cvj6sg6p6f1abm77japg","pricing_plan_id":"cebpf4jnsgd1na2vs0mg"},{"bike_id":"452e8211-4f44-45d0-814a-3e9e25b8c44e","system_id":"levelo_inurba_marseille","lat":43.21186,"lon":5.3508,"is_reserved":false,"is_disabled":false,"rental_uris":{"android":"levelo://app?vid=452e8211-4f44-45d0-814a-3e9e25b8c44e","ios":"levelo://app?vid=452e8211-4f44-45d0-814a-3e9e25b8c44e"},"vehicle_type_id":"4","last_reported":1751721640,"current_range_meters":17600,"station_id":"st_cvj6sg6p6f1abm77japg","pricing_plan_id":"cebpf4jnsgd1na2vs0mg"},{"bike_id":"d7b38d56-834e-4f13-940f-76edc49acc30","system_id":"levelo_inurba_marseille","lat":43.30148,"lon":5.38095,"is_reserved":false,"is_disabled":false,"rental_uris":{"android":"levelo://app?vid=d7b38d56-834e-4f13-940f-76edc49acc30","ios":"levelo://app?vid=d7b38d56-834e-4f13-940f-76edc49acc30"},"vehicle_type_id":"4","last_reported":1751721640,"current_range_meters":18000,"station_id":"ce4bgjp2rcd13ifvqbh0","pricing_plan_id":"cebpf4jnsgd1na2vs0mg"},{"bike_id":"0f7223ee-118a-4e7e-b9de-7d2675177506","system_id":"levelo_inurba_marseille","lat":43.30534,"lon":5.36558,"is_reserved":false,"is_disabled":false,"rental_uris":{"android":"levelo://app?vid=0f7223ee-118a-4e7e-b9de-7d2675177506","ios":"levelo://app?vid=0f7223ee-118a-4e7e-b9de-7d2675177506"},"vehicle_type_id":"4","last_reported":1751721640,"current_range_meters":18000,"station_id":"ce4bgs12rcd13ifvqcag","pricing_plan_id":"cebpf4jnsgd1na2vs0mg"},{"bike_id":"208198cd-638f-40b4-ae9f-c43233b13337","system_id":"levelo_inurba_marseille","lat":43.305204,"lon":5.391404,"is_reserved":false,"is_disabled":false,"rental_uris":{"android":"levelo://app?vid=208198cd-638f-40b4-ae9f-c43233b13337","ios":"levelo://app?vid=208198cd-638f-40b4-ae9f-c43233b13337"},"vehicle_type_id":"4","last_reported":1751721640,"current_range_meters":18000,"station_id":"ce4bgv12rcd13ifvqcp0","pricing_plan_id":"cebpf4jnsgd1na2vs0mg"},{"bike_id":"e472551b-6b49-4a4c-9de4-a126740245aa","system_id":"levelo_inurba_marseille","lat":43.307874,"lon":5.376287,"is_reserved":false,"is_disabled":false,"rental_uris":{"android":"levelo://app?vid=e472551b-6b49-4a4c-9de4-a126740245aa","ios":"levelo://app?vid=e472551b-6b49-4a4c-9de4-a126740245aa"},"vehicle_type_id":"4","last_reported":1751721640,"current_range_meters":18000,"station_id":"ce4bgv92rcd13ifvqcq0","pricing_plan_id":"cebpf4jnsgd1na2vs0mg"},{"bike_id":"2602a34d-6783-4cf7-8f39-3f95785c4720","system_id":"levelo_inurba_marseille","lat":43.29033,"lon":5.37552,"is_reserved":false,"is_disabled":false,"rental_uris":{"android":"levelo://app?vid=2602a34d-6783-4cf7-8f39-3f95785c4720","ios":"levelo://app?vid=2602a34d-6783-4cf7-8f39-3f95785c4720"},"vehicle_type_id":"4","last_reported":1751721640,"current_range_meters":18000,"station_id":"ce4bh692rcd13ifvqe90","pricing_plan_id":"cebpf4jnsgd1na2vs0mg"},{"bike_id":"38556a8c-bc16-440b-aba1-9df44c77db93","system_id":"levelo_inurba_marseille","lat":43.26224,"lon":5.40453,"is_reserved":false,"is_disabled":false,"rental_uris":{"android":"levelo://app?vid=38556a8c-bc16-440b-aba1-9df44c77db93","ios":"levelo://app?vid=38556a8c-bc16-440b-aba1-9df44c77db93"},"vehicle_type_id":"4","last_reported":1751721640,"current_range_meters":18000,"station_id":"ce4bhmh2rcd13ifvqgmg","pricing_plan_id":"cebpf4jnsgd1na2vs0mg"},{"bike_id":"4580512b-1a8f-424f-aed6-8bf40d8ebfef","system_id":"levelo_inurba_marseille","lat":43.24183,"lon":5.39738,"is_reserved":false,"is_disabled":false,"rental_uris":{"android":"levelo://app?vid=4580512b-1a8f-424f-aed6-8bf40d8ebfef","ios":"levelo://app?vid=4580512b-1a8f-424f-aed6-8bf40d8ebfef"},"vehicle_type_id":"4","last_reported":1751721640,"current_range_meters":18000,"station_id":"ce4bhn12rcd13ifvqgpg","pricing_plan_id":"cebpf4jnsgd1na2vs0mg"},{"bike_id":"655a110d-474d-43b1-a203-d9e462e1a783","system_id":"levelo_inurba_marseille","lat":43.22501,"lon":5.34791,"is_reserved":false,"is_disabled":false,"rental_uris":{"android":"levelo://app?vid=655a110d-474d-43b1-a203-d9e462e1a783","ios":"levelo://app?vid=655a110d-474d-43b1-a203-d9e462e1a783"},"vehicle_type_id":"4","last_reported":1751721640,"current_range_meters":18000,"station_id":"st_cvj5dfep6f1abm77gieg","pricing_plan_id":"cebpf4jnsgd1na2vs0mg"},{"bike_id":"35b83f8f-3d97-4c4a-aa36-e774ca0233b5","system_id":"levelo_inurba_marseille","lat":43.21764,"lon":5.34635,"is_reserved":false,"is_disabled":false,"rental_uris":{"android":"levelo://app?vid=35b83f8f-3d97-4c4a-aa36-e774ca0233b5","ios":"levelo://app?vid=35b83f8f-3d97-4c4a-aa36-e774ca0233b5"},"vehicle_type_id":"4","last_reported":1751721640,"current_range_meters":18000,"station_id":"st_cvj6r9ubvosntc0bgbag","pricing_plan_id":"cebpf4jnsgd1na2vs0mg"},{"bike_id":"92dc2466-c197-4cda-9181-c77ef09f7bb7","system_id":"levelo_inurba_marseille","lat":43.2175,"lon":5.34613,"is_reserved":false,"is_disabled":false,"rental_uris":{"android":"levelo://app?vid=92dc2466-c197-4cda-9181-c77ef09f7bb7","ios":"levelo://app?vid=92dc2466-c197-4cda-9181-c77ef09f7bb7"},"vehicle_type_id":"4","last_reported":1751721640,"current_range_meters":18000,"station_id":"st_cvj6r9ubvosntc0bgbag","pricing_plan_id":"cebpf4jnsgd1na2vs0mg"},{"bike_id":"891c3460-a85a-4b4f-8aa8-883b2204696f","system_id":"levelo_inurba_marseille","lat":43.21756,"lon":5.34612,"is_reserved":false,"is_disabled":false,"rental_uris":{"android":"levelo://app?vid=891c3460-a85a-4b4f-8aa8-883b2204696f","ios":"levelo://app?vid=891c3460-a85a-4b4f-8aa8-883b2204696f"},"vehicle_type_id":"4","last_reported":1751721640,"current_range_meters":18000,"station_id":"st_cvj6r9ubvosntc0bgbag","pricing_plan_id":"cebpf4jnsgd1na2vs0mg"},{"bike_id":"ea1d1e72-8709-4143-971b-2c3e91a69ef6","system_id":"levelo_inurba_marseille","lat":43.276161,"lon":5.361016,"is_reserved":false,"is_disabled":false,"rental_uris":{"android":"levelo://app?vid=ea1d1e72-8709-4143-971b-2c3e91a69ef6","ios":"levelo://app?vid=ea1d1e72-8709-4143-971b-2c3e91a69ef6"},"vehicle_type_id":"4","last_reported":1751721640,"current_range_meters":18800,"station_id":"ce4bgj92rcd13ifvqbe0","pricing_plan_id":"cebpf4jnsgd1na2vs0mg"},{"bike_id":"f6b09216-3f78-4c6d-ad55-f19b248d42c9","system_id":"levelo_inurba_marseille","lat":43.24385,"lon":5.37055,"is_reserved":false,"is_disabled":false,"rental_uris":{"android":"levelo://app?vid=f6b09216-3f78-4c6d-ad55-f19b248d42c9","ios":"levelo://app?vid=f6b09216-3f78-4c6d-ad55-f19b248d42c9"},"vehicle_type_id":"4","last_reported":1751721640,"current_range_meters":18800,"station_id":"ce4bhhh2rcd13ifvqfk0","pricing_plan_id":"cebpf4jnsgd1na2vs0mg"},{"bike_id":"30daf87a-5e7d-42b3-ac97-c9dfd23296b5","system_id":"levelo_inurba_marseille","lat":43.32481,"lon":5.3658,"is_reserved":false,"is_disabled":false,"rental_uris":{"android":"levelo://app?vid=30daf87a-5e7d-42b3-ac97-c9dfd23296b5","ios":"levelo://app?vid=30daf87a-5e7d-42b3-ac97-c9dfd23296b5"},"vehicle_type_id":"4","last_reported":1751721640,"current_range_meters":18800,"station_id":"ce4bhs12rcd13ifvqhvg","pricing_plan_id":"cebpf4jnsgd1na2vs0mg"},{"bike_id":"cd8a20da-db5f-4650-89db-0d71a2724196","system_id":"levelo_inurba_marseille","lat":43.2293,"lon":5.35366,"is_reserved":false,"is_disabled":false,"rental_uris":{"android":"levelo://app?vid=cd8a20da-db5f-4650-89db-0d71a2724196","ios":"levelo://app?vid=cd8a20da-db5f-4650-89db-0d71a2724196"},"vehicle_type_id":"4","last_reported":1751721640,"current_range_meters":18800,"station_id":"cpo3532slgdg3j2ikp40","pricing_plan_id":"cebpf4jnsgd1na2vs0mg"},{"bike_id":"8bf0d992-d2a0-428e-940a-091ee9b7c2a4","system_id":"levelo_inurba_marseille","lat":43.21764,"lon":5.34611,"is_reserved":false,"is_disabled":false,"rental_uris":{"android":"levelo://app?vid=8bf0d992-d2a0-428e-940a-091ee9b7c2a4","ios":"levelo://app?vid=8bf0d992-d2a0-428e-940a-091ee9b7c2a4"},"vehicle_type_id":"4","last_reported":1751721640,"current_range_meters":18800,"station_id":"st_cvj6r9ubvosntc0bgbag","pricing_plan_id":"cebpf4jnsgd1na2vs0mg"},{"bike_id":"d5ef770d-9759-47e3-b3a5-7d2785ef76db","system_id":"levelo_inurba_marseille","lat":43.3294,"lon":5.39048,"is_reserved":false,"is_disabled":false,"rental_uris":{"android":"levelo://app?vid=d5ef770d-9759-47e3-b3a5-7d2785ef76db","ios":"levelo://app?vid=d5ef770d-9759-47e3-b3a5-7d2785ef76db"},"vehicle_type_id":"4","last_reported":1751721640,"current_range_meters":19200,"station_id":"","pricing_plan_id":"cebpf4jnsgd1na2vs0mg"},{"bike_id":"a28d9e17-8e87-4099-b70d-7ed62b962dc8","system_id":"levelo_inurba_marseille","lat":43.30145,"lon":5.38075,"is_reserved":false,"is_disabled":false,"rental_uris":{"android":"levelo://app?vid=a28d9e17-8e87-4099-b70d-7ed62b962dc8","ios":"levelo://app?vid=a28d9e17-8e87-4099-b70d-7ed62b962dc8"},"vehicle_type_id":"4","last_reported":1751721640,"current_range_meters":19200,"station_id":"ce4bgjp2rcd13ifvqbh0","pricing_plan_id":"cebpf4jnsgd1na2vs0mg"},{"bike_id":"c4a6ea3b-1d28-4af0-b719-199cb0b417e3","system_id":"levelo_inurba_marseille","lat":43.30634,"lon":5.40096,"is_reserved":false,"is_disabled":false,"rental_uris":{"android":"levelo://app?vid=c4a6ea3b-1d28-4af0-b719-199cb0b417e3","ios":"levelo://app?vid=c4a6ea3b-1d28-4af0-b719-199cb0b417e3"},"vehicle_type_id":"4","last_reported":1751721640,"current_range_meters":19200,"station_id":"ce4bh112rcd13ifvqda0","pricing_plan_id":"cebpf4jnsgd1na2vs0mg"},{"bike_id":"3d488a6b-0ac8-4bad-9060-083a5c4d3aa6","system_id":"levelo_inurba_marseille","lat":43.28422,"lon":5.34991,"is_reserved":false,"is_disabled":false,"rental_uris":{"android":"levelo://app?vid=3d488a6b-0ac8-4bad-9060-083a5c4d3aa6","ios":"levelo://app?vid=3d488a6b-0ac8-4bad-9060-083a5c4d3aa6"},"vehicle_type_id":"4","last_reported":1751721640,"current_range_meters":19200,"station_id":"ce4bhbh2rcd13ifvqepg","pricing_plan_id":"cebpf4jnsgd1na2vs0mg"},{"bike_id":"76558ac1-6d67-42d3-99cc-0b13879ac5f0","system_id":"levelo_inurba_marseille","lat":43.25578,"lon":5.38241,"is_reserved":false,"is_disabled":false,"rental_uris":{"android":"levelo://app?vid=76558ac1-6d67-42d3-99cc-0b13879ac5f0","ios":"levelo://app?vid=76558ac1-6d67-42d3-99cc-0b13879ac5f0"},"vehicle_type_id":"4","last_reported":1751721640,"current_range_meters":19200,"station_id":"ce4bhih2rcd13ifvqfs0","pricing_plan_id":"cebpf4jnsgd1na2vs0mg"},{"bike_id":"2e9ecc0a-afc7-4316-ac0c-3ab173435e83","system_id":"levelo_inurba_marseille","lat":43.231932,"lon":5.355722,"is_reserved":false,"is_disabled":false,"rental_uris":{"android":"levelo://app?vid=2e9ecc0a-afc7-4316-ac0c-3ab173435e83","ios":"levelo://app?vid=2e9ecc0a-afc7-4316-ac0c-3ab173435e83"},"vehicle_type_id":"4","last_reported":1751721640,"current_range_meters":19200,"station_id":"ce4bhu92rcd13ifvqi70","pricing_plan_id":"cebpf4jnsgd1na2vs0mg"},{"bike_id":"9432217d-53a4-4efb-91b0-6a6f8a69cf80","system_id":"levelo_inurba_marseille","lat":43.2962,"lon":5.37724,"is_reserved":false,"is_disabled":false,"rental_uris":{"android":"levelo://app?vid=9432217d-53a4-4efb-91b0-6a6f8a69cf80","ios":"levelo://app?vid=9432217d-53a4-4efb-91b0-6a6f8a69cf80"},"vehicle_type_id":"4","last_reported":1751721640,"current_range_meters":19600,"station_id":"ce4bgi92rcd13ifvqb90","pricing_plan_id":"cebpf4jnsgd1na2vs0mg"},{"bike_id":"bfdd0f0d-5811-48a9-a679-8d75462464a7","system_id":"levelo_inurba_marseille","lat":43.29853,"lon":5.36292,"is_reserved":false,"is_disabled":false,"rental_uris":{"android":"levelo://app?vid=bfdd0f0d-5811-48a9-a679-8d75462464a7","ios":"levelo://app?vid=bfdd0f0d-5811-48a9-a679-8d75462464a7"},"vehicle_type_id":"4","last_reported":1751721640,"current_range_meters":19600,"station_id":"ce4bgpp2rcd13ifvqc3g","pricing_plan_id":"cebpf4jnsgd1na2vs0mg"},{"bike_id":"294c55ac-c8ae-4f49-bc9e-29d799a8277e","system_id":"levelo_inurba_marseille","lat":43.30525,"lon":5.36557,"is_reserved":false,"is_disabled":false,"rental_uris":{"android":"levelo://app?vid=294c55ac-c8ae-4f49-bc9e-29d799a8277e","ios":"levelo://app?vid=294c55ac-c8ae-4f49-bc9e-29d799a8277e"},"vehicle_type_id":"4","last_reported":1751721640,"current_range_meters":19600,"station_id":"ce4bgs12rcd13ifvqcag","pricing_plan_id":"cebpf4jnsgd1na2vs0mg"},{"bike_id":"3b72422a-fff2-4da3-a854-7a4315789e5d","system_id":"levelo_inurba_marseille","lat":43.310647,"lon":5.383567,"is_reserved":false,"is_disabled":false,"rental_uris":{"android":"levelo://app?vid=3b72422a-fff2-4da3-a854-7a4315789e5d","ios":"levelo://app?vid=3b72422a-fff2-4da3-a854-7a4315789e5d"},"vehicle_type_id":"4","last_reported":1751721640,"current_range_meters":19600,"station_id":"ce4bgv92rcd13ifvqcr0","pricing_plan_id":"cebpf4jnsgd1na2vs0mg"},{"bike_id":"1608218e-ab67-4f6b-8130-1c59efb738f0","system_id":"levelo_inurba_marseille","lat":43.23965,"lon":5.36642,"is_reserved":false,"is_disabled":false,"rental_uris":{"android":"levelo://app?vid=1608218e-ab67-4f6b-8130-1c59efb738f0","ios":"levelo://app?vid=1608218e-ab67-4f6b-8130-1c59efb738f0"},"vehicle_type_id":"4","last_reported":1751721640,"current_range_meters":19600,"station_id":"ce4bhi12rcd13ifvqfp0","pricing_plan_id":"cebpf4jnsgd1na2vs0mg"},{"bike_id":"7a2a6668-dda4-4b39-a728-dd68d936976e","system_id":"levelo_inurba_marseille","lat":43.27064,"lon":5.40258,"is_reserved":false,"is_disabled":false,"rental_uris":{"android":"levelo://app?vid=7a2a6668-dda4-4b39-a728-dd68d936976e","ios":"levelo://app?vid=7a2a6668-dda4-4b39-a728-dd68d936976e"},"vehicle_type_id":"4","last_reported":1751721640,"current_range_meters":19600,"station_id":"ce4bhk92rcd13ifvqgc0","pricing_plan_id":"cebpf4jnsgd1na2vs0mg"},{"bike_id":"0f17b048-63cf-414a-a613-ce0697d023c2","system_id":"levelo_inurba_marseille","lat":43.28696,"lon":5.39981,"is_reserved":false,"is_disabled":false,"rental_uris":{"android":"levelo://app?vid=0f17b048-63cf-414a-a613-ce0697d023c2","ios":"levelo://app?vid=0f17b048-63cf-414a-a613-ce0697d023c2"},"vehicle_type_id":"4","last_reported":1751721640,"current_range_meters":19600,"station_id":"ce4bho92rcd13ifvqh3g","pricing_plan_id":"cebpf4jnsgd1na2vs0mg"},{"bike_id":"d858b784-4fd9-41d7-8169-6d2f7e176251","system_id":"levelo_inurba_marseille","lat":43.30528,"lon":5.3727,"is_reserved":false,"is_disabled":false,"rental_uris":{"android":"levelo://app?vid=d858b784-4fd9-41d7-8169-6d2f7e176251","ios":"levelo://app?vid=d858b784-4fd9-41d7-8169-6d2f7e176251"},"vehicle_type_id":"4","last_reported":1751721640,"current_range_meters":20000,"station_id":"","pricing_plan_id":"cebpf4jnsgd1na2vs0mg"},{"bike_id":"cc77c888-9da2-42df-aab4-55bd18e3864f","system_id":"levelo_inurba_marseille","lat":43.295611,"lon":5.422839,"is_reserved":false,"is_disabled":false,"rental_uris":{"android":"levelo://app?vid=cc77c888-9da2-42df-aab4-55bd18e3864f","ios":"levelo://app?vid=cc77c888-9da2-42df-aab4-55bd18e3864f"},"vehicle_type_id":"4","last_reported":1751721640,"current_range_meters":20000,"station_id":"ce4bhph2rcd13ifvqhdg","pricing_plan_id":"cebpf4jnsgd1na2vs0mg"},{"bike_id":"1651de4a-86a7-438f-ac73-c8aa63351922","system_id":"levelo_inurba_marseille","lat":43.33026,"lon":5.39041,"is_reserved":false,"is_disabled":false,"rental_uris":{"android":"levelo://app?vid=1651de4a-86a7-438f-ac73-c8aa63351922","ios":"levelo://app?vid=1651de4a-86a7-438f-ac73-c8aa63351922"},"vehicle_type_id":"4","last_reported":1751721640,"current_range_meters":20000,"station_id":"ce4bhr92rcd13ifvqhrg","pricing_plan_id":"cebpf4jnsgd1na2vs0mg"},{"bike_id":"d1f9d37d-b429-4583-912e-805cf3889e65","system_id":"levelo_inurba_marseille","lat":43.231963,"lon":5.355677,"is_reserved":false,"is_disabled":false,"rental_uris":{"android":"levelo://app?vid=d1f9d37d-b429-4583-912e-805cf3889e65","ios":"levelo://app?vid=d1f9d37d-b429-4583-912e-805cf3889e65"},"vehicle_type_id":"4","last_reported":1751721640,"current_range_meters":20000,"station_id":"ce4bhu92rcd13ifvqi70","pricing_plan_id":"cebpf4jnsgd1na2vs0mg"},{"bike_id":"80955d0f-8669-4c02-b90f-c6fe20790c37","system_id":"levelo_inurba_marseille","lat":43.232,"lon":5.35041,"is_reserved":false,"is_disabled":false,"rental_uris":{"android":"levelo://app?vid=80955d0f-8669-4c02-b90f-c6fe20790c37","ios":"levelo://app?vid=80955d0f-8669-4c02-b90f-c6fe20790c37"},"vehicle_type_id":"4","last_reported":1751721640,"current_range_meters":20400,"station_id":"","pricing_plan_id":"cebpf4jnsgd1na2vs0mg"},{"bike_id":"3b22f952-d0bc-4c00-8fd3-7e27b88aea23","system_id":"levelo_inurba_marseille","lat":43.29659,"lon":5.36245,"is_reserved":false,"is_disabled":false,"rental_uris":{"android":"levelo://app?vid=3b22f952-d0bc-4c00-8fd3-7e27b88aea23","ios":"levelo://app?vid=3b22f952-d0bc-4c00-8fd3-7e27b88aea23"},"vehicle_type_id":"4","last_reported":1751721640,"current_range_meters":20400,"station_id":"","pricing_plan_id":"cebpf4jnsgd1na2vs0mg"},{"bike_id":"5281f3dd-41c9-424a-9b20-d2f7f47bac39","system_id":"levelo_inurba_marseille","lat":43.29783,"lon":5.38117,"is_reserved":false,"is_disabled":false,"rental_uris":{"android":"levelo://app?vid=5281f3dd-41c9-424a-9b20-d2f7f47bac39","ios":"levelo://app?vid=5281f3dd-41c9-424a-9b20-d2f7f47bac39"},"vehicle_type_id":"4","last_reported":1751721640,"current_range_meters":20400,"station_id":"ce4bgip2rcd13ifvqbb0","pricing_plan_id":"cebpf4jnsgd1na2vs0mg"},{"bike_id":"918ba9bd-6e41-4af3-86cf-d0daef66210e","system_id":"levelo_inurba_marseille","lat":43.276143,"lon":5.361,"is_reserved":false,"is_disabled":false,"rental_uris":{"android":"levelo://app?vid=918ba9bd-6e41-4af3-86cf-d0daef66210e","ios":"levelo://app?vid=918ba9bd-6e41-4af3-86cf-d0daef66210e"},"vehicle_type_id":"4","last_reported":1751721640,"current_range_meters":20400,"station_id":"ce4bgj92rcd13ifvqbe0","pricing_plan_id":"cebpf4jnsgd1na2vs0mg"},{"bike_id":"a6db5fc2-e5d0-430e-aa71-36b96c5b42ff","system_id":"levelo_inurba_marseille","lat":43.26208,"lon":5.37449,"is_reserved":false,"is_disabled":false,"rental_uris":{"android":"levelo://app?vid=a6db5fc2-e5d0-430e-aa71-36b96c5b42ff","ios":"levelo://app?vid=a6db5fc2-e5d0-430e-aa71-36b96c5b42ff"},"vehicle_type_id":"4","last_reported":1751721640,"current_range_meters":20400,"station_id":"ce4bhgp2rcd13ifvqfc0","pricing_plan_id":"cebpf4jnsgd1na2vs0mg"},{"bike_id":"2e7f6c43-6d7b-491e-b254-b7e0824d09cc","system_id":"levelo_inurba_marseille","lat":43.25116,"lon":5.4032,"is_reserved":false,"is_disabled":false,"rental_uris":{"android":"levelo://app?vid=2e7f6c43-6d7b-491e-b254-b7e0824d09cc","ios":"levelo://app?vid=2e7f6c43-6d7b-491e-b254-b7e0824d09cc"},"vehicle_type_id":"4","last_reported":1751721640,"current_range_meters":20400,"station_id":"ce4bhlh2rcd13ifvqgig","pricing_plan_id":"cebpf4jnsgd1na2vs0mg"},{"bike_id":"b9a2d6aa-67f6-49b4-9fc4-9c98316b6617","system_id":"levelo_inurba_marseille","lat":43.23178,"lon":5.40003,"is_reserved":false,"is_disabled":false,"rental_uris":{"android":"levelo://app?vid=b9a2d6aa-67f6-49b4-9fc4-9c98316b6617","ios":"levelo://app?vid=b9a2d6aa-67f6-49b4-9fc4-9c98316b6617"},"vehicle_type_id":"4","last_reported":1751721640,"current_range_meters":20800,"station_id":"ce4bhn12rcd13ifvqgqg","pricing_plan_id":"cebpf4jnsgd1na2vs0mg"},{"bike_id":"d2bcc1cf-2af1-43c3-9223-1fe477e4c6fa","system_id":"levelo_inurba_marseille","lat":43.29569,"lon":5.42294,"is_reserved":false,"is_disabled":false,"rental_uris":{"android":"levelo://app?vid=d2bcc1cf-2af1-43c3-9223-1fe477e4c6fa","ios":"levelo://app?vid=d2bcc1cf-2af1-43c3-9223-1fe477e4c6fa"},"vehicle_type_id":"4","last_reported":1751721640,"current_range_meters":20800,"station_id":"ce4bhph2rcd13ifvqhdg","pricing_plan_id":"cebpf4jnsgd1na2vs0mg"},{"bike_id":"37f2becd-23f9-4f13-a711-38b8024eeec7","system_id":"levelo_inurba_marseille","lat":43.33768,"lon":5.37516,"is_reserved":false,"is_disabled":false,"rental_uris":{"android":"levelo://app?vid=37f2becd-23f9-4f13-a711-38b8024eeec7","ios":"levelo://app?vid=37f2becd-23f9-4f13-a711-38b8024eeec7"},"vehicle_type_id":"4","last_reported":1751721640,"current_range_meters":21600,"station_id":"","pricing_plan_id":"cebpf4jnsgd1na2vs0mg"},{"bike_id":"aef2da19-2977-4eaa-9a1d-cfd2b08ce3a1","system_id":"levelo_inurba_marseille","lat":43.28369,"lon":5.4178,"is_reserved":false,"is_disabled":false,"rental_uris":{"android":"levelo://app?vid=aef2da19-2977-4eaa-9a1d-cfd2b08ce3a1","ios":"levelo://app?vid=aef2da19-2977-4eaa-9a1d-cfd2b08ce3a1"},"vehicle_type_id":"4","last_reported":1751721640,"current_range_meters":21600,"station_id":"","pricing_plan_id":"cebpf4jnsgd1na2vs0mg"},{"bike_id":"7c373ab5-a2c4-406b-95e7-e7f85b9d6f2e","system_id":"levelo_inurba_marseille","lat":43.29863,"lon":5.39745,"is_reserved":false,"is_disabled":false,"rental_uris":{"android":"levelo://app?vid=7c373ab5-a2c4-406b-95e7-e7f85b9d6f2e","ios":"levelo://app?vid=7c373ab5-a2c4-406b-95e7-e7f85b9d6f2e"},"vehicle_type_id":"4","last_reported":1751721640,"current_range_meters":21600,"station_id":"ce4bh0h2rcd13ifvqd50","pricing_plan_id":"cebpf4jnsgd1na2vs0mg"},{"bike_id":"04fbafdc-6691-40d9-b882-84d6df6fc62a","system_id":"levelo_inurba_marseille","lat":43.28415,"lon":5.34991,"is_reserved":false,"is_disabled":false,"rental_uris":{"android":"levelo://app?vid=04fbafdc-6691-40d9-b882-84d6df6fc62a","ios":"levelo://app?vid=04fbafdc-6691-40d9-b882-84d6df6fc62a"},"vehicle_type_id":"4","last_reported":1751721640,"current_range_meters":21600,"station_id":"ce4bhbh2rcd13ifvqepg","pricing_plan_id":"cebpf4jnsgd1na2vs0mg"},{"bike_id":"92d0ddd3-3451-40b8-8531-399cc1a2a2c1","system_id":"levelo_inurba_marseille","lat":43.24806,"lon":5.3746,"is_reserved":false,"is_disabled":false,"rental_uris":{"android":"levelo://app?vid=92d0ddd3-3451-40b8-8531-399cc1a2a2c1","ios":"levelo://app?vid=92d0ddd3-3451-40b8-8531-399cc1a2a2c1"},"vehicle_type_id":"4","last_reported":1751721640,"current_range_meters":21600,"station_id":"ce4bhgh2rcd13ifvqfb0","pricing_plan_id":"cebpf4jnsgd1na2vs0mg"},{"bike_id":"e113175a-26c2-4709-bd2e-8b90ec8dd3ee","system_id":"levelo_inurba_marseille","lat":43.27481,"lon":5.42467,"is_reserved":false,"is_disabled":false,"rental_uris":{"android":"levelo://app?vid=e113175a-26c2-4709-bd2e-8b90ec8dd3ee","ios":"levelo://app?vid=e113175a-26c2-4709-bd2e-8b90ec8dd3ee"},"vehicle_type_id":"4","last_reported":1751721640,"current_range_meters":21600,"station_id":"ce4bhn92rcd13ifvqgrg","pricing_plan_id":"cebpf4jnsgd1na2vs0mg"},{"bike_id":"73ce24bd-b188-4f3c-9966-0683597c7db1","system_id":"levelo_inurba_marseille","lat":43.27947,"lon":5.41043,"is_reserved":false,"is_disabled":false,"rental_uris":{"android":"levelo://app?vid=73ce24bd-b188-4f3c-9966-0683597c7db1","ios":"levelo://app?vid=73ce24bd-b188-4f3c-9966-0683597c7db1"},"vehicle_type_id":"4","last_reported":1751721640,"current_range_meters":21600,"station_id":"ce4bhnp2rcd13ifvqh0g","pricing_plan_id":"cebpf4jnsgd1na2vs0mg"},{"bike_id":"d0e04904-9db2-4424-bdc3-c864c216422c","system_id":"levelo_inurba_marseille","lat":43.23169,"lon":5.35597,"is_reserved":false,"is_disabled":false,"rental_uris":{"android":"levelo://app?vid=d0e04904-9db2-4424-bdc3-c864c216422c","ios":"levelo://app?vid=d0e04904-9db2-4424-bdc3-c864c216422c"},"vehicle_type_id":"4","last_reported":1751721640,"current_range_meters":21600,"station_id":"ce4bhu92rcd13ifvqi70","pricing_plan_id":"cebpf4jnsgd1na2vs0mg"},{"bike_id":"e8d7fcf5-14a0-430b-a247-ddceafd06b95","system_id":"levelo_inurba_marseille","lat":43.22484,"lon":5.34794,"is_reserved":false,"is_disabled":false,"rental_uris":{"android":"levelo://app?vid=e8d7fcf5-14a0-430b-a247-ddceafd06b95","ios":"levelo://app?vid=e8d7fcf5-14a0-430b-a247-ddceafd06b95"},"vehicle_type_id":"4","last_reported":1751721640,"current_range_meters":21600,"station_id":"st_cvj5dfep6f1abm77gieg","pricing_plan_id":"cebpf4jnsgd1na2vs0mg"},{"bike_id":"d0f90c24-dd03-411b-9731-55305f76b7c8","system_id":"levelo_inurba_marseille","lat":43.21187,"lon":5.35088,"is_reserved":false,"is_disabled":false,"rental_uris":{"android":"levelo://app?vid=d0f90c24-dd03-411b-9731-55305f76b7c8","ios":"levelo://app?vid=d0f90c24-dd03-411b-9731-55305f76b7c8"},"vehicle_type_id":"4","last_reported":1751721640,"current_range_meters":21600,"station_id":"st_cvj6sg6p6f1abm77japg","pricing_plan_id":"cebpf4jnsgd1na2vs0mg"},{"bike_id":"ccf7a193-bfcb-4cdd-8129-01166f6a08b8","system_id":"levelo_inurba_marseille","lat":43.244,"lon":5.37039,"is_reserved":false,"is_disabled":false,"rental_uris":{"android":"levelo://app?vid=ccf7a193-bfcb-4cdd-8129-01166f6a08b8","ios":"levelo://app?vid=ccf7a193-bfcb-4cdd-8129-01166f6a08b8"},"vehicle_type_id":"4","last_reported":1751721640,"current_range_meters":22000,"station_id":"ce4bhhh2rcd13ifvqfk0","pricing_plan_id":"cebpf4jnsgd1na2vs0mg"},{"bike_id":"e1228ce6-f82e-4293-9e77-993aa73723e1","system_id":"levelo_inurba_marseille","lat":43.26226,"lon":5.4045,"is_reserved":false,"is_disabled":false,"rental_uris":{"android":"levelo://app?vid=e1228ce6-f82e-4293-9e77-993aa73723e1","ios":"levelo://app?vid=e1228ce6-f82e-4293-9e77-993aa73723e1"},"vehicle_type_id":"4","last_reported":1751721640,"current_range_meters":22000,"station_id":"ce4bhmh2rcd13ifvqgmg","pricing_plan_id":"cebpf4jnsgd1na2vs0mg"},{"bike_id":"4d049d54-a43c-4e38-b4de-cff152aadef2","system_id":"levelo_inurba_marseille","lat":43.28167,"lon":5.42646,"is_reserved":false,"is_disabled":false,"rental_uris":{"android":"levelo://app?vid=4d049d54-a43c-4e38-b4de-cff152aadef2","ios":"levelo://app?vid=4d049d54-a43c-4e38-b4de-cff152aadef2"},"vehicle_type_id":"4","last_reported":1751721640,"current_range_meters":22000,"station_id":"ce4bhnh2rcd13ifvqgug","pricing_plan_id":"cebpf4jnsgd1na2vs0mg"},{"bike_id":"cf3da7b7-f5f4-45ba-ba51-b18f6cee555c","system_id":"levelo_inurba_marseille","lat":43.27951,"lon":5.4105,"is_reserved":false,"is_disabled":false,"rental_uris":{"android":"levelo://app?vid=cf3da7b7-f5f4-45ba-ba51-b18f6cee555c","ios":"levelo://app?vid=cf3da7b7-f5f4-45ba-ba51-b18f6cee555c"},"vehicle_type_id":"4","last_reported":1751721640,"current_range_meters":22000,"station_id":"ce4bhnp2rcd13ifvqh0g","pricing_plan_id":"cebpf4jnsgd1na2vs0mg"},{"bike_id":"52d9af78-8144-4ae8-974b-ed97188f3e5a","system_id":"levelo_inurba_marseille","lat":43.30151,"lon":5.38085,"is_reserved":false,"is_disabled":false,"rental_uris":{"android":"levelo://app?vid=52d9af78-8144-4ae8-974b-ed97188f3e5a","ios":"levelo://app?vid=52d9af78-8144-4ae8-974b-ed97188f3e5a"},"vehicle_type_id":"4","last_reported":1751721640,"current_range_meters":22400,"station_id":"ce4bgjp2rcd13ifvqbh0","pricing_plan_id":"cebpf4jnsgd1na2vs0mg"},{"bike_id":"020da98a-3b8e-4809-bef5-471d4a4d0f4f","system_id":"levelo_inurba_marseille","lat":43.30321,"lon":5.40439,"is_reserved":false,"is_disabled":false,"rental_uris":{"android":"levelo://app?vid=020da98a-3b8e-4809-bef5-471d4a4d0f4f","ios":"levelo://app?vid=020da98a-3b8e-4809-bef5-471d4a4d0f4f"},"vehicle_type_id":"4","last_reported":1751721640,"current_range_meters":22400,"station_id":"ce4bh012rcd13ifvqd10","pricing_plan_id":"cebpf4jnsgd1na2vs0mg"},{"bike_id":"dbba4d2c-152f-4649-9749-7bc09b5bdec2","system_id":"levelo_inurba_marseille","lat":43.28413,"lon":5.34998,"is_reserved":false,"is_disabled":false,"rental_uris":{"android":"levelo://app?vid=dbba4d2c-152f-4649-9749-7bc09b5bdec2","ios":"levelo://app?vid=dbba4d2c-152f-4649-9749-7bc09b5bdec2"},"vehicle_type_id":"4","last_reported":1751721640,"current_range_meters":22400,"station_id":"ce4bhbh2rcd13ifvqepg","pricing_plan_id":"cebpf4jnsgd1na2vs0mg"},