{"last_updated":1746320290,"ttl":60,"version":"2.2","data":{"bikes":[{"bike_id":"6a72580c-c76c-4721-b41b-47051e92ac98","system_id":"levelo_inurba_marseille","lat":43.299828,"lon":5.371805,"is_reserved":false,"is_disabled":true,"rental_uris":{"android":"levelo://app?vid=6a72580c-c76c-4721-b41b-47051e92ac98","ios":"levelo://app?vid=6a72580c-c76c-4721-b41b-47051e92ac98"},"vehicle_type_id":"4","last_reported":1746320291,"current_range_meters":2800,"station_id":"ce4bgr92rcd13ifvqc7g","pricing_plan_id":"cebpf4jnsgd1na2vs0mg"},{"bike_id":"0756ab8f-187d-41a9-b7b7-47639abc55f7","system_id":"levelo_inurba_marseille","lat":43.310673,"lon":5.383503,"is_reserved":false,"is_disabled":false,"rental_uris":{"android":"levelo://app?vid=0756ab8f-187d-41a9-b7b7-47639abc55f7","ios":"levelo://app?vid=0756ab8f-187d-41a9-b7b7-47639abc55f7"},"vehicle_type_id":"4","last_reported":1746320291,"current_range_meters":2800,"station_id":"ce4bgv92rcd13ifvqcr0","pricing_plan_id":"cebpf4jnsgd1na2vs0mg"},{"bike_id":"23640087-c02d-4e3f-895a-1e42eeb7c5f0","system_id":"levelo_inurba_marseille","lat":43.28674,"lon":5.38666,"is_reserved":false,"is_disabled":false,"rental_uris":{"android":"levelo://app?vid=23640087-c02d-4e3f-895a-1e42eeb7c5f0","ios":"levelo://app?vid=23640087-c02d-4e3f-895a-1e42eeb7c5f0"},"vehicle_type_id":"4","last_reported":1746320291,"current_range_meters":3200,"station_id":"ce4bh492rcd13ifvqdug","pricing_plan_id":"cebpf4jnsgd1na2vs0mg"},{"bike_id":"20128e84-93ae-4d65-b261-8c473a3a46a7","system_id":"levelo_inurba_marseille","lat":43.31531,"lon":5.3804,"is_reserved":false,"is_disabled":false,"rental_uris":{"android":"levelo://app?vid=20128e84-93ae-4d65-b261-8c473a3a46a7","ios":"levelo://app?vid=20128e84-93ae-4d65-b261-8c473a3a46a7"},"vehicle_type_id":"4","last_reported":1746320291,"current_range_meters":3200,"station_id":"ce4bhsp2rcd13ifvqi50","pricing_plan_id":"cebpf4jnsgd1na2vs0mg"},{"bike_id":"de9023e0-bc56-440f-8982-160d0dfbaf52","system_id":"levelo_inurba_marseille","lat":43.3024,"lon":5.4005,"is_reserved":false,"is_disabled":false,"rental_uris":{"android":"levelo://app?vid=de9023e0-bc56-440f-8982-160d0dfbaf52","ios":"levelo://app?vid=de9023e0-bc56-440f-8982-160d0dfbaf52"},"vehicle_type_id":"4","last_reported":1746320291,"current_range_meters":3600,"station_id":"ce4bgvh2rcd13ifvqcs0","pricing_plan_id":"cebpf4jnsgd1na2vs0mg"},{"bike_id":"23119e4f-0e29-493e-a873-544057f83776","system_id":"levelo_inurba_marseille","lat":43.268085,"lon":5.402609,"is_reserved":false,"is_disabled":true,"rental_uris":{"android":"levelo://app?vid=23119e4f-0e29-493e-a873-544057f83776","ios":"levelo://app?vid=23119e4f-0e29-493e-a873-544057f83776"},"vehicle_type_id":"4","last_reported":1746320291,"current_range_meters":3600,"station_id":"ce501612rcd8frsf0b60","pricing_plan_id":"cebpf4jnsgd1na2vs0mg"},{"bike_id":"f8ed3da3-257f-43f9-aeb2-c30049fb8137","system_id":"levelo_inurba_marseille","lat":43.233317,"lon":5.361462,"is_reserved":false,"is_disabled":false,"rental_uris":{"android":"levelo://app?vid=f8ed3da3-257f-43f9-aeb2-c30049fb8137","ios":"levelo://app?vid=f8ed3da3-257f-43f9-aeb2-c30049fb8137"},"vehicle_type_id":"4","last_reported":1746320291,"current_range_meters":3600,"station_id":"","pricing_plan_id":"cebpf4jnsgd1na2vs0mg"},{"bike_id":"9687b41f-2a91-4699-b4de-1c31313f1e77","system_id":"levelo_inurba_marseille","lat":43.24663,"lon":5.38164,"is_reserved":false,"is_disabled":false,"rental_uris":{"android":"levelo://app?vid=9687b41f-2a91-4699-b4de-1c31313f1e77","ios":"levelo://app?vid=9687b41f-2a91-4699-b4de-1c31313f1e77"},"vehicle_type_id":"4","last_reported":1746320291,"current_range_meters":3600,"station_id":"ce4bhih2rcd13ifvqfr0","pricing_plan_id":"cebpf4jnsgd1na2vs0mg"},{"bike_id":"bf418e83-e81c-41d6-8593-60d316e13025","system_id":"levelo_inurba_marseille","lat":43.23138,"lon":5.43713,"is_reserved":false,"is_disabled":false,"rental_uris":{"android":"levelo://app?vid=bf418e83-e81c-41d6-8593-60d316e13025","ios":"levelo://app?vid=bf418e83-e81c-41d6-8593-60d316e13025"},"vehicle_type_id":"4","last_reported":1746320291,"current_range_meters":3600,"station_id":"ce4bhmp2rcd13ifvqgog","pricing_plan_id":"cebpf4jnsgd1na2vs0mg"},{"bike_id":"78647f6c-5b39-4fc3-8ddc-922db495866f","system_id":"levelo_inurba_marseille","lat":43.278147,"lon":5.407172,"is_reserved":false,"is_disabled":true,"rental_uris":{"android":"levelo://app?vid=78647f6c-5b39-4fc3-8ddc-922db495866f","ios":"levelo://app?vid=78647f6c-5b39-4fc3-8ddc-922db495866f"},"vehicle_type_id":"4","last_reported":1746320291,"current_range_meters":4000,"station_id":"ce4bhnh2rcd13ifvqgtg","pricing_plan_id":"cebpf4jnsgd1na2vs0mg"},{"bike_id":"beb2536f-b95c-42a3-954e-a55ebb0abeec","system_id":"levelo_inurba_marseille","lat":43.3095,"lon":5.38228,"is_reserved":false,"is_disabled":false,"rental_uris":{"android":"levelo://app?vid=beb2536f-b95c-42a3-954e-a55ebb0abeec","ios":"levelo://app?vid=beb2536f-b95c-42a3-954e-a55ebb0abeec"},"vehicle_type_id":"4","last_reported":1746320291,"current_range_meters":4000,"station_id":"","pricing_plan_id":"cebpf4jnsgd1na2vs0mg"},{"bike_id":"cd0a11c1-4fe1-4781-ac80-00d76e54026c","system_id":"levelo_inurba_marseille","lat":43.33792,"lon":5.42126,"is_reserved":false,"is_disabled":false,"rental_uris":{"android":"levelo://app?vid=cd0a11c1-4fe1-4781-ac80-00d76e54026c","ios":"levelo://app?vid=cd0a11c1-4fe1-4781-ac80-00d76e54026c"},"vehicle_type_id":"4","last_reported":1746320291,"current_range_meters":4000,"station_id":"","pricing_plan_id":"cebpf4jnsgd1na2vs0mg"},{"bike_id":"58cf56cc-90d2-488e-b991-be539aff6c8c","system_id":"levelo_inurba_marseille","lat":43.27615,"lon":5.36104,"is_reserved":false,"is_disabled":false,"rental_uris":{"android":"levelo://app?vid=58cf56cc-90d2-488e-b991-be539aff6c8c","ios":"levelo://app?vid=58cf56cc-90d2-488e-b991-be539aff6c8c"},"vehicle_type_id":"4","last_reported":1746320291,"current_range_meters":4000,"station_id":"ce4bgj92rcd13ifvqbe0","pricing_plan_id":"cebpf4jnsgd1na2vs0mg"},{"bike_id":"27cd24a4-35fe-4a23-859a-f5aa33c08294","system_id":"levelo_inurba_marseille","lat":43.30598,"lon":5.3722,"is_reserved":false,"is_disabled":false,"rental_uris":{"android":"levelo://app?vid=27cd24a4-35fe-4a23-859a-f5aa33c08294","ios":"levelo://app?vid=27cd24a4-35fe-4a23-859a-f5aa33c08294"},"vehicle_type_id":"4","last_reported":1746320291,"current_range_meters":4400,"station_id":"ce4bgqh2rcd13ifvqc4g","pricing_plan_id":"cebpf4jnsgd1na2vs0mg"},{"bike_id":"243c8c00-64dc-484a-8b2f-6a879c7a973e","system_id":"levelo_inurba_marseille","lat":43.27956,"lon":5.38711,"is_reserved":false,"is_disabled":false,"rental_uris":{"android":"levelo://app?vid=243c8c00-64dc-484a-8b2f-6a879c7a973e","ios":"levelo://app?vid=243c8c00-64dc-484a-8b2f-6a879c7a973e"},"vehicle_type_id":"4","last_reported":1746320291,"current_range_meters":4400,"station_id":"ce4bhg12rcd13ifvqf80","pricing_plan_id":"cebpf4jnsgd1na2vs0mg"},{"bike_id":"a2ad1045-b588-4bc1-a260-66d4d5be8334","system_id":"levelo_inurba_marseille","lat":43.272101,"lon":5.391784,"is_reserved":false,"is_disabled":false,"rental_uris":{"android":"levelo://app?vid=a2ad1045-b588-4bc1-a260-66d4d5be8334","ios":"levelo://app?vid=a2ad1045-b588-4bc1-a260-66d4d5be8334"},"vehicle_type_id":"4","last_reported":1746320291,"current_range_meters":4800,"station_id":"","pricing_plan_id":"cebpf4jnsgd1na2vs0mg"},{"bike_id":"d11b7274-ad1d-4343-a0b8-143798db8be1","system_id":"levelo_inurba_marseille","lat":43.22894,"lon":5.35413,"is_reserved":false,"is_disabled":true,"rental_uris":{"android":"levelo://app?vid=d11b7274-ad1d-4343-a0b8-143798db8be1","ios":"levelo://app?vid=d11b7274-ad1d-4343-a0b8-143798db8be1"},"vehicle_type_id":"4","last_reported":1746320291,"current_range_meters":5600,"station_id":"cpo3532slgdg3j2ikp40","pricing_plan_id":"cebpf4jnsgd1na2vs0mg"},{"bike_id":"c2ed84b5-f328-4415-aaf4-3a14f2be55f4","system_id":"levelo_inurba_marseille","lat":43.25106,"lon":5.40318,"is_reserved":false,"is_disabled":false,"rental_uris":{"android":"levelo://app?vid=c2ed84b5-f328-4415-aaf4-3a14f2be55f4","ios":"levelo://app?vid=c2ed84b5-f328-4415-aaf4-3a14f2be55f4"},"vehicle_type_id":"4","last_reported":1746320291,"current_range_meters":5600,"station_id":"ce4bhlh2rcd13ifvqgig","pricing_plan_id":"cebpf4jnsgd1na2vs0mg"},{"bike_id":"4341dfab-438e-4d1a-8a6a-87a65b8fed8c","system_id":"levelo_inurba_marseille","lat":43.29896,"lon":5.38079,"is_reserved":false,"is_disabled":true,"rental_uris":{"android":"levelo://app?vid=4341dfab-438e-4d1a-8a6a-87a65b8fed8c","ios":"levelo://app?vid=4341dfab-438e-4d1a-8a6a-87a65b8fed8c"},"vehicle_type_id":"4","last_reported":1746320291,"current_range_meters":5600,"station_id":"ce4bgj12rcd13ifvqbc0","pricing_plan_id":"cebpf4jnsgd1na2vs0mg"},{"bike_id":"20a0161f-8c97-41c6-b725-2c48f8bc5d22","system_id":"levelo_inurba_marseille","lat":43.33071,"lon":5.39412,"is_reserved":false,"is_disabled":false,"rental_uris":{"android":"levelo://app?vid=20a0161f-8c97-41c6-b725-2c48f8bc5d22","ios":"levelo://app?vid=20a0161f-8c97-41c6-b725-2c48f8bc5d22"},"vehicle_type_id":"4","last_reported":1746320291,"current_range_meters":5600,"station_id":"","pricing_plan_id":"cebpf4jnsgd1na2vs0mg"},{"bike_id":"02b445bf-8103-43fd-96fb-7970a970f33c","system_id":"levelo_inurba_marseille","lat":43.287047,"lon":5.399864,"is_reserved":false,"is_disabled":false,"rental_uris":{"android":"levelo://app?vid=02b445bf-8103-43fd-96fb-7970a970f33c","ios":"levelo://app?vid=02b445bf-8103-43fd-96fb-7970a970f33c"},"vehicle_type_id":"4","last_reported":1746320291,"current_range_meters":5600,"station_id":"ce4bho92rcd13ifvqh3g","pricing_plan_id":"cebpf4jnsgd1na2vs0mg"},{"bike_id":"daadd8bd-8229-493b-9402-9b2f8bd7e3b2","system_id":"levelo_inurba_marseille","lat":43.28717,"lon":5.37931,"is_reserved":false,"is_disabled":false,"rental_uris":{"android":"levelo://app?vid=daadd8bd-8229-493b-9402-9b2f8bd7e3b2","ios":"levelo://app?vid=daadd8bd-8229-493b-9402-9b2f8bd7e3b2"},"vehicle_type_id":"4","last_reported":1746320291,"current_range_meters":6000,"station_id":"ce4bh9p2rcd13ifvqec0","pricing_plan_id":"cebpf4jnsgd1na2vs0mg"},{"bike_id":"b24e1c00-6f34-4818-ab0a-32914331665c","system_id":"levelo_inurba_marseille","lat":43.30792,"lon":5.37619,"is_reserved":false,"is_disabled":false,"rental_uris":{"android":"levelo://app?vid=b24e1c00-6f34-4818-ab0a-32914331665c","ios":"levelo://app?vid=b24e1c00-6f34-4818-ab0a-32914331665c"},"vehicle_type_id":"4","last_reported":1746320291,"current_range_meters":6000,"station_id":"ce4bgv92rcd13ifvqcq0","pricing_plan_id":"cebpf4jnsgd1na2vs0mg"},{"bike_id":"ea54a43f-bc03-4784-86c5-a6aba0a39cd2","system_id":"levelo_inurba_marseille","lat":43.30777,"lon":5.37645,"is_reserved":false,"is_disabled":false,"rental_uris":{"android":"levelo://app?vid=ea54a43f-bc03-4784-86c5-a6aba0a39cd2","ios":"levelo://app?vid=ea54a43f-bc03-4784-86c5-a6aba0a39cd2"},"vehicle_type_id":"4","last_reported":1746320291,"current_range_meters":6000,"station_id":"ce4bgv92rcd13ifvqcq0","pricing_plan_id":"cebpf4jnsgd1na2vs0mg"},{"bike_id":"64a4017c-869d-4671-8e21-b3d179952f3c","system_id":"levelo_inurba_marseille","lat":43.28417,"lon":5.37514,"is_reserved":false,"is_disabled":false,"rental_uris":{"android":"levelo://app?vid=64a4017c-869d-4671-8e21-b3d179952f3c","ios":"levelo://app?vid=64a4017c-869d-4671-8e21-b3d179952f3c"},"vehicle_type_id":"4","last_reported":1746320291,"current_range_meters":6000,"station_id":"ce4bh412rcd13ifvqds0","pricing_plan_id":"cebpf4jnsgd1na2vs0mg"},{"bike_id":"ee431cbb-877d-4c13-8c16-79999e3facb4","system_id":"levelo_inurba_marseille","lat":43.33125,"lon":5.43124,"is_reserved":false,"is_disabled":false,"rental_uris":{"android":"levelo://app?vid=ee431cbb-877d-4c13-8c16-79999e3facb4","ios":"levelo://app?vid=ee431cbb-877d-4c13-8c16-79999e3facb4"},"vehicle_type_id":"4","last_reported":1746320291,"current_range_meters":6400,"station_id":"","pricing_plan_id":"cebpf4jnsgd1na2vs0mg"},{"bike_id":"343558bc-7f35-44a3-aec0-03f28380f248","system_id":"levelo_inurba_marseille","lat":43.26174,"lon":5.37469,"is_reserved":false,"is_disabled":false,"rental_uris":{"android":"levelo://app?vid=343558bc-7f35-44a3-aec0-03f28380f248","ios":"levelo://app?vid=343558bc-7f35-44a3-aec0-03f28380f248"},"vehicle_type_id":"4","last_reported":1746320291,"current_range_meters":6400,"station_id":"ce4bhgp2rcd13ifvqfc0","pricing_plan_id":"cebpf4jnsgd1na2vs0mg"},{"bike_id":"b2be516e-2f32-4594-b4de-c3e58b68706d","system_id":"levelo_inurba_marseille","lat":43.29257,"lon":5.3686,"is_reserved":false,"is_disabled":true,"rental_uris":{"android":"levelo://app?vid=b2be516e-2f32-4594-b4de-c3e58b68706d","ios":"levelo://app?vid=b2be516e-2f32-4594-b4de-c3e58b68706d"},"vehicle_type_id":"4","last_reported":1746320291,"current_range_meters":6400,"station_id":"ce4bhbp2rcd13ifvqesg","pricing_plan_id":"cebpf4jnsgd1na2vs0mg"},{"bike_id":"909825d5-7ad2-409e-b0de-cec7d5b4fa06","system_id":"levelo_inurba_marseille","lat":43.2421,"lon":5.36748,"is_reserved":false,"is_disabled":false,"rental_uris":{"android":"levelo://app?vid=909825d5-7ad2-409e-b0de-cec7d5b4fa06","ios":"levelo://app?vid=909825d5-7ad2-409e-b0de-cec7d5b4fa06"},"vehicle_type_id":"4","last_reported":1746320291,"current_range_meters":6400,"station_id":"","pricing_plan_id":"cebpf4jnsgd1na2vs0mg"},{"bike_id":"e341752c-8655-4500-bdaa-1fbfa4780079","system_id":"levelo_inurba_marseille","lat":43.29066,"lon":5.37155,"is_reserved":false,"is_disabled":true,"rental_uris":{"android":"levelo://app?vid=e341752c-8655-4500-bdaa-1fbfa4780079","ios":"levelo://app?vid=e341752c-8655-4500-bdaa-1fbfa4780079"},"vehicle_type_id":"4","last_reported":1746320291,"current_range_meters":6800,"station_id":"ce4bh5p2rcd13ifvqe4g","pricing_plan_id":"cebpf4jnsgd1na2vs0mg"},{"bike_id":"b9fac56e-fb84-4730-9d09-c8e94bf61e58","system_id":"levelo_inurba_marseille","lat":43.27183,"lon":5.41019,"is_reserved":false,"is_disabled":false,"rental_uris":{"android":"levelo://app?vid=b9fac56e-fb84-4730-9d09-c8e94bf61e58","ios":"levelo://app?vid=b9fac56e-fb84-4730-9d09-c8e94bf61e58"},"vehicle_type_id":"4","last_reported":1746320291,"current_range_meters":6800,"station_id":"ce4bhl12rcd13ifvqgf0","pricing_plan_id":"cebpf4jnsgd1na2vs0mg"},{"bike_id":"208c1a96-c46f-4193-b924-3bf7033ea14e","system_id":"levelo_inurba_marseille","lat":43.231818,"lon":5.355677,"is_reserved":false,"is_disabled":false,"rental_uris":{"android":"levelo://app?vid=208c1a96-c46f-4193-b924-3bf7033ea14e","ios":"levelo://app?vid=208c1a96-c46f-4193-b924-3bf7033ea14e"},"vehicle_type_id":"4","last_reported":1746320291,"current_range_meters":6800,"station_id":"ce4bhu92rcd13ifvqi70","pricing_plan_id":"cebpf4jnsgd1na2vs0mg"},{"bike_id":"fefd08ec-5881-4aed-9781-2a8173dd5fb9","system_id":"levelo_inurba_marseille","lat":43.29448,"lon":5.38241,"is_reserved":false,"is_disabled":false,"rental_uris":{"android":"levelo://app?vid=fefd08ec-5881-4aed-9781-2a8173dd5fb9","ios":"levelo://app?vid=fefd08ec-5881-4aed-9781-2a8173dd5fb9"},"vehicle_type_id":"4","last_reported":1746320291,"current_range_meters":6800,"station_id":"","pricing_plan_id":"cebpf4jnsgd1na2vs0mg"},{"bike_id":"b380c990-37d9-4dba-987f-b55b97e53fe5","system_id":"levelo_inurba_marseille","lat":43.24386,"lon":5.37061,"is_reserved":false,"is_disabled":false,"rental_uris":{"android":"levelo://app?vid=b380c990-37d9-4dba-987f-b55b97e53fe5","ios":"levelo://app?vid=b380c990-37d9-4dba-987f-b55b97e53fe5"},"vehicle_type_id":"4","last_reported":1746320291,"current_range_meters":6400,"station_id":"ce4bhhh2rcd13ifvqfk0","pricing_plan_id":"cebpf4jnsgd1na2vs0mg"},{"bike_id":"39d83911-e17e-4776-b8f2-6450602c8696","system_id":"levelo_inurba_marseille","lat":43.29883,"lon":5.43629,"is_reserved":false,"is_disabled":false,"rental_uris":{"android":"levelo://app?vid=39d83911-e17e-4776-b8f2-6450602c8696","ios":"levelo://app?vid=39d83911-e17e-4776-b8f2-6450602c8696"},"vehicle_type_id":"4","last_reported":1746320291,"current_range_meters":7200,"station_id":"ce4bhpp2rcd13ifvqhfg","pricing_plan_id":"cebpf4jnsgd1na2vs0mg"},{"bike_id":"75d63c11-ecd2-41f7-90fb-21d77f9e4d4b","system_id":"levelo_inurba_marseille","lat":43.31359,"lon":5.38484,"is_reserved":false,"is_disabled":false,"rental_uris":{"android":"levelo://app?vid=75d63c11-ecd2-41f7-90fb-21d77f9e4d4b","ios":"levelo://app?vid=75d63c11-ecd2-41f7-90fb-21d77f9e4d4b"},"vehicle_type_id":"4","last_reported":1746320291,"current_range_meters":7200,"station_id":"ce4bgt92rcd13ifvqcf0","pricing_plan_id":"cebpf4jnsgd1na2vs0mg"},{"bike_id":"570b486c-50df-4f1f-97df-caa86c0d419e","system_id":"levelo_inurba_marseille","lat":43.33695,"lon":5.35573,"is_reserved":false,"is_disabled":false,"rental_uris":{"android":"levelo://app?vid=570b486c-50df-4f1f-97df-caa86c0d419e","ios":"levelo://app?vid=570b486c-50df-4f1f-97df-caa86c0d419e"},"vehicle_type_id":"4","last_reported":1746320291,"current_range_meters":7200,"station_id":"","pricing_plan_id":"cebpf4jnsgd1na2vs0mg"},{"bike_id":"0f53b038-46c4-4a2d-92c2-8fa07ea9b8da","system_id":"levelo_inurba_marseille","lat":43.30795,"lon":5.37641,"is_reserved":false,"is_disabled":false,"rental_uris":{"android":"levelo://app?vid=0f53b038-46c4-4a2d-92c2-8fa07ea9b8da","ios":"levelo://app?vid=0f53b038-46c4-4a2d-92c2-8fa07ea9b8da"},"vehicle_type_id":"4","last_reported":1746320291,"current_range_meters":7200,"station_id":"ce4bgv92rcd13ifvqcq0","pricing_plan_id":"cebpf4jnsgd1na2vs0mg"},{"bike_id":"c7e47698-0020-47cf-94a4-404079760935","system_id":"levelo_inurba_marseille","lat":43.28416,"lon":5.37502,"is_reserved":false,"is_disabled":true,"rental_uris":{"android":"levelo://app?vid=c7e47698-0020-47cf-94a4-404079760935","ios":"levelo://app?vid=c7e47698-0020-47cf-94a4-404079760935"},"vehicle_type_id":"4","last_reported":1746320291,"current_range_meters":8000,"station_id":"ce4bh412rcd13ifvqds0","pricing_plan_id":"cebpf4jnsgd1na2vs0mg"},{"bike_id":"db9be0c1-80d5-4315-9367-2a96fca91123","system_id":"levelo_inurba_marseille","lat":43.306429,"lon":5.400676,"is_reserved":false,"is_disabled":false,"rental_uris":{"android":"levelo://app?vid=db9be0c1-80d5-4315-9367-2a96fca91123","ios":"levelo://app?vid=db9be0c1-80d5-4315-9367-2a96fca91123"},"vehicle_type_id":"4","last_reported":1746320291,"current_range_meters":8000,"station_id":"ce4bh112rcd13ifvqda0","pricing_plan_id":"cebpf4jnsgd1na2vs0mg"},{"bike_id":"d06cbf0c-a30d-4bb1-91c3-661c22c8ec38","system_id":"levelo_inurba_marseille","lat":43.248019,"lon":5.374436,"is_reserved":false,"is_disabled":false,"rental_uris":{"android":"levelo://app?vid=d06cbf0c-a30d-4bb1-91c3-661c22c8ec38","ios":"levelo://app?vid=d06cbf0c-a30d-4bb1-91c3-661c22c8ec38"},"vehicle_type_id":"4","last_reported":1746320291,"current_range_meters":8000,"station_id":"ce4bhgh2rcd13ifvqfb0","pricing_plan_id":"cebpf4jnsgd1na2vs0mg"},{"bike_id":"125ca05d-5a4c-4327-ae64-e200198cedf3","system_id":"levelo_inurba_marseille","lat":43.29561,"lon":5.42284,"is_reserved":false,"is_disabled":false,"rental_uris":{"android":"levelo://app?vid=125ca05d-5a4c-4327-ae64-e200198cedf3","ios":"levelo://app?vid=125ca05d-5a4c-4327-ae64-e200198cedf3"},"vehicle_type_id":"4","last_reported":1746320291,"current_range_meters":8000,"station_id":"ce4bhph2rcd13ifvqhdg","pricing_plan_id":"cebpf4jnsgd1na2vs0mg"},{"bike_id":"e27ce41e-d31e-4411-a762-387f29d91877","system_id":"levelo_inurba_marseille","lat":43.295634,"lon":5.422842,"is_reserved":false,"is_disabled":false,"rental_uris":{"android":"levelo://app?vid=e27ce41e-d31e-4411-a762-387f29d91877","ios":"levelo://app?vid=e27ce41e-d31e-4411-a762-387f29d91877"},"vehicle_type_id":"4","last_reported":1746320291,"current_range_meters":8000,"station_id":"ce4bhph2rcd13ifvqhdg","pricing_plan_id":"cebpf4jnsgd1na2vs0mg"},{"bike_id":"6012e73f-a97d-4080-8451-31be47c04cb3","system_id":"levelo_inurba_marseille","lat":43.241807,"lon":5.397238,"is_reserved":false,"is_disabled":false,"rental_uris":{"android":"levelo://app?vid=6012e73f-a97d-4080-8451-31be47c04cb3","ios":"levelo://app?vid=6012e73f-a97d-4080-8451-31be47c04cb3"},"vehicle_type_id":"4","last_reported":1746320291,"current_range_meters":8000,"station_id":"ce4bhn12rcd13ifvqgpg","pricing_plan_id":"cebpf4jnsgd1na2vs0mg"},{"bike_id":"7d6d18ee-0ef8-4e14-ae57-24b20e7f5fed","system_id":"levelo_inurba_marseille","lat":43.319972,"lon":5.381482,"is_reserved":false,"is_disabled":false,"rental_uris":{"android":"levelo://app?vid=7d6d18ee-0ef8-4e14-ae57-24b20e7f5fed","ios":"levelo://app?vid=7d6d18ee-0ef8-4e14-ae57-24b20e7f5fed"},"vehicle_type_id":"4","last_reported":1746320291,"current_range_meters":8000,"station_id":"ce4bhr12rcd13ifvqhpg","pricing_plan_id":"cebpf4jnsgd1na2vs0mg"},{"bike_id":"dfb3396e-96f5-457c-af11-f6f27dad33e9","system_id":"levelo_inurba_marseille","lat":43.272022,"lon":5.364796,"is_reserved":false,"is_disabled":false,"rental_uris":{"android":"levelo://app?vid=dfb3396e-96f5-457c-af11-f6f27dad33e9","ios":"levelo://app?vid=dfb3396e-96f5-457c-af11-f6f27dad33e9"},"vehicle_type_id":"4","last_reported":1746320291,"current_range_meters":8800,"station_id":"","pricing_plan_id":"cebpf4jnsgd1na2vs0mg"},{"bike_id":"0ca2aeff-c10c-4be3-8c0b-3162193c983e","system_id":"levelo_inurba_marseille","lat":43.30783,"lon":5.37678,"is_reserved":false,"is_disabled":true,"rental_uris":{"android":"levelo://app?vid=0ca2aeff-c10c-4be3-8c0b-3162193c983e","ios":"levelo://app?vid=0ca2aeff-c10c-4be3-8c0b-3162193c983e"},"vehicle_type_id":"4","last_reported":1746320291,"current_range_meters":8400,"station_id":"","pricing_plan_id":"cebpf4jnsgd1na2vs0mg"},{"bike_id":"721f19a3-6fc8-4aa3-b8d6-b74174066f05","system_id":"levelo_inurba_marseille","lat":43.32004,"lon":5.38154,"is_reserved":false,"is_disabled":false,"rental_uris":{"android":"levelo://app?vid=721f19a3-6fc8-4aa3-b8d6-b74174066f05","ios":"levelo://app?vid=721f19a3-6fc8-4aa3-b8d6-b74174066f05"},"vehicle_type_id":"4","last_reported":1746320291,"current_range_meters":8400,"station_id":"ce4bhr12rcd13ifvqhpg","pricing_plan_id":"cebpf4jnsgd1na2vs0mg"},{"bike_id":"38a0dbcd-2be8-44bc-838b-f55006af8ebd","system_id":"levelo_inurba_marseille","lat":43.24757,"lon":5.37455,"is_reserved":false,"is_disabled":false,"rental_uris":{"android":"levelo://app?vid=38a0dbcd-2be8-44bc-838b-f55006af8ebd","ios":"levelo://app?vid=38a0dbcd-2be8-44bc-838b-f55006af8ebd"},"vehicle_type_id":"4","last_reported":1746320291,"current_range_meters":8400,"station_id":"ce4bhgh2rcd13ifvqfb0","pricing_plan_id":"cebpf4jnsgd1na2vs0mg"},{"bike_id":"3a6c1c4a-dd80-4e9d-9632-aaca59f6d0aa","system_id":"levelo_inurba_marseille","lat":43.32365,"lon":5.38885,"is_reserved":false,"is_disabled":false,"rental_uris":{"android":"levelo://app?vid=3a6c1c4a-dd80-4e9d-9632-aaca59f6d0aa","ios":"levelo://app?vid=3a6c1c4a-dd80-4e9d-9632-aaca59f6d0aa"},"vehicle_type_id":"4","last_reported":1746320291,"current_range_meters":8400,"station_id":"ce4bhqp2rcd13ifvqhog","pricing_plan_id":"cebpf4jnsgd1na2vs0mg"},{"bike_id":"e286e7f9-fe9f-4d22-bc35-cfe970bf549a","system_id":"levelo_inurba_marseille","lat":43.28466,"lon":5.35897,"is_reserved":false,"is_disabled":false,"rental_uris":{"android":"levelo://app?vid=e286e7f9-fe9f-4d22-bc35-cfe970bf549a","ios":"levelo://app?vid=e286e7f9-fe9f-4d22-bc35-cfe970bf549a"},"vehicle_type_id":"4","last_reported":1746320291,"current_range_meters":10800,"station_id":"ce4bhah2rcd13ifvqei0","pricing_plan_id":"cebpf4jnsgd1na2vs0mg"},{"bike_id":"38c8c81f-8e29-462a-b2ff-0f64bc8e1c2d","system_id":"levelo_inurba_marseille","lat":43.27962,"lon":5.38684,"is_reserved":false,"is_disabled":false,"rental_uris":{"android":"levelo://app?vid=38c8c81f-8e29-462a-b2ff-0f64bc8e1c2d","ios":"levelo://app?vid=38c8c81f-8e29-462a-b2ff-0f64bc8e1c2d"},"vehicle_type_id":"4","last_reported":1746320291,"current_range_meters":8400,"station_id":"ce4bhg12rcd13ifvqf80","pricing_plan_id":"cebpf4jnsgd1na2vs0mg"},{"bike_id":"1535a100-a5e3-470b-8112-05a549965b00","system_id":"levelo_inurba_marseille","lat":43.31358,"lon":5.397,"is_reserved":false,"is_disabled":false,"rental_uris":{"android":"levelo://app?vid=1535a100-a5e3-470b-8112-05a549965b00","ios":"levelo://app?vid=1535a100-a5e3-470b-8112-05a549965b00"},"vehicle_type_id":"4","last_reported":1746320291,"current_range_meters":8400,"station_id":"ce4bgvp2rcd13ifvqcu0","pricing_plan_id":"cebpf4jnsgd1na2vs0mg"},{"bike_id":"3a3dd373-2a02-4690-99eb-8bd69c9454d1","system_id":"levelo_inurba_marseille","lat":43.286653,"lon":5.363483,"is_reserved":false,"is_disabled":false,"rental_uris":{"android":"levelo://app?vid=3a3dd373-2a02-4690-99eb-8bd69c9454d1","ios":"levelo://app?vid=3a3dd373-2a02-4690-99eb-8bd69c9454d1"},"vehicle_type_id":"4","last_reported":1746320291,"current_range_meters":8400,"station_id":"ce4bhah2rcd13ifvqej0","pricing_plan_id":"cebpf4jnsgd1na2vs0mg"},{"bike_id":"d51bd1f8-5797-40a8-8b2d-1b322c3a66a4","system_id":"levelo_inurba_marseille","lat":43.30926,"lon":5.40145,"is_reserved":false,"is_disabled":false,"rental_uris":{"android":"levelo://app?vid=d51bd1f8-5797-40a8-8b2d-1b322c3a66a4","ios":"levelo://app?vid=d51bd1f8-5797-40a8-8b2d-1b322c3a66a4"},"vehicle_type_id":"4","last_reported":1746320291,"current_range_meters":8800,"station_id":"ce4bgvp2rcd13ifvqct0","pricing_plan_id":"cebpf4jnsgd1na2vs0mg"},{"bike_id":"efed8418-36b3-4a2f-8a3a-c844b0d0e3ad","system_id":"levelo_inurba_marseille","lat":43.31527,"lon":5.38011,"is_reserved":false,"is_disabled":false,"rental_uris":{"android":"levelo://app?vid=efed8418-36b3-4a2f-8a3a-c844b0d0e3ad","ios":"levelo://app?vid=efed8418-36b3-4a2f-8a3a-c844b0d0e3ad"},"vehicle_type_id":"4","last_reported":1746320291,"current_range_meters":8800,"station_id":"ce4bhsp2rcd13ifvqi50","pricing_plan_id":"cebpf4jnsgd1na2vs0mg"},{"bike_id":"f1ffd2b9-91e9-4bf5-a319-6e95940b0de6","system_id":"levelo_inurba_marseille","lat":43.29562,"lon":5.42275,"is_reserved":false,"is_disabled":false,"rental_uris":{"android":"levelo://app?vid=f1ffd2b9-91e9-4bf5-a319-6e95940b0de6","ios":"levelo://app?vid=f1ffd2b9-91e9-4bf5-a319-6e95940b0de6"},"vehicle_type_id":"4","last_reported":1746320291,"current_range_meters":8800,"station_id":"ce4bhph2rcd13ifvqhdg","pricing_plan_id":"cebpf4jnsgd1na2vs0mg"},{"bike_id":"8df6e310-0880-40a9-a691-cd475dfa3928","system_id":"levelo_inurba_marseille","lat":43.285871,"lon":5.442478,"is_reserved":false,"is_disabled":false,"rental_uris":{"android":"levelo://app?vid=8df6e310-0880-40a9-a691-cd475dfa3928","ios":"levelo://app?vid=8df6e310-0880-40a9-a691-cd475dfa3928"},"vehicle_type_id":"4","last_reported":1746320291,"current_range_meters":8800,"station_id":"","pricing_plan_id":"cebpf4jnsgd1na2vs0mg"},{"bike_id":"42b265ee-2f6e-42e6-be1a-7cd522f1be6f","system_id":"levelo_inurba_marseille","lat":43.278225,"lon":5.407176,"is_reserved":false,"is_disabled":false,"rental_uris":{"android":"levelo://app?vid=42b265ee-2f6e-42e6-be1a-7cd522f1be6f","ios":"levelo://app?vid=42b265ee-2f6e-42e6-be1a-7cd522f1be6f"},"vehicle_type_id":"4","last_reported":1746320291,"current_range_meters":9200,"station_id":"ce4bhnh2rcd13ifvqgtg","pricing_plan_id":"cebpf4jnsgd1na2vs0mg"},{"bike_id":"be9042c4-716a-416e-af52-c92d47776467","system_id":"levelo_inurba_marseille","lat":43.30923,"lon":5.401503,"is_reserved":false,"is_disabled":true,"rental_uris":{"android":"levelo://app?vid=be9042c4-716a-416e-af52-c92d47776467","ios":"levelo://app?vid=be9042c4-716a-416e-af52-c92d47776467"},"vehicle_type_id":"4","last_reported":1746320291,"current_range_meters":9200,"station_id":"ce4bgvp2rcd13ifvqct0","pricing_plan_id":"cebpf4jnsgd1na2vs0mg"},{"bike_id":"4466a348-ba1c-46d7-981b-a5e5602811c3","system_id":"levelo_inurba_marseille","lat":43.30932,"lon":5.40144,"is_reserved":false,"is_disabled":false,"rental_uris":{"android":"levelo://app?vid=4466a348-ba1c-46d7-981b-a5e5602811c3","ios":"levelo://app?vid=4466a348-ba1c-46d7-981b-a5e5602811c3"},"vehicle_type_id":"4","last_reported":1746320291,"current_range_meters":9200,"station_id":"ce4bgvp2rcd13ifvqct0","pricing_plan_id":"cebpf4jnsgd1na2vs0mg"},{"bike_id":"7417fde9-2253-44a3-b6b5-68219b7cd072","system_id":"levelo_inurba_marseille","lat":43.31686,"lon":5.40473,"is_reserved":false,"is_disabled":false,"rental_uris":{"android":"levelo://app?vid=7417fde9-2253-44a3-b6b5-68219b7cd072","ios":"levelo://app?vid=7417fde9-2253-44a3-b6b5-68219b7cd072"},"vehicle_type_id":"4","last_reported":1746320291,"current_range_meters":9200,"station_id":"","pricing_plan_id":"cebpf4jnsgd1na2vs0mg"},{"bike_id":"d1b80fc2-f795-44b4-b467-b83495b681df","system_id":"levelo_inurba_marseille","lat":43.30417,"lon":5.41292,"is_reserved":false,"is_disabled":false,"rental_uris":{"android":"levelo://app?vid=d1b80fc2-f795-44b4-b467-b83495b681df","ios":"levelo://app?vid=d1b80fc2-f795-44b4-b467-b83495b681df"},"vehicle_type_id":"4","last_reported":1746320291,"current_range_meters":9200,"station_id":"ce4bhop2rcd13ifvqh8g","pricing_plan_id":"cebpf4jnsgd1na2vs0mg"},{"bike_id":"eca0c70f-2168-48b0-96be-1e019bae5ee4","system_id":"levelo_inurba_marseille","lat":43.30924,"lon":5.40147,"is_reserved":false,"is_disabled":false,"rental_uris":{"android":"levelo://app?vid=eca0c70f-2168-48b0-96be-1e019bae5ee4","ios":"levelo://app?vid=eca0c70f-2168-48b0-96be-1e019bae5ee4"},"vehicle_type_id":"4","last_reported":1746320291,"current_range_meters":9200,"station_id":"ce4bgvp2rcd13ifvqct0","pricing_plan_id":"cebpf4jnsgd1na2vs0mg"},{"bike_id":"5453d414-cef1-4589-be92-1374fcb92d09","system_id":"levelo_inurba_marseille","lat":43.31367,"lon":5.38498,"is_reserved":false,"is_disabled":false,"rental_uris":{"android":"levelo://app?vid=5453d414-cef1-4589-be92-1374fcb92d09","ios":"levelo://app?vid=5453d414-cef1-4589-be92-1374fcb92d09"},"vehicle_type_id":"4","last_reported":1746320291,"current_range_meters":9200,"station_id":"ce4bgt92rcd13ifvqcf0","pricing_plan_id":"cebpf4jnsgd1na2vs0mg"},{"bike_id":"0e34a68a-1e7e-4217-99de-5fd03012d1b6","system_id":"levelo_inurba_marseille","lat":43.23956,"lon":5.36626,"is_reserved":false,"is_disabled":false,"rental_uris":{"android":"levelo://app?vid=0e34a68a-1e7e-4217-99de-5fd03012d1b6","ios":"levelo://app?vid=0e34a68a-1e7e-4217-99de-5fd03012d1b6"},"vehicle_type_id":"4","last_reported":1746320291,"current_range_meters":9200,"station_id":"ce4bhi12rcd13ifvqfp0","pricing_plan_id":"cebpf4jnsgd1na2vs0mg"},{"bike_id":"17cd42e0-f3d6-4b5d-a7a7-aae4daea5f81","system_id":"levelo_inurba_marseille","lat":43.2117,"lon":5.3508,"is_reserved":false,"is_disabled":false,"rental_uris":{"android":"levelo://app?vid=17cd42e0-f3d6-4b5d-a7a7-aae4daea5f81","ios":"levelo://app?vid=17cd42e0-f3d6-4b5d-a7a7-aae4daea5f81"},"vehicle_type_id":"4","last_reported":1746320291,"current_range_meters":9200,"station_id":"","pricing_plan_id":"cebpf4jnsgd1na2vs0mg"},{"bike_id":"3b7db989-c051-48b8-88d8-b4d0b04c0d40","system_id":"levelo_inurba_marseille","lat":43.24653,"lon":5.38894,"is_reserved":false,"is_disabled":false,"rental_uris":{"android":"levelo://app?vid=3b7db989-c051-48b8-88d8-b4d0b04c0d40","ios":"levelo://app?vid=3b7db989-c051-48b8-88d8-b4d0b04c0d40"},"vehicle_type_id":"4","last_reported":1746320291,"current_range_meters":9600,"station_id":"ce4bhg12rcd13ifvqf60","pricing_plan_id":"cebpf4jnsgd1na2vs0mg"},{"bike_id":"f0259f55-382d-4317-a5a3-c63365a0d76b","system_id":"levelo_inurba_marseille","lat":43.25531,"lon":5.41762,"is_reserved":false,"is_disabled":false,"rental_uris":{"android":"levelo://app?vid=f0259f55-382d-4317-a5a3-c63365a0d76b","ios":"levelo://app?vid=f0259f55-382d-4317-a5a3-c63365a0d76b"},"vehicle_type_id":"4","last_reported":1746320291,"current_range_meters":9600,"station_id":"","pricing_plan_id":"cebpf4jnsgd1na2vs0mg"},{"bike_id":"5d9a54ab-8ca5-45ce-9e8d-1ecc587fe2f3","system_id":"levelo_inurba_marseille","lat":43.29761,"lon":5.406125,"is_reserved":false,"is_disabled":false,"rental_uris":{"android":"levelo://app?vid=5d9a54ab-8ca5-45ce-9e8d-1ecc587fe2f3","ios":"levelo://app?vid=5d9a54ab-8ca5-45ce-9e8d-1ecc587fe2f3"},"vehicle_type_id":"4","last_reported":1746320291,"current_range_meters":9600,"station_id":"","pricing_plan_id":"cebpf4jnsgd1na2vs0mg"},{"bike_id":"6ae9068b-8534-47e2-832a-cb0e5255371d","system_id":"levelo_inurba_marseille","lat":43.337444,"lon":5.374475,"is_reserved":false,"is_disabled":false,"rental_uris":{"android":"levelo://app?vid=6ae9068b-8534-47e2-832a-cb0e5255371d","ios":"levelo://app?vid=6ae9068b-8534-47e2-832a-cb0e5255371d"},"vehicle_type_id":"4","last_reported":1746320291,"current_range_meters":9600,"station_id":"ce4bgvp2rcd13ifvqct0","pricing_plan_id":"cebpf4jnsgd1na2vs0mg"},{"bike_id":"1de87f91-7180-418c-9469-b98c034a0f49","system_id":"levelo_inurba_marseille","lat":43.28687,"lon":5.40001,"is_reserved":false,"is_disabled":false,"rental_uris":{"android":"levelo://app?vid=1de87f91-7180-418c-9469-b98c034a0f49","ios":"levelo://app?vid=1de87f91-7180-418c-9469-b98c034a0f49"},"vehicle_type_id":"4","last_reported":1746320291,"current_range_meters":9600,"station_id":"ce4bho92rcd13ifvqh3g","pricing_plan_id":"cebpf4jnsgd1na2vs0mg"},{"bike_id":"fb25e3bb-8001-4aa5-9583-ce0efea56b25","system_id":"levelo_inurba_marseille","lat":43.2557,"lon":5.38232,"is_reserved":false,"is_disabled":false,"rental_uris":{"android":"levelo://app?vid=fb25e3bb-8001-4aa5-9583-ce0efea56b25","ios":"levelo://app?vid=fb25e3bb-8001-4aa5-9583-ce0efea56b25"},"vehicle_type_id":"4","last_reported":1746320291,"current_range_meters":9600,"station_id":"ce4bhih2rcd13ifvqfs0","pricing_plan_id":"cebpf4jnsgd1na2vs0mg"},{"bike_id":"fb582505-15b6-40c6-97cc-2feebea7d568","system_id":"levelo_inurba_marseille","lat":43.30421,"lon":5.39747,"is_reserved":false,"is_disabled":true,"rental_uris":{"android":"levelo://app?vid=fb582505-15b6-40c6-97cc-2feebea7d568","ios":"levelo://app?vid=fb582505-15b6-40c6-97cc-2feebea7d568"},"vehicle_type_id":"4","last_reported":1746320291,"current_range_meters":10000,"station_id":"ce4bh092rcd13ifvqd20","pricing_plan_id":"cebpf4jnsgd1na2vs0mg"},{"bike_id":"75fa9943-cbe0-4940-a9be-f80f8dede2da","system_id":"levelo_inurba_marseille","lat":43.22515,"lon":5.34778,"is_reserved":false,"is_disabled":false,"rental_uris":{"android":"levelo://app?vid=75fa9943-cbe0-4940-a9be-f80f8dede2da","ios":"levelo://app?vid=75fa9943-cbe0-4940-a9be-f80f8dede2da"},"vehicle_type_id":"4","last_reported":1746320291,"current_range_meters":10000,"station_id":"st_cvj5dfep6f1abm77gieg","pricing_plan_id":"cebpf4jnsgd1na2vs0mg"},{"bike_id":"59c05668-9a78-4683-b670-a7794c85b3b0","system_id":"levelo_inurba_marseille","lat":43.29377,"lon":5.37857,"is_reserved":false,"is_disabled":true,"rental_uris":{"android":"levelo://app?vid=59c05668-9a78-4683-b670-a7794c85b3b0","ios":"levelo://app?vid=59c05668-9a78-4683-b670-a7794c85b3b0"},"vehicle_type_id":"4","last_reported":1746320291,"current_range_meters":10000,"station_id":"ce4bgjh2rcd13ifvqbf0","pricing_plan_id":"cebpf4jnsgd1na2vs0mg"},{"bike_id":"2f2e2422-0ca9-4635-8561-f770e540dc91","system_id":"levelo_inurba_marseille","lat":43.297821,"lon":5.370156,"is_reserved":false,"is_disabled":false,"rental_uris":{"android":"levelo://app?vid=2f2e2422-0ca9-4635-8561-f770e540dc91","ios":"levelo://app?vid=2f2e2422-0ca9-4635-8561-f770e540dc91"},"vehicle_type_id":"4","last_reported":1746320291,"current_range_meters":10000,"station_id":"","pricing_plan_id":"cebpf4jnsgd1na2vs0mg"},{"bike_id":"c9667bec-b4e1-4aba-85da-6ad1e46c0b9d","system_id":"levelo_inurba_marseille","lat":43.27048,"lon":5.42276,"is_reserved":false,"is_disabled":false,"rental_uris":{"android":"levelo://app?vid=c9667bec-b4e1-4aba-85da-6ad1e46c0b9d","ios":"levelo://app?vid=c9667bec-b4e1-4aba-85da-6ad1e46c0b9d"},"vehicle_type_id":"4","last_reported":1746320291,"current_range_meters":10000,"station_id":"ce4bhk92rcd13ifvqgb0","pricing_plan_id":"cebpf4jnsgd1na2vs0mg"},{"bike_id":"4ba868f1-7884-4df1-931d-574bcb62eaf3","system_id":"levelo_inurba_marseille","lat":43.31347,"lon":5.38522,"is_reserved":false,"is_disabled":false,"rental_uris":{"android":"levelo://app?vid=4ba868f1-7884-4df1-931d-574bcb62eaf3","ios":"levelo://app?vid=4ba868f1-7884-4df1-931d-574bcb62eaf3"},"vehicle_type_id":"4","last_reported":1746320291,"current_range_meters":10000,"station_id":"ce4bgt92rcd13ifvqcf0","pricing_plan_id":"cebpf4jnsgd1na2vs0mg"},{"bike_id":"e141d286-5a2c-470e-8ce3-fc63bfe9226f","system_id":"levelo_inurba_marseille","lat":43.33754,"lon":5.41864,"is_reserved":false,"is_disabled":false,"rental_uris":{"android":"levelo://app?vid=e141d286-5a2c-470e-8ce3-fc63bfe9226f","ios":"levelo://app?vid=e141d286-5a2c-470e-8ce3-fc63bfe9226f"},"vehicle_type_id":"4","last_reported":1746320291,"current_range_meters":10000,"station_id":"","pricing_plan_id":"cebpf4jnsgd1na2vs0mg"},{"bike_id":"2a817c2a-51ef-4a7a-95a0-5789962b641b","system_id":"levelo_inurba_marseille","lat":43.28075,"lon":5.39657,"is_reserved":false,"is_disabled":false,"rental_uris":{"android":"levelo://app?vid=2a817c2a-51ef-4a7a-95a0-5789962b641b","ios":"levelo://app?vid=2a817c2a-51ef-4a7a-95a0-5789962b641b"},"vehicle_type_id":"4","last_reported":1746320291,"current_range_meters":9600,"station_id":"ce4bho12rcd13ifvqh2g","pricing_plan_id":"cebpf4jnsgd1na2vs0mg"},{"bike_id":"b8028bbc-e0b2-47d7-951d-2ca751c3d28a","system_id":"levelo_inurba_marseille","lat":43.27806,"lon":5.407,"is_reserved":false,"is_disabled":false,"rental_uris":{"android":"levelo://app?vid=b8028bbc-e0b2-47d7-951d-2ca751c3d28a","ios":"levelo://app?vid=b8028bbc-e0b2-47d7-951d-2ca751c3d28a"},"vehicle_type_id":"4","last_reported":1746320291,"current_range_meters":10000,"station_id":"ce4bhnh2rcd13ifvqgtg","pricing_plan_id":"cebpf4jnsgd1na2vs0mg"},{"bike_id":"482f00aa-c3ee-446b-8f24-a1d4dffa2e19","system_id":"levelo_inurba_marseille","lat":43.297071,"lon":5.376901,"is_reserved":false,"is_disabled":true,"rental_uris":{"android":"levelo://app?vid=482f00aa-c3ee-446b-8f24-a1d4dffa2e19","ios":"levelo://app?vid=482f00aa-c3ee-446b-8f24-a1d4dffa2e19"},"vehicle_type_id":"4","last_reported":1746320291,"current_range_meters":10000,"station_id":"ce4bgkh2rcd13ifvqbl0","pricing_plan_id":"cebpf4jnsgd1na2vs0mg"},{"bike_id":"b2bed98a-b840-49dc-9665-7e2b295b016b","system_id":"levelo_inurba_marseille","lat":43.29244,"lon":5.38447,"is_reserved":false,"is_disabled":true,"rental_uris":{"android":"levelo://app?vid=b2bed98a-b840-49dc-9665-7e2b295b016b","ios":"levelo://app?vid=b2bed98a-b840-49dc-9665-7e2b295b016b"},"vehicle_type_id":"4","last_reported":1746320291,"current_range_meters":10800,"station_id":"ce4bh692rcd13ifvqea0","pricing_plan_id":"cebpf4jnsgd1na2vs0mg"},{"bike_id":"ff85802d-0bcd-4a45-9f91-6d6fa0c2c4f0","system_id":"levelo_inurba_marseille","lat":43.30929,"lon":5.40143,"is_reserved":false,"is_disabled":false,"rental_uris":{"android":"levelo://app?vid=ff85802d-0bcd-4a45-9f91-6d6fa0c2c4f0","ios":"levelo://app?vid=ff85802d-0bcd-4a45-9f91-6d6fa0c2c4f0"},"vehicle_type_id":"4","last_reported":1746320291,"current_range_meters":10800,"station_id":"ce4bgvp2rcd13ifvqct0","pricing_plan_id":"cebpf4jnsgd1na2vs0mg"},{"bike_id":"a37779e7-3d8a-4c82-9997-3090313b05d7","system_id":"levelo_inurba_marseille","lat":43.22873,"lon":5.35377,"is_reserved":false,"is_disabled":true,"rental_uris":{"android":"levelo://app?vid=a37779e7-3d8a-4c82-9997-3090313b05d7","ios":"levelo://app?vid=a37779e7-3d8a-4c82-9997-3090313b05d7"},"vehicle_type_id":"4","last_reported":1746320291,"current_range_meters":10800,"station_id":"","pricing_plan_id":"cebpf4jnsgd1na2vs0mg"},{"bike_id":"c6063f25-88c2-4ee8-8b47-7eeebc20b14f","system_id":"levelo_inurba_marseille","lat":43.24799,"lon":5.37471,"is_reserved":false,"is_disabled":false,"rental_uris":{"android":"levelo://app?vid=c6063f25-88c2-4ee8-8b47-7eeebc20b14f","ios":"levelo://app?vid=c6063f25-88c2-4ee8-8b47-7eeebc20b14f"},"vehicle_type_id":"4","last_reported":1746320291,"current_range_meters":10800,"station_id":"ce4bhgh2rcd13ifvqfb0","pricing_plan_id":"cebpf4jnsgd1na2vs0mg"},{"bike_id":"c42d6fc4-22d2-4b20-b724-d98e4c8fa6ee","system_id":"levelo_inurba_marseille","lat":43.31356,"lon":5.38475,"is_reserved":false,"is_disabled":false,"rental_uris":{"android":"levelo://app?vid=c42d6fc4-22d2-4b20-b724-d98e4c8fa6ee","ios":"levelo://app?vid=c42d6fc4-22d2-4b20-b724-d98e4c8fa6ee"},"vehicle_type_id":"4","last_reported":1746320291,"current_range_meters":10800,"station_id":"ce4bgt92rcd13ifvqcf0","pricing_plan_id":"cebpf4jnsgd1na2vs0mg"},{"bike_id":"e4856e11-0139-477e-a022-4b979369719b","system_id":"levelo_inurba_marseille","lat":43.2396,"lon":5.36628,"is_reserved":false,"is_disabled":false,"rental_uris":{"android":"levelo://app?vid=e4856e11-0139-477e-a022-4b979369719b","ios":"levelo://app?vid=e4856e11-0139-477e-a022-4b979369719b"},"vehicle_type_id":"4","last_reported":1746320291,"current_range_meters":11200,"station_id":"ce4bhi12rcd13ifvqfp0","pricing_plan_id":"cebpf4jnsgd1na2vs0mg"},{"bike_id":"2fac38ca-87d4-4a67-af4a-ad5f55d672a4","system_id":"levelo_inurba_marseille","lat":43.28362,"lon":5.38632,"is_reserved":false,"is_disabled":false,"rental_uris":{"android":"levelo://app?vid=2fac38ca-87d4-4a67-af4a-ad5f55d672a4","ios":"levelo://app?vid=2fac38ca-87d4-4a67-af4a-ad5f55d672a4"},"vehicle_type_id":"4","last_reported":1746320291,"current_range_meters":11200,"station_id":"ce4bh492rcd13ifvqdvg","pricing_plan_id":"cebpf4jnsgd1na2vs0mg"},{"bike_id":"c2c5beff-ec8e-48ee-825a-e3cdf2e54b49","system_id":"levelo_inurba_marseille","lat":43.29219,"lon":5.39986,"is_reserved":false,"is_disabled":false,"rental_uris":{"android":"levelo://app?vid=c2c5beff-ec8e-48ee-825a-e3cdf2e54b49","ios":"levelo://app?vid=c2c5beff-ec8e-48ee-825a-e3cdf2e54b49"},"vehicle_type_id":"4","last_reported":1746320291,"current_range_meters":11200,"station_id":"","pricing_plan_id":"cebpf4jnsgd1na2vs0mg"},{"bike_id":"dde313c9-2956-4963-9e10-a6ae4348ff85","system_id":"levelo_inurba_marseille","lat":43.314853,"lon":5.373042,"is_reserved":false,"is_disabled":false,"rental_uris":{"android":"levelo://app?vid=dde313c9-2956-4963-9e10-a6ae4348ff85","ios":"levelo://app?vid=dde313c9-2956-4963-9e10-a6ae4348ff85"},"vehicle_type_id":"4","last_reported":1746320291,"current_range_meters":11200,"station_id":"ce4bgt12rcd13ifvqcd0","pricing_plan_id":"cebpf4jnsgd1na2vs0mg"},{"bike_id":"fd2c3c67-23a6-4380-b7ca-8f23c8f78921","system_id":"levelo_inurba_marseille","lat":43.32352,"lon":5.36746,"is_reserved":false,"is_disabled":false,"rental_uris":{"android":"levelo://app?vid=fd2c3c67-23a6-4380-b7ca-8f23c8f78921","ios":"levelo://app?vid=fd2c3c67-23a6-4380-b7ca-8f23c8f78921"},"vehicle_type_id":"4","last_reported":1746320291,"current_range_meters":11200,"station_id":"ce4bhsh2rcd13ifvqi2g","pricing_plan_id":"cebpf4jnsgd1na2vs0mg"},{"bike_id":"8a86b5b6-eaf3-4df5-a5a7-df915f13a164","system_id":"levelo_inurba_marseille","lat":43.25007,"lon":5.38946,"is_reserved":false,"is_disabled":false,"rental_uris":{"android":"levelo://app?vid=8a86b5b6-eaf3-4df5-a5a7-df915f13a164","ios":"levelo://app?vid=8a86b5b6-eaf3-4df5-a5a7-df915f13a164"},"vehicle_type_id":"4","last_reported":1746320291,"current_range_meters":11600,"station_id":"ce4bhgp2rcd13ifvqfd0","pricing_plan_id":"cebpf4jnsgd1na2vs0mg"},{"bike_id":"490f4dd2-526f-486e-be14-25a2ce708a63","system_id":"levelo_inurba_marseille","lat":43.284164,"lon":5.3857,"is_reserved":false,"is_disabled":false,"rental_uris":{"android":"levelo://app?vid=490f4dd2-526f-486e-be14-25a2ce708a63","ios":"levelo://app?vid=490f4dd2-526f-486e-be14-25a2ce708a63"},"vehicle_type_id":"4","last_reported":1746320291,"current_range_meters":11600,"station_id":"ce4bh492rcd13ifvqdvg","pricing_plan_id":"cebpf4jnsgd1na2vs0mg"},{"bike_id":"6a0d5119-ec59-454c-8ea9-44c2e64eb3e3","system_id":"levelo_inurba_marseille","lat":43.31366,"lon":5.38496,"is_reserved":false,"is_disabled":false,"rental_uris":{"android":"levelo://app?vid=6a0d5119-ec59-454c-8ea9-44c2e64eb3e3","ios":"levelo://app?vid=6a0d5119-ec59-454c-8ea9-44c2e64eb3e3"},"vehicle_type_id":"4","last_reported":1746320291,"current_range_meters":11600,"station_id":"ce4bgt92rcd13ifvqcf0","pricing_plan_id":"cebpf4jnsgd1na2vs0mg"},{"bike_id":"d447b317-7fe8-4b25-a86f-02fbc65ddcfa","system_id":"levelo_inurba_marseille","lat":43.23122,"lon":5.43712,"is_reserved":false,"is_disabled":false,"rental_uris":{"android":"levelo://app?vid=d447b317-7fe8-4b25-a86f-02fbc65ddcfa","ios":"levelo://app?vid=d447b317-7fe8-4b25-a86f-02fbc65ddcfa"},"vehicle_type_id":"4","last_reported":1746320291,"current_range_meters":11600,"station_id":"ce4bhmp2rcd13ifvqgog","pricing_plan_id":"cebpf4jnsgd1na2vs0mg"},{"bike_id":"274ad913-cb5d-44ea-8484-26eae07424ea","system_id":"levelo_inurba_marseille","lat":43.258694,"lon":5.399147,"is_reserved":false,"is_disabled":true,"rental_uris":{"android":"levelo://app?vid=274ad913-cb5d-44ea-8484-26eae07424ea","ios":"levelo://app?vid=274ad913-cb5d-44ea-8484-26eae07424ea"},"vehicle_type_id":"4","last_reported":1746320291,"current_range_meters":11600,"station_id":"ce4bhl92rcd13ifvqghg","pricing_plan_id":"cebpf4jnsgd1na2vs0mg"},{"bike_id":"c0013652-b9c1-4ebe-937b-3643233b17e5","system_id":"levelo_inurba_marseille","lat":43.284461,"lon":5.39208,"is_reserved":false,"is_disabled":false,"rental_uris":{"android":"levelo://app?vid=c0013652-b9c1-4ebe-937b-3643233b17e5","ios":"levelo://app?vid=c0013652-b9c1-4ebe-937b-3643233b17e5"},"vehicle_type_id":"4","last_reported":1746320291,"current_range_meters":11600,"station_id":"ce4bhoh2rcd13ifvqh5g","pricing_plan_id":"cebpf4jnsgd1na2vs0mg"},{"bike_id":"8bca6a68-24be-4919-828c-8b42767c2d8f","system_id":"levelo_inurba_marseille","lat":43.30152,"lon":5.39854,"is_reserved":false,"is_disabled":false,"rental_uris":{"android":"levelo://app?vid=8bca6a68-24be-4919-828c-8b42767c2d8f","ios":"levelo://app?vid=8bca6a68-24be-4919-828c-8b42767c2d8f"},"vehicle_type_id":"4","last_reported":1746320291,"current_range_meters":11600,"station_id":"ce4bh0h2rcd13ifvqd40","pricing_plan_id":"cebpf4jnsgd1na2vs0mg"},{"bike_id":"1f192409-3bd6-4ef0-ae18-1d604dedc99e","system_id":"levelo_inurba_marseille","lat":43.23312,"lon":5.357447,"is_reserved":false,"is_disabled":false,"rental_uris":{"android":"levelo://app?vid=1f192409-3bd6-4ef0-ae18-1d604dedc99e","ios":"levelo://app?vid=1f192409-3bd6-4ef0-ae18-1d604dedc99e"},"vehicle_type_id":"4","last_reported":1746320291,"current_range_meters":11600,"station_id":"ce4bhu92rcd13ifvqi70","pricing_plan_id":"cebpf4jnsgd1na2vs0mg"},{"bike_id":"7aef014b-bd90-4df0-8e36-808e26da2aef","system_id":"levelo_inurba_marseille","lat":43.2783,"lon":5.39211,"is_reserved":false,"is_disabled":false,"rental_uris":{"android":"levelo://app?vid=7aef014b-bd90-4df0-8e36-808e26da2aef","ios":"levelo://app?vid=7aef014b-bd90-4df0-8e36-808e26da2aef"},"vehicle_type_id":"4","last_reported":1746320291,"current_range_meters":12000,"station_id":"ce4bhjp2rcd13ifvqga0","pricing_plan_id":"cebpf4jnsgd1na2vs0mg"},{"bike_id":"aedf206f-89f3-4f30-9da6-56fb7ff8915b","system_id":"levelo_inurba_marseille","lat":43.281115,"lon":5.404001,"is_reserved":false,"is_disabled":false,"rental_uris":{"android":"levelo://app?vid=aedf206f-89f3-4f30-9da6-56fb7ff8915b","ios":"levelo://app?vid=aedf206f-89f3-4f30-9da6-56fb7ff8915b"},"vehicle_type_id":"4","last_reported":1746320291,"current_range_meters":12000,"station_id":"","pricing_plan_id":"cebpf4jnsgd1na2vs0mg"},{"bike_id":"39513858-7b2e-4512-84f2-b1cf96ce588f","system_id":"levelo_inurba_marseille","lat":43.31274,"lon":5.40168,"is_reserved":false,"is_disabled":false,"rental_uris":{"android":"levelo://app?vid=39513858-7b2e-4512-84f2-b1cf96ce588f","ios":"levelo://app?vid=39513858-7b2e-4512-84f2-b1cf96ce588f"},"vehicle_type_id":"4","last_reported":1746320291,"current_range_meters":12000,"station_id":"ce4bh092rcd13ifvqd30","pricing_plan_id":"cebpf4jnsgd1na2vs0mg"},{"bike_id":"be48fdf9-8074-4a3a-82c6-b5e0fec17ba1","system_id":"levelo_inurba_marseille","lat":43.28003,"lon":5.4001,"is_reserved":false,"is_disabled":false,"rental_uris":{"android":"levelo://app?vid=be48fdf9-8074-4a3a-82c6-b5e0fec17ba1","ios":"levelo://app?vid=be48fdf9-8074-4a3a-82c6-b5e0fec17ba1"},"vehicle_type_id":"4","last_reported":1746320291,"current_range_meters":12000,"station_id":"ce4bho92rcd13ifvqh4g","pricing_plan_id":"cebpf4jnsgd1na2vs0mg"},{"bike_id":"77e5fc0c-8247-4eae-976e-b65c5c479c47","system_id":"levelo_inurba_marseille","lat":43.243881,"lon":5.370565,"is_reserved":false,"is_disabled":false,"rental_uris":{"android":"levelo://app?vid=77e5fc0c-8247-4eae-976e-b65c5c479c47","ios":"levelo://app?vid=77e5fc0c-8247-4eae-976e-b65c5c479c47"},"vehicle_type_id":"4","last_reported":1746320291,"current_range_meters":12000,"station_id":"ce4bhhh2rcd13ifvqfk0","pricing_plan_id":"cebpf4jnsgd1na2vs0mg"},{"bike_id":"3bd56796-a588-4245-b00a-65ccc252ae20","system_id":"levelo_inurba_marseille","lat":43.32285,"lon":5.40621,"is_reserved":false,"is_disabled":false,"rental_uris":{"android":"levelo://app?vid=3bd56796-a588-4245-b00a-65ccc252ae20","ios":"levelo://app?vid=3bd56796-a588-4245-b00a-65ccc252ae20"},"vehicle_type_id":"4","last_reported":1746320291,"current_range_meters":12000,"station_id":"ce4bhq92rcd13ifvqhjg","pricing_plan_id":"cebpf4jnsgd1na2vs0mg"},{"bike_id":"6370cfc3-4ded-4105-8223-19cebacda7bc","system_id":"levelo_inurba_marseille","lat":43.31177,"lon":5.38709,"is_reserved":false,"is_disabled":false,"rental_uris":{"android":"levelo://app?vid=6370cfc3-4ded-4105-8223-19cebacda7bc","ios":"levelo://app?vid=6370cfc3-4ded-4105-8223-19cebacda7bc"},"vehicle_type_id":"4","last_reported":1746320291,"current_range_meters":8800,"station_id":"ce4bgv12rcd13ifvqcp0","pricing_plan_id":"cebpf4jnsgd1na2vs0mg"},{"bike_id":"d3dac1c3-57de-4a8c-83d0-7f5acd93f74d","system_id":"levelo_inurba_marseille","lat":43.27974,"lon":5.41653,"is_reserved":false,"is_disabled":false,"rental_uris":{"android":"levelo://app?vid=d3dac1c3-57de-4a8c-83d0-7f5acd93f74d","ios":"levelo://app?vid=d3dac1c3-57de-4a8c-83d0-7f5acd93f74d"},"vehicle_type_id":"4","last_reported":1746320291,"current_range_meters":12000,"station_id":"ce4bho12rcd13ifvqh1g","pricing_plan_id":"cebpf4jnsgd1na2vs0mg"},{"bike_id":"6338e318-2f80-4349-ae11-615c887b4fb9","system_id":"levelo_inurba_marseille","lat":43.25882,"lon":5.40881,"is_reserved":false,"is_disabled":false,"rental_uris":{"android":"levelo://app?vid=6338e318-2f80-4349-ae11-615c887b4fb9","ios":"levelo://app?vid=6338e318-2f80-4349-ae11-615c887b4fb9"},"vehicle_type_id":"4","last_reported":1746320291,"current_range_meters":12000,"station_id":"ce4bhm92rcd13ifvqglg","pricing_plan_id":"cebpf4jnsgd1na2vs0mg"},{"bike_id":"1d59b5c9-cca4-43f9-a7f4-1bb7ebcfb8ae","system_id":"levelo_inurba_marseille","lat":43.27373,"lon":5.362545,"is_reserved":false,"is_disabled":true,"rental_uris":{"android":"levelo://app?vid=1d59b5c9-cca4-43f9-a7f4-1bb7ebcfb8ae","ios":"levelo://app?vid=1d59b5c9-cca4-43f9-a7f4-1bb7ebcfb8ae"},"vehicle_type_id":"4","last_reported":1746320291,"current_range_meters":12400,"station_id":"","pricing_plan_id":"cebpf4jnsgd1na2vs0mg"},{"bike_id":"4cd32815-4894-41a0-9a3d-e6c837dcaeea","system_id":"levelo_inurba_marseille","lat":43.299743,"lon":5.384938,"is_reserved":false,"is_disabled":true,"rental_uris":{"android":"levelo://app?vid=4cd32815-4894-41a0-9a3d-e6c837dcaeea","ios":"levelo://app?vid=4cd32815-4894-41a0-9a3d-e6c837dcaeea"},"vehicle_type_id":"4","last_reported":1746320291,"current_range_meters":12400,"station_id":"ce4bgj92rcd13ifvqbd0","pricing_plan_id":"cebpf4jnsgd1na2vs0mg"},{"bike_id":"28b4bc83-5c8b-4e9d-aba4-7a153d3e0dfe","system_id":"levelo_inurba_marseille","lat":43.30325,"lon":5.40449,"is_reserved":false,"is_disabled":false,"rental_uris":{"android":"levelo://app?vid=28b4bc83-5c8b-4e9d-aba4-7a153d3e0dfe","ios":"levelo://app?vid=28b4bc83-5c8b-4e9d-aba4-7a153d3e0dfe"},"vehicle_type_id":"4","last_reported":1746320291,"current_range_meters":12400,"station_id":"ce4bh012rcd13ifvqd10","pricing_plan_id":"cebpf4jnsgd1na2vs0mg"},{"bike_id":"e9def665-5613-4cbb-baf6-84fe7f3217cc","system_id":"levelo_inurba_marseille","lat":43.24776,"lon":5.37463,"is_reserved":false,"is_disabled":false,"rental_uris":{"android":"levelo://app?vid=e9def665-5613-4cbb-baf6-84fe7f3217cc","ios":"levelo://app?vid=e9def665-5613-4cbb-baf6-84fe7f3217cc"},"vehicle_type_id":"4","last_reported":1746320291,"current_range_meters":12400,"station_id":"ce4bhgh2rcd13ifvqfb0","pricing_plan_id":"cebpf4jnsgd1na2vs0mg"},{"bike_id":"3478d228-fbca-4a4a-aef8-f4aacb27dbf9","system_id":"levelo_inurba_marseille","lat":43.284341,"lon":5.391891,"is_reserved":false,"is_disabled":false,"rental_uris":{"android":"levelo://app?vid=3478d228-fbca-4a4a-aef8-f4aacb27dbf9","ios":"levelo://app?vid=3478d228-fbca-4a4a-aef8-f4aacb27dbf9"},"vehicle_type_id":"4","last_reported":1746320291,"current_range_meters":12800,"station_id":"ce4bhoh2rcd13ifvqh5g","pricing_plan_id":"cebpf4jnsgd1na2vs0mg"},{"bike_id":"3e84121a-71ad-4261-b6a9-37316f8cbd59","system_id":"levelo_inurba_marseille","lat":43.290242,"lon":5.386432,"is_reserved":false,"is_disabled":true,"rental_uris":{"android":"levelo://app?vid=3e84121a-71ad-4261-b6a9-37316f8cbd59","ios":"levelo://app?vid=3e84121a-71ad-4261-b6a9-37316f8cbd59"},"vehicle_type_id":"4","last_reported":1746320291,"current_range_meters":12800,"station_id":"ce4bh4p2rcd13ifvqe0g","pricing_plan_id":"cebpf4jnsgd1na2vs0mg"},{"bike_id":"63f3a9a6-4e9a-44ca-a34f-2db972116f8c","system_id":"levelo_inurba_marseille","lat":43.25124,"lon":5.40345,"is_reserved":false,"is_disabled":false,"rental_uris":{"android":"levelo://app?vid=63f3a9a6-4e9a-44ca-a34f-2db972116f8c","ios":"levelo://app?vid=63f3a9a6-4e9a-44ca-a34f-2db972116f8c"},"vehicle_type_id":"4","last_reported":1746320291,"current_range_meters":12800,"station_id":"ce4bhlh2rcd13ifvqgig","pricing_plan_id":"cebpf4jnsgd1na2vs0mg"},{"bike_id":"cfc6a7c1-96e7-4f7d-8a03-23f3e8d00dbc","system_id":"levelo_inurba_marseille","lat":43.27567,"lon":5.38411,"is_reserved":false,"is_disabled":false,"rental_uris":{"android":"levelo://app?vid=cfc6a7c1-96e7-4f7d-8a03-23f3e8d00dbc","ios":"levelo://app?vid=cfc6a7c1-96e7-4f7d-8a03-23f3e8d00dbc"},"vehicle_type_id":"4","last_reported":1746320291,"current_range_meters":13600,"station_id":"ce4bhh92rcd13ifvqfi0","pricing_plan_id":"cebpf4jnsgd1na2vs0mg"},{"bike_id":"9e4b3a90-ddc0-4bdb-9b76-191a6dfed04c","system_id":"levelo_inurba_marseille","lat":43.27927,"lon":5.38722,"is_reserved":false,"is_disabled":false,"rental_uris":{"android":"levelo://app?vid=9e4b3a90-ddc0-4bdb-9b76-191a6dfed04c","ios":"levelo://app?vid=9e4b3a90-ddc0-4bdb-9b76-191a6dfed04c"},"vehicle_type_id":"4","last_reported":1746320291,"current_range_meters":13600,"station_id":"","pricing_plan_id":"cebpf4jnsgd1na2vs0mg"},{"bike_id":"4c281719-0627-4ebf-8af4-07cb2ba7736a","system_id":"levelo_inurba_marseille","lat":43.33698,"lon":5.39206,"is_reserved":false,"is_disabled":false,"rental_uris":{"android":"levelo://app?vid=4c281719-0627-4ebf-8af4-07cb2ba7736a","ios":"levelo://app?vid=4c281719-0627-4ebf-8af4-07cb2ba7736a"},"vehicle_type_id":"4","last_reported":1746320291,"current_range_meters":13600,"station_id":"ce4bhr92rcd13ifvqhsg","pricing_plan_id":"cebpf4jnsgd1na2vs0mg"},{"bike_id":"3df7f31a-c849-441e-9c7a-62e1ff45d776","system_id":"levelo_inurba_marseille","lat":43.30409,"lon":5.41264,"is_reserved":false,"is_disabled":false,"rental_uris":{"android":"levelo://app?vid=3df7f31a-c849-441e-9c7a-62e1ff45d776","ios":"levelo://app?vid=3df7f31a-c849-441e-9c7a-62e1ff45d776"},"vehicle_type_id":"4","last_reported":1746320291,"current_range_meters":13600,"station_id":"ce4bhop2rcd13ifvqh8g","pricing_plan_id":"cebpf4jnsgd1na2vs0mg"},{"bike_id":"d716e201-72f5-446a-b974-075fba3399cb","system_id":"levelo_inurba_marseille","lat":43.29512,"lon":5.39397,"is_reserved":false,"is_disabled":false,"rental_uris":{"android":"levelo://app?vid=d716e201-72f5-446a-b974-075fba3399cb","ios":"levelo://app?vid=d716e201-72f5-446a-b974-075fba3399cb"},"vehicle_type_id":"4","last_reported":1746320291,"current_range_meters":14000,"station_id":"ce4bh292rcd13ifvqdf0","pricing_plan_id":"cebpf4jnsgd1na2vs0mg"},{"bike_id":"05fb8e53-690e-4c91-83ac-d946606b1d9d","system_id":"levelo_inurba_marseille","lat":43.31284,"lon":5.40157,"is_reserved":false,"is_disabled":false,"rental_uris":{"android":"levelo://app?vid=05fb8e53-690e-4c91-83ac-d946606b1d9d","ios":"levelo://app?vid=05fb8e53-690e-4c91-83ac-d946606b1d9d"},"vehicle_type_id":"4","last_reported":1746320291,"current_range_meters":14000,"station_id":"ce4bh092rcd13ifvqd30","pricing_plan_id":"cebpf4jnsgd1na2vs0mg"},{"bike_id":"09231eea-5f44-4616-96b6-0b767783e225","system_id":"levelo_inurba_marseille","lat":43.30641,"lon":5.400955,"is_reserved":false,"is_disabled":false,"rental_uris":{"android":"levelo://app?vid=09231eea-5f44-4616-96b6-0b767783e225","ios":"levelo://app?vid=09231eea-5f44-4616-96b6-0b767783e225"},"vehicle_type_id":"4","last_reported":1746320291,"current_range_meters":14000,"station_id":"ce4bh112rcd13ifvqda0","pricing_plan_id":"cebpf4jnsgd1na2vs0mg"},{"bike_id":"1f0adf54-0dd1-46c7-894d-c4baf2800894","system_id":"levelo_inurba_marseille","lat":43.30942,"lon":5.39037,"is_reserved":false,"is_disabled":false,"rental_uris":{"android":"levelo://app?vid=1f0adf54-0dd1-46c7-894d-c4baf2800894","ios":"levelo://app?vid=1f0adf54-0dd1-46c7-894d-c4baf2800894"},"vehicle_type_id":"4","last_reported":1746320291,"current_range_meters":14000,"station_id":"ce4bgup2rcd13ifvqco0","pricing_plan_id":"cebpf4jnsgd1na2vs0mg"},{"bike_id":"0ecfd02f-f853-4362-9dcd-e959b1ad8321","system_id":"levelo_inurba_marseille","lat":43.241765,"lon":5.397338,"is_reserved":false,"is_disabled":false,"rental_uris":{"android":"levelo://app?vid=0ecfd02f-f853-4362-9dcd-e959b1ad8321","ios":"levelo://app?vid=0ecfd02f-f853-4362-9dcd-e959b1ad8321"},"vehicle_type_id":"4","last_reported":1746320291,"current_range_meters":14000,"station_id":"ce4bhn12rcd13ifvqgpg","pricing_plan_id":"cebpf4jnsgd1na2vs0mg"},{"bike_id":"599a893c-7ae0-4a7c-aee5-ee11e134afa1","system_id":"levelo_inurba_marseille","lat":43.262241,"lon":5.404145,"is_reserved":false,"is_disabled":false,"rental_uris":{"android":"levelo://app?vid=599a893c-7ae0-4a7c-aee5-ee11e134afa1","ios":"levelo://app?vid=599a893c-7ae0-4a7c-aee5-ee11e134afa1"},"vehicle_type_id":"4","last_reported":1746320291,"current_range_meters":14000,"station_id":"ce4bhmh2rcd13ifvqgmg","pricing_plan_id":"cebpf4jnsgd1na2vs0mg"},{"bike_id":"c71da692-85e3-477b-85a2-ab7d2814da05","system_id":"levelo_inurba_marseille","lat":43.31294,"lon":5.39717,"is_reserved":false,"is_disabled":false,"rental_uris":{"android":"levelo://app?vid=c71da692-85e3-477b-85a2-ab7d2814da05","ios":"levelo://app?vid=c71da692-85e3-477b-85a2-ab7d2814da05"},"vehicle_type_id":"4","last_reported":1746320291,"current_range_meters":14400,"station_id":"ce4bgvp2rcd13ifvqcu0","pricing_plan_id":"cebpf4jnsgd1na2vs0mg"},{"bike_id":"62833c51-00b3-43f2-9ca0-3fb0b91c3c0a","system_id":"levelo_inurba_marseille","lat":43.313544,"lon":5.384943,"is_reserved":false,"is_disabled":false,"rental_uris":{"android":"levelo://app?vid=62833c51-00b3-43f2-9ca0-3fb0b91c3c0a","ios":"levelo://app?vid=62833c51-00b3-43f2-9ca0-3fb0b91c3c0a"},"vehicle_type_id":"4","last_reported":1746320291,"current_range_meters":14400,"station_id":"ce4bgt92rcd13ifvqcf0","pricing_plan_id":"cebpf4jnsgd1na2vs0mg"},{"bike_id":"e14f0e0b-57ce-42d5-80f6-e3d891b564d1","system_id":"levelo_inurba_marseille","lat":43.27062,"lon":5.42276,"is_reserved":false,"is_disabled":false,"rental_uris":{"android":"levelo://app?vid=e14f0e0b-57ce-42d5-80f6-e3d891b564d1","ios":"levelo://app?vid=e14f0e0b-57ce-42d5-80f6-e3d891b564d1"},"vehicle_type_id":"4","last_reported":1746320291,"current_range_meters":14400,"station_id":"ce4bhk92rcd13ifvqgb0","pricing_plan_id":"cebpf4jnsgd1na2vs0mg"},{"bike_id":"38d41426-b348-4dd4-815f-8372e83ea8de","system_id":"levelo_inurba_marseille","lat":43.31358,"lon":5.38512,"is_reserved":false,"is_disabled":false,"rental_uris":{"android":"levelo://app?vid=38d41426-b348-4dd4-815f-8372e83ea8de","ios":"levelo://app?vid=38d41426-b348-4dd4-815f-8372e83ea8de"},"vehicle_type_id":"4","last_reported":1746320291,"current_range_meters":14400,"station_id":"ce4bgt92rcd13ifvqcf0","pricing_plan_id":"cebpf4jnsgd1na2vs0mg"},{"bike_id":"86b26b56-3573-42a8-ae99-1ff808ff1f63","system_id":"levelo_inurba_marseille","lat":43.30689,"lon":5.37371,"is_reserved":false,"is_disabled":false,"rental_uris":{"android":"levelo://app?vid=86b26b56-3573-42a8-ae99-1ff808ff1f63","ios":"levelo://app?vid=86b26b56-3573-42a8-ae99-1ff808ff1f63"},"vehicle_type_id":"4","last_reported":1746320291,"current_range_meters":14800,"station_id":"","pricing_plan_id":"cebpf4jnsgd1na2vs0mg"},{"bike_id":"b51e8583-0fb2-49ca-9c11-9dbce28dfa5d","system_id":"levelo_inurba_marseille","lat":43.231945,"lon":5.355485,"is_reserved":false,"is_disabled":false,"rental_uris":{"android":"levelo://app?vid=b51e8583-0fb2-49ca-9c11-9dbce28dfa5d","ios":"levelo://app?vid=b51e8583-0fb2-49ca-9c11-9dbce28dfa5d"},"vehicle_type_id":"4","last_reported":1746320291,"current_range_meters":14800,"station_id":"ce4bhu92rcd13ifvqi70","pricing_plan_id":"cebpf4jnsgd1na2vs0mg"},{"bike_id":"dffda755-2feb-41dd-8db8-12eafc41bdf7","system_id":"levelo_inurba_marseille","lat":43.31529,"lon":5.38037,"is_reserved":false,"is_disabled":false,"rental_uris":{"android":"levelo://app?vid=dffda755-2feb-41dd-8db8-12eafc41bdf7","ios":"levelo://app?vid=dffda755-2feb-41dd-8db8-12eafc41bdf7"},"vehicle_type_id":"4","last_reported":1746320291,"current_range_meters":14800,"station_id":"ce4bhsp2rcd13ifvqi50","pricing_plan_id":"cebpf4jnsgd1na2vs0mg"},{"bike_id":"3fd1784f-5f56-45d7-9329-0aa3bf70e339","system_id":"levelo_inurba_marseille","lat":43.29934,"lon":5.3654,"is_reserved":false,"is_disabled":false,"rental_uris":{"android":"levelo://app?vid=3fd1784f-5f56-45d7-9329-0aa3bf70e339","ios":"levelo://app?vid=3fd1784f-5f56-45d7-9329-0aa3bf70e339"},"vehicle_type_id":"4","last_reported":1746320291,"current_range_meters":15200,"station_id":"ce4bgm92rcd13ifvqbr0","pricing_plan_id":"cebpf4jnsgd1na2vs0mg"},{"bike_id":"fb80c1da-d845-467b-9c3b-2f591f4d56ae","system_id":"levelo_inurba_marseille","lat":43.323406,"lon":5.37422,"is_reserved":false,"is_disabled":false,"rental_uris":{"android":"levelo://app?vid=fb80c1da-d845-467b-9c3b-2f591f4d56ae","ios":"levelo://app?vid=fb80c1da-d845-467b-9c3b-2f591f4d56ae"},"vehicle_type_id":"4","last_reported":1746320291,"current_range_meters":15200,"station_id":"","pricing_plan_id":"cebpf4jnsgd1na2vs0mg"},{"bike_id":"4dc943bb-1ed9-4900-ab20-fff806a47378","system_id":"levelo_inurba_marseille","lat":43.2313,"lon":5.4373,"is_reserved":false,"is_disabled":false,"rental_uris":{"android":"levelo://app?vid=4dc943bb-1ed9-4900-ab20-fff806a47378","ios":"levelo://app?vid=4dc943bb-1ed9-4900-ab20-fff806a47378"},"vehicle_type_id":"4","last_reported":1746320291,"current_range_meters":15200,"station_id":"ce4bhmp2rcd13ifvqgog","pricing_plan_id":"cebpf4jnsgd1na2vs0mg"},{"bike_id":"660a4f66-d6e0-4db9-b415-124a75243a50","system_id":"levelo_inurba_marseille","lat":43.31168,"lon":5.38724,"is_reserved":false,"is_disabled":false,"rental_uris":{"android":"levelo://app?vid=660a4f66-d6e0-4db9-b415-124a75243a50","ios":"levelo://app?vid=660a4f66-d6e0-4db9-b415-124a75243a50"},"vehicle_type_id":"4","last_reported":1746320291,"current_range_meters":15200,"station_id":"ce4bgv12rcd13ifvqcp0","pricing_plan_id":"cebpf4jnsgd1na2vs0mg"},{"bike_id":"57b577a6-05e4-403f-8e08-8a8bb593ff51","system_id":"levelo_inurba_marseille","lat":43.28944,"lon":5.36635,"is_reserved":false,"is_disabled":true,"rental_uris":{"android":"levelo://app?vid=57b577a6-05e4-403f-8e08-8a8bb593ff51","ios":"levelo://app?vid=57b577a6-05e4-403f-8e08-8a8bb593ff51"},"vehicle_type_id":"4","last_reported":1746320291,"current_range_meters":15200,"station_id":"ce4bhap2rcd13ifvqek0","pricing_plan_id":"cebpf4jnsgd1na2vs0mg"},{"bike_id":"ae2be41a-9156-47e3-8f0c-ae1081637a33","system_id":"levelo_inurba_marseille","lat":43.30953,"lon":5.39045,"is_reserved":false,"is_disabled":false,"rental_uris":{"android":"levelo://app?vid=ae2be41a-9156-47e3-8f0c-ae1081637a33","ios":"levelo://app?vid=ae2be41a-9156-47e3-8f0c-ae1081637a33"},"vehicle_type_id":"4","last_reported":1746320291,"current_range_meters":15200,"station_id":"ce4bgup2rcd13ifvqco0","pricing_plan_id":"cebpf4jnsgd1na2vs0mg"},{"bike_id":"ed2bb2c0-0169-44b4-994e-e3a453cd8966","system_id":"levelo_inurba_marseille","lat":43.248046,"lon":5.374494,"is_reserved":false,"is_disabled":false,"rental_uris":{"android":"levelo://app?vid=ed2bb2c0-0169-44b4-994e-e3a453cd8966","ios":"levelo://app?vid=ed2bb2c0-0169-44b4-994e-e3a453cd8966"},"vehicle_type_id":"4","last_reported":1746320291,"current_range_meters":15200,"station_id":"ce4bhgh2rcd13ifvqfb0","pricing_plan_id":"cebpf4jnsgd1na2vs0mg"},{"bike_id":"935a7a41-80dd-4e25-92b3-e0387e46f888","system_id":"levelo_inurba_marseille","lat":43.30939,"lon":5.39099,"is_reserved":false,"is_disabled":false,"rental_uris":{"android":"levelo://app?vid=935a7a41-80dd-4e25-92b3-e0387e46f888","ios":"levelo://app?vid=935a7a41-80dd-4e25-92b3-e0387e46f888"},"vehicle_type_id":"4","last_reported":1746320291,"current_range_meters":15200,"station_id":"ce4bgup2rcd13ifvqco0","pricing_plan_id":"cebpf4jnsgd1na2vs0mg"},{"bike_id":"2a1262f2-35d5-469b-9d0d-130c6876fe29","system_id":"levelo_inurba_marseille","lat":43.24069,"lon":5.37754,"is_reserved":false,"is_disabled":false,"rental_uris":{"android":"levelo://app?vid=2a1262f2-35d5-469b-9d0d-130c6876fe29","ios":"levelo://app?vid=2a1262f2-35d5-469b-9d0d-130c6876fe29"},"vehicle_type_id":"4","last_reported":1746320291,"current_range_meters":15200,"station_id":"ce4bhnp2rcd13ifvqgvg","pricing_plan_id":"cebpf4jnsgd1na2vs0mg"},{"bike_id":"9732b7e1-1614-4bf9-9ec9-f2c1bbf4aeb4","system_id":"levelo_inurba_marseille","lat":43.30646,"lon":5.4005,"is_reserved":false,"is_disabled":false,"rental_uris":{"android":"levelo://app?vid=9732b7e1-1614-4bf9-9ec9-f2c1bbf4aeb4","ios":"levelo://app?vid=9732b7e1-1614-4bf9-9ec9-f2c1bbf4aeb4"},"vehicle_type_id":"4","last_reported":1746320291,"current_range_meters":16000,"station_id":"ce4bh112rcd13ifvqda0","pricing_plan_id":"cebpf4jnsgd1na2vs0mg"},{"bike_id":"53fc6da9-e514-40a1-930a-132fbcae5612","system_id":"levelo_inurba_marseille","lat":43.258217,"lon":5.39438,"is_reserved":false,"is_disabled":false,"rental_uris":{"android":"levelo://app?vid=53fc6da9-e514-40a1-930a-132fbcae5612","ios":"levelo://app?vid=53fc6da9-e514-40a1-930a-132fbcae5612"},"vehicle_type_id":"4","last_reported":1746320291,"current_range_meters":16000,"station_id":"ce4bhip2rcd13ifvqft0","pricing_plan_id":"cebpf4jnsgd1na2vs0mg"},{"bike_id":"0a2549c6-5ea2-4f90-b993-e69e58fc141f","system_id":"levelo_inurba_marseille","lat":43.309399,"lon":5.401427,"is_reserved":false,"is_disabled":false,"rental_uris":{"android":"levelo://app?vid=0a2549c6-5ea2-4f90-b993-e69e58fc141f","ios":"levelo://app?vid=0a2549c6-5ea2-4f90-b993-e69e58fc141f"},"vehicle_type_id":"4","last_reported":1746320291,"current_range_meters":16000,"station_id":"ce4bgvp2rcd13ifvqct0","pricing_plan_id":"cebpf4jnsgd1na2vs0mg"},{"bike_id":"7f94af4d-81ec-4f11-8ad5-90fb2fdafca2","system_id":"levelo_inurba_marseille","lat":43.28043,"lon":5.36935,"is_reserved":false,"is_disabled":false,"rental_uris":{"android":"levelo://app?vid=7f94af4d-81ec-4f11-8ad5-90fb2fdafca2","ios":"levelo://app?vid=7f94af4d-81ec-4f11-8ad5-90fb2fdafca2"},"vehicle_type_id":"4","last_reported":1746320291,"current_range_meters":16000,"station_id":"ce4bha12rcd13ifvqef0","pricing_plan_id":"cebpf4jnsgd1na2vs0mg"},{"bike_id":"4cc851da-e1ec-42ff-95e4-8b92ad8a1e2f","system_id":"levelo_inurba_marseille","lat":43.30025,"lon":5.4018,"is_reserved":false,"is_disabled":false,"rental_uris":{"android":"levelo://app?vid=4cc851da-e1ec-42ff-95e4-8b92ad8a1e2f","ios":"levelo://app?vid=4cc851da-e1ec-42ff-95e4-8b92ad8a1e2f"},"vehicle_type_id":"4","last_reported":1746320291,"current_range_meters":16000,"station_id":"","pricing_plan_id":"cebpf4jnsgd1na2vs0mg"},{"bike_id":"25c8eca9-2d86-4deb-a7b1-2d8cb07d4908","system_id":"levelo_inurba_marseille","lat":43.28152,"lon":5.42648,"is_reserved":false,"is_disabled":false,"rental_uris":{"android":"levelo://app?vid=25c8eca9-2d86-4deb-a7b1-2d8cb07d4908","ios":"levelo://app?vid=25c8eca9-2d86-4deb-a7b1-2d8cb07d4908"},"vehicle_type_id":"4","last_reported":1746320291,"current_range_meters":16400,"station_id":"ce4bhnh2rcd13ifvqgug","pricing_plan_id":"cebpf4jnsgd1na2vs0mg"},{"bike_id":"72b1a15f-3a8a-421a-a50d-f39aa38bc6e9","system_id":"levelo_inurba_marseille","lat":43.27809,"lon":5.40712,"is_reserved":false,"is_disabled":false,"rental_uris":{"android":"levelo://app?vid=72b1a15f-3a8a-421a-a50d-f39aa38bc6e9","ios":"levelo://app?vid=72b1a15f-3a8a-421a-a50d-f39aa38bc6e9"},"vehicle_type_id":"4","last_reported":1746320291,"current_range_meters":16400,"station_id":"ce4bhnh2rcd13ifvqgtg","pricing_plan_id":"cebpf4jnsgd1na2vs0mg"},{"bike_id":"3fc50421-bf2e-4eb8-add1-8a06c1212eff","system_id":"levelo_inurba_marseille","lat":43.30913,"lon":5.3684,"is_reserved":false,"is_disabled":false,"rental_uris":{"android":"levelo://app?vid=3fc50421-bf2e-4eb8-add1-8a06c1212eff","ios":"levelo://app?vid=3fc50421-bf2e-4eb8-add1-8a06c1212eff"},"vehicle_type_id":"4","last_reported":1746320291,"current_range_meters":16400,"station_id":"ce4bgn92rcd13ifvqbvg","pricing_plan_id":"cebpf4jnsgd1na2vs0mg"},{"bike_id":"e6ba4889-a347-4178-9631-a467b0482f4b","system_id":"levelo_inurba_marseille","lat":43.31131,"lon":5.388399,"is_reserved":false,"is_disabled":false,"rental_uris":{"android":"levelo://app?vid=e6ba4889-a347-4178-9631-a467b0482f4b","ios":"levelo://app?vid=e6ba4889-a347-4178-9631-a467b0482f4b"},"vehicle_type_id":"4","last_reported":1746320291,"current_range_meters":16400,"station_id":"ce4bgv12rcd13ifvqcp0","pricing_plan_id":"cebpf4jnsgd1na2vs0mg"},{"bike_id":"c32943ac-aef3-40e0-8402-da74c209576d","system_id":"levelo_inurba_marseille","lat":43.2742,"lon":5.39418,"is_reserved":false,"is_disabled":false,"rental_uris":{"android":"levelo://app?vid=c32943ac-aef3-40e0-8402-da74c209576d","ios":"levelo://app?vid=c32943ac-aef3-40e0-8402-da74c209576d"},"vehicle_type_id":"4","last_reported":1746320291,"current_range_meters":16400,"station_id":"ce4bhdp2rcd13ifvqf20","pricing_plan_id":"cebpf4jnsgd1na2vs0mg"},{"bike_id":"985a90ce-d60b-4656-8d16-86293aa1f9f9","system_id":"levelo_inurba_marseille","lat":43.29256,"lon":5.40901,"is_reserved":false,"is_disabled":false,"rental_uris":{"android":"levelo://app?vid=985a90ce-d60b-4656-8d16-86293aa1f9f9","ios":"levelo://app?vid=985a90ce-d60b-4656-8d16-86293aa1f9f9"},"vehicle_type_id":"4","last_reported":1746320291,"current_range_meters":16400,"station_id":"ce4bh192rcd13ifvqdc0","pricing_plan_id":"cebpf4jnsgd1na2vs0mg"},{"bike_id":"a4f9e8d7-c60b-4569-9e6a-ca435fceed0a","system_id":"levelo_inurba_marseille","lat":43.275726,"lon":5.384208,"is_reserved":false,"is_disabled":false,"rental_uris":{"android":"levelo://app?vid=a4f9e8d7-c60b-4569-9e6a-ca435fceed0a","ios":"levelo://app?vid=a4f9e8d7-c60b-4569-9e6a-ca435fceed0a"},"vehicle_type_id":"4","last_reported":1746320291,"current_range_meters":16400,"station_id":"ce4bhh92rcd13ifvqfi0","pricing_plan_id":"cebpf4jnsgd1na2vs0mg"},{"bike_id":"4c0f1bae-acca-4334-97c0-b52c7888e04d","system_id":"levelo_inurba_marseille","lat":43.24804,"lon":5.37457,"is_reserved":false,"is_disabled":false,"rental_uris":{"android":"levelo://app?vid=4c0f1bae-acca-4334-97c0-b52c7888e04d","ios":"levelo://app?vid=4c0f1bae-acca-4334-97c0-b52c7888e04d"},"vehicle_type_id":"4","last_reported":1746320291,"current_range_meters":16800,"station_id":"ce4bhgh2rcd13ifvqfb0","pricing_plan_id":"cebpf4jnsgd1na2vs0mg"},{"bike_id":"89495ce3-df66-43fb-8f85-7abcf880f22b","system_id":"levelo_inurba_marseille","lat":43.29706,"lon":5.36612,"is_reserved":false,"is_disabled":false,"rental_uris":{"android":"levelo://app?vid=89495ce3-df66-43fb-8f85-7abcf880f22b","ios":"levelo://app?vid=89495ce3-df66-43fb-8f85-7abcf880f22b"},"vehicle_type_id":"4","last_reported":1746320291,"current_range_meters":16800,"station_id":"ce4bgn12rcd13ifvqbt0","pricing_plan_id":"cebpf4jnsgd1na2vs0mg"},{"bike_id":"2daf09ec-1696-4167-9e55-54a2898d3406","system_id":"levelo_inurba_marseille","lat":43.31364,"lon":5.38486,"is_reserved":false,"is_disabled":false,"rental_uris":{"android":"levelo://app?vid=2daf09ec-1696-4167-9e55-54a2898d3406","ios":"levelo://app?vid=2daf09ec-1696-4167-9e55-54a2898d3406"},"vehicle_type_id":"4","last_reported":1746320291,"current_range_meters":16800,"station_id":"ce4bgt92rcd13ifvqcf0","pricing_plan_id":"cebpf4jnsgd1na2vs0mg"},{"bike_id":"7fba94fb-3d5e-4a7d-abc5-e37723a96b55","system_id":"levelo_inurba_marseille","lat":43.23159,"lon":5.43713,"is_reserved":false,"is_disabled":false,"rental_uris":{"android":"levelo://app?vid=7fba94fb-3d5e-4a7d-abc5-e37723a96b55","ios":"levelo://app?vid=7fba94fb-3d5e-4a7d-abc5-e37723a96b55"},"vehicle_type_id":"4","last_reported":1746320291,"current_range_meters":16800,"station_id":"ce4bhmp2rcd13ifvqgog","pricing_plan_id":"cebpf4jnsgd1na2vs0mg"},{"bike_id":"fb2dc60d-6652-473d-a686-f9c92c21a630","system_id":"levelo_inurba_marseille","lat":43.29558,"lon":5.42265,"is_reserved":false,"is_disabled":false,"rental_uris":{"android":"levelo://app?vid=fb2dc60d-6652-473d-a686-f9c92c21a630","ios":"levelo://app?vid=fb2dc60d-6652-473d-a686-f9c92c21a630"},"vehicle_type_id":"4","last_reported":1746320291,"current_range_meters":16800,"station_id":"ce4bhph2rcd13ifvqhdg","pricing_plan_id":"cebpf4jnsgd1na2vs0mg"},{"bike_id":"0c86f7c5-5a71-4b5a-a769-ceb3451e1da9","system_id":"levelo_inurba_marseille","lat":43.31684,"lon":5.40465,"is_reserved":false,"is_disabled":false,"rental_uris":{"android":"levelo://app?vid=0c86f7c5-5a71-4b5a-a769-ceb3451e1da9","ios":"levelo://app?vid=0c86f7c5-5a71-4b5a-a769-ceb3451e1da9"},"vehicle_type_id":"4","last_reported":1746320291,"current_range_meters":16800,"station_id":"ce4bh012rcd13ifvqd00","pricing_plan_id":"cebpf4jnsgd1na2vs0mg"},{"bike_id":"50b837a0-2c82-46d2-8800-80f330abaac7","system_id":"levelo_inurba_marseille","lat":43.31253,"lon":5.40173,"is_reserved":false,"is_disabled":false,"rental_uris":{"android":"levelo://app?vid=50b837a0-2c82-46d2-8800-80f330abaac7","ios":"levelo://app?vid=50b837a0-2c82-46d2-8800-80f330abaac7"},"vehicle_type_id":"4","last_reported":1746320291,"current_range_meters":16800,"station_id":"ce4bh092rcd13ifvqd30","pricing_plan_id":"cebpf4jnsgd1na2vs0mg"},{"bike_id":"cc39cdc5-0417-4f88-b75a-a7a63ab3f1d6","system_id":"levelo_inurba_marseille","lat":43.3137,"lon":5.38256,"is_reserved":false,"is_disabled":false,"rental_uris":{"android":"levelo://app?vid=cc39cdc5-0417-4f88-b75a-a7a63ab3f1d6","ios":"levelo://app?vid=cc39cdc5-0417-4f88-b75a-a7a63ab3f1d6"},"vehicle_type_id":"4","last_reported":1746320291,"current_range_meters":16800,"station_id":"","pricing_plan_id":"cebpf4jnsgd1na2vs0mg"},{"bike_id":"696b71f0-972e-4fa6-831c-b2001014ab23","system_id":"levelo_inurba_marseille","lat":43.251283,"lon":5.40307,"is_reserved":false,"is_disabled":false,"rental_uris":{"android":"levelo://app?vid=696b71f0-972e-4fa6-831c-b2001014ab23","ios":"levelo://app?vid=696b71f0-972e-4fa6-831c-b2001014ab23"},"vehicle_type_id":"4","last_reported":1746320291,"current_range_meters":16800,"station_id":"ce4bhlh2rcd13ifvqgig","pricing_plan_id":"cebpf4jnsgd1na2vs0mg"},{"bike_id":"52b2b11c-fa93-4c1e-a120-3fdc360b4a73","system_id":"levelo_inurba_marseille","lat":43.28039,"lon":5.36951,"is_reserved":false,"is_disabled":false,"rental_uris":{"android":"levelo://app?vid=52b2b11c-fa93-4c1e-a120-3fdc360b4a73","ios":"levelo://app?vid=52b2b11c-fa93-4c1e-a120-3fdc360b4a73"},"vehicle_type_id":"4","last_reported":1746320291,"current_range_meters":16800,"station_id":"ce4bha12rcd13ifvqef0","pricing_plan_id":"cebpf4jnsgd1na2vs0mg"},{"bike_id":"b71d8acd-6d74-4ca7-a3ef-bfd622382475","system_id":"levelo_inurba_marseille","lat":43.23177,"lon":5.39985,"is_reserved":false,"is_disabled":false,"rental_uris":{"android":"levelo://app?vid=b71d8acd-6d74-4ca7-a3ef-bfd622382475","ios":"levelo://app?vid=b71d8acd-6d74-4ca7-a3ef-bfd622382475"},"vehicle_type_id":"4","last_reported":1746320291,"current_range_meters":17200,"station_id":"ce4bhn12rcd13ifvqgqg","pricing_plan_id":"cebpf4jnsgd1na2vs0mg"},{"bike_id":"f0f6b689-09e9-465d-afc6-1ec70b024348","system_id":"levelo_inurba_marseille","lat":43.31323,"lon":5.39693,"is_reserved":false,"is_disabled":false,"rental_uris":{"android":"levelo://app?vid=f0f6b689-09e9-465d-afc6-1ec70b024348","ios":"levelo://app?vid=f0f6b689-09e9-465d-afc6-1ec70b024348"},"vehicle_type_id":"4","last_reported":1746320291,"current_range_meters":17200,"station_id":"ce4bgvp2rcd13ifvqcu0","pricing_plan_id":"cebpf4jnsgd1na2vs0mg"},{"bike_id":"f7f987e0-e8eb-4938-8580-30bf9ce9f2fe","system_id":"levelo_inurba_marseille","lat":43.24808,"lon":5.37456,"is_reserved":false,"is_disabled":false,"rental_uris":{"android":"levelo://app?vid=f7f987e0-e8eb-4938-8580-30bf9ce9f2fe","ios":"levelo://app?vid=f7f987e0-e8eb-4938-8580-30bf9ce9f2fe"},"vehicle_type_id":"4","last_reported":1746320291,"current_range_meters":17200,"station_id":"ce4bhgh2rcd13ifvqfb0","pricing_plan_id":"cebpf4jnsgd1na2vs0mg"},{"bike_id":"8a1c92bd-6777-477a-9eaf-2b1631a1f0a6","system_id":"levelo_inurba_marseille","lat":43.3093,"lon":5.40145,"is_reserved":false,"is_disabled":false,"rental_uris":{"android":"levelo://app?vid=8a1c92bd-6777-477a-9eaf-2b1631a1f0a6","ios":"levelo://app?vid=8a1c92bd-6777-477a-9eaf-2b1631a1f0a6"},"vehicle_type_id":"4","last_reported":1746320291,"current_range_meters":17200,"station_id":"ce4bgvp2rcd13ifvqct0","pricing_plan_id":"cebpf4jnsgd1na2vs0mg"},{"bike_id":"ae97f59b-b48e-402b-9ac2-2eba71290cd1","system_id":"levelo_inurba_marseille","lat":43.30937,"lon":5.40148,"is_reserved":false,"is_disabled":false,"rental_uris":{"android":"levelo://app?vid=ae97f59b-b48e-402b-9ac2-2eba71290cd1","ios":"levelo://app?vid=ae97f59b-b48e-402b-9ac2-2eba71290cd1"},"vehicle_type_id":"4","last_reported":1746320291,"current_range_meters":17200,"station_id":"ce4bgvp2rcd13ifvqct0","pricing_plan_id":"cebpf4jnsgd1na2vs0mg"},{"bike_id":"e84eee43-7ebe-4b56-a08b-27d6e58561fd","system_id":"levelo_inurba_marseille","lat":43.24181,"lon":5.397433,"is_reserved":false,"is_disabled":false,"rental_uris":{"android":"levelo://app?vid=e84eee43-7ebe-4b56-a08b-27d6e58561fd","ios":"levelo://app?vid=e84eee43-7ebe-4b56-a08b-27d6e58561fd"},"vehicle_type_id":"4","last_reported":1746320291,"current_range_meters":17200,"station_id":"ce4bhn12rcd13ifvqgpg","pricing_plan_id":"cebpf4jnsgd1na2vs0mg"},{"bike_id":"f465d441-dee5-4916-a2b2-63b707c25a24","system_id":"levelo_inurba_marseille","lat":43.31356,"lon":5.38496,"is_reserved":false,"is_disabled":false,"rental_uris":{"android":"levelo://app?vid=f465d441-dee5-4916-a2b2-63b707c25a24","ios":"levelo://app?vid=f465d441-dee5-4916-a2b2-63b707c25a24"},"vehicle_type_id":"4","last_reported":1746320291,"current_range_meters":17200,"station_id":"ce4bgt92rcd13ifvqcf0","pricing_plan_id":"cebpf4jnsgd1na2vs0mg"},{"bike_id":"073ee896-7ffd-4eeb-ba0c-a255d4c8e537","system_id":"levelo_inurba_marseille","lat":43.25737,"lon":5.41115,"is_reserved":false,"is_disabled":false,"rental_uris":{"android":"levelo://app?vid=073ee896-7ffd-4eeb-ba0c-a255d4c8e537","ios":"levelo://app?vid=073ee896-7ffd-4eeb-ba0c-a255d4c8e537"},"vehicle_type_id":"4","last_reported":1746320291,"current_range_meters":17200,"station_id":"ce4bhkp2rcd13ifvqgd0","pricing_plan_id":"cebpf4jnsgd1na2vs0mg"},{"bike_id":"43f220ab-0408-46b3-abe5-60437ce3bc1e","system_id":"levelo_inurba_marseille","lat":43.231917,"lon":5.355485,"is_reserved":false,"is_disabled":false,"rental_uris":{"android":"levelo://app?vid=43f220ab-0408-46b3-abe5-60437ce3bc1e","ios":"levelo://app?vid=43f220ab-0408-46b3-abe5-60437ce3bc1e"},"vehicle_type_id":"4","last_reported":1746320291,"current_range_meters":17600,"station_id":"ce4bhu92rcd13ifvqi70","pricing_plan_id":"cebpf4jnsgd1na2vs0mg"},{"bike_id":"fdef9e55-be0f-41e0-8526-8e8fa7260880","system_id":"levelo_inurba_marseille","lat":43.312862,"lon":5.373944,"is_reserved":false,"is_disabled":false,"rental_uris":{"android":"levelo://app?vid=fdef9e55-be0f-41e0-8526-8e8fa7260880","ios":"levelo://app?vid=fdef9e55-be0f-41e0-8526-8e8fa7260880"},"vehicle_type_id":"4","last_reported":1746320291,"current_range_meters":17600,"station_id":"","pricing_plan_id":"cebpf4jnsgd1na2vs0mg"},{"bike_id":"7ebb70cc-fd03-475b-980f-aca77de5d23a","system_id":"levelo_inurba_marseille","lat":43.30922,"lon":5.4014,"is_reserved":false,"is_disabled":false,"rental_uris":{"android":"levelo://app?vid=7ebb70cc-fd03-475b-980f-aca77de5d23a","ios":"levelo://app?vid=7ebb70cc-fd03-475b-980f-aca77de5d23a"},"vehicle_type_id":"4","last_reported":1746320291,"current_range_meters":17600,"station_id":"ce4bgvp2rcd13ifvqct0","pricing_plan_id":"cebpf4jnsgd1na2vs0mg"},{"bike_id":"83ac374c-b8f1-4572-bdb1-e1729e4aa079","system_id":"levelo_inurba_marseille","lat":43.31371,"lon":5.38496,"is_reserved":false,"is_disabled":false,"rental_uris":{"android":"levelo://app?vid=83ac374c-b8f1-4572-bdb1-e1729e4aa079","ios":"levelo://app?vid=83ac374c-b8f1-4572-bdb1-e1729e4aa079"},"vehicle_type_id":"4","last_reported":1746320291,"current_range_meters":17600,"station_id":"ce4bgt92rcd13ifvqcf0","pricing_plan_id":"cebpf4jnsgd1na2vs0mg"},{"bike_id":"d4a36928-bf03-4e4f-92ec-5cf48e8bc213","system_id":"levelo_inurba_marseille","lat":43.302,"lon":5.3946,"is_reserved":false,"is_disabled":false,"rental_uris":{"android":"levelo://app?vid=d4a36928-bf03-4e4f-92ec-5cf48e8bc213","ios":"levelo://app?vid=d4a36928-bf03-4e4f-92ec-5cf48e8bc213"},"vehicle_type_id":"4","last_reported":1746320291,"current_range_meters":17600,"station_id":"ce4bh0p2rcd13ifvqd70","pricing_plan_id":"cebpf4jnsgd1na2vs0mg"},{"bike_id":"f224d383-dc27-40eb-8c1e-10ec52584ba2","system_id":"levelo_inurba_marseille","lat":43.32544,"lon":5.41431,"is_reserved":false,"is_disabled":false,"rental_uris":{"android":"levelo://app?vid=f224d383-dc27-40eb-8c1e-10ec52584ba2","ios":"levelo://app?vid=f224d383-dc27-40eb-8c1e-10ec52584ba2"},"vehicle_type_id":"4","last_reported":1746320291,"current_range_meters":17600,"station_id":"ce4bhq12rcd13ifvqhhg","pricing_plan_id":"cebpf4jnsgd1na2vs0mg"},{"bike_id":"e68b0c4a-61cb-4bcc-ba7f-08dec1f8473d","system_id":"levelo_inurba_marseille","lat":43.30146,"lon":5.38085,"is_reserved":false,"is_disabled":false,"rental_uris":{"android":"levelo://app?vid=e68b0c4a-61cb-4bcc-ba7f-08dec1f8473d","ios":"levelo://app?vid=e68b0c4a-61cb-4bcc-ba7f-08dec1f8473d"},"vehicle_type_id":"4","last_reported":1746320291,"current_range_meters":18000,"station_id":"ce4bgjp2rcd13ifvqbh0","pricing_plan_id":"cebpf4jnsgd1na2vs0mg"},{"bike_id":"da86dbc1-1e83-43ca-9dfc-bf9622d5f196","system_id":"levelo_inurba_marseille","lat":43.30331,"lon":5.40456,"is_reserved":false,"is_disabled":false,"rental_uris":{"android":"levelo://app?vid=da86dbc1-1e83-43ca-9dfc-bf9622d5f196","ios":"levelo://app?vid=da86dbc1-1e83-43ca-9dfc-bf9622d5f196"},"vehicle_type_id":"4","last_reported":1746320291,"current_range_meters":18000,"station_id":"ce4bh012rcd13ifvqd10","pricing_plan_id":"cebpf4jnsgd1na2vs0mg"},{"bike_id":"2b44e6f2-5bd4-4a13-93f7-f9b3275649b0","system_id":"levelo_inurba_marseille","lat":43.2408,"lon":5.37752,"is_reserved":false,"is_disabled":false,"rental_uris":{"android":"levelo://app?vid=2b44e6f2-5bd4-4a13-93f7-f9b3275649b0","ios":"levelo://app?vid=2b44e6f2-5bd4-4a13-93f7-f9b3275649b0"},"vehicle_type_id":"4","last_reported":1746320291,"current_range_meters":18000,"station_id":"ce4bhnp2rcd13ifvqgvg","pricing_plan_id":"cebpf4jnsgd1na2vs0mg"},{"bike_id":"fff989e9-64dd-40de-8a4c-e30222516b94","system_id":"levelo_inurba_marseille","lat":43.28145,"lon":5.42648,"is_reserved":false,"is_disabled":false,"rental_uris":{"android":"levelo://app?vid=fff989e9-64dd-40de-8a4c-e30222516b94","ios":"levelo://app?vid=fff989e9-64dd-40de-8a4c-e30222516b94"},"vehicle_type_id":"4","last_reported":1746320291,"current_range_meters":18000,"station_id":"ce4bhnh2rcd13ifvqgug","pricing_plan_id":"cebpf4jnsgd1na2vs0mg"},{"bike_id":"e8eb8847-7440-4150-b035-2a67aad980bf","system_id":"levelo_inurba_marseille","lat":43.25103,"lon":5.40322,"is_reserved":false,"is_disabled":false,"rental_uris":{"android":"levelo://app?vid=e8eb8847-7440-4150-b035-2a67aad980bf","ios":"levelo://app?vid=e8eb8847-7440-4150-b035-2a67aad980bf"},"vehicle_type_id":"4","last_reported":1746320291,"current_range_meters":18000,"station_id":"ce4bhlh2rcd13ifvqgig","pricing_plan_id":"cebpf4jnsgd1na2vs0mg"},{"bike_id":"66223c10-b75f-46be-aafb-42e1395c771d","system_id":"levelo_inurba_marseille","lat":43.28065,"lon":5.3964,"is_reserved":false,"is_disabled":false,"rental_uris":{"android":"levelo://app?vid=66223c10-b75f-46be-aafb-42e1395c771d","ios":"levelo://app?vid=66223c10-b75f-46be-aafb-42e1395c771d"},"vehicle_type_id":"4","last_reported":1746320291,"current_range_meters":18000,"station_id":"ce4bho12rcd13ifvqh2g","pricing_plan_id":"cebpf4jnsgd1na2vs0mg"},{"bike_id":"ed18508f-1431-4895-9241-da34b0a7ca80","system_id":"levelo_inurba_marseille","lat":43.313667,"lon":5.384978,"is_reserved":false,"is_disabled":false,"rental_uris":{"android":"levelo://app?vid=ed18508f-1431-4895-9241-da34b0a7ca80","ios":"levelo://app?vid=ed18508f-1431-4895-9241-da34b0a7ca80"},"vehicle_type_id":"4","last_reported":1746320291,"current_range_meters":18000,"station_id":"ce4bgt92rcd13ifvqcf0","pricing_plan_id":"cebpf4jnsgd1na2vs0mg"},{"bike_id":"fdd3a044-c100-4ae4-bba4-ffc67e687045","system_id":"levelo_inurba_marseille","lat":43.31229,"lon":5.3687,"is_reserved":false,"is_disabled":false,"rental_uris":{"android":"levelo://app?vid=fdd3a044-c100-4ae4-bba4-ffc67e687045","ios":"levelo://app?vid=fdd3a044-c100-4ae4-bba4-ffc67e687045"},"vehicle_type_id":"4","last_reported":1746320291,"current_range_meters":18000,"station_id":"ce4bgl92rcd13ifvqbq0","pricing_plan_id":"cebpf4jnsgd1na2vs0mg"},{"bike_id":"838953c0-5207-4dd4-a4c4-6cd84e5c58c8","system_id":"levelo_inurba_marseille","lat":43.28041,"lon":5.36933,"is_reserved":false,"is_disabled":false,"rental_uris":{"android":"levelo://app?vid=838953c0-5207-4dd4-a4c4-6cd84e5c58c8","ios":"levelo://app?vid=838953c0-5207-4dd4-a4c4-6cd84e5c58c8"},"vehicle_type_id":"4","last_reported":1746320291,"current_range_meters":18800,"station_id":"ce4bha12rcd13ifvqef0","pricing_plan_id":"cebpf4jnsgd1na2vs0mg"},{"bike_id":"44a4c1aa-e659-41ae-8ef4-e3bc1e502d2a","system_id":"levelo_inurba_marseille","lat":43.323643,"lon":5.367569,"is_reserved":false,"is_disabled":false,"rental_uris":{"android":"levelo://app?vid=44a4c1aa-e659-41ae-8ef4-e3bc1e502d2a","ios":"levelo://app?vid=44a4c1aa-e659-41ae-8ef4-e3bc1e502d2a"},"vehicle_type_id":"4","last_reported":1746320291,"current_range_meters":18800,"station_id":"ce4bhsh2rcd13ifvqi2g","pricing_plan_id":"cebpf4jnsgd1na2vs0mg"},{"bike_id":"1cb20923-3b0d-4df1-a3ee-be944d3f904f","system_id":"levelo_inurba_marseille","lat":43.32256,"lon":5.40677,"is_reserved":false,"is_disabled":false,"rental_uris":{"android":"levelo://app?vid=1cb20923-3b0d-4df1-a3ee-be944d3f904f","ios":"levelo://app?vid=1cb20923-3b0d-4df1-a3ee-be944d3f904f"},"vehicle_type_id":"4","last_reported":1746320291,"current_range_meters":18800,"station_id":"ce4bhq92rcd13ifvqhjg","pricing_plan_id":"cebpf4jnsgd1na2vs0mg"},{"bike_id":"f5fe04f3-1719-451f-828f-ee7689c2514d","system_id":"levelo_inurba_marseille","lat":43.31273,"lon":5.40158,"is_reserved":false,"is_disabled":false,"rental_uris":{"android":"levelo://app?vid=f5fe04f3-1719-451f-828f-ee7689c2514d","ios":"levelo://app?vid=f5fe04f3-1719-451f-828f-ee7689c2514d"},"vehicle_type_id":"4","last_reported":1746320291,"current_range_meters":18800,"station_id":"ce4bh092rcd13ifvqd30","pricing_plan_id":"cebpf4jnsgd1na2vs0mg"},{"bike_id":"4f86003a-4bda-480f-becc-b4f53e6e3826","system_id":"levelo_inurba_marseille","lat":43.24547,"lon":5.39526,"is_reserved":false,"is_disabled":false,"rental_uris":{"android":"levelo://app?vid=4f86003a-4bda-480f-becc-b4f53e6e3826","ios":"levelo://app?vid=4f86003a-4bda-480f-becc-b4f53e6e3826"},"vehicle_type_id":"4","last_reported":1746320291,"current_range_meters":18800,"station_id":"ce4bhlp2rcd13ifvqgjg","pricing_plan_id":"cebpf4jnsgd1na2vs0mg"},{"bike_id":"020b5a72-3ed4-4efa-ac90-fde34228cf06","system_id":"levelo_inurba_marseille","lat":43.30774,"lon":5.37653,"is_reserved":false,"is_disabled":false,"rental_uris":{"android":"levelo://app?vid=020b5a72-3ed4-4efa-ac90-fde34228cf06","ios":"levelo://app?vid=020b5a72-3ed4-4efa-ac90-fde34228cf06"},"vehicle_type_id":"4","last_reported":1746320291,"current_range_meters":19200,"station_id":"ce4bgv92rcd13ifvqcq0","pricing_plan_id":"cebpf4jnsgd1na2vs0mg"},{"bike_id":"0abe7365-362a-4c2d-949a-e32faf9d4099","system_id":"levelo_inurba_marseille","lat":43.2123,"lon":5.35162,"is_reserved":false,"is_disabled":true,"rental_uris":{"android":"levelo://app?vid=0abe7365-362a-4c2d-949a-e32faf9d4099","ios":"levelo://app?vid=0abe7365-362a-4c2d-949a-e32faf9d4099"},"vehicle_type_id":"4","last_reported":1746320291,"current_range_meters":19200,"station_id":"","pricing_plan_id":"cebpf4jnsgd1na2vs0mg"},{"bike_id":"c934a038-999c-4097-b244-e68883d621e3","system_id":"levelo_inurba_marseille","lat":43.30534,"lon":5.36518,"is_reserved":false,"is_disabled":true,"rental_uris":{"android":"levelo://app?vid=c934a038-999c-4097-b244-e68883d621e3","ios":"levelo://app?vid=c934a038-999c-4097-b244-e68883d621e3"},"vehicle_type_id":"4","last_reported":1746320291,"current_range_meters":19200,"station_id":"ce4bgs12rcd13ifvqcag","pricing_plan_id":"cebpf4jnsgd1na2vs0mg"},{"bike_id":"f07b7a60-3b87-4c84-bf81-5b352a5b5bd7","system_id":"levelo_inurba_marseille","lat":43.3304,"lon":5.39046,"is_reserved":false,"is_disabled":false,"rental_uris":{"android":"levelo://app?vid=f07b7a60-3b87-4c84-bf81-5b352a5b5bd7","ios":"levelo://app?vid=f07b7a60-3b87-4c84-bf81-5b352a5b5bd7"},"vehicle_type_id":"4","last_reported":1746320291,"current_range_meters":19200,"station_id":"ce4bhr92rcd13ifvqhrg","pricing_plan_id":"cebpf4jnsgd1na2vs0mg"},{"bike_id":"8c48f210-1ece-4c20-bb47-8ef2235ac6c4","system_id":"levelo_inurba_marseille","lat":43.25099,"lon":5.40338,"is_reserved":false,"is_disabled":false,"rental_uris":{"android":"levelo://app?vid=8c48f210-1ece-4c20-bb47-8ef2235ac6c4","ios":"levelo://app?vid=8c48f210-1ece-4c20-bb47-8ef2235ac6c4"},"vehicle_type_id":"4","last_reported":1746320291,"current_range_meters":19200,"station_id":"ce4bhlh2rcd13ifvqgig","pricing_plan_id":"cebpf4jnsgd1na2vs0mg"},{"bike_id":"0a0ece37-539d-4aa3-b235-deb8a4daf593","system_id":"levelo_inurba_marseille","lat":43.3307,"lon":5.40832,"is_reserved":false,"is_disabled":false,"rental_uris":{"android":"levelo://app?vid=0a0ece37-539d-4aa3-b235-deb8a4daf593","ios":"levelo://app?vid=0a0ece37-539d-4aa3-b235-deb8a4daf593"},"vehicle_type_id":"4","last_reported":1746320291,"current_range_meters":19200,"station_id":"","pricing_plan_id":"cebpf4jnsgd1na2vs0mg"},{"bike_id":"c627b57c-a364-4991-bf18-9b2dfa26592e","system_id":"levelo_inurba_marseille","lat":43.23141,"lon":5.43716,"is_reserved":false,"is_disabled":false,"rental_uris":{"android":"levelo://app?vid=c627b57c-a364-4991-bf18-9b2dfa26592e","ios":"levelo://app?vid=c627b57c-a364-4991-bf18-9b2dfa26592e"},"vehicle_type_id":"4","last_reported":1746320291,"current_range_meters":19600,"station_id":"ce4bhmp2rcd13ifvqgog","pricing_plan_id":"cebpf4jnsgd1na2vs0mg"},{"bike_id":"87037ce5-a73f-44ad-84fe-8059f94d6ba7","system_id":"levelo_inurba_marseille","lat":43.24651,"lon":5.38892,"is_reserved":false,"is_disabled":false,"rental_uris":{"android":"levelo://app?vid=87037ce5-a73f-44ad-84fe-8059f94d6ba7","ios":"levelo://app?vid=87037ce5-a73f-44ad-84fe-8059f94d6ba7"},"vehicle_type_id":"4","last_reported":1746320291,"current_range_meters":19600,"station_id":"ce4bhg12rcd13ifvqf60","pricing_plan_id":"cebpf4jnsgd1na2vs0mg"},{"bike_id":"7bf6a437-cc4c-4bf4-92ca-efcf86e0ad1e","system_id":"levelo_inurba_marseille","lat":43.28034,"lon":5.36946,"is_reserved":false,"is_disabled":false,"rental_uris":{"android":"levelo://app?vid=7bf6a437-cc4c-4bf4-92ca-efcf86e0ad1e","ios":"levelo://app?vid=7bf6a437-cc4c-4bf4-92ca-efcf86e0ad1e"},"vehicle_type_id":"4","last_reported":1746320291,"current_range_meters":19600,"station_id":"ce4bha12rcd13ifvqef0","pricing_plan_id":"cebpf4jnsgd1na2vs0mg"},{"bike_id":"3ff1331f-d2b9-4db6-9af0-17b5a04341a5","system_id":"levelo_inurba_marseille","lat":43.24333,"lon":5.37998,"is_reserved":false,"is_disabled":false,"rental_uris":{"android":"levelo://app?vid=3ff1331f-d2b9-4db6-9af0-17b5a04341a5","ios":"levelo://app?vid=3ff1331f-d2b9-4db6-9af0-17b5a04341a5"},"vehicle_type_id":"4","last_reported":1746320291,"current_range_meters":19600,"station_id":"","pricing_plan_id":"cebpf4jnsgd1na2vs0mg"},{"bike_id":"ae43e540-4108-4c6d-87c5-913aa4323c4e","system_id":"levelo_inurba_marseille","lat":43.31363,"lon":5.384845,"is_reserved":false,"is_disabled":false,"rental_uris":{"android":"levelo://app?vid=ae43e540-4108-4c6d-87c5-913aa4323c4e","ios":"levelo://app?vid=ae43e540-4108-4c6d-87c5-913aa4323c4e"},"vehicle_type_id":"4","last_reported":1746320291,"current_range_meters":19600,"station_id":"ce4bgt92rcd13ifvqcf0","pricing_plan_id":"cebpf4jnsgd1na2vs0mg"},{"bike_id":"f6c1dcb0-1295-4680-af32-4dc24d6ef29b","system_id":"levelo_inurba_marseille","lat":43.272051,"lon":5.391955,"is_reserved":false,"is_disabled":true,"rental_uris":{"android":"levelo://app?vid=f6c1dcb0-1295-4680-af32-4dc24d6ef29b","ios":"levelo://app?vid=f6c1dcb0-1295-4680-af32-4dc24d6ef29b"},"vehicle_type_id":"4","last_reported":1746320291,"current_range_meters":19600,"station_id":"ce4bhhp2rcd13ifvqfm0","pricing_plan_id":"cebpf4jnsgd1na2vs0mg"},{"bike_id":"1885e4e4-787e-4399-a182-13afb5671e8f","system_id":"levelo_inurba_marseille","lat":43.31758,"lon":5.38998,"is_reserved":false,"is_disabled":false,"rental_uris":{"android":"levelo://app?vid=1885e4e4-787e-4399-a182-13afb5671e8f","ios":"levelo://app?vid=1885e4e4-787e-4399-a182-13afb5671e8f"},"vehicle_type_id":"4","last_reported":1746320291,"current_range_meters":20000,"station_id":"ce4bhqp2rcd13ifvqhng","pricing_plan_id":"cebpf4jnsgd1na2vs0mg"},{"bike_id":"1e4c8eca-44f1-4bf0-b96f-01b79f3e652f","system_id":"levelo_inurba_marseille","lat":43.27943,"lon":5.41023,"is_reserved":false,"is_disabled":false,"rental_uris":{"android":"levelo://app?vid=1e4c8eca-44f1-4bf0-b96f-01b79f3e652f","ios":"levelo://app?vid=1e4c8eca-44f1-4bf0-b96f-01b79f3e652f"},"vehicle_type_id":"4","last_reported":1746320291,"current_range_meters":20000,"station_id":"ce4bhnp2rcd13ifvqh0g","pricing_plan_id":"cebpf4jnsgd1na2vs0mg"},{"bike_id":"deaaa427-571c-427d-9547-c1e8ea9c2cf6","system_id":"levelo_inurba_marseille","lat":43.31358,"lon":5.38494,"is_reserved":false,"is_disabled":false,"rental_uris":{"android":"levelo://app?vid=deaaa427-571c-427d-9547-c1e8ea9c2cf6","ios":"levelo://app?vid=deaaa427-571c-427d-9547-c1e8ea9c2cf6"},"vehicle_type_id":"4","last_reported":1746320291,"current_range_meters":20000,"station_id":"ce4bgt92rcd13ifvqcf0","pricing_plan_id":"cebpf4jnsgd1na2vs0mg"},{"bike_id":"ffed5df9-9158-4bc8-9118-308956cef2f4","system_id":"levelo_inurba_marseille","lat":43.275556,"lon":5.384178,"is_reserved":false,"is_disabled":false,"rental_uris":{"android":"levelo://app?vid=ffed5df9-9158-4bc8-9118-308956cef2f4","ios":"levelo://app?vid=ffed5df9-9158-4bc8-9118-308956cef2f4"},"vehicle_type_id":"4","last_reported":1746320291,"current_range_meters":20000,"station_id":"ce4bhh92rcd13ifvqfi0","pricing_plan_id":"cebpf4jnsgd1na2vs0mg"},{"bike_id":"18aefa71-d693-4c7a-ad10-16c34f8410c2","system_id":"levelo_inurba_marseille","lat":43.29052,"lon":5.3589,"is_reserved":false,"is_disabled":false,"rental_uris":{"android":"levelo://app?vid=18aefa71-d693-4c7a-ad10-16c34f8410c2","ios":"levelo://app?vid=18aefa71-d693-4c7a-ad10-16c34f8410c2"},"vehicle_type_id":"4","last_reported":1746320291,"current_range_meters":20000,"station_id":"ce4bha92rcd13ifvqeg0","pricing_plan_id":"cebpf4jnsgd1na2vs0mg"},{"bike_id":"eb8dcc7b-c65f-4892-b76c-da4b40bb75c4","system_id":"levelo_inurba_marseille","lat":43.24804,"lon":5.37461,"is_reserved":false,"is_disabled":false,"rental_uris":{"android":"levelo://app?vid=eb8dcc7b-c65f-4892-b76c-da4b40bb75c4","ios":"levelo://app?vid=eb8dcc7b-c65f-4892-b76c-da4b40bb75c4"},"vehicle_type_id":"4","last_reported":1746320291,"current_range_meters":20000,"station_id":"ce4bhgh2rcd13ifvqfb0","pricing_plan_id":"cebpf4jnsgd1na2vs0mg"},{"bike_id":"8536704e-961e-4868-ad07-81df77fc76eb","system_id":"levelo_inurba_marseille","lat":43.28998,"lon":5.35611,"is_reserved":false,"is_disabled":true,"rental_uris":{"android":"levelo://app?vid=8536704e-961e-4868-ad07-81df77fc76eb","ios":"levelo://app?vid=8536704e-961e-4868-ad07-81df77fc76eb"},"vehicle_type_id":"4","last_reported":1746320291,"current_range_meters":20400,"station_id":"ce4bhb92rcd13ifvqen0","pricing_plan_id":"cebpf4jnsgd1na2vs0mg"},{"bike_id":"aa92d9c4-c074-4855-80d8-2a3d76bab045","system_id":"levelo_inurba_marseille","lat":43.30534,"lon":5.36695,"is_reserved":false,"is_disabled":false,"rental_uris":{"android":"levelo://app?vid=aa92d9c4-c074-4855-80d8-2a3d76bab045","ios":"levelo://app?vid=aa92d9c4-c074-4855-80d8-2a3d76bab045"},"vehicle_type_id":"4","last_reported":1746320291,"current_range_meters":20400,"station_id":"ce4bgrp2rcd13ifvqc9g","pricing_plan_id":"cebpf4jnsgd1na2vs0mg"},{"bike_id":"80b6cdb5-6ba0-4f3c-b314-5ba2f45fad8c","system_id":"levelo_inurba_marseille","lat":43.29921,"lon":5.37484,"is_reserved":false,"is_disabled":false,"rental_uris":{"android":"levelo://app?vid=80b6cdb5-6ba0-4f3c-b314-5ba2f45fad8c","ios":"levelo://app?vid=80b6cdb5-6ba0-4f3c-b314-5ba2f45fad8c"},"vehicle_type_id":"4","last_reported":1746320291,"current_range_meters":20400,"station_id":"ce4bgjh2rcd13ifvqbg0","pricing_plan_id":"cebpf4jnsgd1na2vs0mg"},{"bike_id":"8e69649f-d5a0-4ead-b212-c5b5612beda7","system_id":"levelo_inurba_marseille","lat":43.25503,"lon":5.37636,"is_reserved":false,"is_disabled":true,"rental_uris":{"android":"levelo://app?vid=8e69649f-d5a0-4ead-b212-c5b5612beda7","ios":"levelo://app?vid=8e69649f-d5a0-4ead-b212-c5b5612beda7"},"vehicle_type_id":"4","last_reported":1746320291,"current_range_meters":20400,"station_id":"ce4bhh12rcd13ifvqff0","pricing_plan_id":"cebpf4jnsgd1na2vs0mg"},{"bike_id":"77709b3c-9c61-4f45-9bf9-b7bae7918520","system_id":"levelo_inurba_marseille","lat":43.262324,"lon":5.404495,"is_reserved":false,"is_disabled":false,"rental_uris":{"android":"levelo://app?vid=77709b3c-9c61-4f45-9bf9-b7bae7918520","ios":"levelo://app?vid=77709b3c-9c61-4f45-9bf9-b7bae7918520"},"vehicle_type_id":"4","last_reported":1746320291,"current_range_meters":20400,"station_id":"ce4bhmh2rcd13ifvqgmg","pricing_plan_id":"cebpf4jnsgd1na2vs0mg"},{"bike_id":"7882c052-8beb-4127-9b0e-cf37b73f2276","system_id":"levelo_inurba_marseille","lat":43.30947,"lon":5.39031,"is_reserved":false,"is_disabled":false,"rental_uris":{"android":"levelo://app?vid=7882c052-8beb-4127-9b0e-cf37b73f2276","ios":"levelo://app?vid=7882c052-8beb-4127-9b0e-cf37b73f2276"},"vehicle_type_id":"4","last_reported":1746320291,"current_range_meters":20400,"station_id":"ce4bgup2rcd13ifvqco0","pricing_plan_id":"cebpf4jnsgd1na2vs0mg"},{"bike_id":"99f54501-f475-4207-913c-268932a88370","system_id":"levelo_inurba_marseille","lat":43.308,"lon":5.38153,"is_reserved":false,"is_disabled":false,"rental_uris":{"android":"levelo://app?vid=99f54501-f475-4207-913c-268932a88370","ios":"levelo://app?vid=99f54501-f475-4207-913c-268932a88370"},"vehicle_type_id":"4","last_reported":1746320291,"current_range_meters":20400,"station_id":"ce4bgt12rcd13ifvqce0","pricing_plan_id":"cebpf4jnsgd1na2vs0mg"},{"bike_id":"5316087d-9192-48a3-9aab-79f7210a6e18","system_id":"levelo_inurba_marseille","lat":43.31322,"lon":5.39701,"is_reserved":false,"is_disabled":false,"rental_uris":{"android":"levelo://app?vid=5316087d-9192-48a3-9aab-79f7210a6e18","ios":"levelo://app?vid=5316087d-9192-48a3-9aab-79f7210a6e18"},"vehicle_type_id":"4","last_reported":1746320291,"current_range_meters":20800,"station_id":"ce4bgvp2rcd13ifvqcu0","pricing_plan_id":"cebpf4jnsgd1na2vs0mg"},{"bike_id":"7ad04c1b-fc26-4c94-a72f-89c6e3ca5c32","system_id":"levelo_inurba_marseille","lat":43.31156,"lon":5.408,"is_reserved":false,"is_disabled":false,"rental_uris":{"android":"levelo://app?vid=7ad04c1b-fc26-4c94-a72f-89c6e3ca5c32","ios":"levelo://app?vid=7ad04c1b-fc26-4c94-a72f-89c6e3ca5c32"},"vehicle_type_id":"4","last_reported":1746320291,"current_range_meters":20800,"station_id":"","pricing_plan_id":"cebpf4jnsgd1na2vs0mg"},{"bike_id":"1d6554fa-fc68-4b13-bc40-882a5da198b7","system_id":"levelo_inurba_marseille","lat":43.313588,"lon":5.384974,"is_reserved":false,"is_disabled":false,"rental_uris":{"android":"levelo://app?vid=1d6554fa-fc68-4b13-bc40-882a5da198b7","ios":"levelo://app?vid=1d6554fa-fc68-4b13-bc40-882a5da198b7"},"vehicle_type_id":"4","last_reported":1746320291,"current_range_meters":20800,"station_id":"ce4bgt92rcd13ifvqcf0","pricing_plan_id":"cebpf4jnsgd1na2vs0mg"},