{"last_updated":1726035195,"ttl":30,"version":"2.2","data":{"bikes":[{"bike_id":"61ec69dc-0887-45a0-9a18-564e7d706b0b","system_id":"levelo_inurba_marseille","lat":43.24079,"lon":5.37738,"is_reserved":false,"is_disabled":false,"rental_uris":{"android":"levelo://app?vid=61ec69dc-0887-45a0-9a18-564e7d706b0b","ios":"levelo://app?vid=61ec69dc-0887-45a0-9a18-564e7d706b0b"},"vehicle_type_id":"4","last_reported":1726035195,"current_range_meters":29600,"station_id":"ce4bhnp2rcd13ifvqgvg","pricing_plan_id":"cebpf4jnsgd1na2vs0mg"},{"bike_id":"3509cbea-1cbb-4fbb-89aa-3c77b320ec01","system_id":"levelo_inurba_marseille","lat":43.2871,"lon":5.37921,"is_reserved":false,"is_disabled":false,"rental_uris":{"android":"levelo://app?vid=3509cbea-1cbb-4fbb-89aa-3c77b320ec01","ios":"levelo://app?vid=3509cbea-1cbb-4fbb-89aa-3c77b320ec01"},"vehicle_type_id":"4","last_reported":1726035195,"current_range_meters":30000,"station_id":"ce4bh9p2rcd13ifvqec0","pricing_plan_id":"cebpf4jnsgd1na2vs0mg"},{"bike_id":"7a2b8872-cf20-454b-8665-141c078fa342","system_id":"levelo_inurba_marseille","lat":43.26778,"lon":5.39417,"is_reserved":false,"is_disabled":false,"rental_uris":{"android":"levelo://app?vid=7a2b8872-cf20-454b-8665-141c078fa342","ios":"levelo://app?vid=7a2b8872-cf20-454b-8665-141c078fa342"},"vehicle_type_id":"4","last_reported":1726035195,"current_range_meters":11200,"station_id":"ce4bhh12rcd13ifvqfg0","pricing_plan_id":"cebpf4jnsgd1na2vs0mg"},{"bike_id":"b8ada792-75a7-4bd2-a45b-0503cca8388f","system_id":"levelo_inurba_marseille","lat":43.27491,"lon":5.42446,"is_reserved":false,"is_disabled":false,"rental_uris":{"android":"levelo://app?vid=b8ada792-75a7-4bd2-a45b-0503cca8388f","ios":"levelo://app?vid=b8ada792-75a7-4bd2-a45b-0503cca8388f"},"vehicle_type_id":"4","last_reported":1726035195,"current_range_meters":32800,"station_id":"ce4bhn92rcd13ifvqgrg","pricing_plan_id":"cebpf4jnsgd1na2vs0mg"},{"bike_id":"74df2840-b8f2-454e-b98d-f9de8a15646c","system_id":"levelo_inurba_marseille","lat":43.24073,"lon":5.3776,"is_reserved":false,"is_disabled":false,"rental_uris":{"android":"levelo://app?vid=74df2840-b8f2-454e-b98d-f9de8a15646c","ios":"levelo://app?vid=74df2840-b8f2-454e-b98d-f9de8a15646c"},"vehicle_type_id":"4","last_reported":1726035195,"current_range_meters":32000,"station_id":"ce4bhnp2rcd13ifvqgvg","pricing_plan_id":"cebpf4jnsgd1na2vs0mg"},{"bike_id":"315c4883-a082-4d01-865e-7851dd837c5d","system_id":"levelo_inurba_marseille","lat":43.29427,"lon":5.37405,"is_reserved":false,"is_disabled":false,"rental_uris":{"android":"levelo://app?vid=315c4883-a082-4d01-865e-7851dd837c5d","ios":"levelo://app?vid=315c4883-a082-4d01-865e-7851dd837c5d"},"vehicle_type_id":"4","last_reported":1726035195,"current_range_meters":20000,"station_id":"","pricing_plan_id":"cebpf4jnsgd1na2vs0mg"},{"bike_id":"343f8a7b-c84d-46f3-98b4-8253eb0833f1","system_id":"levelo_inurba_marseille","lat":43.29554,"lon":5.42289,"is_reserved":false,"is_disabled":false,"rental_uris":{"android":"levelo://app?vid=343f8a7b-c84d-46f3-98b4-8253eb0833f1","ios":"levelo://app?vid=343f8a7b-c84d-46f3-98b4-8253eb0833f1"},"vehicle_type_id":"4","last_reported":1726035195,"current_range_meters":8000,"station_id":"ce4bhph2rcd13ifvqhdg","pricing_plan_id":"cebpf4jnsgd1na2vs0mg"},{"bike_id":"95e7fdc8-bf5f-4f9c-aaac-a84bae7d977c","system_id":"levelo_inurba_marseille","lat":43.27068,"lon":5.42276,"is_reserved":false,"is_disabled":false,"rental_uris":{"android":"levelo://app?vid=95e7fdc8-bf5f-4f9c-aaac-a84bae7d977c","ios":"levelo://app?vid=95e7fdc8-bf5f-4f9c-aaac-a84bae7d977c"},"vehicle_type_id":"4","last_reported":1726035195,"current_range_meters":36000,"station_id":"ce4bhk92rcd13ifvqgb0","pricing_plan_id":"cebpf4jnsgd1na2vs0mg"},{"bike_id":"c8f58d5f-49a0-4044-899d-03083bbeea3f","system_id":"levelo_inurba_marseille","lat":43.30183,"lon":5.39446,"is_reserved":false,"is_disabled":false,"rental_uris":{"android":"levelo://app?vid=c8f58d5f-49a0-4044-899d-03083bbeea3f","ios":"levelo://app?vid=c8f58d5f-49a0-4044-899d-03083bbeea3f"},"vehicle_type_id":"4","last_reported":1726035195,"current_range_meters":38800,"station_id":"ce4bh0p2rcd13ifvqd70","pricing_plan_id":"cebpf4jnsgd1na2vs0mg"},{"bike_id":"c08aa00e-db22-4c99-b1bc-f25abe4ffc55","system_id":"levelo_inurba_marseille","lat":43.25584,"lon":5.38225,"is_reserved":false,"is_disabled":false,"rental_uris":{"android":"levelo://app?vid=c08aa00e-db22-4c99-b1bc-f25abe4ffc55","ios":"levelo://app?vid=c08aa00e-db22-4c99-b1bc-f25abe4ffc55"},"vehicle_type_id":"4","last_reported":1726035195,"current_range_meters":8800,"station_id":"ce4bhih2rcd13ifvqfs0","pricing_plan_id":"cebpf4jnsgd1na2vs0mg"},{"bike_id":"9c98fc9b-d7ba-458d-8198-a7845106b23f","system_id":"levelo_inurba_marseille","lat":43.29278,"lon":5.40113,"is_reserved":false,"is_disabled":false,"rental_uris":{"android":"levelo://app?vid=9c98fc9b-d7ba-458d-8198-a7845106b23f","ios":"levelo://app?vid=9c98fc9b-d7ba-458d-8198-a7845106b23f"},"vehicle_type_id":"4","last_reported":1726035195,"current_range_meters":13600,"station_id":"ce4bh312rcd13ifvqdk0","pricing_plan_id":"cebpf4jnsgd1na2vs0mg"},{"bike_id":"e89719d1-cf8b-452c-890c-11bb04b01043","system_id":"levelo_inurba_marseille","lat":43.29984,"lon":5.37177,"is_reserved":false,"is_disabled":false,"rental_uris":{"android":"levelo://app?vid=e89719d1-cf8b-452c-890c-11bb04b01043","ios":"levelo://app?vid=e89719d1-cf8b-452c-890c-11bb04b01043"},"vehicle_type_id":"4","last_reported":1726035195,"current_range_meters":17600,"station_id":"ce4bgr92rcd13ifvqc7g","pricing_plan_id":"cebpf4jnsgd1na2vs0mg"},{"bike_id":"5c8df8df-67a1-450c-ac8b-35a7fa59ac57","system_id":"levelo_inurba_marseille","lat":43.28942,"lon":5.39631,"is_reserved":false,"is_disabled":false,"rental_uris":{"android":"levelo://app?vid=5c8df8df-67a1-450c-ac8b-35a7fa59ac57","ios":"levelo://app?vid=5c8df8df-67a1-450c-ac8b-35a7fa59ac57"},"vehicle_type_id":"4","last_reported":1726035195,"current_range_meters":38400,"station_id":"ce4bh3h2rcd13ifvqdn0","pricing_plan_id":"cebpf4jnsgd1na2vs0mg"},{"bike_id":"cd2446c6-7253-41fc-bf2e-652af44f4791","system_id":"levelo_inurba_marseille","lat":43.27998,"lon":5.41656,"is_reserved":false,"is_disabled":false,"rental_uris":{"android":"levelo://app?vid=cd2446c6-7253-41fc-bf2e-652af44f4791","ios":"levelo://app?vid=cd2446c6-7253-41fc-bf2e-652af44f4791"},"vehicle_type_id":"4","last_reported":1726035195,"current_range_meters":34000,"station_id":"ce4bho12rcd13ifvqh1g","pricing_plan_id":"cebpf4jnsgd1na2vs0mg"},{"bike_id":"f9e09b67-3554-4f00-8f5e-43815f704dda","system_id":"levelo_inurba_marseille","lat":43.313427,"lon":5.367179,"is_reserved":false,"is_disabled":false,"rental_uris":{"android":"levelo://app?vid=f9e09b67-3554-4f00-8f5e-43815f704dda","ios":"levelo://app?vid=f9e09b67-3554-4f00-8f5e-43815f704dda"},"vehicle_type_id":"4","last_reported":1726035195,"current_range_meters":28800,"station_id":"ce4bgr92rcd13ifvqc6g","pricing_plan_id":"cebpf4jnsgd1na2vs0mg"},{"bike_id":"f34747ce-f309-4326-987e-7bc67d09e8c3","system_id":"levelo_inurba_marseille","lat":43.32288,"lon":5.38262,"is_reserved":false,"is_disabled":false,"rental_uris":{"android":"levelo://app?vid=f34747ce-f309-4326-987e-7bc67d09e8c3","ios":"levelo://app?vid=f34747ce-f309-4326-987e-7bc67d09e8c3"},"vehicle_type_id":"4","last_reported":1726035195,"current_range_meters":38800,"station_id":"ce4bhr12rcd13ifvqhqg","pricing_plan_id":"cebpf4jnsgd1na2vs0mg"},{"bike_id":"d02d6740-b6de-4487-a048-a0fcd35b8dee","system_id":"levelo_inurba_marseille","lat":43.23154,"lon":5.43708,"is_reserved":false,"is_disabled":false,"rental_uris":{"android":"levelo://app?vid=d02d6740-b6de-4487-a048-a0fcd35b8dee","ios":"levelo://app?vid=d02d6740-b6de-4487-a048-a0fcd35b8dee"},"vehicle_type_id":"4","last_reported":1726035195,"current_range_meters":22800,"station_id":"ce4bhmp2rcd13ifvqgog","pricing_plan_id":"cebpf4jnsgd1na2vs0mg"},{"bike_id":"b0c418e3-7076-4b48-86c9-8b078567e702","system_id":"levelo_inurba_marseille","lat":43.24089,"lon":5.37742,"is_reserved":false,"is_disabled":false,"rental_uris":{"android":"levelo://app?vid=b0c418e3-7076-4b48-86c9-8b078567e702","ios":"levelo://app?vid=b0c418e3-7076-4b48-86c9-8b078567e702"},"vehicle_type_id":"4","last_reported":1726035195,"current_range_meters":26800,"station_id":"ce4bhnp2rcd13ifvqgvg","pricing_plan_id":"cebpf4jnsgd1na2vs0mg"},{"bike_id":"8bb8b427-5407-44bf-821e-ac305a3de82a","system_id":"levelo_inurba_marseille","lat":43.29029,"lon":5.39961,"is_reserved":false,"is_disabled":false,"rental_uris":{"android":"levelo://app?vid=8bb8b427-5407-44bf-821e-ac305a3de82a","ios":"levelo://app?vid=8bb8b427-5407-44bf-821e-ac305a3de82a"},"vehicle_type_id":"4","last_reported":1726035195,"current_range_meters":26800,"station_id":"ce4bh392rcd13ifvqdm0","pricing_plan_id":"cebpf4jnsgd1na2vs0mg"},{"bike_id":"73164c59-cf12-409e-b884-62dfd7b0f0e8","system_id":"levelo_inurba_marseille","lat":43.277939,"lon":5.406927,"is_reserved":false,"is_disabled":false,"rental_uris":{"android":"levelo://app?vid=73164c59-cf12-409e-b884-62dfd7b0f0e8","ios":"levelo://app?vid=73164c59-cf12-409e-b884-62dfd7b0f0e8"},"vehicle_type_id":"4","last_reported":1726035195,"current_range_meters":28400,"station_id":"ce4bhnh2rcd13ifvqgtg","pricing_plan_id":"cebpf4jnsgd1na2vs0mg"},{"bike_id":"55d97945-4abc-4a34-9bc4-5a4e59cc741c","system_id":"levelo_inurba_marseille","lat":43.30574,"lon":5.39351,"is_reserved":false,"is_disabled":false,"rental_uris":{"android":"levelo://app?vid=55d97945-4abc-4a34-9bc4-5a4e59cc741c","ios":"levelo://app?vid=55d97945-4abc-4a34-9bc4-5a4e59cc741c"},"vehicle_type_id":"4","last_reported":1726035195,"current_range_meters":24000,"station_id":"ce4bh0p2rcd13ifvqd80","pricing_plan_id":"cebpf4jnsgd1na2vs0mg"},{"bike_id":"83cd930b-87fb-494c-b63e-2d56c93650b7","system_id":"levelo_inurba_marseille","lat":43.28464,"lon":5.35886,"is_reserved":false,"is_disabled":false,"rental_uris":{"android":"levelo://app?vid=83cd930b-87fb-494c-b63e-2d56c93650b7","ios":"levelo://app?vid=83cd930b-87fb-494c-b63e-2d56c93650b7"},"vehicle_type_id":"4","last_reported":1726035195,"current_range_meters":38400,"station_id":"ce4bhah2rcd13ifvqei0","pricing_plan_id":"cebpf4jnsgd1na2vs0mg"},{"bike_id":"cd469c8a-9220-4e94-a2ae-6372a1150b8a","system_id":"levelo_inurba_marseille","lat":43.28707,"lon":5.37918,"is_reserved":false,"is_disabled":false,"rental_uris":{"android":"levelo://app?vid=cd469c8a-9220-4e94-a2ae-6372a1150b8a","ios":"levelo://app?vid=cd469c8a-9220-4e94-a2ae-6372a1150b8a"},"vehicle_type_id":"4","last_reported":1726035195,"current_range_meters":35600,"station_id":"ce4bh9p2rcd13ifvqec0","pricing_plan_id":"cebpf4jnsgd1na2vs0mg"},{"bike_id":"1744a6d5-d990-40eb-b046-4a7d725be16a","system_id":"levelo_inurba_marseille","lat":43.28342,"lon":5.38088,"is_reserved":false,"is_disabled":false,"rental_uris":{"android":"levelo://app?vid=1744a6d5-d990-40eb-b046-4a7d725be16a","ios":"levelo://app?vid=1744a6d5-d990-40eb-b046-4a7d725be16a"},"vehicle_type_id":"4","last_reported":1726035195,"current_range_meters":33600,"station_id":"ce4bh412rcd13ifvqdr0","pricing_plan_id":"cebpf4jnsgd1na2vs0mg"},{"bike_id":"ee4607c9-6955-4e13-b7d5-aec07ce4d086","system_id":"levelo_inurba_marseille","lat":43.31711,"lon":5.40471,"is_reserved":false,"is_disabled":false,"rental_uris":{"android":"levelo://app?vid=ee4607c9-6955-4e13-b7d5-aec07ce4d086","ios":"levelo://app?vid=ee4607c9-6955-4e13-b7d5-aec07ce4d086"},"vehicle_type_id":"4","last_reported":1726035195,"current_range_meters":14800,"station_id":"ce4bh012rcd13ifvqd00","pricing_plan_id":"cebpf4jnsgd1na2vs0mg"},{"bike_id":"f82bbec1-fb8a-4129-a3fb-f52fcea535e9","system_id":"levelo_inurba_marseille","lat":43.290405,"lon":5.369984,"is_reserved":false,"is_disabled":false,"rental_uris":{"android":"levelo://app?vid=f82bbec1-fb8a-4129-a3fb-f52fcea535e9","ios":"levelo://app?vid=f82bbec1-fb8a-4129-a3fb-f52fcea535e9"},"vehicle_type_id":"4","last_reported":1726035195,"current_range_meters":31200,"station_id":"","pricing_plan_id":"cebpf4jnsgd1na2vs0mg"},{"bike_id":"36b476ff-1eb7-400a-b3c7-043570dc2d0d","system_id":"levelo_inurba_marseille","lat":43.2606,"lon":5.39392,"is_reserved":false,"is_disabled":false,"rental_uris":{"android":"levelo://app?vid=36b476ff-1eb7-400a-b3c7-043570dc2d0d","ios":"levelo://app?vid=36b476ff-1eb7-400a-b3c7-043570dc2d0d"},"vehicle_type_id":"4","last_reported":1726035195,"current_range_meters":33600,"station_id":"ce4bhh92rcd13ifvqfj0","pricing_plan_id":"cebpf4jnsgd1na2vs0mg"},{"bike_id":"a5378d9e-ab88-4132-955c-51d09adec59d","system_id":"levelo_inurba_marseille","lat":43.28035,"lon":5.3694,"is_reserved":false,"is_disabled":false,"rental_uris":{"android":"levelo://app?vid=a5378d9e-ab88-4132-955c-51d09adec59d","ios":"levelo://app?vid=a5378d9e-ab88-4132-955c-51d09adec59d"},"vehicle_type_id":"4","last_reported":1726035195,"current_range_meters":35600,"station_id":"ce4bha12rcd13ifvqef0","pricing_plan_id":"cebpf4jnsgd1na2vs0mg"},{"bike_id":"95ddb20b-57e9-4876-88b1-ba46eb59a632","system_id":"levelo_inurba_marseille","lat":43.27496,"lon":5.4245,"is_reserved":false,"is_disabled":false,"rental_uris":{"android":"levelo://app?vid=95ddb20b-57e9-4876-88b1-ba46eb59a632","ios":"levelo://app?vid=95ddb20b-57e9-4876-88b1-ba46eb59a632"},"vehicle_type_id":"4","last_reported":1726035195,"current_range_meters":33200,"station_id":"ce4bhn92rcd13ifvqgrg","pricing_plan_id":"cebpf4jnsgd1na2vs0mg"},{"bike_id":"79c048a7-5de8-4f6b-a4ee-caa7e8248925","system_id":"levelo_inurba_marseille","lat":43.24073,"lon":5.37762,"is_reserved":false,"is_disabled":false,"rental_uris":{"android":"levelo://app?vid=79c048a7-5de8-4f6b-a4ee-caa7e8248925","ios":"levelo://app?vid=79c048a7-5de8-4f6b-a4ee-caa7e8248925"},"vehicle_type_id":"4","last_reported":1726035195,"current_range_meters":22400,"station_id":"ce4bhnp2rcd13ifvqgvg","pricing_plan_id":"cebpf4jnsgd1na2vs0mg"},{"bike_id":"6c02a711-e0d4-4009-9d44-fba5428f55b2","system_id":"levelo_inurba_marseille","lat":43.23196,"lon":5.35551,"is_reserved":false,"is_disabled":false,"rental_uris":{"android":"levelo://app?vid=6c02a711-e0d4-4009-9d44-fba5428f55b2","ios":"levelo://app?vid=6c02a711-e0d4-4009-9d44-fba5428f55b2"},"vehicle_type_id":"4","last_reported":1726035195,"current_range_meters":5600,"station_id":"ce4bhu92rcd13ifvqi70","pricing_plan_id":"cebpf4jnsgd1na2vs0mg"},{"bike_id":"b43390bc-8f43-4687-b6ef-47e19991b99f","system_id":"levelo_inurba_marseille","lat":43.3112,"lon":5.37761,"is_reserved":false,"is_disabled":false,"rental_uris":{"android":"levelo://app?vid=b43390bc-8f43-4687-b6ef-47e19991b99f","ios":"levelo://app?vid=b43390bc-8f43-4687-b6ef-47e19991b99f"},"vehicle_type_id":"4","last_reported":1726035195,"current_range_meters":36000,"station_id":"ce4bgt92rcd13ifvqcg0","pricing_plan_id":"cebpf4jnsgd1na2vs0mg"},{"bike_id":"9d86b566-80af-4685-ae91-79bc3f87b54d","system_id":"levelo_inurba_marseille","lat":43.27913,"lon":5.39561,"is_reserved":false,"is_disabled":false,"rental_uris":{"android":"levelo://app?vid=9d86b566-80af-4685-ae91-79bc3f87b54d","ios":"levelo://app?vid=9d86b566-80af-4685-ae91-79bc3f87b54d"},"vehicle_type_id":"4","last_reported":1726035195,"current_range_meters":28000,"station_id":"ce4bhf92rcd13ifvqf40","pricing_plan_id":"cebpf4jnsgd1na2vs0mg"},{"bike_id":"fb594920-985b-492d-9f83-f9ce3ea2961b","system_id":"levelo_inurba_marseille","lat":43.30157,"lon":5.38085,"is_reserved":false,"is_disabled":false,"rental_uris":{"android":"levelo://app?vid=fb594920-985b-492d-9f83-f9ce3ea2961b","ios":"levelo://app?vid=fb594920-985b-492d-9f83-f9ce3ea2961b"},"vehicle_type_id":"4","last_reported":1726035195,"current_range_meters":32800,"station_id":"ce4bgjp2rcd13ifvqbh0","pricing_plan_id":"cebpf4jnsgd1na2vs0mg"},{"bike_id":"10d1b6ab-f82e-4596-a63d-75be04bdaf1c","system_id":"levelo_inurba_marseille","lat":43.31886,"lon":5.40737,"is_reserved":false,"is_disabled":false,"rental_uris":{"android":"levelo://app?vid=10d1b6ab-f82e-4596-a63d-75be04bdaf1c","ios":"levelo://app?vid=10d1b6ab-f82e-4596-a63d-75be04bdaf1c"},"vehicle_type_id":"4","last_reported":1726035195,"current_range_meters":36400,"station_id":"ce4bhq12rcd13ifvqhig","pricing_plan_id":"cebpf4jnsgd1na2vs0mg"},{"bike_id":"c275d527-1781-4ae4-995b-ce10246b03fe","system_id":"levelo_inurba_marseille","lat":43.24073,"lon":5.37755,"is_reserved":false,"is_disabled":false,"rental_uris":{"android":"levelo://app?vid=c275d527-1781-4ae4-995b-ce10246b03fe","ios":"levelo://app?vid=c275d527-1781-4ae4-995b-ce10246b03fe"},"vehicle_type_id":"4","last_reported":1726035195,"current_range_meters":28000,"station_id":"ce4bhnp2rcd13ifvqgvg","pricing_plan_id":"cebpf4jnsgd1na2vs0mg"},{"bike_id":"fc040440-b87d-4ded-aae6-5232271a70cc","system_id":"levelo_inurba_marseille","lat":43.25579,"lon":5.38233,"is_reserved":false,"is_disabled":false,"rental_uris":{"android":"levelo://app?vid=fc040440-b87d-4ded-aae6-5232271a70cc","ios":"levelo://app?vid=fc040440-b87d-4ded-aae6-5232271a70cc"},"vehicle_type_id":"4","last_reported":1726035195,"current_range_meters":20000,"station_id":"ce4bhih2rcd13ifvqfs0","pricing_plan_id":"cebpf4jnsgd1na2vs0mg"},{"bike_id":"b75a39c8-a36f-45e0-879f-5989f5af4897","system_id":"levelo_inurba_marseille","lat":43.30481,"lon":5.37912,"is_reserved":false,"is_disabled":false,"rental_uris":{"android":"levelo://app?vid=b75a39c8-a36f-45e0-879f-5989f5af4897","ios":"levelo://app?vid=b75a39c8-a36f-45e0-879f-5989f5af4897"},"vehicle_type_id":"4","last_reported":1726035195,"current_range_meters":26000,"station_id":"ce4bgup2rcd13ifvqcn0","pricing_plan_id":"cebpf4jnsgd1na2vs0mg"},{"bike_id":"b59d6bb8-aefb-4db8-b3f2-f169f342ddcd","system_id":"levelo_inurba_marseille","lat":43.32362,"lon":5.38883,"is_reserved":false,"is_disabled":false,"rental_uris":{"android":"levelo://app?vid=b59d6bb8-aefb-4db8-b3f2-f169f342ddcd","ios":"levelo://app?vid=b59d6bb8-aefb-4db8-b3f2-f169f342ddcd"},"vehicle_type_id":"4","last_reported":1726035195,"current_range_meters":4000,"station_id":"ce4bhqp2rcd13ifvqhog","pricing_plan_id":"cebpf4jnsgd1na2vs0mg"},{"bike_id":"5fda0ee7-6169-4d3a-a401-077d2c1fcca5","system_id":"levelo_inurba_marseille","lat":43.25817,"lon":5.39429,"is_reserved":false,"is_disabled":false,"rental_uris":{"android":"levelo://app?vid=5fda0ee7-6169-4d3a-a401-077d2c1fcca5","ios":"levelo://app?vid=5fda0ee7-6169-4d3a-a401-077d2c1fcca5"},"vehicle_type_id":"4","last_reported":1726035195,"current_range_meters":32800,"station_id":"ce4bhip2rcd13ifvqft0","pricing_plan_id":"cebpf4jnsgd1na2vs0mg"},{"bike_id":"466401ab-d9f1-4c1a-a802-10899e25cb31","system_id":"levelo_inurba_marseille","lat":43.31704,"lon":5.37744,"is_reserved":false,"is_disabled":false,"rental_uris":{"android":"levelo://app?vid=466401ab-d9f1-4c1a-a802-10899e25cb31","ios":"levelo://app?vid=466401ab-d9f1-4c1a-a802-10899e25cb31"},"vehicle_type_id":"4","last_reported":1726035195,"current_range_meters":19600,"station_id":"ce4bgth2rcd13ifvqch0","pricing_plan_id":"cebpf4jnsgd1na2vs0mg"},{"bike_id":"599dba3e-db5f-4123-8196-06fc19744b02","system_id":"levelo_inurba_marseille","lat":43.27974,"lon":5.38754,"is_reserved":false,"is_disabled":false,"rental_uris":{"android":"levelo://app?vid=599dba3e-db5f-4123-8196-06fc19744b02","ios":"levelo://app?vid=599dba3e-db5f-4123-8196-06fc19744b02"},"vehicle_type_id":"4","last_reported":1726035195,"current_range_meters":38800,"station_id":"ce4bhg12rcd13ifvqf80","pricing_plan_id":"cebpf4jnsgd1na2vs0mg"},{"bike_id":"655fa185-92f6-465f-b629-5a2bc190ae77","system_id":"levelo_inurba_marseille","lat":43.31703,"lon":5.40458,"is_reserved":false,"is_disabled":false,"rental_uris":{"android":"levelo://app?vid=655fa185-92f6-465f-b629-5a2bc190ae77","ios":"levelo://app?vid=655fa185-92f6-465f-b629-5a2bc190ae77"},"vehicle_type_id":"4","last_reported":1726035195,"current_range_meters":29600,"station_id":"ce4bh012rcd13ifvqd00","pricing_plan_id":"cebpf4jnsgd1na2vs0mg"},{"bike_id":"44e72f35-4cef-4c08-bc93-0253414c9b58","system_id":"levelo_inurba_marseille","lat":43.29613,"lon":5.37723,"is_reserved":false,"is_disabled":false,"rental_uris":{"android":"levelo://app?vid=44e72f35-4cef-4c08-bc93-0253414c9b58","ios":"levelo://app?vid=44e72f35-4cef-4c08-bc93-0253414c9b58"},"vehicle_type_id":"4","last_reported":1726035195,"current_range_meters":36800,"station_id":"ce4bgi92rcd13ifvqb90","pricing_plan_id":"cebpf4jnsgd1na2vs0mg"},{"bike_id":"c0fe7def-bf7e-49d2-a3a5-f63051cecb7a","system_id":"levelo_inurba_marseille","lat":43.23967,"lon":5.3663,"is_reserved":false,"is_disabled":false,"rental_uris":{"android":"levelo://app?vid=c0fe7def-bf7e-49d2-a3a5-f63051cecb7a","ios":"levelo://app?vid=c0fe7def-bf7e-49d2-a3a5-f63051cecb7a"},"vehicle_type_id":"4","last_reported":1726035195,"current_range_meters":12000,"station_id":"ce4bhi12rcd13ifvqfp0","pricing_plan_id":"cebpf4jnsgd1na2vs0mg"},{"bike_id":"d94cf20d-19e4-4d88-bbb3-72b7a4c6baa3","system_id":"levelo_inurba_marseille","lat":43.32288,"lon":5.38258,"is_reserved":false,"is_disabled":false,"rental_uris":{"android":"levelo://app?vid=d94cf20d-19e4-4d88-bbb3-72b7a4c6baa3","ios":"levelo://app?vid=d94cf20d-19e4-4d88-bbb3-72b7a4c6baa3"},"vehicle_type_id":"4","last_reported":1726035195,"current_range_meters":38800,"station_id":"ce4bhr12rcd13ifvqhqg","pricing_plan_id":"cebpf4jnsgd1na2vs0mg"},{"bike_id":"89c18716-35c7-460a-897d-0ad83434eceb","system_id":"levelo_inurba_marseille","lat":43.30142,"lon":5.38064,"is_reserved":false,"is_disabled":false,"rental_uris":{"android":"levelo://app?vid=89c18716-35c7-460a-897d-0ad83434eceb","ios":"levelo://app?vid=89c18716-35c7-460a-897d-0ad83434eceb"},"vehicle_type_id":"4","last_reported":1726035195,"current_range_meters":16000,"station_id":"ce4bgjp2rcd13ifvqbh0","pricing_plan_id":"cebpf4jnsgd1na2vs0mg"},{"bike_id":"32657869-0d75-41a9-a864-1d5aa3d90f02","system_id":"levelo_inurba_marseille","lat":43.28421,"lon":5.35745,"is_reserved":false,"is_disabled":false,"rental_uris":{"android":"levelo://app?vid=32657869-0d75-41a9-a864-1d5aa3d90f02","ios":"levelo://app?vid=32657869-0d75-41a9-a864-1d5aa3d90f02"},"vehicle_type_id":"4","last_reported":1726035195,"current_range_meters":32400,"station_id":"ce4bhah2rcd13ifvqei0","pricing_plan_id":"cebpf4jnsgd1na2vs0mg"},{"bike_id":"00ca710c-aa25-453d-b5eb-9286e939dc6d","system_id":"levelo_inurba_marseille","lat":43.29555,"lon":5.42277,"is_reserved":false,"is_disabled":false,"rental_uris":{"android":"levelo://app?vid=00ca710c-aa25-453d-b5eb-9286e939dc6d","ios":"levelo://app?vid=00ca710c-aa25-453d-b5eb-9286e939dc6d"},"vehicle_type_id":"4","last_reported":1726035195,"current_range_meters":38800,"station_id":"ce4bhph2rcd13ifvqhdg","pricing_plan_id":"cebpf4jnsgd1na2vs0mg"},{"bike_id":"4096826d-082f-48bf-aaa9-e570b35c89f7","system_id":"levelo_inurba_marseille","lat":43.27927,"lon":5.39568,"is_reserved":false,"is_disabled":false,"rental_uris":{"android":"levelo://app?vid=4096826d-082f-48bf-aaa9-e570b35c89f7","ios":"levelo://app?vid=4096826d-082f-48bf-aaa9-e570b35c89f7"},"vehicle_type_id":"4","last_reported":1726035195,"current_range_meters":25200,"station_id":"ce4bhf92rcd13ifvqf40","pricing_plan_id":"cebpf4jnsgd1na2vs0mg"},{"bike_id":"a36a6131-7175-4d21-afcf-16a3b952996a","system_id":"levelo_inurba_marseille","lat":43.3082,"lon":5.37655,"is_reserved":false,"is_disabled":false,"rental_uris":{"android":"levelo://app?vid=a36a6131-7175-4d21-afcf-16a3b952996a","ios":"levelo://app?vid=a36a6131-7175-4d21-afcf-16a3b952996a"},"vehicle_type_id":"4","last_reported":1726035195,"current_range_meters":10800,"station_id":"ce4bgv92rcd13ifvqcq0","pricing_plan_id":"cebpf4jnsgd1na2vs0mg"},{"bike_id":"b3449f45-95ae-45f8-831c-96b5fb194c34","system_id":"levelo_inurba_marseille","lat":43.32363,"lon":5.38883,"is_reserved":false,"is_disabled":false,"rental_uris":{"android":"levelo://app?vid=b3449f45-95ae-45f8-831c-96b5fb194c34","ios":"levelo://app?vid=b3449f45-95ae-45f8-831c-96b5fb194c34"},"vehicle_type_id":"4","last_reported":1726035195,"current_range_meters":10800,"station_id":"ce4bhqp2rcd13ifvqhog","pricing_plan_id":"cebpf4jnsgd1na2vs0mg"},{"bike_id":"c5d1b099-8adc-40a7-b6f3-0be64ceb998f","system_id":"levelo_inurba_marseille","lat":43.290283,"lon":5.399747,"is_reserved":false,"is_disabled":false,"rental_uris":{"android":"levelo://app?vid=c5d1b099-8adc-40a7-b6f3-0be64ceb998f","ios":"levelo://app?vid=c5d1b099-8adc-40a7-b6f3-0be64ceb998f"},"vehicle_type_id":"4","last_reported":1726035195,"current_range_meters":11200,"station_id":"ce4bh392rcd13ifvqdm0","pricing_plan_id":"cebpf4jnsgd1na2vs0mg"},{"bike_id":"928a5d3e-209f-4162-8230-412be2f1bd6c","system_id":"levelo_inurba_marseille","lat":43.28712,"lon":5.37928,"is_reserved":false,"is_disabled":false,"rental_uris":{"android":"levelo://app?vid=928a5d3e-209f-4162-8230-412be2f1bd6c","ios":"levelo://app?vid=928a5d3e-209f-4162-8230-412be2f1bd6c"},"vehicle_type_id":"4","last_reported":1726035195,"current_range_meters":35600,"station_id":"ce4bh9p2rcd13ifvqec0","pricing_plan_id":"cebpf4jnsgd1na2vs0mg"},{"bike_id":"71e434c8-9251-47ca-88a8-25cb42fcaa66","system_id":"levelo_inurba_marseille","lat":43.27672,"lon":5.38894,"is_reserved":false,"is_disabled":false,"rental_uris":{"android":"levelo://app?vid=71e434c8-9251-47ca-88a8-25cb42fcaa66","ios":"levelo://app?vid=71e434c8-9251-47ca-88a8-25cb42fcaa66"},"vehicle_type_id":"4","last_reported":1726035195,"current_range_meters":38800,"station_id":"ce4bhi12rcd13ifvqfo0","pricing_plan_id":"cebpf4jnsgd1na2vs0mg"},{"bike_id":"cd02768c-53f5-41d4-a166-237df7ca1bf4","system_id":"levelo_inurba_marseille","lat":43.31347,"lon":5.36726,"is_reserved":false,"is_disabled":false,"rental_uris":{"android":"levelo://app?vid=cd02768c-53f5-41d4-a166-237df7ca1bf4","ios":"levelo://app?vid=cd02768c-53f5-41d4-a166-237df7ca1bf4"},"vehicle_type_id":"4","last_reported":1726035195,"current_range_meters":36000,"station_id":"ce4bgr92rcd13ifvqc6g","pricing_plan_id":"cebpf4jnsgd1na2vs0mg"},{"bike_id":"7d379912-5512-4136-825f-f149378c51b0","system_id":"levelo_inurba_marseille","lat":43.2784,"lon":5.385,"is_reserved":false,"is_disabled":false,"rental_uris":{"android":"levelo://app?vid=7d379912-5512-4136-825f-f149378c51b0","ios":"levelo://app?vid=7d379912-5512-4136-825f-f149378c51b0"},"vehicle_type_id":"4","last_reported":1726035195,"current_range_meters":32400,"station_id":"","pricing_plan_id":"cebpf4jnsgd1na2vs0mg"},{"bike_id":"fd085921-e1d7-4c89-a66d-87af421fb9d3","system_id":"levelo_inurba_marseille","lat":43.26958,"lon":5.38609,"is_reserved":false,"is_disabled":false,"rental_uris":{"android":"levelo://app?vid=fd085921-e1d7-4c89-a66d-87af421fb9d3","ios":"levelo://app?vid=fd085921-e1d7-4c89-a66d-87af421fb9d3"},"vehicle_type_id":"4","last_reported":1726035195,"current_range_meters":34800,"station_id":"ce4bhh92rcd13ifvqfh0","pricing_plan_id":"cebpf4jnsgd1na2vs0mg"},{"bike_id":"75cf9f69-8c15-4401-8475-e6ee6cfb2b66","system_id":"levelo_inurba_marseille","lat":43.289753,"lon":5.378358,"is_reserved":false,"is_disabled":false,"rental_uris":{"android":"levelo://app?vid=75cf9f69-8c15-4401-8475-e6ee6cfb2b66","ios":"levelo://app?vid=75cf9f69-8c15-4401-8475-e6ee6cfb2b66"},"vehicle_type_id":"4","last_reported":1726035195,"current_range_meters":11200,"station_id":"ce4bh9p2rcd13ifvqed0","pricing_plan_id":"cebpf4jnsgd1na2vs0mg"},{"bike_id":"04901f09-126a-4ee7-a1d2-93498cae614f","system_id":"levelo_inurba_marseille","lat":43.29036,"lon":5.3997,"is_reserved":false,"is_disabled":false,"rental_uris":{"android":"levelo://app?vid=04901f09-126a-4ee7-a1d2-93498cae614f","ios":"levelo://app?vid=04901f09-126a-4ee7-a1d2-93498cae614f"},"vehicle_type_id":"4","last_reported":1726035195,"current_range_meters":30000,"station_id":"ce4bh392rcd13ifvqdm0","pricing_plan_id":"cebpf4jnsgd1na2vs0mg"},{"bike_id":"cc83644b-7708-4fdb-9461-c25c2eaa1200","system_id":"levelo_inurba_marseille","lat":43.28723,"lon":5.37921,"is_reserved":false,"is_disabled":false,"rental_uris":{"android":"levelo://app?vid=cc83644b-7708-4fdb-9461-c25c2eaa1200","ios":"levelo://app?vid=cc83644b-7708-4fdb-9461-c25c2eaa1200"},"vehicle_type_id":"4","last_reported":1726035195,"current_range_meters":26000,"station_id":"ce4bh9p2rcd13ifvqec0","pricing_plan_id":"cebpf4jnsgd1na2vs0mg"},{"bike_id":"8bfb1f0d-2633-40db-8a6a-d4a15f301a55","system_id":"levelo_inurba_marseille","lat":43.30184,"lon":5.38066,"is_reserved":false,"is_disabled":false,"rental_uris":{"android":"levelo://app?vid=8bfb1f0d-2633-40db-8a6a-d4a15f301a55","ios":"levelo://app?vid=8bfb1f0d-2633-40db-8a6a-d4a15f301a55"},"vehicle_type_id":"4","last_reported":1726035195,"current_range_meters":37600,"station_id":"","pricing_plan_id":"cebpf4jnsgd1na2vs0mg"},{"bike_id":"52a0f38d-3211-4d2e-b296-7d2f78d43ba6","system_id":"levelo_inurba_marseille","lat":43.27179,"lon":5.40985,"is_reserved":false,"is_disabled":false,"rental_uris":{"android":"levelo://app?vid=52a0f38d-3211-4d2e-b296-7d2f78d43ba6","ios":"levelo://app?vid=52a0f38d-3211-4d2e-b296-7d2f78d43ba6"},"vehicle_type_id":"4","last_reported":1726035195,"current_range_meters":39200,"station_id":"ce4bhl12rcd13ifvqgf0","pricing_plan_id":"cebpf4jnsgd1na2vs0mg"},{"bike_id":"92c2044b-d3d4-48b4-88cc-aaaff57c1d4f","system_id":"levelo_inurba_marseille","lat":43.28035,"lon":5.36943,"is_reserved":false,"is_disabled":false,"rental_uris":{"android":"levelo://app?vid=92c2044b-d3d4-48b4-88cc-aaaff57c1d4f","ios":"levelo://app?vid=92c2044b-d3d4-48b4-88cc-aaaff57c1d4f"},"vehicle_type_id":"4","last_reported":1726035195,"current_range_meters":36400,"station_id":"ce4bha12rcd13ifvqef0","pricing_plan_id":"cebpf4jnsgd1na2vs0mg"},{"bike_id":"745a4a92-6575-449a-96df-c38622c66303","system_id":"levelo_inurba_marseille","lat":43.27998,"lon":5.40007,"is_reserved":false,"is_disabled":false,"rental_uris":{"android":"levelo://app?vid=745a4a92-6575-449a-96df-c38622c66303","ios":"levelo://app?vid=745a4a92-6575-449a-96df-c38622c66303"},"vehicle_type_id":"4","last_reported":1726035195,"current_range_meters":36000,"station_id":"ce4bho92rcd13ifvqh4g","pricing_plan_id":"cebpf4jnsgd1na2vs0mg"},{"bike_id":"f1ea8c6f-65c6-4c34-b89c-98dd712d80c3","system_id":"levelo_inurba_marseille","lat":43.24073,"lon":5.37754,"is_reserved":false,"is_disabled":false,"rental_uris":{"android":"levelo://app?vid=f1ea8c6f-65c6-4c34-b89c-98dd712d80c3","ios":"levelo://app?vid=f1ea8c6f-65c6-4c34-b89c-98dd712d80c3"},"vehicle_type_id":"4","last_reported":1726035195,"current_range_meters":20400,"station_id":"ce4bhnp2rcd13ifvqgvg","pricing_plan_id":"cebpf4jnsgd1na2vs0mg"},{"bike_id":"1b8e2124-c9b2-450b-8e12-e90ed145db35","system_id":"levelo_inurba_marseille","lat":43.2984,"lon":5.36245,"is_reserved":false,"is_disabled":false,"rental_uris":{"android":"levelo://app?vid=1b8e2124-c9b2-450b-8e12-e90ed145db35","ios":"levelo://app?vid=1b8e2124-c9b2-450b-8e12-e90ed145db35"},"vehicle_type_id":"4","last_reported":1726035195,"current_range_meters":22000,"station_id":"ce4bgpp2rcd13ifvqc3g","pricing_plan_id":"cebpf4jnsgd1na2vs0mg"},{"bike_id":"59f08226-c199-4f88-99b3-e73fbc81bf69","system_id":"levelo_inurba_marseille","lat":43.28362,"lon":5.3811,"is_reserved":false,"is_disabled":false,"rental_uris":{"android":"levelo://app?vid=59f08226-c199-4f88-99b3-e73fbc81bf69","ios":"levelo://app?vid=59f08226-c199-4f88-99b3-e73fbc81bf69"},"vehicle_type_id":"4","last_reported":1726035195,"current_range_meters":24000,"station_id":"ce4bh412rcd13ifvqdr0","pricing_plan_id":"cebpf4jnsgd1na2vs0mg"},{"bike_id":"f1ff6c93-3c62-4bf8-b630-7b288308ae81","system_id":"levelo_inurba_marseille","lat":43.29004,"lon":5.35601,"is_reserved":false,"is_disabled":false,"rental_uris":{"android":"levelo://app?vid=f1ff6c93-3c62-4bf8-b630-7b288308ae81","ios":"levelo://app?vid=f1ff6c93-3c62-4bf8-b630-7b288308ae81"},"vehicle_type_id":"4","last_reported":1726035195,"current_range_meters":29600,"station_id":"ce4bhb92rcd13ifvqen0","pricing_plan_id":"cebpf4jnsgd1na2vs0mg"},{"bike_id":"cd2e400c-a456-4791-820e-275a373259d8","system_id":"levelo_inurba_marseille","lat":43.29567,"lon":5.3997,"is_reserved":false,"is_disabled":false,"rental_uris":{"android":"levelo://app?vid=cd2e400c-a456-4791-820e-275a373259d8","ios":"levelo://app?vid=cd2e400c-a456-4791-820e-275a373259d8"},"vehicle_type_id":"4","last_reported":1726035195,"current_range_meters":31200,"station_id":"ce4bh112rcd13ifvqda0","pricing_plan_id":"cebpf4jnsgd1na2vs0mg"},{"bike_id":"c19b3b06-dd40-414d-8bb5-7da222403898","system_id":"levelo_inurba_marseille","lat":43.33728,"lon":5.39186,"is_reserved":false,"is_disabled":false,"rental_uris":{"android":"levelo://app?vid=c19b3b06-dd40-414d-8bb5-7da222403898","ios":"levelo://app?vid=c19b3b06-dd40-414d-8bb5-7da222403898"},"vehicle_type_id":"4","last_reported":1726035195,"current_range_meters":38800,"station_id":"ce4bhr92rcd13ifvqhsg","pricing_plan_id":"cebpf4jnsgd1na2vs0mg"},{"bike_id":"e01f2de8-0328-4104-8c10-bddcb364c8e7","system_id":"levelo_inurba_marseille","lat":43.2407,"lon":5.37758,"is_reserved":false,"is_disabled":false,"rental_uris":{"android":"levelo://app?vid=e01f2de8-0328-4104-8c10-bddcb364c8e7","ios":"levelo://app?vid=e01f2de8-0328-4104-8c10-bddcb364c8e7"},"vehicle_type_id":"4","last_reported":1726035195,"current_range_meters":33200,"station_id":"ce4bhnp2rcd13ifvqgvg","pricing_plan_id":"cebpf4jnsgd1na2vs0mg"},{"bike_id":"c22bf776-82f1-423d-83f3-ab20051eb388","system_id":"levelo_inurba_marseille","lat":43.33621,"lon":5.41024,"is_reserved":false,"is_disabled":false,"rental_uris":{"android":"levelo://app?vid=c22bf776-82f1-423d-83f3-ab20051eb388","ios":"levelo://app?vid=c22bf776-82f1-423d-83f3-ab20051eb388"},"vehicle_type_id":"4","last_reported":1726035195,"current_range_meters":6400,"station_id":"ce4bhqh2rcd13ifvqhmg","pricing_plan_id":"cebpf4jnsgd1na2vs0mg"},{"bike_id":"c4176819-0c04-4c6d-b3f3-1f812ca6af38","system_id":"levelo_inurba_marseille","lat":43.29573,"lon":5.39964,"is_reserved":false,"is_disabled":false,"rental_uris":{"android":"levelo://app?vid=c4176819-0c04-4c6d-b3f3-1f812ca6af38","ios":"levelo://app?vid=c4176819-0c04-4c6d-b3f3-1f812ca6af38"},"vehicle_type_id":"4","last_reported":1726035195,"current_range_meters":28400,"station_id":"ce4bh312rcd13ifvqdj0","pricing_plan_id":"cebpf4jnsgd1na2vs0mg"},{"bike_id":"c335d78a-781a-4fc5-81b8-53415990ec91","system_id":"levelo_inurba_marseille","lat":43.26057,"lon":5.39393,"is_reserved":false,"is_disabled":false,"rental_uris":{"android":"levelo://app?vid=c335d78a-781a-4fc5-81b8-53415990ec91","ios":"levelo://app?vid=c335d78a-781a-4fc5-81b8-53415990ec91"},"vehicle_type_id":"4","last_reported":1726035195,"current_range_meters":25600,"station_id":"ce4bhh92rcd13ifvqfj0","pricing_plan_id":"cebpf4jnsgd1na2vs0mg"},{"bike_id":"514c9557-422e-4a73-8644-229d650d3273","system_id":"levelo_inurba_marseille","lat":43.290345,"lon":5.399632,"is_reserved":false,"is_disabled":false,"rental_uris":{"android":"levelo://app?vid=514c9557-422e-4a73-8644-229d650d3273","ios":"levelo://app?vid=514c9557-422e-4a73-8644-229d650d3273"},"vehicle_type_id":"4","last_reported":1726035195,"current_range_meters":27200,"station_id":"ce4bh392rcd13ifvqdm0","pricing_plan_id":"cebpf4jnsgd1na2vs0mg"},{"bike_id":"9b9547b7-77e2-4c32-9975-f0a65876f133","system_id":"levelo_inurba_marseille","lat":43.28039,"lon":5.36942,"is_reserved":false,"is_disabled":false,"rental_uris":{"android":"levelo://app?vid=9b9547b7-77e2-4c32-9975-f0a65876f133","ios":"levelo://app?vid=9b9547b7-77e2-4c32-9975-f0a65876f133"},"vehicle_type_id":"4","last_reported":1726035195,"current_range_meters":36000,"station_id":"ce4bha12rcd13ifvqef0","pricing_plan_id":"cebpf4jnsgd1na2vs0mg"},{"bike_id":"719bc6c4-8a33-4716-9972-890608eab4a8","system_id":"levelo_inurba_marseille","lat":43.28041,"lon":5.36934,"is_reserved":false,"is_disabled":false,"rental_uris":{"android":"levelo://app?vid=719bc6c4-8a33-4716-9972-890608eab4a8","ios":"levelo://app?vid=719bc6c4-8a33-4716-9972-890608eab4a8"},"vehicle_type_id":"4","last_reported":1726035195,"current_range_meters":20800,"station_id":"ce4bha12rcd13ifvqef0","pricing_plan_id":"cebpf4jnsgd1na2vs0mg"},{"bike_id":"ee0efcc0-0594-4a83-85d9-439b7eb0d1d1","system_id":"levelo_inurba_marseille","lat":43.23062,"lon":5.35494,"is_reserved":false,"is_disabled":false,"rental_uris":{"android":"levelo://app?vid=ee0efcc0-0594-4a83-85d9-439b7eb0d1d1","ios":"levelo://app?vid=ee0efcc0-0594-4a83-85d9-439b7eb0d1d1"},"vehicle_type_id":"4","last_reported":1726035195,"current_range_meters":38000,"station_id":"cpo3342slgdg3j2ifvpg","pricing_plan_id":"cebpf4jnsgd1na2vs0mg"},{"bike_id":"3ca161b1-fb03-46e1-bc58-270f4d2ef071","system_id":"levelo_inurba_marseille","lat":43.30461,"lon":5.37897,"is_reserved":false,"is_disabled":false,"rental_uris":{"android":"levelo://app?vid=3ca161b1-fb03-46e1-bc58-270f4d2ef071","ios":"levelo://app?vid=3ca161b1-fb03-46e1-bc58-270f4d2ef071"},"vehicle_type_id":"4","last_reported":1726035195,"current_range_meters":28000,"station_id":"ce4bgup2rcd13ifvqcn0","pricing_plan_id":"cebpf4jnsgd1na2vs0mg"},{"bike_id":"723c073e-5c6a-4fb9-a382-e8ea44a73076","system_id":"levelo_inurba_marseille","lat":43.29554,"lon":5.42279,"is_reserved":false,"is_disabled":false,"rental_uris":{"android":"levelo://app?vid=723c073e-5c6a-4fb9-a382-e8ea44a73076","ios":"levelo://app?vid=723c073e-5c6a-4fb9-a382-e8ea44a73076"},"vehicle_type_id":"4","last_reported":1726035195,"current_range_meters":33600,"station_id":"ce4bhph2rcd13ifvqhdg","pricing_plan_id":"cebpf4jnsgd1na2vs0mg"},{"bike_id":"2aad4b02-945c-4d35-b3a5-85b3d17dc503","system_id":"levelo_inurba_marseille","lat":43.32292,"lon":5.38241,"is_reserved":false,"is_disabled":false,"rental_uris":{"android":"levelo://app?vid=2aad4b02-945c-4d35-b3a5-85b3d17dc503","ios":"levelo://app?vid=2aad4b02-945c-4d35-b3a5-85b3d17dc503"},"vehicle_type_id":"4","last_reported":1726035195,"current_range_meters":4000,"station_id":"ce4bhr12rcd13ifvqhqg","pricing_plan_id":"cebpf4jnsgd1na2vs0mg"},{"bike_id":"42655c9d-9789-4a87-97b9-134c2885729e","system_id":"levelo_inurba_marseille","lat":43.26941,"lon":5.38908,"is_reserved":false,"is_disabled":false,"rental_uris":{"android":"levelo://app?vid=42655c9d-9789-4a87-97b9-134c2885729e","ios":"levelo://app?vid=42655c9d-9789-4a87-97b9-134c2885729e"},"vehicle_type_id":"4","last_reported":1726035195,"current_range_meters":6000,"station_id":"ce4bhhh2rcd13ifvqfl0","pricing_plan_id":"cebpf4jnsgd1na2vs0mg"},{"bike_id":"e9924c4f-09ca-4c11-80fb-946a94fbe388","system_id":"levelo_inurba_marseille","lat":43.25582,"lon":5.38236,"is_reserved":false,"is_disabled":false,"rental_uris":{"android":"levelo://app?vid=e9924c4f-09ca-4c11-80fb-946a94fbe388","ios":"levelo://app?vid=e9924c4f-09ca-4c11-80fb-946a94fbe388"},"vehicle_type_id":"4","last_reported":1726035195,"current_range_meters":26800,"station_id":"ce4bhih2rcd13ifvqfs0","pricing_plan_id":"cebpf4jnsgd1na2vs0mg"},{"bike_id":"4bb840b8-81ef-4fd1-b555-5588dfe38a72","system_id":"levelo_inurba_marseille","lat":43.243433,"lon":5.369214,"is_reserved":false,"is_disabled":false,"rental_uris":{"android":"levelo://app?vid=4bb840b8-81ef-4fd1-b555-5588dfe38a72","ios":"levelo://app?vid=4bb840b8-81ef-4fd1-b555-5588dfe38a72"},"vehicle_type_id":"4","last_reported":1726035195,"current_range_meters":26800,"station_id":"ce4bhi12rcd13ifvqfp0","pricing_plan_id":"cebpf4jnsgd1na2vs0mg"},{"bike_id":"270a84f9-41d6-4d64-8f74-449af4920796","system_id":"levelo_inurba_marseille","lat":43.2407,"lon":5.37754,"is_reserved":false,"is_disabled":false,"rental_uris":{"android":"levelo://app?vid=270a84f9-41d6-4d64-8f74-449af4920796","ios":"levelo://app?vid=270a84f9-41d6-4d64-8f74-449af4920796"},"vehicle_type_id":"4","last_reported":1726035195,"current_range_meters":32000,"station_id":"ce4bhnp2rcd13ifvqgvg","pricing_plan_id":"cebpf4jnsgd1na2vs0mg"},{"bike_id":"dd4c77a3-8f2f-4327-86e0-d9668552430d","system_id":"levelo_inurba_marseille","lat":43.27197,"lon":5.39193,"is_reserved":false,"is_disabled":false,"rental_uris":{"android":"levelo://app?vid=dd4c77a3-8f2f-4327-86e0-d9668552430d","ios":"levelo://app?vid=dd4c77a3-8f2f-4327-86e0-d9668552430d"},"vehicle_type_id":"4","last_reported":1726035195,"current_range_meters":36800,"station_id":"ce4bhhp2rcd13ifvqfm0","pricing_plan_id":"cebpf4jnsgd1na2vs0mg"},{"bike_id":"60c6953a-99f0-4ac1-abed-d991d8ce37dd","system_id":"levelo_inurba_marseille","lat":43.296,"lon":5.38101,"is_reserved":false,"is_disabled":false,"rental_uris":{"android":"levelo://app?vid=60c6953a-99f0-4ac1-abed-d991d8ce37dd","ios":"levelo://app?vid=60c6953a-99f0-4ac1-abed-d991d8ce37dd"},"vehicle_type_id":"4","last_reported":1726035195,"current_range_meters":29600,"station_id":"ce4bgl12rcd13ifvqbo0","pricing_plan_id":"cebpf4jnsgd1na2vs0mg"},{"bike_id":"211b5142-9ff2-4985-b66d-e93c99bdd248","system_id":"levelo_inurba_marseille","lat":43.24391,"lon":5.37061,"is_reserved":false,"is_disabled":false,"rental_uris":{"android":"levelo://app?vid=211b5142-9ff2-4985-b66d-e93c99bdd248","ios":"levelo://app?vid=211b5142-9ff2-4985-b66d-e93c99bdd248"},"vehicle_type_id":"4","last_reported":1726035195,"current_range_meters":24000,"station_id":"ce4bhhh2rcd13ifvqfk0","pricing_plan_id":"cebpf4jnsgd1na2vs0mg"},{"bike_id":"626a2292-59d9-4246-8b8e-3dc59b26795a","system_id":"levelo_inurba_marseille","lat":43.29541,"lon":5.422841,"is_reserved":false,"is_disabled":false,"rental_uris":{"android":"levelo://app?vid=626a2292-59d9-4246-8b8e-3dc59b26795a","ios":"levelo://app?vid=626a2292-59d9-4246-8b8e-3dc59b26795a"},"vehicle_type_id":"4","last_reported":1726035195,"current_range_meters":25600,"station_id":"ce4bhph2rcd13ifvqhdg","pricing_plan_id":"cebpf4jnsgd1na2vs0mg"},{"bike_id":"ba029e3c-a52b-4614-b297-934f2a650282","system_id":"levelo_inurba_marseille","lat":43.30472,"lon":5.37911,"is_reserved":false,"is_disabled":false,"rental_uris":{"android":"levelo://app?vid=ba029e3c-a52b-4614-b297-934f2a650282","ios":"levelo://app?vid=ba029e3c-a52b-4614-b297-934f2a650282"},"vehicle_type_id":"4","last_reported":1726035195,"current_range_meters":28400,"station_id":"ce4bgup2rcd13ifvqcn0","pricing_plan_id":"cebpf4jnsgd1na2vs0mg"},{"bike_id":"930b9931-3b2e-4f78-a69e-8bc606b017a1","system_id":"levelo_inurba_marseille","lat":43.305891,"lon":5.393559,"is_reserved":false,"is_disabled":false,"rental_uris":{"android":"levelo://app?vid=930b9931-3b2e-4f78-a69e-8bc606b017a1","ios":"levelo://app?vid=930b9931-3b2e-4f78-a69e-8bc606b017a1"},"vehicle_type_id":"4","last_reported":1726035195,"current_range_meters":29600,"station_id":"ce4bh0p2rcd13ifvqd80","pricing_plan_id":"cebpf4jnsgd1na2vs0mg"},{"bike_id":"1d22a03b-e162-48ef-bab8-56e9adda4ff2","system_id":"levelo_inurba_marseille","lat":43.286987,"lon":5.399926,"is_reserved":false,"is_disabled":false,"rental_uris":{"android":"levelo://app?vid=1d22a03b-e162-48ef-bab8-56e9adda4ff2","ios":"levelo://app?vid=1d22a03b-e162-48ef-bab8-56e9adda4ff2"},"vehicle_type_id":"4","last_reported":1726035195,"current_range_meters":30800,"station_id":"ce4bho92rcd13ifvqh3g","pricing_plan_id":"cebpf4jnsgd1na2vs0mg"},{"bike_id":"3a5232c5-cc45-44ea-84c3-d1e824e620d9","system_id":"levelo_inurba_marseille","lat":43.31998,"lon":5.38151,"is_reserved":false,"is_disabled":false,"rental_uris":{"android":"levelo://app?vid=3a5232c5-cc45-44ea-84c3-d1e824e620d9","ios":"levelo://app?vid=3a5232c5-cc45-44ea-84c3-d1e824e620d9"},"vehicle_type_id":"4","last_reported":1726035195,"current_range_meters":19600,"station_id":"ce4bhr12rcd13ifvqhpg","pricing_plan_id":"cebpf4jnsgd1na2vs0mg"},{"bike_id":"c4a11cd6-597d-4826-ad55-56b34d91dddb","system_id":"levelo_inurba_marseille","lat":43.24076,"lon":5.37756,"is_reserved":false,"is_disabled":false,"rental_uris":{"android":"levelo://app?vid=c4a11cd6-597d-4826-ad55-56b34d91dddb","ios":"levelo://app?vid=c4a11cd6-597d-4826-ad55-56b34d91dddb"},"vehicle_type_id":"4","last_reported":1726035195,"current_range_meters":11600,"station_id":"ce4bhnp2rcd13ifvqgvg","pricing_plan_id":"cebpf4jnsgd1na2vs0mg"},{"bike_id":"c7fcfbca-5f66-467c-af06-d80c81b93c3f","system_id":"levelo_inurba_marseille","lat":43.32357,"lon":5.38874,"is_reserved":false,"is_disabled":false,"rental_uris":{"android":"levelo://app?vid=c7fcfbca-5f66-467c-af06-d80c81b93c3f","ios":"levelo://app?vid=c7fcfbca-5f66-467c-af06-d80c81b93c3f"},"vehicle_type_id":"4","last_reported":1726035195,"current_range_meters":6000,"station_id":"ce4bhqp2rcd13ifvqhog","pricing_plan_id":"cebpf4jnsgd1na2vs0mg"},{"bike_id":"08cc88cf-d0bc-4013-8d56-ce7f6a2de190","system_id":"levelo_inurba_marseille","lat":43.301468,"lon":5.380785,"is_reserved":false,"is_disabled":false,"rental_uris":{"android":"levelo://app?vid=08cc88cf-d0bc-4013-8d56-ce7f6a2de190","ios":"levelo://app?vid=08cc88cf-d0bc-4013-8d56-ce7f6a2de190"},"vehicle_type_id":"4","last_reported":1726035195,"current_range_meters":33200,"station_id":"ce4bgjp2rcd13ifvqbh0","pricing_plan_id":"cebpf4jnsgd1na2vs0mg"},{"bike_id":"bb5894cf-32f0-428a-a9c0-c5d759c28a07","system_id":"levelo_inurba_marseille","lat":43.33603,"lon":5.41026,"is_reserved":false,"is_disabled":false,"rental_uris":{"android":"levelo://app?vid=bb5894cf-32f0-428a-a9c0-c5d759c28a07","ios":"levelo://app?vid=bb5894cf-32f0-428a-a9c0-c5d759c28a07"},"vehicle_type_id":"4","last_reported":1726035195,"current_range_meters":16800,"station_id":"ce4bhqh2rcd13ifvqhmg","pricing_plan_id":"cebpf4jnsgd1na2vs0mg"},{"bike_id":"ae5848c5-f1d3-4343-ae2e-d78a2d5b0242","system_id":"levelo_inurba_marseille","lat":43.30147,"lon":5.37422,"is_reserved":false,"is_disabled":false,"rental_uris":{"android":"levelo://app?vid=ae5848c5-f1d3-4343-ae2e-d78a2d5b0242","ios":"levelo://app?vid=ae5848c5-f1d3-4343-ae2e-d78a2d5b0242"},"vehicle_type_id":"4","last_reported":1726035195,"current_range_meters":32800,"station_id":"ce4bgs92rcd13ifvqcc0","pricing_plan_id":"cebpf4jnsgd1na2vs0mg"},{"bike_id":"f03c82e2-9740-4fcf-96a2-7220f7bba580","system_id":"levelo_inurba_marseille","lat":43.30289,"lon":5.37704,"is_reserved":false,"is_disabled":false,"rental_uris":{"android":"levelo://app?vid=f03c82e2-9740-4fcf-96a2-7220f7bba580","ios":"levelo://app?vid=f03c82e2-9740-4fcf-96a2-7220f7bba580"},"vehicle_type_id":"4","last_reported":1726035195,"current_range_meters":27600,"station_id":"ce4bguh2rcd13ifvqcj0","pricing_plan_id":"cebpf4jnsgd1na2vs0mg"},{"bike_id":"145df20c-dcd6-4546-8dc7-49aa5dc0c190","system_id":"levelo_inurba_marseille","lat":43.30474,"lon":5.37903,"is_reserved":false,"is_disabled":false,"rental_uris":{"android":"levelo://app?vid=145df20c-dcd6-4546-8dc7-49aa5dc0c190","ios":"levelo://app?vid=145df20c-dcd6-4546-8dc7-49aa5dc0c190"},"vehicle_type_id":"4","last_reported":1726035195,"current_range_meters":32400,"station_id":"ce4bgup2rcd13ifvqcn0","pricing_plan_id":"cebpf4jnsgd1na2vs0mg"},{"bike_id":"1d910cfa-aebe-454f-bc68-14f679f94d98","system_id":"levelo_inurba_marseille","lat":43.29336,"lon":5.3712,"is_reserved":false,"is_disabled":false,"rental_uris":{"android":"levelo://app?vid=1d910cfa-aebe-454f-bc68-14f679f94d98","ios":"levelo://app?vid=1d910cfa-aebe-454f-bc68-14f679f94d98"},"vehicle_type_id":"4","last_reported":1726035195,"current_range_meters":38000,"station_id":"ce4bgip2rcd13ifvqbb0","pricing_plan_id":"cebpf4jnsgd1na2vs0mg"},{"bike_id":"8d448478-c79a-44c7-b2fc-3154e6f9e524","system_id":"levelo_inurba_marseille","lat":43.26944,"lon":5.40244,"is_reserved":false,"is_disabled":false,"rental_uris":{"android":"levelo://app?vid=8d448478-c79a-44c7-b2fc-3154e6f9e524","ios":"levelo://app?vid=8d448478-c79a-44c7-b2fc-3154e6f9e524"},"vehicle_type_id":"4","last_reported":1726035195,"current_range_meters":35200,"station_id":"cjm6bp8fraef2m0cb0m0","pricing_plan_id":"cebpf4jnsgd1na2vs0mg"},{"bike_id":"e6b35bcc-3037-4151-8115-0bdaeac67606","system_id":"levelo_inurba_marseille","lat":43.30579,"lon":5.39362,"is_reserved":false,"is_disabled":false,"rental_uris":{"android":"levelo://app?vid=e6b35bcc-3037-4151-8115-0bdaeac67606","ios":"levelo://app?vid=e6b35bcc-3037-4151-8115-0bdaeac67606"},"vehicle_type_id":"4","last_reported":1726035195,"current_range_meters":32000,"station_id":"ce4bh0p2rcd13ifvqd80","pricing_plan_id":"cebpf4jnsgd1na2vs0mg"},{"bike_id":"20058ce1-e735-4a58-b1f1-49b6d63a88f4","system_id":"levelo_inurba_marseille","lat":43.25579,"lon":5.38236,"is_reserved":false,"is_disabled":false,"rental_uris":{"android":"levelo://app?vid=20058ce1-e735-4a58-b1f1-49b6d63a88f4","ios":"levelo://app?vid=20058ce1-e735-4a58-b1f1-49b6d63a88f4"},"vehicle_type_id":"4","last_reported":1726035195,"current_range_meters":28000,"station_id":"ce4bhih2rcd13ifvqfs0","pricing_plan_id":"cebpf4jnsgd1na2vs0mg"},{"bike_id":"98f1d1a9-4354-44f6-97a2-08ddcdb8a111","system_id":"levelo_inurba_marseille","lat":43.25829,"lon":5.39436,"is_reserved":false,"is_disabled":false,"rental_uris":{"android":"levelo://app?vid=98f1d1a9-4354-44f6-97a2-08ddcdb8a111","ios":"levelo://app?vid=98f1d1a9-4354-44f6-97a2-08ddcdb8a111"},"vehicle_type_id":"4","last_reported":1726035195,"current_range_meters":33600,"station_id":"ce4bhip2rcd13ifvqft0","pricing_plan_id":"cebpf4jnsgd1na2vs0mg"},{"bike_id":"39324291-e617-475b-9d4f-24d6e66eb0a7","system_id":"levelo_inurba_marseille","lat":43.29797,"lon":5.38121,"is_reserved":false,"is_disabled":false,"rental_uris":{"android":"levelo://app?vid=39324291-e617-475b-9d4f-24d6e66eb0a7","ios":"levelo://app?vid=39324291-e617-475b-9d4f-24d6e66eb0a7"},"vehicle_type_id":"4","last_reported":1726035195,"current_range_meters":4000,"station_id":"ce4bgip2rcd13ifvqbb0","pricing_plan_id":"cebpf4jnsgd1na2vs0mg"},{"bike_id":"4b740380-435b-4ce9-9b96-3da5fb37bac6","system_id":"levelo_inurba_marseille","lat":43.30961,"lon":5.40045,"is_reserved":false,"is_disabled":false,"rental_uris":{"android":"levelo://app?vid=4b740380-435b-4ce9-9b96-3da5fb37bac6","ios":"levelo://app?vid=4b740380-435b-4ce9-9b96-3da5fb37bac6"},"vehicle_type_id":"4","last_reported":1726035195,"current_range_meters":9200,"station_id":"ce4bhpp2rcd13ifvqhgg","pricing_plan_id":"cebpf4jnsgd1na2vs0mg"},{"bike_id":"7b2b6aa9-d9ad-475c-a16f-abdf3eec6d77","system_id":"levelo_inurba_marseille","lat":43.2293,"lon":5.35374,"is_reserved":false,"is_disabled":false,"rental_uris":{"android":"levelo://app?vid=7b2b6aa9-d9ad-475c-a16f-abdf3eec6d77","ios":"levelo://app?vid=7b2b6aa9-d9ad-475c-a16f-abdf3eec6d77"},"vehicle_type_id":"4","last_reported":1726035195,"current_range_meters":18000,"station_id":"cpo3532slgdg3j2ikp40","pricing_plan_id":"cebpf4jnsgd1na2vs0mg"},{"bike_id":"aa8c8f86-d4fd-403e-89b0-7366d8a144c8","system_id":"levelo_inurba_marseille","lat":43.30462,"lon":5.37909,"is_reserved":false,"is_disabled":false,"rental_uris":{"android":"levelo://app?vid=aa8c8f86-d4fd-403e-89b0-7366d8a144c8","ios":"levelo://app?vid=aa8c8f86-d4fd-403e-89b0-7366d8a144c8"},"vehicle_type_id":"4","last_reported":1726035195,"current_range_meters":31200,"station_id":"ce4bgup2rcd13ifvqcn0","pricing_plan_id":"cebpf4jnsgd1na2vs0mg"},{"bike_id":"8548c187-02b5-45b1-b575-08bd3fcafbf8","system_id":"levelo_inurba_marseille","lat":43.29034,"lon":5.39967,"is_reserved":false,"is_disabled":false,"rental_uris":{"android":"levelo://app?vid=8548c187-02b5-45b1-b575-08bd3fcafbf8","ios":"levelo://app?vid=8548c187-02b5-45b1-b575-08bd3fcafbf8"},"vehicle_type_id":"4","last_reported":1726035195,"current_range_meters":2000,"station_id":"ce4bh392rcd13ifvqdm0","pricing_plan_id":"cebpf4jnsgd1na2vs0mg"},{"bike_id":"638343ce-15e7-4192-b8b3-9dbbe2d9e121","system_id":"levelo_inurba_marseille","lat":43.2719,"lon":5.40989,"is_reserved":false,"is_disabled":false,"rental_uris":{"android":"levelo://app?vid=638343ce-15e7-4192-b8b3-9dbbe2d9e121","ios":"levelo://app?vid=638343ce-15e7-4192-b8b3-9dbbe2d9e121"},"vehicle_type_id":"4","last_reported":1726035195,"current_range_meters":37600,"station_id":"ce4bhl12rcd13ifvqgf0","pricing_plan_id":"cebpf4jnsgd1na2vs0mg"},{"bike_id":"7f4ea667-56df-4b26-bd46-3e71bc3cc245","system_id":"levelo_inurba_marseille","lat":43.29311,"lon":5.35561,"is_reserved":false,"is_disabled":false,"rental_uris":{"android":"levelo://app?vid=7f4ea667-56df-4b26-bd46-3e71bc3cc245","ios":"levelo://app?vid=7f4ea667-56df-4b26-bd46-3e71bc3cc245"},"vehicle_type_id":"4","last_reported":1726035195,"current_range_meters":3600,"station_id":"","pricing_plan_id":"cebpf4jnsgd1na2vs0mg"},{"bike_id":"aec5f77e-01b7-4ed1-911b-63822715c793","system_id":"levelo_inurba_marseille","lat":43.30903,"lon":5.37176,"is_reserved":false,"is_disabled":false,"rental_uris":{"android":"levelo://app?vid=aec5f77e-01b7-4ed1-911b-63822715c793","ios":"levelo://app?vid=aec5f77e-01b7-4ed1-911b-63822715c793"},"vehicle_type_id":"4","last_reported":1726035195,"current_range_meters":25600,"station_id":"ce4bguh2rcd13ifvqckg","pricing_plan_id":"cebpf4jnsgd1na2vs0mg"},{"bike_id":"3b163329-75e0-42ce-a395-e2936b5dfbec","system_id":"levelo_inurba_marseille","lat":43.29543,"lon":5.4226,"is_reserved":false,"is_disabled":false,"rental_uris":{"android":"levelo://app?vid=3b163329-75e0-42ce-a395-e2936b5dfbec","ios":"levelo://app?vid=3b163329-75e0-42ce-a395-e2936b5dfbec"},"vehicle_type_id":"4","last_reported":1726035195,"current_range_meters":30000,"station_id":"ce4bhph2rcd13ifvqhdg","pricing_plan_id":"cebpf4jnsgd1na2vs0mg"},{"bike_id":"d3c8ea6e-d01d-4d9e-9557-beffc1884ace","system_id":"levelo_inurba_marseille","lat":43.32286,"lon":5.38278,"is_reserved":false,"is_disabled":false,"rental_uris":{"android":"levelo://app?vid=d3c8ea6e-d01d-4d9e-9557-beffc1884ace","ios":"levelo://app?vid=d3c8ea6e-d01d-4d9e-9557-beffc1884ace"},"vehicle_type_id":"4","last_reported":1726035195,"current_range_meters":39200,"station_id":"ce4bhr12rcd13ifvqhqg","pricing_plan_id":"cebpf4jnsgd1na2vs0mg"},{"bike_id":"a235503b-e51b-4820-bf01-2e3aa22519c6","system_id":"levelo_inurba_marseille","lat":43.30592,"lon":5.39351,"is_reserved":false,"is_disabled":false,"rental_uris":{"android":"levelo://app?vid=a235503b-e51b-4820-bf01-2e3aa22519c6","ios":"levelo://app?vid=a235503b-e51b-4820-bf01-2e3aa22519c6"},"vehicle_type_id":"4","last_reported":1726035195,"current_range_meters":30800,"station_id":"ce4bh0p2rcd13ifvqd80","pricing_plan_id":"cebpf4jnsgd1na2vs0mg"},{"bike_id":"aa869161-06bd-41ee-b167-83b47a21abd6","system_id":"levelo_inurba_marseille","lat":43.27974,"lon":5.38737,"is_reserved":false,"is_disabled":false,"rental_uris":{"android":"levelo://app?vid=aa869161-06bd-41ee-b167-83b47a21abd6","ios":"levelo://app?vid=aa869161-06bd-41ee-b167-83b47a21abd6"},"vehicle_type_id":"4","last_reported":1726035195,"current_range_meters":7200,"station_id":"ce4bhg12rcd13ifvqf80","pricing_plan_id":"cebpf4jnsgd1na2vs0mg"},{"bike_id":"0ea7e1a2-cabf-4a1f-8d89-047d9c256994","system_id":"levelo_inurba_marseille","lat":43.31072,"lon":5.3835,"is_reserved":false,"is_disabled":false,"rental_uris":{"android":"levelo://app?vid=0ea7e1a2-cabf-4a1f-8d89-047d9c256994","ios":"levelo://app?vid=0ea7e1a2-cabf-4a1f-8d89-047d9c256994"},"vehicle_type_id":"4","last_reported":1726035195,"current_range_meters":19600,"station_id":"ce4bgv92rcd13ifvqcr0","pricing_plan_id":"cebpf4jnsgd1na2vs0mg"},{"bike_id":"40c5e2c3-d142-4b96-85c5-329e013dedfd","system_id":"levelo_inurba_marseille","lat":43.2844,"lon":5.39207,"is_reserved":false,"is_disabled":false,"rental_uris":{"android":"levelo://app?vid=40c5e2c3-d142-4b96-85c5-329e013dedfd","ios":"levelo://app?vid=40c5e2c3-d142-4b96-85c5-329e013dedfd"},"vehicle_type_id":"4","last_reported":1726035195,"current_range_meters":28800,"station_id":"ce4bhoh2rcd13ifvqh5g","pricing_plan_id":"cebpf4jnsgd1na2vs0mg"},{"bike_id":"532d53c7-e79f-4f48-a531-5cde729796db","system_id":"levelo_inurba_marseille","lat":43.269503,"lon":5.38627,"is_reserved":false,"is_disabled":false,"rental_uris":{"android":"levelo://app?vid=532d53c7-e79f-4f48-a531-5cde729796db","ios":"levelo://app?vid=532d53c7-e79f-4f48-a531-5cde729796db"},"vehicle_type_id":"4","last_reported":1726035195,"current_range_meters":23200,"station_id":"ce4bhh92rcd13ifvqfh0","pricing_plan_id":"cebpf4jnsgd1na2vs0mg"},{"bike_id":"648c1608-8ffd-4c6a-8bf1-f09362322e6c","system_id":"levelo_inurba_marseille","lat":43.25579,"lon":5.38227,"is_reserved":false,"is_disabled":false,"rental_uris":{"android":"levelo://app?vid=648c1608-8ffd-4c6a-8bf1-f09362322e6c","ios":"levelo://app?vid=648c1608-8ffd-4c6a-8bf1-f09362322e6c"},"vehicle_type_id":"4","last_reported":1726035195,"current_range_meters":14000,"station_id":"ce4bhih2rcd13ifvqfs0","pricing_plan_id":"cebpf4jnsgd1na2vs0mg"},{"bike_id":"24ea4db4-bcd3-4773-a10c-e0451f1c0df9","system_id":"levelo_inurba_marseille","lat":43.28036,"lon":5.36936,"is_reserved":false,"is_disabled":false,"rental_uris":{"android":"levelo://app?vid=24ea4db4-bcd3-4773-a10c-e0451f1c0df9","ios":"levelo://app?vid=24ea4db4-bcd3-4773-a10c-e0451f1c0df9"},"vehicle_type_id":"4","last_reported":1726035195,"current_range_meters":35200,"station_id":"ce4bha12rcd13ifvqef0","pricing_plan_id":"cebpf4jnsgd1na2vs0mg"},{"bike_id":"37d8c39f-1cdd-4f24-9274-2d093441df6e","system_id":"levelo_inurba_marseille","lat":43.31243,"lon":5.36842,"is_reserved":false,"is_disabled":false,"rental_uris":{"android":"levelo://app?vid=37d8c39f-1cdd-4f24-9274-2d093441df6e","ios":"levelo://app?vid=37d8c39f-1cdd-4f24-9274-2d093441df6e"},"vehicle_type_id":"4","last_reported":1726035195,"current_range_meters":30000,"station_id":"","pricing_plan_id":"cebpf4jnsgd1na2vs0mg"},{"bike_id":"36e02e03-11f3-41ac-9b0f-93c4017adc48","system_id":"levelo_inurba_marseille","lat":43.27357,"lon":5.41588,"is_reserved":false,"is_disabled":false,"rental_uris":{"android":"levelo://app?vid=36e02e03-11f3-41ac-9b0f-93c4017adc48","ios":"levelo://app?vid=36e02e03-11f3-41ac-9b0f-93c4017adc48"},"vehicle_type_id":"4","last_reported":1726035195,"current_range_meters":2800,"station_id":"","pricing_plan_id":"cebpf4jnsgd1na2vs0mg"},{"bike_id":"3db616b0-5520-4918-bfd5-c50674f17186","system_id":"levelo_inurba_marseille","lat":43.3169,"lon":5.40464,"is_reserved":false,"is_disabled":false,"rental_uris":{"android":"levelo://app?vid=3db616b0-5520-4918-bfd5-c50674f17186","ios":"levelo://app?vid=3db616b0-5520-4918-bfd5-c50674f17186"},"vehicle_type_id":"4","last_reported":1726035195,"current_range_meters":30800,"station_id":"ce4bh012rcd13ifvqd00","pricing_plan_id":"cebpf4jnsgd1na2vs0mg"},{"bike_id":"c1259a49-a061-40dd-b3f6-bd1e3333f06c","system_id":"levelo_inurba_marseille","lat":43.292843,"lon":5.401171,"is_reserved":false,"is_disabled":false,"rental_uris":{"android":"levelo://app?vid=c1259a49-a061-40dd-b3f6-bd1e3333f06c","ios":"levelo://app?vid=c1259a49-a061-40dd-b3f6-bd1e3333f06c"},"vehicle_type_id":"4","last_reported":1726035195,"current_range_meters":33600,"station_id":"ce4bh312rcd13ifvqdk0","pricing_plan_id":"cebpf4jnsgd1na2vs0mg"},{"bike_id":"19b0afcc-138c-4a2c-8c24-d79442b2b69b","system_id":"levelo_inurba_marseille","lat":43.28351,"lon":5.38099,"is_reserved":false,"is_disabled":false,"rental_uris":{"android":"levelo://app?vid=19b0afcc-138c-4a2c-8c24-d79442b2b69b","ios":"levelo://app?vid=19b0afcc-138c-4a2c-8c24-d79442b2b69b"},"vehicle_type_id":"4","last_reported":1726035195,"current_range_meters":11600,"station_id":"ce4bh412rcd13ifvqdr0","pricing_plan_id":"cebpf4jnsgd1na2vs0mg"},{"bike_id":"4dc41bf5-9ea0-4e32-a6f7-f44ecc919c2a","system_id":"levelo_inurba_marseille","lat":43.31694,"lon":5.37745,"is_reserved":false,"is_disabled":false,"rental_uris":{"android":"levelo://app?vid=4dc41bf5-9ea0-4e32-a6f7-f44ecc919c2a","ios":"levelo://app?vid=4dc41bf5-9ea0-4e32-a6f7-f44ecc919c2a"},"vehicle_type_id":"4","last_reported":1726035195,"current_range_meters":37600,"station_id":"ce4bgth2rcd13ifvqch0","pricing_plan_id":"cebpf4jnsgd1na2vs0mg"},{"bike_id":"3ad1c0b7-cf14-40ac-a119-2362e08acbad","system_id":"levelo_inurba_marseille","lat":43.304759,"lon":5.379129,"is_reserved":false,"is_disabled":false,"rental_uris":{"android":"levelo://app?vid=3ad1c0b7-cf14-40ac-a119-2362e08acbad","ios":"levelo://app?vid=3ad1c0b7-cf14-40ac-a119-2362e08acbad"},"vehicle_type_id":"4","last_reported":1726035195,"current_range_meters":37600,"station_id":"ce4bgup2rcd13ifvqcn0","pricing_plan_id":"cebpf4jnsgd1na2vs0mg"},{"bike_id":"d4fd6ca9-3a6e-4c38-8ee5-86d8043c5f97","system_id":"levelo_inurba_marseille","lat":43.30598,"lon":5.37207,"is_reserved":false,"is_disabled":false,"rental_uris":{"android":"levelo://app?vid=d4fd6ca9-3a6e-4c38-8ee5-86d8043c5f97","ios":"levelo://app?vid=d4fd6ca9-3a6e-4c38-8ee5-86d8043c5f97"},"vehicle_type_id":"4","last_reported":1726035195,"current_range_meters":25200,"station_id":"ce4bgqh2rcd13ifvqc4g","pricing_plan_id":"cebpf4jnsgd1na2vs0mg"},{"bike_id":"5a3fd4a6-1755-465c-8d8f-1a84ddce9916","system_id":"levelo_inurba_marseille","lat":43.25013,"lon":5.38912,"is_reserved":false,"is_disabled":false,"rental_uris":{"android":"levelo://app?vid=5a3fd4a6-1755-465c-8d8f-1a84ddce9916","ios":"levelo://app?vid=5a3fd4a6-1755-465c-8d8f-1a84ddce9916"},"vehicle_type_id":"4","last_reported":1726035195,"current_range_meters":27200,"station_id":"ce4bhgp2rcd13ifvqfd0","pricing_plan_id":"cebpf4jnsgd1na2vs0mg"},{"bike_id":"49458149-c5fa-4cb7-918f-181d0d0dbc7e","system_id":"levelo_inurba_marseille","lat":43.303,"lon":5.39191,"is_reserved":false,"is_disabled":false,"rental_uris":{"android":"levelo://app?vid=49458149-c5fa-4cb7-918f-181d0d0dbc7e","ios":"levelo://app?vid=49458149-c5fa-4cb7-918f-181d0d0dbc7e"},"vehicle_type_id":"4","last_reported":1726035195,"current_range_meters":36000,"station_id":"ce4bgkh2rcd13ifvqbk0","pricing_plan_id":"cebpf4jnsgd1na2vs0mg"},{"bike_id":"88f1af73-a32b-4a17-b2d1-5376d75e8ae0","system_id":"levelo_inurba_marseille","lat":43.23966,"lon":5.36628,"is_reserved":false,"is_disabled":false,"rental_uris":{"android":"levelo://app?vid=88f1af73-a32b-4a17-b2d1-5376d75e8ae0","ios":"levelo://app?vid=88f1af73-a32b-4a17-b2d1-5376d75e8ae0"},"vehicle_type_id":"4","last_reported":1726035195,"current_range_meters":17200,"station_id":"ce4bhi12rcd13ifvqfp0","pricing_plan_id":"cebpf4jnsgd1na2vs0mg"},{"bike_id":"f9fbfbb8-1db7-4121-8536-60fa723d2bf3","system_id":"levelo_inurba_marseille","lat":43.25582,"lon":5.38224,"is_reserved":false,"is_disabled":false,"rental_uris":{"android":"levelo://app?vid=f9fbfbb8-1db7-4121-8536-60fa723d2bf3","ios":"levelo://app?vid=f9fbfbb8-1db7-4121-8536-60fa723d2bf3"},"vehicle_type_id":"4","last_reported":1726035195,"current_range_meters":32400,"station_id":"ce4bhih2rcd13ifvqfs0","pricing_plan_id":"cebpf4jnsgd1na2vs0mg"},{"bike_id":"91a263cc-61c8-47d7-bc19-f795b37db7c9","system_id":"levelo_inurba_marseille","lat":43.27312,"lon":5.39066,"is_reserved":false,"is_disabled":false,"rental_uris":{"android":"levelo://app?vid=91a263cc-61c8-47d7-bc19-f795b37db7c9","ios":"levelo://app?vid=91a263cc-61c8-47d7-bc19-f795b37db7c9"},"vehicle_type_id":"4","last_reported":1726035195,"current_range_meters":24000,"station_id":"ce4bhgp2rcd13ifvqfe0","pricing_plan_id":"cebpf4jnsgd1na2vs0mg"},{"bike_id":"43a84af0-6fc9-45fc-9a33-c0cfe186c922","system_id":"levelo_inurba_marseille","lat":43.23961,"lon":5.36632,"is_reserved":false,"is_disabled":false,"rental_uris":{"android":"levelo://app?vid=43a84af0-6fc9-45fc-9a33-c0cfe186c922","ios":"levelo://app?vid=43a84af0-6fc9-45fc-9a33-c0cfe186c922"},"vehicle_type_id":"4","last_reported":1726035195,"current_range_meters":14400,"station_id":"ce4bhi12rcd13ifvqfp0","pricing_plan_id":"cebpf4jnsgd1na2vs0mg"},{"bike_id":"0cf4393d-de7a-4e10-8d86-c59233420309","system_id":"levelo_inurba_marseille","lat":43.27994,"lon":5.40019,"is_reserved":false,"is_disabled":false,"rental_uris":{"android":"levelo://app?vid=0cf4393d-de7a-4e10-8d86-c59233420309","ios":"levelo://app?vid=0cf4393d-de7a-4e10-8d86-c59233420309"},"vehicle_type_id":"4","last_reported":1726035195,"current_range_meters":38800,"station_id":"ce4bho92rcd13ifvqh4g","pricing_plan_id":"cebpf4jnsgd1na2vs0mg"},{"bike_id":"3284e331-b9f8-4159-8289-1afee059d4fd","system_id":"levelo_inurba_marseille","lat":43.32535,"lon":5.41426,"is_reserved":false,"is_disabled":false,"rental_uris":{"android":"levelo://app?vid=3284e331-b9f8-4159-8289-1afee059d4fd","ios":"levelo://app?vid=3284e331-b9f8-4159-8289-1afee059d4fd"},"vehicle_type_id":"4","last_reported":1726035195,"current_range_meters":19200,"station_id":"ce4bhq12rcd13ifvqhhg","pricing_plan_id":"cebpf4jnsgd1na2vs0mg"},{"bike_id":"e7f1ce34-711f-4386-95b9-fe5f61acdbcc","system_id":"levelo_inurba_marseille","lat":43.27376,"lon":5.36249,"is_reserved":false,"is_disabled":false,"rental_uris":{"android":"levelo://app?vid=e7f1ce34-711f-4386-95b9-fe5f61acdbcc","ios":"levelo://app?vid=e7f1ce34-711f-4386-95b9-fe5f61acdbcc"},"vehicle_type_id":"4","last_reported":1726035195,"current_range_meters":32800,"station_id":"ce4bhbh2rcd13ifvqeo0","pricing_plan_id":"cebpf4jnsgd1na2vs0mg"},{"bike_id":"5876c5ef-9fac-478d-bd3c-ea1780c21005","system_id":"levelo_inurba_marseille","lat":43.33763,"lon":5.37454,"is_reserved":false,"is_disabled":false,"rental_uris":{"android":"levelo://app?vid=5876c5ef-9fac-478d-bd3c-ea1780c21005","ios":"levelo://app?vid=5876c5ef-9fac-478d-bd3c-ea1780c21005"},"vehicle_type_id":"4","last_reported":1726035195,"current_range_meters":36800,"station_id":"","pricing_plan_id":"cebpf4jnsgd1na2vs0mg"},{"bike_id":"3ef293cb-6b10-47c2-a61b-1c747b67c2aa","system_id":"levelo_inurba_marseille","lat":43.22929,"lon":5.35378,"is_reserved":false,"is_disabled":false,"rental_uris":{"android":"levelo://app?vid=3ef293cb-6b10-47c2-a61b-1c747b67c2aa","ios":"levelo://app?vid=3ef293cb-6b10-47c2-a61b-1c747b67c2aa"},"vehicle_type_id":"4","last_reported":1726035195,"current_range_meters":36800,"station_id":"cpo3532slgdg3j2ikp40","pricing_plan_id":"cebpf4jnsgd1na2vs0mg"},{"bike_id":"9658173f-729f-44c0-b272-df35fcc2e649","system_id":"levelo_inurba_marseille","lat":43.34141,"lon":5.40906,"is_reserved":false,"is_disabled":false,"rental_uris":{"android":"levelo://app?vid=9658173f-729f-44c0-b272-df35fcc2e649","ios":"levelo://app?vid=9658173f-729f-44c0-b272-df35fcc2e649"},"vehicle_type_id":"4","last_reported":1726035195,"current_range_meters":31200,"station_id":"ce4bhqh2rcd13ifvqhlg","pricing_plan_id":"cebpf4jnsgd1na2vs0mg"},{"bike_id":"fc268b48-5cf0-4c77-8fe8-b091dd5c71bd","system_id":"levelo_inurba_marseille","lat":43.29521,"lon":5.37497,"is_reserved":false,"is_disabled":false,"rental_uris":{"android":"levelo://app?vid=fc268b48-5cf0-4c77-8fe8-b091dd5c71bd","ios":"levelo://app?vid=fc268b48-5cf0-4c77-8fe8-b091dd5c71bd"},"vehicle_type_id":"4","last_reported":1726035195,"current_range_meters":36800,"station_id":"ce4bgkp2rcd13ifvqbmg","pricing_plan_id":"cebpf4jnsgd1na2vs0mg"},{"bike_id":"9d97c6b7-d5ff-4ca7-999e-9c4395e89c55","system_id":"levelo_inurba_marseille","lat":43.24071,"lon":5.37762,"is_reserved":false,"is_disabled":false,"rental_uris":{"android":"levelo://app?vid=9d97c6b7-d5ff-4ca7-999e-9c4395e89c55","ios":"levelo://app?vid=9d97c6b7-d5ff-4ca7-999e-9c4395e89c55"},"vehicle_type_id":"4","last_reported":1726035195,"current_range_meters":37600,"station_id":"ce4bhnp2rcd13ifvqgvg","pricing_plan_id":"cebpf4jnsgd1na2vs0mg"},{"bike_id":"8f46fb95-7196-4600-a4bb-31374c79e4fd","system_id":"levelo_inurba_marseille","lat":43.2467,"lon":5.38159,"is_reserved":false,"is_disabled":false,"rental_uris":{"android":"levelo://app?vid=8f46fb95-7196-4600-a4bb-31374c79e4fd","ios":"levelo://app?vid=8f46fb95-7196-4600-a4bb-31374c79e4fd"},"vehicle_type_id":"4","last_reported":1726035195,"current_range_meters":36800,"station_id":"ce4bhih2rcd13ifvqfr0","pricing_plan_id":"cebpf4jnsgd1na2vs0mg"},{"bike_id":"e72f9d1f-419f-450b-86df-c8dd274dc578","system_id":"levelo_inurba_marseille","lat":43.31751,"lon":5.39009,"is_reserved":false,"is_disabled":false,"rental_uris":{"android":"levelo://app?vid=e72f9d1f-419f-450b-86df-c8dd274dc578","ios":"levelo://app?vid=e72f9d1f-419f-450b-86df-c8dd274dc578"},"vehicle_type_id":"4","last_reported":1726035195,"current_range_meters":9600,"station_id":"ce4bhqp2rcd13ifvqhng","pricing_plan_id":"cebpf4jnsgd1na2vs0mg"},{"bike_id":"7abb3655-b461-4e13-bc97-8c353f282d6b","system_id":"levelo_inurba_marseille","lat":43.23195,"lon":5.3997,"is_reserved":false,"is_disabled":false,"rental_uris":{"android":"levelo://app?vid=7abb3655-b461-4e13-bc97-8c353f282d6b","ios":"levelo://app?vid=7abb3655-b461-4e13-bc97-8c353f282d6b"},"vehicle_type_id":"4","last_reported":1726035195,"current_range_meters":6400,"station_id":"ce4bhn12rcd13ifvqgqg","pricing_plan_id":"cebpf4jnsgd1na2vs0mg"},{"bike_id":"8467c000-1d5f-4ea5-b3b9-f06550e0e78f","system_id":"levelo_inurba_marseille","lat":43.28917,"lon":5.38367,"is_reserved":false,"is_disabled":false,"rental_uris":{"android":"levelo://app?vid=8467c000-1d5f-4ea5-b3b9-f06550e0e78f","ios":"levelo://app?vid=8467c000-1d5f-4ea5-b3b9-f06550e0e78f"},"vehicle_type_id":"4","last_reported":1726035195,"current_range_meters":5600,"station_id":"ce4bh612rcd13ifvqe6g","pricing_plan_id":"cebpf4jnsgd1na2vs0mg"},{"bike_id":"4a5904ba-7a49-49b1-83c1-1c514f0e38b1","system_id":"levelo_inurba_marseille","lat":43.324581,"lon":5.365374,"is_reserved":false,"is_disabled":false,"rental_uris":{"android":"levelo://app?vid=4a5904ba-7a49-49b1-83c1-1c514f0e38b1","ios":"levelo://app?vid=4a5904ba-7a49-49b1-83c1-1c514f0e38b1"},"vehicle_type_id":"4","last_reported":1726035195,"current_range_meters":17200,"station_id":"ce4bhs12rcd13ifvqhvg","pricing_plan_id":"cebpf4jnsgd1na2vs0mg"},{"bike_id":"4db32b4d-4c85-4443-a8fa-2011c09b156e","system_id":"levelo_inurba_marseille","lat":43.27923,"lon":5.39566,"is_reserved":false,"is_disabled":false,"rental_uris":{"android":"levelo://app?vid=4db32b4d-4c85-4443-a8fa-2011c09b156e","ios":"levelo://app?vid=4db32b4d-4c85-4443-a8fa-2011c09b156e"},"vehicle_type_id":"4","last_reported":1726035195,"current_range_meters":32800,"station_id":"ce4bhf92rcd13ifvqf40","pricing_plan_id":"cebpf4jnsgd1na2vs0mg"},{"bike_id":"80fbad51-0a3b-4bd2-8a8f-5d4c68b18d1f","system_id":"levelo_inurba_marseille","lat":43.25581,"lon":5.38225,"is_reserved":false,"is_disabled":false,"rental_uris":{"android":"levelo://app?vid=80fbad51-0a3b-4bd2-8a8f-5d4c68b18d1f","ios":"levelo://app?vid=80fbad51-0a3b-4bd2-8a8f-5d4c68b18d1f"},"vehicle_type_id":"4","last_reported":1726035195,"current_range_meters":20400,"station_id":"ce4bhih2rcd13ifvqfs0","pricing_plan_id":"cebpf4jnsgd1na2vs0mg"},{"bike_id":"09a7a1ad-315d-4983-a6e2-a22d1208f337","system_id":"levelo_inurba_marseille","lat":43.27325,"lon":5.39097,"is_reserved":false,"is_disabled":false,"rental_uris":{"android":"levelo://app?vid=09a7a1ad-315d-4983-a6e2-a22d1208f337","ios":"levelo://app?vid=09a7a1ad-315d-4983-a6e2-a22d1208f337"},"vehicle_type_id":"4","last_reported":1726035195,"current_range_meters":38000,"station_id":"ce4bhgp2rcd13ifvqfe0","pricing_plan_id":"cebpf4jnsgd1na2vs0mg"},{"bike_id":"b5a4bf6d-ab23-4af1-88bf-30a7acfcf4d5","system_id":"levelo_inurba_marseille","lat":43.30152,"lon":5.38089,"is_reserved":false,"is_disabled":false,"rental_uris":{"android":"levelo://app?vid=b5a4bf6d-ab23-4af1-88bf-30a7acfcf4d5","ios":"levelo://app?vid=b5a4bf6d-ab23-4af1-88bf-30a7acfcf4d5"},"vehicle_type_id":"4","last_reported":1726035195,"current_range_meters":33600,"station_id":"ce4bgjp2rcd13ifvqbh0","pricing_plan_id":"cebpf4jnsgd1na2vs0mg"},{"bike_id":"6c9af773-288d-484a-9632-5a1caa62cc31","system_id":"levelo_inurba_marseille","lat":43.29788,"lon":5.39347,"is_reserved":false,"is_disabled":false,"rental_uris":{"android":"levelo://app?vid=6c9af773-288d-484a-9632-5a1caa62cc31","ios":"levelo://app?vid=6c9af773-288d-484a-9632-5a1caa62cc31"},"vehicle_type_id":"4","last_reported":1726035195,"current_range_meters":36800,"station_id":"chh1huq6cuj3fo74tm60","pricing_plan_id":"cebpf4jnsgd1na2vs0mg"},{"bike_id":"adc8afa1-1e4b-4291-a205-26fda757ef03","system_id":"levelo_inurba_marseille","lat":43.30465,"lon":5.37905,"is_reserved":false,"is_disabled":false,"rental_uris":{"android":"levelo://app?vid=adc8afa1-1e4b-4291-a205-26fda757ef03","ios":"levelo://app?vid=adc8afa1-1e4b-4291-a205-26fda757ef03"},"vehicle_type_id":"4","last_reported":1726035195,"current_range_meters":36400,"station_id":"ce4bgup2rcd13ifvqcn0","pricing_plan_id":"cebpf4jnsgd1na2vs0mg"},{"bike_id":"e5712809-e2c4-4278-bff6-03d580bab942","system_id":"levelo_inurba_marseille","lat":43.29593,"lon":5.38108,"is_reserved":false,"is_disabled":false,"rental_uris":{"android":"levelo://app?vid=e5712809-e2c4-4278-bff6-03d580bab942","ios":"levelo://app?vid=e5712809-e2c4-4278-bff6-03d580bab942"},"vehicle_type_id":"4","last_reported":1726035195,"current_range_meters":34000,"station_id":"ce4bgl12rcd13ifvqbo0","pricing_plan_id":"cebpf4jnsgd1na2vs0mg"},{"bike_id":"e97e5f8b-d3b2-4ac6-9620-3f9eb8161785","system_id":"levelo_inurba_marseille","lat":43.28434,"lon":5.39202,"is_reserved":false,"is_disabled":false,"rental_uris":{"android":"levelo://app?vid=e97e5f8b-d3b2-4ac6-9620-3f9eb8161785","ios":"levelo://app?vid=e97e5f8b-d3b2-4ac6-9620-3f9eb8161785"},"vehicle_type_id":"4","last_reported":1726035195,"current_range_meters":23200,"station_id":"ce4bhoh2rcd13ifvqh5g","pricing_plan_id":"cebpf4jnsgd1na2vs0mg"},{"bike_id":"77a964c0-b975-4b9f-b619-ddf5dc543156","system_id":"levelo_inurba_marseille","lat":43.29791,"lon":5.37119,"is_reserved":false,"is_disabled":false,"rental_uris":{"android":"levelo://app?vid=77a964c0-b975-4b9f-b619-ddf5dc543156","ios":"levelo://app?vid=77a964c0-b975-4b9f-b619-ddf5dc543156"},"vehicle_type_id":"4","last_reported":1726035195,"current_range_meters":30000,"station_id":"ce4bgop2rcd13ifvqc1g","pricing_plan_id":"cebpf4jnsgd1na2vs0mg"},{"bike_id":"cd82fa41-b636-4841-a4ad-36cab80eb359","system_id":"levelo_inurba_marseille","lat":43.240782,"lon":5.377542,"is_reserved":false,"is_disabled":false,"rental_uris":{"android":"levelo://app?vid=cd82fa41-b636-4841-a4ad-36cab80eb359","ios":"levelo://app?vid=cd82fa41-b636-4841-a4ad-36cab80eb359"},"vehicle_type_id":"4","last_reported":1726035195,"current_range_meters":24400,"station_id":"ce4bhnp2rcd13ifvqgvg","pricing_plan_id":"cebpf4jnsgd1na2vs0mg"},{"bike_id":"f3f44011-3ef2-4d36-9cda-10564d3f48d2","system_id":"levelo_inurba_marseille","lat":43.2582,"lon":5.39432,"is_reserved":false,"is_disabled":false,"rental_uris":{"android":"levelo://app?vid=f3f44011-3ef2-4d36-9cda-10564d3f48d2","ios":"levelo://app?vid=f3f44011-3ef2-4d36-9cda-10564d3f48d2"},"vehicle_type_id":"4","last_reported":1726035195,"current_range_meters":33600,"station_id":"ce4bhip2rcd13ifvqft0","pricing_plan_id":"cebpf4jnsgd1na2vs0mg"},{"bike_id":"2f486dda-7c18-403c-904a-075869f4ec60","system_id":"levelo_inurba_marseille","lat":43.27919,"lon":5.39569,"is_reserved":false,"is_disabled":false,"rental_uris":{"android":"levelo://app?vid=2f486dda-7c18-403c-904a-075869f4ec60","ios":"levelo://app?vid=2f486dda-7c18-403c-904a-075869f4ec60"},"vehicle_type_id":"4","last_reported":1726035195,"current_range_meters":30400,"station_id":"ce4bhf92rcd13ifvqf40","pricing_plan_id":"cebpf4jnsgd1na2vs0mg"},{"bike_id":"1bc6d034-1c4e-4b81-95f7-9274b014bd03","system_id":"levelo_inurba_marseille","lat":43.28471,"lon":5.35886,"is_reserved":false,"is_disabled":false,"rental_uris":{"android":"levelo://app?vid=1bc6d034-1c4e-4b81-95f7-9274b014bd03","ios":"levelo://app?vid=1bc6d034-1c4e-4b81-95f7-9274b014bd03"},"vehicle_type_id":"4","last_reported":1726035195,"current_range_meters":30800,"station_id":"ce4bhah2rcd13ifvqei0","pricing_plan_id":"cebpf4jnsgd1na2vs0mg"},{"bike_id":"e1b234d4-9ac8-4e18-bb5f-ae6c6c9c71a4","system_id":"levelo_inurba_marseille","lat":43.29297,"lon":5.37176,"is_reserved":false,"is_disabled":false,"rental_uris":{"android":"levelo://app?vid=e1b234d4-9ac8-4e18-bb5f-ae6c6c9c71a4","ios":"levelo://app?vid=e1b234d4-9ac8-4e18-bb5f-ae6c6c9c71a4"},"vehicle_type_id":"4","last_reported":1726035195,"current_range_meters":36400,"station_id":"ce4bgh92rcd13ifvqb40","pricing_plan_id":"cebpf4jnsgd1na2vs0mg"},{"bike_id":"ecd693f4-1a61-42af-96f9-1b1ddcee6722","system_id":"levelo_inurba_marseille","lat":43.28346,"lon":5.38092,"is_reserved":false,"is_disabled":false,"rental_uris":{"android":"levelo://app?vid=ecd693f4-1a61-42af-96f9-1b1ddcee6722","ios":"levelo://app?vid=ecd693f4-1a61-42af-96f9-1b1ddcee6722"},"vehicle_type_id":"4","last_reported":1726035195,"current_range_meters":24000,"station_id":"ce4bh412rcd13ifvqdr0","pricing_plan_id":"cebpf4jnsgd1na2vs0mg"},{"bike_id":"e3c8bccc-6c5a-486c-aec4-62058d07ed3b","system_id":"levelo_inurba_marseille","lat":43.27322,"lon":5.39089,"is_reserved":false,"is_disabled":false,"rental_uris":{"android":"levelo://app?vid=e3c8bccc-6c5a-486c-aec4-62058d07ed3b","ios":"levelo://app?vid=e3c8bccc-6c5a-486c-aec4-62058d07ed3b"},"vehicle_type_id":"4","last_reported":1726035195,"current_range_meters":38400,"station_id":"ce4bhgp2rcd13ifvqfe0","pricing_plan_id":"cebpf4jnsgd1na2vs0mg"},{"bike_id":"c4fac875-4a49-4bdc-9b4f-7bd9039f4c78","system_id":"levelo_inurba_marseille","lat":43.31478,"lon":5.37303,"is_reserved":false,"is_disabled":false,"rental_uris":{"android":"levelo://app?vid=c4fac875-4a49-4bdc-9b4f-7bd9039f4c78","ios":"levelo://app?vid=c4fac875-4a49-4bdc-9b4f-7bd9039f4c78"},"vehicle_type_id":"4","last_reported":1726035195,"current_range_meters":9200,"station_id":"ce4bgt12rcd13ifvqcd0","pricing_plan_id":"cebpf4jnsgd1na2vs0mg"},{"bike_id":"a9871d0e-5944-49cd-a8f2-933cc4de3ebd","system_id":"levelo_inurba_marseille","lat":43.3117,"lon":5.38712,"is_reserved":false,"is_disabled":false,"rental_uris":{"android":"levelo://app?vid=a9871d0e-5944-49cd-a8f2-933cc4de3ebd","ios":"levelo://app?vid=a9871d0e-5944-49cd-a8f2-933cc4de3ebd"},"vehicle_type_id":"4","last_reported":1726035195,"current_range_meters":38800,"station_id":"ce4bgv12rcd13ifvqcp0","pricing_plan_id":"cebpf4jnsgd1na2vs0mg"},{"bike_id":"c8e0fcb6-1d3f-4d83-b861-1f56e6b3ab2c","system_id":"levelo_inurba_marseille","lat":43.32289,"lon":5.38262,"is_reserved":false,"is_disabled":false,"rental_uris":{"android":"levelo://app?vid=c8e0fcb6-1d3f-4d83-b861-1f56e6b3ab2c","ios":"levelo://app?vid=c8e0fcb6-1d3f-4d83-b861-1f56e6b3ab2c"},"vehicle_type_id":"4","last_reported":1726035195,"current_range_meters":32800,"station_id":"ce4bhr12rcd13ifvqhqg","pricing_plan_id":"cebpf4jnsgd1na2vs0mg"},{"bike_id":"155ee80b-aa2c-4bb9-9bee-1edb20e202ad","system_id":"levelo_inurba_marseille","lat":43.307262,"lon":5.395352,"is_reserved":false,"is_disabled":false,"rental_uris":{"android":"levelo://app?vid=155ee80b-aa2c-4bb9-9bee-1edb20e202ad","ios":"levelo://app?vid=155ee80b-aa2c-4bb9-9bee-1edb20e202ad"},"vehicle_type_id":"4","last_reported":1726035195,"current_range_meters":11600,"station_id":"ce4bh012rcd13ifvqcv0","pricing_plan_id":"cebpf4jnsgd1na2vs0mg"},{"bike_id":"f5ae8659-113a-41fc-b3e1-ae0aaef9c69d","system_id":"levelo_inurba_marseille","lat":43.3022,"lon":5.39472,"is_reserved":false,"is_disabled":false,"rental_uris":{"android":"levelo://app?vid=f5ae8659-113a-41fc-b3e1-ae0aaef9c69d","ios":"levelo://app?vid=f5ae8659-113a-41fc-b3e1-ae0aaef9c69d"},"vehicle_type_id":"4","last_reported":1726035195,"current_range_meters":16000,"station_id":"ce4bh0p2rcd13ifvqd70","pricing_plan_id":"cebpf4jnsgd1na2vs0mg"},{"bike_id":"e1bb861c-674d-402c-be1b-01ce8b45cb68","system_id":"levelo_inurba_marseille","lat":43.30475,"lon":5.37919,"is_reserved":false,"is_disabled":false,"rental_uris":{"android":"levelo://app?vid=e1bb861c-674d-402c-be1b-01ce8b45cb68","ios":"levelo://app?vid=e1bb861c-674d-402c-be1b-01ce8b45cb68"},"vehicle_type_id":"4","last_reported":1726035195,"current_range_meters":8800,"station_id":"ce4bgup2rcd13ifvqcn0","pricing_plan_id":"cebpf4jnsgd1na2vs0mg"},{"bike_id":"b6baf7ae-fce3-4db9-aaa1-5b448122fecb","system_id":"levelo_inurba_marseille","lat":43.28847,"lon":5.35863,"is_reserved":false,"is_disabled":false,"rental_uris":{"android":"levelo://app?vid=b6baf7ae-fce3-4db9-aaa1-5b448122fecb","ios":"levelo://app?vid=b6baf7ae-fce3-4db9-aaa1-5b448122fecb"},"vehicle_type_id":"4","last_reported":1726035195,"current_range_meters":17600,"station_id":"ce4bhb12rcd13ifvqem0","pricing_plan_id":"cebpf4jnsgd1na2vs0mg"},{"bike_id":"33c39d1d-7dae-4444-8c41-c5ed72e67378","system_id":"levelo_inurba_marseille","lat":43.30476,"lon":5.37903,"is_reserved":false,"is_disabled":false,"rental_uris":{"android":"levelo://app?vid=33c39d1d-7dae-4444-8c41-c5ed72e67378","ios":"levelo://app?vid=33c39d1d-7dae-4444-8c41-c5ed72e67378"},"vehicle_type_id":"4","last_reported":1726035195,"current_range_meters":25200,"station_id":"ce4bgup2rcd13ifvqcn0","pricing_plan_id":"cebpf4jnsgd1na2vs0mg"},{"bike_id":"917fd476-e3ba-4286-ac35-9bf959a5ce6c","system_id":"levelo_inurba_marseille","lat":43.24068,"lon":5.37752,"is_reserved":false,"is_disabled":false,"rental_uris":{"android":"levelo://app?vid=917fd476-e3ba-4286-ac35-9bf959a5ce6c","ios":"levelo://app?vid=917fd476-e3ba-4286-ac35-9bf959a5ce6c"},"vehicle_type_id":"4","last_reported":1726035195,"current_range_meters":22400,"station_id":"ce4bhnp2rcd13ifvqgvg","pricing_plan_id":"cebpf4jnsgd1na2vs0mg"},{"bike_id":"9610f388-60c6-49bb-84bb-4ea91a1f925b","system_id":"levelo_inurba_marseille","lat":43.29551,"lon":5.42278,"is_reserved":false,"is_disabled":false,"rental_uris":{"android":"levelo://app?vid=9610f388-60c6-49bb-84bb-4ea91a1f925b","ios":"levelo://app?vid=9610f388-60c6-49bb-84bb-4ea91a1f925b"},"vehicle_type_id":"4","last_reported":1726035195,"current_range_meters":6800,"station_id":"ce4bhph2rcd13ifvqhdg","pricing_plan_id":"cebpf4jnsgd1na2vs0mg"},{"bike_id":"b979827e-ffa2-4465-8490-36166590de00","system_id":"levelo_inurba_marseille","lat":43.24069,"lon":5.37765,"is_reserved":false,"is_disabled":false,"rental_uris":{"android":"levelo://app?vid=b979827e-ffa2-4465-8490-36166590de00","ios":"levelo://app?vid=b979827e-ffa2-4465-8490-36166590de00"},"vehicle_type_id":"4","last_reported":1726035195,"current_range_meters":36400,"station_id":"ce4bhnp2rcd13ifvqgvg","pricing_plan_id":"cebpf4jnsgd1na2vs0mg"},{"bike_id":"a6d9874b-f99e-47ae-bf80-ea48469707b1","system_id":"levelo_inurba_marseille","lat":43.30223,"lon":5.394288,"is_reserved":false,"is_disabled":false,"rental_uris":{"android":"levelo://app?vid=a6d9874b-f99e-47ae-bf80-ea48469707b1","ios":"levelo://app?vid=a6d9874b-f99e-47ae-bf80-ea48469707b1"},"vehicle_type_id":"4","last_reported":1726035195,"current_range_meters":7200,"station_id":"ce4bh0p2rcd13ifvqd70","pricing_plan_id":"cebpf4jnsgd1na2vs0mg"},{"bike_id":"cbd47430-6678-4dfb-8022-31198711ea30","system_id":"levelo_inurba_marseille","lat":43.27497,"lon":5.42452,"is_reserved":false,"is_disabled":false,"rental_uris":{"android":"levelo://app?vid=cbd47430-6678-4dfb-8022-31198711ea30","ios":"levelo://app?vid=cbd47430-6678-4dfb-8022-31198711ea30"},"vehicle_type_id":"4","last_reported":1726035195,"current_range_meters":30400,"station_id":"ce4bhn92rcd13ifvqgrg","pricing_plan_id":"cebpf4jnsgd1na2vs0mg"},{"bike_id":"3e7d6579-011c-4e59-83ea-dab4e297703e","system_id":"levelo_inurba_marseille","lat":43.27494,"lon":5.42444,"is_reserved":false,"is_disabled":false,"rental_uris":{"android":"levelo://app?vid=3e7d6579-011c-4e59-83ea-dab4e297703e","ios":"levelo://app?vid=3e7d6579-011c-4e59-83ea-dab4e297703e"},"vehicle_type_id":"4","last_reported":1726035195,"current_range_meters":19200,"station_id":"ce4bhn92rcd13ifvqgrg","pricing_plan_id":"cebpf4jnsgd1na2vs0mg"},{"bike_id":"79c554e0-a5b3-40e4-a76f-e5d5a68a6672","system_id":"levelo_inurba_marseille","lat":43.3048,"lon":5.37909,"is_reserved":false,"is_disabled":false,"rental_uris":{"android":"levelo://app?vid=79c554e0-a5b3-40e4-a76f-e5d5a68a6672","ios":"levelo://app?vid=79c554e0-a5b3-40e4-a76f-e5d5a68a6672"},"vehicle_type_id":"4","last_reported":1726035195,"current_range_meters":33600,"station_id":"ce4bgup2rcd13ifvqcn0","pricing_plan_id":"cebpf4jnsgd1na2vs0mg"},{"bike_id":"c5d37f95-1f1c-4633-a4dc-4bea9759cb68","system_id":"levelo_inurba_marseille","lat":43.307878,"lon":5.376509,"is_reserved":false,"is_disabled":false,"rental_uris":{"android":"levelo://app?vid=c5d37f95-1f1c-4633-a4dc-4bea9759cb68","ios":"levelo://app?vid=c5d37f95-1f1c-4633-a4dc-4bea9759cb68"},"vehicle_type_id":"4","last_reported":1726035195,"current_range_meters":20800,"station_id":"ce4bgv92rcd13ifvqcq0","pricing_plan_id":"cebpf4jnsgd1na2vs0mg"},{"bike_id":"51e13f07-3491-4911-be5b-b4c992f74f41","system_id":"levelo_inurba_marseille","lat":43.27817,"lon":5.40718,"is_reserved":false,"is_disabled":false,"rental_uris":{"android":"levelo://app?vid=51e13f07-3491-4911-be5b-b4c992f74f41","ios":"levelo://app?vid=51e13f07-3491-4911-be5b-b4c992f74f41"},"vehicle_type_id":"4","last_reported":1726035195,"current_range_meters":27200,"station_id":"ce4bhnh2rcd13ifvqgtg","pricing_plan_id":"cebpf4jnsgd1na2vs0mg"},{"bike_id":"69eda0f2-b4e3-4334-adca-4d6836fcc9fd","system_id":"levelo_inurba_marseille","lat":43.32289,"lon":5.38264,"is_reserved":false,"is_disabled":false,"rental_uris":{"android":"levelo://app?vid=69eda0f2-b4e3-4334-adca-4d6836fcc9fd","ios":"levelo://app?vid=69eda0f2-b4e3-4334-adca-4d6836fcc9fd"},"vehicle_type_id":"4","last_reported":1726035195,"current_range_meters":36800,"station_id":"ce4bhr12rcd13ifvqhqg","pricing_plan_id":"cebpf4jnsgd1na2vs0mg"},{"bike_id":"451b993e-939e-4974-91fb-2dbc595d90f9","system_id":"levelo_inurba_marseille","lat":43.34137,"lon":5.40907,"is_reserved":false,"is_disabled":false,"rental_uris":{"android":"levelo://app?vid=451b993e-939e-4974-91fb-2dbc595d90f9","ios":"levelo://app?vid=451b993e-939e-4974-91fb-2dbc595d90f9"},"vehicle_type_id":"4","last_reported":1726035195,"current_range_meters":2000,"station_id":"ce4bhqh2rcd13ifvqhlg","pricing_plan_id":"cebpf4jnsgd1na2vs0mg"},{"bike_id":"0790f8e9-3b3f-4df0-8fa5-53ed31d518e3","system_id":"levelo_inurba_marseille","lat":43.28339,"lon":5.38105,"is_reserved":false,"is_disabled":false,"rental_uris":{"android":"levelo://app?vid=0790f8e9-3b3f-4df0-8fa5-53ed31d518e3","ios":"levelo://app?vid=0790f8e9-3b3f-4df0-8fa5-53ed31d518e3"},"vehicle_type_id":"4","last_reported":1726035195,"current_range_meters":31200,"station_id":"ce4bh412rcd13ifvqdr0","pricing_plan_id":"cebpf4jnsgd1na2vs0mg"},{"bike_id":"4dfaeb16-4ad1-4c9d-bc8d-824173f80fbc","system_id":"levelo_inurba_marseille","lat":43.2407,"lon":5.3776,"is_reserved":false,"is_disabled":false,"rental_uris":{"android":"levelo://app?vid=4dfaeb16-4ad1-4c9d-bc8d-824173f80fbc","ios":"levelo://app?vid=4dfaeb16-4ad1-4c9d-bc8d-824173f80fbc"},"vehicle_type_id":"4","last_reported":1726035195,"current_range_meters":13600,"station_id":"ce4bhnp2rcd13ifvqgvg","pricing_plan_id":"cebpf4jnsgd1na2vs0mg"},{"bike_id":"f400d370-a20e-4ced-86f0-64f62510749c","system_id":"levelo_inurba_marseille","lat":43.3237,"lon":5.38926,"is_reserved":false,"is_disabled":false,"rental_uris":{"android":"levelo://app?vid=f400d370-a20e-4ced-86f0-64f62510749c","ios":"levelo://app?vid=f400d370-a20e-4ced-86f0-64f62510749c"},"vehicle_type_id":"4","last_reported":1726035195,"current_range_meters":15200,"station_id":"","pricing_plan_id":"cebpf4jnsgd1na2vs0mg"},{"bike_id":"88d02e52-7466-442c-a697-a70eac9f6e7e","system_id":"levelo_inurba_marseille","lat":43.31721,"lon":5.42395,"is_reserved":false,"is_disabled":false,"rental_uris":{"android":"levelo://app?vid=88d02e52-7466-442c-a697-a70eac9f6e7e","ios":"levelo://app?vid=88d02e52-7466-442c-a697-a70eac9f6e7e"},"vehicle_type_id":"4","last_reported":1726035195,"current_range_meters":10000,"station_id":"ce4bhp92rcd13ifvqhbg","pricing_plan_id":"cebpf4jnsgd1na2vs0mg"},{"bike_id":"9320b79d-cbc4-47e0-a8a1-39c7f9bbcffb","system_id":"levelo_inurba_marseille","lat":43.24678,"lon":5.38161,"is_reserved":false,"is_disabled":false,"rental_uris":{"android":"levelo://app?vid=9320b79d-cbc4-47e0-a8a1-39c7f9bbcffb","ios":"levelo://app?vid=9320b79d-cbc4-47e0-a8a1-39c7f9bbcffb"},"vehicle_type_id":"4","last_reported":1726035195,"current_range_meters":37600,"station_id":"ce4bhih2rcd13ifvqfr0","pricing_plan_id":"cebpf4jnsgd1na2vs0mg"},{"bike_id":"3406224d-0992-4b67-847f-e229def61da4","system_id":"levelo_inurba_marseille","lat":43.23965,"lon":5.36629,"is_reserved":false,"is_disabled":false,"rental_uris":{"android":"levelo://app?vid=3406224d-0992-4b67-847f-e229def61da4","ios":"levelo://app?vid=3406224d-0992-4b67-847f-e229def61da4"},"vehicle_type_id":"4","last_reported":1726035195,"current_range_meters":19600,"station_id":"ce4bhi12rcd13ifvqfp0","pricing_plan_id":"cebpf4jnsgd1na2vs0mg"},{"bike_id":"2d0d62b5-28eb-4533-970b-790f4f64cbbf","system_id":"levelo_inurba_marseille","lat":43.28712,"lon":5.37925,"is_reserved":false,"is_disabled":false,"rental_uris":{"android":"levelo://app?vid=2d0d62b5-28eb-4533-970b-790f4f64cbbf","ios":"levelo://app?vid=2d0d62b5-28eb-4533-970b-790f4f64cbbf"},"vehicle_type_id":"4","last_reported":1726035195,"current_range_meters":37600,"station_id":"ce4bh9p2rcd13ifvqec0","pricing_plan_id":"cebpf4jnsgd1na2vs0mg"},{"bike_id":"e86db4a0-45a8-4606-9875-40176b9dbd26","system_id":"levelo_inurba_marseille","lat":43.27664,"lon":5.38852,"is_reserved":false,"is_disabled":false,"rental_uris":{"android":"levelo://app?vid=e86db4a0-45a8-4606-9875-40176b9dbd26","ios":"levelo://app?vid=e86db4a0-45a8-4606-9875-40176b9dbd26"},"vehicle_type_id":"4","last_reported":1726035195,"current_range_meters":35200,"station_id":"ce4bhi12rcd13ifvqfo0","pricing_plan_id":"cebpf4jnsgd1na2vs0mg"},{"bike_id":"4f98b9a6-3078-458b-b605-3b0ed6341dd8","system_id":"levelo_inurba_marseille","lat":43.287037,"lon":5.375093,"is_reserved":false,"is_disabled":false,"rental_uris":{"android":"levelo://app?vid=4f98b9a6-3078-458b-b605-3b0ed6341dd8","ios":"levelo://app?vid=4f98b9a6-3078-458b-b605-3b0ed6341dd8"},"vehicle_type_id":"4","last_reported":1726035195,"current_range_meters":30400,"station_id":"","pricing_plan_id":"cebpf4jnsgd1na2vs0mg"},{"bike_id":"20f50902-380e-403c-b839-453710f15317","system_id":"levelo_inurba_marseille","lat":43.27182,"lon":5.40985,"is_reserved":false,"is_disabled":false,"rental_uris":{"android":"levelo://app?vid=20f50902-380e-403c-b839-453710f15317","ios":"levelo://app?vid=20f50902-380e-403c-b839-453710f15317"},"vehicle_type_id":"4","last_reported":1726035195,"current_range_meters":38000,"station_id":"ce4bhl12rcd13ifvqgf0","pricing_plan_id":"cebpf4jnsgd1na2vs0mg"},{"bike_id":"5bcb6beb-074a-4003-a526-af0e599dffa7","system_id":"levelo_inurba_marseille","lat":43.30148,"lon":5.38076,"is_reserved":false,"is_disabled":false,"rental_uris":{"android":"levelo://app?vid=5bcb6beb-074a-4003-a526-af0e599dffa7","ios":"levelo://app?vid=5bcb6beb-074a-4003-a526-af0e599dffa7"},"vehicle_type_id":"4","last_reported":1726035195,"current_range_meters":27600,"station_id":"ce4bgjp2rcd13ifvqbh0","pricing_plan_id":"cebpf4jnsgd1na2vs0mg"},{"bike_id":"8791b597-3d6c-495b-b4b7-0575f01fa203","system_id":"levelo_inurba_marseille","lat":43.29801,"lon":5.38078,"is_reserved":false,"is_disabled":false,"rental_uris":{"android":"levelo://app?vid=8791b597-3d6c-495b-b4b7-0575f01fa203","ios":"levelo://app?vid=8791b597-3d6c-495b-b4b7-0575f01fa203"},"vehicle_type_id":"4","last_reported":1726035195,"current_range_meters":14000,"station_id":"ce4bgip2rcd13ifvqbb0","pricing_plan_id":"cebpf4jnsgd1na2vs0mg"},{"bike_id":"9171d867-d71c-43c3-a5ba-f4a3773cf8eb","system_id":"levelo_inurba_marseille","lat":43.30471,"lon":5.37897,"is_reserved":false,"is_disabled":false,"rental_uris":{"android":"levelo://app?vid=9171d867-d71c-43c3-a5ba-f4a3773cf8eb","ios":"levelo://app?vid=9171d867-d71c-43c3-a5ba-f4a3773cf8eb"},"vehicle_type_id":"4","last_reported":1726035195,"current_range_meters":2800,"station_id":"ce4bgup2rcd13ifvqcn0","pricing_plan_id":"cebpf4jnsgd1na2vs0mg"},{"bike_id":"38b29daa-05a9-4468-b855-697ff9da1a2e","system_id":"levelo_inurba_marseille","lat":43.26953,"lon":5.38628,"is_reserved":false,"is_disabled":false,"rental_uris":{"android":"levelo://app?vid=38b29daa-05a9-4468-b855-697ff9da1a2e","ios":"levelo://app?vid=38b29daa-05a9-4468-b855-697ff9da1a2e"},"vehicle_type_id":"4","last_reported":1726035195,"current_range_meters":14000,"station_id":"ce4bhh92rcd13ifvqfh0","pricing_plan_id":"cebpf4jnsgd1na2vs0mg"},{"bike_id":"a63f94bf-60a1-4f59-8038-f901c7e66c95","system_id":"levelo_inurba_marseille","lat":43.295613,"lon":5.422942,"is_reserved":false,"is_disabled":false,"rental_uris":{"android":"levelo://app?vid=a63f94bf-60a1-4f59-8038-f901c7e66c95","ios":"levelo://app?vid=a63f94bf-60a1-4f59-8038-f901c7e66c95"},"vehicle_type_id":"4","last_reported":1726035195,"current_range_meters":27200,"station_id":"ce4bhph2rcd13ifvqhdg","pricing_plan_id":"cebpf4jnsgd1na2vs0mg"},{"bike_id":"ad4169bd-c852-4513-aa84-dd9593e6c788","system_id":"levelo_inurba_marseille","lat":43.32334,"lon":5.40627,"is_reserved":false,"is_disabled":false,"rental_uris":{"android":"levelo://app?vid=ad4169bd-c852-4513-aa84-dd9593e6c788","ios":"levelo://app?vid=ad4169bd-c852-4513-aa84-dd9593e6c788"},"vehicle_type_id":"4","last_reported":1726035195,"current_range_meters":14400,"station_id":"ce4bhq92rcd13ifvqhjg","pricing_plan_id":"cebpf4jnsgd1na2vs0mg"},{"bike_id":"cec131b6-6c84-4899-9723-159f4b060af5","system_id":"levelo_inurba_marseille","lat":43.31688,"lon":5.37742,"is_reserved":false,"is_disabled":false,"rental_uris":{"android":"levelo://app?vid=cec131b6-6c84-4899-9723-159f4b060af5","ios":"levelo://app?vid=cec131b6-6c84-4899-9723-159f4b060af5"},"vehicle_type_id":"4","last_reported":1726035195,"current_range_meters":8800,"station_id":"ce4bgth2rcd13ifvqch0","pricing_plan_id":"cebpf4jnsgd1na2vs0mg"},{"bike_id":"a882960d-3ac7-4f77-bb51-aee566575fd6","system_id":"levelo_inurba_marseille","lat":43.27665,"lon":5.3888,"is_reserved":false,"is_disabled":false,"rental_uris":{"android":"levelo://app?vid=a882960d-3ac7-4f77-bb51-aee566575fd6","ios":"levelo://app?vid=a882960d-3ac7-4f77-bb51-aee566575fd6"},"vehicle_type_id":"4","last_reported":1726035195,"current_range_meters":37600,"station_id":"ce4bhi12rcd13ifvqfo0","pricing_plan_id":"cebpf4jnsgd1na2vs0mg"},{"bike_id":"2cfe9cf9-8c5e-4154-acba-0a54170b6cb3","system_id":"levelo_inurba_marseille","lat":43.25937,"lon":5.40902,"is_reserved":false,"is_disabled":false,"rental_uris":{"android":"levelo://app?vid=2cfe9cf9-8c5e-4154-acba-0a54170b6cb3","ios":"levelo://app?vid=2cfe9cf9-8c5e-4154-acba-0a54170b6cb3"},"vehicle_type_id":"4","last_reported":1726035195,"current_range_meters":8800,"station_id":"ce4bhm92rcd13ifvqglg","pricing_plan_id":"cebpf4jnsgd1na2vs0mg"},{"bike_id":"833161a5-fffb-419d-9de7-89def1a5d878","system_id":"levelo_inurba_marseille","lat":43.28562,"lon":5.39494,"is_reserved":false,"is_disabled":false,"rental_uris":{"android":"levelo://app?vid=833161a5-fffb-419d-9de7-89def1a5d878","ios":"levelo://app?vid=833161a5-fffb-419d-9de7-89def1a5d878"},"vehicle_type_id":"4","last_reported":1726035195,"current_range_meters":32000,"station_id":"ce4bh292rcd13ifvqdg0","pricing_plan_id":"cebpf4jnsgd1na2vs0mg"},{"bike_id":"0fcdace3-7307-4806-b375-f7f8bde96716","system_id":"levelo_inurba_marseille","lat":43.28939,"lon":5.39619,"is_reserved":false,"is_disabled":false,"rental_uris":{"android":"levelo://app?vid=0fcdace3-7307-4806-b375-f7f8bde96716","ios":"levelo://app?vid=0fcdace3-7307-4806-b375-f7f8bde96716"},"vehicle_type_id":"4","last_reported":1726035195,"current_range_meters":14000,"station_id":"ce4bh3h2rcd13ifvqdn0","pricing_plan_id":"cebpf4jnsgd1na2vs0mg"},{"bike_id":"61cf4a3a-2942-44a8-a346-1fbbdf1a4d5c","system_id":"levelo_inurba_marseille","lat":43.231537,"lon":5.437078,"is_reserved":false,"is_disabled":false,"rental_uris":{"android":"levelo://app?vid=61cf4a3a-2942-44a8-a346-1fbbdf1a4d5c","ios":"levelo://app?vid=61cf4a3a-2942-44a8-a346-1fbbdf1a4d5c"},"vehicle_type_id":"4","last_reported":1726035195,"current_range_meters":17200,"station_id":"ce4bhmp2rcd13ifvqgog","pricing_plan_id":"cebpf4jnsgd1na2vs0mg"},{"bike_id":"f9588990-7de1-4e0b-979b-31419c532106","system_id":"levelo_inurba_marseille","lat":43.2804,"lon":5.36946,"is_reserved":false,"is_disabled":false,"rental_uris":{"android":"levelo://app?vid=f9588990-7de1-4e0b-979b-31419c532106","ios":"levelo://app?vid=f9588990-7de1-4e0b-979b-31419c532106"},"vehicle_type_id":"4","last_reported":1726035195,"current_range_meters":10800,"station_id":"ce4bha12rcd13ifvqef0","pricing_plan_id":"cebpf4jnsgd1na2vs0mg"},{"bike_id":"93572841-f633-4559-9e0e-af8e0baaa202","system_id":"levelo_inurba_marseille","lat":43.29599,"lon":5.38096,"is_reserved":false,"is_disabled":false,"rental_uris":{"android":"levelo://app?vid=93572841-f633-4559-9e0e-af8e0baaa202","ios":"levelo://app?vid=93572841-f633-4559-9e0e-af8e0baaa202"},"vehicle_type_id":"4","last_reported":1726035195,"current_range_meters":30000,"station_id":"ce4bgl12rcd13ifvqbo0","pricing_plan_id":"cebpf4jnsgd1na2vs0mg"},{"bike_id":"ea547e96-58db-43e3-871c-6a5edbb3f391","system_id":"levelo_inurba_marseille","lat":43.27174,"lon":5.40991,"is_reserved":false,"is_disabled":false,"rental_uris":{"android":"levelo://app?vid=ea547e96-58db-43e3-871c-6a5edbb3f391","ios":"levelo://app?vid=ea547e96-58db-43e3-871c-6a5edbb3f391"},"vehicle_type_id":"4","last_reported":1726035195,"current_range_meters":39200,"station_id":"ce4bhl12rcd13ifvqgf0","pricing_plan_id":"cebpf4jnsgd1na2vs0mg"},{"bike_id":"d5df1b6d-3d3d-4339-90f3-edaf4836f9b3","system_id":"levelo_inurba_marseille","lat":43.28728,"lon":5.36077,"is_reserved":false,"is_disabled":false,"rental_uris":{"android":"levelo://app?vid=d5df1b6d-3d3d-4339-90f3-edaf4836f9b3","ios":"levelo://app?vid=d5df1b6d-3d3d-4339-90f3-edaf4836f9b3"},"vehicle_type_id":"4","last_reported":1726035195,"current_range_meters":9200,"station_id":"cki0cbj6b192h4jlfktg","pricing_plan_id":"cebpf4jnsgd1na2vs0mg"},{"bike_id":"0355e768-9837-4e19-b5cb-35a830899366","system_id":"levelo_inurba_marseille","lat":43.27495,"lon":5.42449,"is_reserved":false,"is_disabled":false,"rental_uris":{"android":"levelo://app?vid=0355e768-9837-4e19-b5cb-35a830899366","ios":"levelo://app?vid=0355e768-9837-4e19-b5cb-35a830899366"},"vehicle_type_id":"4","last_reported":1726035195,"current_range_meters":20400,"station_id":"ce4bhn92rcd13ifvqgrg","pricing_plan_id":"cebpf4jnsgd1na2vs0mg"},{"bike_id":"cec1f9c3-f935-49fa-9c33-44dd73c28b4d","system_id":"levelo_inurba_marseille","lat":43.32481,"lon":5.36567,"is_reserved":false,"is_disabled":false,"rental_uris":{"android":"levelo://app?vid=cec1f9c3-f935-49fa-9c33-44dd73c28b4d","ios":"levelo://app?vid=cec1f9c3-f935-49fa-9c33-44dd73c28b4d"},"vehicle_type_id":"4","last_reported":1726035195,"current_range_meters":38000,"station_id":"ce4bhs12rcd13ifvqhvg","pricing_plan_id":"cebpf4jnsgd1na2vs0mg"},{"bike_id":"44f32411-a978-4e5c-8794-5490ed45ba7d","system_id":"levelo_inurba_marseille","lat":43.33754,"lon":5.3743,"is_reserved":false,"is_disabled":false,"rental_uris":{"android":"levelo://app?vid=44f32411-a978-4e5c-8794-5490ed45ba7d","ios":"levelo://app?vid=44f32411-a978-4e5c-8794-5490ed45ba7d"},"vehicle_type_id":"4","last_reported":1726035195,"current_range_meters":35600,"station_id":"","pricing_plan_id":"cebpf4jnsgd1na2vs0mg"},{"bike_id":"bfae9a13-0790-4aba-babc-0feae4c3dc67","system_id":"levelo_inurba_marseille","lat":43.2971,"lon":5.37682,"is_reserved":false,"is_disabled":false,"rental_uris":{"android":"levelo://app?vid=bfae9a13-0790-4aba-babc-0feae4c3dc67","ios":"levelo://app?vid=bfae9a13-0790-4aba-babc-0feae4c3dc67"},"vehicle_type_id":"4","last_reported":1726035195,"current_range_meters":34000,"station_id":"ce4bhap2rcd13ifvqek0","pricing_plan_id":"cebpf4jnsgd1na2vs0mg"},{"bike_id":"a5637a8b-38f0-4dcf-bb5c-f0548702728e","system_id":"levelo_inurba_marseille","lat":43.24071,"lon":5.37757,"is_reserved":false,"is_disabled":false,"rental_uris":{"android":"levelo://app?vid=a5637a8b-38f0-4dcf-bb5c-f0548702728e","ios":"levelo://app?vid=a5637a8b-38f0-4dcf-bb5c-f0548702728e"},"vehicle_type_id":"4","last_reported":1726035195,"current_range_meters":36800,"station_id":"ce4bhnp2rcd13ifvqgvg","pricing_plan_id":"cebpf4jnsgd1na2vs0mg"},{"bike_id":"cd4d6f4d-c80a-4353-933b-1fafbf4b8f64","system_id":"levelo_inurba_marseille","lat":43.24168,"lon":5.36395,"is_reserved":false,"is_disabled":false,"rental_uris":{"android":"levelo://app?vid=cd4d6f4d-c80a-4353-933b-1fafbf4b8f64","ios":"levelo://app?vid=cd4d6f4d-c80a-4353-933b-1fafbf4b8f64"},"vehicle_type_id":"4","last_reported":1726035195,"current_range_meters":33200,"station_id":"cpo36qri1sfpv3e86is0","pricing_plan_id":"cebpf4jnsgd1na2vs0mg"},{"bike_id":"2eeb4b6e-2b09-41d0-87d3-25a8d99cd11c","system_id":"levelo_inurba_marseille","lat":43.28441,"lon":5.39181,"is_reserved":false,"is_disabled":false,"rental_uris":{"android":"levelo://app?vid=2eeb4b6e-2b09-41d0-87d3-25a8d99cd11c","ios":"levelo://app?vid=2eeb4b6e-2b09-41d0-87d3-25a8d99cd11c"},"vehicle_type_id":"4","last_reported":1726035195,"current_range_meters":26000,"station_id":"ce4bhoh2rcd13ifvqh5g","pricing_plan_id":"cebpf4jnsgd1na2vs0mg"},{"bike_id":"59e225ba-c01e-492a-87d4-e7680c4239c3","system_id":"levelo_inurba_marseille","lat":43.279137,"lon":5.380126,"is_reserved":false,"is_disabled":false,"rental_uris":{"android":"levelo://app?vid=59e225ba-c01e-492a-87d4-e7680c4239c3","ios":"levelo://app?vid=59e225ba-c01e-492a-87d4-e7680c4239c3"},"vehicle_type_id":"4","last_reported":1726035195,"current_range_meters":33600,"station_id":"ce4bhf92rcd13ifvqf50","pricing_plan_id":"cebpf4jnsgd1na2vs0mg"},