{"last_updated":1684613164,"ttl":30,"version":"2.2","data":{"bikes":[{"bike_id":"6fab6182-4dc3-4313-8053-6b640d65ff04","system_id":"levelo_inurba_marseille","lat":43.31324,"lon":5.36713,"is_reserved":false,"is_disabled":false,"rental_uris":{"android":"levelo://app?vid=6fab6182-4dc3-4313-8053-6b640d65ff04","ios":"levelo://app?vid=6fab6182-4dc3-4313-8053-6b640d65ff04"},"vehicle_type_id":"4","last_reported":1684613164,"current_range_meters":14000,"station_id":"ce4bgr92rcd13ifvqc6g","pricing_plan_id":"free"},{"bike_id":"b9a83316-f642-4535-b39b-2f571d430a5f","system_id":"levelo_inurba_marseille","lat":43.3133,"lon":5.36746,"is_reserved":false,"is_disabled":false,"rental_uris":{"android":"levelo://app?vid=b9a83316-f642-4535-b39b-2f571d430a5f","ios":"levelo://app?vid=b9a83316-f642-4535-b39b-2f571d430a5f"},"vehicle_type_id":"4","last_reported":1684613164,"current_range_meters":26000,"station_id":"","pricing_plan_id":"free"},{"bike_id":"a62a7dee-1071-4a7f-bd50-e81bf1aead9f","system_id":"levelo_inurba_marseille","lat":43.31347,"lon":5.36688,"is_reserved":false,"is_disabled":false,"rental_uris":{"android":"levelo://app?vid=a62a7dee-1071-4a7f-bd50-e81bf1aead9f","ios":"levelo://app?vid=a62a7dee-1071-4a7f-bd50-e81bf1aead9f"},"vehicle_type_id":"4","last_reported":1684613164,"current_range_meters":0,"station_id":"ce4bgr92rcd13ifvqc6g","pricing_plan_id":"free"},{"bike_id":"7bdf4c5f-5855-4aae-93f1-1f2abb30b761","system_id":"levelo_inurba_marseille","lat":43.31341,"lon":5.367098,"is_reserved":false,"is_disabled":false,"rental_uris":{"android":"levelo://app?vid=7bdf4c5f-5855-4aae-93f1-1f2abb30b761","ios":"levelo://app?vid=7bdf4c5f-5855-4aae-93f1-1f2abb30b761"},"vehicle_type_id":"4","last_reported":1684613164,"current_range_meters":31200,"station_id":"ce4bgr92rcd13ifvqc6g","pricing_plan_id":"free"},{"bike_id":"a1c981e9-b61a-4f92-9da3-bc88edc1cf4a","system_id":"levelo_inurba_marseille","lat":43.31356,"lon":5.36703,"is_reserved":false,"is_disabled":false,"rental_uris":{"android":"levelo://app?vid=a1c981e9-b61a-4f92-9da3-bc88edc1cf4a","ios":"levelo://app?vid=a1c981e9-b61a-4f92-9da3-bc88edc1cf4a"},"vehicle_type_id":"4","last_reported":1684613164,"current_range_meters":30000,"station_id":"ce4bgr92rcd13ifvqc6g","pricing_plan_id":"free"},{"bike_id":"31a6a8f8-35fd-49f7-9a38-8e1123c1c126","system_id":"levelo_inurba_marseille","lat":43.31359,"lon":5.36697,"is_reserved":false,"is_disabled":false,"rental_uris":{"android":"levelo://app?vid=31a6a8f8-35fd-49f7-9a38-8e1123c1c126","ios":"levelo://app?vid=31a6a8f8-35fd-49f7-9a38-8e1123c1c126"},"vehicle_type_id":"4","last_reported":1684613164,"current_range_meters":29200,"station_id":"ce4bgr92rcd13ifvqc6g","pricing_plan_id":"free"},{"bike_id":"32b74d7b-e2eb-4609-add9-6dc4e28a0ff3","system_id":"levelo_inurba_marseille","lat":43.313391,"lon":5.36706,"is_reserved":false,"is_disabled":false,"rental_uris":{"android":"levelo://app?vid=32b74d7b-e2eb-4609-add9-6dc4e28a0ff3","ios":"levelo://app?vid=32b74d7b-e2eb-4609-add9-6dc4e28a0ff3"},"vehicle_type_id":"4","last_reported":1684613164,"current_range_meters":26800,"station_id":"ce4bgr92rcd13ifvqc6g","pricing_plan_id":"free"},{"bike_id":"c11e8c0d-8f2e-4468-9d4a-529348fce7ac","system_id":"levelo_inurba_marseille","lat":43.31341,"lon":5.367098,"is_reserved":false,"is_disabled":false,"rental_uris":{"android":"levelo://app?vid=c11e8c0d-8f2e-4468-9d4a-529348fce7ac","ios":"levelo://app?vid=c11e8c0d-8f2e-4468-9d4a-529348fce7ac"},"vehicle_type_id":"4","last_reported":1684613164,"current_range_meters":30400,"station_id":"ce4bgr92rcd13ifvqc6g","pricing_plan_id":"free"},{"bike_id":"423051dc-23e3-41ae-a453-4e9c309d34ab","system_id":"levelo_inurba_marseille","lat":43.31363,"lon":5.36683,"is_reserved":false,"is_disabled":false,"rental_uris":{"android":"levelo://app?vid=423051dc-23e3-41ae-a453-4e9c309d34ab","ios":"levelo://app?vid=423051dc-23e3-41ae-a453-4e9c309d34ab"},"vehicle_type_id":"4","last_reported":1684613164,"current_range_meters":31200,"station_id":"ce4bgr92rcd13ifvqc6g","pricing_plan_id":"free"},{"bike_id":"bd32a1b9-3f5c-4caf-b724-871ee9e54ea2","system_id":"levelo_inurba_marseille","lat":43.312239,"lon":5.368562,"is_reserved":false,"is_disabled":false,"rental_uris":{"android":"levelo://app?vid=bd32a1b9-3f5c-4caf-b724-871ee9e54ea2","ios":"levelo://app?vid=bd32a1b9-3f5c-4caf-b724-871ee9e54ea2"},"vehicle_type_id":"4","last_reported":1684613164,"current_range_meters":20800,"station_id":"ce4bgl92rcd13ifvqbq0","pricing_plan_id":"free"},{"bike_id":"4052371d-0b40-45a2-a6cf-9cf2875c3212","system_id":"levelo_inurba_marseille","lat":43.31223,"lon":5.36855,"is_reserved":false,"is_disabled":false,"rental_uris":{"android":"levelo://app?vid=4052371d-0b40-45a2-a6cf-9cf2875c3212","ios":"levelo://app?vid=4052371d-0b40-45a2-a6cf-9cf2875c3212"},"vehicle_type_id":"4","last_reported":1684613164,"current_range_meters":31200,"station_id":"ce4bgl92rcd13ifvqbq0","pricing_plan_id":"free"},{"bike_id":"3a66aaf4-f597-4b8a-9b1e-815e18e32f3c","system_id":"levelo_inurba_marseille","lat":43.312239,"lon":5.368562,"is_reserved":false,"is_disabled":false,"rental_uris":{"android":"levelo://app?vid=3a66aaf4-f597-4b8a-9b1e-815e18e32f3c","ios":"levelo://app?vid=3a66aaf4-f597-4b8a-9b1e-815e18e32f3c"},"vehicle_type_id":"4","last_reported":1684613164,"current_range_meters":30400,"station_id":"ce4bgl92rcd13ifvqbq0","pricing_plan_id":"free"},{"bike_id":"79dc37ee-0d88-4a2b-81de-8f86b0985009","system_id":"levelo_inurba_marseille","lat":43.312239,"lon":5.368562,"is_reserved":false,"is_disabled":false,"rental_uris":{"android":"levelo://app?vid=79dc37ee-0d88-4a2b-81de-8f86b0985009","ios":"levelo://app?vid=79dc37ee-0d88-4a2b-81de-8f86b0985009"},"vehicle_type_id":"4","last_reported":1684613164,"current_range_meters":31200,"station_id":"ce4bgl92rcd13ifvqbq0","pricing_plan_id":"free"},{"bike_id":"02e41708-8beb-4995-b683-23c8aadcac8b","system_id":"levelo_inurba_marseille","lat":43.312239,"lon":5.368562,"is_reserved":false,"is_disabled":false,"rental_uris":{"android":"levelo://app?vid=02e41708-8beb-4995-b683-23c8aadcac8b","ios":"levelo://app?vid=02e41708-8beb-4995-b683-23c8aadcac8b"},"vehicle_type_id":"4","last_reported":1684613164,"current_range_meters":31200,"station_id":"ce4bgl92rcd13ifvqbq0","pricing_plan_id":"free"},{"bike_id":"b68d8102-992e-4d73-8af3-3071ab25293c","system_id":"levelo_inurba_marseille","lat":43.312239,"lon":5.368562,"is_reserved":false,"is_disabled":false,"rental_uris":{"android":"levelo://app?vid=b68d8102-992e-4d73-8af3-3071ab25293c","ios":"levelo://app?vid=b68d8102-992e-4d73-8af3-3071ab25293c"},"vehicle_type_id":"4","last_reported":1684613164,"current_range_meters":25200,"station_id":"ce4bgl92rcd13ifvqbq0","pricing_plan_id":"free"},{"bike_id":"a02c534a-1ed2-4dbc-9170-1fea269ea955","system_id":"levelo_inurba_marseille","lat":43.312239,"lon":5.368562,"is_reserved":false,"is_disabled":false,"rental_uris":{"android":"levelo://app?vid=a02c534a-1ed2-4dbc-9170-1fea269ea955","ios":"levelo://app?vid=a02c534a-1ed2-4dbc-9170-1fea269ea955"},"vehicle_type_id":"4","last_reported":1684613164,"current_range_meters":16800,"station_id":"ce4bgl92rcd13ifvqbq0","pricing_plan_id":"free"},{"bike_id":"faf8d50c-a6b1-4622-a1ca-95a3778d0885","system_id":"levelo_inurba_marseille","lat":43.312239,"lon":5.368562,"is_reserved":false,"is_disabled":false,"rental_uris":{"android":"levelo://app?vid=faf8d50c-a6b1-4622-a1ca-95a3778d0885","ios":"levelo://app?vid=faf8d50c-a6b1-4622-a1ca-95a3778d0885"},"vehicle_type_id":"4","last_reported":1684613164,"current_range_meters":23600,"station_id":"ce4bgl92rcd13ifvqbq0","pricing_plan_id":"free"},{"bike_id":"5e1dbe6a-8459-4aed-8189-73d8264a152c","system_id":"levelo_inurba_marseille","lat":43.312239,"lon":5.368562,"is_reserved":false,"is_disabled":false,"rental_uris":{"android":"levelo://app?vid=5e1dbe6a-8459-4aed-8189-73d8264a152c","ios":"levelo://app?vid=5e1dbe6a-8459-4aed-8189-73d8264a152c"},"vehicle_type_id":"4","last_reported":1684613164,"current_range_meters":31200,"station_id":"ce4bgl92rcd13ifvqbq0","pricing_plan_id":"free"},{"bike_id":"7c0bd459-b79a-45a3-94a5-7aa324ac70c6","system_id":"levelo_inurba_marseille","lat":43.31594,"lon":5.36682,"is_reserved":false,"is_disabled":false,"rental_uris":{"android":"levelo://app?vid=7c0bd459-b79a-45a3-94a5-7aa324ac70c6","ios":"levelo://app?vid=7c0bd459-b79a-45a3-94a5-7aa324ac70c6"},"vehicle_type_id":"4","last_reported":1684613164,"current_range_meters":25200,"station_id":"","pricing_plan_id":"free"},{"bike_id":"686f6868-6048-4068-a64e-9bfcece3c84d","system_id":"levelo_inurba_marseille","lat":43.309076,"lon":5.368465,"is_reserved":false,"is_disabled":false,"rental_uris":{"android":"levelo://app?vid=686f6868-6048-4068-a64e-9bfcece3c84d","ios":"levelo://app?vid=686f6868-6048-4068-a64e-9bfcece3c84d"},"vehicle_type_id":"4","last_reported":1684613164,"current_range_meters":31200,"station_id":"ce4bgn92rcd13ifvqbvg","pricing_plan_id":"free"},{"bike_id":"46a958db-deea-4536-9495-95f4bcdc056c","system_id":"levelo_inurba_marseille","lat":43.314811,"lon":5.373103,"is_reserved":false,"is_disabled":false,"rental_uris":{"android":"levelo://app?vid=46a958db-deea-4536-9495-95f4bcdc056c","ios":"levelo://app?vid=46a958db-deea-4536-9495-95f4bcdc056c"},"vehicle_type_id":"4","last_reported":1684613164,"current_range_meters":31200,"station_id":"ce4bgt12rcd13ifvqcd0","pricing_plan_id":"free"},{"bike_id":"1348a136-dd3b-4d5d-b063-c704d7190d52","system_id":"levelo_inurba_marseille","lat":43.314811,"lon":5.373103,"is_reserved":false,"is_disabled":false,"rental_uris":{"android":"levelo://app?vid=1348a136-dd3b-4d5d-b063-c704d7190d52","ios":"levelo://app?vid=1348a136-dd3b-4d5d-b063-c704d7190d52"},"vehicle_type_id":"4","last_reported":1684613164,"current_range_meters":22000,"station_id":"ce4bgt12rcd13ifvqcd0","pricing_plan_id":"free"},{"bike_id":"096c91ae-eae5-49a2-8895-be3e2ef8808f","system_id":"levelo_inurba_marseille","lat":43.314811,"lon":5.373103,"is_reserved":false,"is_disabled":false,"rental_uris":{"android":"levelo://app?vid=096c91ae-eae5-49a2-8895-be3e2ef8808f","ios":"levelo://app?vid=096c91ae-eae5-49a2-8895-be3e2ef8808f"},"vehicle_type_id":"4","last_reported":1684613164,"current_range_meters":18800,"station_id":"ce4bgt12rcd13ifvqcd0","pricing_plan_id":"free"},{"bike_id":"306387f1-7539-458d-9c7c-1d3f902480fc","system_id":"levelo_inurba_marseille","lat":43.31495,"lon":5.37295,"is_reserved":false,"is_disabled":false,"rental_uris":{"android":"levelo://app?vid=306387f1-7539-458d-9c7c-1d3f902480fc","ios":"levelo://app?vid=306387f1-7539-458d-9c7c-1d3f902480fc"},"vehicle_type_id":"4","last_reported":1684613164,"current_range_meters":18400,"station_id":"ce4bgt12rcd13ifvqcd0","pricing_plan_id":"free"},{"bike_id":"d734d8f3-6c46-49d1-9671-0ad92bcd2953","system_id":"levelo_inurba_marseille","lat":43.314811,"lon":5.373103,"is_reserved":false,"is_disabled":false,"rental_uris":{"android":"levelo://app?vid=d734d8f3-6c46-49d1-9671-0ad92bcd2953","ios":"levelo://app?vid=d734d8f3-6c46-49d1-9671-0ad92bcd2953"},"vehicle_type_id":"4","last_reported":1684613164,"current_range_meters":30800,"station_id":"ce4bgt12rcd13ifvqcd0","pricing_plan_id":"free"},{"bike_id":"216d5b2c-006a-476d-b0b4-4dee0ac788c7","system_id":"levelo_inurba_marseille","lat":43.3149,"lon":5.37307,"is_reserved":false,"is_disabled":false,"rental_uris":{"android":"levelo://app?vid=216d5b2c-006a-476d-b0b4-4dee0ac788c7","ios":"levelo://app?vid=216d5b2c-006a-476d-b0b4-4dee0ac788c7"},"vehicle_type_id":"4","last_reported":1684613164,"current_range_meters":31200,"station_id":"ce4bgt12rcd13ifvqcd0","pricing_plan_id":"free"},{"bike_id":"3b9abfcf-be2e-4603-9fb4-bc0ab9d2eaa7","system_id":"levelo_inurba_marseille","lat":43.308614,"lon":5.372098,"is_reserved":false,"is_disabled":false,"rental_uris":{"android":"levelo://app?vid=3b9abfcf-be2e-4603-9fb4-bc0ab9d2eaa7","ios":"levelo://app?vid=3b9abfcf-be2e-4603-9fb4-bc0ab9d2eaa7"},"vehicle_type_id":"4","last_reported":1684613164,"current_range_meters":15600,"station_id":"ce4bguh2rcd13ifvqckg","pricing_plan_id":"free"},{"bike_id":"e0992195-4c45-4aa2-9415-4fef18478594","system_id":"levelo_inurba_marseille","lat":43.308614,"lon":5.372098,"is_reserved":false,"is_disabled":false,"rental_uris":{"android":"levelo://app?vid=e0992195-4c45-4aa2-9415-4fef18478594","ios":"levelo://app?vid=e0992195-4c45-4aa2-9415-4fef18478594"},"vehicle_type_id":"4","last_reported":1684613164,"current_range_meters":26800,"station_id":"ce4bguh2rcd13ifvqckg","pricing_plan_id":"free"},{"bike_id":"3646b87a-93a3-4734-9883-6c51d831f921","system_id":"levelo_inurba_marseille","lat":43.305706,"lon":5.365654,"is_reserved":false,"is_disabled":false,"rental_uris":{"android":"levelo://app?vid=3646b87a-93a3-4734-9883-6c51d831f921","ios":"levelo://app?vid=3646b87a-93a3-4734-9883-6c51d831f921"},"vehicle_type_id":"4","last_reported":1684613164,"current_range_meters":31200,"station_id":"ce4bgs12rcd13ifvqcag","pricing_plan_id":"free"},{"bike_id":"1348413d-8796-4729-b223-1caf9be9bf16","system_id":"levelo_inurba_marseille","lat":43.30531,"lon":5.36555,"is_reserved":false,"is_disabled":false,"rental_uris":{"android":"levelo://app?vid=1348413d-8796-4729-b223-1caf9be9bf16","ios":"levelo://app?vid=1348413d-8796-4729-b223-1caf9be9bf16"},"vehicle_type_id":"4","last_reported":1684613164,"current_range_meters":16000,"station_id":"","pricing_plan_id":"free"},{"bike_id":"a9a86a19-e328-423e-a326-d535231bdd26","system_id":"levelo_inurba_marseille","lat":43.305706,"lon":5.365654,"is_reserved":false,"is_disabled":false,"rental_uris":{"android":"levelo://app?vid=a9a86a19-e328-423e-a326-d535231bdd26","ios":"levelo://app?vid=a9a86a19-e328-423e-a326-d535231bdd26"},"vehicle_type_id":"4","last_reported":1684613164,"current_range_meters":19200,"station_id":"ce4bgs12rcd13ifvqcag","pricing_plan_id":"free"},{"bike_id":"5d15b9e7-f9ea-484a-8fb2-8dfbba322fbb","system_id":"levelo_inurba_marseille","lat":43.305368,"lon":5.367343,"is_reserved":false,"is_disabled":false,"rental_uris":{"android":"levelo://app?vid=5d15b9e7-f9ea-484a-8fb2-8dfbba322fbb","ios":"levelo://app?vid=5d15b9e7-f9ea-484a-8fb2-8dfbba322fbb"},"vehicle_type_id":"4","last_reported":1684613164,"current_range_meters":10000,"station_id":"ce4bgrp2rcd13ifvqc9g","pricing_plan_id":"free"},{"bike_id":"847cabc4-b461-4c99-aeb7-2f39f102b183","system_id":"levelo_inurba_marseille","lat":43.305368,"lon":5.367343,"is_reserved":false,"is_disabled":false,"rental_uris":{"android":"levelo://app?vid=847cabc4-b461-4c99-aeb7-2f39f102b183","ios":"levelo://app?vid=847cabc4-b461-4c99-aeb7-2f39f102b183"},"vehicle_type_id":"4","last_reported":1684613164,"current_range_meters":22800,"station_id":"ce4bgrp2rcd13ifvqc9g","pricing_plan_id":"free"},{"bike_id":"3e764068-0c0e-4053-9d84-292d9942519b","system_id":"levelo_inurba_marseille","lat":43.305989,"lon":5.37225,"is_reserved":false,"is_disabled":false,"rental_uris":{"android":"levelo://app?vid=3e764068-0c0e-4053-9d84-292d9942519b","ios":"levelo://app?vid=3e764068-0c0e-4053-9d84-292d9942519b"},"vehicle_type_id":"4","last_reported":1684613164,"current_range_meters":31200,"station_id":"ce4bgqh2rcd13ifvqc4g","pricing_plan_id":"free"},{"bike_id":"ad0b2edf-9ce6-484a-b2ff-4a1feabe9b31","system_id":"levelo_inurba_marseille","lat":43.305989,"lon":5.37225,"is_reserved":false,"is_disabled":false,"rental_uris":{"android":"levelo://app?vid=ad0b2edf-9ce6-484a-b2ff-4a1feabe9b31","ios":"levelo://app?vid=ad0b2edf-9ce6-484a-b2ff-4a1feabe9b31"},"vehicle_type_id":"4","last_reported":1684613164,"current_range_meters":18400,"station_id":"ce4bgqh2rcd13ifvqc4g","pricing_plan_id":"free"},{"bike_id":"71e1299e-8fd4-4aca-ada5-273e8e5bdbd6","system_id":"levelo_inurba_marseille","lat":43.305989,"lon":5.37225,"is_reserved":false,"is_disabled":false,"rental_uris":{"android":"levelo://app?vid=71e1299e-8fd4-4aca-ada5-273e8e5bdbd6","ios":"levelo://app?vid=71e1299e-8fd4-4aca-ada5-273e8e5bdbd6"},"vehicle_type_id":"4","last_reported":1684613164,"current_range_meters":26000,"station_id":"ce4bgqh2rcd13ifvqc4g","pricing_plan_id":"free"},{"bike_id":"c380bed0-68fc-4eda-95ec-fbad6574e132","system_id":"levelo_inurba_marseille","lat":43.311131,"lon":5.377651,"is_reserved":false,"is_disabled":false,"rental_uris":{"android":"levelo://app?vid=c380bed0-68fc-4eda-95ec-fbad6574e132","ios":"levelo://app?vid=c380bed0-68fc-4eda-95ec-fbad6574e132"},"vehicle_type_id":"4","last_reported":1684613164,"current_range_meters":26400,"station_id":"ce4bgt92rcd13ifvqcg0","pricing_plan_id":"free"},{"bike_id":"e58fedb9-a57d-4be1-8ab0-757e8b5b800f","system_id":"levelo_inurba_marseille","lat":43.31709,"lon":5.37653,"is_reserved":false,"is_disabled":false,"rental_uris":{"android":"levelo://app?vid=e58fedb9-a57d-4be1-8ab0-757e8b5b800f","ios":"levelo://app?vid=e58fedb9-a57d-4be1-8ab0-757e8b5b800f"},"vehicle_type_id":"4","last_reported":1684613164,"current_range_meters":3600,"station_id":"","pricing_plan_id":"free"},{"bike_id":"3fdf3590-377d-4457-aec6-c56425f43c68","system_id":"levelo_inurba_marseille","lat":43.3171,"lon":5.3767,"is_reserved":false,"is_disabled":false,"rental_uris":{"android":"levelo://app?vid=3fdf3590-377d-4457-aec6-c56425f43c68","ios":"levelo://app?vid=3fdf3590-377d-4457-aec6-c56425f43c68"},"vehicle_type_id":"4","last_reported":1684613164,"current_range_meters":0,"station_id":"","pricing_plan_id":"free"},{"bike_id":"906de340-506a-4f05-9639-8551c35c3cf4","system_id":"levelo_inurba_marseille","lat":43.317075,"lon":5.377367,"is_reserved":false,"is_disabled":false,"rental_uris":{"android":"levelo://app?vid=906de340-506a-4f05-9639-8551c35c3cf4","ios":"levelo://app?vid=906de340-506a-4f05-9639-8551c35c3cf4"},"vehicle_type_id":"4","last_reported":1684613164,"current_range_meters":31200,"station_id":"ce4bgth2rcd13ifvqch0","pricing_plan_id":"free"},{"bike_id":"c27523af-0050-40ba-86ce-6f147ab29d86","system_id":"levelo_inurba_marseille","lat":43.317075,"lon":5.377367,"is_reserved":false,"is_disabled":false,"rental_uris":{"android":"levelo://app?vid=c27523af-0050-40ba-86ce-6f147ab29d86","ios":"levelo://app?vid=c27523af-0050-40ba-86ce-6f147ab29d86"},"vehicle_type_id":"4","last_reported":1684613164,"current_range_meters":14000,"station_id":"ce4bgth2rcd13ifvqch0","pricing_plan_id":"free"},{"bike_id":"9f53324e-4118-4eb1-ae1f-c18ea90a6e62","system_id":"levelo_inurba_marseille","lat":43.31712,"lon":5.37758,"is_reserved":false,"is_disabled":false,"rental_uris":{"android":"levelo://app?vid=9f53324e-4118-4eb1-ae1f-c18ea90a6e62","ios":"levelo://app?vid=9f53324e-4118-4eb1-ae1f-c18ea90a6e62"},"vehicle_type_id":"4","last_reported":1684613164,"current_range_meters":29600,"station_id":"ce4bgth2rcd13ifvqch0","pricing_plan_id":"free"},{"bike_id":"1882916f-80f8-41b8-b1de-6c334bcf1f0b","system_id":"levelo_inurba_marseille","lat":43.317075,"lon":5.377367,"is_reserved":false,"is_disabled":false,"rental_uris":{"android":"levelo://app?vid=1882916f-80f8-41b8-b1de-6c334bcf1f0b","ios":"levelo://app?vid=1882916f-80f8-41b8-b1de-6c334bcf1f0b"},"vehicle_type_id":"4","last_reported":1684613164,"current_range_meters":31200,"station_id":"ce4bgth2rcd13ifvqch0","pricing_plan_id":"free"},{"bike_id":"e3cbc53a-0b41-4fee-b6bb-f6494b8dfd38","system_id":"levelo_inurba_marseille","lat":43.317075,"lon":5.377367,"is_reserved":false,"is_disabled":false,"rental_uris":{"android":"levelo://app?vid=e3cbc53a-0b41-4fee-b6bb-f6494b8dfd38","ios":"levelo://app?vid=e3cbc53a-0b41-4fee-b6bb-f6494b8dfd38"},"vehicle_type_id":"4","last_reported":1684613164,"current_range_meters":27600,"station_id":"ce4bgth2rcd13ifvqch0","pricing_plan_id":"free"},{"bike_id":"752d47ae-6d5c-4077-8a80-524f92481ff9","system_id":"levelo_inurba_marseille","lat":43.3029,"lon":5.36916,"is_reserved":false,"is_disabled":false,"rental_uris":{"android":"levelo://app?vid=752d47ae-6d5c-4077-8a80-524f92481ff9","ios":"levelo://app?vid=752d47ae-6d5c-4077-8a80-524f92481ff9"},"vehicle_type_id":"4","last_reported":1684613164,"current_range_meters":26000,"station_id":"ce4bgqh2rcd13ifvqc5g","pricing_plan_id":"free"},{"bike_id":"e28d14a3-f5bd-4f11-bd98-8e1a5a466d07","system_id":"levelo_inurba_marseille","lat":43.315289,"lon":5.380349,"is_reserved":false,"is_disabled":false,"rental_uris":{"android":"levelo://app?vid=e28d14a3-f5bd-4f11-bd98-8e1a5a466d07","ios":"levelo://app?vid=e28d14a3-f5bd-4f11-bd98-8e1a5a466d07"},"vehicle_type_id":"4","last_reported":1684613164,"current_range_meters":18000,"station_id":"ce4bhsp2rcd13ifvqi50","pricing_plan_id":"free"},{"bike_id":"d291ddc1-0407-44d8-b043-ed97bc1e7850","system_id":"levelo_inurba_marseille","lat":43.315289,"lon":5.380349,"is_reserved":false,"is_disabled":false,"rental_uris":{"android":"levelo://app?vid=d291ddc1-0407-44d8-b043-ed97bc1e7850","ios":"levelo://app?vid=d291ddc1-0407-44d8-b043-ed97bc1e7850"},"vehicle_type_id":"4","last_reported":1684613164,"current_range_meters":26400,"station_id":"ce4bhsp2rcd13ifvqi50","pricing_plan_id":"free"},{"bike_id":"e974bce5-f02f-4930-a1ba-6edbff55b68a","system_id":"levelo_inurba_marseille","lat":43.308012,"lon":5.381511,"is_reserved":false,"is_disabled":false,"rental_uris":{"android":"levelo://app?vid=e974bce5-f02f-4930-a1ba-6edbff55b68a","ios":"levelo://app?vid=e974bce5-f02f-4930-a1ba-6edbff55b68a"},"vehicle_type_id":"4","last_reported":1684613164,"current_range_meters":23600,"station_id":"ce4bgt12rcd13ifvqce0","pricing_plan_id":"free"},{"bike_id":"510b9e40-2393-4d0e-9320-c40b36402a61","system_id":"levelo_inurba_marseille","lat":43.308012,"lon":5.381511,"is_reserved":false,"is_disabled":false,"rental_uris":{"android":"levelo://app?vid=510b9e40-2393-4d0e-9320-c40b36402a61","ios":"levelo://app?vid=510b9e40-2393-4d0e-9320-c40b36402a61"},"vehicle_type_id":"4","last_reported":1684613164,"current_range_meters":31200,"station_id":"ce4bgt12rcd13ifvqce0","pricing_plan_id":"free"},{"bike_id":"88884c60-6d71-47ce-83ee-5b4422b8b753","system_id":"levelo_inurba_marseille","lat":43.308012,"lon":5.381511,"is_reserved":false,"is_disabled":false,"rental_uris":{"android":"levelo://app?vid=88884c60-6d71-47ce-83ee-5b4422b8b753","ios":"levelo://app?vid=88884c60-6d71-47ce-83ee-5b4422b8b753"},"vehicle_type_id":"4","last_reported":1684613164,"current_range_meters":14000,"station_id":"ce4bgt12rcd13ifvqce0","pricing_plan_id":"free"},{"bike_id":"5c875f93-100d-472e-a57b-04c13ba8d675","system_id":"levelo_inurba_marseille","lat":43.308012,"lon":5.381511,"is_reserved":false,"is_disabled":false,"rental_uris":{"android":"levelo://app?vid=5c875f93-100d-472e-a57b-04c13ba8d675","ios":"levelo://app?vid=5c875f93-100d-472e-a57b-04c13ba8d675"},"vehicle_type_id":"4","last_reported":1684613164,"current_range_meters":10800,"station_id":"ce4bgt12rcd13ifvqce0","pricing_plan_id":"free"},{"bike_id":"1c85d5b6-8ee4-4aa3-a270-977d5772da60","system_id":"levelo_inurba_marseille","lat":43.308012,"lon":5.381511,"is_reserved":false,"is_disabled":false,"rental_uris":{"android":"levelo://app?vid=1c85d5b6-8ee4-4aa3-a270-977d5772da60","ios":"levelo://app?vid=1c85d5b6-8ee4-4aa3-a270-977d5772da60"},"vehicle_type_id":"4","last_reported":1684613164,"current_range_meters":22400,"station_id":"ce4bgt12rcd13ifvqce0","pricing_plan_id":"free"},{"bike_id":"d955698b-9389-4edb-b6ee-2127306b00a9","system_id":"levelo_inurba_marseille","lat":43.304606,"lon":5.379026,"is_reserved":false,"is_disabled":false,"rental_uris":{"android":"levelo://app?vid=d955698b-9389-4edb-b6ee-2127306b00a9","ios":"levelo://app?vid=d955698b-9389-4edb-b6ee-2127306b00a9"},"vehicle_type_id":"4","last_reported":1684613164,"current_range_meters":10800,"station_id":"ce4bgup2rcd13ifvqcn0","pricing_plan_id":"free"},{"bike_id":"62cc442d-96c0-4c41-8f5e-f47b6368cb7e","system_id":"levelo_inurba_marseille","lat":43.304606,"lon":5.379026,"is_reserved":false,"is_disabled":false,"rental_uris":{"android":"levelo://app?vid=62cc442d-96c0-4c41-8f5e-f47b6368cb7e","ios":"levelo://app?vid=62cc442d-96c0-4c41-8f5e-f47b6368cb7e"},"vehicle_type_id":"4","last_reported":1684613164,"current_range_meters":20400,"station_id":"ce4bgup2rcd13ifvqcn0","pricing_plan_id":"free"},{"bike_id":"7142b64d-6cb8-4308-bcd7-643639486303","system_id":"levelo_inurba_marseille","lat":43.319935,"lon":5.381699,"is_reserved":false,"is_disabled":false,"rental_uris":{"android":"levelo://app?vid=7142b64d-6cb8-4308-bcd7-643639486303","ios":"levelo://app?vid=7142b64d-6cb8-4308-bcd7-643639486303"},"vehicle_type_id":"4","last_reported":1684613164,"current_range_meters":30000,"station_id":"ce4bhr12rcd13ifvqhpg","pricing_plan_id":"free"},{"bike_id":"139082d9-1532-42a9-b682-d4b8d6d765b1","system_id":"levelo_inurba_marseille","lat":43.319935,"lon":5.381699,"is_reserved":false,"is_disabled":false,"rental_uris":{"android":"levelo://app?vid=139082d9-1532-42a9-b682-d4b8d6d765b1","ios":"levelo://app?vid=139082d9-1532-42a9-b682-d4b8d6d765b1"},"vehicle_type_id":"4","last_reported":1684613164,"current_range_meters":16400,"station_id":"ce4bhr12rcd13ifvqhpg","pricing_plan_id":"free"},{"bike_id":"ec21fc83-0656-4fb1-8d68-8074c67e0bce","system_id":"levelo_inurba_marseille","lat":43.313571,"lon":5.384829,"is_reserved":false,"is_disabled":false,"rental_uris":{"android":"levelo://app?vid=ec21fc83-0656-4fb1-8d68-8074c67e0bce","ios":"levelo://app?vid=ec21fc83-0656-4fb1-8d68-8074c67e0bce"},"vehicle_type_id":"4","last_reported":1684613164,"current_range_meters":31200,"station_id":"ce4bgt92rcd13ifvqcf0","pricing_plan_id":"free"},{"bike_id":"cdee02f5-c3cc-4e03-b762-c2de8d28e1b0","system_id":"levelo_inurba_marseille","lat":43.299222,"lon":5.365554,"is_reserved":false,"is_disabled":false,"rental_uris":{"android":"levelo://app?vid=cdee02f5-c3cc-4e03-b762-c2de8d28e1b0","ios":"levelo://app?vid=cdee02f5-c3cc-4e03-b762-c2de8d28e1b0"},"vehicle_type_id":"4","last_reported":1684613164,"current_range_meters":25200,"station_id":"ce4bgm92rcd13ifvqbr0","pricing_plan_id":"free"},{"bike_id":"aa7ff445-8562-4b4b-b18c-16a6ff539ecf","system_id":"levelo_inurba_marseille","lat":43.29838,"lon":5.36275,"is_reserved":false,"is_disabled":false,"rental_uris":{"android":"levelo://app?vid=aa7ff445-8562-4b4b-b18c-16a6ff539ecf","ios":"levelo://app?vid=aa7ff445-8562-4b4b-b18c-16a6ff539ecf"},"vehicle_type_id":"4","last_reported":1684613164,"current_range_meters":22800,"station_id":"ce4bgpp2rcd13ifvqc3g","pricing_plan_id":"free"},{"bike_id":"e66f6cdd-fb89-4a87-8588-ea0549ec081d","system_id":"levelo_inurba_marseille","lat":43.299243,"lon":5.374807,"is_reserved":false,"is_disabled":false,"rental_uris":{"android":"levelo://app?vid=e66f6cdd-fb89-4a87-8588-ea0549ec081d","ios":"levelo://app?vid=e66f6cdd-fb89-4a87-8588-ea0549ec081d"},"vehicle_type_id":"4","last_reported":1684613164,"current_range_meters":31200,"station_id":"ce4bgjh2rcd13ifvqbg0","pricing_plan_id":"free"},{"bike_id":"a90336bf-2eff-4e88-9ec0-008b8099440c","system_id":"levelo_inurba_marseille","lat":43.299243,"lon":5.374807,"is_reserved":false,"is_disabled":false,"rental_uris":{"android":"levelo://app?vid=a90336bf-2eff-4e88-9ec0-008b8099440c","ios":"levelo://app?vid=a90336bf-2eff-4e88-9ec0-008b8099440c"},"vehicle_type_id":"4","last_reported":1684613164,"current_range_meters":6800,"station_id":"ce4bgjh2rcd13ifvqbg0","pricing_plan_id":"free"},{"bike_id":"17758178-c0e1-4742-a332-e2df57be5107","system_id":"levelo_inurba_marseille","lat":43.2991,"lon":5.37464,"is_reserved":false,"is_disabled":false,"rental_uris":{"android":"levelo://app?vid=17758178-c0e1-4742-a332-e2df57be5107","ios":"levelo://app?vid=17758178-c0e1-4742-a332-e2df57be5107"},"vehicle_type_id":"4","last_reported":1684613164,"current_range_meters":23200,"station_id":"ce4bgjh2rcd13ifvqbg0","pricing_plan_id":"free"},{"bike_id":"a3a0c130-bef6-4552-af38-7944adfcc05e","system_id":"levelo_inurba_marseille","lat":43.311722,"lon":5.387247,"is_reserved":false,"is_disabled":false,"rental_uris":{"android":"levelo://app?vid=a3a0c130-bef6-4552-af38-7944adfcc05e","ios":"levelo://app?vid=a3a0c130-bef6-4552-af38-7944adfcc05e"},"vehicle_type_id":"4","last_reported":1684613164,"current_range_meters":12000,"station_id":"ce4bgv12rcd13ifvqcp0","pricing_plan_id":"free"},{"bike_id":"c8055d66-e67d-4494-8b36-ba022f1c0e46","system_id":"levelo_inurba_marseille","lat":43.299243,"lon":5.374807,"is_reserved":false,"is_disabled":false,"rental_uris":{"android":"levelo://app?vid=c8055d66-e67d-4494-8b36-ba022f1c0e46","ios":"levelo://app?vid=c8055d66-e67d-4494-8b36-ba022f1c0e46"},"vehicle_type_id":"4","last_reported":1684613164,"current_range_meters":24800,"station_id":"ce4bgjh2rcd13ifvqbg0","pricing_plan_id":"free"},{"bike_id":"71a7cd51-c98e-4b63-902f-c2f5a808a065","system_id":"levelo_inurba_marseille","lat":43.32769,"lon":5.36707,"is_reserved":false,"is_disabled":false,"rental_uris":{"android":"levelo://app?vid=71a7cd51-c98e-4b63-902f-c2f5a808a065","ios":"levelo://app?vid=71a7cd51-c98e-4b63-902f-c2f5a808a065"},"vehicle_type_id":"4","last_reported":1684613164,"current_range_meters":21600,"station_id":"","pricing_plan_id":"free"},{"bike_id":"41a2b8f0-2bb4-48af-b01a-5624103b582f","system_id":"levelo_inurba_marseille","lat":43.297794,"lon":5.370888,"is_reserved":false,"is_disabled":false,"rental_uris":{"android":"levelo://app?vid=41a2b8f0-2bb4-48af-b01a-5624103b582f","ios":"levelo://app?vid=41a2b8f0-2bb4-48af-b01a-5624103b582f"},"vehicle_type_id":"4","last_reported":1684613164,"current_range_meters":30400,"station_id":"ce4bgop2rcd13ifvqc1g","pricing_plan_id":"free"},{"bike_id":"3a71f41b-23a8-4407-ba65-e6ca37d7f313","system_id":"levelo_inurba_marseille","lat":43.297794,"lon":5.370888,"is_reserved":false,"is_disabled":false,"rental_uris":{"android":"levelo://app?vid=3a71f41b-23a8-4407-ba65-e6ca37d7f313","ios":"levelo://app?vid=3a71f41b-23a8-4407-ba65-e6ca37d7f313"},"vehicle_type_id":"4","last_reported":1684613164,"current_range_meters":31200,"station_id":"ce4bgop2rcd13ifvqc1g","pricing_plan_id":"free"},{"bike_id":"5cf7ffc9-a389-4209-a251-5b3b341d543c","system_id":"levelo_inurba_marseille","lat":43.297794,"lon":5.370888,"is_reserved":false,"is_disabled":false,"rental_uris":{"android":"levelo://app?vid=5cf7ffc9-a389-4209-a251-5b3b341d543c","ios":"levelo://app?vid=5cf7ffc9-a389-4209-a251-5b3b341d543c"},"vehicle_type_id":"4","last_reported":1684613164,"current_range_meters":31200,"station_id":"ce4bgop2rcd13ifvqc1g","pricing_plan_id":"free"},{"bike_id":"603ebff5-e2d7-41cd-ab80-1218573f88c5","system_id":"levelo_inurba_marseille","lat":43.328371,"lon":5.366909,"is_reserved":false,"is_disabled":false,"rental_uris":{"android":"levelo://app?vid=603ebff5-e2d7-41cd-ab80-1218573f88c5","ios":"levelo://app?vid=603ebff5-e2d7-41cd-ab80-1218573f88c5"},"vehicle_type_id":"4","last_reported":1684613164,"current_range_meters":30400,"station_id":"ce4bhs92rcd13ifvqi0g","pricing_plan_id":"free"},{"bike_id":"a7fb6a73-9ebf-4b56-938e-67995ffda768","system_id":"levelo_inurba_marseille","lat":43.328371,"lon":5.366909,"is_reserved":false,"is_disabled":false,"rental_uris":{"android":"levelo://app?vid=a7fb6a73-9ebf-4b56-938e-67995ffda768","ios":"levelo://app?vid=a7fb6a73-9ebf-4b56-938e-67995ffda768"},"vehicle_type_id":"4","last_reported":1684613164,"current_range_meters":31200,"station_id":"ce4bhs92rcd13ifvqi0g","pricing_plan_id":"free"},{"bike_id":"fccfd339-db22-4277-bdd0-196f87e474ac","system_id":"levelo_inurba_marseille","lat":43.328371,"lon":5.366909,"is_reserved":false,"is_disabled":false,"rental_uris":{"android":"levelo://app?vid=fccfd339-db22-4277-bdd0-196f87e474ac","ios":"levelo://app?vid=fccfd339-db22-4277-bdd0-196f87e474ac"},"vehicle_type_id":"4","last_reported":1684613164,"current_range_meters":22000,"station_id":"ce4bhs92rcd13ifvqi0g","pricing_plan_id":"free"},{"bike_id":"9d891959-73d6-4c5c-ad12-227228d64e9d","system_id":"levelo_inurba_marseille","lat":43.328371,"lon":5.366909,"is_reserved":false,"is_disabled":false,"rental_uris":{"android":"levelo://app?vid=9d891959-73d6-4c5c-ad12-227228d64e9d","ios":"levelo://app?vid=9d891959-73d6-4c5c-ad12-227228d64e9d"},"vehicle_type_id":"4","last_reported":1684613164,"current_range_meters":19600,"station_id":"ce4bhs92rcd13ifvqi0g","pricing_plan_id":"free"},{"bike_id":"411c53dc-8a67-493a-b123-b1e299cae53c","system_id":"levelo_inurba_marseille","lat":43.328371,"lon":5.366909,"is_reserved":false,"is_disabled":false,"rental_uris":{"android":"levelo://app?vid=411c53dc-8a67-493a-b123-b1e299cae53c","ios":"levelo://app?vid=411c53dc-8a67-493a-b123-b1e299cae53c"},"vehicle_type_id":"4","last_reported":1684613164,"current_range_meters":30800,"station_id":"ce4bhs92rcd13ifvqi0g","pricing_plan_id":"free"},{"bike_id":"de338054-150d-4f92-8ba2-f43c70283500","system_id":"levelo_inurba_marseille","lat":43.328371,"lon":5.366909,"is_reserved":false,"is_disabled":false,"rental_uris":{"android":"levelo://app?vid=de338054-150d-4f92-8ba2-f43c70283500","ios":"levelo://app?vid=de338054-150d-4f92-8ba2-f43c70283500"},"vehicle_type_id":"4","last_reported":1684613164,"current_range_meters":19200,"station_id":"ce4bhs92rcd13ifvqi0g","pricing_plan_id":"free"},{"bike_id":"4b929a14-f780-486b-bbcc-511dfd1d59e1","system_id":"levelo_inurba_marseille","lat":43.29704,"lon":5.3661,"is_reserved":false,"is_disabled":false,"rental_uris":{"android":"levelo://app?vid=4b929a14-f780-486b-bbcc-511dfd1d59e1","ios":"levelo://app?vid=4b929a14-f780-486b-bbcc-511dfd1d59e1"},"vehicle_type_id":"4","last_reported":1684613164,"current_range_meters":22000,"station_id":"","pricing_plan_id":"free"},{"bike_id":"bd0cd171-ddc8-443f-ad52-c3c60e0946fd","system_id":"levelo_inurba_marseille","lat":43.29701,"lon":5.36625,"is_reserved":false,"is_disabled":false,"rental_uris":{"android":"levelo://app?vid=bd0cd171-ddc8-443f-ad52-c3c60e0946fd","ios":"levelo://app?vid=bd0cd171-ddc8-443f-ad52-c3c60e0946fd"},"vehicle_type_id":"4","last_reported":1684613164,"current_range_meters":2800,"station_id":"","pricing_plan_id":"free"},{"bike_id":"4c34d452-7e64-4a57-a842-ccf742ccfa47","system_id":"levelo_inurba_marseille","lat":43.29697,"lon":5.36609,"is_reserved":false,"is_disabled":false,"rental_uris":{"android":"levelo://app?vid=4c34d452-7e64-4a57-a842-ccf742ccfa47","ios":"levelo://app?vid=4c34d452-7e64-4a57-a842-ccf742ccfa47"},"vehicle_type_id":"4","last_reported":1684613164,"current_range_meters":28400,"station_id":"","pricing_plan_id":"free"},{"bike_id":"8fd9343a-2fcc-420f-86ef-27715ca38bbc","system_id":"levelo_inurba_marseille","lat":43.2968,"lon":5.37291,"is_reserved":false,"is_disabled":false,"rental_uris":{"android":"levelo://app?vid=8fd9343a-2fcc-420f-86ef-27715ca38bbc","ios":"levelo://app?vid=8fd9343a-2fcc-420f-86ef-27715ca38bbc"},"vehicle_type_id":"4","last_reported":1684613164,"current_range_meters":28400,"station_id":"ce4bgk12rcd13ifvqbj0","pricing_plan_id":"free"},{"bike_id":"2cdd7100-b988-4d6b-bb9e-902f70100140","system_id":"levelo_inurba_marseille","lat":43.2968,"lon":5.37291,"is_reserved":false,"is_disabled":false,"rental_uris":{"android":"levelo://app?vid=2cdd7100-b988-4d6b-bb9e-902f70100140","ios":"levelo://app?vid=2cdd7100-b988-4d6b-bb9e-902f70100140"},"vehicle_type_id":"4","last_reported":1684613164,"current_range_meters":18800,"station_id":"ce4bgk12rcd13ifvqbj0","pricing_plan_id":"free"},{"bike_id":"a10d20a8-090c-4977-8302-b75d6d4c0794","system_id":"levelo_inurba_marseille","lat":43.2968,"lon":5.37291,"is_reserved":false,"is_disabled":false,"rental_uris":{"android":"levelo://app?vid=a10d20a8-090c-4977-8302-b75d6d4c0794","ios":"levelo://app?vid=a10d20a8-090c-4977-8302-b75d6d4c0794"},"vehicle_type_id":"4","last_reported":1684613164,"current_range_meters":31200,"station_id":"ce4bgk12rcd13ifvqbj0","pricing_plan_id":"free"},{"bike_id":"ee6619ff-faea-4d23-a990-697445c25ee4","system_id":"levelo_inurba_marseille","lat":43.296131,"lon":5.370773,"is_reserved":false,"is_disabled":false,"rental_uris":{"android":"levelo://app?vid=ee6619ff-faea-4d23-a990-697445c25ee4","ios":"levelo://app?vid=ee6619ff-faea-4d23-a990-697445c25ee4"},"vehicle_type_id":"4","last_reported":1684613164,"current_range_meters":24800,"station_id":"ce4bgnh2rcd13ifvqc0g","pricing_plan_id":"free"},{"bike_id":"1a70e888-756f-4b2b-8101-40121b4fd2d5","system_id":"levelo_inurba_marseille","lat":43.296129,"lon":5.370777,"is_reserved":false,"is_disabled":false,"rental_uris":{"android":"levelo://app?vid=1a70e888-756f-4b2b-8101-40121b4fd2d5","ios":"levelo://app?vid=1a70e888-756f-4b2b-8101-40121b4fd2d5"},"vehicle_type_id":"4","last_reported":1684613164,"current_range_meters":30400,"station_id":"ce4bgnh2rcd13ifvqc0g","pricing_plan_id":"free"},{"bike_id":"50d173d1-18ff-41f7-9eb8-ae9dc916a04c","system_id":"levelo_inurba_marseille","lat":43.296131,"lon":5.370791,"is_reserved":false,"is_disabled":false,"rental_uris":{"android":"levelo://app?vid=50d173d1-18ff-41f7-9eb8-ae9dc916a04c","ios":"levelo://app?vid=50d173d1-18ff-41f7-9eb8-ae9dc916a04c"},"vehicle_type_id":"4","last_reported":1684613164,"current_range_meters":28800,"station_id":"ce4bgnh2rcd13ifvqc0g","pricing_plan_id":"free"},{"bike_id":"9428382f-f8d8-43ea-8dce-6c96c2d3e1a1","system_id":"levelo_inurba_marseille","lat":43.296129,"lon":5.370777,"is_reserved":false,"is_disabled":false,"rental_uris":{"android":"levelo://app?vid=9428382f-f8d8-43ea-8dce-6c96c2d3e1a1","ios":"levelo://app?vid=9428382f-f8d8-43ea-8dce-6c96c2d3e1a1"},"vehicle_type_id":"4","last_reported":1684613164,"current_range_meters":21600,"station_id":"ce4bgnh2rcd13ifvqc0g","pricing_plan_id":"free"},{"bike_id":"14060c1f-51a9-426a-86f0-e4083e7e25f7","system_id":"levelo_inurba_marseille","lat":43.296131,"lon":5.370791,"is_reserved":false,"is_disabled":false,"rental_uris":{"android":"levelo://app?vid=14060c1f-51a9-426a-86f0-e4083e7e25f7","ios":"levelo://app?vid=14060c1f-51a9-426a-86f0-e4083e7e25f7"},"vehicle_type_id":"4","last_reported":1684613164,"current_range_meters":31200,"station_id":"ce4bgnh2rcd13ifvqc0g","pricing_plan_id":"free"},{"bike_id":"494ac5e3-f04a-4250-a0ac-c6629d7c0ecc","system_id":"levelo_inurba_marseille","lat":43.296223,"lon":5.371758,"is_reserved":false,"is_disabled":false,"rental_uris":{"android":"levelo://app?vid=494ac5e3-f04a-4250-a0ac-c6629d7c0ecc","ios":"levelo://app?vid=494ac5e3-f04a-4250-a0ac-c6629d7c0ecc"},"vehicle_type_id":"4","last_reported":1684613164,"current_range_meters":21600,"station_id":"","pricing_plan_id":"free"},{"bike_id":"1d0998d3-da8c-4aed-96f0-608a1f7a49d9","system_id":"levelo_inurba_marseille","lat":43.29573,"lon":5.367355,"is_reserved":false,"is_disabled":false,"rental_uris":{"android":"levelo://app?vid=1d0998d3-da8c-4aed-96f0-608a1f7a49d9","ios":"levelo://app?vid=1d0998d3-da8c-4aed-96f0-608a1f7a49d9"},"vehicle_type_id":"4","last_reported":1684613164,"current_range_meters":31200,"station_id":"ce4bgph2rcd13ifvqc2g","pricing_plan_id":"free"},{"bike_id":"ec735272-d4e9-4314-8b92-56bae96c785a","system_id":"levelo_inurba_marseille","lat":43.29573,"lon":5.367355,"is_reserved":false,"is_disabled":false,"rental_uris":{"android":"levelo://app?vid=ec735272-d4e9-4314-8b92-56bae96c785a","ios":"levelo://app?vid=ec735272-d4e9-4314-8b92-56bae96c785a"},"vehicle_type_id":"4","last_reported":1684613164,"current_range_meters":27600,"station_id":"ce4bgph2rcd13ifvqc2g","pricing_plan_id":"free"},{"bike_id":"961d69b5-7e0e-44c4-a861-e1ee014eb732","system_id":"levelo_inurba_marseille","lat":43.29573,"lon":5.367355,"is_reserved":false,"is_disabled":false,"rental_uris":{"android":"levelo://app?vid=961d69b5-7e0e-44c4-a861-e1ee014eb732","ios":"levelo://app?vid=961d69b5-7e0e-44c4-a861-e1ee014eb732"},"vehicle_type_id":"4","last_reported":1684613164,"current_range_meters":30800,"station_id":"ce4bgph2rcd13ifvqc2g","pricing_plan_id":"free"},{"bike_id":"657bca6d-8e8f-47c9-aff1-e87c0019496b","system_id":"levelo_inurba_marseille","lat":43.29573,"lon":5.367355,"is_reserved":false,"is_disabled":false,"rental_uris":{"android":"levelo://app?vid=657bca6d-8e8f-47c9-aff1-e87c0019496b","ios":"levelo://app?vid=657bca6d-8e8f-47c9-aff1-e87c0019496b"},"vehicle_type_id":"4","last_reported":1684613164,"current_range_meters":31200,"station_id":"ce4bgph2rcd13ifvqc2g","pricing_plan_id":"free"},{"bike_id":"24afc3a5-fdf1-4307-b286-11676542cba9","system_id":"levelo_inurba_marseille","lat":43.299028,"lon":5.381509,"is_reserved":false,"is_disabled":false,"rental_uris":{"android":"levelo://app?vid=24afc3a5-fdf1-4307-b286-11676542cba9","ios":"levelo://app?vid=24afc3a5-fdf1-4307-b286-11676542cba9"},"vehicle_type_id":"4","last_reported":1684613164,"current_range_meters":31200,"station_id":"ce4bgj12rcd13ifvqbc0","pricing_plan_id":"free"},{"bike_id":"f33db1fe-926d-4a99-a51f-962f8f76e53b","system_id":"levelo_inurba_marseille","lat":43.309589,"lon":5.390258,"is_reserved":false,"is_disabled":false,"rental_uris":{"android":"levelo://app?vid=f33db1fe-926d-4a99-a51f-962f8f76e53b","ios":"levelo://app?vid=f33db1fe-926d-4a99-a51f-962f8f76e53b"},"vehicle_type_id":"4","last_reported":1684613164,"current_range_meters":28800,"station_id":"ce4bgup2rcd13ifvqco0","pricing_plan_id":"free"},{"bike_id":"e3da0674-8f80-42a2-8bb4-91461a674945","system_id":"levelo_inurba_marseille","lat":43.299028,"lon":5.381509,"is_reserved":false,"is_disabled":false,"rental_uris":{"android":"levelo://app?vid=e3da0674-8f80-42a2-8bb4-91461a674945","ios":"levelo://app?vid=e3da0674-8f80-42a2-8bb4-91461a674945"},"vehicle_type_id":"4","last_reported":1684613164,"current_range_meters":26000,"station_id":"ce4bgj12rcd13ifvqbc0","pricing_plan_id":"free"},{"bike_id":"7ccdf964-879f-4af8-bcb9-0bfc70a2cad2","system_id":"levelo_inurba_marseille","lat":43.317557,"lon":5.390173,"is_reserved":false,"is_disabled":false,"rental_uris":{"android":"levelo://app?vid=7ccdf964-879f-4af8-bcb9-0bfc70a2cad2","ios":"levelo://app?vid=7ccdf964-879f-4af8-bcb9-0bfc70a2cad2"},"vehicle_type_id":"4","last_reported":1684613164,"current_range_meters":21600,"station_id":"ce4bhqp2rcd13ifvqhng","pricing_plan_id":"free"},{"bike_id":"5ecb331d-8c6f-4338-8806-8cde07be5d2b","system_id":"levelo_inurba_marseille","lat":43.317557,"lon":5.390173,"is_reserved":false,"is_disabled":false,"rental_uris":{"android":"levelo://app?vid=5ecb331d-8c6f-4338-8806-8cde07be5d2b","ios":"levelo://app?vid=5ecb331d-8c6f-4338-8806-8cde07be5d2b"},"vehicle_type_id":"4","last_reported":1684613164,"current_range_meters":20800,"station_id":"ce4bhqp2rcd13ifvqhng","pricing_plan_id":"free"},{"bike_id":"fb93c5a0-9bd3-4259-a605-c6520d0c8359","system_id":"levelo_inurba_marseille","lat":43.31755,"lon":5.39015,"is_reserved":false,"is_disabled":false,"rental_uris":{"android":"levelo://app?vid=fb93c5a0-9bd3-4259-a605-c6520d0c8359","ios":"levelo://app?vid=fb93c5a0-9bd3-4259-a605-c6520d0c8359"},"vehicle_type_id":"4","last_reported":1684613164,"current_range_meters":25200,"station_id":"ce4bhqp2rcd13ifvqhng","pricing_plan_id":"free"},{"bike_id":"f033f00a-6274-4738-9f29-de87994da64a","system_id":"levelo_inurba_marseille","lat":43.317557,"lon":5.390173,"is_reserved":false,"is_disabled":false,"rental_uris":{"android":"levelo://app?vid=f033f00a-6274-4738-9f29-de87994da64a","ios":"levelo://app?vid=f033f00a-6274-4738-9f29-de87994da64a"},"vehicle_type_id":"4","last_reported":1684613164,"current_range_meters":5600,"station_id":"ce4bhqp2rcd13ifvqhng","pricing_plan_id":"free"},{"bike_id":"5f74af19-fb99-4d81-9e30-6f935fe7395f","system_id":"levelo_inurba_marseille","lat":43.304278,"lon":5.388868,"is_reserved":false,"is_disabled":false,"rental_uris":{"android":"levelo://app?vid=5f74af19-fb99-4d81-9e30-6f935fe7395f","ios":"levelo://app?vid=5f74af19-fb99-4d81-9e30-6f935fe7395f"},"vehicle_type_id":"4","last_reported":1684613164,"current_range_meters":26000,"station_id":"ce4bgk12rcd13ifvqbi0","pricing_plan_id":"free"},{"bike_id":"426ebfdf-531c-4725-8c7e-3971ae90a9ea","system_id":"levelo_inurba_marseille","lat":43.29572,"lon":5.3753,"is_reserved":false,"is_disabled":false,"rental_uris":{"android":"levelo://app?vid=426ebfdf-531c-4725-8c7e-3971ae90a9ea","ios":"levelo://app?vid=426ebfdf-531c-4725-8c7e-3971ae90a9ea"},"vehicle_type_id":"4","last_reported":1684613164,"current_range_meters":30400,"station_id":"ce4bgh92rcd13ifvqb50","pricing_plan_id":"free"},{"bike_id":"c9ee41a9-6e34-4557-8c1e-08edb8f400a7","system_id":"levelo_inurba_marseille","lat":43.30427,"lon":5.38888,"is_reserved":false,"is_disabled":false,"rental_uris":{"android":"levelo://app?vid=c9ee41a9-6e34-4557-8c1e-08edb8f400a7","ios":"levelo://app?vid=c9ee41a9-6e34-4557-8c1e-08edb8f400a7"},"vehicle_type_id":"4","last_reported":1684613164,"current_range_meters":12800,"station_id":"ce4bgk12rcd13ifvqbi0","pricing_plan_id":"free"},{"bike_id":"57eed010-3407-406a-a79d-6512ac9df95b","system_id":"levelo_inurba_marseille","lat":43.296277,"lon":5.377108,"is_reserved":false,"is_disabled":false,"rental_uris":{"android":"levelo://app?vid=57eed010-3407-406a-a79d-6512ac9df95b","ios":"levelo://app?vid=57eed010-3407-406a-a79d-6512ac9df95b"},"vehicle_type_id":"4","last_reported":1684613164,"current_range_meters":20400,"station_id":"ce4bgi92rcd13ifvqb90","pricing_plan_id":"free"},{"bike_id":"cdaafd20-5dbd-436c-8bdc-f9b2322cb1b6","system_id":"levelo_inurba_marseille","lat":43.29569,"lon":5.37539,"is_reserved":false,"is_disabled":false,"rental_uris":{"android":"levelo://app?vid=cdaafd20-5dbd-436c-8bdc-f9b2322cb1b6","ios":"levelo://app?vid=cdaafd20-5dbd-436c-8bdc-f9b2322cb1b6"},"vehicle_type_id":"4","last_reported":1684613164,"current_range_meters":26800,"station_id":"ce4bgh92rcd13ifvqb50","pricing_plan_id":"free"},{"bike_id":"d82dfa6d-f36a-441a-8afa-5f2ca2aea45a","system_id":"levelo_inurba_marseille","lat":43.296277,"lon":5.377108,"is_reserved":false,"is_disabled":false,"rental_uris":{"android":"levelo://app?vid=d82dfa6d-f36a-441a-8afa-5f2ca2aea45a","ios":"levelo://app?vid=d82dfa6d-f36a-441a-8afa-5f2ca2aea45a"},"vehicle_type_id":"4","last_reported":1684613164,"current_range_meters":0,"station_id":"ce4bgi92rcd13ifvqb90","pricing_plan_id":"free"},{"bike_id":"7c7b500a-0e91-43ee-b0a5-7656562bd3a7","system_id":"levelo_inurba_marseille","lat":43.296263,"lon":5.377094,"is_reserved":false,"is_disabled":false,"rental_uris":{"android":"levelo://app?vid=7c7b500a-0e91-43ee-b0a5-7656562bd3a7","ios":"levelo://app?vid=7c7b500a-0e91-43ee-b0a5-7656562bd3a7"},"vehicle_type_id":"4","last_reported":1684613164,"current_range_meters":14400,"station_id":"ce4bgi92rcd13ifvqb90","pricing_plan_id":"free"},{"bike_id":"2bb16af8-0108-4f09-9171-21a7e0e844f7","system_id":"levelo_inurba_marseille","lat":43.299707,"lon":5.384859,"is_reserved":false,"is_disabled":false,"rental_uris":{"android":"levelo://app?vid=2bb16af8-0108-4f09-9171-21a7e0e844f7","ios":"levelo://app?vid=2bb16af8-0108-4f09-9171-21a7e0e844f7"},"vehicle_type_id":"4","last_reported":1684613164,"current_range_meters":17600,"station_id":"ce4bgj92rcd13ifvqbd0","pricing_plan_id":"free"},{"bike_id":"13eb1c19-53ed-4656-b898-5184b8618c81","system_id":"levelo_inurba_marseille","lat":43.296277,"lon":5.377108,"is_reserved":false,"is_disabled":false,"rental_uris":{"android":"levelo://app?vid=13eb1c19-53ed-4656-b898-5184b8618c81","ios":"levelo://app?vid=13eb1c19-53ed-4656-b898-5184b8618c81"},"vehicle_type_id":"4","last_reported":1684613164,"current_range_meters":18400,"station_id":"ce4bgi92rcd13ifvqb90","pricing_plan_id":"free"},{"bike_id":"82993de6-4db0-4c17-a4d7-17fb7cb368c2","system_id":"levelo_inurba_marseille","lat":43.299661,"lon":5.384804,"is_reserved":false,"is_disabled":false,"rental_uris":{"android":"levelo://app?vid=82993de6-4db0-4c17-a4d7-17fb7cb368c2","ios":"levelo://app?vid=82993de6-4db0-4c17-a4d7-17fb7cb368c2"},"vehicle_type_id":"4","last_reported":1684613164,"current_range_meters":26800,"station_id":"ce4bgj92rcd13ifvqbd0","pricing_plan_id":"free"},{"bike_id":"70c9777d-6031-4a07-ad4c-e1f64103dd61","system_id":"levelo_inurba_marseille","lat":43.295279,"lon":5.375048,"is_reserved":false,"is_disabled":false,"rental_uris":{"android":"levelo://app?vid=70c9777d-6031-4a07-ad4c-e1f64103dd61","ios":"levelo://app?vid=70c9777d-6031-4a07-ad4c-e1f64103dd61"},"vehicle_type_id":"4","last_reported":1684613164,"current_range_meters":19600,"station_id":"ce4bgkp2rcd13ifvqbmg","pricing_plan_id":"free"},{"bike_id":"f5c1b90c-3ae4-4f7d-afb4-6e3e76254bcf","system_id":"levelo_inurba_marseille","lat":43.29967,"lon":5.38495,"is_reserved":false,"is_disabled":false,"rental_uris":{"android":"levelo://app?vid=f5c1b90c-3ae4-4f7d-afb4-6e3e76254bcf","ios":"levelo://app?vid=f5c1b90c-3ae4-4f7d-afb4-6e3e76254bcf"},"vehicle_type_id":"4","last_reported":1684613164,"current_range_meters":9200,"station_id":"ce4bgj92rcd13ifvqbd0","pricing_plan_id":"free"},{"bike_id":"14274225-05c5-467a-9df3-e11850780ac9","system_id":"levelo_inurba_marseille","lat":43.29967,"lon":5.38501,"is_reserved":false,"is_disabled":false,"rental_uris":{"android":"levelo://app?vid=14274225-05c5-467a-9df3-e11850780ac9","ios":"levelo://app?vid=14274225-05c5-467a-9df3-e11850780ac9"},"vehicle_type_id":"4","last_reported":1684613164,"current_range_meters":23600,"station_id":"ce4bgj92rcd13ifvqbd0","pricing_plan_id":"free"},{"bike_id":"a5153643-42d3-45bb-a03d-3bbd2156b83b","system_id":"levelo_inurba_marseille","lat":43.29962,"lon":5.38495,"is_reserved":false,"is_disabled":false,"rental_uris":{"android":"levelo://app?vid=a5153643-42d3-45bb-a03d-3bbd2156b83b","ios":"levelo://app?vid=a5153643-42d3-45bb-a03d-3bbd2156b83b"},"vehicle_type_id":"4","last_reported":1684613164,"current_range_meters":20000,"station_id":"ce4bgj92rcd13ifvqbd0","pricing_plan_id":"free"},{"bike_id":"03b8a0a9-c33b-43fa-a282-a3d337c274aa","system_id":"levelo_inurba_marseille","lat":43.295279,"lon":5.375048,"is_reserved":false,"is_disabled":false,"rental_uris":{"android":"levelo://app?vid=03b8a0a9-c33b-43fa-a282-a3d337c274aa","ios":"levelo://app?vid=03b8a0a9-c33b-43fa-a282-a3d337c274aa"},"vehicle_type_id":"4","last_reported":1684613164,"current_range_meters":31200,"station_id":"ce4bgkp2rcd13ifvqbmg","pricing_plan_id":"free"},{"bike_id":"584b2422-bd9e-4ba5-88f4-f220773a4778","system_id":"levelo_inurba_marseille","lat":43.299707,"lon":5.384859,"is_reserved":false,"is_disabled":false,"rental_uris":{"android":"levelo://app?vid=584b2422-bd9e-4ba5-88f4-f220773a4778","ios":"levelo://app?vid=584b2422-bd9e-4ba5-88f4-f220773a4778"},"vehicle_type_id":"4","last_reported":1684613164,"current_range_meters":30800,"station_id":"ce4bgj92rcd13ifvqbd0","pricing_plan_id":"free"},{"bike_id":"8b34a0d3-8df1-4516-bfd0-61068ec3fa26","system_id":"levelo_inurba_marseille","lat":43.29963,"lon":5.385,"is_reserved":false,"is_disabled":false,"rental_uris":{"android":"levelo://app?vid=8b34a0d3-8df1-4516-bfd0-61068ec3fa26","ios":"levelo://app?vid=8b34a0d3-8df1-4516-bfd0-61068ec3fa26"},"vehicle_type_id":"4","last_reported":1684613164,"current_range_meters":24400,"station_id":"ce4bgj92rcd13ifvqbd0","pricing_plan_id":"free"},{"bike_id":"519f6130-0c79-4e2b-8def-da7540d77daf","system_id":"levelo_inurba_marseille","lat":43.29963,"lon":5.38501,"is_reserved":false,"is_disabled":false,"rental_uris":{"android":"levelo://app?vid=519f6130-0c79-4e2b-8def-da7540d77daf","ios":"levelo://app?vid=519f6130-0c79-4e2b-8def-da7540d77daf"},"vehicle_type_id":"4","last_reported":1684613164,"current_range_meters":26800,"station_id":"ce4bgj92rcd13ifvqbd0","pricing_plan_id":"free"},{"bike_id":"0833bfd1-4c72-4028-aace-af61a6b37bdd","system_id":"levelo_inurba_marseille","lat":43.29966,"lon":5.38511,"is_reserved":false,"is_disabled":false,"rental_uris":{"android":"levelo://app?vid=0833bfd1-4c72-4028-aace-af61a6b37bdd","ios":"levelo://app?vid=0833bfd1-4c72-4028-aace-af61a6b37bdd"},"vehicle_type_id":"4","last_reported":1684613164,"current_range_meters":24400,"station_id":"ce4bgj92rcd13ifvqbd0","pricing_plan_id":"free"},{"bike_id":"ba827236-c337-4e35-8e30-402f5d820002","system_id":"levelo_inurba_marseille","lat":43.29953,"lon":5.38499,"is_reserved":false,"is_disabled":false,"rental_uris":{"android":"levelo://app?vid=ba827236-c337-4e35-8e30-402f5d820002","ios":"levelo://app?vid=ba827236-c337-4e35-8e30-402f5d820002"},"vehicle_type_id":"4","last_reported":1684613164,"current_range_meters":23200,"station_id":"ce4bgj92rcd13ifvqbd0","pricing_plan_id":"free"},{"bike_id":"8d4198c4-62ad-46df-b495-84ccc6ce3c42","system_id":"levelo_inurba_marseille","lat":43.295279,"lon":5.375048,"is_reserved":false,"is_disabled":false,"rental_uris":{"android":"levelo://app?vid=8d4198c4-62ad-46df-b495-84ccc6ce3c42","ios":"levelo://app?vid=8d4198c4-62ad-46df-b495-84ccc6ce3c42"},"vehicle_type_id":"4","last_reported":1684613164,"current_range_meters":23600,"station_id":"ce4bgkp2rcd13ifvqbmg","pricing_plan_id":"free"},{"bike_id":"e6462721-6c45-4449-8abf-e2e1bec5ffe1","system_id":"levelo_inurba_marseille","lat":43.309589,"lon":5.390258,"is_reserved":false,"is_disabled":false,"rental_uris":{"android":"levelo://app?vid=e6462721-6c45-4449-8abf-e2e1bec5ffe1","ios":"levelo://app?vid=e6462721-6c45-4449-8abf-e2e1bec5ffe1"},"vehicle_type_id":"4","last_reported":1684613164,"current_range_meters":14000,"station_id":"ce4bgup2rcd13ifvqco0","pricing_plan_id":"free"},{"bike_id":"027f0715-09a5-4250-813e-ba669783d3bd","system_id":"levelo_inurba_marseille","lat":43.297199,"lon":5.38128,"is_reserved":false,"is_disabled":false,"rental_uris":{"android":"levelo://app?vid=027f0715-09a5-4250-813e-ba669783d3bd","ios":"levelo://app?vid=027f0715-09a5-4250-813e-ba669783d3bd"},"vehicle_type_id":"4","last_reported":1684613164,"current_range_meters":20000,"station_id":"","pricing_plan_id":"free"},{"bike_id":"e267f340-98f6-4e1c-9dff-034ba5864fb0","system_id":"levelo_inurba_marseille","lat":43.32367,"lon":5.388836,"is_reserved":false,"is_disabled":false,"rental_uris":{"android":"levelo://app?vid=e267f340-98f6-4e1c-9dff-034ba5864fb0","ios":"levelo://app?vid=e267f340-98f6-4e1c-9dff-034ba5864fb0"},"vehicle_type_id":"4","last_reported":1684613164,"current_range_meters":6800,"station_id":"ce4bhqp2rcd13ifvqhog","pricing_plan_id":"free"},{"bike_id":"73045699-9656-449f-aed1-96552ac57a20","system_id":"levelo_inurba_marseille","lat":43.32359,"lon":5.38871,"is_reserved":false,"is_disabled":false,"rental_uris":{"android":"levelo://app?vid=73045699-9656-449f-aed1-96552ac57a20","ios":"levelo://app?vid=73045699-9656-449f-aed1-96552ac57a20"},"vehicle_type_id":"4","last_reported":1684613164,"current_range_meters":11200,"station_id":"ce4bhqp2rcd13ifvqhog","pricing_plan_id":"free"},{"bike_id":"52a6850f-f203-4723-9ad0-8e1af0436565","system_id":"levelo_inurba_marseille","lat":43.3236,"lon":5.38877,"is_reserved":false,"is_disabled":false,"rental_uris":{"android":"levelo://app?vid=52a6850f-f203-4723-9ad0-8e1af0436565","ios":"levelo://app?vid=52a6850f-f203-4723-9ad0-8e1af0436565"},"vehicle_type_id":"4","last_reported":1684613164,"current_range_meters":16000,"station_id":"ce4bhqp2rcd13ifvqhog","pricing_plan_id":"free"},{"bike_id":"4ac8d894-44aa-44fe-a5bc-75ed68bed853","system_id":"levelo_inurba_marseille","lat":43.32363,"lon":5.38878,"is_reserved":false,"is_disabled":false,"rental_uris":{"android":"levelo://app?vid=4ac8d894-44aa-44fe-a5bc-75ed68bed853","ios":"levelo://app?vid=4ac8d894-44aa-44fe-a5bc-75ed68bed853"},"vehicle_type_id":"4","last_reported":1684613164,"current_range_meters":20000,"station_id":"ce4bhqp2rcd13ifvqhog","pricing_plan_id":"free"},{"bike_id":"54116cb7-e06e-44b7-b6c6-7288ee4c40a3","system_id":"levelo_inurba_marseille","lat":43.32369,"lon":5.38883,"is_reserved":false,"is_disabled":false,"rental_uris":{"android":"levelo://app?vid=54116cb7-e06e-44b7-b6c6-7288ee4c40a3","ios":"levelo://app?vid=54116cb7-e06e-44b7-b6c6-7288ee4c40a3"},"vehicle_type_id":"4","last_reported":1684613164,"current_range_meters":2800,"station_id":"ce4bhqp2rcd13ifvqhog","pricing_plan_id":"free"},{"bike_id":"53c80b4b-d032-45da-9217-748d7d82aa73","system_id":"levelo_inurba_marseille","lat":43.3237,"lon":5.38883,"is_reserved":false,"is_disabled":false,"rental_uris":{"android":"levelo://app?vid=53c80b4b-d032-45da-9217-748d7d82aa73","ios":"levelo://app?vid=53c80b4b-d032-45da-9217-748d7d82aa73"},"vehicle_type_id":"4","last_reported":1684613164,"current_range_meters":15600,"station_id":"ce4bhqp2rcd13ifvqhog","pricing_plan_id":"free"},{"bike_id":"01d401da-ad68-4b2e-a4ac-24f3f8771d91","system_id":"levelo_inurba_marseille","lat":43.32367,"lon":5.388836,"is_reserved":false,"is_disabled":false,"rental_uris":{"android":"levelo://app?vid=01d401da-ad68-4b2e-a4ac-24f3f8771d91","ios":"levelo://app?vid=01d401da-ad68-4b2e-a4ac-24f3f8771d91"},"vehicle_type_id":"4","last_reported":1684613164,"current_range_meters":24400,"station_id":"ce4bhqp2rcd13ifvqhog","pricing_plan_id":"free"},{"bike_id":"3412a373-aecd-4d88-b7ef-1ec34573d2fa","system_id":"levelo_inurba_marseille","lat":43.32367,"lon":5.38886,"is_reserved":false,"is_disabled":false,"rental_uris":{"android":"levelo://app?vid=3412a373-aecd-4d88-b7ef-1ec34573d2fa","ios":"levelo://app?vid=3412a373-aecd-4d88-b7ef-1ec34573d2fa"},"vehicle_type_id":"4","last_reported":1684613164,"current_range_meters":22800,"station_id":"ce4bhqp2rcd13ifvqhog","pricing_plan_id":"free"},{"bike_id":"e81a20f8-ecfa-4819-a0d2-9dd13463dc45","system_id":"levelo_inurba_marseille","lat":43.2932,"lon":5.37194,"is_reserved":false,"is_disabled":false,"rental_uris":{"android":"levelo://app?vid=e81a20f8-ecfa-4819-a0d2-9dd13463dc45","ios":"levelo://app?vid=e81a20f8-ecfa-4819-a0d2-9dd13463dc45"},"vehicle_type_id":"4","last_reported":1684613164,"current_range_meters":27600,"station_id":"","pricing_plan_id":"free"},{"bike_id":"715dd391-22f7-4436-82aa-3dbe12939a8b","system_id":"levelo_inurba_marseille","lat":43.29313,"lon":5.37169,"is_reserved":false,"is_disabled":false,"rental_uris":{"android":"levelo://app?vid=715dd391-22f7-4436-82aa-3dbe12939a8b","ios":"levelo://app?vid=715dd391-22f7-4436-82aa-3dbe12939a8b"},"vehicle_type_id":"4","last_reported":1684613164,"current_range_meters":15200,"station_id":"ce4bgh92rcd13ifvqb40","pricing_plan_id":"free"},{"bike_id":"9d4a523c-4236-4d29-a467-a285d6b1a309","system_id":"levelo_inurba_marseille","lat":43.29312,"lon":5.37173,"is_reserved":false,"is_disabled":false,"rental_uris":{"android":"levelo://app?vid=9d4a523c-4236-4d29-a467-a285d6b1a309","ios":"levelo://app?vid=9d4a523c-4236-4d29-a467-a285d6b1a309"},"vehicle_type_id":"4","last_reported":1684613164,"current_range_meters":15200,"station_id":"ce4bgh92rcd13ifvqb40","pricing_plan_id":"free"},{"bike_id":"90e5241c-3642-4e36-9eba-566bfc7c4130","system_id":"levelo_inurba_marseille","lat":43.293249,"lon":5.371578,"is_reserved":false,"is_disabled":false,"rental_uris":{"android":"levelo://app?vid=90e5241c-3642-4e36-9eba-566bfc7c4130","ios":"levelo://app?vid=90e5241c-3642-4e36-9eba-566bfc7c4130"},"vehicle_type_id":"4","last_reported":1684613164,"current_range_meters":12400,"station_id":"ce4bgh92rcd13ifvqb40","pricing_plan_id":"free"},{"bike_id":"55d9a625-f125-4d1c-a60e-993556512075","system_id":"levelo_inurba_marseille","lat":43.29309,"lon":5.37172,"is_reserved":false,"is_disabled":false,"rental_uris":{"android":"levelo://app?vid=55d9a625-f125-4d1c-a60e-993556512075","ios":"levelo://app?vid=55d9a625-f125-4d1c-a60e-993556512075"},"vehicle_type_id":"4","last_reported":1684613164,"current_range_meters":15600,"station_id":"ce4bgh92rcd13ifvqb40","pricing_plan_id":"free"},{"bike_id":"2bf3ece4-f6ce-4f0e-a74d-ca3713bba45b","system_id":"levelo_inurba_marseille","lat":43.29309,"lon":5.37176,"is_reserved":false,"is_disabled":false,"rental_uris":{"android":"levelo://app?vid=2bf3ece4-f6ce-4f0e-a74d-ca3713bba45b","ios":"levelo://app?vid=2bf3ece4-f6ce-4f0e-a74d-ca3713bba45b"},"vehicle_type_id":"4","last_reported":1684613164,"current_range_meters":30400,"station_id":"ce4bgh92rcd13ifvqb40","pricing_plan_id":"free"},{"bike_id":"229195cc-d118-4e64-91b4-2ad894fdeb5a","system_id":"levelo_inurba_marseille","lat":43.293009,"lon":5.374584,"is_reserved":false,"is_disabled":false,"rental_uris":{"android":"levelo://app?vid=229195cc-d118-4e64-91b4-2ad894fdeb5a","ios":"levelo://app?vid=229195cc-d118-4e64-91b4-2ad894fdeb5a"},"vehicle_type_id":"4","last_reported":1684613164,"current_range_meters":30000,"station_id":"ce4bgi12rcd13ifvqb70","pricing_plan_id":"free"},{"bike_id":"537a2131-1d65-44d1-ac36-50b478b92c1c","system_id":"levelo_inurba_marseille","lat":43.293009,"lon":5.374584,"is_reserved":false,"is_disabled":false,"rental_uris":{"android":"levelo://app?vid=537a2131-1d65-44d1-ac36-50b478b92c1c","ios":"levelo://app?vid=537a2131-1d65-44d1-ac36-50b478b92c1c"},"vehicle_type_id":"4","last_reported":1684613164,"current_range_meters":20800,"station_id":"ce4bgi12rcd13ifvqb70","pricing_plan_id":"free"},{"bike_id":"9d074ca4-a1f4-4744-8203-e893e3c63a0f","system_id":"levelo_inurba_marseille","lat":43.293009,"lon":5.374584,"is_reserved":false,"is_disabled":false,"rental_uris":{"android":"levelo://app?vid=9d074ca4-a1f4-4744-8203-e893e3c63a0f","ios":"levelo://app?vid=9d074ca4-a1f4-4744-8203-e893e3c63a0f"},"vehicle_type_id":"4","last_reported":1684613164,"current_range_meters":31600,"station_id":"ce4bgi12rcd13ifvqb70","pricing_plan_id":"free"},{"bike_id":"a6866917-dd8b-4212-a01f-8c6d15213116","system_id":"levelo_inurba_marseille","lat":43.293009,"lon":5.374584,"is_reserved":false,"is_disabled":false,"rental_uris":{"android":"levelo://app?vid=a6866917-dd8b-4212-a01f-8c6d15213116","ios":"levelo://app?vid=a6866917-dd8b-4212-a01f-8c6d15213116"},"vehicle_type_id":"4","last_reported":1684613164,"current_range_meters":31200,"station_id":"ce4bgi12rcd13ifvqb70","pricing_plan_id":"free"},{"bike_id":"0f06af62-23a2-40b1-b945-841105315ddc","system_id":"levelo_inurba_marseille","lat":43.293009,"lon":5.374584,"is_reserved":false,"is_disabled":false,"rental_uris":{"android":"levelo://app?vid=0f06af62-23a2-40b1-b945-841105315ddc","ios":"levelo://app?vid=0f06af62-23a2-40b1-b945-841105315ddc"},"vehicle_type_id":"4","last_reported":1684613164,"current_range_meters":28800,"station_id":"ce4bgi12rcd13ifvqb70","pricing_plan_id":"free"},{"bike_id":"9f143d8c-6570-4edd-a0f4-e03c957890d2","system_id":"levelo_inurba_marseille","lat":43.302992,"lon":5.392136,"is_reserved":false,"is_disabled":false,"rental_uris":{"android":"levelo://app?vid=9f143d8c-6570-4edd-a0f4-e03c957890d2","ios":"levelo://app?vid=9f143d8c-6570-4edd-a0f4-e03c957890d2"},"vehicle_type_id":"4","last_reported":1684613164,"current_range_meters":22400,"station_id":"ce4bgkh2rcd13ifvqbk0","pricing_plan_id":"free"},{"bike_id":"306d0e46-b355-48a0-9e98-51fa45d9093d","system_id":"levelo_inurba_marseille","lat":43.2936,"lon":5.37835,"is_reserved":false,"is_disabled":false,"rental_uris":{"android":"levelo://app?vid=306d0e46-b355-48a0-9e98-51fa45d9093d","ios":"levelo://app?vid=306d0e46-b355-48a0-9e98-51fa45d9093d"},"vehicle_type_id":"4","last_reported":1684613164,"current_range_meters":26400,"station_id":"ce4bgjh2rcd13ifvqbf0","pricing_plan_id":"free"},{"bike_id":"67be9449-2478-4bca-9853-feb225d891f3","system_id":"levelo_inurba_marseille","lat":43.302992,"lon":5.392136,"is_reserved":false,"is_disabled":false,"rental_uris":{"android":"levelo://app?vid=67be9449-2478-4bca-9853-feb225d891f3","ios":"levelo://app?vid=67be9449-2478-4bca-9853-feb225d891f3"},"vehicle_type_id":"4","last_reported":1684613164,"current_range_meters":27600,"station_id":"ce4bgkh2rcd13ifvqbk0","pricing_plan_id":"free"},{"bike_id":"69869eba-f539-47be-a18c-64b535361d23","system_id":"levelo_inurba_marseille","lat":43.2936,"lon":5.37835,"is_reserved":false,"is_disabled":false,"rental_uris":{"android":"levelo://app?vid=69869eba-f539-47be-a18c-64b535361d23","ios":"levelo://app?vid=69869eba-f539-47be-a18c-64b535361d23"},"vehicle_type_id":"4","last_reported":1684613164,"current_range_meters":25600,"station_id":"ce4bgjh2rcd13ifvqbf0","pricing_plan_id":"free"},{"bike_id":"b7663966-0063-44d4-b238-ca99b6d892ab","system_id":"levelo_inurba_marseille","lat":43.302992,"lon":5.392136,"is_reserved":false,"is_disabled":false,"rental_uris":{"android":"levelo://app?vid=b7663966-0063-44d4-b238-ca99b6d892ab","ios":"levelo://app?vid=b7663966-0063-44d4-b238-ca99b6d892ab"},"vehicle_type_id":"4","last_reported":1684613164,"current_range_meters":13200,"station_id":"ce4bgkh2rcd13ifvqbk0","pricing_plan_id":"free"},{"bike_id":"3c8a82fe-f8ed-4ee6-8f03-a09f3f02c430","system_id":"levelo_inurba_marseille","lat":43.2936,"lon":5.37835,"is_reserved":false,"is_disabled":false,"rental_uris":{"android":"levelo://app?vid=3c8a82fe-f8ed-4ee6-8f03-a09f3f02c430","ios":"levelo://app?vid=3c8a82fe-f8ed-4ee6-8f03-a09f3f02c430"},"vehicle_type_id":"4","last_reported":1684613164,"current_range_meters":17200,"station_id":"ce4bgjh2rcd13ifvqbf0","pricing_plan_id":"free"},{"bike_id":"161bc4a4-f73d-4ff8-b99c-70d04fc2c239","system_id":"levelo_inurba_marseille","lat":43.2936,"lon":5.37835,"is_reserved":false,"is_disabled":false,"rental_uris":{"android":"levelo://app?vid=161bc4a4-f73d-4ff8-b99c-70d04fc2c239","ios":"levelo://app?vid=161bc4a4-f73d-4ff8-b99c-70d04fc2c239"},"vehicle_type_id":"4","last_reported":1684613164,"current_range_meters":31200,"station_id":"ce4bgjh2rcd13ifvqbf0","pricing_plan_id":"free"},{"bike_id":"6c9b281a-dcaf-47d0-aff1-582228173fb2","system_id":"levelo_inurba_marseille","lat":43.300852,"lon":5.390859,"is_reserved":false,"is_disabled":false,"rental_uris":{"android":"levelo://app?vid=6c9b281a-dcaf-47d0-aff1-582228173fb2","ios":"levelo://app?vid=6c9b281a-dcaf-47d0-aff1-582228173fb2"},"vehicle_type_id":"4","last_reported":1684613164,"current_range_meters":28800,"station_id":"ce4bh192rcd13ifvqdb0","pricing_plan_id":"free"},{"bike_id":"d77a1e8b-a0fb-46d9-bc57-40a7afb4326e","system_id":"levelo_inurba_marseille","lat":43.300852,"lon":5.390859,"is_reserved":false,"is_disabled":false,"rental_uris":{"android":"levelo://app?vid=d77a1e8b-a0fb-46d9-bc57-40a7afb4326e","ios":"levelo://app?vid=d77a1e8b-a0fb-46d9-bc57-40a7afb4326e"},"vehicle_type_id":"4","last_reported":1684613164,"current_range_meters":29600,"station_id":"ce4bh192rcd13ifvqdb0","pricing_plan_id":"free"},{"bike_id":"f247adb5-a6c5-4a36-8f17-0a548a252716","system_id":"levelo_inurba_marseille","lat":43.2936,"lon":5.37835,"is_reserved":false,"is_disabled":false,"rental_uris":{"android":"levelo://app?vid=f247adb5-a6c5-4a36-8f17-0a548a252716","ios":"levelo://app?vid=f247adb5-a6c5-4a36-8f17-0a548a252716"},"vehicle_type_id":"4","last_reported":1684613164,"current_range_meters":27600,"station_id":"ce4bgjh2rcd13ifvqbf0","pricing_plan_id":"free"},{"bike_id":"3221ee4f-b630-4ab0-b8ae-abdbe2fa5d2b","system_id":"levelo_inurba_marseille","lat":43.2936,"lon":5.37835,"is_reserved":false,"is_disabled":false,"rental_uris":{"android":"levelo://app?vid=3221ee4f-b630-4ab0-b8ae-abdbe2fa5d2b","ios":"levelo://app?vid=3221ee4f-b630-4ab0-b8ae-abdbe2fa5d2b"},"vehicle_type_id":"4","last_reported":1684613164,"current_range_meters":24800,"station_id":"ce4bgjh2rcd13ifvqbf0","pricing_plan_id":"free"},{"bike_id":"631cf141-6f0a-41bf-9e49-ca488df68b37","system_id":"levelo_inurba_marseille","lat":43.298764,"lon":5.388973,"is_reserved":false,"is_disabled":false,"rental_uris":{"android":"levelo://app?vid=631cf141-6f0a-41bf-9e49-ca488df68b37","ios":"levelo://app?vid=631cf141-6f0a-41bf-9e49-ca488df68b37"},"vehicle_type_id":"4","last_reported":1684613164,"current_range_meters":12800,"station_id":"ce4bh392rcd13ifvqdl0","pricing_plan_id":"free"},{"bike_id":"734d3108-d469-4678-a552-8b6b171e70b5","system_id":"levelo_inurba_marseille","lat":43.29171,"lon":5.37133,"is_reserved":false,"is_disabled":false,"rental_uris":{"android":"levelo://app?vid=734d3108-d469-4678-a552-8b6b171e70b5","ios":"levelo://app?vid=734d3108-d469-4678-a552-8b6b171e70b5"},"vehicle_type_id":"4","last_reported":1684613164,"current_range_meters":20000,"station_id":"ce4bha92rcd13ifvqeh0","pricing_plan_id":"free"},{"bike_id":"a729ab1f-9983-435c-92d3-74a83b4048f6","system_id":"levelo_inurba_marseille","lat":43.291675,"lon":5.371583,"is_reserved":false,"is_disabled":false,"rental_uris":{"android":"levelo://app?vid=a729ab1f-9983-435c-92d3-74a83b4048f6","ios":"levelo://app?vid=a729ab1f-9983-435c-92d3-74a83b4048f6"},"vehicle_type_id":"4","last_reported":1684613164,"current_range_meters":31200,"station_id":"ce4bha92rcd13ifvqeh0","pricing_plan_id":"free"},{"bike_id":"4a132024-0321-443c-a8d7-22cc1c1bd7c0","system_id":"levelo_inurba_marseille","lat":43.298764,"lon":5.388973,"is_reserved":false,"is_disabled":false,"rental_uris":{"android":"levelo://app?vid=4a132024-0321-443c-a8d7-22cc1c1bd7c0","ios":"levelo://app?vid=4a132024-0321-443c-a8d7-22cc1c1bd7c0"},"vehicle_type_id":"4","last_reported":1684613164,"current_range_meters":22800,"station_id":"ce4bh392rcd13ifvqdl0","pricing_plan_id":"free"},{"bike_id":"168820a3-5cc1-445c-b7de-2ed9f6dcf6a5","system_id":"levelo_inurba_marseille","lat":43.298764,"lon":5.388973,"is_reserved":false,"is_disabled":false,"rental_uris":{"android":"levelo://app?vid=168820a3-5cc1-445c-b7de-2ed9f6dcf6a5","ios":"levelo://app?vid=168820a3-5cc1-445c-b7de-2ed9f6dcf6a5"},"vehicle_type_id":"4","last_reported":1684613164,"current_range_meters":0,"station_id":"ce4bh392rcd13ifvqdl0","pricing_plan_id":"free"},{"bike_id":"d4fdf4a6-839a-4b44-b03d-66bbb7ad8772","system_id":"levelo_inurba_marseille","lat":43.298764,"lon":5.388973,"is_reserved":false,"is_disabled":false,"rental_uris":{"android":"levelo://app?vid=d4fdf4a6-839a-4b44-b03d-66bbb7ad8772","ios":"levelo://app?vid=d4fdf4a6-839a-4b44-b03d-66bbb7ad8772"},"vehicle_type_id":"4","last_reported":1684613164,"current_range_meters":3600,"station_id":"ce4bh392rcd13ifvqdl0","pricing_plan_id":"free"},{"bike_id":"09c69198-6e55-41c9-a9b1-cd45d42c696b","system_id":"levelo_inurba_marseille","lat":43.291675,"lon":5.371583,"is_reserved":false,"is_disabled":false,"rental_uris":{"android":"levelo://app?vid=09c69198-6e55-41c9-a9b1-cd45d42c696b","ios":"levelo://app?vid=09c69198-6e55-41c9-a9b1-cd45d42c696b"},"vehicle_type_id":"4","last_reported":1684613164,"current_range_meters":17200,"station_id":"ce4bha92rcd13ifvqeh0","pricing_plan_id":"free"},{"bike_id":"cf4cc00d-774c-4436-9168-bc3d313fea6f","system_id":"levelo_inurba_marseille","lat":43.298764,"lon":5.388973,"is_reserved":false,"is_disabled":false,"rental_uris":{"android":"levelo://app?vid=cf4cc00d-774c-4436-9168-bc3d313fea6f","ios":"levelo://app?vid=cf4cc00d-774c-4436-9168-bc3d313fea6f"},"vehicle_type_id":"4","last_reported":1684613164,"current_range_meters":15200,"station_id":"ce4bh392rcd13ifvqdl0","pricing_plan_id":"free"},{"bike_id":"b2da6e50-f669-4733-a2b1-a6f5ca2d74a7","system_id":"levelo_inurba_marseille","lat":43.29159,"lon":5.37156,"is_reserved":false,"is_disabled":false,"rental_uris":{"android":"levelo://app?vid=b2da6e50-f669-4733-a2b1-a6f5ca2d74a7","ios":"levelo://app?vid=b2da6e50-f669-4733-a2b1-a6f5ca2d74a7"},"vehicle_type_id":"4","last_reported":1684613164,"current_range_meters":6400,"station_id":"ce4bha92rcd13ifvqeh0","pricing_plan_id":"free"},{"bike_id":"93a0805c-c1e5-432e-b2ec-521dc82438da","system_id":"levelo_inurba_marseille","lat":43.292,"lon":5.35911,"is_reserved":false,"is_disabled":false,"rental_uris":{"android":"levelo://app?vid=93a0805c-c1e5-432e-b2ec-521dc82438da","ios":"levelo://app?vid=93a0805c-c1e5-432e-b2ec-521dc82438da"},"vehicle_type_id":"4","last_reported":1684613164,"current_range_meters":30800,"station_id":"","pricing_plan_id":"free"},{"bike_id":"dc368bd4-28a3-4521-a8ff-8f20aed7e729","system_id":"levelo_inurba_marseille","lat":43.30884,"lon":5.39632,"is_reserved":false,"is_disabled":false,"rental_uris":{"android":"levelo://app?vid=dc368bd4-28a3-4521-a8ff-8f20aed7e729","ios":"levelo://app?vid=dc368bd4-28a3-4521-a8ff-8f20aed7e729"},"vehicle_type_id":"4","last_reported":1684613164,"current_range_meters":22000,"station_id":"","pricing_plan_id":"free"},{"bike_id":"65e575fa-a358-41d8-a675-f34d67f48ecf","system_id":"levelo_inurba_marseille","lat":43.30889,"lon":5.39635,"is_reserved":false,"is_disabled":false,"rental_uris":{"android":"levelo://app?vid=65e575fa-a358-41d8-a675-f34d67f48ecf","ios":"levelo://app?vid=65e575fa-a358-41d8-a675-f34d67f48ecf"},"vehicle_type_id":"4","last_reported":1684613164,"current_range_meters":24400,"station_id":"ce4bh012rcd13ifvqcv0","pricing_plan_id":"free"},{"bike_id":"c3bb868b-d73d-4d76-a0e2-f02ceaa0a50d","system_id":"levelo_inurba_marseille","lat":43.30885,"lon":5.39636,"is_reserved":false,"is_disabled":false,"rental_uris":{"android":"levelo://app?vid=c3bb868b-d73d-4d76-a0e2-f02ceaa0a50d","ios":"levelo://app?vid=c3bb868b-d73d-4d76-a0e2-f02ceaa0a50d"},"vehicle_type_id":"4","last_reported":1684613164,"current_range_meters":12800,"station_id":"ce4bh012rcd13ifvqcv0","pricing_plan_id":"free"},{"bike_id":"00b4637a-42e4-41c2-b306-4969effcc106","system_id":"levelo_inurba_marseille","lat":43.3089,"lon":5.39638,"is_reserved":false,"is_disabled":false,"rental_uris":{"android":"levelo://app?vid=00b4637a-42e4-41c2-b306-4969effcc106","ios":"levelo://app?vid=00b4637a-42e4-41c2-b306-4969effcc106"},"vehicle_type_id":"4","last_reported":1684613164,"current_range_meters":30000,"station_id":"ce4bh012rcd13ifvqcv0","pricing_plan_id":"free"},{"bike_id":"7bd616d9-1de0-4f44-beec-c18f87869800","system_id":"levelo_inurba_marseille","lat":43.30884,"lon":5.39637,"is_reserved":false,"is_disabled":false,"rental_uris":{"android":"levelo://app?vid=7bd616d9-1de0-4f44-beec-c18f87869800","ios":"levelo://app?vid=7bd616d9-1de0-4f44-beec-c18f87869800"},"vehicle_type_id":"4","last_reported":1684613164,"current_range_meters":31200,"station_id":"","pricing_plan_id":"free"},{"bike_id":"3dfbee86-8840-47ba-a0f4-5fa0de4a284d","system_id":"levelo_inurba_marseille","lat":43.309038,"lon":5.396546,"is_reserved":false,"is_disabled":false,"rental_uris":{"android":"levelo://app?vid=3dfbee86-8840-47ba-a0f4-5fa0de4a284d","ios":"levelo://app?vid=3dfbee86-8840-47ba-a0f4-5fa0de4a284d"},"vehicle_type_id":"4","last_reported":1684613164,"current_range_meters":23600,"station_id":"ce4bh012rcd13ifvqcv0","pricing_plan_id":"free"},{"bike_id":"560fb464-6bff-4314-aa59-c1cb6143d36c","system_id":"levelo_inurba_marseille","lat":43.309038,"lon":5.396546,"is_reserved":false,"is_disabled":false,"rental_uris":{"android":"levelo://app?vid=560fb464-6bff-4314-aa59-c1cb6143d36c","ios":"levelo://app?vid=560fb464-6bff-4314-aa59-c1cb6143d36c"},"vehicle_type_id":"4","last_reported":1684613164,"current_range_meters":22400,"station_id":"ce4bh012rcd13ifvqcv0","pricing_plan_id":"free"},{"bike_id":"83a54c1f-be2d-4315-8a6e-c23d1dea63b0","system_id":"levelo_inurba_marseille","lat":43.309038,"lon":5.396546,"is_reserved":false,"is_disabled":false,"rental_uris":{"android":"levelo://app?vid=83a54c1f-be2d-4315-8a6e-c23d1dea63b0","ios":"levelo://app?vid=83a54c1f-be2d-4315-8a6e-c23d1dea63b0"},"vehicle_type_id":"4","last_reported":1684613164,"current_range_meters":18000,"station_id":"ce4bh012rcd13ifvqcv0","pricing_plan_id":"free"},{"bike_id":"4ff33288-f9a8-4337-9c3e-f024ba96b87c","system_id":"levelo_inurba_marseille","lat":43.30889,"lon":5.39643,"is_reserved":false,"is_disabled":false,"rental_uris":{"android":"levelo://app?vid=4ff33288-f9a8-4337-9c3e-f024ba96b87c","ios":"levelo://app?vid=4ff33288-f9a8-4337-9c3e-f024ba96b87c"},"vehicle_type_id":"4","last_reported":1684613164,"current_range_meters":25200,"station_id":"ce4bh012rcd13ifvqcv0","pricing_plan_id":"free"},{"bike_id":"d2ae3085-2478-4856-a3eb-d79b11f9f3f2","system_id":"levelo_inurba_marseille","lat":43.30885,"lon":5.39643,"is_reserved":false,"is_disabled":false,"rental_uris":{"android":"levelo://app?vid=d2ae3085-2478-4856-a3eb-d79b11f9f3f2","ios":"levelo://app?vid=d2ae3085-2478-4856-a3eb-d79b11f9f3f2"},"vehicle_type_id":"4","last_reported":1684613164,"current_range_meters":3200,"station_id":"","pricing_plan_id":"free"},{"bike_id":"5b32f6b0-1519-42e8-a9ee-1509ac5b0f7f","system_id":"levelo_inurba_marseille","lat":43.291994,"lon":5.357886,"is_reserved":false,"is_disabled":false,"rental_uris":{"android":"levelo://app?vid=5b32f6b0-1519-42e8-a9ee-1509ac5b0f7f","ios":"levelo://app?vid=5b32f6b0-1519-42e8-a9ee-1509ac5b0f7f"},"vehicle_type_id":"4","last_reported":1684613164,"current_range_meters":14800,"station_id":"ce4bhb12rcd13ifvqel0","pricing_plan_id":"free"},{"bike_id":"277d0ef9-8202-4f24-b4a4-a89d43b5f795","system_id":"levelo_inurba_marseille","lat":43.2919,"lon":5.35788,"is_reserved":false,"is_disabled":false,"rental_uris":{"android":"levelo://app?vid=277d0ef9-8202-4f24-b4a4-a89d43b5f795","ios":"levelo://app?vid=277d0ef9-8202-4f24-b4a4-a89d43b5f795"},"vehicle_type_id":"4","last_reported":1684613164,"current_range_meters":19600,"station_id":"ce4bhb12rcd13ifvqel0","pricing_plan_id":"free"},{"bike_id":"0c0ef071-b901-4368-9f46-46b3492353ea","system_id":"levelo_inurba_marseille","lat":43.313291,"lon":5.396838,"is_reserved":false,"is_disabled":false,"rental_uris":{"android":"levelo://app?vid=0c0ef071-b901-4368-9f46-46b3492353ea","ios":"levelo://app?vid=0c0ef071-b901-4368-9f46-46b3492353ea"},"vehicle_type_id":"4","last_reported":1684613164,"current_range_meters":7600,"station_id":"ce4bgvp2rcd13ifvqcu0","pricing_plan_id":"free"},{"bike_id":"86278db7-8898-4866-9e40-671e7eda7ded","system_id":"levelo_inurba_marseille","lat":43.309038,"lon":5.396546,"is_reserved":false,"is_disabled":false,"rental_uris":{"android":"levelo://app?vid=86278db7-8898-4866-9e40-671e7eda7ded","ios":"levelo://app?vid=86278db7-8898-4866-9e40-671e7eda7ded"},"vehicle_type_id":"4","last_reported":1684613164,"current_range_meters":20400,"station_id":"ce4bh012rcd13ifvqcv0","pricing_plan_id":"free"},{"bike_id":"b6f2b3a2-6861-41b2-a93e-9c5ff8afc542","system_id":"levelo_inurba_marseille","lat":43.29529,"lon":5.385581,"is_reserved":false,"is_disabled":false,"rental_uris":{"android":"levelo://app?vid=b6f2b3a2-6861-41b2-a93e-9c5ff8afc542","ios":"levelo://app?vid=b6f2b3a2-6861-41b2-a93e-9c5ff8afc542"},"vehicle_type_id":"4","last_reported":1684613164,"current_range_meters":25200,"station_id":"ce4bgih2rcd13ifvqba0","pricing_plan_id":"free"},{"bike_id":"fc95d3b4-02a5-4732-b0ce-2308f3f0dc5c","system_id":"levelo_inurba_marseille","lat":43.29529,"lon":5.385581,"is_reserved":false,"is_disabled":false,"rental_uris":{"android":"levelo://app?vid=fc95d3b4-02a5-4732-b0ce-2308f3f0dc5c","ios":"levelo://app?vid=fc95d3b4-02a5-4732-b0ce-2308f3f0dc5c"},"vehicle_type_id":"4","last_reported":1684613164,"current_range_meters":29200,"station_id":"ce4bgih2rcd13ifvqba0","pricing_plan_id":"free"},{"bike_id":"4eb0beed-14be-4983-88d9-dfc09b440871","system_id":"levelo_inurba_marseille","lat":43.29531,"lon":5.38532,"is_reserved":false,"is_disabled":false,"rental_uris":{"android":"levelo://app?vid=4eb0beed-14be-4983-88d9-dfc09b440871","ios":"levelo://app?vid=4eb0beed-14be-4983-88d9-dfc09b440871"},"vehicle_type_id":"4","last_reported":1684613164,"current_range_meters":31600,"station_id":"ce4bgih2rcd13ifvqba0","pricing_plan_id":"free"},{"bike_id":"21fa3c1b-5eca-4cfe-a60e-8f7c881be431","system_id":"levelo_inurba_marseille","lat":43.29529,"lon":5.385581,"is_reserved":false,"is_disabled":false,"rental_uris":{"android":"levelo://app?vid=21fa3c1b-5eca-4cfe-a60e-8f7c881be431","ios":"levelo://app?vid=21fa3c1b-5eca-4cfe-a60e-8f7c881be431"},"vehicle_type_id":"4","last_reported":1684613164,"current_range_meters":20400,"station_id":"ce4bgih2rcd13ifvqba0","pricing_plan_id":"free"},{"bike_id":"b0b37863-9444-4044-b796-d981e2dda76d","system_id":"levelo_inurba_marseille","lat":43.29529,"lon":5.385581,"is_reserved":false,"is_disabled":false,"rental_uris":{"android":"levelo://app?vid=b0b37863-9444-4044-b796-d981e2dda76d","ios":"levelo://app?vid=b0b37863-9444-4044-b796-d981e2dda76d"},"vehicle_type_id":"4","last_reported":1684613164,"current_range_meters":20000,"station_id":"ce4bgih2rcd13ifvqba0","pricing_plan_id":"free"},{"bike_id":"250344a6-1e0c-445b-9873-baea50220262","system_id":"levelo_inurba_marseille","lat":43.29529,"lon":5.385581,"is_reserved":false,"is_disabled":false,"rental_uris":{"android":"levelo://app?vid=250344a6-1e0c-445b-9873-baea50220262","ios":"levelo://app?vid=250344a6-1e0c-445b-9873-baea50220262"},"vehicle_type_id":"4","last_reported":1684613164,"current_range_meters":25200,"station_id":"ce4bgih2rcd13ifvqba0","pricing_plan_id":"free"},{"bike_id":"21459fb8-6d56-4e87-ba5c-0af1cb1994c9","system_id":"levelo_inurba_marseille","lat":43.29529,"lon":5.385581,"is_reserved":false,"is_disabled":false,"rental_uris":{"android":"levelo://app?vid=21459fb8-6d56-4e87-ba5c-0af1cb1994c9","ios":"levelo://app?vid=21459fb8-6d56-4e87-ba5c-0af1cb1994c9"},"vehicle_type_id":"4","last_reported":1684613164,"current_range_meters":20000,"station_id":"ce4bgih2rcd13ifvqba0","pricing_plan_id":"free"},{"bike_id":"5fbe36ea-c489-48f6-816a-e5e9160aebc6","system_id":"levelo_inurba_marseille","lat":43.29529,"lon":5.385581,"is_reserved":false,"is_disabled":false,"rental_uris":{"android":"levelo://app?vid=5fbe36ea-c489-48f6-816a-e5e9160aebc6","ios":"levelo://app?vid=5fbe36ea-c489-48f6-816a-e5e9160aebc6"},"vehicle_type_id":"4","last_reported":1684613164,"current_range_meters":28000,"station_id":"ce4bgih2rcd13ifvqba0","pricing_plan_id":"free"},{"bike_id":"327da11f-9bf9-4e8c-9a54-113005a48640","system_id":"levelo_inurba_marseille","lat":43.32825,"lon":5.38905,"is_reserved":false,"is_disabled":false,"rental_uris":{"android":"levelo://app?vid=327da11f-9bf9-4e8c-9a54-113005a48640","ios":"levelo://app?vid=327da11f-9bf9-4e8c-9a54-113005a48640"},"vehicle_type_id":"4","last_reported":1684613164,"current_range_meters":29200,"station_id":"","pricing_plan_id":"free"},{"bike_id":"1e0a5868-8efc-4408-a159-cd5bd94ed6ec","system_id":"levelo_inurba_marseille","lat":43.302008,"lon":5.394694,"is_reserved":false,"is_disabled":false,"rental_uris":{"android":"levelo://app?vid=1e0a5868-8efc-4408-a159-cd5bd94ed6ec","ios":"levelo://app?vid=1e0a5868-8efc-4408-a159-cd5bd94ed6ec"},"vehicle_type_id":"4","last_reported":1684613164,"current_range_meters":25600,"station_id":"ce4bh0p2rcd13ifvqd70","pricing_plan_id":"free"},{"bike_id":"5a34e7b1-6d47-4422-a257-5b7c5559283e","system_id":"levelo_inurba_marseille","lat":43.302008,"lon":5.394694,"is_reserved":false,"is_disabled":false,"rental_uris":{"android":"levelo://app?vid=5a34e7b1-6d47-4422-a257-5b7c5559283e","ios":"levelo://app?vid=5a34e7b1-6d47-4422-a257-5b7c5559283e"},"vehicle_type_id":"4","last_reported":1684613164,"current_range_meters":28400,"station_id":"ce4bh0p2rcd13ifvqd70","pricing_plan_id":"free"},{"bike_id":"b0f8ddf6-c70c-4a2c-8a03-68b47970c01d","system_id":"levelo_inurba_marseille","lat":43.29421,"lon":5.38622,"is_reserved":false,"is_disabled":false,"rental_uris":{"android":"levelo://app?vid=b0f8ddf6-c70c-4a2c-8a03-68b47970c01d","ios":"levelo://app?vid=b0f8ddf6-c70c-4a2c-8a03-68b47970c01d"},"vehicle_type_id":"4","last_reported":1684613164,"current_range_meters":22000,"station_id":"ce4bh2h2rcd13ifvqdh0","pricing_plan_id":"free"},{"bike_id":"b37b2f9a-c6bb-44be-99c7-32d0df1ded0a","system_id":"levelo_inurba_marseille","lat":43.29419,"lon":5.38622,"is_reserved":false,"is_disabled":false,"rental_uris":{"android":"levelo://app?vid=b37b2f9a-c6bb-44be-99c7-32d0df1ded0a","ios":"levelo://app?vid=b37b2f9a-c6bb-44be-99c7-32d0df1ded0a"},"vehicle_type_id":"4","last_reported":1684613164,"current_range_meters":29200,"station_id":"ce4bh2h2rcd13ifvqdh0","pricing_plan_id":"free"},{"bike_id":"52840670-adf9-433a-a316-2a64c5a381b4","system_id":"levelo_inurba_marseille","lat":43.294153,"lon":5.386305,"is_reserved":false,"is_disabled":false,"rental_uris":{"android":"levelo://app?vid=52840670-adf9-433a-a316-2a64c5a381b4","ios":"levelo://app?vid=52840670-adf9-433a-a316-2a64c5a381b4"},"vehicle_type_id":"4","last_reported":1684613164,"current_range_meters":31600,"station_id":"ce4bh2h2rcd13ifvqdh0","pricing_plan_id":"free"},{"bike_id":"d554c963-3dd3-4cd0-8427-56054b9b7f76","system_id":"levelo_inurba_marseille","lat":43.29419,"lon":5.38624,"is_reserved":false,"is_disabled":false,"rental_uris":{"android":"levelo://app?vid=d554c963-3dd3-4cd0-8427-56054b9b7f76","ios":"levelo://app?vid=d554c963-3dd3-4cd0-8427-56054b9b7f76"},"vehicle_type_id":"4","last_reported":1684613164,"current_range_meters":28000,"station_id":"ce4bh2h2rcd13ifvqdh0","pricing_plan_id":"free"},{"bike_id":"21ba39d6-3717-415f-8f31-38d30d149395","system_id":"levelo_inurba_marseille","lat":43.29415,"lon":5.38619,"is_reserved":false,"is_disabled":false,"rental_uris":{"android":"levelo://app?vid=21ba39d6-3717-415f-8f31-38d30d149395","ios":"levelo://app?vid=21ba39d6-3717-415f-8f31-38d30d149395"},"vehicle_type_id":"4","last_reported":1684613164,"current_range_meters":27200,"station_id":"ce4bh2h2rcd13ifvqdh0","pricing_plan_id":"free"},{"bike_id":"ea790441-eb84-4fe5-8c63-5be1511c11e1","system_id":"levelo_inurba_marseille","lat":43.29418,"lon":5.38625,"is_reserved":false,"is_disabled":false,"rental_uris":{"android":"levelo://app?vid=ea790441-eb84-4fe5-8c63-5be1511c11e1","ios":"levelo://app?vid=ea790441-eb84-4fe5-8c63-5be1511c11e1"},"vehicle_type_id":"4","last_reported":1684613164,"current_range_meters":23200,"station_id":"ce4bh2h2rcd13ifvqdh0","pricing_plan_id":"free"},{"bike_id":"74fc463d-5f33-49fc-8d94-3f11fef69b59","system_id":"levelo_inurba_marseille","lat":43.29421,"lon":5.38631,"is_reserved":false,"is_disabled":false,"rental_uris":{"android":"levelo://app?vid=74fc463d-5f33-49fc-8d94-3f11fef69b59","ios":"levelo://app?vid=74fc463d-5f33-49fc-8d94-3f11fef69b59"},"vehicle_type_id":"4","last_reported":1684613164,"current_range_meters":23200,"station_id":"ce4bh2h2rcd13ifvqdh0","pricing_plan_id":"free"},{"bike_id":"02fa5ae5-b3ff-444d-b45a-54b9201ca890","system_id":"levelo_inurba_marseille","lat":43.294153,"lon":5.386305,"is_reserved":false,"is_disabled":false,"rental_uris":{"android":"levelo://app?vid=02fa5ae5-b3ff-444d-b45a-54b9201ca890","ios":"levelo://app?vid=02fa5ae5-b3ff-444d-b45a-54b9201ca890"},"vehicle_type_id":"4","last_reported":1684613164,"current_range_meters":32000,"station_id":"ce4bh2h2rcd13ifvqdh0","pricing_plan_id":"free"},{"bike_id":"3a3e72e2-c6a3-49e8-b775-79d6a10a3504","system_id":"levelo_inurba_marseille","lat":43.294153,"lon":5.386305,"is_reserved":false,"is_disabled":false,"rental_uris":{"android":"levelo://app?vid=3a3e72e2-c6a3-49e8-b775-79d6a10a3504","ios":"levelo://app?vid=3a3e72e2-c6a3-49e8-b775-79d6a10a3504"},"vehicle_type_id":"4","last_reported":1684613164,"current_range_meters":20000,"station_id":"ce4bh2h2rcd13ifvqdh0","pricing_plan_id":"free"},{"bike_id":"9df58e7d-7ceb-450e-a784-212f6a8f0f6e","system_id":"levelo_inurba_marseille","lat":43.29417,"lon":5.38627,"is_reserved":false,"is_disabled":false,"rental_uris":{"android":"levelo://app?vid=9df58e7d-7ceb-450e-a784-212f6a8f0f6e","ios":"levelo://app?vid=9df58e7d-7ceb-450e-a784-212f6a8f0f6e"},"vehicle_type_id":"4","last_reported":1684613164,"current_range_meters":14800,"station_id":"ce4bh2h2rcd13ifvqdh0","pricing_plan_id":"free"},{"bike_id":"982b7c83-bfa4-4f19-b6f2-4933f6621050","system_id":"levelo_inurba_marseille","lat":43.29418,"lon":5.38629,"is_reserved":false,"is_disabled":false,"rental_uris":{"android":"levelo://app?vid=982b7c83-bfa4-4f19-b6f2-4933f6621050","ios":"levelo://app?vid=982b7c83-bfa4-4f19-b6f2-4933f6621050"},"vehicle_type_id":"4","last_reported":1684613164,"current_range_meters":21600,"station_id":"ce4bh2h2rcd13ifvqdh0","pricing_plan_id":"free"},{"bike_id":"962087f6-81d5-4df7-bd30-73e08cc02a76","system_id":"levelo_inurba_marseille","lat":43.2941,"lon":5.38616,"is_reserved":false,"is_disabled":false,"rental_uris":{"android":"levelo://app?vid=962087f6-81d5-4df7-bd30-73e08cc02a76","ios":"levelo://app?vid=962087f6-81d5-4df7-bd30-73e08cc02a76"},"vehicle_type_id":"4","last_reported":1684613164,"current_range_meters":28800,"station_id":"ce4bh2h2rcd13ifvqdh0","pricing_plan_id":"free"},{"bike_id":"3e655afc-190f-4652-9b44-712496fc74fe","system_id":"levelo_inurba_marseille","lat":43.29415,"lon":5.38627,"is_reserved":false,"is_disabled":false,"rental_uris":{"android":"levelo://app?vid=3e655afc-190f-4652-9b44-712496fc74fe","ios":"levelo://app?vid=3e655afc-190f-4652-9b44-712496fc74fe"},"vehicle_type_id":"4","last_reported":1684613164,"current_range_meters":28000,"station_id":"ce4bh2h2rcd13ifvqdh0","pricing_plan_id":"free"},{"bike_id":"13c8c367-9e64-4dc9-a4b1-ae1d1be2fe8a","system_id":"levelo_inurba_marseille","lat":43.29411,"lon":5.38627,"is_reserved":false,"is_disabled":false,"rental_uris":{"android":"levelo://app?vid=13c8c367-9e64-4dc9-a4b1-ae1d1be2fe8a","ios":"levelo://app?vid=13c8c367-9e64-4dc9-a4b1-ae1d1be2fe8a"},"vehicle_type_id":"4","last_reported":1684613164,"current_range_meters":30000,"station_id":"ce4bh2h2rcd13ifvqdh0","pricing_plan_id":"free"},{"bike_id":"7f26f1e5-cd81-41d3-a68f-b332aad71eb4","system_id":"levelo_inurba_marseille","lat":43.29412,"lon":5.38632,"is_reserved":false,"is_disabled":false,"rental_uris":{"android":"levelo://app?vid=7f26f1e5-cd81-41d3-a68f-b332aad71eb4","ios":"levelo://app?vid=7f26f1e5-cd81-41d3-a68f-b332aad71eb4"},"vehicle_type_id":"4","last_reported":1684613164,"current_range_meters":23200,"station_id":"ce4bh2h2rcd13ifvqdh0","pricing_plan_id":"free"},{"bike_id":"009bb9df-27b2-4075-a2d2-f749c3ae4413","system_id":"levelo_inurba_marseille","lat":43.29409,"lon":5.38627,"is_reserved":false,"is_disabled":false,"rental_uris":{"android":"levelo://app?vid=009bb9df-27b2-4075-a2d2-f749c3ae4413","ios":"levelo://app?vid=009bb9df-27b2-4075-a2d2-f749c3ae4413"},"vehicle_type_id":"4","last_reported":1684613164,"current_range_meters":18400,"station_id":"ce4bh2h2rcd13ifvqdh0","pricing_plan_id":"free"},{"bike_id":"624ce349-c348-40b1-8e20-6ade8b3b202b","system_id":"levelo_inurba_marseille","lat":43.290319,"lon":5.375732,"is_reserved":false,"is_disabled":false,"rental_uris":{"android":"levelo://app?vid=624ce349-c348-40b1-8e20-6ade8b3b202b","ios":"levelo://app?vid=624ce349-c348-40b1-8e20-6ade8b3b202b"},"vehicle_type_id":"4","last_reported":1684613164,"current_range_meters":28000,"station_id":"ce4bh692rcd13ifvqe90","pricing_plan_id":"free"},{"bike_id":"f4ba9800-9238-486b-bc2d-8e3a4492282e","system_id":"levelo_inurba_marseille","lat":43.289184,"lon":5.366408,"is_reserved":false,"is_disabled":false,"rental_uris":{"android":"levelo://app?vid=f4ba9800-9238-486b-bc2d-8e3a4492282e","ios":"levelo://app?vid=f4ba9800-9238-486b-bc2d-8e3a4492282e"},"vehicle_type_id":"4","last_reported":1684613164,"current_range_meters":25200,"station_id":"ce4bhap2rcd13ifvqek0","pricing_plan_id":"free"},{"bike_id":"e5937a46-e05e-4018-a347-665bb75a1090","system_id":"levelo_inurba_marseille","lat":43.304274,"lon":5.397513,"is_reserved":false,"is_disabled":false,"rental_uris":{"android":"levelo://app?vid=e5937a46-e05e-4018-a347-665bb75a1090","ios":"levelo://app?vid=e5937a46-e05e-4018-a347-665bb75a1090"},"vehicle_type_id":"4","last_reported":1684613164,"current_range_meters":11200,"station_id":"ce4bh092rcd13ifvqd20","pricing_plan_id":"free"},{"bike_id":"380ab92c-4482-4930-971e-e1de9207254a","system_id":"levelo_inurba_marseille","lat":43.29273,"lon":5.38431,"is_reserved":false,"is_disabled":false,"rental_uris":{"android":"levelo://app?vid=380ab92c-4482-4930-971e-e1de9207254a","ios":"levelo://app?vid=380ab92c-4482-4930-971e-e1de9207254a"},"vehicle_type_id":"4","last_reported":1684613164,"current_range_meters":29600,"station_id":"ce4bh692rcd13ifvqea0","pricing_plan_id":"free"},{"bike_id":"1962c686-e486-4015-8c71-e3b25df1edef","system_id":"levelo_inurba_marseille","lat":43.292642,"lon":5.384254,"is_reserved":false,"is_disabled":false,"rental_uris":{"android":"levelo://app?vid=1962c686-e486-4015-8c71-e3b25df1edef","ios":"levelo://app?vid=1962c686-e486-4015-8c71-e3b25df1edef"},"vehicle_type_id":"4","last_reported":1684613164,"current_range_meters":27200,"station_id":"ce4bh692rcd13ifvqea0","pricing_plan_id":"free"},{"bike_id":"ab11a95b-054a-4907-adfe-9d9fe02f42a0","system_id":"levelo_inurba_marseille","lat":43.29264,"lon":5.38432,"is_reserved":false,"is_disabled":false,"rental_uris":{"android":"levelo://app?vid=ab11a95b-054a-4907-adfe-9d9fe02f42a0","ios":"levelo://app?vid=ab11a95b-054a-4907-adfe-9d9fe02f42a0"},"vehicle_type_id":"4","last_reported":1684613164,"current_range_meters":25600,"station_id":"ce4bh692rcd13ifvqea0","pricing_plan_id":"free"},{"bike_id":"c6354112-3660-4cbc-bb76-44cb22f6232a","system_id":"levelo_inurba_marseille","lat":43.304274,"lon":5.397513,"is_reserved":false,"is_disabled":false,"rental_uris":{"android":"levelo://app?vid=c6354112-3660-4cbc-bb76-44cb22f6232a","ios":"levelo://app?vid=c6354112-3660-4cbc-bb76-44cb22f6232a"},"vehicle_type_id":"4","last_reported":1684613164,"current_range_meters":24400,"station_id":"ce4bh092rcd13ifvqd20","pricing_plan_id":"free"},{"bike_id":"5dc46267-7d54-40da-b7f9-73ed33e79c32","system_id":"levelo_inurba_marseille","lat":43.2926,"lon":5.38432,"is_reserved":false,"is_disabled":false,"rental_uris":{"android":"levelo://app?vid=5dc46267-7d54-40da-b7f9-73ed33e79c32","ios":"levelo://app?vid=5dc46267-7d54-40da-b7f9-73ed33e79c32"},"vehicle_type_id":"4","last_reported":1684613164,"current_range_meters":9200,"station_id":"ce4bh692rcd13ifvqea0","pricing_plan_id":"free"},{"bike_id":"2657c4a6-4e18-4794-b08f-7e1e34f75cd4","system_id":"levelo_inurba_marseille","lat":43.29264,"lon":5.38442,"is_reserved":false,"is_disabled":false,"rental_uris":{"android":"levelo://app?vid=2657c4a6-4e18-4794-b08f-7e1e34f75cd4","ios":"levelo://app?vid=2657c4a6-4e18-4794-b08f-7e1e34f75cd4"},"vehicle_type_id":"4","last_reported":1684613164,"current_range_meters":28400,"station_id":"ce4bh692rcd13ifvqea0","pricing_plan_id":"free"},{"bike_id":"ac421d7e-a014-4f2a-84df-4c0fff0710b0","system_id":"levelo_inurba_marseille","lat":43.292644,"lon":5.384257,"is_reserved":false,"is_disabled":false,"rental_uris":{"android":"levelo://app?vid=ac421d7e-a014-4f2a-84df-4c0fff0710b0","ios":"levelo://app?vid=ac421d7e-a014-4f2a-84df-4c0fff0710b0"},"vehicle_type_id":"4","last_reported":1684613164,"current_range_meters":17600,"station_id":"ce4bh692rcd13ifvqea0","pricing_plan_id":"free"},{"bike_id":"8451fb22-5636-457b-a580-8d3b6dc08a87","system_id":"levelo_inurba_marseille","lat":43.304296,"lon":5.397513,"is_reserved":false,"is_disabled":false,"rental_uris":{"android":"levelo://app?vid=8451fb22-5636-457b-a580-8d3b6dc08a87","ios":"levelo://app?vid=8451fb22-5636-457b-a580-8d3b6dc08a87"},"vehicle_type_id":"4","last_reported":1684613164,"current_range_meters":18800,"station_id":"ce4bh092rcd13ifvqd20","pricing_plan_id":"free"},{"bike_id":"e2a56a5d-59b4-4755-84fe-f71aef69026e","system_id":"levelo_inurba_marseille","lat":43.292642,"lon":5.384254,"is_reserved":false,"is_disabled":false,"rental_uris":{"android":"levelo://app?vid=e2a56a5d-59b4-4755-84fe-f71aef69026e","ios":"levelo://app?vid=e2a56a5d-59b4-4755-84fe-f71aef69026e"},"vehicle_type_id":"4","last_reported":1684613164,"current_range_meters":26800,"station_id":"ce4bh692rcd13ifvqea0","pricing_plan_id":"free"},{"bike_id":"5be263dc-919e-40a7-bdba-c47480b414bc","system_id":"levelo_inurba_marseille","lat":43.292644,"lon":5.384257,"is_reserved":false,"is_disabled":false,"rental_uris":{"android":"levelo://app?vid=5be263dc-919e-40a7-bdba-c47480b414bc","ios":"levelo://app?vid=5be263dc-919e-40a7-bdba-c47480b414bc"},"vehicle_type_id":"4","last_reported":1684613164,"current_range_meters":27600,"station_id":"ce4bh692rcd13ifvqea0","pricing_plan_id":"free"},{"bike_id":"d4e361c7-aa06-46de-81d9-15308ba71532","system_id":"levelo_inurba_marseille","lat":43.292642,"lon":5.384254,"is_reserved":false,"is_disabled":false,"rental_uris":{"android":"levelo://app?vid=d4e361c7-aa06-46de-81d9-15308ba71532","ios":"levelo://app?vid=d4e361c7-aa06-46de-81d9-15308ba71532"},"vehicle_type_id":"4","last_reported":1684613164,"current_range_meters":31200,"station_id":"ce4bh692rcd13ifvqea0","pricing_plan_id":"free"},{"bike_id":"ed28d221-06a9-4ea6-90e3-2ef0573d43cb","system_id":"levelo_inurba_marseille","lat":43.29255,"lon":5.38432,"is_reserved":false,"is_disabled":false,"rental_uris":{"android":"levelo://app?vid=ed28d221-06a9-4ea6-90e3-2ef0573d43cb","ios":"levelo://app?vid=ed28d221-06a9-4ea6-90e3-2ef0573d43cb"},"vehicle_type_id":"4","last_reported":1684613164,"current_range_meters":10400,"station_id":"ce4bh692rcd13ifvqea0","pricing_plan_id":"free"},{"bike_id":"15f670e4-fc29-48fe-8077-df7c661dac10","system_id":"levelo_inurba_marseille","lat":43.304274,"lon":5.397513,"is_reserved":false,"is_disabled":false,"rental_uris":{"android":"levelo://app?vid=15f670e4-fc29-48fe-8077-df7c661dac10","ios":"levelo://app?vid=15f670e4-fc29-48fe-8077-df7c661dac10"},"vehicle_type_id":"4","last_reported":1684613164,"current_range_meters":29600,"station_id":"ce4bh092rcd13ifvqd20","pricing_plan_id":"free"},{"bike_id":"4300a994-b575-4ee1-8aa5-240fd12fafec","system_id":"levelo_inurba_marseille","lat":43.292644,"lon":5.384257,"is_reserved":false,"is_disabled":false,"rental_uris":{"android":"levelo://app?vid=4300a994-b575-4ee1-8aa5-240fd12fafec","ios":"levelo://app?vid=4300a994-b575-4ee1-8aa5-240fd12fafec"},"vehicle_type_id":"4","last_reported":1684613164,"current_range_meters":13200,"station_id":"ce4bh692rcd13ifvqea0","pricing_plan_id":"free"},{"bike_id":"10add061-8da5-4d59-bdeb-6d2ac0b0a15b","system_id":"levelo_inurba_marseille","lat":43.29259,"lon":5.38441,"is_reserved":false,"is_disabled":false,"rental_uris":{"android":"levelo://app?vid=10add061-8da5-4d59-bdeb-6d2ac0b0a15b","ios":"levelo://app?vid=10add061-8da5-4d59-bdeb-6d2ac0b0a15b"},"vehicle_type_id":"4","last_reported":1684613164,"current_range_meters":12000,"station_id":"ce4bh692rcd13ifvqea0","pricing_plan_id":"free"},{"bike_id":"d8359e83-b761-4285-9e9a-ae2065e0fd73","system_id":"levelo_inurba_marseille","lat":43.292642,"lon":5.384254,"is_reserved":false,"is_disabled":false,"rental_uris":{"android":"levelo://app?vid=d8359e83-b761-4285-9e9a-ae2065e0fd73","ios":"levelo://app?vid=d8359e83-b761-4285-9e9a-ae2065e0fd73"},"vehicle_type_id":"4","last_reported":1684613164,"current_range_meters":27200,"station_id":"ce4bh692rcd13ifvqea0","pricing_plan_id":"free"},{"bike_id":"4871afbd-2a5e-4b45-8369-7d8eb2c7331c","system_id":"levelo_inurba_marseille","lat":43.292642,"lon":5.384254,"is_reserved":false,"is_disabled":false,"rental_uris":{"android":"levelo://app?vid=4871afbd-2a5e-4b45-8369-7d8eb2c7331c","ios":"levelo://app?vid=4871afbd-2a5e-4b45-8369-7d8eb2c7331c"},"vehicle_type_id":"4","last_reported":1684613164,"current_range_meters":21200,"station_id":"ce4bh692rcd13ifvqea0","pricing_plan_id":"free"},{"bike_id":"ec5489ca-7481-4dc9-bc08-d0697a9f9ccb","system_id":"levelo_inurba_marseille","lat":43.292644,"lon":5.384257,"is_reserved":false,"is_disabled":false,"rental_uris":{"android":"levelo://app?vid=ec5489ca-7481-4dc9-bc08-d0697a9f9ccb","ios":"levelo://app?vid=ec5489ca-7481-4dc9-bc08-d0697a9f9ccb"},"vehicle_type_id":"4","last_reported":1684613164,"current_range_meters":26400,"station_id":"ce4bh692rcd13ifvqea0","pricing_plan_id":"free"},{"bike_id":"3a052c00-62d7-4ef3-b2f2-02d8d27f5c42","system_id":"levelo_inurba_marseille","lat":43.304274,"lon":5.397513,"is_reserved":false,"is_disabled":false,"rental_uris":{"android":"levelo://app?vid=3a052c00-62d7-4ef3-b2f2-02d8d27f5c42","ios":"levelo://app?vid=3a052c00-62d7-4ef3-b2f2-02d8d27f5c42"},"vehicle_type_id":"4","last_reported":1684613164,"current_range_meters":31200,"station_id":"ce4bh092rcd13ifvqd20","pricing_plan_id":"free"},{"bike_id":"1e747b42-b680-4913-b5d6-dcfc158d3d98","system_id":"levelo_inurba_marseille","lat":43.29248,"lon":5.38435,"is_reserved":false,"is_disabled":false,"rental_uris":{"android":"levelo://app?vid=1e747b42-b680-4913-b5d6-dcfc158d3d98","ios":"levelo://app?vid=1e747b42-b680-4913-b5d6-dcfc158d3d98"},"vehicle_type_id":"4","last_reported":1684613164,"current_range_meters":0,"station_id":"ce4bh692rcd13ifvqea0","pricing_plan_id":"free"},{"bike_id":"c9385c13-f39c-460f-b6b2-99ec8d617571","system_id":"levelo_inurba_marseille","lat":43.304296,"lon":5.397513,"is_reserved":false,"is_disabled":false,"rental_uris":{"android":"levelo://app?vid=c9385c13-f39c-460f-b6b2-99ec8d617571","ios":"levelo://app?vid=c9385c13-f39c-460f-b6b2-99ec8d617571"},"vehicle_type_id":"4","last_reported":1684613164,"current_range_meters":0,"station_id":"ce4bh092rcd13ifvqd20","pricing_plan_id":"free"},{"bike_id":"1b84aca1-af7d-491f-8adb-c73bc4758528","system_id":"levelo_inurba_marseille","lat":43.292644,"lon":5.384257,"is_reserved":false,"is_disabled":false,"rental_uris":{"android":"levelo://app?vid=1b84aca1-af7d-491f-8adb-c73bc4758528","ios":"levelo://app?vid=1b84aca1-af7d-491f-8adb-c73bc4758528"},"vehicle_type_id":"4","last_reported":1684613164,"current_range_meters":16400,"station_id":"ce4bh692rcd13ifvqea0","pricing_plan_id":"free"},{"bike_id":"4fddac79-b8a0-47a9-9c6e-2d3755c608db","system_id":"levelo_inurba_marseille","lat":43.33039,"lon":5.38917,"is_reserved":false,"is_disabled":false,"rental_uris":{"android":"levelo://app?vid=4fddac79-b8a0-47a9-9c6e-2d3755c608db","ios":"levelo://app?vid=4fddac79-b8a0-47a9-9c6e-2d3755c608db"},