{"last_updated":1744186451,"ttl":60,"version":"2.2","data":{"bikes":[{"bike_id":"ca9b416f-7aeb-46f0-81f3-6e6a8b39140c","system_id":"levelo_inurba_marseille","lat":43.26059,"lon":5.39392,"is_reserved":false,"is_disabled":false,"rental_uris":{"android":"levelo://app?vid=ca9b416f-7aeb-46f0-81f3-6e6a8b39140c","ios":"levelo://app?vid=ca9b416f-7aeb-46f0-81f3-6e6a8b39140c"},"vehicle_type_id":"4","last_reported":1744186452,"current_range_meters":2800,"station_id":"ce4bhh92rcd13ifvqfj0","pricing_plan_id":"cebpf4jnsgd1na2vs0mg"},{"bike_id":"563e2a37-5359-4446-851c-23f0399b3fbb","system_id":"levelo_inurba_marseille","lat":43.30536,"lon":5.36571,"is_reserved":false,"is_disabled":true,"rental_uris":{"android":"levelo://app?vid=563e2a37-5359-4446-851c-23f0399b3fbb","ios":"levelo://app?vid=563e2a37-5359-4446-851c-23f0399b3fbb"},"vehicle_type_id":"4","last_reported":1744186452,"current_range_meters":3600,"station_id":"ce4bgs12rcd13ifvqcag","pricing_plan_id":"cebpf4jnsgd1na2vs0mg"},{"bike_id":"01c10d9c-6749-4cb0-95a9-9e7a13065362","system_id":"levelo_inurba_marseille","lat":43.259257,"lon":5.409033,"is_reserved":false,"is_disabled":true,"rental_uris":{"android":"levelo://app?vid=01c10d9c-6749-4cb0-95a9-9e7a13065362","ios":"levelo://app?vid=01c10d9c-6749-4cb0-95a9-9e7a13065362"},"vehicle_type_id":"4","last_reported":1744186452,"current_range_meters":3600,"station_id":"ce4bhm92rcd13ifvqglg","pricing_plan_id":"cebpf4jnsgd1na2vs0mg"},{"bike_id":"52a3a737-d744-44aa-901d-daf29012d3d4","system_id":"levelo_inurba_marseille","lat":43.30894,"lon":5.37056,"is_reserved":false,"is_disabled":false,"rental_uris":{"android":"levelo://app?vid=52a3a737-d744-44aa-901d-daf29012d3d4","ios":"levelo://app?vid=52a3a737-d744-44aa-901d-daf29012d3d4"},"vehicle_type_id":"4","last_reported":1744186452,"current_range_meters":3600,"station_id":"","pricing_plan_id":"cebpf4jnsgd1na2vs0mg"},{"bike_id":"0fbdf58d-4917-4d24-8b4b-9c66b7b96e08","system_id":"levelo_inurba_marseille","lat":43.31748,"lon":5.39862,"is_reserved":false,"is_disabled":false,"rental_uris":{"android":"levelo://app?vid=0fbdf58d-4917-4d24-8b4b-9c66b7b96e08","ios":"levelo://app?vid=0fbdf58d-4917-4d24-8b4b-9c66b7b96e08"},"vehicle_type_id":"4","last_reported":1744186452,"current_range_meters":3600,"station_id":"","pricing_plan_id":"cebpf4jnsgd1na2vs0mg"},{"bike_id":"95e4d341-aa1d-45d3-97d4-58ce3861535b","system_id":"levelo_inurba_marseille","lat":43.211979,"lon":5.350821,"is_reserved":false,"is_disabled":true,"rental_uris":{"android":"levelo://app?vid=95e4d341-aa1d-45d3-97d4-58ce3861535b","ios":"levelo://app?vid=95e4d341-aa1d-45d3-97d4-58ce3861535b"},"vehicle_type_id":"4","last_reported":1744186452,"current_range_meters":4000,"station_id":"","pricing_plan_id":"cebpf4jnsgd1na2vs0mg"},{"bike_id":"140843da-0edb-46c3-ad5b-c32ab706b8ed","system_id":"levelo_inurba_marseille","lat":43.24178,"lon":5.39714,"is_reserved":false,"is_disabled":false,"rental_uris":{"android":"levelo://app?vid=140843da-0edb-46c3-ad5b-c32ab706b8ed","ios":"levelo://app?vid=140843da-0edb-46c3-ad5b-c32ab706b8ed"},"vehicle_type_id":"4","last_reported":1744186452,"current_range_meters":4000,"station_id":"ce4bhn12rcd13ifvqgpg","pricing_plan_id":"cebpf4jnsgd1na2vs0mg"},{"bike_id":"94cc02d0-1cba-4ce3-a6ee-2b2a43266460","system_id":"levelo_inurba_marseille","lat":43.25081,"lon":5.39513,"is_reserved":false,"is_disabled":false,"rental_uris":{"android":"levelo://app?vid=94cc02d0-1cba-4ce3-a6ee-2b2a43266460","ios":"levelo://app?vid=94cc02d0-1cba-4ce3-a6ee-2b2a43266460"},"vehicle_type_id":"4","last_reported":1744186452,"current_range_meters":4400,"station_id":"ce4bhm12rcd13ifvqgkg","pricing_plan_id":"cebpf4jnsgd1na2vs0mg"},{"bike_id":"fe15bbb3-41d5-44a5-be9a-d99b3ed36373","system_id":"levelo_inurba_marseille","lat":43.28467,"lon":5.39206,"is_reserved":false,"is_disabled":true,"rental_uris":{"android":"levelo://app?vid=fe15bbb3-41d5-44a5-be9a-d99b3ed36373","ios":"levelo://app?vid=fe15bbb3-41d5-44a5-be9a-d99b3ed36373"},"vehicle_type_id":"4","last_reported":1744186452,"current_range_meters":4800,"station_id":"ce4bhoh2rcd13ifvqh5g","pricing_plan_id":"cebpf4jnsgd1na2vs0mg"},{"bike_id":"ecef8e9e-03dc-4612-b74e-b978f92e2873","system_id":"levelo_inurba_marseille","lat":43.30111,"lon":5.39105,"is_reserved":false,"is_disabled":true,"rental_uris":{"android":"levelo://app?vid=ecef8e9e-03dc-4612-b74e-b978f92e2873","ios":"levelo://app?vid=ecef8e9e-03dc-4612-b74e-b978f92e2873"},"vehicle_type_id":"4","last_reported":1744186452,"current_range_meters":4800,"station_id":"ce4bh192rcd13ifvqdb0","pricing_plan_id":"cebpf4jnsgd1na2vs0mg"},{"bike_id":"f39be6f5-2f69-4c37-b021-559d20b299a4","system_id":"levelo_inurba_marseille","lat":43.30012,"lon":5.37666,"is_reserved":false,"is_disabled":false,"rental_uris":{"android":"levelo://app?vid=f39be6f5-2f69-4c37-b021-559d20b299a4","ios":"levelo://app?vid=f39be6f5-2f69-4c37-b021-559d20b299a4"},"vehicle_type_id":"4","last_reported":1744186452,"current_range_meters":4800,"station_id":"","pricing_plan_id":"cebpf4jnsgd1na2vs0mg"},{"bike_id":"01f9654c-7209-4781-a23d-0701f43aaed5","system_id":"levelo_inurba_marseille","lat":43.30549,"lon":5.365614,"is_reserved":false,"is_disabled":false,"rental_uris":{"android":"levelo://app?vid=01f9654c-7209-4781-a23d-0701f43aaed5","ios":"levelo://app?vid=01f9654c-7209-4781-a23d-0701f43aaed5"},"vehicle_type_id":"4","last_reported":1744186452,"current_range_meters":5600,"station_id":"ce4bgs12rcd13ifvqcag","pricing_plan_id":"cebpf4jnsgd1na2vs0mg"},{"bike_id":"3576b946-70b3-456f-a60a-d98e227f015c","system_id":"levelo_inurba_marseille","lat":43.301023,"lon":5.382221,"is_reserved":false,"is_disabled":false,"rental_uris":{"android":"levelo://app?vid=3576b946-70b3-456f-a60a-d98e227f015c","ios":"levelo://app?vid=3576b946-70b3-456f-a60a-d98e227f015c"},"vehicle_type_id":"4","last_reported":1744186452,"current_range_meters":5600,"station_id":"","pricing_plan_id":"cebpf4jnsgd1na2vs0mg"},{"bike_id":"b0e70e48-f0ae-4e70-acf1-d92ac7d0b960","system_id":"levelo_inurba_marseille","lat":43.23157,"lon":5.43718,"is_reserved":false,"is_disabled":false,"rental_uris":{"android":"levelo://app?vid=b0e70e48-f0ae-4e70-acf1-d92ac7d0b960","ios":"levelo://app?vid=b0e70e48-f0ae-4e70-acf1-d92ac7d0b960"},"vehicle_type_id":"4","last_reported":1744186452,"current_range_meters":5600,"station_id":"ce4bhmp2rcd13ifvqgog","pricing_plan_id":"cebpf4jnsgd1na2vs0mg"},{"bike_id":"ad1335c1-41cb-4ae4-9fe0-2fd2d1679e56","system_id":"levelo_inurba_marseille","lat":43.26707,"lon":5.38262,"is_reserved":false,"is_disabled":false,"rental_uris":{"android":"levelo://app?vid=ad1335c1-41cb-4ae4-9fe0-2fd2d1679e56","ios":"levelo://app?vid=ad1335c1-41cb-4ae4-9fe0-2fd2d1679e56"},"vehicle_type_id":"4","last_reported":1744186452,"current_range_meters":5600,"station_id":"ce4bhg92rcd13ifvqf90","pricing_plan_id":"cebpf4jnsgd1na2vs0mg"},{"bike_id":"717259be-755d-4b05-9444-fca78788061b","system_id":"levelo_inurba_marseille","lat":43.25919,"lon":5.40882,"is_reserved":false,"is_disabled":false,"rental_uris":{"android":"levelo://app?vid=717259be-755d-4b05-9444-fca78788061b","ios":"levelo://app?vid=717259be-755d-4b05-9444-fca78788061b"},"vehicle_type_id":"4","last_reported":1744186452,"current_range_meters":6000,"station_id":"ce4bhm92rcd13ifvqglg","pricing_plan_id":"cebpf4jnsgd1na2vs0mg"},{"bike_id":"dfaa826d-ac80-4243-9b52-5d71ac388119","system_id":"levelo_inurba_marseille","lat":43.29169,"lon":5.3715,"is_reserved":false,"is_disabled":false,"rental_uris":{"android":"levelo://app?vid=dfaa826d-ac80-4243-9b52-5d71ac388119","ios":"levelo://app?vid=dfaa826d-ac80-4243-9b52-5d71ac388119"},"vehicle_type_id":"4","last_reported":1744186452,"current_range_meters":6000,"station_id":"ce4bha92rcd13ifvqeh0","pricing_plan_id":"cebpf4jnsgd1na2vs0mg"},{"bike_id":"eeaaf0e5-8e50-4d63-98d5-250a49546479","system_id":"levelo_inurba_marseille","lat":43.29522,"lon":5.37495,"is_reserved":false,"is_disabled":false,"rental_uris":{"android":"levelo://app?vid=eeaaf0e5-8e50-4d63-98d5-250a49546479","ios":"levelo://app?vid=eeaaf0e5-8e50-4d63-98d5-250a49546479"},"vehicle_type_id":"4","last_reported":1744186452,"current_range_meters":6000,"station_id":"ce4bgkp2rcd13ifvqbmg","pricing_plan_id":"cebpf4jnsgd1na2vs0mg"},{"bike_id":"f33c1434-c08b-435b-84ea-735b7cf4f345","system_id":"levelo_inurba_marseille","lat":43.3055,"lon":5.36556,"is_reserved":false,"is_disabled":false,"rental_uris":{"android":"levelo://app?vid=f33c1434-c08b-435b-84ea-735b7cf4f345","ios":"levelo://app?vid=f33c1434-c08b-435b-84ea-735b7cf4f345"},"vehicle_type_id":"4","last_reported":1744186452,"current_range_meters":6000,"station_id":"ce4bgs12rcd13ifvqcag","pricing_plan_id":"cebpf4jnsgd1na2vs0mg"},{"bike_id":"61faeab7-d3b1-42ea-8185-a6bb834269b2","system_id":"levelo_inurba_marseille","lat":43.27158,"lon":5.41454,"is_reserved":false,"is_disabled":false,"rental_uris":{"android":"levelo://app?vid=61faeab7-d3b1-42ea-8185-a6bb834269b2","ios":"levelo://app?vid=61faeab7-d3b1-42ea-8185-a6bb834269b2"},"vehicle_type_id":"4","last_reported":1744186452,"current_range_meters":6000,"station_id":"","pricing_plan_id":"cebpf4jnsgd1na2vs0mg"},{"bike_id":"c4201faf-9130-4223-95e8-a15c9cb6ca3d","system_id":"levelo_inurba_marseille","lat":43.25952,"lon":5.40863,"is_reserved":false,"is_disabled":false,"rental_uris":{"android":"levelo://app?vid=c4201faf-9130-4223-95e8-a15c9cb6ca3d","ios":"levelo://app?vid=c4201faf-9130-4223-95e8-a15c9cb6ca3d"},"vehicle_type_id":"4","last_reported":1744186452,"current_range_meters":6000,"station_id":"ce4bhm92rcd13ifvqglg","pricing_plan_id":"cebpf4jnsgd1na2vs0mg"},{"bike_id":"16817800-3a2b-4c2f-9e50-a859de8eef35","system_id":"levelo_inurba_marseille","lat":43.25935,"lon":5.40904,"is_reserved":false,"is_disabled":false,"rental_uris":{"android":"levelo://app?vid=16817800-3a2b-4c2f-9e50-a859de8eef35","ios":"levelo://app?vid=16817800-3a2b-4c2f-9e50-a859de8eef35"},"vehicle_type_id":"4","last_reported":1744186452,"current_range_meters":6000,"station_id":"ce4bhm92rcd13ifvqglg","pricing_plan_id":"cebpf4jnsgd1na2vs0mg"},{"bike_id":"456b79bb-81b6-42d9-a52b-1ca6c839f098","system_id":"levelo_inurba_marseille","lat":43.30406,"lon":5.41284,"is_reserved":false,"is_disabled":true,"rental_uris":{"android":"levelo://app?vid=456b79bb-81b6-42d9-a52b-1ca6c839f098","ios":"levelo://app?vid=456b79bb-81b6-42d9-a52b-1ca6c839f098"},"vehicle_type_id":"4","last_reported":1744186452,"current_range_meters":6000,"station_id":"ce4bhop2rcd13ifvqh8g","pricing_plan_id":"cebpf4jnsgd1na2vs0mg"},{"bike_id":"2e9000dc-6400-4918-a994-dd60039ca96d","system_id":"levelo_inurba_marseille","lat":43.31998,"lon":5.38156,"is_reserved":false,"is_disabled":true,"rental_uris":{"android":"levelo://app?vid=2e9000dc-6400-4918-a994-dd60039ca96d","ios":"levelo://app?vid=2e9000dc-6400-4918-a994-dd60039ca96d"},"vehicle_type_id":"4","last_reported":1744186452,"current_range_meters":6000,"station_id":"ce4bhr12rcd13ifvqhpg","pricing_plan_id":"cebpf4jnsgd1na2vs0mg"},{"bike_id":"86fcf064-6505-4522-a488-45966eb83229","system_id":"levelo_inurba_marseille","lat":43.30552,"lon":5.36707,"is_reserved":false,"is_disabled":false,"rental_uris":{"android":"levelo://app?vid=86fcf064-6505-4522-a488-45966eb83229","ios":"levelo://app?vid=86fcf064-6505-4522-a488-45966eb83229"},"vehicle_type_id":"4","last_reported":1744186452,"current_range_meters":6400,"station_id":"ce4bgrp2rcd13ifvqc9g","pricing_plan_id":"cebpf4jnsgd1na2vs0mg"},{"bike_id":"b20e9b96-9326-44a6-a232-b0c3da687017","system_id":"levelo_inurba_marseille","lat":43.3073,"lon":5.42433,"is_reserved":false,"is_disabled":false,"rental_uris":{"android":"levelo://app?vid=b20e9b96-9326-44a6-a232-b0c3da687017","ios":"levelo://app?vid=b20e9b96-9326-44a6-a232-b0c3da687017"},"vehicle_type_id":"4","last_reported":1744186452,"current_range_meters":6400,"station_id":"st_cvj6ca6bvosntc0bfgr0","pricing_plan_id":"cebpf4jnsgd1na2vs0mg"},{"bike_id":"74b78a6e-275c-47e0-b1ed-2ccf34bd59b9","system_id":"levelo_inurba_marseille","lat":43.30196,"lon":5.36636,"is_reserved":false,"is_disabled":false,"rental_uris":{"android":"levelo://app?vid=74b78a6e-275c-47e0-b1ed-2ccf34bd59b9","ios":"levelo://app?vid=74b78a6e-275c-47e0-b1ed-2ccf34bd59b9"},"vehicle_type_id":"4","last_reported":1744186452,"current_range_meters":6800,"station_id":"ce4bgrh2rcd13ifvqc8g","pricing_plan_id":"cebpf4jnsgd1na2vs0mg"},{"bike_id":"82f28cf6-556c-431d-a12b-bd3ce5fc2f28","system_id":"levelo_inurba_marseille","lat":43.275036,"lon":5.377488,"is_reserved":false,"is_disabled":false,"rental_uris":{"android":"levelo://app?vid=82f28cf6-556c-431d-a12b-bd3ce5fc2f28","ios":"levelo://app?vid=82f28cf6-556c-431d-a12b-bd3ce5fc2f28"},"vehicle_type_id":"4","last_reported":1744186452,"current_range_meters":6800,"station_id":"","pricing_plan_id":"cebpf4jnsgd1na2vs0mg"},{"bike_id":"5ae25533-40b9-4fe8-ab86-3f0cd94d133a","system_id":"levelo_inurba_marseille","lat":43.303772,"lon":5.425362,"is_reserved":false,"is_disabled":false,"rental_uris":{"android":"levelo://app?vid=5ae25533-40b9-4fe8-ab86-3f0cd94d133a","ios":"levelo://app?vid=5ae25533-40b9-4fe8-ab86-3f0cd94d133a"},"vehicle_type_id":"4","last_reported":1744186452,"current_range_meters":6800,"station_id":"ce4bhp92rcd13ifvqhag","pricing_plan_id":"cebpf4jnsgd1na2vs0mg"},{"bike_id":"70810d3e-9936-4863-b211-84f880613e88","system_id":"levelo_inurba_marseille","lat":43.31232,"lon":5.37269,"is_reserved":false,"is_disabled":false,"rental_uris":{"android":"levelo://app?vid=70810d3e-9936-4863-b211-84f880613e88","ios":"levelo://app?vid=70810d3e-9936-4863-b211-84f880613e88"},"vehicle_type_id":"4","last_reported":1744186452,"current_range_meters":7200,"station_id":"","pricing_plan_id":"cebpf4jnsgd1na2vs0mg"},{"bike_id":"ec41b842-c84f-4ab1-894c-fc6101e00efb","system_id":"levelo_inurba_marseille","lat":43.31738,"lon":5.40306,"is_reserved":false,"is_disabled":false,"rental_uris":{"android":"levelo://app?vid=ec41b842-c84f-4ab1-894c-fc6101e00efb","ios":"levelo://app?vid=ec41b842-c84f-4ab1-894c-fc6101e00efb"},"vehicle_type_id":"4","last_reported":1744186452,"current_range_meters":7200,"station_id":"","pricing_plan_id":"cebpf4jnsgd1na2vs0mg"},{"bike_id":"ffe06810-5584-4421-889d-508aad74984f","system_id":"levelo_inurba_marseille","lat":43.26186,"lon":5.37469,"is_reserved":false,"is_disabled":false,"rental_uris":{"android":"levelo://app?vid=ffe06810-5584-4421-889d-508aad74984f","ios":"levelo://app?vid=ffe06810-5584-4421-889d-508aad74984f"},"vehicle_type_id":"4","last_reported":1744186452,"current_range_meters":7200,"station_id":"ce4bhgp2rcd13ifvqfc0","pricing_plan_id":"cebpf4jnsgd1na2vs0mg"},{"bike_id":"5a5e8f1a-bec8-4f9b-9022-ff6006b6bdf3","system_id":"levelo_inurba_marseille","lat":43.26216,"lon":5.40474,"is_reserved":false,"is_disabled":false,"rental_uris":{"android":"levelo://app?vid=5a5e8f1a-bec8-4f9b-9022-ff6006b6bdf3","ios":"levelo://app?vid=5a5e8f1a-bec8-4f9b-9022-ff6006b6bdf3"},"vehicle_type_id":"4","last_reported":1744186452,"current_range_meters":8000,"station_id":"ce4bhmh2rcd13ifvqgmg","pricing_plan_id":"cebpf4jnsgd1na2vs0mg"},{"bike_id":"97a296d0-295d-4a01-8b31-5e2f833e735c","system_id":"levelo_inurba_marseille","lat":43.25939,"lon":5.40907,"is_reserved":false,"is_disabled":false,"rental_uris":{"android":"levelo://app?vid=97a296d0-295d-4a01-8b31-5e2f833e735c","ios":"levelo://app?vid=97a296d0-295d-4a01-8b31-5e2f833e735c"},"vehicle_type_id":"4","last_reported":1744186452,"current_range_meters":8000,"station_id":"ce4bhm92rcd13ifvqglg","pricing_plan_id":"cebpf4jnsgd1na2vs0mg"},{"bike_id":"b37171f7-b0f5-4873-819e-78afc6c89784","system_id":"levelo_inurba_marseille","lat":43.26058,"lon":5.39403,"is_reserved":false,"is_disabled":false,"rental_uris":{"android":"levelo://app?vid=b37171f7-b0f5-4873-819e-78afc6c89784","ios":"levelo://app?vid=b37171f7-b0f5-4873-819e-78afc6c89784"},"vehicle_type_id":"4","last_reported":1744186452,"current_range_meters":8000,"station_id":"ce4bhh92rcd13ifvqfj0","pricing_plan_id":"cebpf4jnsgd1na2vs0mg"},{"bike_id":"3d0cae43-5b75-4aac-b7cb-471ce1151dd5","system_id":"levelo_inurba_marseille","lat":43.3303,"lon":5.39529,"is_reserved":false,"is_disabled":false,"rental_uris":{"android":"levelo://app?vid=3d0cae43-5b75-4aac-b7cb-471ce1151dd5","ios":"levelo://app?vid=3d0cae43-5b75-4aac-b7cb-471ce1151dd5"},"vehicle_type_id":"4","last_reported":1744186452,"current_range_meters":8000,"station_id":"","pricing_plan_id":"cebpf4jnsgd1na2vs0mg"},{"bike_id":"5e6ad826-38da-4531-b4ba-2eda8622ede3","system_id":"levelo_inurba_marseille","lat":43.310844,"lon":5.404718,"is_reserved":false,"is_disabled":false,"rental_uris":{"android":"levelo://app?vid=5e6ad826-38da-4531-b4ba-2eda8622ede3","ios":"levelo://app?vid=5e6ad826-38da-4531-b4ba-2eda8622ede3"},"vehicle_type_id":"4","last_reported":1744186452,"current_range_meters":8000,"station_id":"","pricing_plan_id":"cebpf4jnsgd1na2vs0mg"},{"bike_id":"6f98403f-9bae-4e4b-8ef4-f740a909b545","system_id":"levelo_inurba_marseille","lat":43.29043,"lon":5.35921,"is_reserved":false,"is_disabled":false,"rental_uris":{"android":"levelo://app?vid=6f98403f-9bae-4e4b-8ef4-f740a909b545","ios":"levelo://app?vid=6f98403f-9bae-4e4b-8ef4-f740a909b545"},"vehicle_type_id":"4","last_reported":1744186452,"current_range_meters":8000,"station_id":"ce4bha92rcd13ifvqeg0","pricing_plan_id":"cebpf4jnsgd1na2vs0mg"},{"bike_id":"93ad2d17-a3af-4568-a6a0-0207d82efe74","system_id":"levelo_inurba_marseille","lat":43.276642,"lon":5.388718,"is_reserved":false,"is_disabled":false,"rental_uris":{"android":"levelo://app?vid=93ad2d17-a3af-4568-a6a0-0207d82efe74","ios":"levelo://app?vid=93ad2d17-a3af-4568-a6a0-0207d82efe74"},"vehicle_type_id":"4","last_reported":1744186452,"current_range_meters":8000,"station_id":"ce4bhi12rcd13ifvqfo0","pricing_plan_id":"cebpf4jnsgd1na2vs0mg"},{"bike_id":"7cbc3abb-d96e-46ad-87a3-e0fdd1126f87","system_id":"levelo_inurba_marseille","lat":43.31373,"lon":5.38512,"is_reserved":false,"is_disabled":false,"rental_uris":{"android":"levelo://app?vid=7cbc3abb-d96e-46ad-87a3-e0fdd1126f87","ios":"levelo://app?vid=7cbc3abb-d96e-46ad-87a3-e0fdd1126f87"},"vehicle_type_id":"4","last_reported":1744186452,"current_range_meters":8400,"station_id":"ce4bgt92rcd13ifvqcf0","pricing_plan_id":"cebpf4jnsgd1na2vs0mg"},{"bike_id":"1a6cea75-c85f-4f82-8867-c3239c8b691f","system_id":"levelo_inurba_marseille","lat":43.29231,"lon":5.36092,"is_reserved":false,"is_disabled":false,"rental_uris":{"android":"levelo://app?vid=1a6cea75-c85f-4f82-8867-c3239c8b691f","ios":"levelo://app?vid=1a6cea75-c85f-4f82-8867-c3239c8b691f"},"vehicle_type_id":"4","last_reported":1744186452,"current_range_meters":8400,"station_id":"ce4bhbh2rcd13ifvqeqg","pricing_plan_id":"cebpf4jnsgd1na2vs0mg"},{"bike_id":"ca1cb9af-e981-4da8-ae84-4ca0779eecf9","system_id":"levelo_inurba_marseille","lat":43.31492,"lon":5.37295,"is_reserved":false,"is_disabled":false,"rental_uris":{"android":"levelo://app?vid=ca1cb9af-e981-4da8-ae84-4ca0779eecf9","ios":"levelo://app?vid=ca1cb9af-e981-4da8-ae84-4ca0779eecf9"},"vehicle_type_id":"4","last_reported":1744186452,"current_range_meters":8400,"station_id":"ce4bgt12rcd13ifvqcd0","pricing_plan_id":"cebpf4jnsgd1na2vs0mg"},{"bike_id":"3130f087-fcc7-4d3e-a1a1-57d3423d4c73","system_id":"levelo_inurba_marseille","lat":43.29224,"lon":5.36073,"is_reserved":false,"is_disabled":false,"rental_uris":{"android":"levelo://app?vid=3130f087-fcc7-4d3e-a1a1-57d3423d4c73","ios":"levelo://app?vid=3130f087-fcc7-4d3e-a1a1-57d3423d4c73"},"vehicle_type_id":"4","last_reported":1744186452,"current_range_meters":8400,"station_id":"ce4bhbh2rcd13ifvqeqg","pricing_plan_id":"cebpf4jnsgd1na2vs0mg"},{"bike_id":"9e79e8f3-dfc4-45d1-8e7f-9b34c7f69aba","system_id":"levelo_inurba_marseille","lat":43.25909,"lon":5.40935,"is_reserved":false,"is_disabled":false,"rental_uris":{"android":"levelo://app?vid=9e79e8f3-dfc4-45d1-8e7f-9b34c7f69aba","ios":"levelo://app?vid=9e79e8f3-dfc4-45d1-8e7f-9b34c7f69aba"},"vehicle_type_id":"4","last_reported":1744186452,"current_range_meters":8400,"station_id":"ce4bhm92rcd13ifvqglg","pricing_plan_id":"cebpf4jnsgd1na2vs0mg"},{"bike_id":"68d1cc33-0218-451e-8e10-d32225c21263","system_id":"levelo_inurba_marseille","lat":43.23155,"lon":5.43699,"is_reserved":false,"is_disabled":true,"rental_uris":{"android":"levelo://app?vid=68d1cc33-0218-451e-8e10-d32225c21263","ios":"levelo://app?vid=68d1cc33-0218-451e-8e10-d32225c21263"},"vehicle_type_id":"4","last_reported":1744186452,"current_range_meters":8400,"station_id":"ce4bhmp2rcd13ifvqgog","pricing_plan_id":"cebpf4jnsgd1na2vs0mg"},{"bike_id":"1684820a-7157-4d7b-893b-f77ee79347a0","system_id":"levelo_inurba_marseille","lat":43.30562,"lon":5.36538,"is_reserved":false,"is_disabled":false,"rental_uris":{"android":"levelo://app?vid=1684820a-7157-4d7b-893b-f77ee79347a0","ios":"levelo://app?vid=1684820a-7157-4d7b-893b-f77ee79347a0"},"vehicle_type_id":"4","last_reported":1744186452,"current_range_meters":8400,"station_id":"ce4bgs12rcd13ifvqcag","pricing_plan_id":"cebpf4jnsgd1na2vs0mg"},{"bike_id":"49559da4-b730-41a0-952a-61bb5917a83e","system_id":"levelo_inurba_marseille","lat":43.28149,"lon":5.42642,"is_reserved":false,"is_disabled":false,"rental_uris":{"android":"levelo://app?vid=49559da4-b730-41a0-952a-61bb5917a83e","ios":"levelo://app?vid=49559da4-b730-41a0-952a-61bb5917a83e"},"vehicle_type_id":"4","last_reported":1744186452,"current_range_meters":8400,"station_id":"ce4bhnh2rcd13ifvqgug","pricing_plan_id":"cebpf4jnsgd1na2vs0mg"},{"bike_id":"c66c407c-5ccf-45cc-a555-c6bcb901a357","system_id":"levelo_inurba_marseille","lat":43.31361,"lon":5.38495,"is_reserved":false,"is_disabled":false,"rental_uris":{"android":"levelo://app?vid=c66c407c-5ccf-45cc-a555-c6bcb901a357","ios":"levelo://app?vid=c66c407c-5ccf-45cc-a555-c6bcb901a357"},"vehicle_type_id":"4","last_reported":1744186452,"current_range_meters":8800,"station_id":"ce4bgt92rcd13ifvqcf0","pricing_plan_id":"cebpf4jnsgd1na2vs0mg"},{"bike_id":"0aa02c49-cbb3-4907-a588-f754056f3ba8","system_id":"levelo_inurba_marseille","lat":43.30806,"lon":5.38152,"is_reserved":false,"is_disabled":true,"rental_uris":{"android":"levelo://app?vid=0aa02c49-cbb3-4907-a588-f754056f3ba8","ios":"levelo://app?vid=0aa02c49-cbb3-4907-a588-f754056f3ba8"},"vehicle_type_id":"4","last_reported":1744186452,"current_range_meters":8800,"station_id":"ce4bgt12rcd13ifvqce0","pricing_plan_id":"cebpf4jnsgd1na2vs0mg"},{"bike_id":"57df0568-2fe5-4c79-880e-3352251432ca","system_id":"levelo_inurba_marseille","lat":43.30198,"lon":5.36637,"is_reserved":false,"is_disabled":false,"rental_uris":{"android":"levelo://app?vid=57df0568-2fe5-4c79-880e-3352251432ca","ios":"levelo://app?vid=57df0568-2fe5-4c79-880e-3352251432ca"},"vehicle_type_id":"4","last_reported":1744186452,"current_range_meters":8800,"station_id":"ce4bgrh2rcd13ifvqc8g","pricing_plan_id":"cebpf4jnsgd1na2vs0mg"},{"bike_id":"b88dad27-b750-4a4e-884f-b1c97ddb05f8","system_id":"levelo_inurba_marseille","lat":43.30553,"lon":5.36705,"is_reserved":false,"is_disabled":false,"rental_uris":{"android":"levelo://app?vid=b88dad27-b750-4a4e-884f-b1c97ddb05f8","ios":"levelo://app?vid=b88dad27-b750-4a4e-884f-b1c97ddb05f8"},"vehicle_type_id":"4","last_reported":1744186452,"current_range_meters":8800,"station_id":"ce4bgrp2rcd13ifvqc9g","pricing_plan_id":"cebpf4jnsgd1na2vs0mg"},{"bike_id":"e0ddec79-bccf-492b-bfd6-46048fa2475d","system_id":"levelo_inurba_marseille","lat":43.32355,"lon":5.36745,"is_reserved":false,"is_disabled":false,"rental_uris":{"android":"levelo://app?vid=e0ddec79-bccf-492b-bfd6-46048fa2475d","ios":"levelo://app?vid=e0ddec79-bccf-492b-bfd6-46048fa2475d"},"vehicle_type_id":"4","last_reported":1744186452,"current_range_meters":8800,"station_id":"ce4bhsh2rcd13ifvqi2g","pricing_plan_id":"cebpf4jnsgd1na2vs0mg"},{"bike_id":"ed6cc987-6a5a-4512-8af7-70b7720a8665","system_id":"levelo_inurba_marseille","lat":43.2827,"lon":5.35058,"is_reserved":false,"is_disabled":false,"rental_uris":{"android":"levelo://app?vid=ed6cc987-6a5a-4512-8af7-70b7720a8665","ios":"levelo://app?vid=ed6cc987-6a5a-4512-8af7-70b7720a8665"},"vehicle_type_id":"4","last_reported":1744186452,"current_range_meters":8800,"station_id":"ce4bhbp2rcd13ifvqerg","pricing_plan_id":"cebpf4jnsgd1na2vs0mg"},{"bike_id":"1ca7d0c4-b7aa-4350-ad9f-4e24c2ba029a","system_id":"levelo_inurba_marseille","lat":43.30375,"lon":5.42488,"is_reserved":false,"is_disabled":true,"rental_uris":{"android":"levelo://app?vid=1ca7d0c4-b7aa-4350-ad9f-4e24c2ba029a","ios":"levelo://app?vid=1ca7d0c4-b7aa-4350-ad9f-4e24c2ba029a"},"vehicle_type_id":"4","last_reported":1744186452,"current_range_meters":9200,"station_id":"ce4bhoh2rcd13ifvqh6g","pricing_plan_id":"cebpf4jnsgd1na2vs0mg"},{"bike_id":"a566336b-6133-47a6-ad7f-74f32862e29a","system_id":"levelo_inurba_marseille","lat":43.30377,"lon":5.42508,"is_reserved":false,"is_disabled":false,"rental_uris":{"android":"levelo://app?vid=a566336b-6133-47a6-ad7f-74f32862e29a","ios":"levelo://app?vid=a566336b-6133-47a6-ad7f-74f32862e29a"},"vehicle_type_id":"4","last_reported":1744186452,"current_range_meters":9200,"station_id":"ce4bhoh2rcd13ifvqh6g","pricing_plan_id":"cebpf4jnsgd1na2vs0mg"},{"bike_id":"ae8acc12-d36d-43ae-9b5c-d788c29ead74","system_id":"levelo_inurba_marseille","lat":43.2482,"lon":5.37453,"is_reserved":false,"is_disabled":false,"rental_uris":{"android":"levelo://app?vid=ae8acc12-d36d-43ae-9b5c-d788c29ead74","ios":"levelo://app?vid=ae8acc12-d36d-43ae-9b5c-d788c29ead74"},"vehicle_type_id":"4","last_reported":1744186452,"current_range_meters":9200,"station_id":"ce4bhgh2rcd13ifvqfb0","pricing_plan_id":"cebpf4jnsgd1na2vs0mg"},{"bike_id":"08f9c0c8-8b33-4578-8a03-20f44d582241","system_id":"levelo_inurba_marseille","lat":43.30598,"lon":5.37151,"is_reserved":false,"is_disabled":false,"rental_uris":{"android":"levelo://app?vid=08f9c0c8-8b33-4578-8a03-20f44d582241","ios":"levelo://app?vid=08f9c0c8-8b33-4578-8a03-20f44d582241"},"vehicle_type_id":"4","last_reported":1744186452,"current_range_meters":9200,"station_id":"","pricing_plan_id":"cebpf4jnsgd1na2vs0mg"},{"bike_id":"3cafc5bc-a11b-4af7-bed0-d49d49feb8ea","system_id":"levelo_inurba_marseille","lat":43.31359,"lon":5.38494,"is_reserved":false,"is_disabled":false,"rental_uris":{"android":"levelo://app?vid=3cafc5bc-a11b-4af7-bed0-d49d49feb8ea","ios":"levelo://app?vid=3cafc5bc-a11b-4af7-bed0-d49d49feb8ea"},"vehicle_type_id":"4","last_reported":1744186452,"current_range_meters":9200,"station_id":"ce4bgt92rcd13ifvqcf0","pricing_plan_id":"cebpf4jnsgd1na2vs0mg"},{"bike_id":"2316a27d-e8bc-4c82-90fe-4120ccb0ef4b","system_id":"levelo_inurba_marseille","lat":43.2315,"lon":5.43727,"is_reserved":false,"is_disabled":false,"rental_uris":{"android":"levelo://app?vid=2316a27d-e8bc-4c82-90fe-4120ccb0ef4b","ios":"levelo://app?vid=2316a27d-e8bc-4c82-90fe-4120ccb0ef4b"},"vehicle_type_id":"4","last_reported":1744186452,"current_range_meters":9200,"station_id":"ce4bhmp2rcd13ifvqgog","pricing_plan_id":"cebpf4jnsgd1na2vs0mg"},{"bike_id":"b2cee8e0-4c9e-4848-bd0c-91de02906d6a","system_id":"levelo_inurba_marseille","lat":43.27951,"lon":5.41032,"is_reserved":false,"is_disabled":false,"rental_uris":{"android":"levelo://app?vid=b2cee8e0-4c9e-4848-bd0c-91de02906d6a","ios":"levelo://app?vid=b2cee8e0-4c9e-4848-bd0c-91de02906d6a"},"vehicle_type_id":"4","last_reported":1744186452,"current_range_meters":9200,"station_id":"ce4bhnp2rcd13ifvqh0g","pricing_plan_id":"cebpf4jnsgd1na2vs0mg"},{"bike_id":"27a94d98-632f-439f-b816-26eb86481e1d","system_id":"levelo_inurba_marseille","lat":43.28731,"lon":5.3794,"is_reserved":false,"is_disabled":false,"rental_uris":{"android":"levelo://app?vid=27a94d98-632f-439f-b816-26eb86481e1d","ios":"levelo://app?vid=27a94d98-632f-439f-b816-26eb86481e1d"},"vehicle_type_id":"4","last_reported":1744186452,"current_range_meters":9600,"station_id":"ce4bh9p2rcd13ifvqec0","pricing_plan_id":"cebpf4jnsgd1na2vs0mg"},{"bike_id":"9fce7fb9-26b6-4832-9f96-ea1b75c489f0","system_id":"levelo_inurba_marseille","lat":43.23197,"lon":5.35574,"is_reserved":false,"is_disabled":false,"rental_uris":{"android":"levelo://app?vid=9fce7fb9-26b6-4832-9f96-ea1b75c489f0","ios":"levelo://app?vid=9fce7fb9-26b6-4832-9f96-ea1b75c489f0"},"vehicle_type_id":"4","last_reported":1744186452,"current_range_meters":9600,"station_id":"ce4bhu92rcd13ifvqi70","pricing_plan_id":"cebpf4jnsgd1na2vs0mg"},{"bike_id":"80663e12-6b64-446d-88c9-20255bde1a8a","system_id":"levelo_inurba_marseille","lat":43.308807,"lon":5.396527,"is_reserved":false,"is_disabled":true,"rental_uris":{"android":"levelo://app?vid=80663e12-6b64-446d-88c9-20255bde1a8a","ios":"levelo://app?vid=80663e12-6b64-446d-88c9-20255bde1a8a"},"vehicle_type_id":"4","last_reported":1744186452,"current_range_meters":9600,"station_id":"ce4bh012rcd13ifvqcv0","pricing_plan_id":"cebpf4jnsgd1na2vs0mg"},{"bike_id":"06c5b5d3-7968-4dbb-a8ad-851439447cd9","system_id":"levelo_inurba_marseille","lat":43.26943,"lon":5.40254,"is_reserved":false,"is_disabled":false,"rental_uris":{"android":"levelo://app?vid=06c5b5d3-7968-4dbb-a8ad-851439447cd9","ios":"levelo://app?vid=06c5b5d3-7968-4dbb-a8ad-851439447cd9"},"vehicle_type_id":"4","last_reported":1744186452,"current_range_meters":9600,"station_id":"cjm6bp8fraef2m0cb0m0","pricing_plan_id":"cebpf4jnsgd1na2vs0mg"},{"bike_id":"bfb822c4-2784-473d-8e2c-ed126f4ecc97","system_id":"levelo_inurba_marseille","lat":43.2872,"lon":5.37931,"is_reserved":false,"is_disabled":false,"rental_uris":{"android":"levelo://app?vid=bfb822c4-2784-473d-8e2c-ed126f4ecc97","ios":"levelo://app?vid=bfb822c4-2784-473d-8e2c-ed126f4ecc97"},"vehicle_type_id":"4","last_reported":1744186452,"current_range_meters":9200,"station_id":"ce4bh9p2rcd13ifvqec0","pricing_plan_id":"cebpf4jnsgd1na2vs0mg"},{"bike_id":"05ebd012-a397-44d6-8d3a-b4fd8a759a09","system_id":"levelo_inurba_marseille","lat":43.30796,"lon":5.4352,"is_reserved":false,"is_disabled":false,"rental_uris":{"android":"levelo://app?vid=05ebd012-a397-44d6-8d3a-b4fd8a759a09","ios":"levelo://app?vid=05ebd012-a397-44d6-8d3a-b4fd8a759a09"},"vehicle_type_id":"4","last_reported":1744186452,"current_range_meters":9600,"station_id":"ce4bhph2rcd13ifvqheg","pricing_plan_id":"cebpf4jnsgd1na2vs0mg"},{"bike_id":"8ab5c62e-5b82-4b4f-a516-44a960e35966","system_id":"levelo_inurba_marseille","lat":43.23153,"lon":5.43716,"is_reserved":false,"is_disabled":false,"rental_uris":{"android":"levelo://app?vid=8ab5c62e-5b82-4b4f-a516-44a960e35966","ios":"levelo://app?vid=8ab5c62e-5b82-4b4f-a516-44a960e35966"},"vehicle_type_id":"4","last_reported":1744186452,"current_range_meters":9600,"station_id":"ce4bhmp2rcd13ifvqgog","pricing_plan_id":"cebpf4jnsgd1na2vs0mg"},{"bike_id":"ade99bab-7521-48be-a69d-a656a72c0c52","system_id":"levelo_inurba_marseille","lat":43.30462,"lon":5.37908,"is_reserved":false,"is_disabled":false,"rental_uris":{"android":"levelo://app?vid=ade99bab-7521-48be-a69d-a656a72c0c52","ios":"levelo://app?vid=ade99bab-7521-48be-a69d-a656a72c0c52"},"vehicle_type_id":"4","last_reported":1744186452,"current_range_meters":9600,"station_id":"ce4bgup2rcd13ifvqcn0","pricing_plan_id":"cebpf4jnsgd1na2vs0mg"},{"bike_id":"b397701f-0d3d-44bf-ab3e-3ccc7e74fb2e","system_id":"levelo_inurba_marseille","lat":43.264422,"lon":5.422754,"is_reserved":false,"is_disabled":false,"rental_uris":{"android":"levelo://app?vid=b397701f-0d3d-44bf-ab3e-3ccc7e74fb2e","ios":"levelo://app?vid=b397701f-0d3d-44bf-ab3e-3ccc7e74fb2e"},"vehicle_type_id":"4","last_reported":1744186452,"current_range_meters":9600,"station_id":"","pricing_plan_id":"cebpf4jnsgd1na2vs0mg"},{"bike_id":"0c9c295b-1889-421d-854d-7086fb6a360f","system_id":"levelo_inurba_marseille","lat":43.30309,"lon":5.36895,"is_reserved":false,"is_disabled":false,"rental_uris":{"android":"levelo://app?vid=0c9c295b-1889-421d-854d-7086fb6a360f","ios":"levelo://app?vid=0c9c295b-1889-421d-854d-7086fb6a360f"},"vehicle_type_id":"4","last_reported":1744186452,"current_range_meters":9600,"station_id":"ce4bgqh2rcd13ifvqc5g","pricing_plan_id":"cebpf4jnsgd1na2vs0mg"},{"bike_id":"e80156b4-5e93-4a7c-8b66-8c992d9872e7","system_id":"levelo_inurba_marseille","lat":43.2837,"lon":5.38087,"is_reserved":false,"is_disabled":false,"rental_uris":{"android":"levelo://app?vid=e80156b4-5e93-4a7c-8b66-8c992d9872e7","ios":"levelo://app?vid=e80156b4-5e93-4a7c-8b66-8c992d9872e7"},"vehicle_type_id":"4","last_reported":1744186452,"current_range_meters":9600,"station_id":"ce4bh412rcd13ifvqdr0","pricing_plan_id":"cebpf4jnsgd1na2vs0mg"},{"bike_id":"9b0c5f0b-a383-484f-a24d-79869bc2dc3d","system_id":"levelo_inurba_marseille","lat":43.30888,"lon":5.37195,"is_reserved":false,"is_disabled":false,"rental_uris":{"android":"levelo://app?vid=9b0c5f0b-a383-484f-a24d-79869bc2dc3d","ios":"levelo://app?vid=9b0c5f0b-a383-484f-a24d-79869bc2dc3d"},"vehicle_type_id":"4","last_reported":1744186452,"current_range_meters":10000,"station_id":"ce4bguh2rcd13ifvqckg","pricing_plan_id":"cebpf4jnsgd1na2vs0mg"},{"bike_id":"894923f7-24a8-4f05-8d0c-1af4b4d3211a","system_id":"levelo_inurba_marseille","lat":43.30322,"lon":5.39225,"is_reserved":false,"is_disabled":true,"rental_uris":{"android":"levelo://app?vid=894923f7-24a8-4f05-8d0c-1af4b4d3211a","ios":"levelo://app?vid=894923f7-24a8-4f05-8d0c-1af4b4d3211a"},"vehicle_type_id":"4","last_reported":1744186452,"current_range_meters":10000,"station_id":"ce4bgkh2rcd13ifvqbk0","pricing_plan_id":"cebpf4jnsgd1na2vs0mg"},{"bike_id":"b86eab0d-277a-44aa-b0d6-f413fa90aac6","system_id":"levelo_inurba_marseille","lat":43.28419,"lon":5.37542,"is_reserved":false,"is_disabled":true,"rental_uris":{"android":"levelo://app?vid=b86eab0d-277a-44aa-b0d6-f413fa90aac6","ios":"levelo://app?vid=b86eab0d-277a-44aa-b0d6-f413fa90aac6"},"vehicle_type_id":"4","last_reported":1744186452,"current_range_meters":10000,"station_id":"ce4bh412rcd13ifvqds0","pricing_plan_id":"cebpf4jnsgd1na2vs0mg"},{"bike_id":"950c8068-285d-4991-9af4-efc8aa26c384","system_id":"levelo_inurba_marseille","lat":43.292681,"lon":5.368508,"is_reserved":false,"is_disabled":false,"rental_uris":{"android":"levelo://app?vid=950c8068-285d-4991-9af4-efc8aa26c384","ios":"levelo://app?vid=950c8068-285d-4991-9af4-efc8aa26c384"},"vehicle_type_id":"4","last_reported":1744186452,"current_range_meters":10000,"station_id":"ce4bgpp2rcd13ifvqc3g","pricing_plan_id":"cebpf4jnsgd1na2vs0mg"},{"bike_id":"fe554949-79fc-40fb-9308-e13fc7147f59","system_id":"levelo_inurba_marseille","lat":43.3109,"lon":5.42447,"is_reserved":false,"is_disabled":false,"rental_uris":{"android":"levelo://app?vid=fe554949-79fc-40fb-9308-e13fc7147f59","ios":"levelo://app?vid=fe554949-79fc-40fb-9308-e13fc7147f59"},"vehicle_type_id":"4","last_reported":1744186452,"current_range_meters":10000,"station_id":"ce4bhp92rcd13ifvqhag","pricing_plan_id":"cebpf4jnsgd1na2vs0mg"},{"bike_id":"1180a7b1-52e4-45a6-a35d-3a6133d07906","system_id":"levelo_inurba_marseille","lat":43.3012,"lon":5.37431,"is_reserved":false,"is_disabled":false,"rental_uris":{"android":"levelo://app?vid=1180a7b1-52e4-45a6-a35d-3a6133d07906","ios":"levelo://app?vid=1180a7b1-52e4-45a6-a35d-3a6133d07906"},"vehicle_type_id":"4","last_reported":1744186452,"current_range_meters":10800,"station_id":"ce4bgs92rcd13ifvqcc0","pricing_plan_id":"cebpf4jnsgd1na2vs0mg"},{"bike_id":"ce0fd5b8-478f-4f08-869c-935a7a4c659f","system_id":"levelo_inurba_marseille","lat":43.33286,"lon":5.3797,"is_reserved":false,"is_disabled":false,"rental_uris":{"android":"levelo://app?vid=ce0fd5b8-478f-4f08-869c-935a7a4c659f","ios":"levelo://app?vid=ce0fd5b8-478f-4f08-869c-935a7a4c659f"},"vehicle_type_id":"4","last_reported":1744186452,"current_range_meters":10800,"station_id":"","pricing_plan_id":"cebpf4jnsgd1na2vs0mg"},{"bike_id":"e24c6fd3-f9cb-40c7-9e57-dd2c20540e9b","system_id":"levelo_inurba_marseille","lat":43.31727,"lon":5.42412,"is_reserved":false,"is_disabled":false,"rental_uris":{"android":"levelo://app?vid=e24c6fd3-f9cb-40c7-9e57-dd2c20540e9b","ios":"levelo://app?vid=e24c6fd3-f9cb-40c7-9e57-dd2c20540e9b"},"vehicle_type_id":"4","last_reported":1744186452,"current_range_meters":10800,"station_id":"ce4bhp92rcd13ifvqhbg","pricing_plan_id":"cebpf4jnsgd1na2vs0mg"},{"bike_id":"e144898c-5060-45a5-8ca9-26fb817c2301","system_id":"levelo_inurba_marseille","lat":43.31227,"lon":5.36844,"is_reserved":false,"is_disabled":false,"rental_uris":{"android":"levelo://app?vid=e144898c-5060-45a5-8ca9-26fb817c2301","ios":"levelo://app?vid=e144898c-5060-45a5-8ca9-26fb817c2301"},"vehicle_type_id":"4","last_reported":1744186452,"current_range_meters":10800,"station_id":"","pricing_plan_id":"cebpf4jnsgd1na2vs0mg"},{"bike_id":"38c43302-d0f3-42c8-89fb-a9374ff631e5","system_id":"levelo_inurba_marseille","lat":43.30534,"lon":5.36523,"is_reserved":false,"is_disabled":false,"rental_uris":{"android":"levelo://app?vid=38c43302-d0f3-42c8-89fb-a9374ff631e5","ios":"levelo://app?vid=38c43302-d0f3-42c8-89fb-a9374ff631e5"},"vehicle_type_id":"4","last_reported":1744186452,"current_range_meters":10800,"station_id":"ce4bgs12rcd13ifvqcag","pricing_plan_id":"cebpf4jnsgd1na2vs0mg"},{"bike_id":"25f3c748-fa73-4af0-99ce-766d7733ec18","system_id":"levelo_inurba_marseille","lat":43.31727,"lon":5.42393,"is_reserved":false,"is_disabled":false,"rental_uris":{"android":"levelo://app?vid=25f3c748-fa73-4af0-99ce-766d7733ec18","ios":"levelo://app?vid=25f3c748-fa73-4af0-99ce-766d7733ec18"},"vehicle_type_id":"4","last_reported":1744186452,"current_range_meters":10800,"station_id":"ce4bhp92rcd13ifvqhbg","pricing_plan_id":"cebpf4jnsgd1na2vs0mg"},{"bike_id":"45b2122b-0a27-4d9e-8685-0e6fb9b646fd","system_id":"levelo_inurba_marseille","lat":43.30211,"lon":5.36622,"is_reserved":false,"is_disabled":true,"rental_uris":{"android":"levelo://app?vid=45b2122b-0a27-4d9e-8685-0e6fb9b646fd","ios":"levelo://app?vid=45b2122b-0a27-4d9e-8685-0e6fb9b646fd"},"vehicle_type_id":"4","last_reported":1744186452,"current_range_meters":11200,"station_id":"ce4bgrh2rcd13ifvqc8g","pricing_plan_id":"cebpf4jnsgd1na2vs0mg"},{"bike_id":"75ce6aac-0c64-439b-bfff-705ea259870c","system_id":"levelo_inurba_marseille","lat":43.30323,"lon":5.36906,"is_reserved":false,"is_disabled":false,"rental_uris":{"android":"levelo://app?vid=75ce6aac-0c64-439b-bfff-705ea259870c","ios":"levelo://app?vid=75ce6aac-0c64-439b-bfff-705ea259870c"},"vehicle_type_id":"4","last_reported":1744186452,"current_range_meters":11200,"station_id":"ce4bgqh2rcd13ifvqc5g","pricing_plan_id":"cebpf4jnsgd1na2vs0mg"},{"bike_id":"ae04c4bb-8752-45c3-b402-26f328963041","system_id":"levelo_inurba_marseille","lat":43.33609,"lon":5.41029,"is_reserved":false,"is_disabled":false,"rental_uris":{"android":"levelo://app?vid=ae04c4bb-8752-45c3-b402-26f328963041","ios":"levelo://app?vid=ae04c4bb-8752-45c3-b402-26f328963041"},"vehicle_type_id":"4","last_reported":1744186452,"current_range_meters":11600,"station_id":"ce4bhqh2rcd13ifvqhmg","pricing_plan_id":"cebpf4jnsgd1na2vs0mg"},{"bike_id":"2f4a4258-c3db-45ac-8fba-a4a3a6e4653d","system_id":"levelo_inurba_marseille","lat":43.31448,"lon":5.36644,"is_reserved":false,"is_disabled":false,"rental_uris":{"android":"levelo://app?vid=2f4a4258-c3db-45ac-8fba-a4a3a6e4653d","ios":"levelo://app?vid=2f4a4258-c3db-45ac-8fba-a4a3a6e4653d"},"vehicle_type_id":"4","last_reported":1744186452,"current_range_meters":11600,"station_id":"","pricing_plan_id":"cebpf4jnsgd1na2vs0mg"},{"bike_id":"0d49b47f-468c-4650-8e32-89e6f15bee24","system_id":"levelo_inurba_marseille","lat":43.24189,"lon":5.39727,"is_reserved":false,"is_disabled":false,"rental_uris":{"android":"levelo://app?vid=0d49b47f-468c-4650-8e32-89e6f15bee24","ios":"levelo://app?vid=0d49b47f-468c-4650-8e32-89e6f15bee24"},"vehicle_type_id":"4","last_reported":1744186452,"current_range_meters":11600,"station_id":"ce4bhn12rcd13ifvqgpg","pricing_plan_id":"cebpf4jnsgd1na2vs0mg"},{"bike_id":"f03c477b-574b-41a2-8215-28e0a35c0c45","system_id":"levelo_inurba_marseille","lat":43.305389,"lon":5.367373,"is_reserved":false,"is_disabled":false,"rental_uris":{"android":"levelo://app?vid=f03c477b-574b-41a2-8215-28e0a35c0c45","ios":"levelo://app?vid=f03c477b-574b-41a2-8215-28e0a35c0c45"},"vehicle_type_id":"4","last_reported":1744186452,"current_range_meters":12000,"station_id":"ce4bgrp2rcd13ifvqc9g","pricing_plan_id":"cebpf4jnsgd1na2vs0mg"},{"bike_id":"1e099cf5-9456-4ac3-8d36-9153ce8a87f2","system_id":"levelo_inurba_marseille","lat":43.29561,"lon":5.39964,"is_reserved":false,"is_disabled":true,"rental_uris":{"android":"levelo://app?vid=1e099cf5-9456-4ac3-8d36-9153ce8a87f2","ios":"levelo://app?vid=1e099cf5-9456-4ac3-8d36-9153ce8a87f2"},"vehicle_type_id":"4","last_reported":1744186452,"current_range_meters":12400,"station_id":"ce4bh312rcd13ifvqdj0","pricing_plan_id":"cebpf4jnsgd1na2vs0mg"},{"bike_id":"b2ab7a9b-ab6f-40c3-9641-ca257733fa28","system_id":"levelo_inurba_marseille","lat":43.308,"lon":5.38151,"is_reserved":false,"is_disabled":false,"rental_uris":{"android":"levelo://app?vid=b2ab7a9b-ab6f-40c3-9641-ca257733fa28","ios":"levelo://app?vid=b2ab7a9b-ab6f-40c3-9641-ca257733fa28"},"vehicle_type_id":"4","last_reported":1744186452,"current_range_meters":12400,"station_id":"ce4bgt12rcd13ifvqce0","pricing_plan_id":"cebpf4jnsgd1na2vs0mg"},{"bike_id":"0059ab00-78af-43f4-af74-4c89ffd0a62e","system_id":"levelo_inurba_marseille","lat":43.270559,"lon":5.402536,"is_reserved":false,"is_disabled":false,"rental_uris":{"android":"levelo://app?vid=0059ab00-78af-43f4-af74-4c89ffd0a62e","ios":"levelo://app?vid=0059ab00-78af-43f4-af74-4c89ffd0a62e"},"vehicle_type_id":"4","last_reported":1744186452,"current_range_meters":12400,"station_id":"ce4bhk92rcd13ifvqgc0","pricing_plan_id":"cebpf4jnsgd1na2vs0mg"},{"bike_id":"02eeea38-8c1e-49c5-8702-9f2d72f6b71f","system_id":"levelo_inurba_marseille","lat":43.25913,"lon":5.40889,"is_reserved":false,"is_disabled":false,"rental_uris":{"android":"levelo://app?vid=02eeea38-8c1e-49c5-8702-9f2d72f6b71f","ios":"levelo://app?vid=02eeea38-8c1e-49c5-8702-9f2d72f6b71f"},"vehicle_type_id":"4","last_reported":1744186452,"current_range_meters":12800,"station_id":"ce4bhm92rcd13ifvqglg","pricing_plan_id":"cebpf4jnsgd1na2vs0mg"},{"bike_id":"e82d3cbf-6990-4eca-9743-6a7db542c284","system_id":"levelo_inurba_marseille","lat":43.32332,"lon":5.406183,"is_reserved":false,"is_disabled":false,"rental_uris":{"android":"levelo://app?vid=e82d3cbf-6990-4eca-9743-6a7db542c284","ios":"levelo://app?vid=e82d3cbf-6990-4eca-9743-6a7db542c284"},"vehicle_type_id":"4","last_reported":1744186452,"current_range_meters":12800,"station_id":"ce4bhq92rcd13ifvqhjg","pricing_plan_id":"cebpf4jnsgd1na2vs0mg"},{"bike_id":"cc23f386-e027-4abe-bbdd-5e252c76d169","system_id":"levelo_inurba_marseille","lat":43.23153,"lon":5.43722,"is_reserved":false,"is_disabled":false,"rental_uris":{"android":"levelo://app?vid=cc23f386-e027-4abe-bbdd-5e252c76d169","ios":"levelo://app?vid=cc23f386-e027-4abe-bbdd-5e252c76d169"},"vehicle_type_id":"4","last_reported":1744186452,"current_range_meters":12800,"station_id":"ce4bhmp2rcd13ifvqgog","pricing_plan_id":"cebpf4jnsgd1na2vs0mg"},{"bike_id":"1a67ede2-dea1-458a-a868-a18f65d15eed","system_id":"levelo_inurba_marseille","lat":43.29612,"lon":5.37722,"is_reserved":false,"is_disabled":false,"rental_uris":{"android":"levelo://app?vid=1a67ede2-dea1-458a-a868-a18f65d15eed","ios":"levelo://app?vid=1a67ede2-dea1-458a-a868-a18f65d15eed"},"vehicle_type_id":"4","last_reported":1744186452,"current_range_meters":13600,"station_id":"ce4bgi92rcd13ifvqb90","pricing_plan_id":"cebpf4jnsgd1na2vs0mg"},{"bike_id":"5f30a5a4-de9f-499e-b151-b811ebb3b43a","system_id":"levelo_inurba_marseille","lat":43.31066,"lon":5.38353,"is_reserved":false,"is_disabled":true,"rental_uris":{"android":"levelo://app?vid=5f30a5a4-de9f-499e-b151-b811ebb3b43a","ios":"levelo://app?vid=5f30a5a4-de9f-499e-b151-b811ebb3b43a"},"vehicle_type_id":"4","last_reported":1744186452,"current_range_meters":13600,"station_id":"ce4bgv92rcd13ifvqcr0","pricing_plan_id":"cebpf4jnsgd1na2vs0mg"},{"bike_id":"f59c962d-e3aa-411f-b6eb-24802869fd2c","system_id":"levelo_inurba_marseille","lat":43.21756,"lon":5.34636,"is_reserved":false,"is_disabled":false,"rental_uris":{"android":"levelo://app?vid=f59c962d-e3aa-411f-b6eb-24802869fd2c","ios":"levelo://app?vid=f59c962d-e3aa-411f-b6eb-24802869fd2c"},"vehicle_type_id":"4","last_reported":1744186452,"current_range_meters":13600,"station_id":"st_cvj6r9ubvosntc0bgbag","pricing_plan_id":"cebpf4jnsgd1na2vs0mg"},{"bike_id":"62a970a8-ceb5-4ee9-a4d6-92537ea34f4b","system_id":"levelo_inurba_marseille","lat":43.28458,"lon":5.38432,"is_reserved":false,"is_disabled":false,"rental_uris":{"android":"levelo://app?vid=62a970a8-ceb5-4ee9-a4d6-92537ea34f4b","ios":"levelo://app?vid=62a970a8-ceb5-4ee9-a4d6-92537ea34f4b"},"vehicle_type_id":"4","last_reported":1744186452,"current_range_meters":13600,"station_id":"ce4bh512rcd13ifvqe3g","pricing_plan_id":"cebpf4jnsgd1na2vs0mg"},{"bike_id":"739a9bd0-b90f-42ad-bc9f-adc460f320e8","system_id":"levelo_inurba_marseille","lat":43.32377,"lon":5.36766,"is_reserved":false,"is_disabled":false,"rental_uris":{"android":"levelo://app?vid=739a9bd0-b90f-42ad-bc9f-adc460f320e8","ios":"levelo://app?vid=739a9bd0-b90f-42ad-bc9f-adc460f320e8"},"vehicle_type_id":"4","last_reported":1744186452,"current_range_meters":13600,"station_id":"ce4bhsh2rcd13ifvqi2g","pricing_plan_id":"cebpf4jnsgd1na2vs0mg"},{"bike_id":"8eccc3d9-19cb-4c1d-b27f-e3b5feee92ea","system_id":"levelo_inurba_marseille","lat":43.22938,"lon":5.35377,"is_reserved":false,"is_disabled":false,"rental_uris":{"android":"levelo://app?vid=8eccc3d9-19cb-4c1d-b27f-e3b5feee92ea","ios":"levelo://app?vid=8eccc3d9-19cb-4c1d-b27f-e3b5feee92ea"},"vehicle_type_id":"4","last_reported":1744186452,"current_range_meters":14000,"station_id":"cpo3532slgdg3j2ikp40","pricing_plan_id":"cebpf4jnsgd1na2vs0mg"},{"bike_id":"8aca47b8-dcba-4e10-a490-7acd73bde0df","system_id":"levelo_inurba_marseille","lat":43.30546,"lon":5.36531,"is_reserved":false,"is_disabled":false,"rental_uris":{"android":"levelo://app?vid=8aca47b8-dcba-4e10-a490-7acd73bde0df","ios":"levelo://app?vid=8aca47b8-dcba-4e10-a490-7acd73bde0df"},"vehicle_type_id":"4","last_reported":1744186452,"current_range_meters":14000,"station_id":"ce4bgs12rcd13ifvqcag","pricing_plan_id":"cebpf4jnsgd1na2vs0mg"},{"bike_id":"63881233-6809-4561-8290-316c345abd18","system_id":"levelo_inurba_marseille","lat":43.26555,"lon":5.37288,"is_reserved":false,"is_disabled":false,"rental_uris":{"android":"levelo://app?vid=63881233-6809-4561-8290-316c345abd18","ios":"levelo://app?vid=63881233-6809-4561-8290-316c345abd18"},"vehicle_type_id":"4","last_reported":1744186452,"current_range_meters":14400,"station_id":"ce4bhg12rcd13ifvqf70","pricing_plan_id":"cebpf4jnsgd1na2vs0mg"},{"bike_id":"b37944fb-f9c1-4c8e-ac3a-9da227afb433","system_id":"levelo_inurba_marseille","lat":43.3083,"lon":5.38155,"is_reserved":false,"is_disabled":true,"rental_uris":{"android":"levelo://app?vid=b37944fb-f9c1-4c8e-ac3a-9da227afb433","ios":"levelo://app?vid=b37944fb-f9c1-4c8e-ac3a-9da227afb433"},"vehicle_type_id":"4","last_reported":1744186452,"current_range_meters":14400,"station_id":"ce4bgt12rcd13ifvqce0","pricing_plan_id":"cebpf4jnsgd1na2vs0mg"},{"bike_id":"b3014d67-1beb-4a0f-a0f5-829e0d2a4492","system_id":"levelo_inurba_marseille","lat":43.2175,"lon":5.34626,"is_reserved":false,"is_disabled":false,"rental_uris":{"android":"levelo://app?vid=b3014d67-1beb-4a0f-a0f5-829e0d2a4492","ios":"levelo://app?vid=b3014d67-1beb-4a0f-a0f5-829e0d2a4492"},"vehicle_type_id":"4","last_reported":1744186452,"current_range_meters":14400,"station_id":"ce4bhu92rcd13ifvqi70","pricing_plan_id":"cebpf4jnsgd1na2vs0mg"},{"bike_id":"4d859361-9206-4e0a-863d-3fa446c32435","system_id":"levelo_inurba_marseille","lat":43.24993,"lon":5.38935,"is_reserved":false,"is_disabled":false,"rental_uris":{"android":"levelo://app?vid=4d859361-9206-4e0a-863d-3fa446c32435","ios":"levelo://app?vid=4d859361-9206-4e0a-863d-3fa446c32435"},"vehicle_type_id":"4","last_reported":1744186452,"current_range_meters":14000,"station_id":"ce4bhgp2rcd13ifvqfd0","pricing_plan_id":"cebpf4jnsgd1na2vs0mg"},{"bike_id":"edf92683-0c32-4b77-9509-d6f3456c71e1","system_id":"levelo_inurba_marseille","lat":43.3062,"lon":5.39336,"is_reserved":false,"is_disabled":true,"rental_uris":{"android":"levelo://app?vid=edf92683-0c32-4b77-9509-d6f3456c71e1","ios":"levelo://app?vid=edf92683-0c32-4b77-9509-d6f3456c71e1"},"vehicle_type_id":"4","last_reported":1744186452,"current_range_meters":14800,"station_id":"ce4bh0p2rcd13ifvqd80","pricing_plan_id":"cebpf4jnsgd1na2vs0mg"},{"bike_id":"d8cb31ef-765c-4c1f-a736-735e90351e3c","system_id":"levelo_inurba_marseille","lat":43.2668,"lon":5.3827,"is_reserved":false,"is_disabled":false,"rental_uris":{"android":"levelo://app?vid=d8cb31ef-765c-4c1f-a736-735e90351e3c","ios":"levelo://app?vid=d8cb31ef-765c-4c1f-a736-735e90351e3c"},"vehicle_type_id":"4","last_reported":1744186452,"current_range_meters":14800,"station_id":"ce4bhg92rcd13ifvqf90","pricing_plan_id":"cebpf4jnsgd1na2vs0mg"},{"bike_id":"aa6306d2-65ab-42a2-9b0d-ef5604f971de","system_id":"levelo_inurba_marseille","lat":43.3046,"lon":5.37911,"is_reserved":false,"is_disabled":false,"rental_uris":{"android":"levelo://app?vid=aa6306d2-65ab-42a2-9b0d-ef5604f971de","ios":"levelo://app?vid=aa6306d2-65ab-42a2-9b0d-ef5604f971de"},"vehicle_type_id":"4","last_reported":1744186452,"current_range_meters":14800,"station_id":"ce4bgup2rcd13ifvqcn0","pricing_plan_id":"cebpf4jnsgd1na2vs0mg"},{"bike_id":"602e51f2-da81-4272-85cf-31c8731c65e8","system_id":"levelo_inurba_marseille","lat":43.29897,"lon":5.43663,"is_reserved":false,"is_disabled":false,"rental_uris":{"android":"levelo://app?vid=602e51f2-da81-4272-85cf-31c8731c65e8","ios":"levelo://app?vid=602e51f2-da81-4272-85cf-31c8731c65e8"},"vehicle_type_id":"4","last_reported":1744186452,"current_range_meters":14800,"station_id":"ce4bhpp2rcd13ifvqhfg","pricing_plan_id":"cebpf4jnsgd1na2vs0mg"},{"bike_id":"53fb0077-3a65-43ca-a501-d7c36dc0627d","system_id":"levelo_inurba_marseille","lat":43.317634,"lon":5.388058,"is_reserved":false,"is_disabled":false,"rental_uris":{"android":"levelo://app?vid=53fb0077-3a65-43ca-a501-d7c36dc0627d","ios":"levelo://app?vid=53fb0077-3a65-43ca-a501-d7c36dc0627d"},"vehicle_type_id":"4","last_reported":1744186452,"current_range_meters":15200,"station_id":"","pricing_plan_id":"cebpf4jnsgd1na2vs0mg"},{"bike_id":"e914dcdd-d94a-4740-a60a-12cbabf43179","system_id":"levelo_inurba_marseille","lat":43.25925,"lon":5.40906,"is_reserved":false,"is_disabled":false,"rental_uris":{"android":"levelo://app?vid=e914dcdd-d94a-4740-a60a-12cbabf43179","ios":"levelo://app?vid=e914dcdd-d94a-4740-a60a-12cbabf43179"},"vehicle_type_id":"4","last_reported":1744186452,"current_range_meters":15200,"station_id":"ce4bhm92rcd13ifvqglg","pricing_plan_id":"cebpf4jnsgd1na2vs0mg"},{"bike_id":"3fd88aea-9fee-4f73-aafe-b66b700e672b","system_id":"levelo_inurba_marseille","lat":43.31095,"lon":5.37781,"is_reserved":false,"is_disabled":false,"rental_uris":{"android":"levelo://app?vid=3fd88aea-9fee-4f73-aafe-b66b700e672b","ios":"levelo://app?vid=3fd88aea-9fee-4f73-aafe-b66b700e672b"},"vehicle_type_id":"4","last_reported":1744186452,"current_range_meters":15200,"station_id":"ce4bgt92rcd13ifvqcg0","pricing_plan_id":"cebpf4jnsgd1na2vs0mg"},{"bike_id":"52dfef30-eef0-4dd6-a138-a48c8dcc2c3a","system_id":"levelo_inurba_marseille","lat":43.30374,"lon":5.42779,"is_reserved":false,"is_disabled":true,"rental_uris":{"android":"levelo://app?vid=52dfef30-eef0-4dd6-a138-a48c8dcc2c3a","ios":"levelo://app?vid=52dfef30-eef0-4dd6-a138-a48c8dcc2c3a"},"vehicle_type_id":"4","last_reported":1744186452,"current_range_meters":15200,"station_id":"","pricing_plan_id":"cebpf4jnsgd1na2vs0mg"},{"bike_id":"af4a1304-907f-4602-81d6-6adc9277cd2e","system_id":"levelo_inurba_marseille","lat":43.26221,"lon":5.40469,"is_reserved":false,"is_disabled":false,"rental_uris":{"android":"levelo://app?vid=af4a1304-907f-4602-81d6-6adc9277cd2e","ios":"levelo://app?vid=af4a1304-907f-4602-81d6-6adc9277cd2e"},"vehicle_type_id":"4","last_reported":1744186452,"current_range_meters":15200,"station_id":"ce4bhmh2rcd13ifvqgmg","pricing_plan_id":"cebpf4jnsgd1na2vs0mg"},{"bike_id":"f147c6df-27ae-4e7a-90c0-6893ba89129c","system_id":"levelo_inurba_marseille","lat":43.3055,"lon":5.36527,"is_reserved":false,"is_disabled":false,"rental_uris":{"android":"levelo://app?vid=f147c6df-27ae-4e7a-90c0-6893ba89129c","ios":"levelo://app?vid=f147c6df-27ae-4e7a-90c0-6893ba89129c"},"vehicle_type_id":"4","last_reported":1744186452,"current_range_meters":15200,"station_id":"ce4bgs12rcd13ifvqcag","pricing_plan_id":"cebpf4jnsgd1na2vs0mg"},{"bike_id":"d44ff2b9-417e-4368-bebb-1fc974db3122","system_id":"levelo_inurba_marseille","lat":43.33624,"lon":5.397669,"is_reserved":false,"is_disabled":false,"rental_uris":{"android":"levelo://app?vid=d44ff2b9-417e-4368-bebb-1fc974db3122","ios":"levelo://app?vid=d44ff2b9-417e-4368-bebb-1fc974db3122"},"vehicle_type_id":"4","last_reported":1744186452,"current_range_meters":15200,"station_id":"","pricing_plan_id":"cebpf4jnsgd1na2vs0mg"},{"bike_id":"0c0682ef-602c-4853-944b-e80ee191e508","system_id":"levelo_inurba_marseille","lat":43.305345,"lon":5.36711,"is_reserved":false,"is_disabled":false,"rental_uris":{"android":"levelo://app?vid=0c0682ef-602c-4853-944b-e80ee191e508","ios":"levelo://app?vid=0c0682ef-602c-4853-944b-e80ee191e508"},"vehicle_type_id":"4","last_reported":1744186452,"current_range_meters":15200,"station_id":"ce4bgrp2rcd13ifvqc9g","pricing_plan_id":"cebpf4jnsgd1na2vs0mg"},{"bike_id":"c7fbfbd5-d4fe-466f-83f1-813c10462bee","system_id":"levelo_inurba_marseille","lat":43.30948,"lon":5.39033,"is_reserved":false,"is_disabled":false,"rental_uris":{"android":"levelo://app?vid=c7fbfbd5-d4fe-466f-83f1-813c10462bee","ios":"levelo://app?vid=c7fbfbd5-d4fe-466f-83f1-813c10462bee"},"vehicle_type_id":"4","last_reported":1744186452,"current_range_meters":15200,"station_id":"ce4bgup2rcd13ifvqco0","pricing_plan_id":"cebpf4jnsgd1na2vs0mg"},{"bike_id":"0ad9ee3e-0832-46df-b474-10ed8a5a0c97","system_id":"levelo_inurba_marseille","lat":43.21223,"lon":5.35096,"is_reserved":false,"is_disabled":false,"rental_uris":{"android":"levelo://app?vid=0ad9ee3e-0832-46df-b474-10ed8a5a0c97","ios":"levelo://app?vid=0ad9ee3e-0832-46df-b474-10ed8a5a0c97"},"vehicle_type_id":"4","last_reported":1744186452,"current_range_meters":16000,"station_id":"st_cvj6sg6p6f1abm77japg","pricing_plan_id":"cebpf4jnsgd1na2vs0mg"},{"bike_id":"b4b93a64-d083-4ab2-bbd0-53609c602fb5","system_id":"levelo_inurba_marseille","lat":43.30911,"lon":5.40156,"is_reserved":false,"is_disabled":true,"rental_uris":{"android":"levelo://app?vid=b4b93a64-d083-4ab2-bbd0-53609c602fb5","ios":"levelo://app?vid=b4b93a64-d083-4ab2-bbd0-53609c602fb5"},"vehicle_type_id":"4","last_reported":1744186452,"current_range_meters":16000,"station_id":"ce4bgvp2rcd13ifvqct0","pricing_plan_id":"cebpf4jnsgd1na2vs0mg"},{"bike_id":"7bd3f7de-3a74-4fff-b4c6-181d8b119e52","system_id":"levelo_inurba_marseille","lat":43.29777,"lon":5.40426,"is_reserved":false,"is_disabled":true,"rental_uris":{"android":"levelo://app?vid=7bd3f7de-3a74-4fff-b4c6-181d8b119e52","ios":"levelo://app?vid=7bd3f7de-3a74-4fff-b4c6-181d8b119e52"},"vehicle_type_id":"4","last_reported":1744186452,"current_range_meters":16000,"station_id":"ce4bh112rcd13ifvqd90","pricing_plan_id":"cebpf4jnsgd1na2vs0mg"},{"bike_id":"a2aba970-c65a-49a9-9c74-51a042ebf15f","system_id":"levelo_inurba_marseille","lat":43.25939,"lon":5.40908,"is_reserved":false,"is_disabled":false,"rental_uris":{"android":"levelo://app?vid=a2aba970-c65a-49a9-9c74-51a042ebf15f","ios":"levelo://app?vid=a2aba970-c65a-49a9-9c74-51a042ebf15f"},"vehicle_type_id":"4","last_reported":1744186452,"current_range_meters":16000,"station_id":"ce4bhm92rcd13ifvqglg","pricing_plan_id":"cebpf4jnsgd1na2vs0mg"},{"bike_id":"c1c63035-c83b-4419-8cbf-133778d95125","system_id":"levelo_inurba_marseille","lat":43.29797,"lon":5.39372,"is_reserved":false,"is_disabled":true,"rental_uris":{"android":"levelo://app?vid=c1c63035-c83b-4419-8cbf-133778d95125","ios":"levelo://app?vid=c1c63035-c83b-4419-8cbf-133778d95125"},"vehicle_type_id":"4","last_reported":1744186452,"current_range_meters":16000,"station_id":"chh1huq6cuj3fo74tm60","pricing_plan_id":"cebpf4jnsgd1na2vs0mg"},{"bike_id":"6278194a-3064-41bd-8565-b8ff44b1552d","system_id":"levelo_inurba_marseille","lat":43.295364,"lon":5.385484,"is_reserved":false,"is_disabled":true,"rental_uris":{"android":"levelo://app?vid=6278194a-3064-41bd-8565-b8ff44b1552d","ios":"levelo://app?vid=6278194a-3064-41bd-8565-b8ff44b1552d"},"vehicle_type_id":"4","last_reported":1744186452,"current_range_meters":16000,"station_id":"ce4bgih2rcd13ifvqba0","pricing_plan_id":"cebpf4jnsgd1na2vs0mg"},{"bike_id":"5d10337e-b7e4-49e3-8671-c036a422de63","system_id":"levelo_inurba_marseille","lat":43.29278,"lon":5.3686,"is_reserved":false,"is_disabled":false,"rental_uris":{"android":"levelo://app?vid=5d10337e-b7e4-49e3-8671-c036a422de63","ios":"levelo://app?vid=5d10337e-b7e4-49e3-8671-c036a422de63"},"vehicle_type_id":"4","last_reported":1744186452,"current_range_meters":16000,"station_id":"ce4bhbp2rcd13ifvqesg","pricing_plan_id":"cebpf4jnsgd1na2vs0mg"},{"bike_id":"99efe335-f676-495f-b7aa-e0054cd19bd6","system_id":"levelo_inurba_marseille","lat":43.31413,"lon":5.36681,"is_reserved":false,"is_disabled":false,"rental_uris":{"android":"levelo://app?vid=99efe335-f676-495f-b7aa-e0054cd19bd6","ios":"levelo://app?vid=99efe335-f676-495f-b7aa-e0054cd19bd6"},"vehicle_type_id":"4","last_reported":1744186452,"current_range_meters":16400,"station_id":"","pricing_plan_id":"cebpf4jnsgd1na2vs0mg"},{"bike_id":"9da6eac3-919d-45e6-a38c-9d85c9506e74","system_id":"levelo_inurba_marseille","lat":43.24066,"lon":5.37763,"is_reserved":false,"is_disabled":false,"rental_uris":{"android":"levelo://app?vid=9da6eac3-919d-45e6-a38c-9d85c9506e74","ios":"levelo://app?vid=9da6eac3-919d-45e6-a38c-9d85c9506e74"},"vehicle_type_id":"4","last_reported":1744186452,"current_range_meters":16400,"station_id":"ce4bhnp2rcd13ifvqgvg","pricing_plan_id":"cebpf4jnsgd1na2vs0mg"},{"bike_id":"49cdff30-d3a1-4d2b-a0ec-cd590e26bdca","system_id":"levelo_inurba_marseille","lat":43.26198,"lon":5.37935,"is_reserved":false,"is_disabled":false,"rental_uris":{"android":"levelo://app?vid=49cdff30-d3a1-4d2b-a0ec-cd590e26bdca","ios":"levelo://app?vid=49cdff30-d3a1-4d2b-a0ec-cd590e26bdca"},"vehicle_type_id":"4","last_reported":1744186452,"current_range_meters":16400,"station_id":"ce4bhjp2rcd13ifvqg90","pricing_plan_id":"cebpf4jnsgd1na2vs0mg"},{"bike_id":"872eb5cd-f642-4091-be84-d58b0bf7e732","system_id":"levelo_inurba_marseille","lat":43.267761,"lon":5.394127,"is_reserved":false,"is_disabled":false,"rental_uris":{"android":"levelo://app?vid=872eb5cd-f642-4091-be84-d58b0bf7e732","ios":"levelo://app?vid=872eb5cd-f642-4091-be84-d58b0bf7e732"},"vehicle_type_id":"4","last_reported":1744186452,"current_range_meters":16400,"station_id":"ce4bhh12rcd13ifvqfg0","pricing_plan_id":"cebpf4jnsgd1na2vs0mg"},{"bike_id":"279f34e3-d8a3-4e44-9a92-e9057a9e5436","system_id":"levelo_inurba_marseille","lat":43.28146,"lon":5.42642,"is_reserved":false,"is_disabled":false,"rental_uris":{"android":"levelo://app?vid=279f34e3-d8a3-4e44-9a92-e9057a9e5436","ios":"levelo://app?vid=279f34e3-d8a3-4e44-9a92-e9057a9e5436"},"vehicle_type_id":"4","last_reported":1744186452,"current_range_meters":16400,"station_id":"ce4bhnh2rcd13ifvqgug","pricing_plan_id":"cebpf4jnsgd1na2vs0mg"},{"bike_id":"eb0035cf-c1ff-453e-a5a7-2440ca11ffb1","system_id":"levelo_inurba_marseille","lat":43.31478,"lon":5.37309,"is_reserved":false,"is_disabled":false,"rental_uris":{"android":"levelo://app?vid=eb0035cf-c1ff-453e-a5a7-2440ca11ffb1","ios":"levelo://app?vid=eb0035cf-c1ff-453e-a5a7-2440ca11ffb1"},"vehicle_type_id":"4","last_reported":1744186452,"current_range_meters":16800,"station_id":"ce4bgt12rcd13ifvqcd0","pricing_plan_id":"cebpf4jnsgd1na2vs0mg"},{"bike_id":"b84b1d45-729e-47db-8c7e-e88abe2948fb","system_id":"levelo_inurba_marseille","lat":43.31718,"lon":5.42406,"is_reserved":false,"is_disabled":false,"rental_uris":{"android":"levelo://app?vid=b84b1d45-729e-47db-8c7e-e88abe2948fb","ios":"levelo://app?vid=b84b1d45-729e-47db-8c7e-e88abe2948fb"},"vehicle_type_id":"4","last_reported":1744186452,"current_range_meters":16800,"station_id":"ce4bhp92rcd13ifvqhbg","pricing_plan_id":"cebpf4jnsgd1na2vs0mg"},{"bike_id":"c0e57d31-80fc-4e29-953a-52c3cd3eb49c","system_id":"levelo_inurba_marseille","lat":43.32478,"lon":5.36568,"is_reserved":false,"is_disabled":false,"rental_uris":{"android":"levelo://app?vid=c0e57d31-80fc-4e29-953a-52c3cd3eb49c","ios":"levelo://app?vid=c0e57d31-80fc-4e29-953a-52c3cd3eb49c"},"vehicle_type_id":"4","last_reported":1744186452,"current_range_meters":16800,"station_id":"ce4bhs12rcd13ifvqhvg","pricing_plan_id":"cebpf4jnsgd1na2vs0mg"},{"bike_id":"0f50bf07-976b-488f-8955-5ca81ae2d9af","system_id":"levelo_inurba_marseille","lat":43.30953,"lon":5.39042,"is_reserved":false,"is_disabled":false,"rental_uris":{"android":"levelo://app?vid=0f50bf07-976b-488f-8955-5ca81ae2d9af","ios":"levelo://app?vid=0f50bf07-976b-488f-8955-5ca81ae2d9af"},"vehicle_type_id":"4","last_reported":1744186452,"current_range_meters":16800,"station_id":"ce4bgup2rcd13ifvqco0","pricing_plan_id":"cebpf4jnsgd1na2vs0mg"},{"bike_id":"9a2c0e56-d8df-40db-86f2-28bffe25a0ea","system_id":"levelo_inurba_marseille","lat":43.31236,"lon":5.36852,"is_reserved":false,"is_disabled":false,"rental_uris":{"android":"levelo://app?vid=9a2c0e56-d8df-40db-86f2-28bffe25a0ea","ios":"levelo://app?vid=9a2c0e56-d8df-40db-86f2-28bffe25a0ea"},"vehicle_type_id":"4","last_reported":1744186452,"current_range_meters":16800,"station_id":"ce4bgl92rcd13ifvqbq0","pricing_plan_id":"cebpf4jnsgd1na2vs0mg"},{"bike_id":"71a3919b-8525-4f47-a6df-5e0d6eec871b","system_id":"levelo_inurba_marseille","lat":43.32346,"lon":5.40604,"is_reserved":false,"is_disabled":false,"rental_uris":{"android":"levelo://app?vid=71a3919b-8525-4f47-a6df-5e0d6eec871b","ios":"levelo://app?vid=71a3919b-8525-4f47-a6df-5e0d6eec871b"},"vehicle_type_id":"4","last_reported":1744186452,"current_range_meters":16800,"station_id":"ce4bhq92rcd13ifvqhjg","pricing_plan_id":"cebpf4jnsgd1na2vs0mg"},{"bike_id":"dfdc8419-8f83-4b81-a64d-e6f436c6016c","system_id":"levelo_inurba_marseille","lat":43.25917,"lon":5.409,"is_reserved":false,"is_disabled":false,"rental_uris":{"android":"levelo://app?vid=dfdc8419-8f83-4b81-a64d-e6f436c6016c","ios":"levelo://app?vid=dfdc8419-8f83-4b81-a64d-e6f436c6016c"},"vehicle_type_id":"4","last_reported":1744186452,"current_range_meters":17200,"station_id":"ce4bhm92rcd13ifvqglg","pricing_plan_id":"cebpf4jnsgd1na2vs0mg"},{"bike_id":"54525f9c-6729-406c-8f5a-fce95e931823","system_id":"levelo_inurba_marseille","lat":43.3045,"lon":5.37834,"is_reserved":false,"is_disabled":false,"rental_uris":{"android":"levelo://app?vid=54525f9c-6729-406c-8f5a-fce95e931823","ios":"levelo://app?vid=54525f9c-6729-406c-8f5a-fce95e931823"},"vehicle_type_id":"4","last_reported":1744186452,"current_range_meters":17200,"station_id":"","pricing_plan_id":"cebpf4jnsgd1na2vs0mg"},{"bike_id":"100009ab-05cc-49b9-bb09-eda5301884ea","system_id":"levelo_inurba_marseille","lat":43.30134,"lon":5.3878,"is_reserved":false,"is_disabled":false,"rental_uris":{"android":"levelo://app?vid=100009ab-05cc-49b9-bb09-eda5301884ea","ios":"levelo://app?vid=100009ab-05cc-49b9-bb09-eda5301884ea"},"vehicle_type_id":"4","last_reported":1744186452,"current_range_meters":17200,"station_id":"ce4bghh2rcd13ifvqb60","pricing_plan_id":"cebpf4jnsgd1na2vs0mg"},{"bike_id":"218aea37-f9e1-48f6-8a2f-86f29d1d6421","system_id":"levelo_inurba_marseille","lat":43.29848,"lon":5.36269,"is_reserved":false,"is_disabled":false,"rental_uris":{"android":"levelo://app?vid=218aea37-f9e1-48f6-8a2f-86f29d1d6421","ios":"levelo://app?vid=218aea37-f9e1-48f6-8a2f-86f29d1d6421"},"vehicle_type_id":"4","last_reported":1744186452,"current_range_meters":17200,"station_id":"ce4bgpp2rcd13ifvqc3g","pricing_plan_id":"cebpf4jnsgd1na2vs0mg"},{"bike_id":"aca9fcc1-b251-415c-a70f-185ec9cb3f21","system_id":"levelo_inurba_marseille","lat":43.23191,"lon":5.35561,"is_reserved":false,"is_disabled":false,"rental_uris":{"android":"levelo://app?vid=aca9fcc1-b251-415c-a70f-185ec9cb3f21","ios":"levelo://app?vid=aca9fcc1-b251-415c-a70f-185ec9cb3f21"},"vehicle_type_id":"4","last_reported":1744186452,"current_range_meters":17200,"station_id":"ce4bhu92rcd13ifvqi70","pricing_plan_id":"cebpf4jnsgd1na2vs0mg"},{"bike_id":"42c1fdc6-38af-4ea1-a910-702e15d5a9b4","system_id":"levelo_inurba_marseille","lat":43.30916,"lon":5.40152,"is_reserved":false,"is_disabled":true,"rental_uris":{"android":"levelo://app?vid=42c1fdc6-38af-4ea1-a910-702e15d5a9b4","ios":"levelo://app?vid=42c1fdc6-38af-4ea1-a910-702e15d5a9b4"},"vehicle_type_id":"4","last_reported":1744186452,"current_range_meters":17200,"station_id":"ce4bgvp2rcd13ifvqct0","pricing_plan_id":"cebpf4jnsgd1na2vs0mg"},{"bike_id":"d3a30278-1fc8-438b-a6b9-b6523acb13c6","system_id":"levelo_inurba_marseille","lat":43.31248,"lon":5.36849,"is_reserved":false,"is_disabled":false,"rental_uris":{"android":"levelo://app?vid=d3a30278-1fc8-438b-a6b9-b6523acb13c6","ios":"levelo://app?vid=d3a30278-1fc8-438b-a6b9-b6523acb13c6"},"vehicle_type_id":"4","last_reported":1744186452,"current_range_meters":17200,"station_id":"ce4bgl92rcd13ifvqbq0","pricing_plan_id":"cebpf4jnsgd1na2vs0mg"},{"bike_id":"33c6f353-0166-4c8c-af82-a2e0d1d8c75d","system_id":"levelo_inurba_marseille","lat":43.33004,"lon":5.43856,"is_reserved":false,"is_disabled":false,"rental_uris":{"android":"levelo://app?vid=33c6f353-0166-4c8c-af82-a2e0d1d8c75d","ios":"levelo://app?vid=33c6f353-0166-4c8c-af82-a2e0d1d8c75d"},"vehicle_type_id":"4","last_reported":1744186452,"current_range_meters":17200,"station_id":"","pricing_plan_id":"cebpf4jnsgd1na2vs0mg"},{"bike_id":"09bddc24-4c9d-460f-8967-e90ee5c88b43","system_id":"levelo_inurba_marseille","lat":43.3134,"lon":5.39702,"is_reserved":false,"is_disabled":true,"rental_uris":{"android":"levelo://app?vid=09bddc24-4c9d-460f-8967-e90ee5c88b43","ios":"levelo://app?vid=09bddc24-4c9d-460f-8967-e90ee5c88b43"},"vehicle_type_id":"4","last_reported":1744186452,"current_range_meters":17200,"station_id":"ce4bgvp2rcd13ifvqcu0","pricing_plan_id":"cebpf4jnsgd1na2vs0mg"},{"bike_id":"875883da-a830-4c1a-8530-93fae3774448","system_id":"levelo_inurba_marseille","lat":43.3054,"lon":5.36535,"is_reserved":false,"is_disabled":false,"rental_uris":{"android":"levelo://app?vid=875883da-a830-4c1a-8530-93fae3774448","ios":"levelo://app?vid=875883da-a830-4c1a-8530-93fae3774448"},"vehicle_type_id":"4","last_reported":1744186452,"current_range_meters":17600,"station_id":"ce4bgs12rcd13ifvqcag","pricing_plan_id":"cebpf4jnsgd1na2vs0mg"},{"bike_id":"e3c3a051-8134-4ed3-913b-374aa217874c","system_id":"levelo_inurba_marseille","lat":43.25602,"lon":5.40521,"is_reserved":false,"is_disabled":false,"rental_uris":{"android":"levelo://app?vid=e3c3a051-8134-4ed3-913b-374aa217874c","ios":"levelo://app?vid=e3c3a051-8134-4ed3-913b-374aa217874c"},"vehicle_type_id":"4","last_reported":1744186452,"current_range_meters":17600,"station_id":"","pricing_plan_id":"cebpf4jnsgd1na2vs0mg"},{"bike_id":"67710486-b8ac-4c7b-b431-f3d8b3e4ebac","system_id":"levelo_inurba_marseille","lat":43.3095,"lon":5.39045,"is_reserved":false,"is_disabled":false,"rental_uris":{"android":"levelo://app?vid=67710486-b8ac-4c7b-b431-f3d8b3e4ebac","ios":"levelo://app?vid=67710486-b8ac-4c7b-b431-f3d8b3e4ebac"},"vehicle_type_id":"4","last_reported":1744186452,"current_range_meters":17600,"station_id":"ce4bgup2rcd13ifvqco0","pricing_plan_id":"cebpf4jnsgd1na2vs0mg"},{"bike_id":"4ccc25aa-a6b8-4c7c-b94b-7aa9ddac7910","system_id":"levelo_inurba_marseille","lat":43.29875,"lon":5.39741,"is_reserved":false,"is_disabled":false,"rental_uris":{"android":"levelo://app?vid=4ccc25aa-a6b8-4c7c-b94b-7aa9ddac7910","ios":"levelo://app?vid=4ccc25aa-a6b8-4c7c-b94b-7aa9ddac7910"},"vehicle_type_id":"4","last_reported":1744186452,"current_range_meters":17200,"station_id":"ce4bh0h2rcd13ifvqd50","pricing_plan_id":"cebpf4jnsgd1na2vs0mg"},{"bike_id":"d71e43bc-d531-41c2-96e7-12f770d37548","system_id":"levelo_inurba_marseille","lat":43.2904,"lon":5.39972,"is_reserved":false,"is_disabled":false,"rental_uris":{"android":"levelo://app?vid=d71e43bc-d531-41c2-96e7-12f770d37548","ios":"levelo://app?vid=d71e43bc-d531-41c2-96e7-12f770d37548"},"vehicle_type_id":"4","last_reported":1744186452,"current_range_meters":17200,"station_id":"ce4bh392rcd13ifvqdm0","pricing_plan_id":"cebpf4jnsgd1na2vs0mg"},{"bike_id":"7d26dd58-fa81-459e-8f81-a55b8206dea7","system_id":"levelo_inurba_marseille","lat":43.26222,"lon":5.40382,"is_reserved":false,"is_disabled":false,"rental_uris":{"android":"levelo://app?vid=7d26dd58-fa81-459e-8f81-a55b8206dea7","ios":"levelo://app?vid=7d26dd58-fa81-459e-8f81-a55b8206dea7"},"vehicle_type_id":"4","last_reported":1744186452,"current_range_meters":17600,"station_id":"ce4bhmh2rcd13ifvqgmg","pricing_plan_id":"cebpf4jnsgd1na2vs0mg"},{"bike_id":"9b707f39-8a91-47a1-afe5-0c6d90ae57f5","system_id":"levelo_inurba_marseille","lat":43.30539,"lon":5.36554,"is_reserved":false,"is_disabled":false,"rental_uris":{"android":"levelo://app?vid=9b707f39-8a91-47a1-afe5-0c6d90ae57f5","ios":"levelo://app?vid=9b707f39-8a91-47a1-afe5-0c6d90ae57f5"},"vehicle_type_id":"4","last_reported":1744186452,"current_range_meters":17600,"station_id":"ce4bgs12rcd13ifvqcag","pricing_plan_id":"cebpf4jnsgd1na2vs0mg"},{"bike_id":"661d385d-7d62-4b55-bbfb-683347dba585","system_id":"levelo_inurba_marseille","lat":43.309461,"lon":5.390361,"is_reserved":false,"is_disabled":false,"rental_uris":{"android":"levelo://app?vid=661d385d-7d62-4b55-bbfb-683347dba585","ios":"levelo://app?vid=661d385d-7d62-4b55-bbfb-683347dba585"},"vehicle_type_id":"4","last_reported":1744186452,"current_range_meters":17600,"station_id":"ce4bgkh2rcd13ifvqbl0","pricing_plan_id":"cebpf4jnsgd1na2vs0mg"},{"bike_id":"c55184d3-fbbd-4f0a-a6fc-c4d88e36e900","system_id":"levelo_inurba_marseille","lat":43.30506,"lon":5.36518,"is_reserved":false,"is_disabled":false,"rental_uris":{"android":"levelo://app?vid=c55184d3-fbbd-4f0a-a6fc-c4d88e36e900","ios":"levelo://app?vid=c55184d3-fbbd-4f0a-a6fc-c4d88e36e900"},"vehicle_type_id":"4","last_reported":1744186452,"current_range_meters":17600,"station_id":"","pricing_plan_id":"cebpf4jnsgd1na2vs0mg"},{"bike_id":"d58a3dc4-7a27-4171-8167-2a6f75ef2c9f","system_id":"levelo_inurba_marseille","lat":43.26675,"lon":5.38275,"is_reserved":false,"is_disabled":false,"rental_uris":{"android":"levelo://app?vid=d58a3dc4-7a27-4171-8167-2a6f75ef2c9f","ios":"levelo://app?vid=d58a3dc4-7a27-4171-8167-2a6f75ef2c9f"},"vehicle_type_id":"4","last_reported":1744186452,"current_range_meters":18000,"station_id":"ce4bhg92rcd13ifvqf90","pricing_plan_id":"cebpf4jnsgd1na2vs0mg"},{"bike_id":"3b1cca49-3827-424a-a7c0-8a5fd7062480","system_id":"levelo_inurba_marseille","lat":43.28927,"lon":5.36645,"is_reserved":false,"is_disabled":false,"rental_uris":{"android":"levelo://app?vid=3b1cca49-3827-424a-a7c0-8a5fd7062480","ios":"levelo://app?vid=3b1cca49-3827-424a-a7c0-8a5fd7062480"},"vehicle_type_id":"4","last_reported":1744186452,"current_range_meters":18000,"station_id":"ce4bhap2rcd13ifvqek0","pricing_plan_id":"cebpf4jnsgd1na2vs0mg"},{"bike_id":"29fa4859-90f2-49bc-b9c2-fc4f3f694348","system_id":"levelo_inurba_marseille","lat":43.281564,"lon":5.426417,"is_reserved":false,"is_disabled":false,"rental_uris":{"android":"levelo://app?vid=29fa4859-90f2-49bc-b9c2-fc4f3f694348","ios":"levelo://app?vid=29fa4859-90f2-49bc-b9c2-fc4f3f694348"},"vehicle_type_id":"4","last_reported":1744186452,"current_range_meters":18000,"station_id":"ce4bhnh2rcd13ifvqgug","pricing_plan_id":"cebpf4jnsgd1na2vs0mg"},{"bike_id":"c592ab9b-91bb-44c2-8773-d6b059233002","system_id":"levelo_inurba_marseille","lat":43.26951,"lon":5.38641,"is_reserved":false,"is_disabled":false,"rental_uris":{"android":"levelo://app?vid=c592ab9b-91bb-44c2-8773-d6b059233002","ios":"levelo://app?vid=c592ab9b-91bb-44c2-8773-d6b059233002"},"vehicle_type_id":"4","last_reported":1744186452,"current_range_meters":18000,"station_id":"ce4bhh92rcd13ifvqfh0","pricing_plan_id":"cebpf4jnsgd1na2vs0mg"},{"bike_id":"72fbc3fe-6ac3-4fdc-adab-40ce366d0135","system_id":"levelo_inurba_marseille","lat":43.30286,"lon":5.36905,"is_reserved":false,"is_disabled":false,"rental_uris":{"android":"levelo://app?vid=72fbc3fe-6ac3-4fdc-adab-40ce366d0135","ios":"levelo://app?vid=72fbc3fe-6ac3-4fdc-adab-40ce366d0135"},"vehicle_type_id":"4","last_reported":1744186452,"current_range_meters":18000,"station_id":"ce4bgqh2rcd13ifvqc5g","pricing_plan_id":"cebpf4jnsgd1na2vs0mg"},{"bike_id":"1a3cd0ab-ec77-41b3-982c-74e5093499a8","system_id":"levelo_inurba_marseille","lat":43.30439,"lon":5.38906,"is_reserved":false,"is_disabled":true,"rental_uris":{"android":"levelo://app?vid=1a3cd0ab-ec77-41b3-982c-74e5093499a8","ios":"levelo://app?vid=1a3cd0ab-ec77-41b3-982c-74e5093499a8"},"vehicle_type_id":"4","last_reported":1744186452,"current_range_meters":18000,"station_id":"ce4bgk12rcd13ifvqbi0","pricing_plan_id":"cebpf4jnsgd1na2vs0mg"},{"bike_id":"4991589d-bcb1-4bfb-8d3e-5c59c6458a3d","system_id":"levelo_inurba_marseille","lat":43.34414,"lon":5.38062,"is_reserved":false,"is_disabled":false,"rental_uris":{"android":"levelo://app?vid=4991589d-bcb1-4bfb-8d3e-5c59c6458a3d","ios":"levelo://app?vid=4991589d-bcb1-4bfb-8d3e-5c59c6458a3d"},"vehicle_type_id":"4","last_reported":1744186452,"current_range_meters":18800,"station_id":"","pricing_plan_id":"cebpf4jnsgd1na2vs0mg"},{"bike_id":"df5477e7-1d66-4850-a7d4-89306fc7c408","system_id":"levelo_inurba_marseille","lat":43.29632,"lon":5.40602,"is_reserved":false,"is_disabled":false,"rental_uris":{"android":"levelo://app?vid=df5477e7-1d66-4850-a7d4-89306fc7c408","ios":"levelo://app?vid=df5477e7-1d66-4850-a7d4-89306fc7c408"},"vehicle_type_id":"4","last_reported":1744186452,"current_range_meters":18800,"station_id":"ce4bh0h2rcd13ifvqd60","pricing_plan_id":"cebpf4jnsgd1na2vs0mg"},{"bike_id":"6bdb0206-a8fc-45c5-ab76-26dd417bca1d","system_id":"levelo_inurba_marseille","lat":43.28458,"lon":5.38419,"is_reserved":false,"is_disabled":false,"rental_uris":{"android":"levelo://app?vid=6bdb0206-a8fc-45c5-ab76-26dd417bca1d","ios":"levelo://app?vid=6bdb0206-a8fc-45c5-ab76-26dd417bca1d"},"vehicle_type_id":"4","last_reported":1744186452,"current_range_meters":18800,"station_id":"ce4bh512rcd13ifvqe3g","pricing_plan_id":"cebpf4jnsgd1na2vs0mg"},{"bike_id":"49ed977d-4520-4b90-b36a-e0d0ae893a6d","system_id":"levelo_inurba_marseille","lat":43.25934,"lon":5.40906,"is_reserved":false,"is_disabled":false,"rental_uris":{"android":"levelo://app?vid=49ed977d-4520-4b90-b36a-e0d0ae893a6d","ios":"levelo://app?vid=49ed977d-4520-4b90-b36a-e0d0ae893a6d"},"vehicle_type_id":"4","last_reported":1744186452,"current_range_meters":19200,"station_id":"ce4bhm92rcd13ifvqglg","pricing_plan_id":"cebpf4jnsgd1na2vs0mg"},{"bike_id":"ee3c03b2-9a4c-4654-a28e-7388f571d9cb","system_id":"levelo_inurba_marseille","lat":43.31996,"lon":5.3815,"is_reserved":false,"is_disabled":true,"rental_uris":{"android":"levelo://app?vid=ee3c03b2-9a4c-4654-a28e-7388f571d9cb","ios":"levelo://app?vid=ee3c03b2-9a4c-4654-a28e-7388f571d9cb"},"vehicle_type_id":"4","last_reported":1744186452,"current_range_meters":19200,"station_id":"ce4bhr12rcd13ifvqhpg","pricing_plan_id":"cebpf4jnsgd1na2vs0mg"},{"bike_id":"a1d31b68-22ae-427c-a361-76c698230638","system_id":"levelo_inurba_marseille","lat":43.24181,"lon":5.39725,"is_reserved":false,"is_disabled":false,"rental_uris":{"android":"levelo://app?vid=a1d31b68-22ae-427c-a361-76c698230638","ios":"levelo://app?vid=a1d31b68-22ae-427c-a361-76c698230638"},"vehicle_type_id":"4","last_reported":1744186452,"current_range_meters":19200,"station_id":"ce4bhn12rcd13ifvqgpg","pricing_plan_id":"cebpf4jnsgd1na2vs0mg"},{"bike_id":"2ab54020-df93-4f6b-8cd1-9b0e84795bda","system_id":"levelo_inurba_marseille","lat":43.30529,"lon":5.36536,"is_reserved":false,"is_disabled":false,"rental_uris":{"android":"levelo://app?vid=2ab54020-df93-4f6b-8cd1-9b0e84795bda","ios":"levelo://app?vid=2ab54020-df93-4f6b-8cd1-9b0e84795bda"},"vehicle_type_id":"4","last_reported":1744186452,"current_range_meters":19200,"station_id":"ce4bgs12rcd13ifvqcag","pricing_plan_id":"cebpf4jnsgd1na2vs0mg"},{"bike_id":"fdc1a058-4502-4fe3-9690-e1b8950e9c89","system_id":"levelo_inurba_marseille","lat":43.30546,"lon":5.36689,"is_reserved":false,"is_disabled":false,"rental_uris":{"android":"levelo://app?vid=fdc1a058-4502-4fe3-9690-e1b8950e9c89","ios":"levelo://app?vid=fdc1a058-4502-4fe3-9690-e1b8950e9c89"},"vehicle_type_id":"4","last_reported":1744186452,"current_range_meters":19200,"station_id":"ce4bgrp2rcd13ifvqc9g","pricing_plan_id":"cebpf4jnsgd1na2vs0mg"},{"bike_id":"7fdabec5-a302-4325-baf7-e267db476a4f","system_id":"levelo_inurba_marseille","lat":43.29873,"lon":5.39742,"is_reserved":false,"is_disabled":true,"rental_uris":{"android":"levelo://app?vid=7fdabec5-a302-4325-baf7-e267db476a4f","ios":"levelo://app?vid=7fdabec5-a302-4325-baf7-e267db476a4f"},"vehicle_type_id":"4","last_reported":1744186452,"current_range_meters":19600,"station_id":"ce4bh0h2rcd13ifvqd50","pricing_plan_id":"cebpf4jnsgd1na2vs0mg"},{"bike_id":"ffa5d5ed-a086-4f86-b677-df68ddd7ba17","system_id":"levelo_inurba_marseille","lat":43.3095,"lon":5.39031,"is_reserved":false,"is_disabled":false,"rental_uris":{"android":"levelo://app?vid=ffa5d5ed-a086-4f86-b677-df68ddd7ba17","ios":"levelo://app?vid=ffa5d5ed-a086-4f86-b677-df68ddd7ba17"},"vehicle_type_id":"4","last_reported":1744186452,"current_range_meters":19600,"station_id":"ce4bgup2rcd13ifvqco0","pricing_plan_id":"cebpf4jnsgd1na2vs0mg"},{"bike_id":"ed32de37-66e8-4fe8-b613-74f9e5810cd6","system_id":"levelo_inurba_marseille","lat":43.31147,"lon":5.37355,"is_reserved":false,"is_disabled":false,"rental_uris":{"android":"levelo://app?vid=ed32de37-66e8-4fe8-b613-74f9e5810cd6","ios":"levelo://app?vid=ed32de37-66e8-4fe8-b613-74f9e5810cd6"},"vehicle_type_id":"4","last_reported":1744186452,"current_range_meters":19600,"station_id":"","pricing_plan_id":"cebpf4jnsgd1na2vs0mg"},{"bike_id":"eae07e3f-5b69-4234-b4b3-e46e12449d78","system_id":"levelo_inurba_marseille","lat":43.30951,"lon":5.39037,"is_reserved":false,"is_disabled":false,"rental_uris":{"android":"levelo://app?vid=eae07e3f-5b69-4234-b4b3-e46e12449d78","ios":"levelo://app?vid=eae07e3f-5b69-4234-b4b3-e46e12449d78"},"vehicle_type_id":"4","last_reported":1744186452,"current_range_meters":19600,"station_id":"ce4bgup2rcd13ifvqco0","pricing_plan_id":"cebpf4jnsgd1na2vs0mg"},{"bike_id":"535edcb6-4e96-4bf3-b2e3-8c4ed094978f","system_id":"levelo_inurba_marseille","lat":43.29514,"lon":5.39046,"is_reserved":false,"is_disabled":false,"rental_uris":{"android":"levelo://app?vid=535edcb6-4e96-4bf3-b2e3-8c4ed094978f","ios":"levelo://app?vid=535edcb6-4e96-4bf3-b2e3-8c4ed094978f"},"vehicle_type_id":"4","last_reported":1744186452,"current_range_meters":19600,"station_id":"ce4bh3p2rcd13ifvqdp0","pricing_plan_id":"cebpf4jnsgd1na2vs0mg"},{"bike_id":"0ce0317b-4600-4219-b71c-6b0d5ae3a6ef","system_id":"levelo_inurba_marseille","lat":43.25941,"lon":5.40907,"is_reserved":false,"is_disabled":false,"rental_uris":{"android":"levelo://app?vid=0ce0317b-4600-4219-b71c-6b0d5ae3a6ef","ios":"levelo://app?vid=0ce0317b-4600-4219-b71c-6b0d5ae3a6ef"},"vehicle_type_id":"4","last_reported":1744186452,"current_range_meters":19600,"station_id":"ce4bhm92rcd13ifvqglg","pricing_plan_id":"cebpf4jnsgd1na2vs0mg"},{"bike_id":"600aff3c-d6d9-47d1-a6ea-813390aae2ad","system_id":"levelo_inurba_marseille","lat":43.308783,"lon":5.371957,"is_reserved":false,"is_disabled":true,"rental_uris":{"android":"levelo://app?vid=600aff3c-d6d9-47d1-a6ea-813390aae2ad","ios":"levelo://app?vid=600aff3c-d6d9-47d1-a6ea-813390aae2ad"},"vehicle_type_id":"4","last_reported":1744186452,"current_range_meters":19600,"station_id":"ce4bguh2rcd13ifvqckg","pricing_plan_id":"cebpf4jnsgd1na2vs0mg"},{"bike_id":"f0238097-11e6-403e-9451-f27512008154","system_id":"levelo_inurba_marseille","lat":43.2862,"lon":5.35101,"is_reserved":false,"is_disabled":false,"rental_uris":{"android":"levelo://app?vid=f0238097-11e6-403e-9451-f27512008154","ios":"levelo://app?vid=f0238097-11e6-403e-9451-f27512008154"},"vehicle_type_id":"4","last_reported":1744186452,"current_range_meters":19600,"station_id":"ce4bhch2rcd13ifvqeug","pricing_plan_id":"cebpf4jnsgd1na2vs0mg"},{"bike_id":"694ae6a8-dce5-407b-b879-65b5af1fbe80","system_id":"levelo_inurba_marseille","lat":43.28494,"lon":5.38584,"is_reserved":false,"is_disabled":false,"rental_uris":{"android":"levelo://app?vid=694ae6a8-dce5-407b-b879-65b5af1fbe80","ios":"levelo://app?vid=694ae6a8-dce5-407b-b879-65b5af1fbe80"},"vehicle_type_id":"4","last_reported":1744186452,"current_range_meters":20000,"station_id":"ce4bh8p2rcd13ifvqeb0","pricing_plan_id":"cebpf4jnsgd1na2vs0mg"},{"bike_id":"2f2f9b1c-6383-4b08-b564-e51ce4ea1997","system_id":"levelo_inurba_marseille","lat":43.29298,"lon":5.37433,"is_reserved":false,"is_disabled":true,"rental_uris":{"android":"levelo://app?vid=2f2f9b1c-6383-4b08-b564-e51ce4ea1997","ios":"levelo://app?vid=2f2f9b1c-6383-4b08-b564-e51ce4ea1997"},"vehicle_type_id":"4","last_reported":1744186452,"current_range_meters":19600,"station_id":"ce4bgi12rcd13ifvqb70","pricing_plan_id":"cebpf4jnsgd1na2vs0mg"},{"bike_id":"35648edf-5b72-4c83-a25a-28f9cda4c923","system_id":"levelo_inurba_marseille","lat":43.29409,"lon":5.38601,"is_reserved":false,"is_disabled":false,"rental_uris":{"android":"levelo://app?vid=35648edf-5b72-4c83-a25a-28f9cda4c923","ios":"levelo://app?vid=35648edf-5b72-4c83-a25a-28f9cda4c923"},"vehicle_type_id":"4","last_reported":1744186452,"current_range_meters":20000,"station_id":"ce4bh2h2rcd13ifvqdh0","pricing_plan_id":"cebpf4jnsgd1na2vs0mg"},{"bike_id":"c51ff168-1417-4963-901e-87fddeb1f856","system_id":"levelo_inurba_marseille","lat":43.33774,"lon":5.37476,"is_reserved":false,"is_disabled":false,"rental_uris":{"android":"levelo://app?vid=c51ff168-1417-4963-901e-87fddeb1f856","ios":"levelo://app?vid=c51ff168-1417-4963-901e-87fddeb1f856"},"vehicle_type_id":"4","last_reported":1744186452,"current_range_meters":20000,"station_id":"","pricing_plan_id":"cebpf4jnsgd1na2vs0mg"},{"bike_id":"0af41378-490b-4082-a76f-6598e96ab451","system_id":"levelo_inurba_marseille","lat":43.24166,"lon":5.39737,"is_reserved":false,"is_disabled":false,"rental_uris":{"android":"levelo://app?vid=0af41378-490b-4082-a76f-6598e96ab451","ios":"levelo://app?vid=0af41378-490b-4082-a76f-6598e96ab451"},"vehicle_type_id":"4","last_reported":1744186452,"current_range_meters":20400,"station_id":"ce4bhn12rcd13ifvqgpg","pricing_plan_id":"cebpf4jnsgd1na2vs0mg"},{"bike_id":"fa60a937-6c91-4585-a028-8394b67693ff","system_id":"levelo_inurba_marseille","lat":43.28141,"lon":5.42651,"is_reserved":false,"is_disabled":false,"rental_uris":{"android":"levelo://app?vid=fa60a937-6c91-4585-a028-8394b67693ff","ios":"levelo://app?vid=fa60a937-6c91-4585-a028-8394b67693ff"},"vehicle_type_id":"4","last_reported":1744186452,"current_range_meters":20400,"station_id":"ce4bhnh2rcd13ifvqgug","pricing_plan_id":"cebpf4jnsgd1na2vs0mg"},{"bike_id":"231aaa88-1e79-4a74-a543-651d8fd5a027","system_id":"levelo_inurba_marseille","lat":43.33076,"lon":5.40513,"is_reserved":false,"is_disabled":false,"rental_uris":{"android":"levelo://app?vid=231aaa88-1e79-4a74-a543-651d8fd5a027","ios":"levelo://app?vid=231aaa88-1e79-4a74-a543-651d8fd5a027"},"vehicle_type_id":"4","last_reported":1744186452,"current_range_meters":20400,"station_id":"","pricing_plan_id":"cebpf4jnsgd1na2vs0mg"},{"bike_id":"ef291804-1477-432e-b153-82ea15725418","system_id":"levelo_inurba_marseille","lat":43.33777,"lon":5.37486,"is_reserved":false,"is_disabled":false,"rental_uris":{"android":"levelo://app?vid=ef291804-1477-432e-b153-82ea15725418","ios":"levelo://app?vid=ef291804-1477-432e-b153-82ea15725418"},"vehicle_type_id":"4","last_reported":1744186452,"current_range_meters":20400,"station_id":"","pricing_plan_id":"cebpf4jnsgd1na2vs0mg"},{"bike_id":"7850e2dc-93fa-4054-baad-745997674d81","system_id":"levelo_inurba_marseille","lat":43.29545,"lon":5.42269,"is_reserved":false,"is_disabled":false,"rental_uris":{"android":"levelo://app?vid=7850e2dc-93fa-4054-baad-745997674d81","ios":"levelo://app?vid=7850e2dc-93fa-4054-baad-745997674d81"},"vehicle_type_id":"4","last_reported":1744186452,"current_range_meters":20400,"station_id":"ce4bhph2rcd13ifvqhdg","pricing_plan_id":"cebpf4jnsgd1na2vs0mg"},{"bike_id":"322304d1-7d02-4c63-ab56-b472942145f1","system_id":"levelo_inurba_marseille","lat":43.32678,"lon":5.40968,"is_reserved":false,"is_disabled":false,"rental_uris":{"android":"levelo://app?vid=322304d1-7d02-4c63-ab56-b472942145f1","ios":"levelo://app?vid=322304d1-7d02-4c63-ab56-b472942145f1"},"vehicle_type_id":"4","last_reported":1744186452,"current_range_meters":20400,"station_id":"ce4bhpp2rcd13ifvqhgg","pricing_plan_id":"cebpf4jnsgd1na2vs0mg"},{"bike_id":"907fe04c-e8df-4ebd-bda2-b86cbb1df913","system_id":"levelo_inurba_marseille","lat":43.297344,"lon":5.395156,"is_reserved":false,"is_disabled":false,"rental_uris":{"android":"levelo://app?vid=907fe04c-e8df-4ebd-bda2-b86cbb1df913","ios":"levelo://app?vid=907fe04c-e8df-4ebd-bda2-b86cbb1df913"},"vehicle_type_id":"4","last_reported":1744186452,"current_range_meters":20400,"station_id":"ce4bgip2rcd13ifvqbb0","pricing_plan_id":"cebpf4jnsgd1na2vs0mg"},{"bike_id":"39d569f2-804d-4c1f-93cb-ffdd8bba0563","system_id":"levelo_inurba_marseille","lat":43.30533,"lon":5.38434,"is_reserved":false,"is_disabled":true,"rental_uris":{"android":"levelo://app?vid=39d569f2-804d-4c1f-93cb-ffdd8bba0563","ios":"levelo://app?vid=39d569f2-804d-4c1f-93cb-ffdd8bba0563"},"vehicle_type_id":"4","last_reported":1744186452,"current_range_meters":20800,"station_id":"ce4bgg92rcd13ifvqb30","pricing_plan_id":"cebpf4jnsgd1na2vs0mg"},{"bike_id":"7f1ba787-92dd-4dba-9382-fee0c05de14c","system_id":"levelo_inurba_marseille","lat":43.27915,"lon":5.39582,"is_reserved":false,"is_disabled":false,"rental_uris":{"android":"levelo://app?vid=7f1ba787-92dd-4dba-9382-fee0c05de14c","ios":"levelo://app?vid=7f1ba787-92dd-4dba-9382-fee0c05de14c"},"vehicle_type_id":"4","last_reported":1744186452,"current_range_meters":20400,"station_id":"ce4bhf92rcd13ifvqf40","pricing_plan_id":"cebpf4jnsgd1na2vs0mg"},{"bike_id":"2b54a496-5bb2-42c4-bb01-6f1e5c2215a7","system_id":"levelo_inurba_marseille","lat":43.30809,"lon":5.37694,"is_reserved":false,"is_disabled":true,"rental_uris":{"android":"levelo://app?vid=2b54a496-5bb2-42c4-bb01-6f1e5c2215a7","ios":"levelo://app?vid=2b54a496-5bb2-42c4-bb01-6f1e5c2215a7"},"vehicle_type_id":"4","last_reported":1744186452,"current_range_meters":20800,"station_id":"ce4bgv92rcd13ifvqcq0","pricing_plan_id":"cebpf4jnsgd1na2vs0mg"},{"bike_id":"188091d5-4373-4192-8373-9fa16437d46a","system_id":"levelo_inurba_marseille","lat":43.29514,"lon":5.39043,"is_reserved":false,"is_disabled":false,"rental_uris":{"android":"levelo://app?vid=188091d5-4373-4192-8373-9fa16437d46a","ios":"levelo://app?vid=188091d5-4373-4192-8373-9fa16437d46a"},"vehicle_type_id":"4","last_reported":1744186452,"current_range_meters":20800,"station_id":"ce4bh3p2rcd13ifvqdp0","pricing_plan_id":"cebpf4jnsgd1na2vs0mg"},{"bike_id":"6c63e1cd-38d4-4380-9c7d-06de55597b25","system_id":"levelo_inurba_marseille","lat":43.231522,"lon":5.437173,"is_reserved":false,"is_disabled":false,"rental_uris":{"android":"levelo://app?vid=6c63e1cd-38d4-4380-9c7d-06de55597b25","ios":"levelo://app?vid=6c63e1cd-38d4-4380-9c7d-06de55597b25"},"vehicle_type_id":"4","last_reported":1744186452,"current_range_meters":21600,"station_id":"ce4bhmp2rcd13ifvqgog","pricing_plan_id":"cebpf4jnsgd1na2vs0mg"},{"bike_id":"1006b375-f33b-4d86-9c2d-a03b2c58365f","system_id":"levelo_inurba_marseille","lat":43.29264,"lon":5.37617,"is_reserved":false,"is_disabled":false,"rental_uris":{"android":"levelo://app?vid=1006b375-f33b-4d86-9c2d-a03b2c58365f","ios":"levelo://app?vid=1006b375-f33b-4d86-9c2d-a03b2c58365f"},"vehicle_type_id":"4","last_reported":1744186452,"current_range_meters":21600,"station_id":"ce4bgi12rcd13ifvqb80","pricing_plan_id":"cebpf4jnsgd1na2vs0mg"},{"bike_id":"aa2c077b-94a8-4ca8-a1bd-72df56270d30","system_id":"levelo_inurba_marseille","lat":43.25585,"lon":5.38261,"is_reserved":false,"is_disabled":false,"rental_uris":{"android":"levelo://app?vid=aa2c077b-94a8-4ca8-a1bd-72df56270d30","ios":"levelo://app?vid=aa2c077b-94a8-4ca8-a1bd-72df56270d30"},"vehicle_type_id":"4","last_reported":1744186452,"current_range_meters":21600,"station_id":"ce4bhih2rcd13ifvqfs0","pricing_plan_id":"cebpf4jnsgd1na2vs0mg"},{"bike_id":"0283608e-5631-4128-a841-d317e898aab9","system_id":"levelo_inurba_marseille","lat":43.30539,"lon":5.36717,"is_reserved":false,"is_disabled":false,"rental_uris":{"android":"levelo://app?vid=0283608e-5631-4128-a841-d317e898aab9","ios":"levelo://app?vid=0283608e-5631-4128-a841-d317e898aab9"},"vehicle_type_id":"4","last_reported":1744186452,"current_range_meters":21600,"station_id":"ce4bgrp2rcd13ifvqc9g","pricing_plan_id":"cebpf4jnsgd1na2vs0mg"},{"bike_id":"c8242812-2fe1-4d64-99ab-c17120ec4676","system_id":"levelo_inurba_marseille","lat":43.28464,"lon":5.38419,"is_reserved":false,"is_disabled":false,"rental_uris":{"android":"levelo://app?vid=c8242812-2fe1-4d64-99ab-c17120ec4676","ios":"levelo://app?vid=c8242812-2fe1-4d64-99ab-c17120ec4676"},"vehicle_type_id":"4","last_reported":1744186452,"current_range_meters":21600,"station_id":"ce4bh512rcd13ifvqe3g","pricing_plan_id":"cebpf4jnsgd1na2vs0mg"},{"bike_id":"d64648ad-988e-4859-9e47-00782dbc6c22","system_id":"levelo_inurba_marseille","lat":43.23149,"lon":5.43719,"is_reserved":false,"is_disabled":false,"rental_uris":{"android":"levelo://app?vid=d64648ad-988e-4859-9e47-00782dbc6c22","ios":"levelo://app?vid=d64648ad-988e-4859-9e47-00782dbc6c22"},"vehicle_type_id":"4","last_reported":1744186452,"current_range_meters":21600,"station_id":"ce4bhmp2rcd13ifvqgog","pricing_plan_id":"cebpf4jnsgd1na2vs0mg"},{"bike_id":"9c123c85-6148-46e3-a553-411baf8b75b4","system_id":"levelo_inurba_marseille","lat":43.296867,"lon":5.379076,"is_reserved":false,"is_disabled":false,"rental_uris":{"android":"levelo://app?vid=9c123c85-6148-46e3-a553-411baf8b75b4","ios":"levelo://app?vid=9c123c85-6148-46e3-a553-411baf8b75b4"},"vehicle_type_id":"4","last_reported":1744186452,"current_range_meters":21600,"station_id":"ce4bgup2rcd13ifvqco0","pricing_plan_id":"cebpf4jnsgd1na2vs0mg"},{"bike_id":"09ed934c-4e4d-4fc7-891c-21e8f70fcc16","system_id":"levelo_inurba_marseille","lat":43.29515,"lon":5.39046,"is_reserved":false,"is_disabled":false,"rental_uris":{"android":"levelo://app?vid=09ed934c-4e4d-4fc7-891c-21e8f70fcc16","ios":"levelo://app?vid=09ed934c-4e4d-4fc7-891c-21e8f70fcc16"},"vehicle_type_id":"4","last_reported":1744186452,"current_range_meters":20800,"station_id":"ce4bh3p2rcd13ifvqdp0","pricing_plan_id":"cebpf4jnsgd1na2vs0mg"},{"bike_id":"9dd4623a-1856-4da1-b6f2-575f4b7a0640","system_id":"levelo_inurba_marseille","lat":43.23144,"lon":5.43723,"is_reserved":false,"is_disabled":false,"rental_uris":{"android":"levelo://app?vid=9dd4623a-1856-4da1-b6f2-575f4b7a0640","ios":"levelo://app?vid=9dd4623a-1856-4da1-b6f2-575f4b7a0640"},"vehicle_type_id":"4","last_reported":1744186452,"current_range_meters":21600,"station_id":"ce4bhmp2rcd13ifvqgog","pricing_plan_id":"cebpf4jnsgd1na2vs0mg"},{"bike_id":"b38429e7-fc9a-4dce-bcb9-4566583205d0","system_id":"levelo_inurba_marseille","lat":43.30156,"lon":5.3806,"is_reserved":false,"is_disabled":false,"rental_uris":{"android":"levelo://app?vid=b38429e7-fc9a-4dce-bcb9-4566583205d0","ios":"levelo://app?vid=b38429e7-fc9a-4dce-bcb9-4566583205d0"},"vehicle_type_id":"4","last_reported":1744186452,"current_range_meters":21600,"station_id":"ce4bgjp2rcd13ifvqbh0","pricing_plan_id":"cebpf4jnsgd1na2vs0mg"},{"bike_id":"36883057-499b-458b-9f5f-5bf3c0f09345","system_id":"levelo_inurba_marseille","lat":43.305358,"lon":5.367018,"is_reserved":false,"is_disabled":false,"rental_uris":{"android":"levelo://app?vid=36883057-499b-458b-9f5f-5bf3c0f09345","ios":"levelo://app?vid=36883057-499b-458b-9f5f-5bf3c0f09345"},"vehicle_type_id":"4","last_reported":1744186452,"current_range_meters":21600,"station_id":"ce4bgrp2rcd13ifvqc9g","pricing_plan_id":"cebpf4jnsgd1na2vs0mg"},{"bike_id":"72a00ed5-0598-41be-ac79-894149e24468","system_id":"levelo_inurba_marseille","lat":43.24992,"lon":5.3894,"is_reserved":false,"is_disabled":false,"rental_uris":{"android":"levelo://app?vid=72a00ed5-0598-41be-ac79-894149e24468","ios":"levelo://app?vid=72a00ed5-0598-41be-ac79-894149e24468"},"vehicle_type_id":"4","last_reported":1744186452,"current_range_meters":22000,"station_id":"ce4bhgp2rcd13ifvqfd0","pricing_plan_id":"cebpf4jnsgd1na2vs0mg"},{"bike_id":"5710a576-adab-4021-a2fd-cfa3ffb56c6d","system_id":"levelo_inurba_marseille","lat":43.27202,"lon":5.39191,"is_reserved":false,"is_disabled":false,"rental_uris":{"android":"levelo://app?vid=5710a576-adab-4021-a2fd-cfa3ffb56c6d","ios":"levelo://app?vid=5710a576-adab-4021-a2fd-cfa3ffb56c6d"},"vehicle_type_id":"4","last_reported":1744186452,"current_range_meters":21600,"station_id":"ce4bhhp2rcd13ifvqfm0","pricing_plan_id":"cebpf4jnsgd1na2vs0mg"},{"bike_id":"398bb198-1c39-41b4-9c90-92e8eb80d230","system_id":"levelo_inurba_marseille","lat":43.30616,"lon":5.39357,"is_reserved":false,"is_disabled":true,"rental_uris":{"android":"levelo://app?vid=398bb198-1c39-41b4-9c90-92e8eb80d230","ios":"levelo://app?vid=398bb198-1c39-41b4-9c90-92e8eb80d230"},"vehicle_type_id":"4","last_reported":1744186452,"current_range_meters":22000,"station_id":"ce4bh0p2rcd13ifvqd80","pricing_plan_id":"cebpf4jnsgd1na2vs0mg"},{"bike_id":"9d3e76f9-45fd-46f8-afa5-526c6449db0f","system_id":"levelo_inurba_marseille","lat":43.32473,"lon":5.36582,"is_reserved":false,"is_disabled":false,"rental_uris":{"android":"levelo://app?vid=9d3e76f9-45fd-46f8-afa5-526c6449db0f","ios":"levelo://app?vid=9d3e76f9-45fd-46f8-afa5-526c6449db0f"},"vehicle_type_id":"4","last_reported":1744186452,"current_range_meters":22000,"station_id":"ce4bhs12rcd13ifvqhvg","pricing_plan_id":"cebpf4jnsgd1na2vs0mg"},{"bike_id":"b5e4438f-d942-444d-8724-ea5468be5782","system_id":"levelo_inurba_marseille","lat":43.28149,"lon":5.42647,"is_reserved":false,"is_disabled":false,"rental_uris":{"android":"levelo://app?vid=b5e4438f-d942-444d-8724-ea5468be5782","ios":"levelo://app?vid=b5e4438f-d942-444d-8724-ea5468be5782"},"vehicle_type_id":"4","last_reported":1744186452,"current_range_meters":22000,"station_id":"ce4bhnh2rcd13ifvqgug","pricing_plan_id":"cebpf4jnsgd1na2vs0mg"},{"bike_id":"12d7fd52-b197-49ec-8c68-b5a7bf8777df","system_id":"levelo_inurba_marseille","lat":43.30887,"lon":5.36865,"is_reserved":false,"is_disabled":false,"rental_uris":{"android":"levelo://app?vid=12d7fd52-b197-49ec-8c68-b5a7bf8777df","ios":"levelo://app?vid=12d7fd52-b197-49ec-8c68-b5a7bf8777df"},"vehicle_type_id":"4","last_reported":1744186452,"current_range_meters":22000,"station_id":"ce4bgn92rcd13ifvqbvg","pricing_plan_id":"cebpf4jnsgd1na2vs0mg"},{"bike_id":"70858665-0937-45cd-a0bd-1f4102a32ea6","system_id":"levelo_inurba_marseille","lat":43.31241,"lon":5.36856,"is_reserved":false,"is_disabled":true,"rental_uris":{"android":"levelo://app?vid=70858665-0937-45cd-a0bd-1f4102a32ea6","ios":"levelo://app?vid=70858665-0937-45cd-a0bd-1f4102a32ea6"},"vehicle_type_id":"4","last_reported":1744186452,"current_range_meters":22000,"station_id":"","pricing_plan_id":"cebpf4jnsgd1na2vs0mg"},{"bike_id":"031919f8-7b14-4cc9-81c2-ff6221f3cfdb","system_id":"levelo_inurba_marseille","lat":43.29274,"lon":5.36853,"is_reserved":false,"is_disabled":false,"rental_uris":{"android":"levelo://app?vid=031919f8-7b14-4cc9-81c2-ff6221f3cfdb","ios":"levelo://app?vid=031919f8-7b14-4cc9-81c2-ff6221f3cfdb"},"vehicle_type_id":"4","last_reported":1744186452,"current_range_meters":22400,"station_id":"ce4bhbp2rcd13ifvqesg","pricing_plan_id":"cebpf4jnsgd1na2vs0mg"},{"bike_id":"8aa2d037-dd5d-432c-aee8-c7a5a1444baa","system_id":"levelo_inurba_marseille","lat":43.30469,"lon":5.37908,"is_reserved":false,"is_disabled":false,"rental_uris":{"android":"levelo://app?vid=8aa2d037-dd5d-432c-aee8-c7a5a1444baa","ios":"levelo://app?vid=8aa2d037-dd5d-432c-aee8-c7a5a1444baa"},"vehicle_type_id":"4","last_reported":1744186452,"current_range_meters":22400,"station_id":"ce4bgup2rcd13ifvqcn0","pricing_plan_id":"cebpf4jnsgd1na2vs0mg"},{"bike_id":"6e668670-6544-461f-9577-fdc751e4bb8d","system_id":"levelo_inurba_marseille","lat":43.31336,"lon":5.36717,"is_reserved":false,"is_disabled":false,"rental_uris":{"android":"levelo://app?vid=6e668670-6544-461f-9577-fdc751e4bb8d","ios":"levelo://app?vid=6e668670-6544-461f-9577-fdc751e4bb8d"},"vehicle_type_id":"4","last_reported":1744186452,"current_range_meters":22400,"station_id":"ce4bgr92rcd13ifvqc6g","pricing_plan_id":"cebpf4jnsgd1na2vs0mg"},{"bike_id":"842b7dd8-eec6-4566-aae6-00557caaf3ae","system_id":"levelo_inurba_marseille","lat":43.30278,"lon":5.37697,"is_reserved":false,"is_disabled":false,"rental_uris":{"android":"levelo://app?vid=842b7dd8-eec6-4566-aae6-00557caaf3ae","ios":"levelo://app?vid=842b7dd8-eec6-4566-aae6-00557caaf3ae"},"vehicle_type_id":"4","last_reported":1744186452,"current_range_meters":22400,"station_id":"ce4bguh2rcd13ifvqcj0","pricing_plan_id":"cebpf4jnsgd1na2vs0mg"},{"bike_id":"55f362f6-4611-49dd-b9c4-3ca8b4ab8071","system_id":"levelo_inurba_marseille","lat":43.29517,"lon":5.39046,"is_reserved":false,"is_disabled":false,"rental_uris":{"android":"levelo://app?vid=55f362f6-4611-49dd-b9c4-3ca8b4ab8071","ios":"levelo://app?vid=55f362f6-4611-49dd-b9c4-3ca8b4ab8071"},"vehicle_type_id":"4","last_reported":1744186452,"current_range_meters":22400,"station_id":"ce4bh3p2rcd13ifvqdp0","pricing_plan_id":"cebpf4jnsgd1na2vs0mg"},{"bike_id":"7172472e-8ba3-48fd-9f15-197348a66433","system_id":"levelo_inurba_marseille","lat":43.33604,"lon":5.41029,"is_reserved":false,"is_disabled":false,"rental_uris":{"android":"levelo://app?vid=7172472e-8ba3-48fd-9f15-197348a66433","ios":"levelo://app?vid=7172472e-8ba3-48fd-9f15-197348a66433"},"vehicle_type_id":"4","last_reported":1744186452,"current_range_meters":22400,"station_id":"ce4bhqh2rcd13ifvqhmg","pricing_plan_id":"cebpf4jnsgd1na2vs0mg"},{"bike_id":"4d53a434-4ced-4289-9ade-568fa60099c9","system_id":"levelo_inurba_marseille","lat":43.28618,"lon":5.35108,"is_reserved":false,"is_disabled":false,"rental_uris":{"android":"levelo://app?vid=4d53a434-4ced-4289-9ade-568fa60099c9","ios":"levelo://app?vid=4d53a434-4ced-4289-9ade-568fa60099c9"},"vehicle_type_id":"4","last_reported":1744186452,"current_range_meters":22400,"station_id":"ce4bhch2rcd13ifvqeug","pricing_plan_id":"cebpf4jnsgd1na2vs0mg"},{"bike_id":"e6c27eee-6f6f-438a-a981-a699fffb1d34","system_id":"levelo_inurba_marseille","lat":43.29524,"lon":5.38558,"is_reserved":false,"is_disabled":false,"rental_uris":{"android":"levelo://app?vid=e6c27eee-6f6f-438a-a981-a699fffb1d34","ios":"levelo://app?vid=e6c27eee-6f6f-438a-a981-a699fffb1d34"},"vehicle_type_id":"4","last_reported":1744186452,"current_range_meters":22400,"station_id":"ce4bgih2rcd13ifvqba0","pricing_plan_id":"cebpf4jnsgd1na2vs0mg"},{"bike_id":"01630ea0-5332-433a-a16e-6f3673dfcb0c","system_id":"levelo_inurba_marseille","lat":43.24164,"lon":5.39737,"is_reserved":false,"is_disabled":false,"rental_uris":{"android":"levelo://app?vid=01630ea0-5332-433a-a16e-6f3673dfcb0c","ios":"levelo://app?vid=01630ea0-5332-433a-a16e-6f3673dfcb0c"},"vehicle_type_id":"4","last_reported":1744186452,"current_range_meters":22800,"station_id":"ce4bhn12rcd13ifvqgpg","pricing_plan_id":"cebpf4jnsgd1na2vs0mg"},{"bike_id":"a9202f0d-8fa4-4a81-af80-5d15c0ffd09d","system_id":"levelo_inurba_marseille","lat":43.26192,"lon":5.37449,"is_reserved":false,"is_disabled":false,"rental_uris":{"android":"levelo://app?vid=a9202f0d-8fa4-4a81-af80-5d15c0ffd09d","ios":"levelo://app?vid=a9202f0d-8fa4-4a81-af80-5d15c0ffd09d"},"vehicle_type_id":"4","last_reported":1744186452,"current_range_meters":22800,"station_id":"ce4bhgp2rcd13ifvqfc0","pricing_plan_id":"cebpf4jnsgd1na2vs0mg"},{"bike_id":"593cc697-220e-4df3-9f2b-b1793070fa32","system_id":"levelo_inurba_marseille","lat":43.3055,"lon":5.36522,"is_reserved":false,"is_disabled":false,"rental_uris":{"android":"levelo://app?vid=593cc697-220e-4df3-9f2b-b1793070fa32","ios":"levelo://app?vid=593cc697-220e-4df3-9f2b-b1793070fa32"},"vehicle_type_id":"4","last_reported":1744186452,"current_range_meters":22800,"station_id":"ce4bgs12rcd13ifvqcag","pricing_plan_id":"cebpf4jnsgd1na2vs0mg"},