{"last_updated":1773537655,"ttl":60,"version":"2.2","data":{"bikes":[{"bike_id":"4853eebb-ab61-45f6-ad42-3d4e196de01e","system_id":"levelo_inurba_marseille","lat":43.30728,"lon":5.42427,"is_reserved":false,"is_disabled":false,"rental_uris":{"android":"levelo://app?vid=4853eebb-ab61-45f6-ad42-3d4e196de01e","ios":"levelo://app?vid=4853eebb-ab61-45f6-ad42-3d4e196de01e"},"vehicle_type_id":"4","last_reported":1773537656,"current_range_meters":39200,"station_id":"st_cvj6ca6bvosntc0bfgr0","pricing_plan_id":"cebpf4jnsgd1na2vs0mg"},{"bike_id":"c3c798ec-5d8a-4061-a1f0-4918769a5444","system_id":"levelo_inurba_marseille","lat":43.30366,"lon":5.41805,"is_reserved":false,"is_disabled":false,"rental_uris":{"android":"levelo://app?vid=c3c798ec-5d8a-4061-a1f0-4918769a5444","ios":"levelo://app?vid=c3c798ec-5d8a-4061-a1f0-4918769a5444"},"vehicle_type_id":"4","last_reported":1773537656,"current_range_meters":36800,"station_id":"ce4bhop2rcd13ifvqh7g","pricing_plan_id":"cebpf4jnsgd1na2vs0mg"},{"bike_id":"da5e9106-2b9a-46b0-a192-bdd9c489fe6b","system_id":"levelo_inurba_marseille","lat":43.27917,"lon":5.39581,"is_reserved":false,"is_disabled":false,"rental_uris":{"android":"levelo://app?vid=da5e9106-2b9a-46b0-a192-bdd9c489fe6b","ios":"levelo://app?vid=da5e9106-2b9a-46b0-a192-bdd9c489fe6b"},"vehicle_type_id":"4","last_reported":1773537656,"current_range_meters":33600,"station_id":"ce4bhf92rcd13ifvqf40","pricing_plan_id":"cebpf4jnsgd1na2vs0mg"},{"bike_id":"4ee1719e-9828-41ad-ab0e-ac501a6f8dcb","system_id":"levelo_inurba_marseille","lat":43.26044,"lon":5.39404,"is_reserved":false,"is_disabled":false,"rental_uris":{"android":"levelo://app?vid=4ee1719e-9828-41ad-ab0e-ac501a6f8dcb","ios":"levelo://app?vid=4ee1719e-9828-41ad-ab0e-ac501a6f8dcb"},"vehicle_type_id":"4","last_reported":1773537656,"current_range_meters":8400,"station_id":"ce4bhh92rcd13ifvqfj0","pricing_plan_id":"cebpf4jnsgd1na2vs0mg"},{"bike_id":"e4c6d513-0f75-4d36-ab87-e09b44465632","system_id":"levelo_inurba_marseille","lat":43.27386,"lon":5.36258,"is_reserved":false,"is_disabled":true,"rental_uris":{"android":"levelo://app?vid=e4c6d513-0f75-4d36-ab87-e09b44465632","ios":"levelo://app?vid=e4c6d513-0f75-4d36-ab87-e09b44465632"},"vehicle_type_id":"4","last_reported":1773537656,"current_range_meters":36400,"station_id":"ce4bhbh2rcd13ifvqeo0","pricing_plan_id":"cebpf4jnsgd1na2vs0mg"},{"bike_id":"2d79bb9d-65d7-439b-ae60-af66c35a3132","system_id":"levelo_inurba_marseille","lat":43.284412,"lon":5.375429,"is_reserved":false,"is_disabled":false,"rental_uris":{"android":"levelo://app?vid=2d79bb9d-65d7-439b-ae60-af66c35a3132","ios":"levelo://app?vid=2d79bb9d-65d7-439b-ae60-af66c35a3132"},"vehicle_type_id":"4","last_reported":1773537656,"current_range_meters":9200,"station_id":"ce4bgkh2rcd13ifvqbk0","pricing_plan_id":"cebpf4jnsgd1na2vs0mg"},{"bike_id":"9f2a1746-11d8-47f0-bf04-a3c09370326f","system_id":"levelo_inurba_marseille","lat":43.2846,"lon":5.35886,"is_reserved":false,"is_disabled":false,"rental_uris":{"android":"levelo://app?vid=9f2a1746-11d8-47f0-bf04-a3c09370326f","ios":"levelo://app?vid=9f2a1746-11d8-47f0-bf04-a3c09370326f"},"vehicle_type_id":"4","last_reported":1773537656,"current_range_meters":20000,"station_id":"ce4bhah2rcd13ifvqei0","pricing_plan_id":"cebpf4jnsgd1na2vs0mg"},{"bike_id":"dfd0a0f6-5285-4bd7-80a4-14fead877d67","system_id":"levelo_inurba_marseille","lat":43.25105,"lon":5.39487,"is_reserved":false,"is_disabled":false,"rental_uris":{"android":"levelo://app?vid=dfd0a0f6-5285-4bd7-80a4-14fead877d67","ios":"levelo://app?vid=dfd0a0f6-5285-4bd7-80a4-14fead877d67"},"vehicle_type_id":"4","last_reported":1773537656,"current_range_meters":30400,"station_id":"ce4bhm12rcd13ifvqgkg","pricing_plan_id":"cebpf4jnsgd1na2vs0mg"},{"bike_id":"9a7da94c-06ba-4f33-9843-7cc87e049986","system_id":"levelo_inurba_marseille","lat":43.31281,"lon":5.40166,"is_reserved":false,"is_disabled":false,"rental_uris":{"android":"levelo://app?vid=9a7da94c-06ba-4f33-9843-7cc87e049986","ios":"levelo://app?vid=9a7da94c-06ba-4f33-9843-7cc87e049986"},"vehicle_type_id":"4","last_reported":1773537656,"current_range_meters":8400,"station_id":"ce4bh092rcd13ifvqd30","pricing_plan_id":"cebpf4jnsgd1na2vs0mg"},{"bike_id":"18f35d94-7133-4b4b-a629-0bec9d48af36","system_id":"levelo_inurba_marseille","lat":43.28479,"lon":5.48366,"is_reserved":false,"is_disabled":false,"rental_uris":{"android":"levelo://app?vid=18f35d94-7133-4b4b-a629-0bec9d48af36","ios":"levelo://app?vid=18f35d94-7133-4b4b-a629-0bec9d48af36"},"vehicle_type_id":"4","last_reported":1773537656,"current_range_meters":24400,"station_id":"","pricing_plan_id":"cebpf4jnsgd1na2vs0mg"},{"bike_id":"058a40ef-aca0-46a1-b31e-3c5dc3514929","system_id":"levelo_inurba_marseille","lat":43.28421,"lon":5.34966,"is_reserved":false,"is_disabled":false,"rental_uris":{"android":"levelo://app?vid=058a40ef-aca0-46a1-b31e-3c5dc3514929","ios":"levelo://app?vid=058a40ef-aca0-46a1-b31e-3c5dc3514929"},"vehicle_type_id":"4","last_reported":1773537656,"current_range_meters":31200,"station_id":"ce4bhbh2rcd13ifvqepg","pricing_plan_id":"cebpf4jnsgd1na2vs0mg"},{"bike_id":"7db92065-fd6e-4014-982f-daf9b3e1e88d","system_id":"levelo_inurba_marseille","lat":43.25836,"lon":5.39431,"is_reserved":false,"is_disabled":false,"rental_uris":{"android":"levelo://app?vid=7db92065-fd6e-4014-982f-daf9b3e1e88d","ios":"levelo://app?vid=7db92065-fd6e-4014-982f-daf9b3e1e88d"},"vehicle_type_id":"4","last_reported":1773537656,"current_range_meters":11600,"station_id":"ce4bhip2rcd13ifvqft0","pricing_plan_id":"cebpf4jnsgd1na2vs0mg"},{"bike_id":"51b2397d-a326-4ab5-aec4-76d244d8df54","system_id":"levelo_inurba_marseille","lat":43.29748,"lon":5.37684,"is_reserved":false,"is_disabled":false,"rental_uris":{"android":"levelo://app?vid=51b2397d-a326-4ab5-aec4-76d244d8df54","ios":"levelo://app?vid=51b2397d-a326-4ab5-aec4-76d244d8df54"},"vehicle_type_id":"4","last_reported":1773537656,"current_range_meters":22400,"station_id":"ce4bgkh2rcd13ifvqbl0","pricing_plan_id":"cebpf4jnsgd1na2vs0mg"},{"bike_id":"d69bc87a-4abe-4573-8c1d-eecdfac78f9e","system_id":"levelo_inurba_marseille","lat":43.31753,"lon":5.39005,"is_reserved":false,"is_disabled":false,"rental_uris":{"android":"levelo://app?vid=d69bc87a-4abe-4573-8c1d-eecdfac78f9e","ios":"levelo://app?vid=d69bc87a-4abe-4573-8c1d-eecdfac78f9e"},"vehicle_type_id":"4","last_reported":1773537656,"current_range_meters":39200,"station_id":"ce4bhqp2rcd13ifvqhng","pricing_plan_id":"cebpf4jnsgd1na2vs0mg"},{"bike_id":"33b16ff4-aa90-4e96-a65b-80fdeacb58de","system_id":"levelo_inurba_marseille","lat":43.30541,"lon":5.36537,"is_reserved":false,"is_disabled":false,"rental_uris":{"android":"levelo://app?vid=33b16ff4-aa90-4e96-a65b-80fdeacb58de","ios":"levelo://app?vid=33b16ff4-aa90-4e96-a65b-80fdeacb58de"},"vehicle_type_id":"4","last_reported":1773537656,"current_range_meters":26800,"station_id":"ce4bgs12rcd13ifvqcag","pricing_plan_id":"cebpf4jnsgd1na2vs0mg"},{"bike_id":"69d28148-19a7-4231-9463-ddebfbcaf620","system_id":"levelo_inurba_marseille","lat":43.3135,"lon":5.38506,"is_reserved":false,"is_disabled":false,"rental_uris":{"android":"levelo://app?vid=69d28148-19a7-4231-9463-ddebfbcaf620","ios":"levelo://app?vid=69d28148-19a7-4231-9463-ddebfbcaf620"},"vehicle_type_id":"4","last_reported":1773537656,"current_range_meters":27600,"station_id":"ce4bgt92rcd13ifvqcf0","pricing_plan_id":"cebpf4jnsgd1na2vs0mg"},{"bike_id":"1c0c4c0c-f299-41e4-90d6-b6eff31b2338","system_id":"levelo_inurba_marseille","lat":43.27067,"lon":5.38292,"is_reserved":false,"is_disabled":false,"rental_uris":{"android":"levelo://app?vid=1c0c4c0c-f299-41e4-90d6-b6eff31b2338","ios":"levelo://app?vid=1c0c4c0c-f299-41e4-90d6-b6eff31b2338"},"vehicle_type_id":"4","last_reported":1773537656,"current_range_meters":36800,"station_id":"st_d3n2fo6cfp8s73cte1j0","pricing_plan_id":"cebpf4jnsgd1na2vs0mg"},{"bike_id":"85cd8cb8-1572-4483-8d2e-ca06fd40ed7c","system_id":"levelo_inurba_marseille","lat":43.32267,"lon":5.38242,"is_reserved":false,"is_disabled":false,"rental_uris":{"android":"levelo://app?vid=85cd8cb8-1572-4483-8d2e-ca06fd40ed7c","ios":"levelo://app?vid=85cd8cb8-1572-4483-8d2e-ca06fd40ed7c"},"vehicle_type_id":"4","last_reported":1773537656,"current_range_meters":39200,"station_id":"ce4bhr12rcd13ifvqhqg","pricing_plan_id":"cebpf4jnsgd1na2vs0mg"},{"bike_id":"674e8b35-bca7-4ed8-ba45-7c86f71eaca5","system_id":"levelo_inurba_marseille","lat":43.26199,"lon":5.3745,"is_reserved":false,"is_disabled":false,"rental_uris":{"android":"levelo://app?vid=674e8b35-bca7-4ed8-ba45-7c86f71eaca5","ios":"levelo://app?vid=674e8b35-bca7-4ed8-ba45-7c86f71eaca5"},"vehicle_type_id":"4","last_reported":1773537656,"current_range_meters":20400,"station_id":"ce4bhgp2rcd13ifvqfc0","pricing_plan_id":"cebpf4jnsgd1na2vs0mg"},{"bike_id":"6f61d387-d66c-4612-94f7-67c0f0b415c5","system_id":"levelo_inurba_marseille","lat":43.30145,"lon":5.37417,"is_reserved":false,"is_disabled":false,"rental_uris":{"android":"levelo://app?vid=6f61d387-d66c-4612-94f7-67c0f0b415c5","ios":"levelo://app?vid=6f61d387-d66c-4612-94f7-67c0f0b415c5"},"vehicle_type_id":"4","last_reported":1773537656,"current_range_meters":28400,"station_id":"ce4bgs92rcd13ifvqcc0","pricing_plan_id":"cebpf4jnsgd1na2vs0mg"},{"bike_id":"15643cb0-ca44-4e67-8c97-15418479ee03","system_id":"levelo_inurba_marseille","lat":43.28689,"lon":5.36334,"is_reserved":false,"is_disabled":false,"rental_uris":{"android":"levelo://app?vid=15643cb0-ca44-4e67-8c97-15418479ee03","ios":"levelo://app?vid=15643cb0-ca44-4e67-8c97-15418479ee03"},"vehicle_type_id":"4","last_reported":1773537656,"current_range_meters":16400,"station_id":"ce4bhah2rcd13ifvqej0","pricing_plan_id":"cebpf4jnsgd1na2vs0mg"},{"bike_id":"76018294-dcc7-4c7d-ad2d-1448d43240dc","system_id":"levelo_inurba_marseille","lat":43.25078,"lon":5.4029,"is_reserved":false,"is_disabled":false,"rental_uris":{"android":"levelo://app?vid=76018294-dcc7-4c7d-ad2d-1448d43240dc","ios":"levelo://app?vid=76018294-dcc7-4c7d-ad2d-1448d43240dc"},"vehicle_type_id":"4","last_reported":1773537656,"current_range_meters":27600,"station_id":"ce4bhlh2rcd13ifvqgig","pricing_plan_id":"cebpf4jnsgd1na2vs0mg"},{"bike_id":"0565a4af-c10f-42d5-a610-63cd0c6c5245","system_id":"levelo_inurba_marseille","lat":43.28853,"lon":5.39309,"is_reserved":false,"is_disabled":false,"rental_uris":{"android":"levelo://app?vid=0565a4af-c10f-42d5-a610-63cd0c6c5245","ios":"levelo://app?vid=0565a4af-c10f-42d5-a610-63cd0c6c5245"},"vehicle_type_id":"4","last_reported":1773537656,"current_range_meters":24800,"station_id":"ce4bh2p2rcd13ifvqdi0","pricing_plan_id":"cebpf4jnsgd1na2vs0mg"},{"bike_id":"55ec29f4-7127-4c85-923d-63c34cba0677","system_id":"levelo_inurba_marseille","lat":43.3078,"lon":5.37678,"is_reserved":false,"is_disabled":false,"rental_uris":{"android":"levelo://app?vid=55ec29f4-7127-4c85-923d-63c34cba0677","ios":"levelo://app?vid=55ec29f4-7127-4c85-923d-63c34cba0677"},"vehicle_type_id":"4","last_reported":1773537656,"current_range_meters":37600,"station_id":"ce4bgv92rcd13ifvqcq0","pricing_plan_id":"cebpf4jnsgd1na2vs0mg"},{"bike_id":"480a954f-db3c-4cd5-acb5-179ba9006c67","system_id":"levelo_inurba_marseille","lat":43.33439,"lon":5.44851,"is_reserved":false,"is_disabled":false,"rental_uris":{"android":"levelo://app?vid=480a954f-db3c-4cd5-acb5-179ba9006c67","ios":"levelo://app?vid=480a954f-db3c-4cd5-acb5-179ba9006c67"},"vehicle_type_id":"4","last_reported":1773537656,"current_range_meters":27600,"station_id":"","pricing_plan_id":"cebpf4jnsgd1na2vs0mg"},{"bike_id":"391379cf-4643-4158-85b8-1cb594e2549e","system_id":"levelo_inurba_marseille","lat":43.28728,"lon":5.36072,"is_reserved":false,"is_disabled":false,"rental_uris":{"android":"levelo://app?vid=391379cf-4643-4158-85b8-1cb594e2549e","ios":"levelo://app?vid=391379cf-4643-4158-85b8-1cb594e2549e"},"vehicle_type_id":"4","last_reported":1773537656,"current_range_meters":39200,"station_id":"cki0cbj6b192h4jlfktg","pricing_plan_id":"cebpf4jnsgd1na2vs0mg"},{"bike_id":"18a594df-6c61-4fcc-bfe2-8a93ec98ac12","system_id":"levelo_inurba_marseille","lat":43.28708,"lon":5.37368,"is_reserved":false,"is_disabled":false,"rental_uris":{"android":"levelo://app?vid=18a594df-6c61-4fcc-bfe2-8a93ec98ac12","ios":"levelo://app?vid=18a594df-6c61-4fcc-bfe2-8a93ec98ac12"},"vehicle_type_id":"4","last_reported":1773537656,"current_range_meters":14000,"station_id":"ce4bh3p2rcd13ifvqdq0","pricing_plan_id":"cebpf4jnsgd1na2vs0mg"},{"bike_id":"df980ba6-a5e3-4d6c-ba7d-3005f70e10e2","system_id":"levelo_inurba_marseille","lat":43.31372,"lon":5.38492,"is_reserved":false,"is_disabled":false,"rental_uris":{"android":"levelo://app?vid=df980ba6-a5e3-4d6c-ba7d-3005f70e10e2","ios":"levelo://app?vid=df980ba6-a5e3-4d6c-ba7d-3005f70e10e2"},"vehicle_type_id":"4","last_reported":1773537656,"current_range_meters":26000,"station_id":"ce4bgt92rcd13ifvqcf0","pricing_plan_id":"cebpf4jnsgd1na2vs0mg"},{"bike_id":"ffd09458-6bb2-4125-85cb-99fe96f929b1","system_id":"levelo_inurba_marseille","lat":43.28703,"lon":5.37376,"is_reserved":false,"is_disabled":false,"rental_uris":{"android":"levelo://app?vid=ffd09458-6bb2-4125-85cb-99fe96f929b1","ios":"levelo://app?vid=ffd09458-6bb2-4125-85cb-99fe96f929b1"},"vehicle_type_id":"4","last_reported":1773537656,"current_range_meters":7200,"station_id":"ce4bh3p2rcd13ifvqdq0","pricing_plan_id":"cebpf4jnsgd1na2vs0mg"},{"bike_id":"3c7690d1-a097-4dc1-a920-49c74ad74917","system_id":"levelo_inurba_marseille","lat":43.29055,"lon":5.37149,"is_reserved":false,"is_disabled":true,"rental_uris":{"android":"levelo://app?vid=3c7690d1-a097-4dc1-a920-49c74ad74917","ios":"levelo://app?vid=3c7690d1-a097-4dc1-a920-49c74ad74917"},"vehicle_type_id":"4","last_reported":1773537656,"current_range_meters":28000,"station_id":"ce4bh5p2rcd13ifvqe4g","pricing_plan_id":"cebpf4jnsgd1na2vs0mg"},{"bike_id":"4384042b-d97f-4e9f-9f7d-f1164574524b","system_id":"levelo_inurba_marseille","lat":43.28377,"lon":5.38641,"is_reserved":false,"is_disabled":false,"rental_uris":{"android":"levelo://app?vid=4384042b-d97f-4e9f-9f7d-f1164574524b","ios":"levelo://app?vid=4384042b-d97f-4e9f-9f7d-f1164574524b"},"vehicle_type_id":"4","last_reported":1773537656,"current_range_meters":33200,"station_id":"ce4bh492rcd13ifvqdvg","pricing_plan_id":"cebpf4jnsgd1na2vs0mg"},{"bike_id":"7e7249ab-ffda-4a8b-b45a-917693570120","system_id":"levelo_inurba_marseille","lat":43.28942,"lon":5.36418,"is_reserved":false,"is_disabled":false,"rental_uris":{"android":"levelo://app?vid=7e7249ab-ffda-4a8b-b45a-917693570120","ios":"levelo://app?vid=7e7249ab-ffda-4a8b-b45a-917693570120"},"vehicle_type_id":"4","last_reported":1773537656,"current_range_meters":30000,"station_id":"ce4bhc92rcd13ifvqetg","pricing_plan_id":"cebpf4jnsgd1na2vs0mg"},{"bike_id":"37c5a35a-3080-4ea9-9fb3-bc5a74dad0e2","system_id":"levelo_inurba_marseille","lat":43.258209,"lon":5.394415,"is_reserved":false,"is_disabled":false,"rental_uris":{"android":"levelo://app?vid=37c5a35a-3080-4ea9-9fb3-bc5a74dad0e2","ios":"levelo://app?vid=37c5a35a-3080-4ea9-9fb3-bc5a74dad0e2"},"vehicle_type_id":"4","last_reported":1773537656,"current_range_meters":38800,"station_id":"ce4bhip2rcd13ifvqft0","pricing_plan_id":"cebpf4jnsgd1na2vs0mg"},{"bike_id":"ced05e86-2551-48cf-8692-7f3559e5deac","system_id":"levelo_inurba_marseille","lat":43.295,"lon":5.43307,"is_reserved":false,"is_disabled":false,"rental_uris":{"android":"levelo://app?vid=ced05e86-2551-48cf-8692-7f3559e5deac","ios":"levelo://app?vid=ced05e86-2551-48cf-8692-7f3559e5deac"},"vehicle_type_id":"4","last_reported":1773537656,"current_range_meters":7200,"station_id":"st_d3j5ugp08ojc73fj9d10","pricing_plan_id":"cebpf4jnsgd1na2vs0mg"},{"bike_id":"1e190920-c993-4953-991a-17e0a1293e4b","system_id":"levelo_inurba_marseille","lat":43.2999,"lon":5.37162,"is_reserved":false,"is_disabled":false,"rental_uris":{"android":"levelo://app?vid=1e190920-c993-4953-991a-17e0a1293e4b","ios":"levelo://app?vid=1e190920-c993-4953-991a-17e0a1293e4b"},"vehicle_type_id":"4","last_reported":1773537656,"current_range_meters":39200,"station_id":"ce4bgr92rcd13ifvqc7g","pricing_plan_id":"cebpf4jnsgd1na2vs0mg"},{"bike_id":"356ed127-0cc8-4188-9928-4acaa914e3bf","system_id":"levelo_inurba_marseille","lat":43.25867,"lon":5.39897,"is_reserved":false,"is_disabled":false,"rental_uris":{"android":"levelo://app?vid=356ed127-0cc8-4188-9928-4acaa914e3bf","ios":"levelo://app?vid=356ed127-0cc8-4188-9928-4acaa914e3bf"},"vehicle_type_id":"4","last_reported":1773537656,"current_range_meters":33600,"station_id":"ce4bhl92rcd13ifvqghg","pricing_plan_id":"cebpf4jnsgd1na2vs0mg"},{"bike_id":"e5725ce8-50a2-40ca-b011-9888ac1cf133","system_id":"levelo_inurba_marseille","lat":43.27367,"lon":5.36223,"is_reserved":false,"is_disabled":false,"rental_uris":{"android":"levelo://app?vid=e5725ce8-50a2-40ca-b011-9888ac1cf133","ios":"levelo://app?vid=e5725ce8-50a2-40ca-b011-9888ac1cf133"},"vehicle_type_id":"4","last_reported":1773537656,"current_range_meters":36800,"station_id":"ce4bhbh2rcd13ifvqeo0","pricing_plan_id":"cebpf4jnsgd1na2vs0mg"},{"bike_id":"e707ecb2-776e-4003-9b33-e407bbd4641f","system_id":"levelo_inurba_marseille","lat":43.29533,"lon":5.42234,"is_reserved":false,"is_disabled":false,"rental_uris":{"android":"levelo://app?vid=e707ecb2-776e-4003-9b33-e407bbd4641f","ios":"levelo://app?vid=e707ecb2-776e-4003-9b33-e407bbd4641f"},"vehicle_type_id":"4","last_reported":1773537656,"current_range_meters":36400,"station_id":"","pricing_plan_id":"cebpf4jnsgd1na2vs0mg"},{"bike_id":"41ae287c-9cc1-430a-84ca-70506bc523b6","system_id":"levelo_inurba_marseille","lat":43.22557,"lon":5.41626,"is_reserved":false,"is_disabled":false,"rental_uris":{"android":"levelo://app?vid=41ae287c-9cc1-430a-84ca-70506bc523b6","ios":"levelo://app?vid=41ae287c-9cc1-430a-84ca-70506bc523b6"},"vehicle_type_id":"4","last_reported":1773537656,"current_range_meters":36800,"station_id":"st_d2o4gvlbi1j2169b742g","pricing_plan_id":"cebpf4jnsgd1na2vs0mg"},{"bike_id":"fe8dfa27-62f0-46d6-ba43-c3127399aaa0","system_id":"levelo_inurba_marseille","lat":43.2962,"lon":5.42128,"is_reserved":false,"is_disabled":false,"rental_uris":{"android":"levelo://app?vid=fe8dfa27-62f0-46d6-ba43-c3127399aaa0","ios":"levelo://app?vid=fe8dfa27-62f0-46d6-ba43-c3127399aaa0"},"vehicle_type_id":"4","last_reported":1773537656,"current_range_meters":24800,"station_id":"","pricing_plan_id":"cebpf4jnsgd1na2vs0mg"},{"bike_id":"5c0630ed-bd2b-4642-b36b-ddb6b84186db","system_id":"levelo_inurba_marseille","lat":43.30736,"lon":5.42448,"is_reserved":false,"is_disabled":false,"rental_uris":{"android":"levelo://app?vid=5c0630ed-bd2b-4642-b36b-ddb6b84186db","ios":"levelo://app?vid=5c0630ed-bd2b-4642-b36b-ddb6b84186db"},"vehicle_type_id":"4","last_reported":1773537656,"current_range_meters":24400,"station_id":"st_cvj6ca6bvosntc0bfgr0","pricing_plan_id":"cebpf4jnsgd1na2vs0mg"},{"bike_id":"d315a8f9-bb43-4c6f-b2bd-a6cbdae4d557","system_id":"levelo_inurba_marseille","lat":43.26572,"lon":5.40318,"is_reserved":false,"is_disabled":false,"rental_uris":{"android":"levelo://app?vid=d315a8f9-bb43-4c6f-b2bd-a6cbdae4d557","ios":"levelo://app?vid=d315a8f9-bb43-4c6f-b2bd-a6cbdae4d557"},"vehicle_type_id":"4","last_reported":1773537656,"current_range_meters":27200,"station_id":"ce4bhmp2rcd13ifvqgng","pricing_plan_id":"cebpf4jnsgd1na2vs0mg"},{"bike_id":"38e5107a-fdc2-431b-892a-488d0107acb0","system_id":"levelo_inurba_marseille","lat":43.30639,"lon":5.37205,"is_reserved":false,"is_disabled":false,"rental_uris":{"android":"levelo://app?vid=38e5107a-fdc2-431b-892a-488d0107acb0","ios":"levelo://app?vid=38e5107a-fdc2-431b-892a-488d0107acb0"},"vehicle_type_id":"4","last_reported":1773537656,"current_range_meters":30800,"station_id":"ce4bgqh2rcd13ifvqc4g","pricing_plan_id":"cebpf4jnsgd1na2vs0mg"},{"bike_id":"6cd1b79d-1347-474f-9698-eaf7241262db","system_id":"levelo_inurba_marseille","lat":43.28444,"lon":5.35019,"is_reserved":false,"is_disabled":false,"rental_uris":{"android":"levelo://app?vid=6cd1b79d-1347-474f-9698-eaf7241262db","ios":"levelo://app?vid=6cd1b79d-1347-474f-9698-eaf7241262db"},"vehicle_type_id":"4","last_reported":1773537656,"current_range_meters":36000,"station_id":"ce4bhbh2rcd13ifvqepg","pricing_plan_id":"cebpf4jnsgd1na2vs0mg"},{"bike_id":"bba2d762-24c5-424c-8885-ccb819513608","system_id":"levelo_inurba_marseille","lat":43.27649,"lon":5.38928,"is_reserved":false,"is_disabled":true,"rental_uris":{"android":"levelo://app?vid=bba2d762-24c5-424c-8885-ccb819513608","ios":"levelo://app?vid=bba2d762-24c5-424c-8885-ccb819513608"},"vehicle_type_id":"4","last_reported":1773537656,"current_range_meters":14000,"station_id":"ce4bhi12rcd13ifvqfo0","pricing_plan_id":"cebpf4jnsgd1na2vs0mg"},{"bike_id":"1217792c-987d-41a2-8823-875cdd503171","system_id":"levelo_inurba_marseille","lat":43.33151,"lon":5.37673,"is_reserved":false,"is_disabled":false,"rental_uris":{"android":"levelo://app?vid=1217792c-987d-41a2-8823-875cdd503171","ios":"levelo://app?vid=1217792c-987d-41a2-8823-875cdd503171"},"vehicle_type_id":"4","last_reported":1773537656,"current_range_meters":25200,"station_id":"st_d46cu089ee8s73dldbu0","pricing_plan_id":"cebpf4jnsgd1na2vs0mg"},{"bike_id":"1fa66c7c-5bbe-4c72-8397-ac5bb2c15dc7","system_id":"levelo_inurba_marseille","lat":43.32383,"lon":5.38907,"is_reserved":false,"is_disabled":false,"rental_uris":{"android":"levelo://app?vid=1fa66c7c-5bbe-4c72-8397-ac5bb2c15dc7","ios":"levelo://app?vid=1fa66c7c-5bbe-4c72-8397-ac5bb2c15dc7"},"vehicle_type_id":"4","last_reported":1773537656,"current_range_meters":37600,"station_id":"ce4bhqp2rcd13ifvqhog","pricing_plan_id":"cebpf4jnsgd1na2vs0mg"},{"bike_id":"11bc51b7-473d-4d57-956b-ad0dbb07b780","system_id":"levelo_inurba_marseille","lat":43.31344,"lon":5.39676,"is_reserved":false,"is_disabled":false,"rental_uris":{"android":"levelo://app?vid=11bc51b7-473d-4d57-956b-ad0dbb07b780","ios":"levelo://app?vid=11bc51b7-473d-4d57-956b-ad0dbb07b780"},"vehicle_type_id":"4","last_reported":1773537656,"current_range_meters":39200,"station_id":"ce4bgvp2rcd13ifvqcu0","pricing_plan_id":"cebpf4jnsgd1na2vs0mg"},{"bike_id":"aed4118b-a0e3-4071-9098-af6c6a632706","system_id":"levelo_inurba_marseille","lat":43.30137,"lon":5.43086,"is_reserved":false,"is_disabled":false,"rental_uris":{"android":"levelo://app?vid=aed4118b-a0e3-4071-9098-af6c6a632706","ios":"levelo://app?vid=aed4118b-a0e3-4071-9098-af6c6a632706"},"vehicle_type_id":"4","last_reported":1773537656,"current_range_meters":9200,"station_id":"st_d3js3co5814s73ftftug","pricing_plan_id":"cebpf4jnsgd1na2vs0mg"},{"bike_id":"ee97d76b-d430-4b45-b3b0-dd8a973c7e77","system_id":"levelo_inurba_marseille","lat":43.23984,"lon":5.36618,"is_reserved":false,"is_disabled":false,"rental_uris":{"android":"levelo://app?vid=ee97d76b-d430-4b45-b3b0-dd8a973c7e77","ios":"levelo://app?vid=ee97d76b-d430-4b45-b3b0-dd8a973c7e77"},"vehicle_type_id":"4","last_reported":1773537656,"current_range_meters":37600,"station_id":"ce4bhi12rcd13ifvqfp0","pricing_plan_id":"cebpf4jnsgd1na2vs0mg"},{"bike_id":"92bc8068-37f4-4e54-99b9-1e9bd2b9446d","system_id":"levelo_inurba_marseille","lat":43.2706,"lon":5.40265,"is_reserved":false,"is_disabled":false,"rental_uris":{"android":"levelo://app?vid=92bc8068-37f4-4e54-99b9-1e9bd2b9446d","ios":"levelo://app?vid=92bc8068-37f4-4e54-99b9-1e9bd2b9446d"},"vehicle_type_id":"4","last_reported":1773537656,"current_range_meters":39200,"station_id":"ce4bhk92rcd13ifvqgc0","pricing_plan_id":"cebpf4jnsgd1na2vs0mg"},{"bike_id":"c4bf9557-32fa-47c0-82e6-cc65fc7a98d8","system_id":"levelo_inurba_marseille","lat":43.23971,"lon":5.366,"is_reserved":false,"is_disabled":false,"rental_uris":{"android":"levelo://app?vid=c4bf9557-32fa-47c0-82e6-cc65fc7a98d8","ios":"levelo://app?vid=c4bf9557-32fa-47c0-82e6-cc65fc7a98d8"},"vehicle_type_id":"4","last_reported":1773537656,"current_range_meters":11200,"station_id":"ce4bhi12rcd13ifvqfp0","pricing_plan_id":"cebpf4jnsgd1na2vs0mg"},{"bike_id":"2fd025c2-5d1f-404e-b401-f593d342fd66","system_id":"levelo_inurba_marseille","lat":43.30741,"lon":5.42445,"is_reserved":false,"is_disabled":false,"rental_uris":{"android":"levelo://app?vid=2fd025c2-5d1f-404e-b401-f593d342fd66","ios":"levelo://app?vid=2fd025c2-5d1f-404e-b401-f593d342fd66"},"vehicle_type_id":"4","last_reported":1773537656,"current_range_meters":35200,"station_id":"st_cvj6ca6bvosntc0bfgr0","pricing_plan_id":"cebpf4jnsgd1na2vs0mg"},{"bike_id":"db5e1ab5-7a4f-49cf-a6b8-3aa4892afdc3","system_id":"levelo_inurba_marseille","lat":43.29226,"lon":5.3607,"is_reserved":false,"is_disabled":false,"rental_uris":{"android":"levelo://app?vid=db5e1ab5-7a4f-49cf-a6b8-3aa4892afdc3","ios":"levelo://app?vid=db5e1ab5-7a4f-49cf-a6b8-3aa4892afdc3"},"vehicle_type_id":"4","last_reported":1773537656,"current_range_meters":28800,"station_id":"ce4bhbh2rcd13ifvqeqg","pricing_plan_id":"cebpf4jnsgd1na2vs0mg"},{"bike_id":"b1339ef2-61b5-43c7-9a75-c14536bea7c7","system_id":"levelo_inurba_marseille","lat":43.28077,"lon":5.39645,"is_reserved":false,"is_disabled":false,"rental_uris":{"android":"levelo://app?vid=b1339ef2-61b5-43c7-9a75-c14536bea7c7","ios":"levelo://app?vid=b1339ef2-61b5-43c7-9a75-c14536bea7c7"},"vehicle_type_id":"4","last_reported":1773537656,"current_range_meters":36400,"station_id":"ce4bho12rcd13ifvqh2g","pricing_plan_id":"cebpf4jnsgd1na2vs0mg"},{"bike_id":"114e304d-e20d-4f8a-9525-1a164e809dee","system_id":"levelo_inurba_marseille","lat":43.23959,"lon":5.36635,"is_reserved":false,"is_disabled":false,"rental_uris":{"android":"levelo://app?vid=114e304d-e20d-4f8a-9525-1a164e809dee","ios":"levelo://app?vid=114e304d-e20d-4f8a-9525-1a164e809dee"},"vehicle_type_id":"4","last_reported":1773537656,"current_range_meters":26000,"station_id":"ce4bhi12rcd13ifvqfp0","pricing_plan_id":"cebpf4jnsgd1na2vs0mg"},{"bike_id":"ed805e5c-c91a-41a9-a21f-ce0355ac464f","system_id":"levelo_inurba_marseille","lat":43.28472,"lon":5.35891,"is_reserved":false,"is_disabled":false,"rental_uris":{"android":"levelo://app?vid=ed805e5c-c91a-41a9-a21f-ce0355ac464f","ios":"levelo://app?vid=ed805e5c-c91a-41a9-a21f-ce0355ac464f"},"vehicle_type_id":"4","last_reported":1773537656,"current_range_meters":14800,"station_id":"ce4bhah2rcd13ifvqei0","pricing_plan_id":"cebpf4jnsgd1na2vs0mg"},{"bike_id":"1a90a8d3-c56d-44f0-9e3d-eb117a0cebc5","system_id":"levelo_inurba_marseille","lat":43.24188,"lon":5.39702,"is_reserved":false,"is_disabled":false,"rental_uris":{"android":"levelo://app?vid=1a90a8d3-c56d-44f0-9e3d-eb117a0cebc5","ios":"levelo://app?vid=1a90a8d3-c56d-44f0-9e3d-eb117a0cebc5"},"vehicle_type_id":"4","last_reported":1773537656,"current_range_meters":34000,"station_id":"ce4bhn12rcd13ifvqgpg","pricing_plan_id":"cebpf4jnsgd1na2vs0mg"},{"bike_id":"432d4cd0-d01b-4b10-98f5-1918cfcc0fae","system_id":"levelo_inurba_marseille","lat":43.29616,"lon":5.37704,"is_reserved":false,"is_disabled":false,"rental_uris":{"android":"levelo://app?vid=432d4cd0-d01b-4b10-98f5-1918cfcc0fae","ios":"levelo://app?vid=432d4cd0-d01b-4b10-98f5-1918cfcc0fae"},"vehicle_type_id":"4","last_reported":1773537656,"current_range_meters":4400,"station_id":"ce4bgi92rcd13ifvqb90","pricing_plan_id":"cebpf4jnsgd1na2vs0mg"},{"bike_id":"ca2d95e4-e8a2-4c10-900a-e515b215c5bd","system_id":"levelo_inurba_marseille","lat":43.30949,"lon":5.3905,"is_reserved":false,"is_disabled":false,"rental_uris":{"android":"levelo://app?vid=ca2d95e4-e8a2-4c10-900a-e515b215c5bd","ios":"levelo://app?vid=ca2d95e4-e8a2-4c10-900a-e515b215c5bd"},"vehicle_type_id":"4","last_reported":1773537656,"current_range_meters":24800,"station_id":"ce4bgup2rcd13ifvqco0","pricing_plan_id":"cebpf4jnsgd1na2vs0mg"},{"bike_id":"84f4a2bf-2617-4f6d-b5b2-52999d43fb4f","system_id":"levelo_inurba_marseille","lat":43.27371,"lon":5.36254,"is_reserved":false,"is_disabled":false,"rental_uris":{"android":"levelo://app?vid=84f4a2bf-2617-4f6d-b5b2-52999d43fb4f","ios":"levelo://app?vid=84f4a2bf-2617-4f6d-b5b2-52999d43fb4f"},"vehicle_type_id":"4","last_reported":1773537656,"current_range_meters":37600,"station_id":"ce4bhbh2rcd13ifvqeo0","pricing_plan_id":"cebpf4jnsgd1na2vs0mg"},{"bike_id":"ee3d3379-9c17-4aea-a4b8-9da9f97ba057","system_id":"levelo_inurba_marseille","lat":43.30282,"lon":5.37702,"is_reserved":false,"is_disabled":false,"rental_uris":{"android":"levelo://app?vid=ee3d3379-9c17-4aea-a4b8-9da9f97ba057","ios":"levelo://app?vid=ee3d3379-9c17-4aea-a4b8-9da9f97ba057"},"vehicle_type_id":"4","last_reported":1773537656,"current_range_meters":39200,"station_id":"ce4bguh2rcd13ifvqcj0","pricing_plan_id":"cebpf4jnsgd1na2vs0mg"},{"bike_id":"012bb7fa-e4d0-4138-9c92-350c5c6b2640","system_id":"levelo_inurba_marseille","lat":43.33506,"lon":5.44812,"is_reserved":false,"is_disabled":false,"rental_uris":{"android":"levelo://app?vid=012bb7fa-e4d0-4138-9c92-350c5c6b2640","ios":"levelo://app?vid=012bb7fa-e4d0-4138-9c92-350c5c6b2640"},"vehicle_type_id":"4","last_reported":1773537656,"current_range_meters":24800,"station_id":"","pricing_plan_id":"cebpf4jnsgd1na2vs0mg"},{"bike_id":"3d951476-aa89-47f5-907d-0788c1744f09","system_id":"levelo_inurba_marseille","lat":43.25335,"lon":5.42168,"is_reserved":false,"is_disabled":false,"rental_uris":{"android":"levelo://app?vid=3d951476-aa89-47f5-907d-0788c1744f09","ios":"levelo://app?vid=3d951476-aa89-47f5-907d-0788c1744f09"},"vehicle_type_id":"4","last_reported":1773537656,"current_range_meters":23200,"station_id":"st_d2m65c5bi1j21697t3ng","pricing_plan_id":"cebpf4jnsgd1na2vs0mg"},{"bike_id":"959cb468-adf5-492c-a8a7-a3170c99be64","system_id":"levelo_inurba_marseille","lat":43.27065,"lon":5.38293,"is_reserved":false,"is_disabled":false,"rental_uris":{"android":"levelo://app?vid=959cb468-adf5-492c-a8a7-a3170c99be64","ios":"levelo://app?vid=959cb468-adf5-492c-a8a7-a3170c99be64"},"vehicle_type_id":"4","last_reported":1773537656,"current_range_meters":38400,"station_id":"st_d3n2fo6cfp8s73cte1j0","pricing_plan_id":"cebpf4jnsgd1na2vs0mg"},{"bike_id":"a8c21268-2edc-4550-9855-ee17f9a06fc5","system_id":"levelo_inurba_marseille","lat":43.28468,"lon":5.35866,"is_reserved":false,"is_disabled":false,"rental_uris":{"android":"levelo://app?vid=a8c21268-2edc-4550-9855-ee17f9a06fc5","ios":"levelo://app?vid=a8c21268-2edc-4550-9855-ee17f9a06fc5"},"vehicle_type_id":"4","last_reported":1773537656,"current_range_meters":40000,"station_id":"ce4bhah2rcd13ifvqei0","pricing_plan_id":"cebpf4jnsgd1na2vs0mg"},{"bike_id":"b72ddb5e-a931-44d4-b220-ff76b5486b06","system_id":"levelo_inurba_marseille","lat":43.27617,"lon":5.36104,"is_reserved":false,"is_disabled":true,"rental_uris":{"android":"levelo://app?vid=b72ddb5e-a931-44d4-b220-ff76b5486b06","ios":"levelo://app?vid=b72ddb5e-a931-44d4-b220-ff76b5486b06"},"vehicle_type_id":"4","last_reported":1773537656,"current_range_meters":0,"station_id":"ce4bgj92rcd13ifvqbe0","pricing_plan_id":"cebpf4jnsgd1na2vs0mg"},{"bike_id":"6b19fbe3-c210-43ca-9c67-9cbe29424c3c","system_id":"levelo_inurba_marseille","lat":43.30952,"lon":5.39038,"is_reserved":false,"is_disabled":false,"rental_uris":{"android":"levelo://app?vid=6b19fbe3-c210-43ca-9c67-9cbe29424c3c","ios":"levelo://app?vid=6b19fbe3-c210-43ca-9c67-9cbe29424c3c"},"vehicle_type_id":"4","last_reported":1773537656,"current_range_meters":22400,"station_id":"ce4bgup2rcd13ifvqco0","pricing_plan_id":"cebpf4jnsgd1na2vs0mg"},{"bike_id":"968e0752-94e3-4427-8693-dccfb2dc93c6","system_id":"levelo_inurba_marseille","lat":43.32351,"lon":5.38837,"is_reserved":false,"is_disabled":false,"rental_uris":{"android":"levelo://app?vid=968e0752-94e3-4427-8693-dccfb2dc93c6","ios":"levelo://app?vid=968e0752-94e3-4427-8693-dccfb2dc93c6"},"vehicle_type_id":"4","last_reported":1773537656,"current_range_meters":37600,"station_id":"ce4bhqp2rcd13ifvqhog","pricing_plan_id":"cebpf4jnsgd1na2vs0mg"},{"bike_id":"595b8b2c-0551-40e0-9487-e8236931936b","system_id":"levelo_inurba_marseille","lat":43.27931,"lon":5.41034,"is_reserved":false,"is_disabled":false,"rental_uris":{"android":"levelo://app?vid=595b8b2c-0551-40e0-9487-e8236931936b","ios":"levelo://app?vid=595b8b2c-0551-40e0-9487-e8236931936b"},"vehicle_type_id":"4","last_reported":1773537656,"current_range_meters":22000,"station_id":"ce4bhnp2rcd13ifvqh0g","pricing_plan_id":"cebpf4jnsgd1na2vs0mg"},{"bike_id":"98ff575e-e932-485c-a678-0a491cff6beb","system_id":"levelo_inurba_marseille","lat":43.26369,"lon":5.41087,"is_reserved":false,"is_disabled":false,"rental_uris":{"android":"levelo://app?vid=98ff575e-e932-485c-a678-0a491cff6beb","ios":"levelo://app?vid=98ff575e-e932-485c-a678-0a491cff6beb"},"vehicle_type_id":"4","last_reported":1773537656,"current_range_meters":30800,"station_id":"st_d4e5ca6na9uc73bfl5fg","pricing_plan_id":"cebpf4jnsgd1na2vs0mg"},{"bike_id":"f0f8badc-d10f-41f0-affd-30efd105d6c8","system_id":"levelo_inurba_marseille","lat":43.29233,"lon":5.39344,"is_reserved":false,"is_disabled":true,"rental_uris":{"android":"levelo://app?vid=f0f8badc-d10f-41f0-affd-30efd105d6c8","ios":"levelo://app?vid=f0f8badc-d10f-41f0-affd-30efd105d6c8"},"vehicle_type_id":"4","last_reported":1773537656,"current_range_meters":18000,"station_id":"","pricing_plan_id":"cebpf4jnsgd1na2vs0mg"},{"bike_id":"71501c24-7c0d-4212-996a-19e1a1605792","system_id":"levelo_inurba_marseille","lat":43.29493,"lon":5.433,"is_reserved":false,"is_disabled":false,"rental_uris":{"android":"levelo://app?vid=71501c24-7c0d-4212-996a-19e1a1605792","ios":"levelo://app?vid=71501c24-7c0d-4212-996a-19e1a1605792"},"vehicle_type_id":"4","last_reported":1773537656,"current_range_meters":4400,"station_id":"st_d3j5ugp08ojc73fj9d10","pricing_plan_id":"cebpf4jnsgd1na2vs0mg"},{"bike_id":"423bc035-aef3-4079-971b-6379873e8ee4","system_id":"levelo_inurba_marseille","lat":43.306,"lon":5.37208,"is_reserved":false,"is_disabled":false,"rental_uris":{"android":"levelo://app?vid=423bc035-aef3-4079-971b-6379873e8ee4","ios":"levelo://app?vid=423bc035-aef3-4079-971b-6379873e8ee4"},"vehicle_type_id":"4","last_reported":1773537656,"current_range_meters":9600,"station_id":"ce4bgqh2rcd13ifvqc4g","pricing_plan_id":"cebpf4jnsgd1na2vs0mg"},{"bike_id":"40448aa8-4341-4251-bb6d-15e5da5d8141","system_id":"levelo_inurba_marseille","lat":43.31367,"lon":5.38489,"is_reserved":false,"is_disabled":false,"rental_uris":{"android":"levelo://app?vid=40448aa8-4341-4251-bb6d-15e5da5d8141","ios":"levelo://app?vid=40448aa8-4341-4251-bb6d-15e5da5d8141"},"vehicle_type_id":"4","last_reported":1773537656,"current_range_meters":16400,"station_id":"ce4bgt92rcd13ifvqcf0","pricing_plan_id":"cebpf4jnsgd1na2vs0mg"},{"bike_id":"d5455e83-72e4-4ef4-9233-f07b53171cfa","system_id":"levelo_inurba_marseille","lat":43.24954,"lon":5.40495,"is_reserved":false,"is_disabled":false,"rental_uris":{"android":"levelo://app?vid=d5455e83-72e4-4ef4-9233-f07b53171cfa","ios":"levelo://app?vid=d5455e83-72e4-4ef4-9233-f07b53171cfa"},"vehicle_type_id":"4","last_reported":1773537656,"current_range_meters":38800,"station_id":"st_d2ngiaodas8pm72gd1h0","pricing_plan_id":"cebpf4jnsgd1na2vs0mg"},{"bike_id":"c3a51489-0f5a-48ac-a8a7-6f935317a558","system_id":"levelo_inurba_marseille","lat":43.29665,"lon":5.36564,"is_reserved":false,"is_disabled":false,"rental_uris":{"android":"levelo://app?vid=c3a51489-0f5a-48ac-a8a7-6f935317a558","ios":"levelo://app?vid=c3a51489-0f5a-48ac-a8a7-6f935317a558"},"vehicle_type_id":"4","last_reported":1773537656,"current_range_meters":39200,"station_id":"ce4bgn12rcd13ifvqbt0","pricing_plan_id":"cebpf4jnsgd1na2vs0mg"},{"bike_id":"fab9d42d-0389-4e3c-b710-106effb7d2e6","system_id":"levelo_inurba_marseille","lat":43.27834,"lon":5.4069,"is_reserved":false,"is_disabled":false,"rental_uris":{"android":"levelo://app?vid=fab9d42d-0389-4e3c-b710-106effb7d2e6","ios":"levelo://app?vid=fab9d42d-0389-4e3c-b710-106effb7d2e6"},"vehicle_type_id":"4","last_reported":1773537656,"current_range_meters":32400,"station_id":"ce4bhnh2rcd13ifvqgtg","pricing_plan_id":"cebpf4jnsgd1na2vs0mg"},{"bike_id":"a29b970f-b285-425f-be46-e5d395220578","system_id":"levelo_inurba_marseille","lat":43.25198,"lon":5.404,"is_reserved":false,"is_disabled":false,"rental_uris":{"android":"levelo://app?vid=a29b970f-b285-425f-be46-e5d395220578","ios":"levelo://app?vid=a29b970f-b285-425f-be46-e5d395220578"},"vehicle_type_id":"4","last_reported":1773537656,"current_range_meters":26800,"station_id":"","pricing_plan_id":"cebpf4jnsgd1na2vs0mg"},{"bike_id":"c8e6709b-d18f-4ab7-84d0-50300418656b","system_id":"levelo_inurba_marseille","lat":43.24658,"lon":5.38146,"is_reserved":false,"is_disabled":false,"rental_uris":{"android":"levelo://app?vid=c8e6709b-d18f-4ab7-84d0-50300418656b","ios":"levelo://app?vid=c8e6709b-d18f-4ab7-84d0-50300418656b"},"vehicle_type_id":"4","last_reported":1773537656,"current_range_meters":25600,"station_id":"ce4bhih2rcd13ifvqfr0","pricing_plan_id":"cebpf4jnsgd1na2vs0mg"},{"bike_id":"1b76ca95-f18f-46ad-b5e2-115c03b09dc0","system_id":"levelo_inurba_marseille","lat":43.29735,"lon":5.42792,"is_reserved":false,"is_disabled":false,"rental_uris":{"android":"levelo://app?vid=1b76ca95-f18f-46ad-b5e2-115c03b09dc0","ios":"levelo://app?vid=1b76ca95-f18f-46ad-b5e2-115c03b09dc0"},"vehicle_type_id":"4","last_reported":1773537656,"current_range_meters":19200,"station_id":"st_d3md5207bmas73dh9klg","pricing_plan_id":"cebpf4jnsgd1na2vs0mg"},{"bike_id":"aa1ea814-effc-4a82-a7ce-fc6b0be25510","system_id":"levelo_inurba_marseille","lat":43.31858,"lon":5.3697,"is_reserved":false,"is_disabled":false,"rental_uris":{"android":"levelo://app?vid=aa1ea814-effc-4a82-a7ce-fc6b0be25510","ios":"levelo://app?vid=aa1ea814-effc-4a82-a7ce-fc6b0be25510"},"vehicle_type_id":"4","last_reported":1773537656,"current_range_meters":38800,"station_id":"","pricing_plan_id":"cebpf4jnsgd1na2vs0mg"},{"bike_id":"e3f51dc0-9339-4740-b9ee-e0b68bf68426","system_id":"levelo_inurba_marseille","lat":43.29712,"lon":5.36599,"is_reserved":false,"is_disabled":false,"rental_uris":{"android":"levelo://app?vid=e3f51dc0-9339-4740-b9ee-e0b68bf68426","ios":"levelo://app?vid=e3f51dc0-9339-4740-b9ee-e0b68bf68426"},"vehicle_type_id":"4","last_reported":1773537656,"current_range_meters":18800,"station_id":"ce4bgn12rcd13ifvqbt0","pricing_plan_id":"cebpf4jnsgd1na2vs0mg"},{"bike_id":"efbecb76-a07f-4231-83ad-2be5c55addc1","system_id":"levelo_inurba_marseille","lat":43.29343,"lon":5.40193,"is_reserved":false,"is_disabled":false,"rental_uris":{"android":"levelo://app?vid=efbecb76-a07f-4231-83ad-2be5c55addc1","ios":"levelo://app?vid=efbecb76-a07f-4231-83ad-2be5c55addc1"},"vehicle_type_id":"4","last_reported":1773537656,"current_range_meters":24800,"station_id":"","pricing_plan_id":"cebpf4jnsgd1na2vs0mg"},{"bike_id":"fb572cf7-cf1a-4dfc-ac30-6f925bcd24fa","system_id":"levelo_inurba_marseille","lat":43.30593,"lon":5.37207,"is_reserved":false,"is_disabled":false,"rental_uris":{"android":"levelo://app?vid=fb572cf7-cf1a-4dfc-ac30-6f925bcd24fa","ios":"levelo://app?vid=fb572cf7-cf1a-4dfc-ac30-6f925bcd24fa"},"vehicle_type_id":"4","last_reported":1773537656,"current_range_meters":31200,"station_id":"ce4bgqh2rcd13ifvqc4g","pricing_plan_id":"cebpf4jnsgd1na2vs0mg"},{"bike_id":"adb3e066-3d52-48f2-aa5f-de1d01f85bb9","system_id":"levelo_inurba_marseille","lat":43.30137,"lon":5.37408,"is_reserved":false,"is_disabled":false,"rental_uris":{"android":"levelo://app?vid=adb3e066-3d52-48f2-aa5f-de1d01f85bb9","ios":"levelo://app?vid=adb3e066-3d52-48f2-aa5f-de1d01f85bb9"},"vehicle_type_id":"4","last_reported":1773537656,"current_range_meters":18000,"station_id":"ce4bgs92rcd13ifvqcc0","pricing_plan_id":"cebpf4jnsgd1na2vs0mg"},{"bike_id":"d88de9ae-f34a-4653-a8b4-3cbd6214b9e6","system_id":"levelo_inurba_marseille","lat":43.27945,"lon":5.41049,"is_reserved":false,"is_disabled":false,"rental_uris":{"android":"levelo://app?vid=d88de9ae-f34a-4653-a8b4-3cbd6214b9e6","ios":"levelo://app?vid=d88de9ae-f34a-4653-a8b4-3cbd6214b9e6"},"vehicle_type_id":"4","last_reported":1773537656,"current_range_meters":38000,"station_id":"ce4bhnp2rcd13ifvqh0g","pricing_plan_id":"cebpf4jnsgd1na2vs0mg"},{"bike_id":"8d1d6e8b-5750-4bc4-847c-d5a2d80e3e6b","system_id":"levelo_inurba_marseille","lat":43.31508,"lon":5.37278,"is_reserved":false,"is_disabled":false,"rental_uris":{"android":"levelo://app?vid=8d1d6e8b-5750-4bc4-847c-d5a2d80e3e6b","ios":"levelo://app?vid=8d1d6e8b-5750-4bc4-847c-d5a2d80e3e6b"},"vehicle_type_id":"4","last_reported":1773537656,"current_range_meters":38400,"station_id":"ce4bgt12rcd13ifvqcd0","pricing_plan_id":"cebpf4jnsgd1na2vs0mg"},{"bike_id":"833ead7f-2cc1-415f-b495-f484e1825ff8","system_id":"levelo_inurba_marseille","lat":43.30746,"lon":5.42444,"is_reserved":false,"is_disabled":false,"rental_uris":{"android":"levelo://app?vid=833ead7f-2cc1-415f-b495-f484e1825ff8","ios":"levelo://app?vid=833ead7f-2cc1-415f-b495-f484e1825ff8"},"vehicle_type_id":"4","last_reported":1773537656,"current_range_meters":32800,"station_id":"st_cvj6ca6bvosntc0bfgr0","pricing_plan_id":"cebpf4jnsgd1na2vs0mg"},{"bike_id":"eb2f308c-8a12-4604-91b5-c6e7beca1962","system_id":"levelo_inurba_marseille","lat":43.25591,"lon":5.38225,"is_reserved":false,"is_disabled":false,"rental_uris":{"android":"levelo://app?vid=eb2f308c-8a12-4604-91b5-c6e7beca1962","ios":"levelo://app?vid=eb2f308c-8a12-4604-91b5-c6e7beca1962"},"vehicle_type_id":"4","last_reported":1773537656,"current_range_meters":24400,"station_id":"ce4bhih2rcd13ifvqfs0","pricing_plan_id":"cebpf4jnsgd1na2vs0mg"},{"bike_id":"ec062fde-2e15-4dbb-92cd-dbc3f4ead404","system_id":"levelo_inurba_marseille","lat":43.29116,"lon":5.43276,"is_reserved":false,"is_disabled":true,"rental_uris":{"android":"levelo://app?vid=ec062fde-2e15-4dbb-92cd-dbc3f4ead404","ios":"levelo://app?vid=ec062fde-2e15-4dbb-92cd-dbc3f4ead404"},"vehicle_type_id":"4","last_reported":1773537656,"current_range_meters":28400,"station_id":"","pricing_plan_id":"cebpf4jnsgd1na2vs0mg"},{"bike_id":"9a99be02-7fc5-4af9-836f-23a5fd9cab8b","system_id":"levelo_inurba_marseille","lat":43.24394,"lon":5.37054,"is_reserved":false,"is_disabled":false,"rental_uris":{"android":"levelo://app?vid=9a99be02-7fc5-4af9-836f-23a5fd9cab8b","ios":"levelo://app?vid=9a99be02-7fc5-4af9-836f-23a5fd9cab8b"},"vehicle_type_id":"4","last_reported":1773537656,"current_range_meters":10800,"station_id":"ce4bhhh2rcd13ifvqfk0","pricing_plan_id":"cebpf4jnsgd1na2vs0mg"},{"bike_id":"7e2af57d-1b95-4afe-8aab-fe55733493d4","system_id":"levelo_inurba_marseille","lat":43.26938,"lon":5.40258,"is_reserved":false,"is_disabled":false,"rental_uris":{"android":"levelo://app?vid=7e2af57d-1b95-4afe-8aab-fe55733493d4","ios":"levelo://app?vid=7e2af57d-1b95-4afe-8aab-fe55733493d4"},"vehicle_type_id":"4","last_reported":1773537656,"current_range_meters":22000,"station_id":"cjm6bp8fraef2m0cb0m0","pricing_plan_id":"cebpf4jnsgd1na2vs0mg"},{"bike_id":"be4b33f3-f666-4b28-9e53-550c3c6e8b23","system_id":"levelo_inurba_marseille","lat":43.28478,"lon":5.48396,"is_reserved":false,"is_disabled":false,"rental_uris":{"android":"levelo://app?vid=be4b33f3-f666-4b28-9e53-550c3c6e8b23","ios":"levelo://app?vid=be4b33f3-f666-4b28-9e53-550c3c6e8b23"},"vehicle_type_id":"4","last_reported":1773537656,"current_range_meters":19600,"station_id":"st_d3svhcjqgbts73a3dn0g","pricing_plan_id":"cebpf4jnsgd1na2vs0mg"},{"bike_id":"a5aff278-9967-49ae-ad5a-f6cdaa4e759d","system_id":"levelo_inurba_marseille","lat":43.29025,"lon":5.35618,"is_reserved":false,"is_disabled":false,"rental_uris":{"android":"levelo://app?vid=a5aff278-9967-49ae-ad5a-f6cdaa4e759d","ios":"levelo://app?vid=a5aff278-9967-49ae-ad5a-f6cdaa4e759d"},"vehicle_type_id":"4","last_reported":1773537656,"current_range_meters":35600,"station_id":"ce4bhb92rcd13ifvqen0","pricing_plan_id":"cebpf4jnsgd1na2vs0mg"},{"bike_id":"51c0d28a-cf57-4107-b08a-fa288b8f6866","system_id":"levelo_inurba_marseille","lat":43.28479,"lon":5.38403,"is_reserved":false,"is_disabled":false,"rental_uris":{"android":"levelo://app?vid=51c0d28a-cf57-4107-b08a-fa288b8f6866","ios":"levelo://app?vid=51c0d28a-cf57-4107-b08a-fa288b8f6866"},"vehicle_type_id":"4","last_reported":1773537656,"current_range_meters":33200,"station_id":"ce4bh512rcd13ifvqe3g","pricing_plan_id":"cebpf4jnsgd1na2vs0mg"},{"bike_id":"26ec3725-c826-40e4-8423-caab5390d1ff","system_id":"levelo_inurba_marseille","lat":43.26679,"lon":5.38275,"is_reserved":false,"is_disabled":false,"rental_uris":{"android":"levelo://app?vid=26ec3725-c826-40e4-8423-caab5390d1ff","ios":"levelo://app?vid=26ec3725-c826-40e4-8423-caab5390d1ff"},"vehicle_type_id":"4","last_reported":1773537656,"current_range_meters":23200,"station_id":"ce4bhg92rcd13ifvqf90","pricing_plan_id":"cebpf4jnsgd1na2vs0mg"},{"bike_id":"193cbe9d-b7d2-421e-9f76-9c8c86aebb4a","system_id":"levelo_inurba_marseille","lat":43.33541,"lon":5.37445,"is_reserved":false,"is_disabled":false,"rental_uris":{"android":"levelo://app?vid=193cbe9d-b7d2-421e-9f76-9c8c86aebb4a","ios":"levelo://app?vid=193cbe9d-b7d2-421e-9f76-9c8c86aebb4a"},"vehicle_type_id":"4","last_reported":1773537656,"current_range_meters":10800,"station_id":"st_d46tts09ee8s73dlu43g","pricing_plan_id":"cebpf4jnsgd1na2vs0mg"},{"bike_id":"c3fda1dd-5225-4f7e-a7f9-21ab5cd7437f","system_id":"levelo_inurba_marseille","lat":43.29868,"lon":5.36278,"is_reserved":false,"is_disabled":false,"rental_uris":{"android":"levelo://app?vid=c3fda1dd-5225-4f7e-a7f9-21ab5cd7437f","ios":"levelo://app?vid=c3fda1dd-5225-4f7e-a7f9-21ab5cd7437f"},"vehicle_type_id":"4","last_reported":1773537656,"current_range_meters":36800,"station_id":"ce4bgpp2rcd13ifvqc3g","pricing_plan_id":"cebpf4jnsgd1na2vs0mg"},{"bike_id":"da7e48b1-fcf8-442a-a94e-a92b2fc085cd","system_id":"levelo_inurba_marseille","lat":43.31542,"lon":5.38055,"is_reserved":false,"is_disabled":false,"rental_uris":{"android":"levelo://app?vid=da7e48b1-fcf8-442a-a94e-a92b2fc085cd","ios":"levelo://app?vid=da7e48b1-fcf8-442a-a94e-a92b2fc085cd"},"vehicle_type_id":"4","last_reported":1773537656,"current_range_meters":20800,"station_id":"ce4bhsp2rcd13ifvqi50","pricing_plan_id":"cebpf4jnsgd1na2vs0mg"},{"bike_id":"91de8c26-a4ae-4282-976b-d4b287103bef","system_id":"levelo_inurba_marseille","lat":43.29494,"lon":5.43268,"is_reserved":false,"is_disabled":false,"rental_uris":{"android":"levelo://app?vid=91de8c26-a4ae-4282-976b-d4b287103bef","ios":"levelo://app?vid=91de8c26-a4ae-4282-976b-d4b287103bef"},"vehicle_type_id":"4","last_reported":1773537656,"current_range_meters":11600,"station_id":"st_d3j5ugp08ojc73fj9d10","pricing_plan_id":"cebpf4jnsgd1na2vs0mg"},{"bike_id":"a24190fc-d18a-47a2-aa52-ba8e67314411","system_id":"levelo_inurba_marseille","lat":43.29836,"lon":5.36271,"is_reserved":false,"is_disabled":false,"rental_uris":{"android":"levelo://app?vid=a24190fc-d18a-47a2-aa52-ba8e67314411","ios":"levelo://app?vid=a24190fc-d18a-47a2-aa52-ba8e67314411"},"vehicle_type_id":"4","last_reported":1773537656,"current_range_meters":38400,"station_id":"ce4bgpp2rcd13ifvqc3g","pricing_plan_id":"cebpf4jnsgd1na2vs0mg"},{"bike_id":"363eb9a8-8391-43a6-8dd0-57a9b8ddd213","system_id":"levelo_inurba_marseille","lat":43.29931,"lon":5.37477,"is_reserved":false,"is_disabled":false,"rental_uris":{"android":"levelo://app?vid=363eb9a8-8391-43a6-8dd0-57a9b8ddd213","ios":"levelo://app?vid=363eb9a8-8391-43a6-8dd0-57a9b8ddd213"},"vehicle_type_id":"4","last_reported":1773537656,"current_range_meters":25200,"station_id":"ce4bgjh2rcd13ifvqbg0","pricing_plan_id":"cebpf4jnsgd1na2vs0mg"},{"bike_id":"f57f089c-5335-43ff-9fb1-a5e6e8c70c5b","system_id":"levelo_inurba_marseille","lat":43.28731,"lon":5.37925,"is_reserved":false,"is_disabled":false,"rental_uris":{"android":"levelo://app?vid=f57f089c-5335-43ff-9fb1-a5e6e8c70c5b","ios":"levelo://app?vid=f57f089c-5335-43ff-9fb1-a5e6e8c70c5b"},"vehicle_type_id":"4","last_reported":1773537656,"current_range_meters":36000,"station_id":"ce4bh9p2rcd13ifvqec0","pricing_plan_id":"cebpf4jnsgd1na2vs0mg"},{"bike_id":"641cab82-5627-4c24-a3b6-dfa17af8941b","system_id":"levelo_inurba_marseille","lat":43.24548,"lon":5.3949,"is_reserved":false,"is_disabled":false,"rental_uris":{"android":"levelo://app?vid=641cab82-5627-4c24-a3b6-dfa17af8941b","ios":"levelo://app?vid=641cab82-5627-4c24-a3b6-dfa17af8941b"},"vehicle_type_id":"4","last_reported":1773537656,"current_range_meters":25600,"station_id":"ce4bhlp2rcd13ifvqgjg","pricing_plan_id":"cebpf4jnsgd1na2vs0mg"},{"bike_id":"38fbf7a5-b354-44f3-95bf-a4f383498e65","system_id":"levelo_inurba_marseille","lat":43.29288,"lon":5.4011,"is_reserved":false,"is_disabled":false,"rental_uris":{"android":"levelo://app?vid=38fbf7a5-b354-44f3-95bf-a4f383498e65","ios":"levelo://app?vid=38fbf7a5-b354-44f3-95bf-a4f383498e65"},"vehicle_type_id":"4","last_reported":1773537656,"current_range_meters":6800,"station_id":"ce4bh312rcd13ifvqdk0","pricing_plan_id":"cebpf4jnsgd1na2vs0mg"},{"bike_id":"61323a19-6e8d-4fbe-ac05-6f68173b313e","system_id":"levelo_inurba_marseille","lat":43.31079,"lon":5.42378,"is_reserved":false,"is_disabled":false,"rental_uris":{"android":"levelo://app?vid=61323a19-6e8d-4fbe-ac05-6f68173b313e","ios":"levelo://app?vid=61323a19-6e8d-4fbe-ac05-6f68173b313e"},"vehicle_type_id":"4","last_reported":1773537656,"current_range_meters":33200,"station_id":"ce4bhp92rcd13ifvqhag","pricing_plan_id":"cebpf4jnsgd1na2vs0mg"},{"bike_id":"90cd78e0-b487-4118-aeed-b099744fa193","system_id":"levelo_inurba_marseille","lat":43.28439,"lon":5.39206,"is_reserved":false,"is_disabled":false,"rental_uris":{"android":"levelo://app?vid=90cd78e0-b487-4118-aeed-b099744fa193","ios":"levelo://app?vid=90cd78e0-b487-4118-aeed-b099744fa193"},"vehicle_type_id":"4","last_reported":1773537656,"current_range_meters":32000,"station_id":"ce4bhoh2rcd13ifvqh5g","pricing_plan_id":"cebpf4jnsgd1na2vs0mg"},{"bike_id":"208e4bdb-1092-4a3b-8ee4-eff4ac6e394b","system_id":"levelo_inurba_marseille","lat":43.27948,"lon":5.41043,"is_reserved":false,"is_disabled":false,"rental_uris":{"android":"levelo://app?vid=208e4bdb-1092-4a3b-8ee4-eff4ac6e394b","ios":"levelo://app?vid=208e4bdb-1092-4a3b-8ee4-eff4ac6e394b"},"vehicle_type_id":"4","last_reported":1773537656,"current_range_meters":25200,"station_id":"ce4bhnp2rcd13ifvqh0g","pricing_plan_id":"cebpf4jnsgd1na2vs0mg"},{"bike_id":"3d7100c2-5bd5-4a18-a534-e313e8e3db75","system_id":"levelo_inurba_marseille","lat":43.28607,"lon":5.35115,"is_reserved":false,"is_disabled":false,"rental_uris":{"android":"levelo://app?vid=3d7100c2-5bd5-4a18-a534-e313e8e3db75","ios":"levelo://app?vid=3d7100c2-5bd5-4a18-a534-e313e8e3db75"},"vehicle_type_id":"4","last_reported":1773537656,"current_range_meters":28400,"station_id":"ce4bhch2rcd13ifvqeug","pricing_plan_id":"cebpf4jnsgd1na2vs0mg"},{"bike_id":"e339a24b-df7b-4de6-98b9-660e6308a031","system_id":"levelo_inurba_marseille","lat":43.22575,"lon":5.41621,"is_reserved":false,"is_disabled":false,"rental_uris":{"android":"levelo://app?vid=e339a24b-df7b-4de6-98b9-660e6308a031","ios":"levelo://app?vid=e339a24b-df7b-4de6-98b9-660e6308a031"},"vehicle_type_id":"4","last_reported":1773537656,"current_range_meters":35600,"station_id":"st_d2o4gvlbi1j2169b742g","pricing_plan_id":"cebpf4jnsgd1na2vs0mg"},{"bike_id":"acbbef11-1175-4fc2-be23-3149665f36b3","system_id":"levelo_inurba_marseille","lat":43.30552,"lon":5.36539,"is_reserved":false,"is_disabled":true,"rental_uris":{"android":"levelo://app?vid=acbbef11-1175-4fc2-be23-3149665f36b3","ios":"levelo://app?vid=acbbef11-1175-4fc2-be23-3149665f36b3"},"vehicle_type_id":"4","last_reported":1773537656,"current_range_meters":20400,"station_id":"ce4bgs12rcd13ifvqcag","pricing_plan_id":"cebpf4jnsgd1na2vs0mg"},{"bike_id":"f36ebafa-fc5a-48f3-a51a-3d952d1b5301","system_id":"levelo_inurba_marseille","lat":43.31372,"lon":5.3851,"is_reserved":false,"is_disabled":false,"rental_uris":{"android":"levelo://app?vid=f36ebafa-fc5a-48f3-a51a-3d952d1b5301","ios":"levelo://app?vid=f36ebafa-fc5a-48f3-a51a-3d952d1b5301"},"vehicle_type_id":"4","last_reported":1773537656,"current_range_meters":13600,"station_id":"ce4bgt92rcd13ifvqcf0","pricing_plan_id":"cebpf4jnsgd1na2vs0mg"},{"bike_id":"0ed4cb71-7747-4bd4-a6af-33060dfbb309","system_id":"levelo_inurba_marseille","lat":43.27623,"lon":5.36104,"is_reserved":false,"is_disabled":false,"rental_uris":{"android":"levelo://app?vid=0ed4cb71-7747-4bd4-a6af-33060dfbb309","ios":"levelo://app?vid=0ed4cb71-7747-4bd4-a6af-33060dfbb309"},"vehicle_type_id":"4","last_reported":1773537656,"current_range_meters":8800,"station_id":"ce4bgj92rcd13ifvqbe0","pricing_plan_id":"cebpf4jnsgd1na2vs0mg"},{"bike_id":"040ebf91-65e6-4961-b3b8-9b42783730b4","system_id":"levelo_inurba_marseille","lat":43.30307,"lon":5.36897,"is_reserved":false,"is_disabled":false,"rental_uris":{"android":"levelo://app?vid=040ebf91-65e6-4961-b3b8-9b42783730b4","ios":"levelo://app?vid=040ebf91-65e6-4961-b3b8-9b42783730b4"},"vehicle_type_id":"4","last_reported":1773537656,"current_range_meters":33600,"station_id":"ce4bgqh2rcd13ifvqc5g","pricing_plan_id":"cebpf4jnsgd1na2vs0mg"},{"bike_id":"39511bac-a378-495c-8620-d864725c8485","system_id":"levelo_inurba_marseille","lat":43.25093,"lon":5.39523,"is_reserved":false,"is_disabled":false,"rental_uris":{"android":"levelo://app?vid=39511bac-a378-495c-8620-d864725c8485","ios":"levelo://app?vid=39511bac-a378-495c-8620-d864725c8485"},"vehicle_type_id":"4","last_reported":1773537656,"current_range_meters":38400,"station_id":"ce4bhm12rcd13ifvqgkg","pricing_plan_id":"cebpf4jnsgd1na2vs0mg"},{"bike_id":"2803d533-9b6e-4917-bcde-45eedfc2d618","system_id":"levelo_inurba_marseille","lat":43.287023,"lon":5.399894,"is_reserved":false,"is_disabled":false,"rental_uris":{"android":"levelo://app?vid=2803d533-9b6e-4917-bcde-45eedfc2d618","ios":"levelo://app?vid=2803d533-9b6e-4917-bcde-45eedfc2d618"},"vehicle_type_id":"4","last_reported":1773537656,"current_range_meters":23200,"station_id":"ce4bho92rcd13ifvqh3g","pricing_plan_id":"cebpf4jnsgd1na2vs0mg"},{"bike_id":"3a46d46a-3434-4c09-9481-ae1049d546b0","system_id":"levelo_inurba_marseille","lat":43.31468,"lon":5.37308,"is_reserved":false,"is_disabled":false,"rental_uris":{"android":"levelo://app?vid=3a46d46a-3434-4c09-9481-ae1049d546b0","ios":"levelo://app?vid=3a46d46a-3434-4c09-9481-ae1049d546b0"},"vehicle_type_id":"4","last_reported":1773537656,"current_range_meters":38800,"station_id":"ce4bgt12rcd13ifvqcd0","pricing_plan_id":"cebpf4jnsgd1na2vs0mg"},{"bike_id":"64069c02-c977-4af0-a752-efe4502ec874","system_id":"levelo_inurba_marseille","lat":43.28482,"lon":5.48392,"is_reserved":false,"is_disabled":false,"rental_uris":{"android":"levelo://app?vid=64069c02-c977-4af0-a752-efe4502ec874","ios":"levelo://app?vid=64069c02-c977-4af0-a752-efe4502ec874"},"vehicle_type_id":"4","last_reported":1773537656,"current_range_meters":38400,"station_id":"","pricing_plan_id":"cebpf4jnsgd1na2vs0mg"},{"bike_id":"030d87a5-4fd6-406c-97be-8b1d2c082c10","system_id":"levelo_inurba_marseille","lat":43.24555,"lon":5.39512,"is_reserved":false,"is_disabled":false,"rental_uris":{"android":"levelo://app?vid=030d87a5-4fd6-406c-97be-8b1d2c082c10","ios":"levelo://app?vid=030d87a5-4fd6-406c-97be-8b1d2c082c10"},"vehicle_type_id":"4","last_reported":1773537656,"current_range_meters":38800,"station_id":"ce4bhlp2rcd13ifvqgjg","pricing_plan_id":"cebpf4jnsgd1na2vs0mg"},{"bike_id":"0c60e9f7-419a-402d-bbe7-ab8848add394","system_id":"levelo_inurba_marseille","lat":43.31628,"lon":5.40477,"is_reserved":false,"is_disabled":false,"rental_uris":{"android":"levelo://app?vid=0c60e9f7-419a-402d-bbe7-ab8848add394","ios":"levelo://app?vid=0c60e9f7-419a-402d-bbe7-ab8848add394"},"vehicle_type_id":"4","last_reported":1773537656,"current_range_meters":33200,"station_id":"","pricing_plan_id":"cebpf4jnsgd1na2vs0mg"},{"bike_id":"e666f2fc-c602-4b8d-91e3-0d86c3da7741","system_id":"levelo_inurba_marseille","lat":43.2844,"lon":5.3922,"is_reserved":false,"is_disabled":false,"rental_uris":{"android":"levelo://app?vid=e666f2fc-c602-4b8d-91e3-0d86c3da7741","ios":"levelo://app?vid=e666f2fc-c602-4b8d-91e3-0d86c3da7741"},"vehicle_type_id":"4","last_reported":1773537656,"current_range_meters":4800,"station_id":"ce4bhoh2rcd13ifvqh5g","pricing_plan_id":"cebpf4jnsgd1na2vs0mg"},{"bike_id":"6ba02607-5543-4986-b3cb-a1df5f02d1dd","system_id":"levelo_inurba_marseille","lat":43.3142,"lon":5.36685,"is_reserved":false,"is_disabled":false,"rental_uris":{"android":"levelo://app?vid=6ba02607-5543-4986-b3cb-a1df5f02d1dd","ios":"levelo://app?vid=6ba02607-5543-4986-b3cb-a1df5f02d1dd"},"vehicle_type_id":"4","last_reported":1773537656,"current_range_meters":39200,"station_id":"ce4bgr92rcd13ifvqc6g","pricing_plan_id":"cebpf4jnsgd1na2vs0mg"},{"bike_id":"68f8bcec-7291-4d62-b8e4-32de3382d5ae","system_id":"levelo_inurba_marseille","lat":43.3015,"lon":5.37406,"is_reserved":false,"is_disabled":false,"rental_uris":{"android":"levelo://app?vid=68f8bcec-7291-4d62-b8e4-32de3382d5ae","ios":"levelo://app?vid=68f8bcec-7291-4d62-b8e4-32de3382d5ae"},"vehicle_type_id":"4","last_reported":1773537656,"current_range_meters":10800,"station_id":"ce4bgs92rcd13ifvqcc0","pricing_plan_id":"cebpf4jnsgd1na2vs0mg"},{"bike_id":"7bf0a830-d498-457c-a030-91c3bd84fed4","system_id":"levelo_inurba_marseille","lat":43.23182,"lon":5.35559,"is_reserved":false,"is_disabled":false,"rental_uris":{"android":"levelo://app?vid=7bf0a830-d498-457c-a030-91c3bd84fed4","ios":"levelo://app?vid=7bf0a830-d498-457c-a030-91c3bd84fed4"},"vehicle_type_id":"4","last_reported":1773537656,"current_range_meters":32800,"station_id":"ce4bhu92rcd13ifvqi70","pricing_plan_id":"cebpf4jnsgd1na2vs0mg"},{"bike_id":"db5fc025-f609-443b-b481-2f6cefb137d4","system_id":"levelo_inurba_marseille","lat":43.28485,"lon":5.48389,"is_reserved":false,"is_disabled":false,"rental_uris":{"android":"levelo://app?vid=db5fc025-f609-443b-b481-2f6cefb137d4","ios":"levelo://app?vid=db5fc025-f609-443b-b481-2f6cefb137d4"},"vehicle_type_id":"4","last_reported":1773537656,"current_range_meters":29600,"station_id":"","pricing_plan_id":"cebpf4jnsgd1na2vs0mg"},{"bike_id":"3b85e9e8-4938-4ae7-a83e-c8e2526a550f","system_id":"levelo_inurba_marseille","lat":43.24195,"lon":5.36385,"is_reserved":false,"is_disabled":false,"rental_uris":{"android":"levelo://app?vid=3b85e9e8-4938-4ae7-a83e-c8e2526a550f","ios":"levelo://app?vid=3b85e9e8-4938-4ae7-a83e-c8e2526a550f"},"vehicle_type_id":"4","last_reported":1773537656,"current_range_meters":16800,"station_id":"cpo36qri1sfpv3e86is0","pricing_plan_id":"cebpf4jnsgd1na2vs0mg"},{"bike_id":"c6384ce6-6b54-4b6d-b227-3cffde6120a6","system_id":"levelo_inurba_marseille","lat":43.30938,"lon":5.40139,"is_reserved":false,"is_disabled":true,"rental_uris":{"android":"levelo://app?vid=c6384ce6-6b54-4b6d-b227-3cffde6120a6","ios":"levelo://app?vid=c6384ce6-6b54-4b6d-b227-3cffde6120a6"},"vehicle_type_id":"4","last_reported":1773537656,"current_range_meters":32800,"station_id":"ce4bgvp2rcd13ifvqct0","pricing_plan_id":"cebpf4jnsgd1na2vs0mg"},{"bike_id":"4afcb84a-0db5-4ae3-ba90-2750739e856b","system_id":"levelo_inurba_marseille","lat":43.31511,"lon":5.37302,"is_reserved":false,"is_disabled":false,"rental_uris":{"android":"levelo://app?vid=4afcb84a-0db5-4ae3-ba90-2750739e856b","ios":"levelo://app?vid=4afcb84a-0db5-4ae3-ba90-2750739e856b"},"vehicle_type_id":"4","last_reported":1773537656,"current_range_meters":38000,"station_id":"ce4bgt12rcd13ifvqcd0","pricing_plan_id":"cebpf4jnsgd1na2vs0mg"},{"bike_id":"e3992951-2693-423e-8845-e8948be986e5","system_id":"levelo_inurba_marseille","lat":43.32484,"lon":5.36578,"is_reserved":false,"is_disabled":false,"rental_uris":{"android":"levelo://app?vid=e3992951-2693-423e-8845-e8948be986e5","ios":"levelo://app?vid=e3992951-2693-423e-8845-e8948be986e5"},"vehicle_type_id":"4","last_reported":1773537656,"current_range_meters":34800,"station_id":"ce4bhs12rcd13ifvqhvg","pricing_plan_id":"cebpf4jnsgd1na2vs0mg"},{"bike_id":"ab77300e-c665-4d91-a12d-a690b40a847b","system_id":"levelo_inurba_marseille","lat":43.29199,"lon":5.35799,"is_reserved":false,"is_disabled":false,"rental_uris":{"android":"levelo://app?vid=ab77300e-c665-4d91-a12d-a690b40a847b","ios":"levelo://app?vid=ab77300e-c665-4d91-a12d-a690b40a847b"},"vehicle_type_id":"4","last_reported":1773537656,"current_range_meters":38000,"station_id":"ce4bhb12rcd13ifvqel0","pricing_plan_id":"cebpf4jnsgd1na2vs0mg"},{"bike_id":"ab7d9189-2568-4974-829e-49dee9a447d5","system_id":"levelo_inurba_marseille","lat":43.2319,"lon":5.35556,"is_reserved":false,"is_disabled":false,"rental_uris":{"android":"levelo://app?vid=ab7d9189-2568-4974-829e-49dee9a447d5","ios":"levelo://app?vid=ab7d9189-2568-4974-829e-49dee9a447d5"},"vehicle_type_id":"4","last_reported":1773537656,"current_range_meters":39200,"station_id":"ce4bhu92rcd13ifvqi70","pricing_plan_id":"cebpf4jnsgd1na2vs0mg"},{"bike_id":"39513cb6-3bc6-440f-aba3-05c67abcb751","system_id":"levelo_inurba_marseille","lat":43.29015,"lon":5.35616,"is_reserved":false,"is_disabled":false,"rental_uris":{"android":"levelo://app?vid=39513cb6-3bc6-440f-aba3-05c67abcb751","ios":"levelo://app?vid=39513cb6-3bc6-440f-aba3-05c67abcb751"},"vehicle_type_id":"4","last_reported":1773537656,"current_range_meters":38000,"station_id":"ce4bhb92rcd13ifvqen0","pricing_plan_id":"cebpf4jnsgd1na2vs0mg"},{"bike_id":"c0c5d9dc-928d-48b1-bc04-fe5d71707694","system_id":"levelo_inurba_marseille","lat":43.32344,"lon":5.36738,"is_reserved":false,"is_disabled":false,"rental_uris":{"android":"levelo://app?vid=c0c5d9dc-928d-48b1-bc04-fe5d71707694","ios":"levelo://app?vid=c0c5d9dc-928d-48b1-bc04-fe5d71707694"},"vehicle_type_id":"4","last_reported":1773537656,"current_range_meters":35600,"station_id":"ce4bhsh2rcd13ifvqi2g","pricing_plan_id":"cebpf4jnsgd1na2vs0mg"},{"bike_id":"c4e6e4d4-68e7-41a7-aebb-da067ca2f711","system_id":"levelo_inurba_marseille","lat":43.28886,"lon":5.35805,"is_reserved":false,"is_disabled":false,"rental_uris":{"android":"levelo://app?vid=c4e6e4d4-68e7-41a7-aebb-da067ca2f711","ios":"levelo://app?vid=c4e6e4d4-68e7-41a7-aebb-da067ca2f711"},"vehicle_type_id":"4","last_reported":1773537656,"current_range_meters":33200,"station_id":"ce4bhb12rcd13ifvqem0","pricing_plan_id":"cebpf4jnsgd1na2vs0mg"},{"bike_id":"37d43fd8-cdec-4372-bbf9-45ba3794afe0","system_id":"levelo_inurba_marseille","lat":43.29411,"lon":5.39755,"is_reserved":false,"is_disabled":true,"rental_uris":{"android":"levelo://app?vid=37d43fd8-cdec-4372-bbf9-45ba3794afe0","ios":"levelo://app?vid=37d43fd8-cdec-4372-bbf9-45ba3794afe0"},"vehicle_type_id":"4","last_reported":1773537656,"current_range_meters":26000,"station_id":"ce4bh3h2rcd13ifvqdo0","pricing_plan_id":"cebpf4jnsgd1na2vs0mg"},{"bike_id":"475f6229-3b8f-4eab-b8fd-2fbd86f0fb75","system_id":"levelo_inurba_marseille","lat":43.24182,"lon":5.36379,"is_reserved":false,"is_disabled":false,"rental_uris":{"android":"levelo://app?vid=475f6229-3b8f-4eab-b8fd-2fbd86f0fb75","ios":"levelo://app?vid=475f6229-3b8f-4eab-b8fd-2fbd86f0fb75"},"vehicle_type_id":"4","last_reported":1773537656,"current_range_meters":36800,"station_id":"cpo36qri1sfpv3e86is0","pricing_plan_id":"cebpf4jnsgd1na2vs0mg"},{"bike_id":"aaf56433-ee77-470c-b7b6-221e680ae993","system_id":"levelo_inurba_marseille","lat":43.22553,"lon":5.41623,"is_reserved":false,"is_disabled":false,"rental_uris":{"android":"levelo://app?vid=aaf56433-ee77-470c-b7b6-221e680ae993","ios":"levelo://app?vid=aaf56433-ee77-470c-b7b6-221e680ae993"},"vehicle_type_id":"4","last_reported":1773537656,"current_range_meters":38800,"station_id":"st_d2o4gvlbi1j2169b742g","pricing_plan_id":"cebpf4jnsgd1na2vs0mg"},{"bike_id":"3ff3df78-eee4-4716-9de4-5e86fa44030b","system_id":"levelo_inurba_marseille","lat":43.30148,"lon":5.37413,"is_reserved":false,"is_disabled":false,"rental_uris":{"android":"levelo://app?vid=3ff3df78-eee4-4716-9de4-5e86fa44030b","ios":"levelo://app?vid=3ff3df78-eee4-4716-9de4-5e86fa44030b"},"vehicle_type_id":"4","last_reported":1773537656,"current_range_meters":40000,"station_id":"ce4bgs92rcd13ifvqcc0","pricing_plan_id":"cebpf4jnsgd1na2vs0mg"},{"bike_id":"3a3e1c85-dbae-420f-b6d9-3a4969e8b66e","system_id":"levelo_inurba_marseille","lat":43.24498,"lon":5.42532,"is_reserved":false,"is_disabled":false,"rental_uris":{"android":"levelo://app?vid=3a3e1c85-dbae-420f-b6d9-3a4969e8b66e","ios":"levelo://app?vid=3a3e1c85-dbae-420f-b6d9-3a4969e8b66e"},"vehicle_type_id":"4","last_reported":1773537656,"current_range_meters":36800,"station_id":"st_d4a3vfp97mjs738cd8kg","pricing_plan_id":"cebpf4jnsgd1na2vs0mg"},{"bike_id":"db71a0ea-8b57-4ffe-88a6-946ba0e510e2","system_id":"levelo_inurba_marseille","lat":43.30925,"lon":5.36831,"is_reserved":false,"is_disabled":false,"rental_uris":{"android":"levelo://app?vid=db71a0ea-8b57-4ffe-88a6-946ba0e510e2","ios":"levelo://app?vid=db71a0ea-8b57-4ffe-88a6-946ba0e510e2"},"vehicle_type_id":"4","last_reported":1773537656,"current_range_meters":25200,"station_id":"ce4bgn92rcd13ifvqbvg","pricing_plan_id":"cebpf4jnsgd1na2vs0mg"},{"bike_id":"eb259eb3-17cb-4932-bfd9-164bb2aaf2fe","system_id":"levelo_inurba_marseille","lat":43.23216,"lon":5.35548,"is_reserved":false,"is_disabled":false,"rental_uris":{"android":"levelo://app?vid=eb259eb3-17cb-4932-bfd9-164bb2aaf2fe","ios":"levelo://app?vid=eb259eb3-17cb-4932-bfd9-164bb2aaf2fe"},"vehicle_type_id":"4","last_reported":1773537656,"current_range_meters":38400,"station_id":"ce4bhu92rcd13ifvqi70","pricing_plan_id":"cebpf4jnsgd1na2vs0mg"},{"bike_id":"9f1129e7-2235-4faf-8100-e46743b37449","system_id":"levelo_inurba_marseille","lat":43.25751,"lon":5.4111,"is_reserved":false,"is_disabled":false,"rental_uris":{"android":"levelo://app?vid=9f1129e7-2235-4faf-8100-e46743b37449","ios":"levelo://app?vid=9f1129e7-2235-4faf-8100-e46743b37449"},"vehicle_type_id":"4","last_reported":1773537656,"current_range_meters":36400,"station_id":"ce4bhkp2rcd13ifvqgd0","pricing_plan_id":"cebpf4jnsgd1na2vs0mg"},{"bike_id":"41b16539-d93d-4e64-a8e4-b7d380ab4e3b","system_id":"levelo_inurba_marseille","lat":43.25006,"lon":5.3889,"is_reserved":false,"is_disabled":false,"rental_uris":{"android":"levelo://app?vid=41b16539-d93d-4e64-a8e4-b7d380ab4e3b","ios":"levelo://app?vid=41b16539-d93d-4e64-a8e4-b7d380ab4e3b"},"vehicle_type_id":"4","last_reported":1773537656,"current_range_meters":12400,"station_id":"ce4bhgp2rcd13ifvqfd0","pricing_plan_id":"cebpf4jnsgd1na2vs0mg"},{"bike_id":"c38579e6-c457-4b80-b0cb-afa3b73f4080","system_id":"levelo_inurba_marseille","lat":43.31084,"lon":5.42432,"is_reserved":false,"is_disabled":false,"rental_uris":{"android":"levelo://app?vid=c38579e6-c457-4b80-b0cb-afa3b73f4080","ios":"levelo://app?vid=c38579e6-c457-4b80-b0cb-afa3b73f4080"},"vehicle_type_id":"4","last_reported":1773537656,"current_range_meters":28400,"station_id":"ce4bhp92rcd13ifvqhag","pricing_plan_id":"cebpf4jnsgd1na2vs0mg"},{"bike_id":"34740115-dcc4-46f7-bb0d-d7232b4ef1ae","system_id":"levelo_inurba_marseille","lat":43.33613,"lon":5.41048,"is_reserved":false,"is_disabled":false,"rental_uris":{"android":"levelo://app?vid=34740115-dcc4-46f7-bb0d-d7232b4ef1ae","ios":"levelo://app?vid=34740115-dcc4-46f7-bb0d-d7232b4ef1ae"},"vehicle_type_id":"4","last_reported":1773537656,"current_range_meters":39200,"station_id":"ce4bhqh2rcd13ifvqhmg","pricing_plan_id":"cebpf4jnsgd1na2vs0mg"},{"bike_id":"b9f4b36a-5c66-4007-903d-605c386a9134","system_id":"levelo_inurba_marseille","lat":43.28425,"lon":5.35916,"is_reserved":false,"is_disabled":false,"rental_uris":{"android":"levelo://app?vid=b9f4b36a-5c66-4007-903d-605c386a9134","ios":"levelo://app?vid=b9f4b36a-5c66-4007-903d-605c386a9134"},"vehicle_type_id":"4","last_reported":1773537656,"current_range_meters":31200,"station_id":"","pricing_plan_id":"cebpf4jnsgd1na2vs0mg"},{"bike_id":"a4951a30-7084-4efc-835c-7b8db4704dd8","system_id":"levelo_inurba_marseille","lat":43.2696,"lon":5.40246,"is_reserved":false,"is_disabled":false,"rental_uris":{"android":"levelo://app?vid=a4951a30-7084-4efc-835c-7b8db4704dd8","ios":"levelo://app?vid=a4951a30-7084-4efc-835c-7b8db4704dd8"},"vehicle_type_id":"4","last_reported":1773537656,"current_range_meters":38800,"station_id":"cjm6bp8fraef2m0cb0m0","pricing_plan_id":"cebpf4jnsgd1na2vs0mg"},{"bike_id":"8f7a4dd9-ebf5-4f16-936d-241bfa909696","system_id":"levelo_inurba_marseille","lat":43.31318,"lon":5.39705,"is_reserved":false,"is_disabled":false,"rental_uris":{"android":"levelo://app?vid=8f7a4dd9-ebf5-4f16-936d-241bfa909696","ios":"levelo://app?vid=8f7a4dd9-ebf5-4f16-936d-241bfa909696"},"vehicle_type_id":"4","last_reported":1773537656,"current_range_meters":8000,"station_id":"ce4bgvp2rcd13ifvqcu0","pricing_plan_id":"cebpf4jnsgd1na2vs0mg"},{"bike_id":"e94a801f-6c65-402b-a703-72c715c4abd3","system_id":"levelo_inurba_marseille","lat":43.28361,"lon":5.38595,"is_reserved":false,"is_disabled":false,"rental_uris":{"android":"levelo://app?vid=e94a801f-6c65-402b-a703-72c715c4abd3","ios":"levelo://app?vid=e94a801f-6c65-402b-a703-72c715c4abd3"},"vehicle_type_id":"4","last_reported":1773537656,"current_range_meters":30800,"station_id":"ce4bh492rcd13ifvqdvg","pricing_plan_id":"cebpf4jnsgd1na2vs0mg"},{"bike_id":"68909a52-a81a-47d2-a672-452ce92b3e14","system_id":"levelo_inurba_marseille","lat":43.29813,"lon":5.37082,"is_reserved":false,"is_disabled":false,"rental_uris":{"android":"levelo://app?vid=68909a52-a81a-47d2-a672-452ce92b3e14","ios":"levelo://app?vid=68909a52-a81a-47d2-a672-452ce92b3e14"},"vehicle_type_id":"4","last_reported":1773537656,"current_range_meters":6000,"station_id":"ce4bgop2rcd13ifvqc1g","pricing_plan_id":"cebpf4jnsgd1na2vs0mg"},{"bike_id":"6e8cbc55-1efb-4ebc-b70e-2a9253dbdc8a","system_id":"levelo_inurba_marseille","lat":43.30752,"lon":5.42439,"is_reserved":false,"is_disabled":false,"rental_uris":{"android":"levelo://app?vid=6e8cbc55-1efb-4ebc-b70e-2a9253dbdc8a","ios":"levelo://app?vid=6e8cbc55-1efb-4ebc-b70e-2a9253dbdc8a"},"vehicle_type_id":"4","last_reported":1773537656,"current_range_meters":27200,"station_id":"st_cvj6ca6bvosntc0bfgr0","pricing_plan_id":"cebpf4jnsgd1na2vs0mg"},{"bike_id":"fceacbae-990b-4213-8c3b-c375f2e5e911","system_id":"levelo_inurba_marseille","lat":43.29789,"lon":5.38073,"is_reserved":false,"is_disabled":true,"rental_uris":{"android":"levelo://app?vid=fceacbae-990b-4213-8c3b-c375f2e5e911","ios":"levelo://app?vid=fceacbae-990b-4213-8c3b-c375f2e5e911"},"vehicle_type_id":"4","last_reported":1773537656,"current_range_meters":20000,"station_id":"ce4bgip2rcd13ifvqbb0","pricing_plan_id":"cebpf4jnsgd1na2vs0mg"},{"bike_id":"88cb8c7f-0ccd-4a01-91f9-3a530d0e94ef","system_id":"levelo_inurba_marseille","lat":43.28627,"lon":5.35094,"is_reserved":false,"is_disabled":false,"rental_uris":{"android":"levelo://app?vid=88cb8c7f-0ccd-4a01-91f9-3a530d0e94ef","ios":"levelo://app?vid=88cb8c7f-0ccd-4a01-91f9-3a530d0e94ef"},"vehicle_type_id":"4","last_reported":1773537656,"current_range_meters":38000,"station_id":"ce4bhch2rcd13ifvqeug","pricing_plan_id":"cebpf4jnsgd1na2vs0mg"},{"bike_id":"466d5686-152b-40db-b82b-75b5e82313ee","system_id":"levelo_inurba_marseille","lat":43.30141,"lon":5.37446,"is_reserved":false,"is_disabled":false,"rental_uris":{"android":"levelo://app?vid=466d5686-152b-40db-b82b-75b5e82313ee","ios":"levelo://app?vid=466d5686-152b-40db-b82b-75b5e82313ee"},"vehicle_type_id":"4","last_reported":1773537656,"current_range_meters":19200,"station_id":"ce4bgs92rcd13ifvqcc0","pricing_plan_id":"cebpf4jnsgd1na2vs0mg"},{"bike_id":"c19808e1-b08f-49c9-b303-f183f8de22cc","system_id":"levelo_inurba_marseille","lat":43.2505,"lon":5.39463,"is_reserved":false,"is_disabled":false,"rental_uris":{"android":"levelo://app?vid=c19808e1-b08f-49c9-b303-f183f8de22cc","ios":"levelo://app?vid=c19808e1-b08f-49c9-b303-f183f8de22cc"},"vehicle_type_id":"4","last_reported":1773537656,"current_range_meters":33200,"station_id":"ce4bhm12rcd13ifvqgkg","pricing_plan_id":"cebpf4jnsgd1na2vs0mg"},{"bike_id":"88baf1fe-4b9b-4c52-81f7-dd067c921a9f","system_id":"levelo_inurba_marseille","lat":43.29815,"lon":5.44065,"is_reserved":false,"is_disabled":false,"rental_uris":{"android":"levelo://app?vid=88baf1fe-4b9b-4c52-81f7-dd067c921a9f","ios":"levelo://app?vid=88baf1fe-4b9b-4c52-81f7-dd067c921a9f"},"vehicle_type_id":"4","last_reported":1773537656,"current_range_meters":11200,"station_id":"st_d3jp68qikq2c7381ktn0","pricing_plan_id":"cebpf4jnsgd1na2vs0mg"},{"bike_id":"003a688f-ae93-4dfc-85a1-07ea2453761a","system_id":"levelo_inurba_marseille","lat":43.28672,"lon":5.36343,"is_reserved":false,"is_disabled":false,"rental_uris":{"android":"levelo://app?vid=003a688f-ae93-4dfc-85a1-07ea2453761a","ios":"levelo://app?vid=003a688f-ae93-4dfc-85a1-07ea2453761a"},"vehicle_type_id":"4","last_reported":1773537656,"current_range_meters":28000,"station_id":"ce4bhah2rcd13ifvqej0","pricing_plan_id":"cebpf4jnsgd1na2vs0mg"},{"bike_id":"343b0137-18a0-4124-889f-de26a064c378","system_id":"levelo_inurba_marseille","lat":43.30962,"lon":5.3903,"is_reserved":false,"is_disabled":false,"rental_uris":{"android":"levelo://app?vid=343b0137-18a0-4124-889f-de26a064c378","ios":"levelo://app?vid=343b0137-18a0-4124-889f-de26a064c378"},"vehicle_type_id":"4","last_reported":1773537656,"current_range_meters":38400,"station_id":"ce4bgup2rcd13ifvqco0","pricing_plan_id":"cebpf4jnsgd1na2vs0mg"},{"bike_id":"fc490484-a83d-4dbc-a9ca-17596f3ee413","system_id":"levelo_inurba_marseille","lat":43.23191,"lon":5.35556,"is_reserved":false,"is_disabled":false,"rental_uris":{"android":"levelo://app?vid=fc490484-a83d-4dbc-a9ca-17596f3ee413","ios":"levelo://app?vid=fc490484-a83d-4dbc-a9ca-17596f3ee413"},"vehicle_type_id":"4","last_reported":1773537656,"current_range_meters":35600,"station_id":"ce4bhu92rcd13ifvqi70","pricing_plan_id":"cebpf4jnsgd1na2vs0mg"},{"bike_id":"e4c5b372-6892-4028-8a07-7aa5c5a4433c","system_id":"levelo_inurba_marseille","lat":43.27347,"lon":5.39204,"is_reserved":false,"is_disabled":true,"rental_uris":{"android":"levelo://app?vid=e4c5b372-6892-4028-8a07-7aa5c5a4433c","ios":"levelo://app?vid=e4c5b372-6892-4028-8a07-7aa5c5a4433c"},"vehicle_type_id":"4","last_reported":1773537656,"current_range_meters":0,"station_id":"","pricing_plan_id":"cebpf4jnsgd1na2vs0mg"},{"bike_id":"574389cd-d5f7-4bb8-8e81-3a3b9218fbef","system_id":"levelo_inurba_marseille","lat":43.24189,"lon":5.36369,"is_reserved":false,"is_disabled":false,"rental_uris":{"android":"levelo://app?vid=574389cd-d5f7-4bb8-8e81-3a3b9218fbef","ios":"levelo://app?vid=574389cd-d5f7-4bb8-8e81-3a3b9218fbef"},"vehicle_type_id":"4","last_reported":1773537656,"current_range_meters":10000,"station_id":"cpo36qri1sfpv3e86is0","pricing_plan_id":"cebpf4jnsgd1na2vs0mg"},{"bike_id":"44502a88-b86f-48e4-8552-de8ca01c45de","system_id":"levelo_inurba_marseille","lat":43.25829,"lon":5.39433,"is_reserved":false,"is_disabled":false,"rental_uris":{"android":"levelo://app?vid=44502a88-b86f-48e4-8552-de8ca01c45de","ios":"levelo://app?vid=44502a88-b86f-48e4-8552-de8ca01c45de"},"vehicle_type_id":"4","last_reported":1773537656,"current_range_meters":37600,"station_id":"ce4bhip2rcd13ifvqft0","pricing_plan_id":"cebpf4jnsgd1na2vs0mg"},{"bike_id":"d008a3ca-bdab-43f7-957e-465391a2d48d","system_id":"levelo_inurba_marseille","lat":43.31726,"lon":5.42393,"is_reserved":false,"is_disabled":false,"rental_uris":{"android":"levelo://app?vid=d008a3ca-bdab-43f7-957e-465391a2d48d","ios":"levelo://app?vid=d008a3ca-bdab-43f7-957e-465391a2d48d"},"vehicle_type_id":"4","last_reported":1773537656,"current_range_meters":30400,"station_id":"ce4bhp92rcd13ifvqhbg","pricing_plan_id":"cebpf4jnsgd1na2vs0mg"},{"bike_id":"620ff2af-052e-41b1-a64f-0ec58b0cc2e0","system_id":"levelo_inurba_marseille","lat":43.30554,"lon":5.36562,"is_reserved":false,"is_disabled":false,"rental_uris":{"android":"levelo://app?vid=620ff2af-052e-41b1-a64f-0ec58b0cc2e0","ios":"levelo://app?vid=620ff2af-052e-41b1-a64f-0ec58b0cc2e0"},"vehicle_type_id":"4","last_reported":1773537656,"current_range_meters":25200,"station_id":"ce4bgs12rcd13ifvqcag","pricing_plan_id":"cebpf4jnsgd1na2vs0mg"},{"bike_id":"6a8a7c2a-8a7e-41a1-a4b5-7ca30327194c","system_id":"levelo_inurba_marseille","lat":43.25127,"lon":5.40325,"is_reserved":false,"is_disabled":false,"rental_uris":{"android":"levelo://app?vid=6a8a7c2a-8a7e-41a1-a4b5-7ca30327194c","ios":"levelo://app?vid=6a8a7c2a-8a7e-41a1-a4b5-7ca30327194c"},"vehicle_type_id":"4","last_reported":1773537656,"current_range_meters":39200,"station_id":"ce4bhlh2rcd13ifvqgig","pricing_plan_id":"cebpf4jnsgd1na2vs0mg"},{"bike_id":"ae86bb4e-6189-46e4-b3fc-5e0b13b23d1f","system_id":"levelo_inurba_marseille","lat":43.21236,"lon":5.35046,"is_reserved":false,"is_disabled":false,"rental_uris":{"android":"levelo://app?vid=ae86bb4e-6189-46e4-b3fc-5e0b13b23d1f","ios":"levelo://app?vid=ae86bb4e-6189-46e4-b3fc-5e0b13b23d1f"},"vehicle_type_id":"4","last_reported":1773537656,"current_range_meters":9200,"station_id":"","pricing_plan_id":"cebpf4jnsgd1na2vs0mg"},{"bike_id":"5acaf7e1-5b00-4bef-85ae-4b835efcff08","system_id":"levelo_inurba_marseille","lat":43.28607,"lon":5.36229,"is_reserved":false,"is_disabled":false,"rental_uris":{"android":"levelo://app?vid=5acaf7e1-5b00-4bef-85ae-4b835efcff08","ios":"levelo://app?vid=5acaf7e1-5b00-4bef-85ae-4b835efcff08"},"vehicle_type_id":"4","last_reported":1773537656,"current_range_meters":39200,"station_id":"ce4bhah2rcd13ifvqej0","pricing_plan_id":"cebpf4jnsgd1na2vs0mg"},{"bike_id":"2da74aad-d5d0-4aee-be79-0fb398f1f69b","system_id":"levelo_inurba_marseille","lat":43.29783,"lon":5.381,"is_reserved":false,"is_disabled":true,"rental_uris":{"android":"levelo://app?vid=2da74aad-d5d0-4aee-be79-0fb398f1f69b","ios":"levelo://app?vid=2da74aad-d5d0-4aee-be79-0fb398f1f69b"},"vehicle_type_id":"4","last_reported":1773537656,"current_range_meters":24800,"station_id":"ce4bgip2rcd13ifvqbb0","pricing_plan_id":"cebpf4jnsgd1na2vs0mg"},{"bike_id":"38b12cbc-5d90-4180-b39e-1ff3e0d17bf2","system_id":"levelo_inurba_marseille","lat":43.27989,"lon":5.41654,"is_reserved":false,"is_disabled":false,"rental_uris":{"android":"levelo://app?vid=38b12cbc-5d90-4180-b39e-1ff3e0d17bf2","ios":"levelo://app?vid=38b12cbc-5d90-4180-b39e-1ff3e0d17bf2"},"vehicle_type_id":"4","last_reported":1773537656,"current_range_meters":32400,"station_id":"ce4bho12rcd13ifvqh1g","pricing_plan_id":"cebpf4jnsgd1na2vs0mg"},{"bike_id":"2444b383-186d-4aa9-ac23-06be09cc8c39","system_id":"levelo_inurba_marseille","lat":43.29787,"lon":5.37098,"is_reserved":false,"is_disabled":false,"rental_uris":{"android":"levelo://app?vid=2444b383-186d-4aa9-ac23-06be09cc8c39","ios":"levelo://app?vid=2444b383-186d-4aa9-ac23-06be09cc8c39"},"vehicle_type_id":"4","last_reported":1773537656,"current_range_meters":33600,"station_id":"ce4bgop2rcd13ifvqc1g","pricing_plan_id":"cebpf4jnsgd1na2vs0mg"},{"bike_id":"c5e75752-a286-449d-8e67-bace779c66a2","system_id":"levelo_inurba_marseille","lat":43.23193,"lon":5.39986,"is_reserved":false,"is_disabled":false,"rental_uris":{"android":"levelo://app?vid=c5e75752-a286-449d-8e67-bace779c66a2","ios":"levelo://app?vid=c5e75752-a286-449d-8e67-bace779c66a2"},"vehicle_type_id":"4","last_reported":1773537656,"current_range_meters":35600,"station_id":"ce4bhn12rcd13ifvqgqg","pricing_plan_id":"cebpf4jnsgd1na2vs0mg"},{"bike_id":"fd501590-7696-4af3-ab8c-7fdb344de8fb","system_id":"levelo_inurba_marseille","lat":43.27988,"lon":5.41643,"is_reserved":false,"is_disabled":false,"rental_uris":{"android":"levelo://app?vid=fd501590-7696-4af3-ab8c-7fdb344de8fb","ios":"levelo://app?vid=fd501590-7696-4af3-ab8c-7fdb344de8fb"},"vehicle_type_id":"4","last_reported":1773537656,"current_range_meters":39200,"station_id":"ce4bho12rcd13ifvqh1g","pricing_plan_id":"cebpf4jnsgd1na2vs0mg"},{"bike_id":"2d860cee-7725-4602-a27b-539738abc938","system_id":"levelo_inurba_marseille","lat":43.28914,"lon":5.36388,"is_reserved":false,"is_disabled":false,"rental_uris":{"android":"levelo://app?vid=2d860cee-7725-4602-a27b-539738abc938","ios":"levelo://app?vid=2d860cee-7725-4602-a27b-539738abc938"},"vehicle_type_id":"4","last_reported":1773537656,"current_range_meters":33200,"station_id":"","pricing_plan_id":"cebpf4jnsgd1na2vs0mg"},{"bike_id":"38b4eda8-06a1-488b-ae14-788d5c883747","system_id":"levelo_inurba_marseille","lat":43.29191,"lon":5.35783,"is_reserved":false,"is_disabled":false,"rental_uris":{"android":"levelo://app?vid=38b4eda8-06a1-488b-ae14-788d5c883747","ios":"levelo://app?vid=38b4eda8-06a1-488b-ae14-788d5c883747"},"vehicle_type_id":"4","last_reported":1773537656,"current_range_meters":35200,"station_id":"ce4bhb12rcd13ifvqel0","pricing_plan_id":"cebpf4jnsgd1na2vs0mg"},{"bike_id":"57bb4d9e-d4d4-4990-bab6-6d06f315dddc","system_id":"levelo_inurba_marseille","lat":43.30144,"lon":5.37445,"is_reserved":false,"is_disabled":false,"rental_uris":{"android":"levelo://app?vid=57bb4d9e-d4d4-4990-bab6-6d06f315dddc","ios":"levelo://app?vid=57bb4d9e-d4d4-4990-bab6-6d06f315dddc"},"vehicle_type_id":"4","last_reported":1773537656,"current_range_meters":36400,"station_id":"ce4bgs92rcd13ifvqcc0","pricing_plan_id":"cebpf4jnsgd1na2vs0mg"},{"bike_id":"2bab96cf-f3bd-4d1e-9a10-e0bfbf596746","system_id":"levelo_inurba_marseille","lat":43.23197,"lon":5.39968,"is_reserved":false,"is_disabled":false,"rental_uris":{"android":"levelo://app?vid=2bab96cf-f3bd-4d1e-9a10-e0bfbf596746","ios":"levelo://app?vid=2bab96cf-f3bd-4d1e-9a10-e0bfbf596746"},"vehicle_type_id":"4","last_reported":1773537656,"current_range_meters":28800,"station_id":"ce4bhn12rcd13ifvqgqg","pricing_plan_id":"cebpf4jnsgd1na2vs0mg"},{"bike_id":"ef364c26-b12f-4ac2-8385-acdb623c591d","system_id":"levelo_inurba_marseille","lat":43.22556,"lon":5.41635,"is_reserved":false,"is_disabled":false,"rental_uris":{"android":"levelo://app?vid=ef364c26-b12f-4ac2-8385-acdb623c591d","ios":"levelo://app?vid=ef364c26-b12f-4ac2-8385-acdb623c591d"},"vehicle_type_id":"4","last_reported":1773537656,"current_range_meters":11600,"station_id":"st_d2o4gvlbi1j2169b742g","pricing_plan_id":"cebpf4jnsgd1na2vs0mg"},{"bike_id":"7de1cf08-524a-4117-b363-0bfbe546af65","system_id":"levelo_inurba_marseille","lat":43.30597,"lon":5.39354,"is_reserved":false,"is_disabled":false,"rental_uris":{"android":"levelo://app?vid=7de1cf08-524a-4117-b363-0bfbe546af65","ios":"levelo://app?vid=7de1cf08-524a-4117-b363-0bfbe546af65"},"vehicle_type_id":"4","last_reported":1773537656,"current_range_meters":38000,"station_id":"ce4bh0p2rcd13ifvqd80","pricing_plan_id":"cebpf4jnsgd1na2vs0mg"},{"bike_id":"c7322f00-b8b6-465c-b8c1-59daedecaff5","system_id":"levelo_inurba_marseille","lat":43.28031,"lon":5.3693,"is_reserved":false,"is_disabled":false,"rental_uris":{"android":"levelo://app?vid=c7322f00-b8b6-465c-b8c1-59daedecaff5","ios":"levelo://app?vid=c7322f00-b8b6-465c-b8c1-59daedecaff5"},"vehicle_type_id":"4","last_reported":1773537656,"current_range_meters":35600,"station_id":"ce4bha12rcd13ifvqef0","pricing_plan_id":"cebpf4jnsgd1na2vs0mg"},{"bike_id":"33366443-6e47-469a-98dd-6e660d31792e","system_id":"levelo_inurba_marseille","lat":43.2656,"lon":5.3727,"is_reserved":false,"is_disabled":false,"rental_uris":{"android":"levelo://app?vid=33366443-6e47-469a-98dd-6e660d31792e","ios":"levelo://app?vid=33366443-6e47-469a-98dd-6e660d31792e"},"vehicle_type_id":"4","last_reported":1773537656,"current_range_meters":3200,"station_id":"ce4bhg12rcd13ifvqf70","pricing_plan_id":"cebpf4jnsgd1na2vs0mg"},{"bike_id":"8617b24d-bdd2-49e3-beda-5d74fc474252","system_id":"levelo_inurba_marseille","lat":43.2847,"lon":5.48407,"is_reserved":false,"is_disabled":false,"rental_uris":{"android":"levelo://app?vid=8617b24d-bdd2-49e3-beda-5d74fc474252","ios":"levelo://app?vid=8617b24d-bdd2-49e3-beda-5d74fc474252"},"vehicle_type_id":"4","last_reported":1773537656,"current_range_meters":25600,"station_id":"","pricing_plan_id":"cebpf4jnsgd1na2vs0mg"},{"bike_id":"75f1146b-b27c-4ee4-85c5-6d1e00364ea7","system_id":"levelo_inurba_marseille","lat":43.24965,"lon":5.40499,"is_reserved":false,"is_disabled":false,"rental_uris":{"android":"levelo://app?vid=75f1146b-b27c-4ee4-85c5-6d1e00364ea7","ios":"levelo://app?vid=75f1146b-b27c-4ee4-85c5-6d1e00364ea7"},"vehicle_type_id":"4","last_reported":1773537656,"current_range_meters":12400,"station_id":"st_d2ngiaodas8pm72gd1h0","pricing_plan_id":"cebpf4jnsgd1na2vs0mg"},{"bike_id":"75f14208-a968-40dc-80f8-68b063e0d714","system_id":"levelo_inurba_marseille","lat":43.23162,"lon":5.43699,"is_reserved":false,"is_disabled":false,"rental_uris":{"android":"levelo://app?vid=75f14208-a968-40dc-80f8-68b063e0d714","ios":"levelo://app?vid=75f14208-a968-40dc-80f8-68b063e0d714"},"vehicle_type_id":"4","last_reported":1773537656,"current_range_meters":9200,"station_id":"ce4bhmp2rcd13ifvqgog","pricing_plan_id":"cebpf4jnsgd1na2vs0mg"},{"bike_id":"c1a1bdaf-ac06-4f09-b96b-4cb675baef96","system_id":"levelo_inurba_marseille","lat":43.27903,"lon":5.37996,"is_reserved":false,"is_disabled":false,"rental_uris":{"android":"levelo://app?vid=c1a1bdaf-ac06-4f09-b96b-4cb675baef96","ios":"levelo://app?vid=c1a1bdaf-ac06-4f09-b96b-4cb675baef96"},"vehicle_type_id":"4","last_reported":1773537656,"current_range_meters":26000,"station_id":"ce4bhf92rcd13ifvqf50","pricing_plan_id":"cebpf4jnsgd1na2vs0mg"},{"bike_id":"4a09330b-b9bf-424e-8693-aafe00acb3cd","system_id":"levelo_inurba_marseille","lat":43.29548,"lon":5.42249,"is_reserved":false,"is_disabled":false,"rental_uris":{"android":"levelo://app?vid=4a09330b-b9bf-424e-8693-aafe00acb3cd","ios":"levelo://app?vid=4a09330b-b9bf-424e-8693-aafe00acb3cd"},"vehicle_type_id":"4","last_reported":1773537656,"current_range_meters":38800,"station_id":"ce4bhph2rcd13ifvqhdg","pricing_plan_id":"cebpf4jnsgd1na2vs0mg"},{"bike_id":"e0f4c726-c891-4b59-a727-5f7bf2fb4325","system_id":"levelo_inurba_marseille","lat":43.28542,"lon":5.44083,"is_reserved":false,"is_disabled":false,"rental_uris":{"android":"levelo://app?vid=e0f4c726-c891-4b59-a727-5f7bf2fb4325","ios":"levelo://app?vid=e0f4c726-c891-4b59-a727-5f7bf2fb4325"},"vehicle_type_id":"4","last_reported":1773537656,"current_range_meters":38000,"station_id":"st_d3j3df2ikq2c7380ej80","pricing_plan_id":"cebpf4jnsgd1na2vs0mg"},{"bike_id":"fdb474a4-4731-4915-8696-0a7cb3f89d1c","system_id":"levelo_inurba_marseille","lat":43.24663,"lon":5.38176,"is_reserved":false,"is_disabled":false,"rental_uris":{"android":"levelo://app?vid=fdb474a4-4731-4915-8696-0a7cb3f89d1c","ios":"levelo://app?vid=fdb474a4-4731-4915-8696-0a7cb3f89d1c"},"vehicle_type_id":"4","last_reported":1773537656,"current_range_meters":13600,"station_id":"ce4bhih2rcd13ifvqfr0","pricing_plan_id":"cebpf4jnsgd1na2vs0mg"},{"bike_id":"3d4208c2-815f-40bf-8bb0-f78b87ee07d6","system_id":"levelo_inurba_marseille","lat":43.28401,"lon":5.34986,"is_reserved":false,"is_disabled":false,"rental_uris":{"android":"levelo://app?vid=3d4208c2-815f-40bf-8bb0-f78b87ee07d6","ios":"levelo://app?vid=3d4208c2-815f-40bf-8bb0-f78b87ee07d6"},"vehicle_type_id":"4","last_reported":1773537656,"current_range_meters":34000,"station_id":"ce4bhbh2rcd13ifvqepg","pricing_plan_id":"cebpf4jnsgd1na2vs0mg"},{"bike_id":"243b8af3-1b22-4e78-9a7d-40313a09b6ce","system_id":"levelo_inurba_marseille","lat":43.31695,"lon":5.40469,"is_reserved":false,"is_disabled":false,"rental_uris":{"android":"levelo://app?vid=243b8af3-1b22-4e78-9a7d-40313a09b6ce","ios":"levelo://app?vid=243b8af3-1b22-4e78-9a7d-40313a09b6ce"},"vehicle_type_id":"4","last_reported":1773537656,"current_range_meters":16000,"station_id":"ce4bh012rcd13ifvqd00","pricing_plan_id":"cebpf4jnsgd1na2vs0mg"},{"bike_id":"b129dd58-1611-46d1-8998-00763fbad8df","system_id":"levelo_inurba_marseille","lat":43.30075,"lon":5.41678,"is_reserved":false,"is_disabled":false,"rental_uris":{"android":"levelo://app?vid=b129dd58-1611-46d1-8998-00763fbad8df","ios":"levelo://app?vid=b129dd58-1611-46d1-8998-00763fbad8df"},"vehicle_type_id":"4","last_reported":1773537656,"current_range_meters":32400,"station_id":"","pricing_plan_id":"cebpf4jnsgd1na2vs0mg"},{"bike_id":"155725a2-4e9c-4e7c-942b-f2b8be31f206","system_id":"levelo_inurba_marseille","lat":43.21751,"lon":5.34608,"is_reserved":false,"is_disabled":false,"rental_uris":{"android":"levelo://app?vid=155725a2-4e9c-4e7c-942b-f2b8be31f206","ios":"levelo://app?vid=155725a2-4e9c-4e7c-942b-f2b8be31f206"},"vehicle_type_id":"4","last_reported":1773537656,"current_range_meters":6000,"station_id":"st_cvj6r9ubvosntc0bgbag","pricing_plan_id":"cebpf4jnsgd1na2vs0mg"},{"bike_id":"5b9c3f93-1599-4fd0-b513-558b424405ce","system_id":"levelo_inurba_marseille","lat":43.32463,"lon":5.36617,"is_reserved":false,"is_disabled":false,"rental_uris":{"android":"levelo://app?vid=5b9c3f93-1599-4fd0-b513-558b424405ce","ios":"levelo://app?vid=5b9c3f93-1599-4fd0-b513-558b424405ce"},"vehicle_type_id":"4","last_reported":1773537656,"current_range_meters":39200,"station_id":"ce4bhs12rcd13ifvqhvg","pricing_plan_id":"cebpf4jnsgd1na2vs0mg"},{"bike_id":"56fddcda-c541-44a5-8391-f7fbf087f4ed","system_id":"levelo_inurba_marseille","lat":43.22569,"lon":5.41627,"is_reserved":false,"is_disabled":false,"rental_uris":{"android":"levelo://app?vid=56fddcda-c541-44a5-8391-f7fbf087f4ed","ios":"levelo://app?vid=56fddcda-c541-44a5-8391-f7fbf087f4ed"},"vehicle_type_id":"4","last_reported":1773537656,"current_range_meters":38000,"station_id":"st_d2o4gvlbi1j2169b742g","pricing_plan_id":"cebpf4jnsgd1na2vs0mg"},{"bike_id":"4cbd8e90-f6b2-4a15-9171-587e8d204326","system_id":"levelo_inurba_marseille","lat":43.30278,"lon":5.37696,"is_reserved":false,"is_disabled":false,"rental_uris":{"android":"levelo://app?vid=4cbd8e90-f6b2-4a15-9171-587e8d204326","ios":"levelo://app?vid=4cbd8e90-f6b2-4a15-9171-587e8d204326"},"vehicle_type_id":"4","last_reported":1773537656,"current_range_meters":30800,"station_id":"ce4bguh2rcd13ifvqcj0","pricing_plan_id":"cebpf4jnsgd1na2vs0mg"},{"bike_id":"03a83542-630e-44b6-8f5c-63cdf9535b52","system_id":"levelo_inurba_marseille","lat":43.2719,"lon":5.40983,"is_reserved":false,"is_disabled":false,"rental_uris":{"android":"levelo://app?vid=03a83542-630e-44b6-8f5c-63cdf9535b52","ios":"levelo://app?vid=03a83542-630e-44b6-8f5c-63cdf9535b52"},"vehicle_type_id":"4","last_reported":1773537656,"current_range_meters":38800,"station_id":"ce4bhl12rcd13ifvqgf0","pricing_plan_id":"cebpf4jnsgd1na2vs0mg"},{"bike_id":"6d521698-da04-48f1-a705-ff9797c15106","system_id":"levelo_inurba_marseille","lat":43.303,"lon":5.3771,"is_reserved":false,"is_disabled":false,"rental_uris":{"android":"levelo://app?vid=6d521698-da04-48f1-a705-ff9797c15106","ios":"levelo://app?vid=6d521698-da04-48f1-a705-ff9797c15106"},"vehicle_type_id":"4","last_reported":1773537656,"current_range_meters":16400,"station_id":"ce4bguh2rcd13ifvqcj0","pricing_plan_id":"cebpf4jnsgd1na2vs0mg"},{"bike_id":"6417b1a1-014e-46d5-a190-408c4d247525","system_id":"levelo_inurba_marseille","lat":43.26225,"lon":5.37455,"is_reserved":false,"is_disabled":false,"rental_uris":{"android":"levelo://app?vid=6417b1a1-014e-46d5-a190-408c4d247525","ios":"levelo://app?vid=6417b1a1-014e-46d5-a190-408c4d247525"},"vehicle_type_id":"4","last_reported":1773537656,"current_range_meters":16800,"station_id":"","pricing_plan_id":"cebpf4jnsgd1na2vs0mg"},{"bike_id":"d68fd4aa-8968-423f-bc37-134f219e37bb","system_id":"levelo_inurba_marseille","lat":43.2986,"lon":5.3627,"is_reserved":false,"is_disabled":false,"rental_uris":{"android":"levelo://app?vid=d68fd4aa-8968-423f-bc37-134f219e37bb","ios":"levelo://app?vid=d68fd4aa-8968-423f-bc37-134f219e37bb"},"vehicle_type_id":"4","last_reported":1773537656,"current_range_meters":36400,"station_id":"ce4bgpp2rcd13ifvqc3g","pricing_plan_id":"cebpf4jnsgd1na2vs0mg"},{"bike_id":"d213d92d-5289-4183-93be-f84e36b07244","system_id":"levelo_inurba_marseille","lat":43.29023,"lon":5.35584,"is_reserved":false,"is_disabled":false,"rental_uris":{"android":"levelo://app?vid=d213d92d-5289-4183-93be-f84e36b07244","ios":"levelo://app?vid=d213d92d-5289-4183-93be-f84e36b07244"},"vehicle_type_id":"4","last_reported":1773537656,"current_range_meters":25200,"station_id":"ce4bhb92rcd13ifvqen0","pricing_plan_id":"cebpf4jnsgd1na2vs0mg"},{"bike_id":"64303c33-dd0e-4058-88f1-4ad1fe4b8f6f","system_id":"levelo_inurba_marseille","lat":43.29915,"lon":5.37452,"is_reserved":false,"is_disabled":false,"rental_uris":{"android":"levelo://app?vid=64303c33-dd0e-4058-88f1-4ad1fe4b8f6f","ios":"levelo://app?vid=64303c33-dd0e-4058-88f1-4ad1fe4b8f6f"},"vehicle_type_id":"4","last_reported":1773537656,"current_range_meters":19600,"station_id":"ce4bgjh2rcd13ifvqbg0","pricing_plan_id":"cebpf4jnsgd1na2vs0mg"},{"bike_id":"2e2cafb6-e5c3-479c-8a76-66c5dfecc926","system_id":"levelo_inurba_marseille","lat":43.26189,"lon":5.37451,"is_reserved":false,"is_disabled":true,"rental_uris":{"android":"levelo://app?vid=2e2cafb6-e5c3-479c-8a76-66c5dfecc926","ios":"levelo://app?vid=2e2cafb6-e5c3-479c-8a76-66c5dfecc926"},"vehicle_type_id":"4","last_reported":1773537656,"current_range_meters":30400,"station_id":"ce4bhgp2rcd13ifvqfc0","pricing_plan_id":"cebpf4jnsgd1na2vs0mg"},{"bike_id":"d82c8d0e-a151-4bb6-8123-c44e6aaa877b","system_id":"levelo_inurba_marseille","lat":43.28469,"lon":5.35882,"is_reserved":false,"is_disabled":false,"rental_uris":{"android":"levelo://app?vid=d82c8d0e-a151-4bb6-8123-c44e6aaa877b","ios":"levelo://app?vid=d82c8d0e-a151-4bb6-8123-c44e6aaa877b"},"vehicle_type_id":"4","last_reported":1773537656,"current_range_meters":38800,"station_id":"ce4bhah2rcd13ifvqei0","pricing_plan_id":"cebpf4jnsgd1na2vs0mg"},{"bike_id":"378008cb-af5a-4fbc-8292-b209b164483f","system_id":"levelo_inurba_marseille","lat":43.29706,"lon":5.37617,"is_reserved":false,"is_disabled":false,"rental_uris":{"android":"levelo://app?vid=378008cb-af5a-4fbc-8292-b209b164483f","ios":"levelo://app?vid=378008cb-af5a-4fbc-8292-b209b164483f"},"vehicle_type_id":"4","last_reported":1773537656,"current_range_meters":38000,"station_id":"","pricing_plan_id":"cebpf4jnsgd1na2vs0mg"},{"bike_id":"7b4f3785-c03f-4f66-b614-089b31933102","system_id":"levelo_inurba_marseille","lat":43.23964,"lon":5.36648,"is_reserved":false,"is_disabled":false,"rental_uris":{"android":"levelo://app?vid=7b4f3785-c03f-4f66-b614-089b31933102","ios":"levelo://app?vid=7b4f3785-c03f-4f66-b614-089b31933102"},"vehicle_type_id":"4","last_reported":1773537656,"current_range_meters":30000,"station_id":"ce4bhi12rcd13ifvqfp0","pricing_plan_id":"cebpf4jnsgd1na2vs0mg"},{"bike_id":"1b3e89b9-f942-4e75-b973-9bb35f549a33","system_id":"levelo_inurba_marseille","lat":43.31375,"lon":5.38499,"is_reserved":false,"is_disabled":false,"rental_uris":{"android":"levelo://app?vid=1b3e89b9-f942-4e75-b973-9bb35f549a33","ios":"levelo://app?vid=1b3e89b9-f942-4e75-b973-9bb35f549a33"},"vehicle_type_id":"4","last_reported":1773537656,"current_range_meters":28400,"station_id":"ce4bgt92rcd13ifvqcf0","pricing_plan_id":"cebpf4jnsgd1na2vs0mg"},{"bike_id":"242e55c9-ac4f-4aec-81c1-865b2142177b","system_id":"levelo_inurba_marseille","lat":43.22923,"lon":5.35368,"is_reserved":false,"is_disabled":false,"rental_uris":{"android":"levelo://app?vid=242e55c9-ac4f-4aec-81c1-865b2142177b","ios":"levelo://app?vid=242e55c9-ac4f-4aec-81c1-865b2142177b"},"vehicle_type_id":"4","last_reported":1773537656,"current_range_meters":10000,"station_id":"cpo3532slgdg3j2ikp40","pricing_plan_id":"cebpf4jnsgd1na2vs0mg"},{"bike_id":"9e663960-b898-4d9b-b3fc-cc012c944d0f","system_id":"levelo_inurba_marseille","lat":43.30306,"lon":5.36905,"is_reserved":false,"is_disabled":false,"rental_uris":{"android":"levelo://app?vid=9e663960-b898-4d9b-b3fc-cc012c944d0f","ios":"levelo://app?vid=9e663960-b898-4d9b-b3fc-cc012c944d0f"},"vehicle_type_id":"4","last_reported":1773537656,"current_range_meters":34000,"station_id":"ce4bgqh2rcd13ifvqc5g","pricing_plan_id":"cebpf4jnsgd1na2vs0mg"},{"bike_id":"ac325101-b5a7-4f5d-9bc7-aba501847b2e","system_id":"levelo_inurba_marseille","lat":43.27387,"lon":5.36274,"is_reserved":false,"is_disabled":true,"rental_uris":{"android":"levelo://app?vid=ac325101-b5a7-4f5d-9bc7-aba501847b2e","ios":"levelo://app?vid=ac325101-b5a7-4f5d-9bc7-aba501847b2e"},"vehicle_type_id":"4","last_reported":1773537656,"current_range_meters":38400,"station_id":"ce4bhbh2rcd13ifvqeo0","pricing_plan_id":"cebpf4jnsgd1na2vs0mg"},{"bike_id":"cffdf26c-1919-4029-87b5-8b45a2bc0447","system_id":"levelo_inurba_marseille","lat":43.29624,"lon":5.36752,"is_reserved":false,"is_disabled":true,"rental_uris":{"android":"levelo://app?vid=cffdf26c-1919-4029-87b5-8b45a2bc0447","ios":"levelo://app?vid=cffdf26c-1919-4029-87b5-8b45a2bc0447"},"vehicle_type_id":"4","last_reported":1773537656,"current_range_meters":39200,"station_id":"ce4bgph2rcd13ifvqc2g","pricing_plan_id":"cebpf4jnsgd1na2vs0mg"},{"bike_id":"8c073acc-49ea-416e-aaf4-e662605a67ea","system_id":"levelo_inurba_marseille","lat":43.29923,"lon":5.37445,"is_reserved":false,"is_disabled":false,"rental_uris":{"android":"levelo://app?vid=8c073acc-49ea-416e-aaf4-e662605a67ea","ios":"levelo://app?vid=8c073acc-49ea-416e-aaf4-e662605a67ea"},"vehicle_type_id":"4","last_reported":1773537656,"current_range_meters":6400,"station_id":"ce4bgjh2rcd13ifvqbg0","pricing_plan_id":"cebpf4jnsgd1na2vs0mg"},{"bike_id":"cb969723-c1c1-4dae-93f6-1fb61cdfb887","system_id":"levelo_inurba_marseille","lat":43.23787,"lon":5.36615,"is_reserved":false,"is_disabled":false,"rental_uris":{"android":"levelo://app?vid=cb969723-c1c1-4dae-93f6-1fb61cdfb887","ios":"levelo://app?vid=cb969723-c1c1-4dae-93f6-1fb61cdfb887"},"vehicle_type_id":"4","last_reported":1773537656,"current_range_meters":29600,"station_id":"st_d3nk18o9ro0c73en2l3g","pricing_plan_id":"cebpf4jnsgd1na2vs0mg"},{"bike_id":"6840f6df-3461-42c8-98d7-357f6584e26f","system_id":"levelo_inurba_marseille","lat":43.27378,"lon":5.3626,"is_reserved":false,"is_disabled":false,"rental_uris":{"android":"levelo://app?vid=6840f6df-3461-42c8-98d7-357f6584e26f","ios":"levelo://app?vid=6840f6df-3461-42c8-98d7-357f6584e26f"},"vehicle_type_id":"4","last_reported":1773537656,"current_range_meters":34000,"station_id":"ce4bhbh2rcd13ifvqeo0","pricing_plan_id":"cebpf4jnsgd1na2vs0mg"},{"bike_id":"b942e0d0-9e2e-455a-be25-3292fa32d5f9","system_id":"levelo_inurba_marseille","lat":43.31321,"lon":5.39683,"is_reserved":false,"is_disabled":false,"rental_uris":{"android":"levelo://app?vid=b942e0d0-9e2e-455a-be25-3292fa32d5f9","ios":"levelo://app?vid=b942e0d0-9e2e-455a-be25-3292fa32d5f9"},"vehicle_type_id":"4","last_reported":1773537656,"current_range_meters":27200,"station_id":"ce4bgvp2rcd13ifvqcu0","pricing_plan_id":"cebpf4jnsgd1na2vs0mg"},{"bike_id":"c94288f2-a497-4ad8-8895-742d04d19603","system_id":"levelo_inurba_marseille","lat":43.29194,"lon":5.35787,"is_reserved":false,"is_disabled":false,"rental_uris":{"android":"levelo://app?vid=c94288f2-a497-4ad8-8895-742d04d19603","ios":"levelo://app?vid=c94288f2-a497-4ad8-8895-742d04d19603"},"vehicle_type_id":"4","last_reported":1773537656,"current_range_meters":26800,"station_id":"ce4bhb12rcd13ifvqel0","pricing_plan_id":"cebpf4jnsgd1na2vs0mg"},{"bike_id":"bd89e276-dc2e-4a70-a292-b534aad3502e","system_id":"levelo_inurba_marseille","lat":43.29606,"lon":5.37708,"is_reserved":false,"is_disabled":false,"rental_uris":{"android":"levelo://app?vid=bd89e276-dc2e-4a70-a292-b534aad3502e","ios":"levelo://app?vid=bd89e276-dc2e-4a70-a292-b534aad3502e"},"vehicle_type_id":"4","last_reported":1773537656,"current_range_meters":40000,"station_id":"ce4bgi92rcd13ifvqb90","pricing_plan_id":"cebpf4jnsgd1na2vs0mg"},{"bike_id":"13b759af-9f39-4385-b233-8157f102d0b7","system_id":"levelo_inurba_marseille","lat":43.23957,"lon":5.36592,"is_reserved":false,"is_disabled":false,"rental_uris":{"android":"levelo://app?vid=13b759af-9f39-4385-b233-8157f102d0b7","ios":"levelo://app?vid=13b759af-9f39-4385-b233-8157f102d0b7"},"vehicle_type_id":"4","last_reported":1773537656,"current_range_meters":39200,"station_id":"ce4bhi12rcd13ifvqfp0","pricing_plan_id":"cebpf4jnsgd1na2vs0mg"},{"bike_id":"85f4745b-ab68-4297-8f93-949367de0bfe","system_id":"levelo_inurba_marseille","lat":43.28438,"lon":5.39168,"is_reserved":false,"is_disabled":false,"rental_uris":{"android":"levelo://app?vid=85f4745b-ab68-4297-8f93-949367de0bfe","ios":"levelo://app?vid=85f4745b-ab68-4297-8f93-949367de0bfe"},"vehicle_type_id":"4","last_reported":1773537656,"current_range_meters":36400,"station_id":"ce4bhoh2rcd13ifvqh5g","pricing_plan_id":"cebpf4jnsgd1na2vs0mg"},{"bike_id":"ce85a082-729f-4db7-99c1-d945817661a9","system_id":"levelo_inurba_marseille","lat":43.29573,"lon":5.36715,"is_reserved":false,"is_disabled":false,"rental_uris":{"android":"levelo://app?vid=ce85a082-729f-4db7-99c1-d945817661a9","ios":"levelo://app?vid=ce85a082-729f-4db7-99c1-d945817661a9"},"vehicle_type_id":"4","last_reported":1773537656,"current_range_meters":34800,"station_id":"ce4bgph2rcd13ifvqc2g","pricing_plan_id":"cebpf4jnsgd1na2vs0mg"},