{"last_updated":1758035432,"ttl":60,"version":"2.2","data":{"bikes":[{"bike_id":"238f9bff-77b1-4a65-80e1-19f0e802d791","system_id":"levelo_inurba_marseille","lat":43.31072,"lon":5.38354,"is_reserved":false,"is_disabled":false,"rental_uris":{"android":"levelo://app?vid=238f9bff-77b1-4a65-80e1-19f0e802d791","ios":"levelo://app?vid=238f9bff-77b1-4a65-80e1-19f0e802d791"},"vehicle_type_id":"4","last_reported":1758035433,"current_range_meters":2800,"station_id":"ce4bgv92rcd13ifvqcr0","pricing_plan_id":"cebpf4jnsgd1na2vs0mg"},{"bike_id":"91960a72-b70d-4803-85fb-90915a937faf","system_id":"levelo_inurba_marseille","lat":43.26569,"lon":5.40327,"is_reserved":false,"is_disabled":false,"rental_uris":{"android":"levelo://app?vid=91960a72-b70d-4803-85fb-90915a937faf","ios":"levelo://app?vid=91960a72-b70d-4803-85fb-90915a937faf"},"vehicle_type_id":"4","last_reported":1758035433,"current_range_meters":2800,"station_id":"ce4bhmp2rcd13ifvqgng","pricing_plan_id":"cebpf4jnsgd1na2vs0mg"},{"bike_id":"d09c3611-6783-4921-8795-b174431fdf9d","system_id":"levelo_inurba_marseille","lat":43.26937,"lon":5.40256,"is_reserved":false,"is_disabled":false,"rental_uris":{"android":"levelo://app?vid=d09c3611-6783-4921-8795-b174431fdf9d","ios":"levelo://app?vid=d09c3611-6783-4921-8795-b174431fdf9d"},"vehicle_type_id":"4","last_reported":1758035433,"current_range_meters":2800,"station_id":"cjm6bp8fraef2m0cb0m0","pricing_plan_id":"cebpf4jnsgd1na2vs0mg"},{"bike_id":"364c4110-976f-4dd1-affc-dd5b2cf1163a","system_id":"levelo_inurba_marseille","lat":43.23966,"lon":5.36627,"is_reserved":false,"is_disabled":false,"rental_uris":{"android":"levelo://app?vid=364c4110-976f-4dd1-affc-dd5b2cf1163a","ios":"levelo://app?vid=364c4110-976f-4dd1-affc-dd5b2cf1163a"},"vehicle_type_id":"4","last_reported":1758035433,"current_range_meters":2800,"station_id":"ce4bhi12rcd13ifvqfp0","pricing_plan_id":"cebpf4jnsgd1na2vs0mg"},{"bike_id":"03809294-3a3e-4efa-afda-0ac11dcf72fc","system_id":"levelo_inurba_marseille","lat":43.33756,"lon":5.37491,"is_reserved":false,"is_disabled":false,"rental_uris":{"android":"levelo://app?vid=03809294-3a3e-4efa-afda-0ac11dcf72fc","ios":"levelo://app?vid=03809294-3a3e-4efa-afda-0ac11dcf72fc"},"vehicle_type_id":"4","last_reported":1758035433,"current_range_meters":2800,"station_id":"","pricing_plan_id":"cebpf4jnsgd1na2vs0mg"},{"bike_id":"6319df1d-d74b-4609-ba6c-1b9cf31da2b5","system_id":"levelo_inurba_marseille","lat":43.28682,"lon":5.39999,"is_reserved":false,"is_disabled":false,"rental_uris":{"android":"levelo://app?vid=6319df1d-d74b-4609-ba6c-1b9cf31da2b5","ios":"levelo://app?vid=6319df1d-d74b-4609-ba6c-1b9cf31da2b5"},"vehicle_type_id":"4","last_reported":1758035433,"current_range_meters":3200,"station_id":"ce4bho92rcd13ifvqh3g","pricing_plan_id":"cebpf4jnsgd1na2vs0mg"},{"bike_id":"d765e876-dc94-417e-ad8c-0ac49bf5261a","system_id":"levelo_inurba_marseille","lat":43.33212,"lon":5.36302,"is_reserved":false,"is_disabled":false,"rental_uris":{"android":"levelo://app?vid=d765e876-dc94-417e-ad8c-0ac49bf5261a","ios":"levelo://app?vid=d765e876-dc94-417e-ad8c-0ac49bf5261a"},"vehicle_type_id":"4","last_reported":1758035433,"current_range_meters":3200,"station_id":"","pricing_plan_id":"cebpf4jnsgd1na2vs0mg"},{"bike_id":"14171ce0-43ca-44ff-99b6-f49987b337e8","system_id":"levelo_inurba_marseille","lat":43.28225,"lon":5.39049,"is_reserved":false,"is_disabled":false,"rental_uris":{"android":"levelo://app?vid=14171ce0-43ca-44ff-99b6-f49987b337e8","ios":"levelo://app?vid=14171ce0-43ca-44ff-99b6-f49987b337e8"},"vehicle_type_id":"4","last_reported":1758035433,"current_range_meters":3200,"station_id":"ce4bhn92rcd13ifvqgsg","pricing_plan_id":"cebpf4jnsgd1na2vs0mg"},{"bike_id":"885adfe8-5a8b-405e-a91f-e80ee3688e71","system_id":"levelo_inurba_marseille","lat":43.33592,"lon":5.410367,"is_reserved":false,"is_disabled":false,"rental_uris":{"android":"levelo://app?vid=885adfe8-5a8b-405e-a91f-e80ee3688e71","ios":"levelo://app?vid=885adfe8-5a8b-405e-a91f-e80ee3688e71"},"vehicle_type_id":"4","last_reported":1758035433,"current_range_meters":3200,"station_id":"ce4bhqh2rcd13ifvqhmg","pricing_plan_id":"cebpf4jnsgd1na2vs0mg"},{"bike_id":"c37933c6-f301-4e72-ae28-b86236887c46","system_id":"levelo_inurba_marseille","lat":43.225329,"lon":5.348362,"is_reserved":false,"is_disabled":false,"rental_uris":{"android":"levelo://app?vid=c37933c6-f301-4e72-ae28-b86236887c46","ios":"levelo://app?vid=c37933c6-f301-4e72-ae28-b86236887c46"},"vehicle_type_id":"4","last_reported":1758035433,"current_range_meters":3200,"station_id":"","pricing_plan_id":"cebpf4jnsgd1na2vs0mg"},{"bike_id":"4ec115f7-70e2-44a0-950b-cc56db458600","system_id":"levelo_inurba_marseille","lat":43.21745,"lon":5.34601,"is_reserved":false,"is_disabled":true,"rental_uris":{"android":"levelo://app?vid=4ec115f7-70e2-44a0-950b-cc56db458600","ios":"levelo://app?vid=4ec115f7-70e2-44a0-950b-cc56db458600"},"vehicle_type_id":"4","last_reported":1758035433,"current_range_meters":3200,"station_id":"st_cvj6r9ubvosntc0bgbag","pricing_plan_id":"cebpf4jnsgd1na2vs0mg"},{"bike_id":"6b5b3c8e-1efc-443e-8d65-f1b5bb18a3da","system_id":"levelo_inurba_marseille","lat":43.26843,"lon":5.3959,"is_reserved":false,"is_disabled":false,"rental_uris":{"android":"levelo://app?vid=6b5b3c8e-1efc-443e-8d65-f1b5bb18a3da","ios":"levelo://app?vid=6b5b3c8e-1efc-443e-8d65-f1b5bb18a3da"},"vehicle_type_id":"4","last_reported":1758035433,"current_range_meters":3200,"station_id":"","pricing_plan_id":"cebpf4jnsgd1na2vs0mg"},{"bike_id":"d2c2f1d0-8b01-4e08-9dff-706d88363fef","system_id":"levelo_inurba_marseille","lat":43.29042,"lon":5.37614,"is_reserved":false,"is_disabled":false,"rental_uris":{"android":"levelo://app?vid=d2c2f1d0-8b01-4e08-9dff-706d88363fef","ios":"levelo://app?vid=d2c2f1d0-8b01-4e08-9dff-706d88363fef"},"vehicle_type_id":"4","last_reported":1758035433,"current_range_meters":3200,"station_id":"ce4bh692rcd13ifvqe90","pricing_plan_id":"cebpf4jnsgd1na2vs0mg"},{"bike_id":"73b1bf2f-3708-4912-b185-294cee364db7","system_id":"levelo_inurba_marseille","lat":43.27375,"lon":5.36252,"is_reserved":false,"is_disabled":false,"rental_uris":{"android":"levelo://app?vid=73b1bf2f-3708-4912-b185-294cee364db7","ios":"levelo://app?vid=73b1bf2f-3708-4912-b185-294cee364db7"},"vehicle_type_id":"4","last_reported":1758035433,"current_range_meters":3600,"station_id":"ce4bhbh2rcd13ifvqeo0","pricing_plan_id":"cebpf4jnsgd1na2vs0mg"},{"bike_id":"63c2bec2-56ae-42d4-a965-91defc1f04e9","system_id":"levelo_inurba_marseille","lat":43.29697,"lon":5.38016,"is_reserved":false,"is_disabled":false,"rental_uris":{"android":"levelo://app?vid=63c2bec2-56ae-42d4-a965-91defc1f04e9","ios":"levelo://app?vid=63c2bec2-56ae-42d4-a965-91defc1f04e9"},"vehicle_type_id":"4","last_reported":1758035433,"current_range_meters":3600,"station_id":"","pricing_plan_id":"cebpf4jnsgd1na2vs0mg"},{"bike_id":"7e6123d7-a933-45ff-a4bd-ea04c08fff57","system_id":"levelo_inurba_marseille","lat":43.29802,"lon":5.3809,"is_reserved":false,"is_disabled":false,"rental_uris":{"android":"levelo://app?vid=7e6123d7-a933-45ff-a4bd-ea04c08fff57","ios":"levelo://app?vid=7e6123d7-a933-45ff-a4bd-ea04c08fff57"},"vehicle_type_id":"4","last_reported":1758035433,"current_range_meters":3600,"station_id":"ce4bgip2rcd13ifvqbb0","pricing_plan_id":"cebpf4jnsgd1na2vs0mg"},{"bike_id":"3bd79661-6def-43c8-b210-869fd67a5981","system_id":"levelo_inurba_marseille","lat":43.30912,"lon":5.3686,"is_reserved":false,"is_disabled":false,"rental_uris":{"android":"levelo://app?vid=3bd79661-6def-43c8-b210-869fd67a5981","ios":"levelo://app?vid=3bd79661-6def-43c8-b210-869fd67a5981"},"vehicle_type_id":"4","last_reported":1758035433,"current_range_meters":3600,"station_id":"ce4bgn92rcd13ifvqbvg","pricing_plan_id":"cebpf4jnsgd1na2vs0mg"},{"bike_id":"a22a1948-3b76-4746-b350-a7cf689ea86e","system_id":"levelo_inurba_marseille","lat":43.3236,"lon":5.40584,"is_reserved":false,"is_disabled":false,"rental_uris":{"android":"levelo://app?vid=a22a1948-3b76-4746-b350-a7cf689ea86e","ios":"levelo://app?vid=a22a1948-3b76-4746-b350-a7cf689ea86e"},"vehicle_type_id":"4","last_reported":1758035433,"current_range_meters":3600,"station_id":"ce4bhq92rcd13ifvqhjg","pricing_plan_id":"cebpf4jnsgd1na2vs0mg"},{"bike_id":"1169fbae-55f0-4960-ba29-1c470858c2c5","system_id":"levelo_inurba_marseille","lat":43.286735,"lon":5.386801,"is_reserved":false,"is_disabled":false,"rental_uris":{"android":"levelo://app?vid=1169fbae-55f0-4960-ba29-1c470858c2c5","ios":"levelo://app?vid=1169fbae-55f0-4960-ba29-1c470858c2c5"},"vehicle_type_id":"4","last_reported":1758035433,"current_range_meters":4000,"station_id":"","pricing_plan_id":"cebpf4jnsgd1na2vs0mg"},{"bike_id":"33bb1785-d459-4f3b-9518-672a188c6a87","system_id":"levelo_inurba_marseille","lat":43.337444,"lon":5.374475,"is_reserved":false,"is_disabled":false,"rental_uris":{"android":"levelo://app?vid=33bb1785-d459-4f3b-9518-672a188c6a87","ios":"levelo://app?vid=33bb1785-d459-4f3b-9518-672a188c6a87"},"vehicle_type_id":"4","last_reported":1758035433,"current_range_meters":4000,"station_id":"","pricing_plan_id":"cebpf4jnsgd1na2vs0mg"},{"bike_id":"cacf24e2-ef38-4be6-a106-893a1d8ac11a","system_id":"levelo_inurba_marseille","lat":43.24808,"lon":5.37455,"is_reserved":false,"is_disabled":false,"rental_uris":{"android":"levelo://app?vid=cacf24e2-ef38-4be6-a106-893a1d8ac11a","ios":"levelo://app?vid=cacf24e2-ef38-4be6-a106-893a1d8ac11a"},"vehicle_type_id":"4","last_reported":1758035433,"current_range_meters":4000,"station_id":"ce4bhgh2rcd13ifvqfb0","pricing_plan_id":"cebpf4jnsgd1na2vs0mg"},{"bike_id":"c33ba424-2f04-412d-829c-d7cbe42ce1eb","system_id":"levelo_inurba_marseille","lat":43.276745,"lon":5.388845,"is_reserved":false,"is_disabled":false,"rental_uris":{"android":"levelo://app?vid=c33ba424-2f04-412d-829c-d7cbe42ce1eb","ios":"levelo://app?vid=c33ba424-2f04-412d-829c-d7cbe42ce1eb"},"vehicle_type_id":"4","last_reported":1758035433,"current_range_meters":4400,"station_id":"","pricing_plan_id":"cebpf4jnsgd1na2vs0mg"},{"bike_id":"52d7f8e2-b773-4340-867b-2c34cc5bead5","system_id":"levelo_inurba_marseille","lat":43.287,"lon":5.39982,"is_reserved":false,"is_disabled":false,"rental_uris":{"android":"levelo://app?vid=52d7f8e2-b773-4340-867b-2c34cc5bead5","ios":"levelo://app?vid=52d7f8e2-b773-4340-867b-2c34cc5bead5"},"vehicle_type_id":"4","last_reported":1758035433,"current_range_meters":4400,"station_id":"ce4bho92rcd13ifvqh3g","pricing_plan_id":"cebpf4jnsgd1na2vs0mg"},{"bike_id":"2828e058-9171-4ab9-9e16-ce6b889ec301","system_id":"levelo_inurba_marseille","lat":43.211772,"lon":5.351228,"is_reserved":false,"is_disabled":false,"rental_uris":{"android":"levelo://app?vid=2828e058-9171-4ab9-9e16-ce6b889ec301","ios":"levelo://app?vid=2828e058-9171-4ab9-9e16-ce6b889ec301"},"vehicle_type_id":"4","last_reported":1758035433,"current_range_meters":4400,"station_id":"","pricing_plan_id":"cebpf4jnsgd1na2vs0mg"},{"bike_id":"3145861c-7a71-4655-b85d-f2d20dd27e9c","system_id":"levelo_inurba_marseille","lat":43.30526,"lon":5.3652,"is_reserved":false,"is_disabled":false,"rental_uris":{"android":"levelo://app?vid=3145861c-7a71-4655-b85d-f2d20dd27e9c","ios":"levelo://app?vid=3145861c-7a71-4655-b85d-f2d20dd27e9c"},"vehicle_type_id":"4","last_reported":1758035433,"current_range_meters":4400,"station_id":"","pricing_plan_id":"cebpf4jnsgd1na2vs0mg"},{"bike_id":"f7ac85a9-20be-4d2a-881e-cf6f9829206c","system_id":"levelo_inurba_marseille","lat":43.2897,"lon":5.35696,"is_reserved":false,"is_disabled":false,"rental_uris":{"android":"levelo://app?vid=f7ac85a9-20be-4d2a-881e-cf6f9829206c","ios":"levelo://app?vid=f7ac85a9-20be-4d2a-881e-cf6f9829206c"},"vehicle_type_id":"4","last_reported":1758035433,"current_range_meters":4400,"station_id":"","pricing_plan_id":"cebpf4jnsgd1na2vs0mg"},{"bike_id":"a234c8d6-1e23-409a-95bc-672a869cb12e","system_id":"levelo_inurba_marseille","lat":43.32639,"lon":5.40329,"is_reserved":false,"is_disabled":false,"rental_uris":{"android":"levelo://app?vid=a234c8d6-1e23-409a-95bc-672a869cb12e","ios":"levelo://app?vid=a234c8d6-1e23-409a-95bc-672a869cb12e"},"vehicle_type_id":"4","last_reported":1758035433,"current_range_meters":4400,"station_id":"","pricing_plan_id":"cebpf4jnsgd1na2vs0mg"},{"bike_id":"dd32f779-e928-424d-999f-b730cf475fa7","system_id":"levelo_inurba_marseille","lat":43.22399,"lon":5.34657,"is_reserved":false,"is_disabled":false,"rental_uris":{"android":"levelo://app?vid=dd32f779-e928-424d-999f-b730cf475fa7","ios":"levelo://app?vid=dd32f779-e928-424d-999f-b730cf475fa7"},"vehicle_type_id":"4","last_reported":1758035433,"current_range_meters":4800,"station_id":"","pricing_plan_id":"cebpf4jnsgd1na2vs0mg"},{"bike_id":"7a9dac1e-532e-432e-bc24-96303dddf82d","system_id":"levelo_inurba_marseille","lat":43.27811,"lon":5.40707,"is_reserved":false,"is_disabled":false,"rental_uris":{"android":"levelo://app?vid=7a9dac1e-532e-432e-bc24-96303dddf82d","ios":"levelo://app?vid=7a9dac1e-532e-432e-bc24-96303dddf82d"},"vehicle_type_id":"4","last_reported":1758035433,"current_range_meters":4800,"station_id":"ce4bhnh2rcd13ifvqgtg","pricing_plan_id":"cebpf4jnsgd1na2vs0mg"},{"bike_id":"35dcf127-2dd5-4d23-8dfc-f9adcb0b27b2","system_id":"levelo_inurba_marseille","lat":43.24165,"lon":5.36397,"is_reserved":false,"is_disabled":false,"rental_uris":{"android":"levelo://app?vid=35dcf127-2dd5-4d23-8dfc-f9adcb0b27b2","ios":"levelo://app?vid=35dcf127-2dd5-4d23-8dfc-f9adcb0b27b2"},"vehicle_type_id":"4","last_reported":1758035433,"current_range_meters":4800,"station_id":"cpo36qri1sfpv3e86is0","pricing_plan_id":"cebpf4jnsgd1na2vs0mg"},{"bike_id":"2e8d21f6-68c2-4781-bc38-4514a825b39e","system_id":"levelo_inurba_marseille","lat":43.29266,"lon":5.38455,"is_reserved":false,"is_disabled":false,"rental_uris":{"android":"levelo://app?vid=2e8d21f6-68c2-4781-bc38-4514a825b39e","ios":"levelo://app?vid=2e8d21f6-68c2-4781-bc38-4514a825b39e"},"vehicle_type_id":"4","last_reported":1758035433,"current_range_meters":4800,"station_id":"ce4bh692rcd13ifvqea0","pricing_plan_id":"cebpf4jnsgd1na2vs0mg"},{"bike_id":"a9f99fec-86d4-4d52-b982-2e33d565e1b7","system_id":"levelo_inurba_marseille","lat":43.26025,"lon":5.37548,"is_reserved":false,"is_disabled":false,"rental_uris":{"android":"levelo://app?vid=a9f99fec-86d4-4d52-b982-2e33d565e1b7","ios":"levelo://app?vid=a9f99fec-86d4-4d52-b982-2e33d565e1b7"},"vehicle_type_id":"4","last_reported":1758035433,"current_range_meters":4800,"station_id":"ce4bhgh2rcd13ifvqfa0","pricing_plan_id":"cebpf4jnsgd1na2vs0mg"},{"bike_id":"8bad72d5-673d-40b2-865e-a2d7a166c52c","system_id":"levelo_inurba_marseille","lat":43.28573,"lon":5.39494,"is_reserved":false,"is_disabled":false,"rental_uris":{"android":"levelo://app?vid=8bad72d5-673d-40b2-865e-a2d7a166c52c","ios":"levelo://app?vid=8bad72d5-673d-40b2-865e-a2d7a166c52c"},"vehicle_type_id":"4","last_reported":1758035433,"current_range_meters":5600,"station_id":"ce4bh292rcd13ifvqdg0","pricing_plan_id":"cebpf4jnsgd1na2vs0mg"},{"bike_id":"0993499f-598f-483b-a3c4-3046baae51aa","system_id":"levelo_inurba_marseille","lat":43.23192,"lon":5.35553,"is_reserved":false,"is_disabled":false,"rental_uris":{"android":"levelo://app?vid=0993499f-598f-483b-a3c4-3046baae51aa","ios":"levelo://app?vid=0993499f-598f-483b-a3c4-3046baae51aa"},"vehicle_type_id":"4","last_reported":1758035433,"current_range_meters":5600,"station_id":"ce4bhu92rcd13ifvqi70","pricing_plan_id":"cebpf4jnsgd1na2vs0mg"},{"bike_id":"6ecf6ede-a101-4f9f-ac3e-7981ab1a3a4e","system_id":"levelo_inurba_marseille","lat":43.28154,"lon":5.42636,"is_reserved":false,"is_disabled":false,"rental_uris":{"android":"levelo://app?vid=6ecf6ede-a101-4f9f-ac3e-7981ab1a3a4e","ios":"levelo://app?vid=6ecf6ede-a101-4f9f-ac3e-7981ab1a3a4e"},"vehicle_type_id":"4","last_reported":1758035433,"current_range_meters":6400,"station_id":"ce4bhnh2rcd13ifvqgug","pricing_plan_id":"cebpf4jnsgd1na2vs0mg"},{"bike_id":"178fa568-1c50-462f-a706-8cc286b5fa97","system_id":"levelo_inurba_marseille","lat":43.30884,"lon":5.36853,"is_reserved":false,"is_disabled":false,"rental_uris":{"android":"levelo://app?vid=178fa568-1c50-462f-a706-8cc286b5fa97","ios":"levelo://app?vid=178fa568-1c50-462f-a706-8cc286b5fa97"},"vehicle_type_id":"4","last_reported":1758035433,"current_range_meters":6400,"station_id":"ce4bgn92rcd13ifvqbvg","pricing_plan_id":"cebpf4jnsgd1na2vs0mg"},{"bike_id":"1ad9504f-26ea-4847-b291-826b6182a27f","system_id":"levelo_inurba_marseille","lat":43.2926,"lon":5.38443,"is_reserved":false,"is_disabled":false,"rental_uris":{"android":"levelo://app?vid=1ad9504f-26ea-4847-b291-826b6182a27f","ios":"levelo://app?vid=1ad9504f-26ea-4847-b291-826b6182a27f"},"vehicle_type_id":"4","last_reported":1758035433,"current_range_meters":6400,"station_id":"ce4bh692rcd13ifvqea0","pricing_plan_id":"cebpf4jnsgd1na2vs0mg"},{"bike_id":"3b7a7b09-964a-41d3-91a3-d89e409aff17","system_id":"levelo_inurba_marseille","lat":43.30638,"lon":5.40081,"is_reserved":false,"is_disabled":false,"rental_uris":{"android":"levelo://app?vid=3b7a7b09-964a-41d3-91a3-d89e409aff17","ios":"levelo://app?vid=3b7a7b09-964a-41d3-91a3-d89e409aff17"},"vehicle_type_id":"4","last_reported":1758035433,"current_range_meters":6400,"station_id":"ce4bh112rcd13ifvqda0","pricing_plan_id":"cebpf4jnsgd1na2vs0mg"},{"bike_id":"27bc6b0c-c22e-494b-ab92-4e390584592b","system_id":"levelo_inurba_marseille","lat":43.33739,"lon":5.37472,"is_reserved":false,"is_disabled":false,"rental_uris":{"android":"levelo://app?vid=27bc6b0c-c22e-494b-ab92-4e390584592b","ios":"levelo://app?vid=27bc6b0c-c22e-494b-ab92-4e390584592b"},"vehicle_type_id":"4","last_reported":1758035433,"current_range_meters":6400,"station_id":"","pricing_plan_id":"cebpf4jnsgd1na2vs0mg"},{"bike_id":"e7a329bd-ed66-4ac7-aaba-63f2810ddd86","system_id":"levelo_inurba_marseille","lat":43.31859,"lon":5.37206,"is_reserved":false,"is_disabled":false,"rental_uris":{"android":"levelo://app?vid=e7a329bd-ed66-4ac7-aaba-63f2810ddd86","ios":"levelo://app?vid=e7a329bd-ed66-4ac7-aaba-63f2810ddd86"},"vehicle_type_id":"4","last_reported":1758035433,"current_range_meters":6800,"station_id":"","pricing_plan_id":"cebpf4jnsgd1na2vs0mg"},{"bike_id":"bcc16983-e1b5-42b0-abcb-abfd82581c20","system_id":"levelo_inurba_marseille","lat":43.31761,"lon":5.39002,"is_reserved":false,"is_disabled":false,"rental_uris":{"android":"levelo://app?vid=bcc16983-e1b5-42b0-abcb-abfd82581c20","ios":"levelo://app?vid=bcc16983-e1b5-42b0-abcb-abfd82581c20"},"vehicle_type_id":"4","last_reported":1758035433,"current_range_meters":6800,"station_id":"ce4bhqp2rcd13ifvqhng","pricing_plan_id":"cebpf4jnsgd1na2vs0mg"},{"bike_id":"360be0a9-b4d1-443a-955c-1f278d9bae0a","system_id":"levelo_inurba_marseille","lat":43.29528,"lon":5.38552,"is_reserved":false,"is_disabled":false,"rental_uris":{"android":"levelo://app?vid=360be0a9-b4d1-443a-955c-1f278d9bae0a","ios":"levelo://app?vid=360be0a9-b4d1-443a-955c-1f278d9bae0a"},"vehicle_type_id":"4","last_reported":1758035433,"current_range_meters":6800,"station_id":"ce4bgih2rcd13ifvqba0","pricing_plan_id":"cebpf4jnsgd1na2vs0mg"},{"bike_id":"5a50a0cf-3f4b-4608-93b5-23ed77c5121f","system_id":"levelo_inurba_marseille","lat":43.306526,"lon":5.400756,"is_reserved":false,"is_disabled":false,"rental_uris":{"android":"levelo://app?vid=5a50a0cf-3f4b-4608-93b5-23ed77c5121f","ios":"levelo://app?vid=5a50a0cf-3f4b-4608-93b5-23ed77c5121f"},"vehicle_type_id":"4","last_reported":1758035433,"current_range_meters":6800,"station_id":"ce4bh112rcd13ifvqda0","pricing_plan_id":"cebpf4jnsgd1na2vs0mg"},{"bike_id":"46916423-1572-4d50-a5c6-394844b7f6d5","system_id":"levelo_inurba_marseille","lat":43.29255,"lon":5.40899,"is_reserved":false,"is_disabled":false,"rental_uris":{"android":"levelo://app?vid=46916423-1572-4d50-a5c6-394844b7f6d5","ios":"levelo://app?vid=46916423-1572-4d50-a5c6-394844b7f6d5"},"vehicle_type_id":"4","last_reported":1758035433,"current_range_meters":9600,"station_id":"ce4bh192rcd13ifvqdc0","pricing_plan_id":"cebpf4jnsgd1na2vs0mg"},{"bike_id":"57127154-7e15-4346-89ed-ab9d76ef9c2c","system_id":"levelo_inurba_marseille","lat":43.28838,"lon":5.36326,"is_reserved":false,"is_disabled":false,"rental_uris":{"android":"levelo://app?vid=57127154-7e15-4346-89ed-ab9d76ef9c2c","ios":"levelo://app?vid=57127154-7e15-4346-89ed-ab9d76ef9c2c"},"vehicle_type_id":"4","last_reported":1758035433,"current_range_meters":6800,"station_id":"","pricing_plan_id":"cebpf4jnsgd1na2vs0mg"},{"bike_id":"b150af79-1f66-493e-9610-0724af328721","system_id":"levelo_inurba_marseille","lat":43.30812,"lon":5.3816,"is_reserved":false,"is_disabled":false,"rental_uris":{"android":"levelo://app?vid=b150af79-1f66-493e-9610-0724af328721","ios":"levelo://app?vid=b150af79-1f66-493e-9610-0724af328721"},"vehicle_type_id":"4","last_reported":1758035433,"current_range_meters":7200,"station_id":"ce4bgt12rcd13ifvqce0","pricing_plan_id":"cebpf4jnsgd1na2vs0mg"},{"bike_id":"3497e7a2-d1ac-45c8-b73f-5afe1dfc9c24","system_id":"levelo_inurba_marseille","lat":43.28605,"lon":5.37062,"is_reserved":false,"is_disabled":false,"rental_uris":{"android":"levelo://app?vid=3497e7a2-d1ac-45c8-b73f-5afe1dfc9c24","ios":"levelo://app?vid=3497e7a2-d1ac-45c8-b73f-5afe1dfc9c24"},"vehicle_type_id":"4","last_reported":1758035433,"current_range_meters":7200,"station_id":"ce4bht12rcd13ifvqi60","pricing_plan_id":"cebpf4jnsgd1na2vs0mg"},{"bike_id":"de0f1fb4-46b1-4036-97b2-66ca91db8287","system_id":"levelo_inurba_marseille","lat":43.30778,"lon":5.37649,"is_reserved":false,"is_disabled":false,"rental_uris":{"android":"levelo://app?vid=de0f1fb4-46b1-4036-97b2-66ca91db8287","ios":"levelo://app?vid=de0f1fb4-46b1-4036-97b2-66ca91db8287"},"vehicle_type_id":"4","last_reported":1758035433,"current_range_meters":7200,"station_id":"ce4bgv92rcd13ifvqcq0","pricing_plan_id":"cebpf4jnsgd1na2vs0mg"},{"bike_id":"fd8829a2-a5da-43ba-997e-1a4611c2c6fa","system_id":"levelo_inurba_marseille","lat":43.28571,"lon":5.39494,"is_reserved":false,"is_disabled":false,"rental_uris":{"android":"levelo://app?vid=fd8829a2-a5da-43ba-997e-1a4611c2c6fa","ios":"levelo://app?vid=fd8829a2-a5da-43ba-997e-1a4611c2c6fa"},"vehicle_type_id":"4","last_reported":1758035433,"current_range_meters":7200,"station_id":"ce4bh292rcd13ifvqdg0","pricing_plan_id":"cebpf4jnsgd1na2vs0mg"},{"bike_id":"13d32666-d94f-41f6-83eb-f3a1e138579e","system_id":"levelo_inurba_marseille","lat":43.28129,"lon":5.35022,"is_reserved":false,"is_disabled":false,"rental_uris":{"android":"levelo://app?vid=13d32666-d94f-41f6-83eb-f3a1e138579e","ios":"levelo://app?vid=13d32666-d94f-41f6-83eb-f3a1e138579e"},"vehicle_type_id":"4","last_reported":1758035433,"current_range_meters":7200,"station_id":"","pricing_plan_id":"cebpf4jnsgd1na2vs0mg"},{"bike_id":"f7825ce6-de89-45bf-831f-3599d0d91c3c","system_id":"levelo_inurba_marseille","lat":43.30437,"lon":5.36742,"is_reserved":false,"is_disabled":false,"rental_uris":{"android":"levelo://app?vid=f7825ce6-de89-45bf-831f-3599d0d91c3c","ios":"levelo://app?vid=f7825ce6-de89-45bf-831f-3599d0d91c3c"},"vehicle_type_id":"4","last_reported":1758035433,"current_range_meters":8000,"station_id":"","pricing_plan_id":"cebpf4jnsgd1na2vs0mg"},{"bike_id":"77d476e4-7526-4c2f-8926-cd98e9b90694","system_id":"levelo_inurba_marseille","lat":43.3089,"lon":5.39644,"is_reserved":false,"is_disabled":false,"rental_uris":{"android":"levelo://app?vid=77d476e4-7526-4c2f-8926-cd98e9b90694","ios":"levelo://app?vid=77d476e4-7526-4c2f-8926-cd98e9b90694"},"vehicle_type_id":"4","last_reported":1758035433,"current_range_meters":8000,"station_id":"ce4bh012rcd13ifvqcv0","pricing_plan_id":"cebpf4jnsgd1na2vs0mg"},{"bike_id":"5570c680-c9dc-4862-8050-2310b8dfd168","system_id":"levelo_inurba_marseille","lat":43.3089,"lon":5.39612,"is_reserved":false,"is_disabled":false,"rental_uris":{"android":"levelo://app?vid=5570c680-c9dc-4862-8050-2310b8dfd168","ios":"levelo://app?vid=5570c680-c9dc-4862-8050-2310b8dfd168"},"vehicle_type_id":"4","last_reported":1758035433,"current_range_meters":8000,"station_id":"ce4bh012rcd13ifvqcv0","pricing_plan_id":"cebpf4jnsgd1na2vs0mg"},{"bike_id":"aae4ace5-9a95-4090-afa1-f74704c30767","system_id":"levelo_inurba_marseille","lat":43.28713,"lon":5.39985,"is_reserved":false,"is_disabled":false,"rental_uris":{"android":"levelo://app?vid=aae4ace5-9a95-4090-afa1-f74704c30767","ios":"levelo://app?vid=aae4ace5-9a95-4090-afa1-f74704c30767"},"vehicle_type_id":"4","last_reported":1758035433,"current_range_meters":8400,"station_id":"ce4bho92rcd13ifvqh3g","pricing_plan_id":"cebpf4jnsgd1na2vs0mg"},{"bike_id":"beeb2a4d-9116-48af-89e2-95f810c418db","system_id":"levelo_inurba_marseille","lat":43.23962,"lon":5.36625,"is_reserved":false,"is_disabled":false,"rental_uris":{"android":"levelo://app?vid=beeb2a4d-9116-48af-89e2-95f810c418db","ios":"levelo://app?vid=beeb2a4d-9116-48af-89e2-95f810c418db"},"vehicle_type_id":"4","last_reported":1758035433,"current_range_meters":8400,"station_id":"ce4bhi12rcd13ifvqfp0","pricing_plan_id":"cebpf4jnsgd1na2vs0mg"},{"bike_id":"322c1f5a-85db-4ef6-bcd4-1b5c417c8ee0","system_id":"levelo_inurba_marseille","lat":43.3377,"lon":5.37488,"is_reserved":false,"is_disabled":false,"rental_uris":{"android":"levelo://app?vid=322c1f5a-85db-4ef6-bcd4-1b5c417c8ee0","ios":"levelo://app?vid=322c1f5a-85db-4ef6-bcd4-1b5c417c8ee0"},"vehicle_type_id":"4","last_reported":1758035433,"current_range_meters":8400,"station_id":"","pricing_plan_id":"cebpf4jnsgd1na2vs0mg"},{"bike_id":"429ee879-1418-4ac0-87c2-070863a8d317","system_id":"levelo_inurba_marseille","lat":43.2804,"lon":5.36949,"is_reserved":false,"is_disabled":false,"rental_uris":{"android":"levelo://app?vid=429ee879-1418-4ac0-87c2-070863a8d317","ios":"levelo://app?vid=429ee879-1418-4ac0-87c2-070863a8d317"},"vehicle_type_id":"4","last_reported":1758035433,"current_range_meters":8400,"station_id":"ce4bha12rcd13ifvqef0","pricing_plan_id":"cebpf4jnsgd1na2vs0mg"},{"bike_id":"34539d66-9bce-4d1c-8b94-78e2e11c6e1a","system_id":"levelo_inurba_marseille","lat":43.28859,"lon":5.42512,"is_reserved":false,"is_disabled":false,"rental_uris":{"android":"levelo://app?vid=34539d66-9bce-4d1c-8b94-78e2e11c6e1a","ios":"levelo://app?vid=34539d66-9bce-4d1c-8b94-78e2e11c6e1a"},"vehicle_type_id":"4","last_reported":1758035433,"current_range_meters":8800,"station_id":"","pricing_plan_id":"cebpf4jnsgd1na2vs0mg"},{"bike_id":"63dc1384-fc6c-4684-975f-38f6a5793898","system_id":"levelo_inurba_marseille","lat":43.30533,"lon":5.36527,"is_reserved":false,"is_disabled":false,"rental_uris":{"android":"levelo://app?vid=63dc1384-fc6c-4684-975f-38f6a5793898","ios":"levelo://app?vid=63dc1384-fc6c-4684-975f-38f6a5793898"},"vehicle_type_id":"4","last_reported":1758035433,"current_range_meters":8800,"station_id":"ce4bgs12rcd13ifvqcag","pricing_plan_id":"cebpf4jnsgd1na2vs0mg"},{"bike_id":"4725eaad-868a-4844-97e5-f091884f003f","system_id":"levelo_inurba_marseille","lat":43.29028,"lon":5.38132,"is_reserved":false,"is_disabled":false,"rental_uris":{"android":"levelo://app?vid=4725eaad-868a-4844-97e5-f091884f003f","ios":"levelo://app?vid=4725eaad-868a-4844-97e5-f091884f003f"},"vehicle_type_id":"4","last_reported":1758035433,"current_range_meters":8800,"station_id":"ce4bh4p2rcd13ifvqe1g","pricing_plan_id":"cebpf4jnsgd1na2vs0mg"},{"bike_id":"86729533-93f3-4c7e-8df1-2b3bb20a6999","system_id":"levelo_inurba_marseille","lat":43.28269,"lon":5.35056,"is_reserved":false,"is_disabled":true,"rental_uris":{"android":"levelo://app?vid=86729533-93f3-4c7e-8df1-2b3bb20a6999","ios":"levelo://app?vid=86729533-93f3-4c7e-8df1-2b3bb20a6999"},"vehicle_type_id":"4","last_reported":1758035433,"current_range_meters":8800,"station_id":"ce4bhbp2rcd13ifvqerg","pricing_plan_id":"cebpf4jnsgd1na2vs0mg"},{"bike_id":"d818ffce-d6c4-4f39-ae87-10e02446a46c","system_id":"levelo_inurba_marseille","lat":43.2408,"lon":5.3775,"is_reserved":false,"is_disabled":true,"rental_uris":{"android":"levelo://app?vid=d818ffce-d6c4-4f39-ae87-10e02446a46c","ios":"levelo://app?vid=d818ffce-d6c4-4f39-ae87-10e02446a46c"},"vehicle_type_id":"4","last_reported":1758035433,"current_range_meters":8800,"station_id":"ce4bhnp2rcd13ifvqgvg","pricing_plan_id":"cebpf4jnsgd1na2vs0mg"},{"bike_id":"4222c0f5-0514-447f-bf95-0a72b4072359","system_id":"levelo_inurba_marseille","lat":43.22928,"lon":5.35372,"is_reserved":false,"is_disabled":false,"rental_uris":{"android":"levelo://app?vid=4222c0f5-0514-447f-bf95-0a72b4072359","ios":"levelo://app?vid=4222c0f5-0514-447f-bf95-0a72b4072359"},"vehicle_type_id":"4","last_reported":1758035433,"current_range_meters":8800,"station_id":"cpo3532slgdg3j2ikp40","pricing_plan_id":"cebpf4jnsgd1na2vs0mg"},{"bike_id":"d73ebff0-d957-41dc-a638-29b88edc4926","system_id":"levelo_inurba_marseille","lat":43.22581,"lon":5.41621,"is_reserved":false,"is_disabled":false,"rental_uris":{"android":"levelo://app?vid=d73ebff0-d957-41dc-a638-29b88edc4926","ios":"levelo://app?vid=d73ebff0-d957-41dc-a638-29b88edc4926"},"vehicle_type_id":"4","last_reported":1758035433,"current_range_meters":9200,"station_id":"st_d2o4gvlbi1j2169b742g","pricing_plan_id":"cebpf4jnsgd1na2vs0mg"},{"bike_id":"a155e67d-bec0-4326-ae57-c035ef5e1c81","system_id":"levelo_inurba_marseille","lat":43.29876,"lon":5.43659,"is_reserved":false,"is_disabled":false,"rental_uris":{"android":"levelo://app?vid=a155e67d-bec0-4326-ae57-c035ef5e1c81","ios":"levelo://app?vid=a155e67d-bec0-4326-ae57-c035ef5e1c81"},"vehicle_type_id":"4","last_reported":1758035433,"current_range_meters":9200,"station_id":"ce4bhpp2rcd13ifvqhfg","pricing_plan_id":"cebpf4jnsgd1na2vs0mg"},{"bike_id":"0d5f5b27-fc97-460a-9668-ece31722eed2","system_id":"levelo_inurba_marseille","lat":43.29369,"lon":5.37835,"is_reserved":false,"is_disabled":false,"rental_uris":{"android":"levelo://app?vid=0d5f5b27-fc97-460a-9668-ece31722eed2","ios":"levelo://app?vid=0d5f5b27-fc97-460a-9668-ece31722eed2"},"vehicle_type_id":"4","last_reported":1758035433,"current_range_meters":9200,"station_id":"ce4bgjh2rcd13ifvqbf0","pricing_plan_id":"cebpf4jnsgd1na2vs0mg"},{"bike_id":"24134c4f-7420-49cc-a4b9-fce39e8b3a82","system_id":"levelo_inurba_marseille","lat":43.2706,"lon":5.40262,"is_reserved":false,"is_disabled":true,"rental_uris":{"android":"levelo://app?vid=24134c4f-7420-49cc-a4b9-fce39e8b3a82","ios":"levelo://app?vid=24134c4f-7420-49cc-a4b9-fce39e8b3a82"},"vehicle_type_id":"4","last_reported":1758035433,"current_range_meters":9200,"station_id":"ce4bhk92rcd13ifvqgc0","pricing_plan_id":"cebpf4jnsgd1na2vs0mg"},{"bike_id":"a9f13996-cedb-42ef-8189-8cba3aa4b434","system_id":"levelo_inurba_marseille","lat":43.21185,"lon":5.35074,"is_reserved":false,"is_disabled":false,"rental_uris":{"android":"levelo://app?vid=a9f13996-cedb-42ef-8189-8cba3aa4b434","ios":"levelo://app?vid=a9f13996-cedb-42ef-8189-8cba3aa4b434"},"vehicle_type_id":"4","last_reported":1758035433,"current_range_meters":9200,"station_id":"st_cvj6sg6p6f1abm77japg","pricing_plan_id":"cebpf4jnsgd1na2vs0mg"},{"bike_id":"b2bd0935-32e1-478b-967c-42eade97ca95","system_id":"levelo_inurba_marseille","lat":43.287238,"lon":5.360924,"is_reserved":false,"is_disabled":false,"rental_uris":{"android":"levelo://app?vid=b2bd0935-32e1-478b-967c-42eade97ca95","ios":"levelo://app?vid=b2bd0935-32e1-478b-967c-42eade97ca95"},"vehicle_type_id":"4","last_reported":1758035433,"current_range_meters":9200,"station_id":"cki0cbj6b192h4jlfktg","pricing_plan_id":"cebpf4jnsgd1na2vs0mg"},{"bike_id":"3f31a35f-aac4-41ef-9e0e-acd3c3fdd234","system_id":"levelo_inurba_marseille","lat":43.28699,"lon":5.38817,"is_reserved":false,"is_disabled":false,"rental_uris":{"android":"levelo://app?vid=3f31a35f-aac4-41ef-9e0e-acd3c3fdd234","ios":"levelo://app?vid=3f31a35f-aac4-41ef-9e0e-acd3c3fdd234"},"vehicle_type_id":"4","last_reported":1758035433,"current_range_meters":9600,"station_id":"","pricing_plan_id":"cebpf4jnsgd1na2vs0mg"},{"bike_id":"cd02c080-8936-4e2b-af4d-301cbe8eb8f1","system_id":"levelo_inurba_marseille","lat":43.30057,"lon":5.40355,"is_reserved":false,"is_disabled":false,"rental_uris":{"android":"levelo://app?vid=cd02c080-8936-4e2b-af4d-301cbe8eb8f1","ios":"levelo://app?vid=cd02c080-8936-4e2b-af4d-301cbe8eb8f1"},"vehicle_type_id":"4","last_reported":1758035433,"current_range_meters":9600,"station_id":"","pricing_plan_id":"cebpf4jnsgd1na2vs0mg"},{"bike_id":"b37bcc70-8c02-4358-9226-636d76edf384","system_id":"levelo_inurba_marseille","lat":43.29547,"lon":5.37508,"is_reserved":false,"is_disabled":false,"rental_uris":{"android":"levelo://app?vid=b37bcc70-8c02-4358-9226-636d76edf384","ios":"levelo://app?vid=b37bcc70-8c02-4358-9226-636d76edf384"},"vehicle_type_id":"4","last_reported":1758035433,"current_range_meters":9200,"station_id":"ce4bgkp2rcd13ifvqbmg","pricing_plan_id":"cebpf4jnsgd1na2vs0mg"},{"bike_id":"c07e7a2d-d8a6-4efd-8723-e965be4d1a74","system_id":"levelo_inurba_marseille","lat":43.22533,"lon":5.348367,"is_reserved":false,"is_disabled":false,"rental_uris":{"android":"levelo://app?vid=c07e7a2d-d8a6-4efd-8723-e965be4d1a74","ios":"levelo://app?vid=c07e7a2d-d8a6-4efd-8723-e965be4d1a74"},"vehicle_type_id":"4","last_reported":1758035433,"current_range_meters":9600,"station_id":"","pricing_plan_id":"cebpf4jnsgd1na2vs0mg"},{"bike_id":"00ae429c-3c83-4892-b635-ef77315b160f","system_id":"levelo_inurba_marseille","lat":43.28459,"lon":5.35888,"is_reserved":false,"is_disabled":false,"rental_uris":{"android":"levelo://app?vid=00ae429c-3c83-4892-b635-ef77315b160f","ios":"levelo://app?vid=00ae429c-3c83-4892-b635-ef77315b160f"},"vehicle_type_id":"4","last_reported":1758035433,"current_range_meters":9600,"station_id":"ce4bhah2rcd13ifvqei0","pricing_plan_id":"cebpf4jnsgd1na2vs0mg"},{"bike_id":"68657626-417f-4a6a-b6a9-68ab1b2f5726","system_id":"levelo_inurba_marseille","lat":43.29845,"lon":5.36256,"is_reserved":false,"is_disabled":false,"rental_uris":{"android":"levelo://app?vid=68657626-417f-4a6a-b6a9-68ab1b2f5726","ios":"levelo://app?vid=68657626-417f-4a6a-b6a9-68ab1b2f5726"},"vehicle_type_id":"4","last_reported":1758035433,"current_range_meters":9600,"station_id":"ce4bgpp2rcd13ifvqc3g","pricing_plan_id":"cebpf4jnsgd1na2vs0mg"},{"bike_id":"e6e3bf82-419f-4bea-921f-1c5fc540f284","system_id":"levelo_inurba_marseille","lat":43.29265,"lon":5.38445,"is_reserved":false,"is_disabled":false,"rental_uris":{"android":"levelo://app?vid=e6e3bf82-419f-4bea-921f-1c5fc540f284","ios":"levelo://app?vid=e6e3bf82-419f-4bea-921f-1c5fc540f284"},"vehicle_type_id":"4","last_reported":1758035433,"current_range_meters":10000,"station_id":"ce4bh692rcd13ifvqea0","pricing_plan_id":"cebpf4jnsgd1na2vs0mg"},{"bike_id":"336c74d9-d9c9-46d7-a94b-134b36ad023a","system_id":"levelo_inurba_marseille","lat":43.29858,"lon":5.37829,"is_reserved":false,"is_disabled":false,"rental_uris":{"android":"levelo://app?vid=336c74d9-d9c9-46d7-a94b-134b36ad023a","ios":"levelo://app?vid=336c74d9-d9c9-46d7-a94b-134b36ad023a"},"vehicle_type_id":"4","last_reported":1758035433,"current_range_meters":10000,"station_id":"","pricing_plan_id":"cebpf4jnsgd1na2vs0mg"},{"bike_id":"7b3fdd50-70e2-40f5-86b0-b8b57a936bb9","system_id":"levelo_inurba_marseille","lat":43.292941,"lon":5.374618,"is_reserved":false,"is_disabled":false,"rental_uris":{"android":"levelo://app?vid=7b3fdd50-70e2-40f5-86b0-b8b57a936bb9","ios":"levelo://app?vid=7b3fdd50-70e2-40f5-86b0-b8b57a936bb9"},"vehicle_type_id":"4","last_reported":1758035433,"current_range_meters":10000,"station_id":"ce4bgi12rcd13ifvqb70","pricing_plan_id":"cebpf4jnsgd1na2vs0mg"},{"bike_id":"391199ec-9f96-4500-8501-cc6487a20b9e","system_id":"levelo_inurba_marseille","lat":43.295056,"lon":5.389742,"is_reserved":false,"is_disabled":false,"rental_uris":{"android":"levelo://app?vid=391199ec-9f96-4500-8501-cc6487a20b9e","ios":"levelo://app?vid=391199ec-9f96-4500-8501-cc6487a20b9e"},"vehicle_type_id":"4","last_reported":1758035433,"current_range_meters":10000,"station_id":"ce4bh3p2rcd13ifvqdp0","pricing_plan_id":"cebpf4jnsgd1na2vs0mg"},{"bike_id":"e1809e8f-ed1a-4a32-821f-a24774e5b4cb","system_id":"levelo_inurba_marseille","lat":43.27061,"lon":5.40262,"is_reserved":false,"is_disabled":false,"rental_uris":{"android":"levelo://app?vid=e1809e8f-ed1a-4a32-821f-a24774e5b4cb","ios":"levelo://app?vid=e1809e8f-ed1a-4a32-821f-a24774e5b4cb"},"vehicle_type_id":"4","last_reported":1758035433,"current_range_meters":10000,"station_id":"ce4bhk92rcd13ifvqgc0","pricing_plan_id":"cebpf4jnsgd1na2vs0mg"},{"bike_id":"77246e06-46b3-406d-9b69-b9b3e2cbdee1","system_id":"levelo_inurba_marseille","lat":43.28069,"lon":5.3868,"is_reserved":false,"is_disabled":false,"rental_uris":{"android":"levelo://app?vid=77246e06-46b3-406d-9b69-b9b3e2cbdee1","ios":"levelo://app?vid=77246e06-46b3-406d-9b69-b9b3e2cbdee1"},"vehicle_type_id":"4","last_reported":1758035433,"current_range_meters":10000,"station_id":"","pricing_plan_id":"cebpf4jnsgd1na2vs0mg"},{"bike_id":"e5c0f9fa-aa79-401b-ac6b-a846850c5345","system_id":"levelo_inurba_marseille","lat":43.27851,"lon":5.38494,"is_reserved":false,"is_disabled":false,"rental_uris":{"android":"levelo://app?vid=e5c0f9fa-aa79-401b-ac6b-a846850c5345","ios":"levelo://app?vid=e5c0f9fa-aa79-401b-ac6b-a846850c5345"},"vehicle_type_id":"4","last_reported":1758035433,"current_range_meters":10000,"station_id":"","pricing_plan_id":"cebpf4jnsgd1na2vs0mg"},{"bike_id":"e824d254-16a6-4ae4-983a-05af083f4c81","system_id":"levelo_inurba_marseille","lat":43.21753,"lon":5.34607,"is_reserved":false,"is_disabled":false,"rental_uris":{"android":"levelo://app?vid=e824d254-16a6-4ae4-983a-05af083f4c81","ios":"levelo://app?vid=e824d254-16a6-4ae4-983a-05af083f4c81"},"vehicle_type_id":"4","last_reported":1758035433,"current_range_meters":10800,"station_id":"","pricing_plan_id":"cebpf4jnsgd1na2vs0mg"},{"bike_id":"3727563d-5540-4afd-ac71-a0f67fb1be42","system_id":"levelo_inurba_marseille","lat":43.31705,"lon":5.37735,"is_reserved":false,"is_disabled":false,"rental_uris":{"android":"levelo://app?vid=3727563d-5540-4afd-ac71-a0f67fb1be42","ios":"levelo://app?vid=3727563d-5540-4afd-ac71-a0f67fb1be42"},"vehicle_type_id":"4","last_reported":1758035433,"current_range_meters":10800,"station_id":"ce4bgth2rcd13ifvqch0","pricing_plan_id":"cebpf4jnsgd1na2vs0mg"},{"bike_id":"8ef8bf7d-8a91-4724-8c2e-ddeef723e28a","system_id":"levelo_inurba_marseille","lat":43.27034,"lon":5.37915,"is_reserved":false,"is_disabled":false,"rental_uris":{"android":"levelo://app?vid=8ef8bf7d-8a91-4724-8c2e-ddeef723e28a","ios":"levelo://app?vid=8ef8bf7d-8a91-4724-8c2e-ddeef723e28a"},"vehicle_type_id":"4","last_reported":1758035433,"current_range_meters":10800,"station_id":"","pricing_plan_id":"cebpf4jnsgd1na2vs0mg"},{"bike_id":"67fd99cc-e127-4387-9440-8b034c9b720b","system_id":"levelo_inurba_marseille","lat":43.28934,"lon":5.39627,"is_reserved":false,"is_disabled":false,"rental_uris":{"android":"levelo://app?vid=67fd99cc-e127-4387-9440-8b034c9b720b","ios":"levelo://app?vid=67fd99cc-e127-4387-9440-8b034c9b720b"},"vehicle_type_id":"4","last_reported":1758035433,"current_range_meters":10800,"station_id":"ce4bh3h2rcd13ifvqdn0","pricing_plan_id":"cebpf4jnsgd1na2vs0mg"},{"bike_id":"52547c74-c0e9-4d6f-b224-92201979afe3","system_id":"levelo_inurba_marseille","lat":43.32101,"lon":5.36771,"is_reserved":false,"is_disabled":false,"rental_uris":{"android":"levelo://app?vid=52547c74-c0e9-4d6f-b224-92201979afe3","ios":"levelo://app?vid=52547c74-c0e9-4d6f-b224-92201979afe3"},"vehicle_type_id":"4","last_reported":1758035433,"current_range_meters":10800,"station_id":"ce4bhrh2rcd13ifvqhug","pricing_plan_id":"cebpf4jnsgd1na2vs0mg"},{"bike_id":"110a9f91-9abd-4e38-9c93-285ff28f3851","system_id":"levelo_inurba_marseille","lat":43.28708,"lon":5.37388,"is_reserved":false,"is_disabled":false,"rental_uris":{"android":"levelo://app?vid=110a9f91-9abd-4e38-9c93-285ff28f3851","ios":"levelo://app?vid=110a9f91-9abd-4e38-9c93-285ff28f3851"},"vehicle_type_id":"4","last_reported":1758035433,"current_range_meters":10800,"station_id":"ce4bh3p2rcd13ifvqdq0","pricing_plan_id":"cebpf4jnsgd1na2vs0mg"},{"bike_id":"d7b053ab-2912-4f16-abf7-c47be8c4e15a","system_id":"levelo_inurba_marseille","lat":43.26547,"lon":5.37288,"is_reserved":false,"is_disabled":true,"rental_uris":{"android":"levelo://app?vid=d7b053ab-2912-4f16-abf7-c47be8c4e15a","ios":"levelo://app?vid=d7b053ab-2912-4f16-abf7-c47be8c4e15a"},"vehicle_type_id":"4","last_reported":1758035433,"current_range_meters":11200,"station_id":"ce4bhg12rcd13ifvqf70","pricing_plan_id":"cebpf4jnsgd1na2vs0mg"},{"bike_id":"ac586d83-7e2f-41e4-b144-d74212fcdc71","system_id":"levelo_inurba_marseille","lat":43.3148,"lon":5.37308,"is_reserved":false,"is_disabled":false,"rental_uris":{"android":"levelo://app?vid=ac586d83-7e2f-41e4-b144-d74212fcdc71","ios":"levelo://app?vid=ac586d83-7e2f-41e4-b144-d74212fcdc71"},"vehicle_type_id":"4","last_reported":1758035433,"current_range_meters":11200,"station_id":"ce4bgt12rcd13ifvqcd0","pricing_plan_id":"cebpf4jnsgd1na2vs0mg"},{"bike_id":"ac340abf-24c3-418f-9e97-0eb4212ba73f","system_id":"levelo_inurba_marseille","lat":43.30917,"lon":5.36863,"is_reserved":false,"is_disabled":false,"rental_uris":{"android":"levelo://app?vid=ac340abf-24c3-418f-9e97-0eb4212ba73f","ios":"levelo://app?vid=ac340abf-24c3-418f-9e97-0eb4212ba73f"},"vehicle_type_id":"4","last_reported":1758035433,"current_range_meters":11200,"station_id":"ce4bgn92rcd13ifvqbvg","pricing_plan_id":"cebpf4jnsgd1na2vs0mg"},{"bike_id":"5ec85515-48e4-422d-a7d3-769670cf8736","system_id":"levelo_inurba_marseille","lat":43.31356,"lon":5.36713,"is_reserved":false,"is_disabled":false,"rental_uris":{"android":"levelo://app?vid=5ec85515-48e4-422d-a7d3-769670cf8736","ios":"levelo://app?vid=5ec85515-48e4-422d-a7d3-769670cf8736"},"vehicle_type_id":"4","last_reported":1758035433,"current_range_meters":11200,"station_id":"ce4bgr92rcd13ifvqc6g","pricing_plan_id":"cebpf4jnsgd1na2vs0mg"},{"bike_id":"4d9785ea-13de-4210-bc0d-f170841019c0","system_id":"levelo_inurba_marseille","lat":43.23184,"lon":5.35553,"is_reserved":false,"is_disabled":false,"rental_uris":{"android":"levelo://app?vid=4d9785ea-13de-4210-bc0d-f170841019c0","ios":"levelo://app?vid=4d9785ea-13de-4210-bc0d-f170841019c0"},"vehicle_type_id":"4","last_reported":1758035433,"current_range_meters":11200,"station_id":"ce4bhu92rcd13ifvqi70","pricing_plan_id":"cebpf4jnsgd1na2vs0mg"},{"bike_id":"68f2d615-0a88-43a0-ae38-fffd094a477b","system_id":"levelo_inurba_marseille","lat":43.31222,"lon":5.36855,"is_reserved":false,"is_disabled":false,"rental_uris":{"android":"levelo://app?vid=68f2d615-0a88-43a0-ae38-fffd094a477b","ios":"levelo://app?vid=68f2d615-0a88-43a0-ae38-fffd094a477b"},"vehicle_type_id":"4","last_reported":1758035433,"current_range_meters":11600,"station_id":"ce4bgl92rcd13ifvqbq0","pricing_plan_id":"cebpf4jnsgd1na2vs0mg"},{"bike_id":"f905347f-fbf4-46d5-a5b7-d6bdd3ae93f7","system_id":"levelo_inurba_marseille","lat":43.29522,"lon":5.39392,"is_reserved":false,"is_disabled":false,"rental_uris":{"android":"levelo://app?vid=f905347f-fbf4-46d5-a5b7-d6bdd3ae93f7","ios":"levelo://app?vid=f905347f-fbf4-46d5-a5b7-d6bdd3ae93f7"},"vehicle_type_id":"4","last_reported":1758035433,"current_range_meters":11200,"station_id":"ce4bh292rcd13ifvqdf0","pricing_plan_id":"cebpf4jnsgd1na2vs0mg"},{"bike_id":"37651add-4052-43d9-bdff-01341493f68f","system_id":"levelo_inurba_marseille","lat":43.30872,"lon":5.3688,"is_reserved":false,"is_disabled":false,"rental_uris":{"android":"levelo://app?vid=37651add-4052-43d9-bdff-01341493f68f","ios":"levelo://app?vid=37651add-4052-43d9-bdff-01341493f68f"},"vehicle_type_id":"4","last_reported":1758035433,"current_range_meters":11600,"station_id":"ce4bgn92rcd13ifvqbvg","pricing_plan_id":"cebpf4jnsgd1na2vs0mg"},{"bike_id":"cfbfad24-b7fa-4309-915e-7144da5e7e21","system_id":"levelo_inurba_marseille","lat":43.26941,"lon":5.40251,"is_reserved":false,"is_disabled":false,"rental_uris":{"android":"levelo://app?vid=cfbfad24-b7fa-4309-915e-7144da5e7e21","ios":"levelo://app?vid=cfbfad24-b7fa-4309-915e-7144da5e7e21"},"vehicle_type_id":"4","last_reported":1758035433,"current_range_meters":11600,"station_id":"cjm6bp8fraef2m0cb0m0","pricing_plan_id":"cebpf4jnsgd1na2vs0mg"},{"bike_id":"0eee83b5-1afc-40f6-8d4f-58fd74d0dbb8","system_id":"levelo_inurba_marseille","lat":43.29024,"lon":5.39967,"is_reserved":false,"is_disabled":false,"rental_uris":{"android":"levelo://app?vid=0eee83b5-1afc-40f6-8d4f-58fd74d0dbb8","ios":"levelo://app?vid=0eee83b5-1afc-40f6-8d4f-58fd74d0dbb8"},"vehicle_type_id":"4","last_reported":1758035433,"current_range_meters":15200,"station_id":"ce4bh392rcd13ifvqdm0","pricing_plan_id":"cebpf4jnsgd1na2vs0mg"},{"bike_id":"8e39e603-6d26-44dc-ba83-90967d9dedc1","system_id":"levelo_inurba_marseille","lat":43.2828,"lon":5.35078,"is_reserved":false,"is_disabled":false,"rental_uris":{"android":"levelo://app?vid=8e39e603-6d26-44dc-ba83-90967d9dedc1","ios":"levelo://app?vid=8e39e603-6d26-44dc-ba83-90967d9dedc1"},"vehicle_type_id":"4","last_reported":1758035433,"current_range_meters":12000,"station_id":"ce4bhbp2rcd13ifvqerg","pricing_plan_id":"cebpf4jnsgd1na2vs0mg"},{"bike_id":"0c92e076-bb9e-408c-8df0-7cad6065538d","system_id":"levelo_inurba_marseille","lat":43.23961,"lon":5.36633,"is_reserved":false,"is_disabled":false,"rental_uris":{"android":"levelo://app?vid=0c92e076-bb9e-408c-8df0-7cad6065538d","ios":"levelo://app?vid=0c92e076-bb9e-408c-8df0-7cad6065538d"},"vehicle_type_id":"4","last_reported":1758035433,"current_range_meters":12000,"station_id":"ce4bhi12rcd13ifvqfp0","pricing_plan_id":"cebpf4jnsgd1na2vs0mg"},{"bike_id":"3468df82-d21c-4467-9dad-0840097912f9","system_id":"levelo_inurba_marseille","lat":43.25489,"lon":5.37638,"is_reserved":false,"is_disabled":false,"rental_uris":{"android":"levelo://app?vid=3468df82-d21c-4467-9dad-0840097912f9","ios":"levelo://app?vid=3468df82-d21c-4467-9dad-0840097912f9"},"vehicle_type_id":"4","last_reported":1758035433,"current_range_meters":12000,"station_id":"ce4bhh12rcd13ifvqff0","pricing_plan_id":"cebpf4jnsgd1na2vs0mg"},{"bike_id":"b61bc781-229d-4606-885c-db92ac801617","system_id":"levelo_inurba_marseille","lat":43.29277,"lon":5.40113,"is_reserved":false,"is_disabled":false,"rental_uris":{"android":"levelo://app?vid=b61bc781-229d-4606-885c-db92ac801617","ios":"levelo://app?vid=b61bc781-229d-4606-885c-db92ac801617"},"vehicle_type_id":"4","last_reported":1758035433,"current_range_meters":12000,"station_id":"ce4bh312rcd13ifvqdk0","pricing_plan_id":"cebpf4jnsgd1na2vs0mg"},{"bike_id":"04799e55-75f9-4bb7-bca1-4de23a0c813b","system_id":"levelo_inurba_marseille","lat":43.284155,"lon":5.34981,"is_reserved":false,"is_disabled":false,"rental_uris":{"android":"levelo://app?vid=04799e55-75f9-4bb7-bca1-4de23a0c813b","ios":"levelo://app?vid=04799e55-75f9-4bb7-bca1-4de23a0c813b"},"vehicle_type_id":"4","last_reported":1758035433,"current_range_meters":12000,"station_id":"ce4bhbh2rcd13ifvqepg","pricing_plan_id":"cebpf4jnsgd1na2vs0mg"},{"bike_id":"8442639b-228c-48c6-a19f-e5166729a7f5","system_id":"levelo_inurba_marseille","lat":43.30639,"lon":5.40068,"is_reserved":false,"is_disabled":false,"rental_uris":{"android":"levelo://app?vid=8442639b-228c-48c6-a19f-e5166729a7f5","ios":"levelo://app?vid=8442639b-228c-48c6-a19f-e5166729a7f5"},"vehicle_type_id":"4","last_reported":1758035433,"current_range_meters":12000,"station_id":"ce4bh112rcd13ifvqda0","pricing_plan_id":"cebpf4jnsgd1na2vs0mg"},{"bike_id":"b3ed4d2d-8361-4230-ac77-0db02def440d","system_id":"levelo_inurba_marseille","lat":43.30321,"lon":5.404,"is_reserved":false,"is_disabled":false,"rental_uris":{"android":"levelo://app?vid=b3ed4d2d-8361-4230-ac77-0db02def440d","ios":"levelo://app?vid=b3ed4d2d-8361-4230-ac77-0db02def440d"},"vehicle_type_id":"4","last_reported":1758035433,"current_range_meters":12000,"station_id":"ce4bh012rcd13ifvqd10","pricing_plan_id":"cebpf4jnsgd1na2vs0mg"},{"bike_id":"86fa6891-5f3d-4c91-8c51-c366770b1876","system_id":"levelo_inurba_marseille","lat":43.30206,"lon":5.39455,"is_reserved":false,"is_disabled":false,"rental_uris":{"android":"levelo://app?vid=86fa6891-5f3d-4c91-8c51-c366770b1876","ios":"levelo://app?vid=86fa6891-5f3d-4c91-8c51-c366770b1876"},"vehicle_type_id":"4","last_reported":1758035433,"current_range_meters":12000,"station_id":"ce4bh0p2rcd13ifvqd70","pricing_plan_id":"cebpf4jnsgd1na2vs0mg"},{"bike_id":"078c3ab4-5ec7-4cf2-85c4-255f9b8a1af0","system_id":"levelo_inurba_marseille","lat":43.271219,"lon":5.403555,"is_reserved":false,"is_disabled":false,"rental_uris":{"android":"levelo://app?vid=078c3ab4-5ec7-4cf2-85c4-255f9b8a1af0","ios":"levelo://app?vid=078c3ab4-5ec7-4cf2-85c4-255f9b8a1af0"},"vehicle_type_id":"4","last_reported":1758035433,"current_range_meters":12400,"station_id":"ce4bhk92rcd13ifvqgc0","pricing_plan_id":"cebpf4jnsgd1na2vs0mg"},{"bike_id":"fbf68d05-5125-49dc-91fb-265fd58ee496","system_id":"levelo_inurba_marseille","lat":43.24053,"lon":5.3775,"is_reserved":false,"is_disabled":false,"rental_uris":{"android":"levelo://app?vid=fbf68d05-5125-49dc-91fb-265fd58ee496","ios":"levelo://app?vid=fbf68d05-5125-49dc-91fb-265fd58ee496"},"vehicle_type_id":"4","last_reported":1758035433,"current_range_meters":12400,"station_id":"ce4bhnp2rcd13ifvqgvg","pricing_plan_id":"cebpf4jnsgd1na2vs0mg"},{"bike_id":"55ff4e16-8c51-4054-bf37-b238dd772ea4","system_id":"levelo_inurba_marseille","lat":43.28422,"lon":5.34984,"is_reserved":false,"is_disabled":false,"rental_uris":{"android":"levelo://app?vid=55ff4e16-8c51-4054-bf37-b238dd772ea4","ios":"levelo://app?vid=55ff4e16-8c51-4054-bf37-b238dd772ea4"},"vehicle_type_id":"4","last_reported":1758035433,"current_range_meters":12400,"station_id":"ce4bhbh2rcd13ifvqepg","pricing_plan_id":"cebpf4jnsgd1na2vs0mg"},{"bike_id":"9156b3e9-6a8e-4859-87d7-eac70607edc4","system_id":"levelo_inurba_marseille","lat":43.296229,"lon":5.376965,"is_reserved":false,"is_disabled":false,"rental_uris":{"android":"levelo://app?vid=9156b3e9-6a8e-4859-87d7-eac70607edc4","ios":"levelo://app?vid=9156b3e9-6a8e-4859-87d7-eac70607edc4"},"vehicle_type_id":"4","last_reported":1758035433,"current_range_meters":12400,"station_id":"ce4bgi92rcd13ifvqb90","pricing_plan_id":"cebpf4jnsgd1na2vs0mg"},{"bike_id":"4ce62854-53ad-49f7-904f-770313945766","system_id":"levelo_inurba_marseille","lat":43.2842,"lon":5.34975,"is_reserved":false,"is_disabled":false,"rental_uris":{"android":"levelo://app?vid=4ce62854-53ad-49f7-904f-770313945766","ios":"levelo://app?vid=4ce62854-53ad-49f7-904f-770313945766"},"vehicle_type_id":"4","last_reported":1758035433,"current_range_meters":12400,"station_id":"ce4bhbh2rcd13ifvqepg","pricing_plan_id":"cebpf4jnsgd1na2vs0mg"},{"bike_id":"4dfe756d-7364-46a5-9726-62ad481662dc","system_id":"levelo_inurba_marseille","lat":43.31696,"lon":5.37713,"is_reserved":false,"is_disabled":false,"rental_uris":{"android":"levelo://app?vid=4dfe756d-7364-46a5-9726-62ad481662dc","ios":"levelo://app?vid=4dfe756d-7364-46a5-9726-62ad481662dc"},"vehicle_type_id":"4","last_reported":1758035433,"current_range_meters":12800,"station_id":"ce4bgth2rcd13ifvqch0","pricing_plan_id":"cebpf4jnsgd1na2vs0mg"},{"bike_id":"9001dede-c875-4729-80ac-5a9089de7278","system_id":"levelo_inurba_marseille","lat":43.29036,"lon":5.38649,"is_reserved":false,"is_disabled":false,"rental_uris":{"android":"levelo://app?vid=9001dede-c875-4729-80ac-5a9089de7278","ios":"levelo://app?vid=9001dede-c875-4729-80ac-5a9089de7278"},"vehicle_type_id":"4","last_reported":1758035433,"current_range_meters":12800,"station_id":"ce4bh4p2rcd13ifvqe0g","pricing_plan_id":"cebpf4jnsgd1na2vs0mg"},{"bike_id":"3b26aa0d-3679-4b4c-9b55-1096f6d08a9d","system_id":"levelo_inurba_marseille","lat":43.31296,"lon":5.3938,"is_reserved":false,"is_disabled":false,"rental_uris":{"android":"levelo://app?vid=3b26aa0d-3679-4b4c-9b55-1096f6d08a9d","ios":"levelo://app?vid=3b26aa0d-3679-4b4c-9b55-1096f6d08a9d"},"vehicle_type_id":"4","last_reported":1758035433,"current_range_meters":12800,"station_id":"","pricing_plan_id":"cebpf4jnsgd1na2vs0mg"},{"bike_id":"67771476-9105-4fe3-bb3c-bbe1fb0b5360","system_id":"levelo_inurba_marseille","lat":43.29308,"lon":5.37178,"is_reserved":false,"is_disabled":false,"rental_uris":{"android":"levelo://app?vid=67771476-9105-4fe3-bb3c-bbe1fb0b5360","ios":"levelo://app?vid=67771476-9105-4fe3-bb3c-bbe1fb0b5360"},"vehicle_type_id":"4","last_reported":1758035433,"current_range_meters":12800,"station_id":"ce4bgh92rcd13ifvqb40","pricing_plan_id":"cebpf4jnsgd1na2vs0mg"},{"bike_id":"cd2513dc-3627-4964-a0b1-d4c9260c4c8e","system_id":"levelo_inurba_marseille","lat":43.2408,"lon":5.37745,"is_reserved":false,"is_disabled":false,"rental_uris":{"android":"levelo://app?vid=cd2513dc-3627-4964-a0b1-d4c9260c4c8e","ios":"levelo://app?vid=cd2513dc-3627-4964-a0b1-d4c9260c4c8e"},"vehicle_type_id":"4","last_reported":1758035433,"current_range_meters":12800,"station_id":"ce4bhnp2rcd13ifvqgvg","pricing_plan_id":"cebpf4jnsgd1na2vs0mg"},{"bike_id":"9c740e69-761d-4034-b327-63addcf5f7f3","system_id":"levelo_inurba_marseille","lat":43.28278,"lon":5.35031,"is_reserved":false,"is_disabled":false,"rental_uris":{"android":"levelo://app?vid=9c740e69-761d-4034-b327-63addcf5f7f3","ios":"levelo://app?vid=9c740e69-761d-4034-b327-63addcf5f7f3"},"vehicle_type_id":"4","last_reported":1758035433,"current_range_meters":12800,"station_id":"ce4bhbp2rcd13ifvqerg","pricing_plan_id":"cebpf4jnsgd1na2vs0mg"},{"bike_id":"2ba6d751-735d-4f3f-b471-7e3f5bc5e1b1","system_id":"levelo_inurba_marseille","lat":43.32101,"lon":5.36745,"is_reserved":false,"is_disabled":false,"rental_uris":{"android":"levelo://app?vid=2ba6d751-735d-4f3f-b471-7e3f5bc5e1b1","ios":"levelo://app?vid=2ba6d751-735d-4f3f-b471-7e3f5bc5e1b1"},"vehicle_type_id":"4","last_reported":1758035433,"current_range_meters":12800,"station_id":"ce4bhrh2rcd13ifvqhug","pricing_plan_id":"cebpf4jnsgd1na2vs0mg"},{"bike_id":"dd9736e4-05ad-484f-adb5-d9f631261544","system_id":"levelo_inurba_marseille","lat":43.24071,"lon":5.37759,"is_reserved":false,"is_disabled":false,"rental_uris":{"android":"levelo://app?vid=dd9736e4-05ad-484f-adb5-d9f631261544","ios":"levelo://app?vid=dd9736e4-05ad-484f-adb5-d9f631261544"},"vehicle_type_id":"4","last_reported":1758035433,"current_range_meters":12800,"station_id":"ce4bhnp2rcd13ifvqgvg","pricing_plan_id":"cebpf4jnsgd1na2vs0mg"},{"bike_id":"b5cd03fa-493b-4944-80c2-808ec6d5a783","system_id":"levelo_inurba_marseille","lat":43.29508,"lon":5.39402,"is_reserved":false,"is_disabled":false,"rental_uris":{"android":"levelo://app?vid=b5cd03fa-493b-4944-80c2-808ec6d5a783","ios":"levelo://app?vid=b5cd03fa-493b-4944-80c2-808ec6d5a783"},"vehicle_type_id":"4","last_reported":1758035433,"current_range_meters":13600,"station_id":"ce4bh292rcd13ifvqdf0","pricing_plan_id":"cebpf4jnsgd1na2vs0mg"},{"bike_id":"a05fdb49-e038-4a84-8ea1-52f3eaaf07b1","system_id":"levelo_inurba_marseille","lat":43.22554,"lon":5.41606,"is_reserved":false,"is_disabled":false,"rental_uris":{"android":"levelo://app?vid=a05fdb49-e038-4a84-8ea1-52f3eaaf07b1","ios":"levelo://app?vid=a05fdb49-e038-4a84-8ea1-52f3eaaf07b1"},"vehicle_type_id":"4","last_reported":1758035433,"current_range_meters":13600,"station_id":"st_d2o4gvlbi1j2169b742g","pricing_plan_id":"cebpf4jnsgd1na2vs0mg"},{"bike_id":"7401f904-c7a5-4420-9a38-b32c76084c39","system_id":"levelo_inurba_marseille","lat":43.28277,"lon":5.35052,"is_reserved":false,"is_disabled":false,"rental_uris":{"android":"levelo://app?vid=7401f904-c7a5-4420-9a38-b32c76084c39","ios":"levelo://app?vid=7401f904-c7a5-4420-9a38-b32c76084c39"},"vehicle_type_id":"4","last_reported":1758035433,"current_range_meters":13600,"station_id":"ce4bhbp2rcd13ifvqerg","pricing_plan_id":"cebpf4jnsgd1na2vs0mg"},{"bike_id":"d52090dd-de54-4782-ae18-5b7307696043","system_id":"levelo_inurba_marseille","lat":43.30891,"lon":5.37189,"is_reserved":false,"is_disabled":false,"rental_uris":{"android":"levelo://app?vid=d52090dd-de54-4782-ae18-5b7307696043","ios":"levelo://app?vid=d52090dd-de54-4782-ae18-5b7307696043"},"vehicle_type_id":"4","last_reported":1758035433,"current_range_meters":12400,"station_id":"ce4bguh2rcd13ifvqckg","pricing_plan_id":"cebpf4jnsgd1na2vs0mg"},{"bike_id":"0ddb371b-8863-4158-9a59-3f7292d778af","system_id":"levelo_inurba_marseille","lat":43.24636,"lon":5.43141,"is_reserved":false,"is_disabled":false,"rental_uris":{"android":"levelo://app?vid=0ddb371b-8863-4158-9a59-3f7292d778af","ios":"levelo://app?vid=0ddb371b-8863-4158-9a59-3f7292d778af"},"vehicle_type_id":"4","last_reported":1758035433,"current_range_meters":14000,"station_id":"st_d2m6c4gdas8pm72e190g","pricing_plan_id":"cebpf4jnsgd1na2vs0mg"},{"bike_id":"a233fd34-6838-42a2-943f-f1f026b5e317","system_id":"levelo_inurba_marseille","lat":43.28417,"lon":5.34982,"is_reserved":false,"is_disabled":false,"rental_uris":{"android":"levelo://app?vid=a233fd34-6838-42a2-943f-f1f026b5e317","ios":"levelo://app?vid=a233fd34-6838-42a2-943f-f1f026b5e317"},"vehicle_type_id":"4","last_reported":1758035433,"current_range_meters":14000,"station_id":"ce4bhbh2rcd13ifvqepg","pricing_plan_id":"cebpf4jnsgd1na2vs0mg"},{"bike_id":"e0d63261-85b9-459b-b1b4-24d328c5b1c9","system_id":"levelo_inurba_marseille","lat":43.29063,"lon":5.37138,"is_reserved":false,"is_disabled":false,"rental_uris":{"android":"levelo://app?vid=e0d63261-85b9-459b-b1b4-24d328c5b1c9","ios":"levelo://app?vid=e0d63261-85b9-459b-b1b4-24d328c5b1c9"},"vehicle_type_id":"4","last_reported":1758035433,"current_range_meters":14400,"station_id":"ce4bh5p2rcd13ifvqe4g","pricing_plan_id":"cebpf4jnsgd1na2vs0mg"},{"bike_id":"55acb65c-38b3-4742-8bfe-c8d20151e5fe","system_id":"levelo_inurba_marseille","lat":43.29026,"lon":5.38129,"is_reserved":false,"is_disabled":true,"rental_uris":{"android":"levelo://app?vid=55acb65c-38b3-4742-8bfe-c8d20151e5fe","ios":"levelo://app?vid=55acb65c-38b3-4742-8bfe-c8d20151e5fe"},"vehicle_type_id":"4","last_reported":1758035433,"current_range_meters":13600,"station_id":"ce4bh4p2rcd13ifvqe1g","pricing_plan_id":"cebpf4jnsgd1na2vs0mg"},{"bike_id":"0ede21be-37d9-4495-b672-80274a6292be","system_id":"levelo_inurba_marseille","lat":43.35039,"lon":5.34066,"is_reserved":false,"is_disabled":false,"rental_uris":{"android":"levelo://app?vid=0ede21be-37d9-4495-b672-80274a6292be","ios":"levelo://app?vid=0ede21be-37d9-4495-b672-80274a6292be"},"vehicle_type_id":"4","last_reported":1758035433,"current_range_meters":14000,"station_id":"","pricing_plan_id":"cebpf4jnsgd1na2vs0mg"},{"bike_id":"62473aca-5d60-4f9b-8d0a-e6ce0ea7fc2f","system_id":"levelo_inurba_marseille","lat":43.30362,"lon":5.36605,"is_reserved":false,"is_disabled":false,"rental_uris":{"android":"levelo://app?vid=62473aca-5d60-4f9b-8d0a-e6ce0ea7fc2f","ios":"levelo://app?vid=62473aca-5d60-4f9b-8d0a-e6ce0ea7fc2f"},"vehicle_type_id":"4","last_reported":1758035433,"current_range_meters":14400,"station_id":"","pricing_plan_id":"cebpf4jnsgd1na2vs0mg"},{"bike_id":"ece07351-e21d-4c48-bd8e-d6076d0d6379","system_id":"levelo_inurba_marseille","lat":43.28473,"lon":5.37477,"is_reserved":false,"is_disabled":false,"rental_uris":{"android":"levelo://app?vid=ece07351-e21d-4c48-bd8e-d6076d0d6379","ios":"levelo://app?vid=ece07351-e21d-4c48-bd8e-d6076d0d6379"},"vehicle_type_id":"4","last_reported":1758035433,"current_range_meters":14400,"station_id":"","pricing_plan_id":"cebpf4jnsgd1na2vs0mg"},{"bike_id":"61296e12-64a5-45c6-af0a-54864a96362a","system_id":"levelo_inurba_marseille","lat":43.31074,"lon":5.38355,"is_reserved":false,"is_disabled":false,"rental_uris":{"android":"levelo://app?vid=61296e12-64a5-45c6-af0a-54864a96362a","ios":"levelo://app?vid=61296e12-64a5-45c6-af0a-54864a96362a"},"vehicle_type_id":"4","last_reported":1758035433,"current_range_meters":14400,"station_id":"ce4bgv92rcd13ifvqcr0","pricing_plan_id":"cebpf4jnsgd1na2vs0mg"},{"bike_id":"425026c0-eaa2-409b-826b-d789bdc3f055","system_id":"levelo_inurba_marseille","lat":43.317,"lon":5.3774,"is_reserved":false,"is_disabled":false,"rental_uris":{"android":"levelo://app?vid=425026c0-eaa2-409b-826b-d789bdc3f055","ios":"levelo://app?vid=425026c0-eaa2-409b-826b-d789bdc3f055"},"vehicle_type_id":"4","last_reported":1758035433,"current_range_meters":14400,"station_id":"ce4bgth2rcd13ifvqch0","pricing_plan_id":"cebpf4jnsgd1na2vs0mg"},{"bike_id":"b6e6a7d8-c327-4551-805b-d10bbee00f9f","system_id":"levelo_inurba_marseille","lat":43.29266,"lon":5.37631,"is_reserved":false,"is_disabled":false,"rental_uris":{"android":"levelo://app?vid=b6e6a7d8-c327-4551-805b-d10bbee00f9f","ios":"levelo://app?vid=b6e6a7d8-c327-4551-805b-d10bbee00f9f"},"vehicle_type_id":"4","last_reported":1758035433,"current_range_meters":14400,"station_id":"ce4bgi12rcd13ifvqb80","pricing_plan_id":"cebpf4jnsgd1na2vs0mg"},{"bike_id":"f5aa6c08-0eda-4f12-bc5b-05b6ae56ecee","system_id":"levelo_inurba_marseille","lat":43.24068,"lon":5.37765,"is_reserved":false,"is_disabled":false,"rental_uris":{"android":"levelo://app?vid=f5aa6c08-0eda-4f12-bc5b-05b6ae56ecee","ios":"levelo://app?vid=f5aa6c08-0eda-4f12-bc5b-05b6ae56ecee"},"vehicle_type_id":"4","last_reported":1758035433,"current_range_meters":14400,"station_id":"ce4bhnp2rcd13ifvqgvg","pricing_plan_id":"cebpf4jnsgd1na2vs0mg"},{"bike_id":"d6e44bc7-aefa-43a6-b7dd-8c77152b0f7f","system_id":"levelo_inurba_marseille","lat":43.29528,"lon":5.38537,"is_reserved":false,"is_disabled":false,"rental_uris":{"android":"levelo://app?vid=d6e44bc7-aefa-43a6-b7dd-8c77152b0f7f","ios":"levelo://app?vid=d6e44bc7-aefa-43a6-b7dd-8c77152b0f7f"},"vehicle_type_id":"4","last_reported":1758035433,"current_range_meters":14400,"station_id":"ce4bgih2rcd13ifvqba0","pricing_plan_id":"cebpf4jnsgd1na2vs0mg"},{"bike_id":"cc8e0e5c-1e40-4e39-80f4-1b48de93bbe9","system_id":"levelo_inurba_marseille","lat":43.28723,"lon":5.36082,"is_reserved":false,"is_disabled":false,"rental_uris":{"android":"levelo://app?vid=cc8e0e5c-1e40-4e39-80f4-1b48de93bbe9","ios":"levelo://app?vid=cc8e0e5c-1e40-4e39-80f4-1b48de93bbe9"},"vehicle_type_id":"4","last_reported":1758035433,"current_range_meters":14400,"station_id":"cki0cbj6b192h4jlfktg","pricing_plan_id":"cebpf4jnsgd1na2vs0mg"},{"bike_id":"33402864-f5e0-47e4-8687-c925adfc3d24","system_id":"levelo_inurba_marseille","lat":43.24181,"lon":5.36375,"is_reserved":false,"is_disabled":false,"rental_uris":{"android":"levelo://app?vid=33402864-f5e0-47e4-8687-c925adfc3d24","ios":"levelo://app?vid=33402864-f5e0-47e4-8687-c925adfc3d24"},"vehicle_type_id":"4","last_reported":1758035433,"current_range_meters":14400,"station_id":"cpo36qri1sfpv3e86is0","pricing_plan_id":"cebpf4jnsgd1na2vs0mg"},{"bike_id":"ce030dd5-c3ce-4f2d-b52c-34c8021a5738","system_id":"levelo_inurba_marseille","lat":43.26557,"lon":5.37284,"is_reserved":false,"is_disabled":false,"rental_uris":{"android":"levelo://app?vid=ce030dd5-c3ce-4f2d-b52c-34c8021a5738","ios":"levelo://app?vid=ce030dd5-c3ce-4f2d-b52c-34c8021a5738"},"vehicle_type_id":"4","last_reported":1758035433,"current_range_meters":14800,"station_id":"ce4bhg12rcd13ifvqf70","pricing_plan_id":"cebpf4jnsgd1na2vs0mg"},{"bike_id":"11555ead-152a-4e2f-ac3e-7aaa852c50e5","system_id":"levelo_inurba_marseille","lat":43.225326,"lon":5.348358,"is_reserved":false,"is_disabled":false,"rental_uris":{"android":"levelo://app?vid=11555ead-152a-4e2f-ac3e-7aaa852c50e5","ios":"levelo://app?vid=11555ead-152a-4e2f-ac3e-7aaa852c50e5"},"vehicle_type_id":"4","last_reported":1758035433,"current_range_meters":14800,"station_id":"","pricing_plan_id":"cebpf4jnsgd1na2vs0mg"},{"bike_id":"23eee6ad-3b4f-469e-afb1-97547b7fc778","system_id":"levelo_inurba_marseille","lat":43.28727,"lon":5.36075,"is_reserved":false,"is_disabled":false,"rental_uris":{"android":"levelo://app?vid=23eee6ad-3b4f-469e-afb1-97547b7fc778","ios":"levelo://app?vid=23eee6ad-3b4f-469e-afb1-97547b7fc778"},"vehicle_type_id":"4","last_reported":1758035433,"current_range_meters":14800,"station_id":"cki0cbj6b192h4jlfktg","pricing_plan_id":"cebpf4jnsgd1na2vs0mg"},{"bike_id":"01b26fca-44b7-4d35-8d06-828691e3ecc8","system_id":"levelo_inurba_marseille","lat":43.28708,"lon":5.37398,"is_reserved":false,"is_disabled":false,"rental_uris":{"android":"levelo://app?vid=01b26fca-44b7-4d35-8d06-828691e3ecc8","ios":"levelo://app?vid=01b26fca-44b7-4d35-8d06-828691e3ecc8"},"vehicle_type_id":"4","last_reported":1758035433,"current_range_meters":14800,"station_id":"ce4bh3p2rcd13ifvqdq0","pricing_plan_id":"cebpf4jnsgd1na2vs0mg"},{"bike_id":"c8144899-9b41-4fd4-84a4-755117cb116d","system_id":"levelo_inurba_marseille","lat":43.284722,"lon":5.384208,"is_reserved":false,"is_disabled":false,"rental_uris":{"android":"levelo://app?vid=c8144899-9b41-4fd4-84a4-755117cb116d","ios":"levelo://app?vid=c8144899-9b41-4fd4-84a4-755117cb116d"},"vehicle_type_id":"4","last_reported":1758035433,"current_range_meters":14800,"station_id":"","pricing_plan_id":"cebpf4jnsgd1na2vs0mg"},{"bike_id":"fa889b2f-9438-45d7-8701-2efc8bfbc1a2","system_id":"levelo_inurba_marseille","lat":43.25085,"lon":5.39517,"is_reserved":false,"is_disabled":false,"rental_uris":{"android":"levelo://app?vid=fa889b2f-9438-45d7-8701-2efc8bfbc1a2","ios":"levelo://app?vid=fa889b2f-9438-45d7-8701-2efc8bfbc1a2"},"vehicle_type_id":"4","last_reported":1758035433,"current_range_meters":15200,"station_id":"ce4bhm12rcd13ifvqgkg","pricing_plan_id":"cebpf4jnsgd1na2vs0mg"},{"bike_id":"88a8a850-d513-47ec-8870-e7210ef51b52","system_id":"levelo_inurba_marseille","lat":43.29929,"lon":5.38523,"is_reserved":false,"is_disabled":false,"rental_uris":{"android":"levelo://app?vid=88a8a850-d513-47ec-8870-e7210ef51b52","ios":"levelo://app?vid=88a8a850-d513-47ec-8870-e7210ef51b52"},"vehicle_type_id":"4","last_reported":1758035433,"current_range_meters":15200,"station_id":"","pricing_plan_id":"cebpf4jnsgd1na2vs0mg"},{"bike_id":"6a0442ac-f64f-4146-991c-4c0d33557390","system_id":"levelo_inurba_marseille","lat":43.29025,"lon":5.37924,"is_reserved":false,"is_disabled":false,"rental_uris":{"android":"levelo://app?vid=6a0442ac-f64f-4146-991c-4c0d33557390","ios":"levelo://app?vid=6a0442ac-f64f-4146-991c-4c0d33557390"},"vehicle_type_id":"4","last_reported":1758035433,"current_range_meters":16000,"station_id":"","pricing_plan_id":"cebpf4jnsgd1na2vs0mg"},{"bike_id":"453a2908-3680-455f-bda7-00a342891b64","system_id":"levelo_inurba_marseille","lat":43.22552,"lon":5.41634,"is_reserved":false,"is_disabled":false,"rental_uris":{"android":"levelo://app?vid=453a2908-3680-455f-bda7-00a342891b64","ios":"levelo://app?vid=453a2908-3680-455f-bda7-00a342891b64"},"vehicle_type_id":"4","last_reported":1758035433,"current_range_meters":15200,"station_id":"st_d2o4gvlbi1j2169b742g","pricing_plan_id":"cebpf4jnsgd1na2vs0mg"},{"bike_id":"c4ff09c4-0e03-480f-905f-c0d1aa3d4085","system_id":"levelo_inurba_marseille","lat":43.28484,"lon":5.38562,"is_reserved":false,"is_disabled":false,"rental_uris":{"android":"levelo://app?vid=c4ff09c4-0e03-480f-905f-c0d1aa3d4085","ios":"levelo://app?vid=c4ff09c4-0e03-480f-905f-c0d1aa3d4085"},"vehicle_type_id":"4","last_reported":1758035433,"current_range_meters":15200,"station_id":"ce4bh8p2rcd13ifvqeb0","pricing_plan_id":"cebpf4jnsgd1na2vs0mg"},{"bike_id":"0b530ca0-5abe-456a-80f2-061626fcc9b1","system_id":"levelo_inurba_marseille","lat":43.29972,"lon":5.38212,"is_reserved":false,"is_disabled":false,"rental_uris":{"android":"levelo://app?vid=0b530ca0-5abe-456a-80f2-061626fcc9b1","ios":"levelo://app?vid=0b530ca0-5abe-456a-80f2-061626fcc9b1"},"vehicle_type_id":"4","last_reported":1758035433,"current_range_meters":15200,"station_id":"","pricing_plan_id":"cebpf4jnsgd1na2vs0mg"},{"bike_id":"40495e59-b743-486e-987c-cb0c3ab2f191","system_id":"levelo_inurba_marseille","lat":43.33286,"lon":5.41275,"is_reserved":false,"is_disabled":false,"rental_uris":{"android":"levelo://app?vid=40495e59-b743-486e-987c-cb0c3ab2f191","ios":"levelo://app?vid=40495e59-b743-486e-987c-cb0c3ab2f191"},"vehicle_type_id":"4","last_reported":1758035433,"current_range_meters":15200,"station_id":"","pricing_plan_id":"cebpf4jnsgd1na2vs0mg"},{"bike_id":"0e7660c1-b4ea-4c0d-a92c-3583e73d0290","system_id":"levelo_inurba_marseille","lat":43.28282,"lon":5.35081,"is_reserved":false,"is_disabled":false,"rental_uris":{"android":"levelo://app?vid=0e7660c1-b4ea-4c0d-a92c-3583e73d0290","ios":"levelo://app?vid=0e7660c1-b4ea-4c0d-a92c-3583e73d0290"},"vehicle_type_id":"4","last_reported":1758035433,"current_range_meters":15200,"station_id":"ce4bhbp2rcd13ifvqerg","pricing_plan_id":"cebpf4jnsgd1na2vs0mg"},{"bike_id":"bea3067e-d24b-4187-ad47-b91ed7f0b148","system_id":"levelo_inurba_marseille","lat":43.28409,"lon":5.37507,"is_reserved":false,"is_disabled":false,"rental_uris":{"android":"levelo://app?vid=bea3067e-d24b-4187-ad47-b91ed7f0b148","ios":"levelo://app?vid=bea3067e-d24b-4187-ad47-b91ed7f0b148"},"vehicle_type_id":"4","last_reported":1758035433,"current_range_meters":15200,"station_id":"ce4bh412rcd13ifvqds0","pricing_plan_id":"cebpf4jnsgd1na2vs0mg"},{"bike_id":"8ad3dab9-1d2d-4ac0-a622-2705413043f8","system_id":"levelo_inurba_marseille","lat":43.24649,"lon":5.43133,"is_reserved":false,"is_disabled":false,"rental_uris":{"android":"levelo://app?vid=8ad3dab9-1d2d-4ac0-a622-2705413043f8","ios":"levelo://app?vid=8ad3dab9-1d2d-4ac0-a622-2705413043f8"},"vehicle_type_id":"4","last_reported":1758035433,"current_range_meters":15200,"station_id":"st_d2m6c4gdas8pm72e190g","pricing_plan_id":"cebpf4jnsgd1na2vs0mg"},{"bike_id":"5c0b2341-c41a-4f62-9e5f-92e6a593fad9","system_id":"levelo_inurba_marseille","lat":43.33769,"lon":5.37398,"is_reserved":false,"is_disabled":false,"rental_uris":{"android":"levelo://app?vid=5c0b2341-c41a-4f62-9e5f-92e6a593fad9","ios":"levelo://app?vid=5c0b2341-c41a-4f62-9e5f-92e6a593fad9"},"vehicle_type_id":"4","last_reported":1758035433,"current_range_meters":16000,"station_id":"","pricing_plan_id":"cebpf4jnsgd1na2vs0mg"},{"bike_id":"003515e8-8117-44bb-979d-5f47e8d50fda","system_id":"levelo_inurba_marseille","lat":43.30622,"lon":5.37568,"is_reserved":false,"is_disabled":false,"rental_uris":{"android":"levelo://app?vid=003515e8-8117-44bb-979d-5f47e8d50fda","ios":"levelo://app?vid=003515e8-8117-44bb-979d-5f47e8d50fda"},"vehicle_type_id":"4","last_reported":1758035433,"current_range_meters":16000,"station_id":"","pricing_plan_id":"cebpf4jnsgd1na2vs0mg"},{"bike_id":"82e0bfcc-bba2-4c2c-9484-d3ca3b13a18b","system_id":"levelo_inurba_marseille","lat":43.29461,"lon":5.37531,"is_reserved":false,"is_disabled":false,"rental_uris":{"android":"levelo://app?vid=82e0bfcc-bba2-4c2c-9484-d3ca3b13a18b","ios":"levelo://app?vid=82e0bfcc-bba2-4c2c-9484-d3ca3b13a18b"},"vehicle_type_id":"4","last_reported":1758035433,"current_range_meters":16000,"station_id":"","pricing_plan_id":"cebpf4jnsgd1na2vs0mg"},{"bike_id":"96644ae3-2807-4f95-a981-fef4ac2b0e69","system_id":"levelo_inurba_marseille","lat":43.225329,"lon":5.34835,"is_reserved":false,"is_disabled":false,"rental_uris":{"android":"levelo://app?vid=96644ae3-2807-4f95-a981-fef4ac2b0e69","ios":"levelo://app?vid=96644ae3-2807-4f95-a981-fef4ac2b0e69"},"vehicle_type_id":"4","last_reported":1758035433,"current_range_meters":16000,"station_id":"","pricing_plan_id":"cebpf4jnsgd1na2vs0mg"},{"bike_id":"23e1572e-7ccb-4eea-8020-599035749c9e","system_id":"levelo_inurba_marseille","lat":43.23835,"lon":5.36547,"is_reserved":false,"is_disabled":false,"rental_uris":{"android":"levelo://app?vid=23e1572e-7ccb-4eea-8020-599035749c9e","ios":"levelo://app?vid=23e1572e-7ccb-4eea-8020-599035749c9e"},"vehicle_type_id":"4","last_reported":1758035433,"current_range_meters":16000,"station_id":"","pricing_plan_id":"cebpf4jnsgd1na2vs0mg"},{"bike_id":"a4c5d1da-b728-4a0a-a897-920fb50df0e1","system_id":"levelo_inurba_marseille","lat":43.211912,"lon":5.350736,"is_reserved":false,"is_disabled":false,"rental_uris":{"android":"levelo://app?vid=a4c5d1da-b728-4a0a-a897-920fb50df0e1","ios":"levelo://app?vid=a4c5d1da-b728-4a0a-a897-920fb50df0e1"},"vehicle_type_id":"4","last_reported":1758035433,"current_range_meters":16000,"station_id":"st_cvj6sg6p6f1abm77japg","pricing_plan_id":"cebpf4jnsgd1na2vs0mg"},{"bike_id":"fd3b4146-0073-4a79-82a9-bfaee63ff612","system_id":"levelo_inurba_marseille","lat":43.2943,"lon":5.38564,"is_reserved":false,"is_disabled":false,"rental_uris":{"android":"levelo://app?vid=fd3b4146-0073-4a79-82a9-bfaee63ff612","ios":"levelo://app?vid=fd3b4146-0073-4a79-82a9-bfaee63ff612"},"vehicle_type_id":"4","last_reported":1758035433,"current_range_meters":16000,"station_id":"","pricing_plan_id":"cebpf4jnsgd1na2vs0mg"},{"bike_id":"6e56b163-41ac-47d1-9f97-fae8c62881b1","system_id":"levelo_inurba_marseille","lat":43.26488,"lon":5.39538,"is_reserved":false,"is_disabled":true,"rental_uris":{"android":"levelo://app?vid=6e56b163-41ac-47d1-9f97-fae8c62881b1","ios":"levelo://app?vid=6e56b163-41ac-47d1-9f97-fae8c62881b1"},"vehicle_type_id":"4","last_reported":1758035433,"current_range_meters":16000,"station_id":"ce4bhi12rcd13ifvqfq0","pricing_plan_id":"cebpf4jnsgd1na2vs0mg"},{"bike_id":"76e349fa-bc9b-47a4-9c39-43f8ccd1efae","system_id":"levelo_inurba_marseille","lat":43.28043,"lon":5.36932,"is_reserved":false,"is_disabled":true,"rental_uris":{"android":"levelo://app?vid=76e349fa-bc9b-47a4-9c39-43f8ccd1efae","ios":"levelo://app?vid=76e349fa-bc9b-47a4-9c39-43f8ccd1efae"},"vehicle_type_id":"4","last_reported":1758035433,"current_range_meters":16000,"station_id":"ce4bha12rcd13ifvqef0","pricing_plan_id":"cebpf4jnsgd1na2vs0mg"},{"bike_id":"48a17e02-d677-4012-9b20-7e702a1413a9","system_id":"levelo_inurba_marseille","lat":43.33719,"lon":5.39177,"is_reserved":false,"is_disabled":false,"rental_uris":{"android":"levelo://app?vid=48a17e02-d677-4012-9b20-7e702a1413a9","ios":"levelo://app?vid=48a17e02-d677-4012-9b20-7e702a1413a9"},"vehicle_type_id":"4","last_reported":1758035433,"current_range_meters":16000,"station_id":"ce4bhr92rcd13ifvqhsg","pricing_plan_id":"cebpf4jnsgd1na2vs0mg"},{"bike_id":"daf44963-6de4-4983-b9d2-ac4f845119e4","system_id":"levelo_inurba_marseille","lat":43.25595,"lon":5.38214,"is_reserved":false,"is_disabled":false,"rental_uris":{"android":"levelo://app?vid=daf44963-6de4-4983-b9d2-ac4f845119e4","ios":"levelo://app?vid=daf44963-6de4-4983-b9d2-ac4f845119e4"},"vehicle_type_id":"4","last_reported":1758035433,"current_range_meters":16000,"station_id":"ce4bhih2rcd13ifvqfs0","pricing_plan_id":"cebpf4jnsgd1na2vs0mg"},{"bike_id":"ca5a1340-d41e-49f3-95f8-599734e0a36c","system_id":"levelo_inurba_marseille","lat":43.225336,"lon":5.348339,"is_reserved":false,"is_disabled":false,"rental_uris":{"android":"levelo://app?vid=ca5a1340-d41e-49f3-95f8-599734e0a36c","ios":"levelo://app?vid=ca5a1340-d41e-49f3-95f8-599734e0a36c"},"vehicle_type_id":"4","last_reported":1758035433,"current_range_meters":16400,"station_id":"","pricing_plan_id":"cebpf4jnsgd1na2vs0mg"},{"bike_id":"18c64b31-21a3-4fc9-abb7-deb0889a8d41","system_id":"levelo_inurba_marseille","lat":43.27619,"lon":5.36107,"is_reserved":false,"is_disabled":false,"rental_uris":{"android":"levelo://app?vid=18c64b31-21a3-4fc9-abb7-deb0889a8d41","ios":"levelo://app?vid=18c64b31-21a3-4fc9-abb7-deb0889a8d41"},"vehicle_type_id":"4","last_reported":1758035433,"current_range_meters":16400,"station_id":"ce4bgj92rcd13ifvqbe0","pricing_plan_id":"cebpf4jnsgd1na2vs0mg"},{"bike_id":"b730872c-944f-439c-915a-fe170090d0c4","system_id":"levelo_inurba_marseille","lat":43.2842,"lon":5.34989,"is_reserved":false,"is_disabled":false,"rental_uris":{"android":"levelo://app?vid=b730872c-944f-439c-915a-fe170090d0c4","ios":"levelo://app?vid=b730872c-944f-439c-915a-fe170090d0c4"},"vehicle_type_id":"4","last_reported":1758035433,"current_range_meters":16400,"station_id":"ce4bhbh2rcd13ifvqepg","pricing_plan_id":"cebpf4jnsgd1na2vs0mg"},{"bike_id":"0798f443-f59a-4f37-816c-618c40fef51d","system_id":"levelo_inurba_marseille","lat":43.32101,"lon":5.36777,"is_reserved":false,"is_disabled":false,"rental_uris":{"android":"levelo://app?vid=0798f443-f59a-4f37-816c-618c40fef51d","ios":"levelo://app?vid=0798f443-f59a-4f37-816c-618c40fef51d"},"vehicle_type_id":"4","last_reported":1758035433,"current_range_meters":16400,"station_id":"ce4bhrh2rcd13ifvqhug","pricing_plan_id":"cebpf4jnsgd1na2vs0mg"},{"bike_id":"7cc429fe-3793-4ece-aac6-62188a1d00ae","system_id":"levelo_inurba_marseille","lat":43.28271,"lon":5.35063,"is_reserved":false,"is_disabled":false,"rental_uris":{"android":"levelo://app?vid=7cc429fe-3793-4ece-aac6-62188a1d00ae","ios":"levelo://app?vid=7cc429fe-3793-4ece-aac6-62188a1d00ae"},"vehicle_type_id":"4","last_reported":1758035433,"current_range_meters":16400,"station_id":"ce4bhbp2rcd13ifvqerg","pricing_plan_id":"cebpf4jnsgd1na2vs0mg"},{"bike_id":"3584c8e9-13a3-4904-91e3-06d644403edd","system_id":"levelo_inurba_marseille","lat":43.31376,"lon":5.36707,"is_reserved":false,"is_disabled":true,"rental_uris":{"android":"levelo://app?vid=3584c8e9-13a3-4904-91e3-06d644403edd","ios":"levelo://app?vid=3584c8e9-13a3-4904-91e3-06d644403edd"},"vehicle_type_id":"4","last_reported":1758035433,"current_range_meters":16800,"station_id":"ce4bgr92rcd13ifvqc6g","pricing_plan_id":"cebpf4jnsgd1na2vs0mg"},{"bike_id":"5965639b-948a-4399-92a0-ad01f304ae93","system_id":"levelo_inurba_marseille","lat":43.30322,"lon":5.40436,"is_reserved":false,"is_disabled":false,"rental_uris":{"android":"levelo://app?vid=5965639b-948a-4399-92a0-ad01f304ae93","ios":"levelo://app?vid=5965639b-948a-4399-92a0-ad01f304ae93"},"vehicle_type_id":"4","last_reported":1758035433,"current_range_meters":16800,"station_id":"ce4bh012rcd13ifvqd10","pricing_plan_id":"cebpf4jnsgd1na2vs0mg"},{"bike_id":"64b1deee-ef02-45e9-a66a-3e5e20b8d612","system_id":"levelo_inurba_marseille","lat":43.299284,"lon":5.385203,"is_reserved":false,"is_disabled":false,"rental_uris":{"android":"levelo://app?vid=64b1deee-ef02-45e9-a66a-3e5e20b8d612","ios":"levelo://app?vid=64b1deee-ef02-45e9-a66a-3e5e20b8d612"},"vehicle_type_id":"4","last_reported":1758035433,"current_range_meters":16800,"station_id":"ce4bgop2rcd13ifvqc1g","pricing_plan_id":"cebpf4jnsgd1na2vs0mg"},{"bike_id":"6d014e09-ff96-4832-965f-0049efca989c","system_id":"levelo_inurba_marseille","lat":43.28672,"lon":5.36349,"is_reserved":false,"is_disabled":false,"rental_uris":{"android":"levelo://app?vid=6d014e09-ff96-4832-965f-0049efca989c","ios":"levelo://app?vid=6d014e09-ff96-4832-965f-0049efca989c"},"vehicle_type_id":"4","last_reported":1758035433,"current_range_meters":16400,"station_id":"ce4bhah2rcd13ifvqej0","pricing_plan_id":"cebpf4jnsgd1na2vs0mg"},{"bike_id":"fcd56ccc-f0ab-49ef-a538-8c498b5ecd49","system_id":"levelo_inurba_marseille","lat":43.22563,"lon":5.41622,"is_reserved":false,"is_disabled":false,"rental_uris":{"android":"levelo://app?vid=fcd56ccc-f0ab-49ef-a538-8c498b5ecd49","ios":"levelo://app?vid=fcd56ccc-f0ab-49ef-a538-8c498b5ecd49"},"vehicle_type_id":"4","last_reported":1758035433,"current_range_meters":16800,"station_id":"st_d2o4gvlbi1j2169b742g","pricing_plan_id":"cebpf4jnsgd1na2vs0mg"},{"bike_id":"d1788760-0706-4b90-8999-db00a9e42210","system_id":"levelo_inurba_marseille","lat":43.32659,"lon":5.41005,"is_reserved":false,"is_disabled":false,"rental_uris":{"android":"levelo://app?vid=d1788760-0706-4b90-8999-db00a9e42210","ios":"levelo://app?vid=d1788760-0706-4b90-8999-db00a9e42210"},"vehicle_type_id":"4","last_reported":1758035433,"current_range_meters":16800,"station_id":"","pricing_plan_id":"cebpf4jnsgd1na2vs0mg"},{"bike_id":"22f0687d-25d3-4094-9c4a-293a61e189a6","system_id":"levelo_inurba_marseille","lat":43.24065,"lon":5.40679,"is_reserved":false,"is_disabled":false,"rental_uris":{"android":"levelo://app?vid=22f0687d-25d3-4094-9c4a-293a61e189a6","ios":"levelo://app?vid=22f0687d-25d3-4094-9c4a-293a61e189a6"},"vehicle_type_id":"4","last_reported":1758035433,"current_range_meters":16800,"station_id":"","pricing_plan_id":"cebpf4jnsgd1na2vs0mg"},{"bike_id":"896fff93-5ca9-48ec-a949-934d5a5b376b","system_id":"levelo_inurba_marseille","lat":43.28425,"lon":5.34982,"is_reserved":false,"is_disabled":false,"rental_uris":{"android":"levelo://app?vid=896fff93-5ca9-48ec-a949-934d5a5b376b","ios":"levelo://app?vid=896fff93-5ca9-48ec-a949-934d5a5b376b"},"vehicle_type_id":"4","last_reported":1758035433,"current_range_meters":16800,"station_id":"ce4bhbh2rcd13ifvqepg","pricing_plan_id":"cebpf4jnsgd1na2vs0mg"},{"bike_id":"d66079b8-e1e6-49f6-8513-918b3ce83cf8","system_id":"levelo_inurba_marseille","lat":43.26264,"lon":5.40419,"is_reserved":false,"is_disabled":false,"rental_uris":{"android":"levelo://app?vid=d66079b8-e1e6-49f6-8513-918b3ce83cf8","ios":"levelo://app?vid=d66079b8-e1e6-49f6-8513-918b3ce83cf8"},"vehicle_type_id":"4","last_reported":1758035433,"current_range_meters":16800,"station_id":"ce4bhmh2rcd13ifvqgmg","pricing_plan_id":"cebpf4jnsgd1na2vs0mg"},{"bike_id":"6f2eb6ab-72c7-4c22-85bb-07107b425ef2","system_id":"levelo_inurba_marseille","lat":43.28427,"lon":5.34982,"is_reserved":false,"is_disabled":false,"rental_uris":{"android":"levelo://app?vid=6f2eb6ab-72c7-4c22-85bb-07107b425ef2","ios":"levelo://app?vid=6f2eb6ab-72c7-4c22-85bb-07107b425ef2"},"vehicle_type_id":"4","last_reported":1758035433,"current_range_meters":17200,"station_id":"ce4bhbh2rcd13ifvqepg","pricing_plan_id":"cebpf4jnsgd1na2vs0mg"},{"bike_id":"88a4bc06-6261-4921-890d-d133aa4606a8","system_id":"levelo_inurba_marseille","lat":43.337444,"lon":5.374475,"is_reserved":false,"is_disabled":true,"rental_uris":{"android":"levelo://app?vid=88a4bc06-6261-4921-890d-d133aa4606a8","ios":"levelo://app?vid=88a4bc06-6261-4921-890d-d133aa4606a8"},"vehicle_type_id":"4","last_reported":1758035433,"current_range_meters":17200,"station_id":"","pricing_plan_id":"cebpf4jnsgd1na2vs0mg"},{"bike_id":"2a5e641a-ca90-4f3a-9350-63bb94d9cebf","system_id":"levelo_inurba_marseille","lat":43.25558,"lon":5.39179,"is_reserved":false,"is_disabled":false,"rental_uris":{"android":"levelo://app?vid=2a5e641a-ca90-4f3a-9350-63bb94d9cebf","ios":"levelo://app?vid=2a5e641a-ca90-4f3a-9350-63bb94d9cebf"},"vehicle_type_id":"4","last_reported":1758035433,"current_range_meters":17200,"station_id":"","pricing_plan_id":"cebpf4jnsgd1na2vs0mg"},{"bike_id":"775af279-8ac9-4585-9121-809be9b13265","system_id":"levelo_inurba_marseille","lat":43.3377,"lon":5.37432,"is_reserved":false,"is_disabled":false,"rental_uris":{"android":"levelo://app?vid=775af279-8ac9-4585-9121-809be9b13265","ios":"levelo://app?vid=775af279-8ac9-4585-9121-809be9b13265"},"vehicle_type_id":"4","last_reported":1758035433,"current_range_meters":17200,"station_id":"","pricing_plan_id":"cebpf4jnsgd1na2vs0mg"},{"bike_id":"1c04d051-a9a5-4433-9378-c2574d905d43","system_id":"levelo_inurba_marseille","lat":43.29575,"lon":5.36737,"is_reserved":false,"is_disabled":false,"rental_uris":{"android":"levelo://app?vid=1c04d051-a9a5-4433-9378-c2574d905d43","ios":"levelo://app?vid=1c04d051-a9a5-4433-9378-c2574d905d43"},"vehicle_type_id":"4","last_reported":1758035433,"current_range_meters":17200,"station_id":"ce4bgph2rcd13ifvqc2g","pricing_plan_id":"cebpf4jnsgd1na2vs0mg"},{"bike_id":"06edeaa6-e973-402e-aae9-259e12a4967e","system_id":"levelo_inurba_marseille","lat":43.29532,"lon":5.38539,"is_reserved":false,"is_disabled":false,"rental_uris":{"android":"levelo://app?vid=06edeaa6-e973-402e-aae9-259e12a4967e","ios":"levelo://app?vid=06edeaa6-e973-402e-aae9-259e12a4967e"},"vehicle_type_id":"4","last_reported":1758035433,"current_range_meters":17200,"station_id":"ce4bgih2rcd13ifvqba0","pricing_plan_id":"cebpf4jnsgd1na2vs0mg"},{"bike_id":"0ac4ac0c-0790-4692-bde9-1f6ff3ff8c22","system_id":"levelo_inurba_marseille","lat":43.27569,"lon":5.384,"is_reserved":false,"is_disabled":false,"rental_uris":{"android":"levelo://app?vid=0ac4ac0c-0790-4692-bde9-1f6ff3ff8c22","ios":"levelo://app?vid=0ac4ac0c-0790-4692-bde9-1f6ff3ff8c22"},"vehicle_type_id":"4","last_reported":1758035433,"current_range_meters":17200,"station_id":"ce4bhh92rcd13ifvqfi0","pricing_plan_id":"cebpf4jnsgd1na2vs0mg"},{"bike_id":"eb6cbeef-bc92-4528-a915-7b01f98754fe","system_id":"levelo_inurba_marseille","lat":43.30294,"lon":5.37414,"is_reserved":false,"is_disabled":false,"rental_uris":{"android":"levelo://app?vid=eb6cbeef-bc92-4528-a915-7b01f98754fe","ios":"levelo://app?vid=eb6cbeef-bc92-4528-a915-7b01f98754fe"},"vehicle_type_id":"4","last_reported":1758035433,"current_range_meters":17200,"station_id":"","pricing_plan_id":"cebpf4jnsgd1na2vs0mg"},{"bike_id":"b2b3f118-f930-4549-8d49-265a30e53939","system_id":"levelo_inurba_marseille","lat":43.24158,"lon":5.36413,"is_reserved":false,"is_disabled":false,"rental_uris":{"android":"levelo://app?vid=b2b3f118-f930-4549-8d49-265a30e53939","ios":"levelo://app?vid=b2b3f118-f930-4549-8d49-265a30e53939"},"vehicle_type_id":"4","last_reported":1758035433,"current_range_meters":17200,"station_id":"cpo36qri1sfpv3e86is0","pricing_plan_id":"cebpf4jnsgd1na2vs0mg"},{"bike_id":"66c1f0b2-cb24-44d8-96bf-7f8524b4a945","system_id":"levelo_inurba_marseille","lat":43.29002,"lon":5.35607,"is_reserved":false,"is_disabled":false,"rental_uris":{"android":"levelo://app?vid=66c1f0b2-cb24-44d8-96bf-7f8524b4a945","ios":"levelo://app?vid=66c1f0b2-cb24-44d8-96bf-7f8524b4a945"},"vehicle_type_id":"4","last_reported":1758035433,"current_range_meters":17200,"station_id":"ce4bhb92rcd13ifvqen0","pricing_plan_id":"cebpf4jnsgd1na2vs0mg"},{"bike_id":"2c75f324-0a3d-41d8-a1e8-4f1291da99f7","system_id":"levelo_inurba_marseille","lat":43.316896,"lon":5.377353,"is_reserved":false,"is_disabled":false,"rental_uris":{"android":"levelo://app?vid=2c75f324-0a3d-41d8-a1e8-4f1291da99f7","ios":"levelo://app?vid=2c75f324-0a3d-41d8-a1e8-4f1291da99f7"},"vehicle_type_id":"4","last_reported":1758035433,"current_range_meters":17600,"station_id":"","pricing_plan_id":"cebpf4jnsgd1na2vs0mg"},{"bike_id":"4d428ea9-1dcb-4a75-b622-5cb7b20a1dad","system_id":"levelo_inurba_marseille","lat":43.32359,"lon":5.36751,"is_reserved":false,"is_disabled":false,"rental_uris":{"android":"levelo://app?vid=4d428ea9-1dcb-4a75-b622-5cb7b20a1dad","ios":"levelo://app?vid=4d428ea9-1dcb-4a75-b622-5cb7b20a1dad"},"vehicle_type_id":"4","last_reported":1758035433,"current_range_meters":17600,"station_id":"ce4bhsh2rcd13ifvqi2g","pricing_plan_id":"cebpf4jnsgd1na2vs0mg"},{"bike_id":"b0fe429e-5492-4d45-811b-bca8e631a750","system_id":"levelo_inurba_marseille","lat":43.28429,"lon":5.3752,"is_reserved":false,"is_disabled":false,"rental_uris":{"android":"levelo://app?vid=b0fe429e-5492-4d45-811b-bca8e631a750","ios":"levelo://app?vid=b0fe429e-5492-4d45-811b-bca8e631a750"},"vehicle_type_id":"4","last_reported":1758035433,"current_range_meters":17600,"station_id":"ce4bh412rcd13ifvqds0","pricing_plan_id":"cebpf4jnsgd1na2vs0mg"},{"bike_id":"5701fe9c-3e98-4b9f-a910-5eb395d4e5d3","system_id":"levelo_inurba_marseille","lat":43.305389,"lon":5.384223,"is_reserved":false,"is_disabled":false,"rental_uris":{"android":"levelo://app?vid=5701fe9c-3e98-4b9f-a910-5eb395d4e5d3","ios":"levelo://app?vid=5701fe9c-3e98-4b9f-a910-5eb395d4e5d3"},"vehicle_type_id":"4","last_reported":1758035433,"current_range_meters":18000,"station_id":"","pricing_plan_id":"cebpf4jnsgd1na2vs0mg"},{"bike_id":"37a38595-4387-4d7c-badc-0f340b9a3707","system_id":"levelo_inurba_marseille","lat":43.27374,"lon":5.36251,"is_reserved":false,"is_disabled":false,"rental_uris":{"android":"levelo://app?vid=37a38595-4387-4d7c-badc-0f340b9a3707","ios":"levelo://app?vid=37a38595-4387-4d7c-badc-0f340b9a3707"},"vehicle_type_id":"4","last_reported":1758035433,"current_range_meters":17600,"station_id":"ce4bhbh2rcd13ifvqeo0","pricing_plan_id":"cebpf4jnsgd1na2vs0mg"},{"bike_id":"dd6d23ab-cdca-431a-904b-2a2daad8e0b6","system_id":"levelo_inurba_marseille","lat":43.22926,"lon":5.35368,"is_reserved":false,"is_disabled":false,"rental_uris":{"android":"levelo://app?vid=dd6d23ab-cdca-431a-904b-2a2daad8e0b6","ios":"levelo://app?vid=dd6d23ab-cdca-431a-904b-2a2daad8e0b6"},"vehicle_type_id":"4","last_reported":1758035433,"current_range_meters":17600,"station_id":"cpo3532slgdg3j2ikp40","pricing_plan_id":"cebpf4jnsgd1na2vs0mg"},{"bike_id":"7b39d8de-96fc-4860-8820-342d86df58f5","system_id":"levelo_inurba_marseille","lat":43.24169,"lon":5.36396,"is_reserved":false,"is_disabled":false,"rental_uris":{"android":"levelo://app?vid=7b39d8de-96fc-4860-8820-342d86df58f5","ios":"levelo://app?vid=7b39d8de-96fc-4860-8820-342d86df58f5"},"vehicle_type_id":"4","last_reported":1758035433,"current_range_meters":17600,"station_id":"cpo36qri1sfpv3e86is0","pricing_plan_id":"cebpf4jnsgd1na2vs0mg"},{"bike_id":"183fc33e-e0b4-48f9-a86f-7835ccebe88e","system_id":"levelo_inurba_marseille","lat":43.2984,"lon":5.36267,"is_reserved":false,"is_disabled":false,"rental_uris":{"android":"levelo://app?vid=183fc33e-e0b4-48f9-a86f-7835ccebe88e","ios":"levelo://app?vid=183fc33e-e0b4-48f9-a86f-7835ccebe88e"},"vehicle_type_id":"4","last_reported":1758035433,"current_range_meters":18000,"station_id":"ce4bgpp2rcd13ifvqc3g","pricing_plan_id":"cebpf4jnsgd1na2vs0mg"},{"bike_id":"c4706891-6ce1-4440-91ff-a3ecf2ff007e","system_id":"levelo_inurba_marseille","lat":43.24382,"lon":5.37479,"is_reserved":false,"is_disabled":false,"rental_uris":{"android":"levelo://app?vid=c4706891-6ce1-4440-91ff-a3ecf2ff007e","ios":"levelo://app?vid=c4706891-6ce1-4440-91ff-a3ecf2ff007e"},"vehicle_type_id":"4","last_reported":1758035433,"current_range_meters":18000,"station_id":"","pricing_plan_id":"cebpf4jnsgd1na2vs0mg"},{"bike_id":"26d32f40-abd9-41e8-ad33-e16c33cbf788","system_id":"levelo_inurba_marseille","lat":43.29975,"lon":5.37729,"is_reserved":false,"is_disabled":false,"rental_uris":{"android":"levelo://app?vid=26d32f40-abd9-41e8-ad33-e16c33cbf788","ios":"levelo://app?vid=26d32f40-abd9-41e8-ad33-e16c33cbf788"},"vehicle_type_id":"4","last_reported":1758035433,"current_range_meters":18000,"station_id":"","pricing_plan_id":"cebpf4jnsgd1na2vs0mg"},{"bike_id":"a3e883cb-0f64-4790-80df-58969f388f90","system_id":"levelo_inurba_marseille","lat":43.27682,"lon":5.38872,"is_reserved":false,"is_disabled":false,"rental_uris":{"android":"levelo://app?vid=a3e883cb-0f64-4790-80df-58969f388f90","ios":"levelo://app?vid=a3e883cb-0f64-4790-80df-58969f388f90"},"vehicle_type_id":"4","last_reported":1758035433,"current_range_meters":18000,"station_id":"ce4bhi12rcd13ifvqfo0","pricing_plan_id":"cebpf4jnsgd1na2vs0mg"},{"bike_id":"be7e7282-c265-4a9e-9aca-6c9213c3a32c","system_id":"levelo_inurba_marseille","lat":43.292722,"lon":5.384397,"is_reserved":false,"is_disabled":false,"rental_uris":{"android":"levelo://app?vid=be7e7282-c265-4a9e-9aca-6c9213c3a32c","ios":"levelo://app?vid=be7e7282-c265-4a9e-9aca-6c9213c3a32c"},"vehicle_type_id":"4","last_reported":1758035433,"current_range_meters":18000,"station_id":"ce4bh692rcd13ifvqea0","pricing_plan_id":"cebpf4jnsgd1na2vs0mg"},{"bike_id":"c2a02b0c-0400-47d0-814e-3740047e19dc","system_id":"levelo_inurba_marseille","lat":43.22564,"lon":5.4162,"is_reserved":false,"is_disabled":false,"rental_uris":{"android":"levelo://app?vid=c2a02b0c-0400-47d0-814e-3740047e19dc","ios":"levelo://app?vid=c2a02b0c-0400-47d0-814e-3740047e19dc"},"vehicle_type_id":"4","last_reported":1758035433,"current_range_meters":18000,"station_id":"st_d2o4gvlbi1j2169b742g","pricing_plan_id":"cebpf4jnsgd1na2vs0mg"},{"bike_id":"85f948ed-1682-45f7-a3b6-c04b7f066b68","system_id":"levelo_inurba_marseille","lat":43.21192,"lon":5.3507,"is_reserved":false,"is_disabled":false,"rental_uris":{"android":"levelo://app?vid=85f948ed-1682-45f7-a3b6-c04b7f066b68","ios":"levelo://app?vid=85f948ed-1682-45f7-a3b6-c04b7f066b68"},"vehicle_type_id":"4","last_reported":1758035433,"current_range_meters":18000,"station_id":"st_cvj6sg6p6f1abm77japg","pricing_plan_id":"cebpf4jnsgd1na2vs0mg"},{"bike_id":"797d594a-91b3-4375-ad0d-bc637135bfd1","system_id":"levelo_inurba_marseille","lat":43.31352,"lon":5.37113,"is_reserved":false,"is_disabled":false,"rental_uris":{"android":"levelo://app?vid=797d594a-91b3-4375-ad0d-bc637135bfd1","ios":"levelo://app?vid=797d594a-91b3-4375-ad0d-bc637135bfd1"},"vehicle_type_id":"4","last_reported":1758035433,"current_range_meters":18000,"station_id":"","pricing_plan_id":"cebpf4jnsgd1na2vs0mg"},{"bike_id":"1acc850e-c8c3-4a8d-87b1-5cf904f342a3","system_id":"levelo_inurba_marseille","lat":43.30601,"lon":5.37224,"is_reserved":false,"is_disabled":false,"rental_uris":{"android":"levelo://app?vid=1acc850e-c8c3-4a8d-87b1-5cf904f342a3","ios":"levelo://app?vid=1acc850e-c8c3-4a8d-87b1-5cf904f342a3"},"vehicle_type_id":"4","last_reported":1758035433,"current_range_meters":18800,"station_id":"ce4bgqh2rcd13ifvqc4g","pricing_plan_id":"cebpf4jnsgd1na2vs0mg"},{"bike_id":"677645c4-53e3-475b-b807-f8f7193fc97f","system_id":"levelo_inurba_marseille","lat":43.29617,"lon":5.37707,"is_reserved":false,"is_disabled":true,"rental_uris":{"android":"levelo://app?vid=677645c4-53e3-475b-b807-f8f7193fc97f","ios":"levelo://app?vid=677645c4-53e3-475b-b807-f8f7193fc97f"},"vehicle_type_id":"4","last_reported":1758035433,"current_range_meters":18800,"station_id":"ce4bgi92rcd13ifvqb90","pricing_plan_id":"cebpf4jnsgd1na2vs0mg"},{"bike_id":"86a0b16b-382f-4e53-91f7-895583e81466","system_id":"levelo_inurba_marseille","lat":43.27947,"lon":5.41039,"is_reserved":false,"is_disabled":false,"rental_uris":{"android":"levelo://app?vid=86a0b16b-382f-4e53-91f7-895583e81466","ios":"levelo://app?vid=86a0b16b-382f-4e53-91f7-895583e81466"},"vehicle_type_id":"4","last_reported":1758035433,"current_range_meters":18800,"station_id":"ce4bhnp2rcd13ifvqh0g","pricing_plan_id":"cebpf4jnsgd1na2vs0mg"},{"bike_id":"6b8a951d-1ca5-40c5-acf2-fde74134ed5b","system_id":"levelo_inurba_marseille","lat":43.31483,"lon":5.37277,"is_reserved":false,"is_disabled":false,"rental_uris":{"android":"levelo://app?vid=6b8a951d-1ca5-40c5-acf2-fde74134ed5b","ios":"levelo://app?vid=6b8a951d-1ca5-40c5-acf2-fde74134ed5b"},"vehicle_type_id":"4","last_reported":1758035433,"current_range_meters":18800,"station_id":"ce4bgt12rcd13ifvqcd0","pricing_plan_id":"cebpf4jnsgd1na2vs0mg"},{"bike_id":"b2b7cd41-a0a2-47e5-bc4e-4bbe63f4cc0d","system_id":"levelo_inurba_marseille","lat":43.29907,"lon":5.39745,"is_reserved":false,"is_disabled":false,"rental_uris":{"android":"levelo://app?vid=b2b7cd41-a0a2-47e5-bc4e-4bbe63f4cc0d","ios":"levelo://app?vid=b2b7cd41-a0a2-47e5-bc4e-4bbe63f4cc0d"},"vehicle_type_id":"4","last_reported":1758035433,"current_range_meters":18800,"station_id":"ce4bh0h2rcd13ifvqd50","pricing_plan_id":"cebpf4jnsgd1na2vs0mg"},{"bike_id":"35c7c4cb-1cc2-4249-a3fb-e202499895fd","system_id":"levelo_inurba_marseille","lat":43.26193,"lon":5.37446,"is_reserved":false,"is_disabled":false,"rental_uris":{"android":"levelo://app?vid=35c7c4cb-1cc2-4249-a3fb-e202499895fd","ios":"levelo://app?vid=35c7c4cb-1cc2-4249-a3fb-e202499895fd"},"vehicle_type_id":"4","last_reported":1758035433,"current_range_meters":18800,"station_id":"ce4bhgp2rcd13ifvqfc0","pricing_plan_id":"cebpf4jnsgd1na2vs0mg"},{"bike_id":"42933534-3ec0-436d-be91-65af08cc5c0c","system_id":"levelo_inurba_marseille","lat":43.28614,"lon":5.35082,"is_reserved":false,"is_disabled":false,"rental_uris":{"android":"levelo://app?vid=42933534-3ec0-436d-be91-65af08cc5c0c","ios":"levelo://app?vid=42933534-3ec0-436d-be91-65af08cc5c0c"},"vehicle_type_id":"4","last_reported":1758035433,"current_range_meters":18800,"station_id":"ce4bhch2rcd13ifvqeug","pricing_plan_id":"cebpf4jnsgd1na2vs0mg"},{"bike_id":"324bce3f-0e0d-4488-8f2e-0a3bb2ede445","system_id":"levelo_inurba_marseille","lat":43.23185,"lon":5.39983,"is_reserved":false,"is_disabled":false,"rental_uris":{"android":"levelo://app?vid=324bce3f-0e0d-4488-8f2e-0a3bb2ede445","ios":"levelo://app?vid=324bce3f-0e0d-4488-8f2e-0a3bb2ede445"},"vehicle_type_id":"4","last_reported":1758035433,"current_range_meters":19200,"station_id":"ce4bhn12rcd13ifvqgqg","pricing_plan_id":"cebpf4jnsgd1na2vs0mg"},{"bike_id":"141fa817-86eb-47c4-9126-4046f87f4222","system_id":"levelo_inurba_marseille","lat":43.31336,"lon":5.37911,"is_reserved":false,"is_disabled":false,"rental_uris":{"android":"levelo://app?vid=141fa817-86eb-47c4-9126-4046f87f4222","ios":"levelo://app?vid=141fa817-86eb-47c4-9126-4046f87f4222"},"vehicle_type_id":"4","last_reported":1758035433,"current_range_meters":19200,"station_id":"","pricing_plan_id":"cebpf4jnsgd1na2vs0mg"},{"bike_id":"b72f1b63-f2de-48d5-87cc-c8a7107dbc5b","system_id":"levelo_inurba_marseille","lat":43.29261,"lon":5.38429,"is_reserved":false,"is_disabled":false,"rental_uris":{"android":"levelo://app?vid=b72f1b63-f2de-48d5-87cc-c8a7107dbc5b","ios":"levelo://app?vid=b72f1b63-f2de-48d5-87cc-c8a7107dbc5b"},"vehicle_type_id":"4","last_reported":1758035433,"current_range_meters":19200,"station_id":"ce4bh692rcd13ifvqea0","pricing_plan_id":"cebpf4jnsgd1na2vs0mg"},{"bike_id":"49e7f881-1f16-44f4-9040-d324d46fa397","system_id":"levelo_inurba_marseille","lat":43.32088,"lon":5.36766,"is_reserved":false,"is_disabled":false,"rental_uris":{"android":"levelo://app?vid=49e7f881-1f16-44f4-9040-d324d46fa397","ios":"levelo://app?vid=49e7f881-1f16-44f4-9040-d324d46fa397"},"vehicle_type_id":"4","last_reported":1758035433,"current_range_meters":19200,"station_id":"ce4bhrh2rcd13ifvqhug","pricing_plan_id":"cebpf4jnsgd1na2vs0mg"},{"bike_id":"12ed275c-70fb-427c-8a23-83bbe71ff8b9","system_id":"levelo_inurba_marseille","lat":43.24623,"lon":5.43151,"is_reserved":false,"is_disabled":false,"rental_uris":{"android":"levelo://app?vid=12ed275c-70fb-427c-8a23-83bbe71ff8b9","ios":"levelo://app?vid=12ed275c-70fb-427c-8a23-83bbe71ff8b9"},"vehicle_type_id":"4","last_reported":1758035433,"current_range_meters":19200,"station_id":"st_d2m6c4gdas8pm72e190g","pricing_plan_id":"cebpf4jnsgd1na2vs0mg"},{"bike_id":"7c53e1e0-9efc-4c15-9c29-668d4dac4c59","system_id":"levelo_inurba_marseille","lat":43.22559,"lon":5.34823,"is_reserved":false,"is_disabled":false,"rental_uris":{"android":"levelo://app?vid=7c53e1e0-9efc-4c15-9c29-668d4dac4c59","ios":"levelo://app?vid=7c53e1e0-9efc-4c15-9c29-668d4dac4c59"},"vehicle_type_id":"4","last_reported":1758035433,"current_range_meters":19200,"station_id":"","pricing_plan_id":"cebpf4jnsgd1na2vs0mg"},{"bike_id":"ee5b94c2-de55-4dd7-bf65-6d8402674d28","system_id":"levelo_inurba_marseille","lat":43.26938,"lon":5.40255,"is_reserved":false,"is_disabled":false,"rental_uris":{"android":"levelo://app?vid=ee5b94c2-de55-4dd7-bf65-6d8402674d28","ios":"levelo://app?vid=ee5b94c2-de55-4dd7-bf65-6d8402674d28"},"vehicle_type_id":"4","last_reported":1758035433,"current_range_meters":19200,"station_id":"cjm6bp8fraef2m0cb0m0","pricing_plan_id":"cebpf4jnsgd1na2vs0mg"},{"bike_id":"f7c103d0-ba5f-4a70-8c50-f341e562294a","system_id":"levelo_inurba_marseille","lat":43.29618,"lon":5.37918,"is_reserved":false,"is_disabled":false,"rental_uris":{"android":"levelo://app?vid=f7c103d0-ba5f-4a70-8c50-f341e562294a","ios":"levelo://app?vid=f7c103d0-ba5f-4a70-8c50-f341e562294a"},"vehicle_type_id":"4","last_reported":1758035433,"current_range_meters":19200,"station_id":"","pricing_plan_id":"cebpf4jnsgd1na2vs0mg"},{"bike_id":"176eac5d-fbdc-453f-a22e-eb7bf985c6c4","system_id":"levelo_inurba_marseille","lat":43.29037,"lon":5.3776,"is_reserved":false,"is_disabled":false,"rental_uris":{"android":"levelo://app?vid=176eac5d-fbdc-453f-a22e-eb7bf985c6c4","ios":"levelo://app?vid=176eac5d-fbdc-453f-a22e-eb7bf985c6c4"},"vehicle_type_id":"4","last_reported":1758035433,"current_range_meters":19600,"station_id":"","pricing_plan_id":"cebpf4jnsgd1na2vs0mg"},{"bike_id":"e8bbc289-f84b-4b0d-b462-4d1fe19c1d0b","system_id":"levelo_inurba_marseille","lat":43.28226,"lon":5.39074,"is_reserved":false,"is_disabled":false,"rental_uris":{"android":"levelo://app?vid=e8bbc289-f84b-4b0d-b462-4d1fe19c1d0b","ios":"levelo://app?vid=e8bbc289-f84b-4b0d-b462-4d1fe19c1d0b"},"vehicle_type_id":"4","last_reported":1758035433,"current_range_meters":19600,"station_id":"ce4bhn92rcd13ifvqgsg","pricing_plan_id":"cebpf4jnsgd1na2vs0mg"},{"bike_id":"842080e1-bd3f-44a9-a988-1af335fbbd2b","system_id":"levelo_inurba_marseille","lat":43.32371,"lon":5.38874,"is_reserved":false,"is_disabled":false,"rental_uris":{"android":"levelo://app?vid=842080e1-bd3f-44a9-a988-1af335fbbd2b","ios":"levelo://app?vid=842080e1-bd3f-44a9-a988-1af335fbbd2b"},"vehicle_type_id":"4","last_reported":1758035433,"current_range_meters":19600,"station_id":"ce4bhqp2rcd13ifvqhog","pricing_plan_id":"cebpf4jnsgd1na2vs0mg"},{"bike_id":"55dfb17a-dc13-4669-82ac-2c676d600c2d","system_id":"levelo_inurba_marseille","lat":43.31351,"lon":5.37936,"is_reserved":false,"is_disabled":false,"rental_uris":{"android":"levelo://app?vid=55dfb17a-dc13-4669-82ac-2c676d600c2d","ios":"levelo://app?vid=55dfb17a-dc13-4669-82ac-2c676d600c2d"},"vehicle_type_id":"4","last_reported":1758035433,"current_range_meters":19600,"station_id":"","pricing_plan_id":"cebpf4jnsgd1na2vs0mg"},