{"last_updated":1685307937,"ttl":30,"version":"2.2","data":{"bikes":[{"bike_id":"1ddad856-9f35-4ff7-b51f-4db2c0bddc93","system_id":"levelo_inurba_marseille","lat":43.312239,"lon":5.368562,"is_reserved":false,"is_disabled":false,"rental_uris":{"android":"levelo://app?vid=1ddad856-9f35-4ff7-b51f-4db2c0bddc93","ios":"levelo://app?vid=1ddad856-9f35-4ff7-b51f-4db2c0bddc93"},"vehicle_type_id":"4","last_reported":1685307938,"current_range_meters":23200,"station_id":"ce4bgl92rcd13ifvqbq0","pricing_plan_id":"free"},{"bike_id":"ce6e699a-8731-410c-8cc1-d30273503163","system_id":"levelo_inurba_marseille","lat":43.309076,"lon":5.368465,"is_reserved":false,"is_disabled":false,"rental_uris":{"android":"levelo://app?vid=ce6e699a-8731-410c-8cc1-d30273503163","ios":"levelo://app?vid=ce6e699a-8731-410c-8cc1-d30273503163"},"vehicle_type_id":"4","last_reported":1685307938,"current_range_meters":20400,"station_id":"ce4bgn92rcd13ifvqbvg","pricing_plan_id":"free"},{"bike_id":"3f584a0c-a8f5-4160-a580-20eead6f45f9","system_id":"levelo_inurba_marseille","lat":43.308982,"lon":5.371991,"is_reserved":false,"is_disabled":false,"rental_uris":{"android":"levelo://app?vid=3f584a0c-a8f5-4160-a580-20eead6f45f9","ios":"levelo://app?vid=3f584a0c-a8f5-4160-a580-20eead6f45f9"},"vehicle_type_id":"4","last_reported":1685307938,"current_range_meters":31200,"station_id":"ce4bguh2rcd13ifvqckg","pricing_plan_id":"free"},{"bike_id":"09ff56ca-723c-4b20-af2f-491b6f1b8a24","system_id":"levelo_inurba_marseille","lat":43.308614,"lon":5.372098,"is_reserved":false,"is_disabled":false,"rental_uris":{"android":"levelo://app?vid=09ff56ca-723c-4b20-af2f-491b6f1b8a24","ios":"levelo://app?vid=09ff56ca-723c-4b20-af2f-491b6f1b8a24"},"vehicle_type_id":"4","last_reported":1685307938,"current_range_meters":30000,"station_id":"ce4bguh2rcd13ifvqckg","pricing_plan_id":"free"},{"bike_id":"79983c4c-86a4-49ae-b75d-950115104115","system_id":"levelo_inurba_marseille","lat":43.311125,"lon":5.377624,"is_reserved":false,"is_disabled":false,"rental_uris":{"android":"levelo://app?vid=79983c4c-86a4-49ae-b75d-950115104115","ios":"levelo://app?vid=79983c4c-86a4-49ae-b75d-950115104115"},"vehicle_type_id":"4","last_reported":1685307938,"current_range_meters":9200,"station_id":"ce4bgt92rcd13ifvqcg0","pricing_plan_id":"free"},{"bike_id":"3c51afbe-6ccc-439e-ba50-0acb9a18d59b","system_id":"levelo_inurba_marseille","lat":43.317075,"lon":5.377367,"is_reserved":false,"is_disabled":false,"rental_uris":{"android":"levelo://app?vid=3c51afbe-6ccc-439e-ba50-0acb9a18d59b","ios":"levelo://app?vid=3c51afbe-6ccc-439e-ba50-0acb9a18d59b"},"vehicle_type_id":"4","last_reported":1685307938,"current_range_meters":3600,"station_id":"ce4bgth2rcd13ifvqch0","pricing_plan_id":"free"},{"bike_id":"e3ae5468-41ec-4173-b8ac-313dd3d366d9","system_id":"levelo_inurba_marseille","lat":43.30316,"lon":5.36884,"is_reserved":false,"is_disabled":false,"rental_uris":{"android":"levelo://app?vid=e3ae5468-41ec-4173-b8ac-313dd3d366d9","ios":"levelo://app?vid=e3ae5468-41ec-4173-b8ac-313dd3d366d9"},"vehicle_type_id":"4","last_reported":1685307938,"current_range_meters":31200,"station_id":"ce4bgqh2rcd13ifvqc5g","pricing_plan_id":"free"},{"bike_id":"c62862f2-d5d7-4a7f-a0d6-0782f5642e89","system_id":"levelo_inurba_marseille","lat":43.303046,"lon":5.368981,"is_reserved":false,"is_disabled":false,"rental_uris":{"android":"levelo://app?vid=c62862f2-d5d7-4a7f-a0d6-0782f5642e89","ios":"levelo://app?vid=c62862f2-d5d7-4a7f-a0d6-0782f5642e89"},"vehicle_type_id":"4","last_reported":1685307938,"current_range_meters":31200,"station_id":"ce4bgqh2rcd13ifvqc5g","pricing_plan_id":"free"},{"bike_id":"23a5fe81-472e-4e45-be0f-46d04b35895f","system_id":"levelo_inurba_marseille","lat":43.303069,"lon":5.369026,"is_reserved":false,"is_disabled":false,"rental_uris":{"android":"levelo://app?vid=23a5fe81-472e-4e45-be0f-46d04b35895f","ios":"levelo://app?vid=23a5fe81-472e-4e45-be0f-46d04b35895f"},"vehicle_type_id":"4","last_reported":1685307938,"current_range_meters":29600,"station_id":"ce4bgqh2rcd13ifvqc5g","pricing_plan_id":"free"},{"bike_id":"182af4ff-432a-4177-988f-991fbf13f17a","system_id":"levelo_inurba_marseille","lat":43.304606,"lon":5.379026,"is_reserved":false,"is_disabled":false,"rental_uris":{"android":"levelo://app?vid=182af4ff-432a-4177-988f-991fbf13f17a","ios":"levelo://app?vid=182af4ff-432a-4177-988f-991fbf13f17a"},"vehicle_type_id":"4","last_reported":1685307938,"current_range_meters":400,"station_id":"ce4bgup2rcd13ifvqcn0","pricing_plan_id":"free"},{"bike_id":"1431ceea-e6b2-4aee-8e38-ba96e4e7d2d2","system_id":"levelo_inurba_marseille","lat":43.313571,"lon":5.384829,"is_reserved":false,"is_disabled":false,"rental_uris":{"android":"levelo://app?vid=1431ceea-e6b2-4aee-8e38-ba96e4e7d2d2","ios":"levelo://app?vid=1431ceea-e6b2-4aee-8e38-ba96e4e7d2d2"},"vehicle_type_id":"4","last_reported":1685307938,"current_range_meters":13200,"station_id":"ce4bgt92rcd13ifvqcf0","pricing_plan_id":"free"},{"bike_id":"4d623deb-9e58-46e6-bf9f-0f69514cb4cf","system_id":"levelo_inurba_marseille","lat":43.305364,"lon":5.384119,"is_reserved":false,"is_disabled":false,"rental_uris":{"android":"levelo://app?vid=4d623deb-9e58-46e6-bf9f-0f69514cb4cf","ios":"levelo://app?vid=4d623deb-9e58-46e6-bf9f-0f69514cb4cf"},"vehicle_type_id":"4","last_reported":1685307938,"current_range_meters":4400,"station_id":"ce4bgg92rcd13ifvqb30","pricing_plan_id":"free"},{"bike_id":"1b064916-ce14-4dd7-8822-0096c3687352","system_id":"levelo_inurba_marseille","lat":43.31184,"lon":5.38712,"is_reserved":false,"is_disabled":false,"rental_uris":{"android":"levelo://app?vid=1b064916-ce14-4dd7-8822-0096c3687352","ios":"levelo://app?vid=1b064916-ce14-4dd7-8822-0096c3687352"},"vehicle_type_id":"4","last_reported":1685307938,"current_range_meters":2800,"station_id":"ce4bgv12rcd13ifvqcp0","pricing_plan_id":"free"},{"bike_id":"28ccaf63-2c20-4f48-af81-c1890d5e1e7e","system_id":"levelo_inurba_marseille","lat":43.31177,"lon":5.38718,"is_reserved":false,"is_disabled":false,"rental_uris":{"android":"levelo://app?vid=28ccaf63-2c20-4f48-af81-c1890d5e1e7e","ios":"levelo://app?vid=28ccaf63-2c20-4f48-af81-c1890d5e1e7e"},"vehicle_type_id":"4","last_reported":1685307938,"current_range_meters":26400,"station_id":"ce4bgv12rcd13ifvqcp0","pricing_plan_id":"free"},{"bike_id":"4812c69f-302d-4ea2-9af7-4b5e469750c8","system_id":"levelo_inurba_marseille","lat":43.311722,"lon":5.387247,"is_reserved":false,"is_disabled":false,"rental_uris":{"android":"levelo://app?vid=4812c69f-302d-4ea2-9af7-4b5e469750c8","ios":"levelo://app?vid=4812c69f-302d-4ea2-9af7-4b5e469750c8"},"vehicle_type_id":"4","last_reported":1685307938,"current_range_meters":3200,"station_id":"ce4bgv12rcd13ifvqcp0","pricing_plan_id":"free"},{"bike_id":"c125d695-a76c-428d-9101-a9ed0c6a413d","system_id":"levelo_inurba_marseille","lat":43.311722,"lon":5.387247,"is_reserved":false,"is_disabled":false,"rental_uris":{"android":"levelo://app?vid=c125d695-a76c-428d-9101-a9ed0c6a413d","ios":"levelo://app?vid=c125d695-a76c-428d-9101-a9ed0c6a413d"},"vehicle_type_id":"4","last_reported":1685307938,"current_range_meters":2400,"station_id":"ce4bgv12rcd13ifvqcp0","pricing_plan_id":"free"},{"bike_id":"2f6c2caf-d87c-4590-88a2-8c511b31b265","system_id":"levelo_inurba_marseille","lat":43.311722,"lon":5.387247,"is_reserved":false,"is_disabled":false,"rental_uris":{"android":"levelo://app?vid=2f6c2caf-d87c-4590-88a2-8c511b31b265","ios":"levelo://app?vid=2f6c2caf-d87c-4590-88a2-8c511b31b265"},"vehicle_type_id":"4","last_reported":1685307938,"current_range_meters":6800,"station_id":"ce4bgv12rcd13ifvqcp0","pricing_plan_id":"free"},{"bike_id":"5895156f-f83a-4b54-a0b5-57f02c18ef1a","system_id":"levelo_inurba_marseille","lat":43.328371,"lon":5.366912,"is_reserved":false,"is_disabled":false,"rental_uris":{"android":"levelo://app?vid=5895156f-f83a-4b54-a0b5-57f02c18ef1a","ios":"levelo://app?vid=5895156f-f83a-4b54-a0b5-57f02c18ef1a"},"vehicle_type_id":"4","last_reported":1685307938,"current_range_meters":25200,"station_id":"ce4bhs92rcd13ifvqi0g","pricing_plan_id":"free"},{"bike_id":"fc1f44d3-d61a-485c-b01f-c130a7b99da0","system_id":"levelo_inurba_marseille","lat":43.299028,"lon":5.381509,"is_reserved":false,"is_disabled":false,"rental_uris":{"android":"levelo://app?vid=fc1f44d3-d61a-485c-b01f-c130a7b99da0","ios":"levelo://app?vid=fc1f44d3-d61a-485c-b01f-c130a7b99da0"},"vehicle_type_id":"4","last_reported":1685307938,"current_range_meters":800,"station_id":"ce4bgj12rcd13ifvqbc0","pricing_plan_id":"free"},{"bike_id":"a9cd1518-2d3d-402a-8d0f-b312447f5db4","system_id":"levelo_inurba_marseille","lat":43.3095,"lon":5.3903,"is_reserved":false,"is_disabled":false,"rental_uris":{"android":"levelo://app?vid=a9cd1518-2d3d-402a-8d0f-b312447f5db4","ios":"levelo://app?vid=a9cd1518-2d3d-402a-8d0f-b312447f5db4"},"vehicle_type_id":"4","last_reported":1685307938,"current_range_meters":12800,"station_id":"ce4bgup2rcd13ifvqco0","pricing_plan_id":"free"},{"bike_id":"caa867ce-8b87-4cc8-a83e-b5c43244c633","system_id":"levelo_inurba_marseille","lat":43.30963,"lon":5.39037,"is_reserved":false,"is_disabled":false,"rental_uris":{"android":"levelo://app?vid=caa867ce-8b87-4cc8-a83e-b5c43244c633","ios":"levelo://app?vid=caa867ce-8b87-4cc8-a83e-b5c43244c633"},"vehicle_type_id":"4","last_reported":1685307938,"current_range_meters":21200,"station_id":"ce4bgup2rcd13ifvqco0","pricing_plan_id":"free"},{"bike_id":"9b69d2d8-54cc-42fe-9f1d-f4c1f9024b07","system_id":"levelo_inurba_marseille","lat":43.309589,"lon":5.390258,"is_reserved":false,"is_disabled":false,"rental_uris":{"android":"levelo://app?vid=9b69d2d8-54cc-42fe-9f1d-f4c1f9024b07","ios":"levelo://app?vid=9b69d2d8-54cc-42fe-9f1d-f4c1f9024b07"},"vehicle_type_id":"4","last_reported":1685307938,"current_range_meters":0,"station_id":"ce4bgup2rcd13ifvqco0","pricing_plan_id":"free"},{"bike_id":"2ea26070-ebe9-403b-a75f-daaa06010d58","system_id":"levelo_inurba_marseille","lat":43.30959,"lon":5.39039,"is_reserved":false,"is_disabled":false,"rental_uris":{"android":"levelo://app?vid=2ea26070-ebe9-403b-a75f-daaa06010d58","ios":"levelo://app?vid=2ea26070-ebe9-403b-a75f-daaa06010d58"},"vehicle_type_id":"4","last_reported":1685307938,"current_range_meters":1600,"station_id":"ce4bgup2rcd13ifvqco0","pricing_plan_id":"free"},{"bike_id":"cf1347a0-52cd-4723-8d9c-458e508d3807","system_id":"levelo_inurba_marseille","lat":43.30947,"lon":5.39036,"is_reserved":false,"is_disabled":false,"rental_uris":{"android":"levelo://app?vid=cf1347a0-52cd-4723-8d9c-458e508d3807","ios":"levelo://app?vid=cf1347a0-52cd-4723-8d9c-458e508d3807"},"vehicle_type_id":"4","last_reported":1685307938,"current_range_meters":800,"station_id":"ce4bgup2rcd13ifvqco0","pricing_plan_id":"free"},{"bike_id":"ffc2ecaf-eaa6-457e-aab8-cc2733ed9ab7","system_id":"levelo_inurba_marseille","lat":43.30945,"lon":5.39036,"is_reserved":false,"is_disabled":false,"rental_uris":{"android":"levelo://app?vid=ffc2ecaf-eaa6-457e-aab8-cc2733ed9ab7","ios":"levelo://app?vid=ffc2ecaf-eaa6-457e-aab8-cc2733ed9ab7"},"vehicle_type_id":"4","last_reported":1685307938,"current_range_meters":20000,"station_id":"ce4bgup2rcd13ifvqco0","pricing_plan_id":"free"},{"bike_id":"de2e0763-3e5b-449c-9956-dfa0271dffcf","system_id":"levelo_inurba_marseille","lat":43.30946,"lon":5.3904,"is_reserved":false,"is_disabled":false,"rental_uris":{"android":"levelo://app?vid=de2e0763-3e5b-449c-9956-dfa0271dffcf","ios":"levelo://app?vid=de2e0763-3e5b-449c-9956-dfa0271dffcf"},"vehicle_type_id":"4","last_reported":1685307938,"current_range_meters":5600,"station_id":"ce4bgup2rcd13ifvqco0","pricing_plan_id":"free"},{"bike_id":"857d19d3-1ad1-4abd-a723-e560f557aaef","system_id":"levelo_inurba_marseille","lat":43.317557,"lon":5.390173,"is_reserved":false,"is_disabled":false,"rental_uris":{"android":"levelo://app?vid=857d19d3-1ad1-4abd-a723-e560f557aaef","ios":"levelo://app?vid=857d19d3-1ad1-4abd-a723-e560f557aaef"},"vehicle_type_id":"4","last_reported":1685307938,"current_range_meters":6800,"station_id":"ce4bhqp2rcd13ifvqhng","pricing_plan_id":"free"},{"bike_id":"13405fcc-c8cc-467d-b24a-316b0d27b570","system_id":"levelo_inurba_marseille","lat":43.31761,"lon":5.3902,"is_reserved":false,"is_disabled":false,"rental_uris":{"android":"levelo://app?vid=13405fcc-c8cc-467d-b24a-316b0d27b570","ios":"levelo://app?vid=13405fcc-c8cc-467d-b24a-316b0d27b570"},"vehicle_type_id":"4","last_reported":1685307938,"current_range_meters":0,"station_id":"ce4bhqp2rcd13ifvqhng","pricing_plan_id":"free"},{"bike_id":"00f845ba-028f-4bf0-8e7a-d4ba47d3c184","system_id":"levelo_inurba_marseille","lat":43.298037,"lon":5.381066,"is_reserved":false,"is_disabled":false,"rental_uris":{"android":"levelo://app?vid=00f845ba-028f-4bf0-8e7a-d4ba47d3c184","ios":"levelo://app?vid=00f845ba-028f-4bf0-8e7a-d4ba47d3c184"},"vehicle_type_id":"4","last_reported":1685307938,"current_range_meters":27600,"station_id":"ce4bgip2rcd13ifvqbb0","pricing_plan_id":"free"},{"bike_id":"e0693527-60aa-464d-8e75-e0ae889d98f6","system_id":"levelo_inurba_marseille","lat":43.298037,"lon":5.381066,"is_reserved":false,"is_disabled":false,"rental_uris":{"android":"levelo://app?vid=e0693527-60aa-464d-8e75-e0ae889d98f6","ios":"levelo://app?vid=e0693527-60aa-464d-8e75-e0ae889d98f6"},"vehicle_type_id":"4","last_reported":1685307938,"current_range_meters":30400,"station_id":"ce4bgip2rcd13ifvqbb0","pricing_plan_id":"free"},{"bike_id":"173e90b5-e30d-450f-bc7c-282e2fdcc2f2","system_id":"levelo_inurba_marseille","lat":43.298037,"lon":5.381066,"is_reserved":false,"is_disabled":false,"rental_uris":{"android":"levelo://app?vid=173e90b5-e30d-450f-bc7c-282e2fdcc2f2","ios":"levelo://app?vid=173e90b5-e30d-450f-bc7c-282e2fdcc2f2"},"vehicle_type_id":"4","last_reported":1685307938,"current_range_meters":0,"station_id":"ce4bgip2rcd13ifvqbb0","pricing_plan_id":"free"},{"bike_id":"af77be64-c634-4f31-a6e4-d5dd8d35bbe7","system_id":"levelo_inurba_marseille","lat":43.3043,"lon":5.38891,"is_reserved":false,"is_disabled":false,"rental_uris":{"android":"levelo://app?vid=af77be64-c634-4f31-a6e4-d5dd8d35bbe7","ios":"levelo://app?vid=af77be64-c634-4f31-a6e4-d5dd8d35bbe7"},"vehicle_type_id":"4","last_reported":1685307938,"current_range_meters":0,"station_id":"ce4bgk12rcd13ifvqbi0","pricing_plan_id":"free"},{"bike_id":"4fa9a478-099b-4dbe-9e54-1390d21beb2b","system_id":"levelo_inurba_marseille","lat":43.3043,"lon":5.38896,"is_reserved":false,"is_disabled":false,"rental_uris":{"android":"levelo://app?vid=4fa9a478-099b-4dbe-9e54-1390d21beb2b","ios":"levelo://app?vid=4fa9a478-099b-4dbe-9e54-1390d21beb2b"},"vehicle_type_id":"4","last_reported":1685307938,"current_range_meters":0,"station_id":"ce4bgk12rcd13ifvqbi0","pricing_plan_id":"free"},{"bike_id":"4c067111-4d2e-420c-bda9-26347c224a43","system_id":"levelo_inurba_marseille","lat":43.295279,"lon":5.375048,"is_reserved":false,"is_disabled":false,"rental_uris":{"android":"levelo://app?vid=4c067111-4d2e-420c-bda9-26347c224a43","ios":"levelo://app?vid=4c067111-4d2e-420c-bda9-26347c224a43"},"vehicle_type_id":"4","last_reported":1685307938,"current_range_meters":0,"station_id":"ce4bgkp2rcd13ifvqbmg","pricing_plan_id":"free"},{"bike_id":"46968d35-12ab-47c7-a233-78404dec6156","system_id":"levelo_inurba_marseille","lat":43.295279,"lon":5.375048,"is_reserved":false,"is_disabled":false,"rental_uris":{"android":"levelo://app?vid=46968d35-12ab-47c7-a233-78404dec6156","ios":"levelo://app?vid=46968d35-12ab-47c7-a233-78404dec6156"},"vehicle_type_id":"4","last_reported":1685307938,"current_range_meters":21200,"station_id":"ce4bgkp2rcd13ifvqbmg","pricing_plan_id":"free"},{"bike_id":"56e00f9f-0030-4a16-938a-6239c58c1d00","system_id":"levelo_inurba_marseille","lat":43.299724,"lon":5.384848,"is_reserved":false,"is_disabled":false,"rental_uris":{"android":"levelo://app?vid=56e00f9f-0030-4a16-938a-6239c58c1d00","ios":"levelo://app?vid=56e00f9f-0030-4a16-938a-6239c58c1d00"},"vehicle_type_id":"4","last_reported":1685307938,"current_range_meters":0,"station_id":"ce4bgj92rcd13ifvqbd0","pricing_plan_id":"free"},{"bike_id":"ddfffe7f-ecf3-4188-879b-1dc09c6ec0d1","system_id":"levelo_inurba_marseille","lat":43.32367,"lon":5.388836,"is_reserved":false,"is_disabled":false,"rental_uris":{"android":"levelo://app?vid=ddfffe7f-ecf3-4188-879b-1dc09c6ec0d1","ios":"levelo://app?vid=ddfffe7f-ecf3-4188-879b-1dc09c6ec0d1"},"vehicle_type_id":"4","last_reported":1685307938,"current_range_meters":14800,"station_id":"ce4bhqp2rcd13ifvqhog","pricing_plan_id":"free"},{"bike_id":"b20487d6-ddff-41fa-b9c0-aec7e8cce531","system_id":"levelo_inurba_marseille","lat":43.29601,"lon":5.381084,"is_reserved":false,"is_disabled":false,"rental_uris":{"android":"levelo://app?vid=b20487d6-ddff-41fa-b9c0-aec7e8cce531","ios":"levelo://app?vid=b20487d6-ddff-41fa-b9c0-aec7e8cce531"},"vehicle_type_id":"4","last_reported":1685307938,"current_range_meters":1600,"station_id":"ce4bgl12rcd13ifvqbo0","pricing_plan_id":"free"},{"bike_id":"86c3b803-8f67-40b1-b398-4f28a605766f","system_id":"levelo_inurba_marseille","lat":43.29602,"lon":5.381084,"is_reserved":false,"is_disabled":false,"rental_uris":{"android":"levelo://app?vid=86c3b803-8f67-40b1-b398-4f28a605766f","ios":"levelo://app?vid=86c3b803-8f67-40b1-b398-4f28a605766f"},"vehicle_type_id":"4","last_reported":1685307938,"current_range_meters":0,"station_id":"ce4bgl12rcd13ifvqbo0","pricing_plan_id":"free"},{"bike_id":"16127a9b-7f9c-4930-953b-b981e6ebb0c8","system_id":"levelo_inurba_marseille","lat":43.305994,"lon":5.393687,"is_reserved":false,"is_disabled":false,"rental_uris":{"android":"levelo://app?vid=16127a9b-7f9c-4930-953b-b981e6ebb0c8","ios":"levelo://app?vid=16127a9b-7f9c-4930-953b-b981e6ebb0c8"},"vehicle_type_id":"4","last_reported":1685307938,"current_range_meters":2400,"station_id":"ce4bh0p2rcd13ifvqd80","pricing_plan_id":"free"},{"bike_id":"1ddcc1e3-064a-45fe-8548-c3fa9200518e","system_id":"levelo_inurba_marseille","lat":43.29398,"lon":5.37721,"is_reserved":false,"is_disabled":false,"rental_uris":{"android":"levelo://app?vid=1ddcc1e3-064a-45fe-8548-c3fa9200518e","ios":"levelo://app?vid=1ddcc1e3-064a-45fe-8548-c3fa9200518e"},"vehicle_type_id":"4","last_reported":1685307938,"current_range_meters":0,"station_id":"","pricing_plan_id":"free"},{"bike_id":"2628bc6b-4d15-4fed-adc0-829c4af8f3bc","system_id":"levelo_inurba_marseille","lat":43.29325,"lon":5.37435,"is_reserved":false,"is_disabled":false,"rental_uris":{"android":"levelo://app?vid=2628bc6b-4d15-4fed-adc0-829c4af8f3bc","ios":"levelo://app?vid=2628bc6b-4d15-4fed-adc0-829c4af8f3bc"},"vehicle_type_id":"4","last_reported":1685307938,"current_range_meters":0,"station_id":"","pricing_plan_id":"free"},{"bike_id":"5309a71a-43f0-42a1-92f9-ed5bb4c4b48a","system_id":"levelo_inurba_marseille","lat":43.293009,"lon":5.374584,"is_reserved":false,"is_disabled":false,"rental_uris":{"android":"levelo://app?vid=5309a71a-43f0-42a1-92f9-ed5bb4c4b48a","ios":"levelo://app?vid=5309a71a-43f0-42a1-92f9-ed5bb4c4b48a"},"vehicle_type_id":"4","last_reported":1685307938,"current_range_meters":0,"station_id":"ce4bgi12rcd13ifvqb70","pricing_plan_id":"free"},{"bike_id":"96931311-fae5-451c-81c9-28abf30acec6","system_id":"levelo_inurba_marseille","lat":43.293009,"lon":5.374584,"is_reserved":false,"is_disabled":false,"rental_uris":{"android":"levelo://app?vid=96931311-fae5-451c-81c9-28abf30acec6","ios":"levelo://app?vid=96931311-fae5-451c-81c9-28abf30acec6"},"vehicle_type_id":"4","last_reported":1685307938,"current_range_meters":800,"station_id":"ce4bgi12rcd13ifvqb70","pricing_plan_id":"free"},{"bike_id":"ab251104-54cc-4946-80f7-1a76575c8607","system_id":"levelo_inurba_marseille","lat":43.305994,"lon":5.393687,"is_reserved":false,"is_disabled":false,"rental_uris":{"android":"levelo://app?vid=ab251104-54cc-4946-80f7-1a76575c8607","ios":"levelo://app?vid=ab251104-54cc-4946-80f7-1a76575c8607"},"vehicle_type_id":"4","last_reported":1685307938,"current_range_meters":10400,"station_id":"ce4bh0p2rcd13ifvqd80","pricing_plan_id":"free"},{"bike_id":"dae65d02-1fda-4a97-ae4e-2426b2a329cc","system_id":"levelo_inurba_marseille","lat":43.303002,"lon":5.392142,"is_reserved":false,"is_disabled":false,"rental_uris":{"android":"levelo://app?vid=dae65d02-1fda-4a97-ae4e-2426b2a329cc","ios":"levelo://app?vid=dae65d02-1fda-4a97-ae4e-2426b2a329cc"},"vehicle_type_id":"4","last_reported":1685307938,"current_range_meters":400,"station_id":"ce4bgkh2rcd13ifvqbk0","pricing_plan_id":"free"},{"bike_id":"7618e644-7379-4fa0-9d99-0ac9668be6a2","system_id":"levelo_inurba_marseille","lat":43.302992,"lon":5.392136,"is_reserved":false,"is_disabled":false,"rental_uris":{"android":"levelo://app?vid=7618e644-7379-4fa0-9d99-0ac9668be6a2","ios":"levelo://app?vid=7618e644-7379-4fa0-9d99-0ac9668be6a2"},"vehicle_type_id":"4","last_reported":1685307938,"current_range_meters":6000,"station_id":"ce4bgkh2rcd13ifvqbk0","pricing_plan_id":"free"},{"bike_id":"1eeb1383-d329-49ea-89c2-2de14b02c36c","system_id":"levelo_inurba_marseille","lat":43.298764,"lon":5.388973,"is_reserved":false,"is_disabled":false,"rental_uris":{"android":"levelo://app?vid=1eeb1383-d329-49ea-89c2-2de14b02c36c","ios":"levelo://app?vid=1eeb1383-d329-49ea-89c2-2de14b02c36c"},"vehicle_type_id":"4","last_reported":1685307938,"current_range_meters":0,"station_id":"ce4bh392rcd13ifvqdl0","pricing_plan_id":"free"},{"bike_id":"3fd4495b-fe4e-4ad9-af49-3e52c6589625","system_id":"levelo_inurba_marseille","lat":43.291994,"lon":5.357886,"is_reserved":false,"is_disabled":false,"rental_uris":{"android":"levelo://app?vid=3fd4495b-fe4e-4ad9-af49-3e52c6589625","ios":"levelo://app?vid=3fd4495b-fe4e-4ad9-af49-3e52c6589625"},"vehicle_type_id":"4","last_reported":1685307938,"current_range_meters":31200,"station_id":"ce4bhb12rcd13ifvqel0","pricing_plan_id":"free"},{"bike_id":"ab5935cc-009a-4a8a-bf6c-67b6851e9518","system_id":"levelo_inurba_marseille","lat":43.29041,"lon":5.35913,"is_reserved":false,"is_disabled":false,"rental_uris":{"android":"levelo://app?vid=ab5935cc-009a-4a8a-bf6c-67b6851e9518","ios":"levelo://app?vid=ab5935cc-009a-4a8a-bf6c-67b6851e9518"},"vehicle_type_id":"4","last_reported":1685307938,"current_range_meters":0,"station_id":"","pricing_plan_id":"free"},{"bike_id":"40e0beca-8ccd-468f-a1a0-d1ca79dd5a21","system_id":"levelo_inurba_marseille","lat":43.33641,"lon":5.36753,"is_reserved":false,"is_disabled":false,"rental_uris":{"android":"levelo://app?vid=40e0beca-8ccd-468f-a1a0-d1ca79dd5a21","ios":"levelo://app?vid=40e0beca-8ccd-468f-a1a0-d1ca79dd5a21"},"vehicle_type_id":"4","last_reported":1685307938,"current_range_meters":1600,"station_id":"","pricing_plan_id":"free"},{"bike_id":"c4b4ae29-e875-4e38-be03-1d83e0ed5efa","system_id":"levelo_inurba_marseille","lat":43.29788,"lon":5.39346,"is_reserved":false,"is_disabled":false,"rental_uris":{"android":"levelo://app?vid=c4b4ae29-e875-4e38-be03-1d83e0ed5efa","ios":"levelo://app?vid=c4b4ae29-e875-4e38-be03-1d83e0ed5efa"},"vehicle_type_id":"4","last_reported":1685307938,"current_range_meters":0,"station_id":"chh1huq6cuj3fo74tm60","pricing_plan_id":"free"},{"bike_id":"8e2777b2-d8ff-49cd-8ec3-e99209dbdb6c","system_id":"levelo_inurba_marseille","lat":43.297814,"lon":5.393513,"is_reserved":false,"is_disabled":false,"rental_uris":{"android":"levelo://app?vid=8e2777b2-d8ff-49cd-8ec3-e99209dbdb6c","ios":"levelo://app?vid=8e2777b2-d8ff-49cd-8ec3-e99209dbdb6c"},"vehicle_type_id":"4","last_reported":1685307938,"current_range_meters":0,"station_id":"chh1huq6cuj3fo74tm60","pricing_plan_id":"free"},{"bike_id":"9da8d16a-5861-46c2-9021-077e02f7ebe8","system_id":"levelo_inurba_marseille","lat":43.289741,"lon":5.378306,"is_reserved":false,"is_disabled":false,"rental_uris":{"android":"levelo://app?vid=9da8d16a-5861-46c2-9021-077e02f7ebe8","ios":"levelo://app?vid=9da8d16a-5861-46c2-9021-077e02f7ebe8"},"vehicle_type_id":"4","last_reported":1685307938,"current_range_meters":0,"station_id":"ce4bh9p2rcd13ifvqed0","pricing_plan_id":"free"},{"bike_id":"141c14ea-594b-43ee-894e-8c44af1dcd73","system_id":"levelo_inurba_marseille","lat":43.33735,"lon":5.37453,"is_reserved":false,"is_disabled":false,"rental_uris":{"android":"levelo://app?vid=141c14ea-594b-43ee-894e-8c44af1dcd73","ios":"levelo://app?vid=141c14ea-594b-43ee-894e-8c44af1dcd73"},"vehicle_type_id":"4","last_reported":1685307938,"current_range_meters":30800,"station_id":"","pricing_plan_id":"free"},{"bike_id":"915a1d5d-0a9c-4982-bd00-ae384a29cdde","system_id":"levelo_inurba_marseille","lat":43.33743,"lon":5.37448,"is_reserved":false,"is_disabled":false,"rental_uris":{"android":"levelo://app?vid=915a1d5d-0a9c-4982-bd00-ae384a29cdde","ios":"levelo://app?vid=915a1d5d-0a9c-4982-bd00-ae384a29cdde"},"vehicle_type_id":"4","last_reported":1685307938,"current_range_meters":29200,"station_id":"","pricing_plan_id":"free"},{"bike_id":"493860ce-e063-4684-ab33-c360eaf64153","system_id":"levelo_inurba_marseille","lat":43.33744,"lon":5.37451,"is_reserved":false,"is_disabled":false,"rental_uris":{"android":"levelo://app?vid=493860ce-e063-4684-ab33-c360eaf64153","ios":"levelo://app?vid=493860ce-e063-4684-ab33-c360eaf64153"},"vehicle_type_id":"4","last_reported":1685307938,"current_range_meters":16800,"station_id":"","pricing_plan_id":"free"},{"bike_id":"c67b547c-3fcb-4384-8614-e15f558fec55","system_id":"levelo_inurba_marseille","lat":43.33744,"lon":5.37451,"is_reserved":false,"is_disabled":false,"rental_uris":{"android":"levelo://app?vid=c67b547c-3fcb-4384-8614-e15f558fec55","ios":"levelo://app?vid=c67b547c-3fcb-4384-8614-e15f558fec55"},"vehicle_type_id":"4","last_reported":1685307938,"current_range_meters":26000,"station_id":"","pricing_plan_id":"free"},{"bike_id":"556c6db1-2600-4c2b-9521-aae8453517c1","system_id":"levelo_inurba_marseille","lat":43.3375,"lon":5.37441,"is_reserved":false,"is_disabled":false,"rental_uris":{"android":"levelo://app?vid=556c6db1-2600-4c2b-9521-aae8453517c1","ios":"levelo://app?vid=556c6db1-2600-4c2b-9521-aae8453517c1"},"vehicle_type_id":"4","last_reported":1685307938,"current_range_meters":12800,"station_id":"","pricing_plan_id":"free"},{"bike_id":"13f017f1-17c6-442d-a858-afd0d6dd936d","system_id":"levelo_inurba_marseille","lat":43.30642,"lon":5.401031,"is_reserved":false,"is_disabled":false,"rental_uris":{"android":"levelo://app?vid=13f017f1-17c6-442d-a858-afd0d6dd936d","ios":"levelo://app?vid=13f017f1-17c6-442d-a858-afd0d6dd936d"},"vehicle_type_id":"4","last_reported":1685307938,"current_range_meters":17200,"station_id":"ce4bh112rcd13ifvqda0","pricing_plan_id":"free"},{"bike_id":"5aaf445f-f097-4041-99e9-0b2edc8a39b1","system_id":"levelo_inurba_marseille","lat":43.33759,"lon":5.37449,"is_reserved":false,"is_disabled":false,"rental_uris":{"android":"levelo://app?vid=5aaf445f-f097-4041-99e9-0b2edc8a39b1","ios":"levelo://app?vid=5aaf445f-f097-4041-99e9-0b2edc8a39b1"},"vehicle_type_id":"4","last_reported":1685307938,"current_range_meters":27600,"station_id":"","pricing_plan_id":"free"},{"bike_id":"ff1b49ea-4d67-40b1-9bcc-12af1e30efad","system_id":"levelo_inurba_marseille","lat":43.28824,"lon":5.37666,"is_reserved":false,"is_disabled":false,"rental_uris":{"android":"levelo://app?vid=ff1b49ea-4d67-40b1-9bcc-12af1e30efad","ios":"levelo://app?vid=ff1b49ea-4d67-40b1-9bcc-12af1e30efad"},"vehicle_type_id":"4","last_reported":1685307938,"current_range_meters":2400,"station_id":"","pricing_plan_id":"free"},{"bike_id":"80012f71-ed36-4978-a133-96cc433e17a9","system_id":"levelo_inurba_marseille","lat":43.295196,"lon":5.39397,"is_reserved":false,"is_disabled":false,"rental_uris":{"android":"levelo://app?vid=80012f71-ed36-4978-a133-96cc433e17a9","ios":"levelo://app?vid=80012f71-ed36-4978-a133-96cc433e17a9"},"vehicle_type_id":"4","last_reported":1685307938,"current_range_meters":24400,"station_id":"ce4bh292rcd13ifvqdf0","pricing_plan_id":"free"},{"bike_id":"61fa0ebe-982b-4cd2-bb25-bb4e636e5531","system_id":"levelo_inurba_marseille","lat":43.295194,"lon":5.39397,"is_reserved":false,"is_disabled":false,"rental_uris":{"android":"levelo://app?vid=61fa0ebe-982b-4cd2-bb25-bb4e636e5531","ios":"levelo://app?vid=61fa0ebe-982b-4cd2-bb25-bb4e636e5531"},"vehicle_type_id":"4","last_reported":1685307938,"current_range_meters":6800,"station_id":"ce4bh292rcd13ifvqdf0","pricing_plan_id":"free"},{"bike_id":"035a4f4a-f3b7-4cf4-93cb-e2e7ce7fcf99","system_id":"levelo_inurba_marseille","lat":43.290345,"lon":5.38646,"is_reserved":false,"is_disabled":false,"rental_uris":{"android":"levelo://app?vid=035a4f4a-f3b7-4cf4-93cb-e2e7ce7fcf99","ios":"levelo://app?vid=035a4f4a-f3b7-4cf4-93cb-e2e7ce7fcf99"},"vehicle_type_id":"4","last_reported":1685307938,"current_range_meters":21200,"station_id":"ce4bh4p2rcd13ifvqe0g","pricing_plan_id":"free"},{"bike_id":"7e1fe4f5-345b-46bd-ab0e-c6b5a3db933d","system_id":"levelo_inurba_marseille","lat":43.316517,"lon":5.404375,"is_reserved":false,"is_disabled":false,"rental_uris":{"android":"levelo://app?vid=7e1fe4f5-345b-46bd-ab0e-c6b5a3db933d","ios":"levelo://app?vid=7e1fe4f5-345b-46bd-ab0e-c6b5a3db933d"},"vehicle_type_id":"4","last_reported":1685307938,"current_range_meters":0,"station_id":"ce4bh012rcd13ifvqd00","pricing_plan_id":"free"},{"bike_id":"b7ba482b-539c-4a08-955e-0b7e38bb91f3","system_id":"levelo_inurba_marseille","lat":43.29207,"lon":5.39325,"is_reserved":false,"is_disabled":false,"rental_uris":{"android":"levelo://app?vid=b7ba482b-539c-4a08-955e-0b7e38bb91f3","ios":"levelo://app?vid=b7ba482b-539c-4a08-955e-0b7e38bb91f3"},"vehicle_type_id":"4","last_reported":1685307938,"current_range_meters":3600,"station_id":"","pricing_plan_id":"free"},{"bike_id":"8ff04475-70d3-46d1-aa84-bc1907c5f746","system_id":"levelo_inurba_marseille","lat":43.284534,"lon":5.358662,"is_reserved":false,"is_disabled":false,"rental_uris":{"android":"levelo://app?vid=8ff04475-70d3-46d1-aa84-bc1907c5f746","ios":"levelo://app?vid=8ff04475-70d3-46d1-aa84-bc1907c5f746"},"vehicle_type_id":"4","last_reported":1685307938,"current_range_meters":0,"station_id":"ce4bhah2rcd13ifvqei0","pricing_plan_id":"free"},{"bike_id":"6b439296-6297-420a-be3d-7cd290905d70","system_id":"levelo_inurba_marseille","lat":43.286595,"lon":5.386795,"is_reserved":false,"is_disabled":false,"rental_uris":{"android":"levelo://app?vid=6b439296-6297-420a-be3d-7cd290905d70","ios":"levelo://app?vid=6b439296-6297-420a-be3d-7cd290905d70"},"vehicle_type_id":"4","last_reported":1685307938,"current_range_meters":22800,"station_id":"ce4bh492rcd13ifvqdug","pricing_plan_id":"free"},{"bike_id":"273b6e4f-7dd5-4e3e-bb32-b4180bd268ca","system_id":"levelo_inurba_marseille","lat":43.286595,"lon":5.386795,"is_reserved":false,"is_disabled":false,"rental_uris":{"android":"levelo://app?vid=273b6e4f-7dd5-4e3e-bb32-b4180bd268ca","ios":"levelo://app?vid=273b6e4f-7dd5-4e3e-bb32-b4180bd268ca"},"vehicle_type_id":"4","last_reported":1685307938,"current_range_meters":2800,"station_id":"ce4bh492rcd13ifvqdug","pricing_plan_id":"free"},{"bike_id":"e7293bb3-3684-401f-a127-ca63aec3d3af","system_id":"levelo_inurba_marseille","lat":43.283498,"lon":5.380948,"is_reserved":false,"is_disabled":false,"rental_uris":{"android":"levelo://app?vid=e7293bb3-3684-401f-a127-ca63aec3d3af","ios":"levelo://app?vid=e7293bb3-3684-401f-a127-ca63aec3d3af"},"vehicle_type_id":"4","last_reported":1685307938,"current_range_meters":5600,"station_id":"ce4bh412rcd13ifvqdr0","pricing_plan_id":"free"},{"bike_id":"0bdaf184-acf6-4289-9f43-139bc0f69652","system_id":"levelo_inurba_marseille","lat":43.289363,"lon":5.396322,"is_reserved":false,"is_disabled":false,"rental_uris":{"android":"levelo://app?vid=0bdaf184-acf6-4289-9f43-139bc0f69652","ios":"levelo://app?vid=0bdaf184-acf6-4289-9f43-139bc0f69652"},"vehicle_type_id":"4","last_reported":1685307938,"current_range_meters":2000,"station_id":"ce4bh3h2rcd13ifvqdn0","pricing_plan_id":"free"},{"bike_id":"36ba0e61-5703-4bc1-acda-52dceb7588a2","system_id":"levelo_inurba_marseille","lat":43.289363,"lon":5.396322,"is_reserved":false,"is_disabled":false,"rental_uris":{"android":"levelo://app?vid=36ba0e61-5703-4bc1-acda-52dceb7588a2","ios":"levelo://app?vid=36ba0e61-5703-4bc1-acda-52dceb7588a2"},"vehicle_type_id":"4","last_reported":1685307938,"current_range_meters":11200,"station_id":"ce4bh3h2rcd13ifvqdn0","pricing_plan_id":"free"},{"bike_id":"0e5e5833-5140-40a2-badb-27f144d1966b","system_id":"levelo_inurba_marseille","lat":43.289253,"lon":5.396515,"is_reserved":false,"is_disabled":false,"rental_uris":{"android":"levelo://app?vid=0e5e5833-5140-40a2-badb-27f144d1966b","ios":"levelo://app?vid=0e5e5833-5140-40a2-badb-27f144d1966b"},"vehicle_type_id":"4","last_reported":1685307938,"current_range_meters":0,"station_id":"ce4bh3h2rcd13ifvqdn0","pricing_plan_id":"free"},{"bike_id":"e1f2fa22-723c-43c6-b312-a05bf67ac6c0","system_id":"levelo_inurba_marseille","lat":43.28378,"lon":5.38623,"is_reserved":false,"is_disabled":false,"rental_uris":{"android":"levelo://app?vid=e1f2fa22-723c-43c6-b312-a05bf67ac6c0","ios":"levelo://app?vid=e1f2fa22-723c-43c6-b312-a05bf67ac6c0"},"vehicle_type_id":"4","last_reported":1685307938,"current_range_meters":0,"station_id":"","pricing_plan_id":"free"},{"bike_id":"f883b853-e444-49e5-9384-0c2bbe5ab920","system_id":"levelo_inurba_marseille","lat":43.292724,"lon":5.401131,"is_reserved":false,"is_disabled":false,"rental_uris":{"android":"levelo://app?vid=f883b853-e444-49e5-9384-0c2bbe5ab920","ios":"levelo://app?vid=f883b853-e444-49e5-9384-0c2bbe5ab920"},"vehicle_type_id":"4","last_reported":1685307938,"current_range_meters":2800,"station_id":"ce4bh312rcd13ifvqdk0","pricing_plan_id":"free"},{"bike_id":"c142db3d-dabd-49fe-8f71-9b6406113bc1","system_id":"levelo_inurba_marseille","lat":43.28376,"lon":5.3863,"is_reserved":false,"is_disabled":false,"rental_uris":{"android":"levelo://app?vid=c142db3d-dabd-49fe-8f71-9b6406113bc1","ios":"levelo://app?vid=c142db3d-dabd-49fe-8f71-9b6406113bc1"},"vehicle_type_id":"4","last_reported":1685307938,"current_range_meters":0,"station_id":"","pricing_plan_id":"free"},{"bike_id":"376863b0-bad5-4cd9-bd91-266f781c544e","system_id":"levelo_inurba_marseille","lat":43.28373,"lon":5.38636,"is_reserved":false,"is_disabled":false,"rental_uris":{"android":"levelo://app?vid=376863b0-bad5-4cd9-bd91-266f781c544e","ios":"levelo://app?vid=376863b0-bad5-4cd9-bd91-266f781c544e"},"vehicle_type_id":"4","last_reported":1685307938,"current_range_meters":4400,"station_id":"ce4bh492rcd13ifvqdvg","pricing_plan_id":"free"},{"bike_id":"d6a0e759-1b9f-4c22-9820-f95c166c0d3c","system_id":"levelo_inurba_marseille","lat":43.28365,"lon":5.38642,"is_reserved":false,"is_disabled":false,"rental_uris":{"android":"levelo://app?vid=d6a0e759-1b9f-4c22-9820-f95c166c0d3c","ios":"levelo://app?vid=d6a0e759-1b9f-4c22-9820-f95c166c0d3c"},"vehicle_type_id":"4","last_reported":1685307938,"current_range_meters":800,"station_id":"ce4bh492rcd13ifvqdvg","pricing_plan_id":"free"},{"bike_id":"ee00fddf-72d1-4928-b314-45fc35963613","system_id":"levelo_inurba_marseille","lat":43.296263,"lon":5.40601,"is_reserved":false,"is_disabled":false,"rental_uris":{"android":"levelo://app?vid=ee00fddf-72d1-4928-b314-45fc35963613","ios":"levelo://app?vid=ee00fddf-72d1-4928-b314-45fc35963613"},"vehicle_type_id":"4","last_reported":1685307938,"current_range_meters":1600,"station_id":"ce4bh0h2rcd13ifvqd60","pricing_plan_id":"free"},{"bike_id":"17e61452-80ba-46a0-9877-274607278af4","system_id":"levelo_inurba_marseille","lat":43.29631,"lon":5.40598,"is_reserved":false,"is_disabled":false,"rental_uris":{"android":"levelo://app?vid=17e61452-80ba-46a0-9877-274607278af4","ios":"levelo://app?vid=17e61452-80ba-46a0-9877-274607278af4"},"vehicle_type_id":"4","last_reported":1685307938,"current_range_meters":0,"station_id":"ce4bh0h2rcd13ifvqd60","pricing_plan_id":"free"},{"bike_id":"84fb31e2-fa2f-49a4-8473-1c7be801f3df","system_id":"levelo_inurba_marseille","lat":43.285742,"lon":5.395004,"is_reserved":false,"is_disabled":false,"rental_uris":{"android":"levelo://app?vid=84fb31e2-fa2f-49a4-8473-1c7be801f3df","ios":"levelo://app?vid=84fb31e2-fa2f-49a4-8473-1c7be801f3df"},"vehicle_type_id":"4","last_reported":1685307938,"current_range_meters":8800,"station_id":"ce4bh292rcd13ifvqdg0","pricing_plan_id":"free"},{"bike_id":"68c05f8c-8572-476e-a128-f37afb7ad4ab","system_id":"levelo_inurba_marseille","lat":43.287154,"lon":5.399979,"is_reserved":false,"is_disabled":false,"rental_uris":{"android":"levelo://app?vid=68c05f8c-8572-476e-a128-f37afb7ad4ab","ios":"levelo://app?vid=68c05f8c-8572-476e-a128-f37afb7ad4ab"},"vehicle_type_id":"4","last_reported":1685307938,"current_range_meters":2800,"station_id":"ce4bho92rcd13ifvqh3g","pricing_plan_id":"free"},{"bike_id":"ced15264-ef63-4079-8506-79b5dd73b91a","system_id":"levelo_inurba_marseille","lat":43.287156,"lon":5.400191,"is_reserved":false,"is_disabled":false,"rental_uris":{"android":"levelo://app?vid=ced15264-ef63-4079-8506-79b5dd73b91a","ios":"levelo://app?vid=ced15264-ef63-4079-8506-79b5dd73b91a"},"vehicle_type_id":"4","last_reported":1685307938,"current_range_meters":400,"station_id":"","pricing_plan_id":"free"},{"bike_id":"db1489de-a7c4-4c0f-8abf-73d0898bb77a","system_id":"levelo_inurba_marseille","lat":43.28168,"lon":5.39169,"is_reserved":false,"is_disabled":false,"rental_uris":{"android":"levelo://app?vid=db1489de-a7c4-4c0f-8abf-73d0898bb77a","ios":"levelo://app?vid=db1489de-a7c4-4c0f-8abf-73d0898bb77a"},"vehicle_type_id":"4","last_reported":1685307938,"current_range_meters":17200,"station_id":"","pricing_plan_id":"free"},{"bike_id":"0c2cdbb8-dcb1-4323-868a-2dbb5167f19b","system_id":"levelo_inurba_marseille","lat":43.279742,"lon":5.38744,"is_reserved":false,"is_disabled":false,"rental_uris":{"android":"levelo://app?vid=0c2cdbb8-dcb1-4323-868a-2dbb5167f19b","ios":"levelo://app?vid=0c2cdbb8-dcb1-4323-868a-2dbb5167f19b"},"vehicle_type_id":"4","last_reported":1685307938,"current_range_meters":0,"station_id":"ce4bhg12rcd13ifvqf80","pricing_plan_id":"free"},{"bike_id":"bc78f3ab-f75c-473a-83df-87b26db78ba5","system_id":"levelo_inurba_marseille","lat":43.279742,"lon":5.38744,"is_reserved":false,"is_disabled":false,"rental_uris":{"android":"levelo://app?vid=bc78f3ab-f75c-473a-83df-87b26db78ba5","ios":"levelo://app?vid=bc78f3ab-f75c-473a-83df-87b26db78ba5"},"vehicle_type_id":"4","last_reported":1685307938,"current_range_meters":1200,"station_id":"ce4bhg12rcd13ifvqf80","pricing_plan_id":"free"},{"bike_id":"85759ee8-602a-4a76-9898-9e76626e2541","system_id":"levelo_inurba_marseille","lat":43.279742,"lon":5.38744,"is_reserved":false,"is_disabled":false,"rental_uris":{"android":"levelo://app?vid=85759ee8-602a-4a76-9898-9e76626e2541","ios":"levelo://app?vid=85759ee8-602a-4a76-9898-9e76626e2541"},"vehicle_type_id":"4","last_reported":1685307938,"current_range_meters":7200,"station_id":"ce4bhg12rcd13ifvqf80","pricing_plan_id":"free"},{"bike_id":"286258f5-ac0b-4a30-a6cc-cd45e1cdecf2","system_id":"levelo_inurba_marseille","lat":43.32535,"lon":5.4142,"is_reserved":false,"is_disabled":false,"rental_uris":{"android":"levelo://app?vid=286258f5-ac0b-4a30-a6cc-cd45e1cdecf2","ios":"levelo://app?vid=286258f5-ac0b-4a30-a6cc-cd45e1cdecf2"},"vehicle_type_id":"4","last_reported":1685307938,"current_range_meters":31200,"station_id":"ce4bhq12rcd13ifvqhhg","pricing_plan_id":"free"},{"bike_id":"2c73e87b-3c7d-4ba3-8edf-648242e62e06","system_id":"levelo_inurba_marseille","lat":43.292571,"lon":5.409107,"is_reserved":false,"is_disabled":false,"rental_uris":{"android":"levelo://app?vid=2c73e87b-3c7d-4ba3-8edf-648242e62e06","ios":"levelo://app?vid=2c73e87b-3c7d-4ba3-8edf-648242e62e06"},"vehicle_type_id":"4","last_reported":1685307938,"current_range_meters":3600,"station_id":"ce4bh192rcd13ifvqdc0","pricing_plan_id":"free"},{"bike_id":"48e9dbbf-a20d-4cc4-89e5-f70796641807","system_id":"levelo_inurba_marseille","lat":43.27618,"lon":5.361009,"is_reserved":false,"is_disabled":false,"rental_uris":{"android":"levelo://app?vid=48e9dbbf-a20d-4cc4-89e5-f70796641807","ios":"levelo://app?vid=48e9dbbf-a20d-4cc4-89e5-f70796641807"},"vehicle_type_id":"4","last_reported":1685307938,"current_range_meters":0,"station_id":"ce4bgj92rcd13ifvqbe0","pricing_plan_id":"free"},{"bike_id":"448e1e79-7a00-445f-9439-0c43795fce70","system_id":"levelo_inurba_marseille","lat":43.27619,"lon":5.36102,"is_reserved":false,"is_disabled":false,"rental_uris":{"android":"levelo://app?vid=448e1e79-7a00-445f-9439-0c43795fce70","ios":"levelo://app?vid=448e1e79-7a00-445f-9439-0c43795fce70"},"vehicle_type_id":"4","last_reported":1685307938,"current_range_meters":0,"station_id":"ce4bgj92rcd13ifvqbe0","pricing_plan_id":"free"},{"bike_id":"4d2ddf16-48e5-426b-9f49-7a83729058bc","system_id":"levelo_inurba_marseille","lat":43.28079,"lon":5.396664,"is_reserved":false,"is_disabled":false,"rental_uris":{"android":"levelo://app?vid=4d2ddf16-48e5-426b-9f49-7a83729058bc","ios":"levelo://app?vid=4d2ddf16-48e5-426b-9f49-7a83729058bc"},"vehicle_type_id":"4","last_reported":1685307938,"current_range_meters":1600,"station_id":"ce4bhgp2rcd13ifvqfc0","pricing_plan_id":"free"},{"bike_id":"b825cc48-1e3d-4178-93f6-8fb4d03247ce","system_id":"levelo_inurba_marseille","lat":43.30351,"lon":5.41886,"is_reserved":false,"is_disabled":false,"rental_uris":{"android":"levelo://app?vid=b825cc48-1e3d-4178-93f6-8fb4d03247ce","ios":"levelo://app?vid=b825cc48-1e3d-4178-93f6-8fb4d03247ce"},"vehicle_type_id":"4","last_reported":1685307938,"current_range_meters":0,"station_id":"ce4bhop2rcd13ifvqh7g","pricing_plan_id":"free"},{"bike_id":"91b49189-18df-431a-bbbf-f0b2350181de","system_id":"levelo_inurba_marseille","lat":43.28425,"lon":5.40793,"is_reserved":false,"is_disabled":false,"rental_uris":{"android":"levelo://app?vid=91b49189-18df-431a-bbbf-f0b2350181de","ios":"levelo://app?vid=91b49189-18df-431a-bbbf-f0b2350181de"},"vehicle_type_id":"4","last_reported":1685307938,"current_range_meters":6000,"station_id":"","pricing_plan_id":"free"},{"bike_id":"6b586849-4cb2-4f0c-a6d8-7549b3a03b77","system_id":"levelo_inurba_marseille","lat":43.310785,"lon":5.424305,"is_reserved":false,"is_disabled":false,"rental_uris":{"android":"levelo://app?vid=6b586849-4cb2-4f0c-a6d8-7549b3a03b77","ios":"levelo://app?vid=6b586849-4cb2-4f0c-a6d8-7549b3a03b77"},"vehicle_type_id":"4","last_reported":1685307938,"current_range_meters":21600,"station_id":"ce4bhp92rcd13ifvqhag","pricing_plan_id":"free"},{"bike_id":"61975327-2901-4c46-99c0-45dcaddab9b1","system_id":"levelo_inurba_marseille","lat":43.27305,"lon":5.39098,"is_reserved":false,"is_disabled":false,"rental_uris":{"android":"levelo://app?vid=61975327-2901-4c46-99c0-45dcaddab9b1","ios":"levelo://app?vid=61975327-2901-4c46-99c0-45dcaddab9b1"},"vehicle_type_id":"4","last_reported":1685307938,"current_range_meters":0,"station_id":"ce4bhgp2rcd13ifvqfe0","pricing_plan_id":"free"},{"bike_id":"d7edb3f7-2835-4cf2-afc5-0c212fb31f47","system_id":"levelo_inurba_marseille","lat":43.295511,"lon":5.422926,"is_reserved":false,"is_disabled":false,"rental_uris":{"android":"levelo://app?vid=d7edb3f7-2835-4cf2-afc5-0c212fb31f47","ios":"levelo://app?vid=d7edb3f7-2835-4cf2-afc5-0c212fb31f47"},"vehicle_type_id":"4","last_reported":1685307938,"current_range_meters":31200,"station_id":"ce4bhph2rcd13ifvqhdg","pricing_plan_id":"free"},{"bike_id":"a429b482-454d-4125-b3ab-2aedb91094d1","system_id":"levelo_inurba_marseille","lat":43.295511,"lon":5.422926,"is_reserved":false,"is_disabled":false,"rental_uris":{"android":"levelo://app?vid=a429b482-454d-4125-b3ab-2aedb91094d1","ios":"levelo://app?vid=a429b482-454d-4125-b3ab-2aedb91094d1"},"vehicle_type_id":"4","last_reported":1685307938,"current_range_meters":31200,"station_id":"ce4bhph2rcd13ifvqhdg","pricing_plan_id":"free"},{"bike_id":"e8d5d038-d156-4c5d-a4c5-fcc86b0b6f20","system_id":"levelo_inurba_marseille","lat":43.295511,"lon":5.422926,"is_reserved":false,"is_disabled":false,"rental_uris":{"android":"levelo://app?vid=e8d5d038-d156-4c5d-a4c5-fcc86b0b6f20","ios":"levelo://app?vid=e8d5d038-d156-4c5d-a4c5-fcc86b0b6f20"},"vehicle_type_id":"4","last_reported":1685307938,"current_range_meters":31200,"station_id":"ce4bhph2rcd13ifvqhdg","pricing_plan_id":"free"},{"bike_id":"29dd7db9-268d-4e11-9de5-f9528bcd0c2c","system_id":"levelo_inurba_marseille","lat":43.295511,"lon":5.422926,"is_reserved":false,"is_disabled":false,"rental_uris":{"android":"levelo://app?vid=29dd7db9-268d-4e11-9de5-f9528bcd0c2c","ios":"levelo://app?vid=29dd7db9-268d-4e11-9de5-f9528bcd0c2c"},"vehicle_type_id":"4","last_reported":1685307938,"current_range_meters":31200,"station_id":"ce4bhph2rcd13ifvqhdg","pricing_plan_id":"free"},{"bike_id":"04dbe87a-9ea3-49d9-8213-69e6a662c5ba","system_id":"levelo_inurba_marseille","lat":43.272118,"lon":5.391758,"is_reserved":false,"is_disabled":false,"rental_uris":{"android":"levelo://app?vid=04dbe87a-9ea3-49d9-8213-69e6a662c5ba","ios":"levelo://app?vid=04dbe87a-9ea3-49d9-8213-69e6a662c5ba"},"vehicle_type_id":"4","last_reported":1685307938,"current_range_meters":0,"station_id":"ce4bhhp2rcd13ifvqfm0","pricing_plan_id":"free"},{"bike_id":"ac609e10-d141-4125-9ba6-a2dc58cbb554","system_id":"levelo_inurba_marseille","lat":43.278128,"lon":5.407195,"is_reserved":false,"is_disabled":false,"rental_uris":{"android":"levelo://app?vid=ac609e10-d141-4125-9ba6-a2dc58cbb554","ios":"levelo://app?vid=ac609e10-d141-4125-9ba6-a2dc58cbb554"},"vehicle_type_id":"4","last_reported":1685307938,"current_range_meters":28000,"station_id":"ce4bhnh2rcd13ifvqgtg","pricing_plan_id":"free"},{"bike_id":"74cd27aa-4d0c-45fb-9b0d-91af531b00ed","system_id":"levelo_inurba_marseille","lat":43.26545,"lon":5.37287,"is_reserved":false,"is_disabled":false,"rental_uris":{"android":"levelo://app?vid=74cd27aa-4d0c-45fb-9b0d-91af531b00ed","ios":"levelo://app?vid=74cd27aa-4d0c-45fb-9b0d-91af531b00ed"},"vehicle_type_id":"4","last_reported":1685307938,"current_range_meters":17200,"station_id":"","pricing_plan_id":"free"},{"bike_id":"97f92444-dc7f-4ac8-885e-43ac50454dc0","system_id":"levelo_inurba_marseille","lat":43.31679,"lon":5.43328,"is_reserved":false,"is_disabled":false,"rental_uris":{"android":"levelo://app?vid=97f92444-dc7f-4ac8-885e-43ac50454dc0","ios":"levelo://app?vid=97f92444-dc7f-4ac8-885e-43ac50454dc0"},"vehicle_type_id":"4","last_reported":1685307938,"current_range_meters":0,"station_id":"","pricing_plan_id":"free"},{"bike_id":"e065ceaf-3d4c-4df5-ab28-155e7ac2b139","system_id":"levelo_inurba_marseille","lat":43.28,"lon":5.41634,"is_reserved":false,"is_disabled":false,"rental_uris":{"android":"levelo://app?vid=e065ceaf-3d4c-4df5-ab28-155e7ac2b139","ios":"levelo://app?vid=e065ceaf-3d4c-4df5-ab28-155e7ac2b139"},"vehicle_type_id":"4","last_reported":1685307938,"current_range_meters":0,"station_id":"ce4bho12rcd13ifvqh1g","pricing_plan_id":"free"},{"bike_id":"6aab6e46-e1ef-44ec-9505-7a007ad16986","system_id":"levelo_inurba_marseille","lat":43.27996,"lon":5.416624,"is_reserved":false,"is_disabled":false,"rental_uris":{"android":"levelo://app?vid=6aab6e46-e1ef-44ec-9505-7a007ad16986","ios":"levelo://app?vid=6aab6e46-e1ef-44ec-9505-7a007ad16986"},"vehicle_type_id":"4","last_reported":1685307938,"current_range_meters":30800,"station_id":"ce4bho12rcd13ifvqh1g","pricing_plan_id":"free"},{"bike_id":"a659b602-d511-4ec0-a0d4-2ab3cf469a06","system_id":"levelo_inurba_marseille","lat":43.27996,"lon":5.416624,"is_reserved":false,"is_disabled":false,"rental_uris":{"android":"levelo://app?vid=a659b602-d511-4ec0-a0d4-2ab3cf469a06","ios":"levelo://app?vid=a659b602-d511-4ec0-a0d4-2ab3cf469a06"},"vehicle_type_id":"4","last_reported":1685307938,"current_range_meters":28400,"station_id":"ce4bho12rcd13ifvqh1g","pricing_plan_id":"free"},{"bike_id":"7291c008-ed8b-483d-aab7-eb661f22d003","system_id":"levelo_inurba_marseille","lat":43.27996,"lon":5.416624,"is_reserved":false,"is_disabled":false,"rental_uris":{"android":"levelo://app?vid=7291c008-ed8b-483d-aab7-eb661f22d003","ios":"levelo://app?vid=7291c008-ed8b-483d-aab7-eb661f22d003"},"vehicle_type_id":"4","last_reported":1685307938,"current_range_meters":31200,"station_id":"ce4bho12rcd13ifvqh1g","pricing_plan_id":"free"},{"bike_id":"bf0a4fea-7809-40b4-8956-63748b5949a9","system_id":"levelo_inurba_marseille","lat":43.27996,"lon":5.416624,"is_reserved":false,"is_disabled":false,"rental_uris":{"android":"levelo://app?vid=bf0a4fea-7809-40b4-8956-63748b5949a9","ios":"levelo://app?vid=bf0a4fea-7809-40b4-8956-63748b5949a9"},"vehicle_type_id":"4","last_reported":1685307938,"current_range_meters":31200,"station_id":"ce4bho12rcd13ifvqh1g","pricing_plan_id":"free"},{"bike_id":"d7cd0521-c2f9-432e-8c89-91d84408c1b8","system_id":"levelo_inurba_marseille","lat":43.27996,"lon":5.416624,"is_reserved":false,"is_disabled":false,"rental_uris":{"android":"levelo://app?vid=d7cd0521-c2f9-432e-8c89-91d84408c1b8","ios":"levelo://app?vid=d7cd0521-c2f9-432e-8c89-91d84408c1b8"},"vehicle_type_id":"4","last_reported":1685307938,"current_range_meters":31200,"station_id":"ce4bho12rcd13ifvqh1g","pricing_plan_id":"free"},{"bike_id":"6e6b95fc-e713-4b84-8105-eded30a86af8","system_id":"levelo_inurba_marseille","lat":43.267966,"lon":5.393976,"is_reserved":false,"is_disabled":false,"rental_uris":{"android":"levelo://app?vid=6e6b95fc-e713-4b84-8105-eded30a86af8","ios":"levelo://app?vid=6e6b95fc-e713-4b84-8105-eded30a86af8"},"vehicle_type_id":"4","last_reported":1685307938,"current_range_meters":2400,"station_id":"ce4bhh12rcd13ifvqfg0","pricing_plan_id":"free"},{"bike_id":"5121cabb-44e7-48bb-b3e7-1d730b74096f","system_id":"levelo_inurba_marseille","lat":43.267966,"lon":5.393976,"is_reserved":false,"is_disabled":false,"rental_uris":{"android":"levelo://app?vid=5121cabb-44e7-48bb-b3e7-1d730b74096f","ios":"levelo://app?vid=5121cabb-44e7-48bb-b3e7-1d730b74096f"},"vehicle_type_id":"4","last_reported":1685307938,"current_range_meters":13200,"station_id":"ce4bhh12rcd13ifvqfg0","pricing_plan_id":"free"},{"bike_id":"b8e07922-f074-4378-9c0d-0a256de36fe0","system_id":"levelo_inurba_marseille","lat":43.308,"lon":5.43522,"is_reserved":false,"is_disabled":false,"rental_uris":{"android":"levelo://app?vid=b8e07922-f074-4378-9c0d-0a256de36fe0","ios":"levelo://app?vid=b8e07922-f074-4378-9c0d-0a256de36fe0"},"vehicle_type_id":"4","last_reported":1685307938,"current_range_meters":12400,"station_id":"","pricing_plan_id":"free"},{"bike_id":"c16352f9-c9b9-4b9a-9086-c8518e5fdde4","system_id":"levelo_inurba_marseille","lat":43.317104,"lon":5.436818,"is_reserved":false,"is_disabled":false,"rental_uris":{"android":"levelo://app?vid=c16352f9-c9b9-4b9a-9086-c8518e5fdde4","ios":"levelo://app?vid=c16352f9-c9b9-4b9a-9086-c8518e5fdde4"},"vehicle_type_id":"4","last_reported":1685307938,"current_range_meters":9200,"station_id":"ce4bhp92rcd13ifvqhcg","pricing_plan_id":"free"},{"bike_id":"36f97a6f-2c3a-4acc-b923-b69678420acc","system_id":"levelo_inurba_marseille","lat":43.26203,"lon":5.37925,"is_reserved":false,"is_disabled":false,"rental_uris":{"android":"levelo://app?vid=36f97a6f-2c3a-4acc-b923-b69678420acc","ios":"levelo://app?vid=36f97a6f-2c3a-4acc-b923-b69678420acc"},"vehicle_type_id":"4","last_reported":1685307938,"current_range_meters":0,"station_id":"ce4bhjp2rcd13ifvqg90","pricing_plan_id":"free"},{"bike_id":"760bfc38-e96f-40b9-8091-70e7d4460480","system_id":"levelo_inurba_marseille","lat":43.26195,"lon":5.37927,"is_reserved":false,"is_disabled":false,"rental_uris":{"android":"levelo://app?vid=760bfc38-e96f-40b9-8091-70e7d4460480","ios":"levelo://app?vid=760bfc38-e96f-40b9-8091-70e7d4460480"},"vehicle_type_id":"4","last_reported":1685307938,"current_range_meters":0,"station_id":"ce4bhjp2rcd13ifvqg90","pricing_plan_id":"free"},{"bike_id":"df86ea7d-4abf-4c0f-abed-07b5d4036757","system_id":"levelo_inurba_marseille","lat":43.271388,"lon":5.409269,"is_reserved":false,"is_disabled":false,"rental_uris":{"android":"levelo://app?vid=df86ea7d-4abf-4c0f-abed-07b5d4036757","ios":"levelo://app?vid=df86ea7d-4abf-4c0f-abed-07b5d4036757"},"vehicle_type_id":"4","last_reported":1685307938,"current_range_meters":29200,"station_id":"ce4bhl12rcd13ifvqgf0","pricing_plan_id":"free"},{"bike_id":"933f42be-453b-4f51-8fc5-139da5459b29","system_id":"levelo_inurba_marseille","lat":43.28163,"lon":5.42514,"is_reserved":false,"is_disabled":false,"rental_uris":{"android":"levelo://app?vid=933f42be-453b-4f51-8fc5-139da5459b29","ios":"levelo://app?vid=933f42be-453b-4f51-8fc5-139da5459b29"},"vehicle_type_id":"4","last_reported":1685307938,"current_range_meters":4000,"station_id":"","pricing_plan_id":"free"},{"bike_id":"6b404443-757b-4b8d-9a78-a03ca59013fb","system_id":"levelo_inurba_marseille","lat":43.2592,"lon":5.37283,"is_reserved":false,"is_disabled":false,"rental_uris":{"android":"levelo://app?vid=6b404443-757b-4b8d-9a78-a03ca59013fb","ios":"levelo://app?vid=6b404443-757b-4b8d-9a78-a03ca59013fb"},"vehicle_type_id":"4","last_reported":1685307938,"current_range_meters":9200,"station_id":"","pricing_plan_id":"free"},{"bike_id":"81741802-00fa-467a-ad20-fa12dad59a48","system_id":"levelo_inurba_marseille","lat":43.2607,"lon":5.393983,"is_reserved":false,"is_disabled":false,"rental_uris":{"android":"levelo://app?vid=81741802-00fa-467a-ad20-fa12dad59a48","ios":"levelo://app?vid=81741802-00fa-467a-ad20-fa12dad59a48"},"vehicle_type_id":"4","last_reported":1685307938,"current_range_meters":16000,"station_id":"ce4bhh92rcd13ifvqfj0","pricing_plan_id":"free"},{"bike_id":"b0ea9451-70ee-440a-ae23-470f4f6ac057","system_id":"levelo_inurba_marseille","lat":43.260909,"lon":5.397591,"is_reserved":false,"is_disabled":false,"rental_uris":{"android":"levelo://app?vid=b0ea9451-70ee-440a-ae23-470f4f6ac057","ios":"levelo://app?vid=b0ea9451-70ee-440a-ae23-470f4f6ac057"},"vehicle_type_id":"4","last_reported":1685307938,"current_range_meters":3200,"station_id":"ce4bhi12rcd13ifvqfq0","pricing_plan_id":"free"},{"bike_id":"21a94e83-2bcf-4902-8a6a-85407ac0d3c9","system_id":"levelo_inurba_marseille","lat":43.254952,"lon":5.376471,"is_reserved":false,"is_disabled":false,"rental_uris":{"android":"levelo://app?vid=21a94e83-2bcf-4902-8a6a-85407ac0d3c9","ios":"levelo://app?vid=21a94e83-2bcf-4902-8a6a-85407ac0d3c9"},"vehicle_type_id":"4","last_reported":1685307938,"current_range_meters":0,"station_id":"","pricing_plan_id":"free"},{"bike_id":"b540a9e6-4ea8-44fd-8cc9-9e347866723e","system_id":"levelo_inurba_marseille","lat":43.270721,"lon":5.422764,"is_reserved":false,"is_disabled":false,"rental_uris":{"android":"levelo://app?vid=b540a9e6-4ea8-44fd-8cc9-9e347866723e","ios":"levelo://app?vid=b540a9e6-4ea8-44fd-8cc9-9e347866723e"},"vehicle_type_id":"4","last_reported":1685307938,"current_range_meters":31200,"station_id":"ce4bhk92rcd13ifvqgb0","pricing_plan_id":"free"},{"bike_id":"6e51d88c-8fa3-4680-ba4d-a1ddf8e06ff8","system_id":"levelo_inurba_marseille","lat":43.270721,"lon":5.422764,"is_reserved":false,"is_disabled":false,"rental_uris":{"android":"levelo://app?vid=6e51d88c-8fa3-4680-ba4d-a1ddf8e06ff8","ios":"levelo://app?vid=6e51d88c-8fa3-4680-ba4d-a1ddf8e06ff8"},"vehicle_type_id":"4","last_reported":1685307938,"current_range_meters":31200,"station_id":"ce4bhk92rcd13ifvqgb0","pricing_plan_id":"free"},{"bike_id":"f70601b2-90d1-4791-8127-007efe8e864b","system_id":"levelo_inurba_marseille","lat":43.270721,"lon":5.422764,"is_reserved":false,"is_disabled":false,"rental_uris":{"android":"levelo://app?vid=f70601b2-90d1-4791-8127-007efe8e864b","ios":"levelo://app?vid=f70601b2-90d1-4791-8127-007efe8e864b"},"vehicle_type_id":"4","last_reported":1685307938,"current_range_meters":31200,"station_id":"ce4bhk92rcd13ifvqgb0","pricing_plan_id":"free"},{"bike_id":"69a5ecd5-d1b4-46d1-8414-bd8a28d22556","system_id":"levelo_inurba_marseille","lat":43.270721,"lon":5.422764,"is_reserved":false,"is_disabled":false,"rental_uris":{"android":"levelo://app?vid=69a5ecd5-d1b4-46d1-8414-bd8a28d22556","ios":"levelo://app?vid=69a5ecd5-d1b4-46d1-8414-bd8a28d22556"},"vehicle_type_id":"4","last_reported":1685307938,"current_range_meters":31200,"station_id":"ce4bhk92rcd13ifvqgb0","pricing_plan_id":"free"},{"bike_id":"07197c27-49e4-4c65-aea3-184a56157b42","system_id":"levelo_inurba_marseille","lat":43.270721,"lon":5.422764,"is_reserved":false,"is_disabled":false,"rental_uris":{"android":"levelo://app?vid=07197c27-49e4-4c65-aea3-184a56157b42","ios":"levelo://app?vid=07197c27-49e4-4c65-aea3-184a56157b42"},"vehicle_type_id":"4","last_reported":1685307938,"current_range_meters":31200,"station_id":"ce4bhk92rcd13ifvqgb0","pricing_plan_id":"free"},{"bike_id":"235d610b-1691-453d-a9b3-720afabdcb53","system_id":"levelo_inurba_marseille","lat":43.271368,"lon":5.40928,"is_reserved":false,"is_disabled":false,"rental_uris":{"android":"levelo://app?vid=235d610b-1691-453d-a9b3-720afabdcb53","ios":"levelo://app?vid=235d610b-1691-453d-a9b3-720afabdcb53"},"vehicle_type_id":"4","last_reported":1685307938,"current_range_meters":23200,"station_id":"ce4bhl12rcd13ifvqgf0","pricing_plan_id":"free"},{"bike_id":"b20ba745-0494-4f3f-b887-31cd8f6f48f0","system_id":"levelo_inurba_marseille","lat":43.258658,"lon":5.398935,"is_reserved":false,"is_disabled":false,"rental_uris":{"android":"levelo://app?vid=b20ba745-0494-4f3f-b887-31cd8f6f48f0","ios":"levelo://app?vid=b20ba745-0494-4f3f-b887-31cd8f6f48f0"},"vehicle_type_id":"4","last_reported":1685307938,"current_range_meters":4000,"station_id":"ce4bhl92rcd13ifvqghg","pricing_plan_id":"free"},{"bike_id":"fe3fc893-b7b8-428c-99e0-e4de8a3e87e7","system_id":"levelo_inurba_marseille","lat":43.25102,"lon":5.403214,"is_reserved":false,"is_disabled":false,"rental_uris":{"android":"levelo://app?vid=fe3fc893-b7b8-428c-99e0-e4de8a3e87e7","ios":"levelo://app?vid=fe3fc893-b7b8-428c-99e0-e4de8a3e87e7"},"vehicle_type_id":"4","last_reported":1685307938,"current_range_meters":0,"station_id":"ce4bhlh2rcd13ifvqgig","pricing_plan_id":"free"},{"bike_id":"17ef26ac-7128-4f37-adb6-a2acd52cbb52","system_id":"levelo_inurba_marseille","lat":43.246467,"lon":5.388984,"is_reserved":false,"is_disabled":false,"rental_uris":{"android":"levelo://app?vid=17ef26ac-7128-4f37-adb6-a2acd52cbb52","ios":"levelo://app?vid=17ef26ac-7128-4f37-adb6-a2acd52cbb52"},"vehicle_type_id":"4","last_reported":1685307938,"current_range_meters":11600,"station_id":"ce4bhg12rcd13ifvqf60","pricing_plan_id":"free"},{"bike_id":"24fb4b69-2e63-47ee-bf98-1a9a16683dcc","system_id":"levelo_inurba_marseille","lat":43.24083,"lon":5.3776,"is_reserved":false,"is_disabled":false,"rental_uris":{"android":"levelo://app?vid=24fb4b69-2e63-47ee-bf98-1a9a16683dcc","ios":"levelo://app?vid=24fb4b69-2e63-47ee-bf98-1a9a16683dcc"},"vehicle_type_id":"4","last_reported":1685307938,"current_range_meters":26800,"station_id":"","pricing_plan_id":"free"},{"bike_id":"cbbd08c5-0253-46f1-872a-15def88c8d47","system_id":"levelo_inurba_marseille","lat":43.24082,"lon":5.37756,"is_reserved":false,"is_disabled":false,"rental_uris":{"android":"levelo://app?vid=cbbd08c5-0253-46f1-872a-15def88c8d47","ios":"levelo://app?vid=cbbd08c5-0253-46f1-872a-15def88c8d47"},"vehicle_type_id":"4","last_reported":1685307938,"current_range_meters":20400,"station_id":"","pricing_plan_id":"free"},{"bike_id":"936357a5-48fc-44ea-a059-3fbf2761c020","system_id":"levelo_inurba_marseille","lat":43.24079,"lon":5.37756,"is_reserved":false,"is_disabled":false,"rental_uris":{"android":"levelo://app?vid=936357a5-48fc-44ea-a059-3fbf2761c020","ios":"levelo://app?vid=936357a5-48fc-44ea-a059-3fbf2761c020"},"vehicle_type_id":"4","last_reported":1685307938,"current_range_meters":28400,"station_id":"","pricing_plan_id":"free"},{"bike_id":"a7496784-6a6e-438b-982b-361a84d337d6","system_id":"levelo_inurba_marseille","lat":43.24079,"lon":5.37762,"is_reserved":false,"is_disabled":false,"rental_uris":{"android":"levelo://app?vid=a7496784-6a6e-438b-982b-361a84d337d6","ios":"levelo://app?vid=a7496784-6a6e-438b-982b-361a84d337d6"},"vehicle_type_id":"4","last_reported":1685307938,"current_range_meters":28000,"station_id":"","pricing_plan_id":"free"},{"bike_id":"781bbd6d-69b8-4c01-8b47-26f094642a9f","system_id":"levelo_inurba_marseille","lat":43.24078,"lon":5.3775,"is_reserved":false,"is_disabled":false,"rental_uris":{"android":"levelo://app?vid=781bbd6d-69b8-4c01-8b47-26f094642a9f","ios":"levelo://app?vid=781bbd6d-69b8-4c01-8b47-26f094642a9f"},"vehicle_type_id":"4","last_reported":1685307938,"current_range_meters":10000,"station_id":"","pricing_plan_id":"free"},{"bike_id":"3f0a9dc9-0509-4c14-9cde-4da06b6fe1a3","system_id":"levelo_inurba_marseille","lat":43.24078,"lon":5.37751,"is_reserved":false,"is_disabled":false,"rental_uris":{"android":"levelo://app?vid=3f0a9dc9-0509-4c14-9cde-4da06b6fe1a3","ios":"levelo://app?vid=3f0a9dc9-0509-4c14-9cde-4da06b6fe1a3"},"vehicle_type_id":"4","last_reported":1685307938,"current_range_meters":10400,"station_id":"","pricing_plan_id":"free"},{"bike_id":"ceca2ac0-fad6-49a0-803a-c9d0b85268fd","system_id":"levelo_inurba_marseille","lat":43.24078,"lon":5.37755,"is_reserved":false,"is_disabled":false,"rental_uris":{"android":"levelo://app?vid=ceca2ac0-fad6-49a0-803a-c9d0b85268fd","ios":"levelo://app?vid=ceca2ac0-fad6-49a0-803a-c9d0b85268fd"},"vehicle_type_id":"4","last_reported":1685307938,"current_range_meters":29600,"station_id":"","pricing_plan_id":"free"},{"bike_id":"3c0fb543-7d5f-4ba2-a741-510a465558d5","system_id":"levelo_inurba_marseille","lat":43.24077,"lon":5.37744,"is_reserved":false,"is_disabled":false,"rental_uris":{"android":"levelo://app?vid=3c0fb543-7d5f-4ba2-a741-510a465558d5","ios":"levelo://app?vid=3c0fb543-7d5f-4ba2-a741-510a465558d5"},"vehicle_type_id":"4","last_reported":1685307938,"current_range_meters":28800,"station_id":"","pricing_plan_id":"free"},{"bike_id":"e0f8d820-f6b0-4427-91e6-b251bd50dfb6","system_id":"levelo_inurba_marseille","lat":43.24077,"lon":5.37744,"is_reserved":false,"is_disabled":false,"rental_uris":{"android":"levelo://app?vid=e0f8d820-f6b0-4427-91e6-b251bd50dfb6","ios":"levelo://app?vid=e0f8d820-f6b0-4427-91e6-b251bd50dfb6"},"vehicle_type_id":"4","last_reported":1685307938,"current_range_meters":17600,"station_id":"","pricing_plan_id":"free"},{"bike_id":"375bea00-7535-40cf-9db3-726053b2716a","system_id":"levelo_inurba_marseille","lat":43.24077,"lon":5.37748,"is_reserved":false,"is_disabled":false,"rental_uris":{"android":"levelo://app?vid=375bea00-7535-40cf-9db3-726053b2716a","ios":"levelo://app?vid=375bea00-7535-40cf-9db3-726053b2716a"},"vehicle_type_id":"4","last_reported":1685307938,"current_range_meters":27200,"station_id":"","pricing_plan_id":"free"},{"bike_id":"9e2be43e-190b-4cc5-8721-cc57121f2777","system_id":"levelo_inurba_marseille","lat":43.24077,"lon":5.37752,"is_reserved":false,"is_disabled":false,"rental_uris":{"android":"levelo://app?vid=9e2be43e-190b-4cc5-8721-cc57121f2777","ios":"levelo://app?vid=9e2be43e-190b-4cc5-8721-cc57121f2777"},"vehicle_type_id":"4","last_reported":1685307938,"current_range_meters":28000,"station_id":"","pricing_plan_id":"free"},{"bike_id":"390dd92b-1f46-4e43-bd1b-3682ea0b00ca","system_id":"levelo_inurba_marseille","lat":43.24076,"lon":5.37748,"is_reserved":false,"is_disabled":false,"rental_uris":{"android":"levelo://app?vid=390dd92b-1f46-4e43-bd1b-3682ea0b00ca","ios":"levelo://app?vid=390dd92b-1f46-4e43-bd1b-3682ea0b00ca"},"vehicle_type_id":"4","last_reported":1685307938,"current_range_meters":9200,"station_id":"","pricing_plan_id":"free"},{"bike_id":"5a6ad831-7e21-4769-aa74-86357a481a4a","system_id":"levelo_inurba_marseille","lat":43.241782,"lon":5.397261,"is_reserved":false,"is_disabled":false,"rental_uris":{"android":"levelo://app?vid=5a6ad831-7e21-4769-aa74-86357a481a4a","ios":"levelo://app?vid=5a6ad831-7e21-4769-aa74-86357a481a4a"},"vehicle_type_id":"4","last_reported":1685307938,"current_range_meters":4400,"station_id":"ce4bhn12rcd13ifvqgpg","pricing_plan_id":"free"},{"bike_id":"621982c5-7b25-400f-aa65-4fe7485cff67","system_id":"levelo_inurba_marseille","lat":43.30382,"lon":5.4747,"is_reserved":false,"is_disabled":false,"rental_uris":{"android":"levelo://app?vid=621982c5-7b25-400f-aa65-4fe7485cff67","ios":"levelo://app?vid=621982c5-7b25-400f-aa65-4fe7485cff67"},"vehicle_type_id":"4","last_reported":1685307938,"current_range_meters":28800,"station_id":"","pricing_plan_id":"free"},{"bike_id":"67b77559-a903-49c5-9f37-4b2143617b52","system_id":"levelo_inurba_marseille","lat":43.23189,"lon":5.39978,"is_reserved":false,"is_disabled":false,"rental_uris":{"android":"levelo://app?vid=67b77559-a903-49c5-9f37-4b2143617b52","ios":"levelo://app?vid=67b77559-a903-49c5-9f37-4b2143617b52"},"vehicle_type_id":"4","last_reported":1685307938,"current_range_meters":31200,"station_id":"ce4bhn12rcd13ifvqgqg","pricing_plan_id":"free"},{"bike_id":"9b868617-b176-4e5b-bbf3-d168630e1c9d","system_id":"levelo_inurba_marseille","lat":43.2319,"lon":5.39994,"is_reserved":false,"is_disabled":false,"rental_uris":{"android":"levelo://app?vid=9b868617-b176-4e5b-bbf3-d168630e1c9d","ios":"levelo://app?vid=9b868617-b176-4e5b-bbf3-d168630e1c9d"},"vehicle_type_id":"4","last_reported":1685307938,"current_range_meters":31200,"station_id":"ce4bhn12rcd13ifvqgqg","pricing_plan_id":"free"},{"bike_id":"523054a1-6a41-4d05-9039-d135dd68ad8d","system_id":"levelo_inurba_marseille","lat":43.23186,"lon":5.39986,"is_reserved":false,"is_disabled":false,"rental_uris":{"android":"levelo://app?vid=523054a1-6a41-4d05-9039-d135dd68ad8d","ios":"levelo://app?vid=523054a1-6a41-4d05-9039-d135dd68ad8d"},"vehicle_type_id":"4","last_reported":1685307938,"current_range_meters":31200,"station_id":"ce4bhn12rcd13ifvqgqg","pricing_plan_id":"free"},{"bike_id":"19780742-7429-46d5-8a21-489604e7e458","system_id":"levelo_inurba_marseille","lat":43.231793,"lon":5.400044,"is_reserved":false,"is_disabled":false,"rental_uris":{"android":"levelo://app?vid=19780742-7429-46d5-8a21-489604e7e458","ios":"levelo://app?vid=19780742-7429-46d5-8a21-489604e7e458"},"vehicle_type_id":"4","last_reported":1685307938,"current_range_meters":30800,"station_id":"ce4bhn12rcd13ifvqgqg","pricing_plan_id":"free"},{"bike_id":"a7fbfb05-3a72-4dea-b5c9-12ad7997a8ad","system_id":"levelo_inurba_marseille","lat":43.23184,"lon":5.39989,"is_reserved":false,"is_disabled":false,"rental_uris":{"android":"levelo://app?vid=a7fbfb05-3a72-4dea-b5c9-12ad7997a8ad","ios":"levelo://app?vid=a7fbfb05-3a72-4dea-b5c9-12ad7997a8ad"},"vehicle_type_id":"4","last_reported":1685307938,"current_range_meters":28800,"station_id":"ce4bhn12rcd13ifvqgqg","pricing_plan_id":"free"},{"bike_id":"95832486-4dae-4689-9c6a-056a60f31c53","system_id":"levelo_inurba_marseille","lat":43.231793,"lon":5.400044,"is_reserved":false,"is_disabled":false,"rental_uris":{"android":"levelo://app?vid=95832486-4dae-4689-9c6a-056a60f31c53","ios":"levelo://app?vid=95832486-4dae-4689-9c6a-056a60f31c53"},"vehicle_type_id":"4","last_reported":1685307938,"current_range_meters":31200,"station_id":"ce4bhn12rcd13ifvqgqg","pricing_plan_id":"free"},{"bike_id":"b35c0da7-330d-4e9e-bd1e-9d0408c664b3","system_id":"levelo_inurba_marseille","lat":43.23182,"lon":5.39997,"is_reserved":false,"is_disabled":false,"rental_uris":{"android":"levelo://app?vid=b35c0da7-330d-4e9e-bd1e-9d0408c664b3","ios":"levelo://app?vid=b35c0da7-330d-4e9e-bd1e-9d0408c664b3"},"vehicle_type_id":"4","last_reported":1685307938,"current_range_meters":31200,"station_id":"ce4bhn12rcd13ifvqgqg","pricing_plan_id":"free"},{"bike_id":"ae1dde4d-2bf3-4075-a27d-5c93c15f8c70","system_id":"levelo_inurba_marseille","lat":43.23182,"lon":5.39997,"is_reserved":false,"is_disabled":false,"rental_uris":{"android":"levelo://app?vid=ae1dde4d-2bf3-4075-a27d-5c93c15f8c70","ios":"levelo://app?vid=ae1dde4d-2bf3-4075-a27d-5c93c15f8c70"},"vehicle_type_id":"4","last_reported":1685307938,"current_range_meters":25600,"station_id":"ce4bhn12rcd13ifvqgqg","pricing_plan_id":"free"},{"bike_id":"ddeb217c-c36f-4d9f-a6b7-591bb633c619","system_id":"levelo_inurba_marseille","lat":43.23179,"lon":5.39987,"is_reserved":false,"is_disabled":false,"rental_uris":{"android":"levelo://app?vid=ddeb217c-c36f-4d9f-a6b7-591bb633c619","ios":"levelo://app?vid=ddeb217c-c36f-4d9f-a6b7-591bb633c619"},"vehicle_type_id":"4","last_reported":1685307938,"current_range_meters":31200,"station_id":"ce4bhn12rcd13ifvqgqg","pricing_plan_id":"free"},{"bike_id":"d0b52e7f-623a-4470-b0bc-03da6c1e273a","system_id":"levelo_inurba_marseille","lat":43.2318,"lon":5.39995,"is_reserved":false,"is_disabled":false,"rental_uris":{"android":"levelo://app?vid=d0b52e7f-623a-4470-b0bc-03da6c1e273a","ios":"levelo://app?vid=d0b52e7f-623a-4470-b0bc-03da6c1e273a"},"vehicle_type_id":"4","last_reported":1685307938,"current_range_meters":14000,"station_id":"ce4bhn12rcd13ifvqgqg","pricing_plan_id":"free"},{"bike_id":"56230511-dc5b-4d08-9a00-988f627fae27","system_id":"levelo_inurba_marseille","lat":43.23176,"lon":5.39993,"is_reserved":false,"is_disabled":false,"rental_uris":{"android":"levelo://app?vid=56230511-dc5b-4d08-9a00-988f627fae27","ios":"levelo://app?vid=56230511-dc5b-4d08-9a00-988f627fae27"},"vehicle_type_id":"4","last_reported":1685307938,"current_range_meters":31200,"station_id":"ce4bhn12rcd13ifvqgqg","pricing_plan_id":"free"}]}}