{"last_updated":1692900512,"ttl":30,"version":"2.2","data":{"bikes":[{"bike_id":"65674239-bfb7-4928-84de-b7277febf7c2","system_id":"levelo_inurba_marseille","lat":43.312239,"lon":5.368562,"is_reserved":false,"is_disabled":false,"rental_uris":{"android":"levelo://app?vid=65674239-bfb7-4928-84de-b7277febf7c2","ios":"levelo://app?vid=65674239-bfb7-4928-84de-b7277febf7c2"},"vehicle_type_id":"4","last_reported":1692900512,"current_range_meters":28400,"station_id":"ce4bgl92rcd13ifvqbq0","pricing_plan_id":"free"},{"bike_id":"f22ca441-4e4e-4660-b824-b2f46943e54d","system_id":"levelo_inurba_marseille","lat":43.312239,"lon":5.368562,"is_reserved":false,"is_disabled":false,"rental_uris":{"android":"levelo://app?vid=f22ca441-4e4e-4660-b824-b2f46943e54d","ios":"levelo://app?vid=f22ca441-4e4e-4660-b824-b2f46943e54d"},"vehicle_type_id":"4","last_reported":1692900512,"current_range_meters":31200,"station_id":"ce4bgl92rcd13ifvqbq0","pricing_plan_id":"free"},{"bike_id":"d2be997d-44d2-40a5-bb20-02aeaaf65fa5","system_id":"levelo_inurba_marseille","lat":43.314811,"lon":5.373103,"is_reserved":false,"is_disabled":false,"rental_uris":{"android":"levelo://app?vid=d2be997d-44d2-40a5-bb20-02aeaaf65fa5","ios":"levelo://app?vid=d2be997d-44d2-40a5-bb20-02aeaaf65fa5"},"vehicle_type_id":"4","last_reported":1692900512,"current_range_meters":30400,"station_id":"ce4bgt12rcd13ifvqcd0","pricing_plan_id":"free"},{"bike_id":"3661e5f6-9474-422f-abac-e9bf1d884c16","system_id":"levelo_inurba_marseille","lat":43.31537,"lon":5.3803,"is_reserved":false,"is_disabled":false,"rental_uris":{"android":"levelo://app?vid=3661e5f6-9474-422f-abac-e9bf1d884c16","ios":"levelo://app?vid=3661e5f6-9474-422f-abac-e9bf1d884c16"},"vehicle_type_id":"4","last_reported":1692900512,"current_range_meters":31200,"station_id":"ce4bhsp2rcd13ifvqi50","pricing_plan_id":"free"},{"bike_id":"53fe6b5f-bbbc-4284-ac52-831ab249b8ce","system_id":"levelo_inurba_marseille","lat":43.313571,"lon":5.384829,"is_reserved":false,"is_disabled":false,"rental_uris":{"android":"levelo://app?vid=53fe6b5f-bbbc-4284-ac52-831ab249b8ce","ios":"levelo://app?vid=53fe6b5f-bbbc-4284-ac52-831ab249b8ce"},"vehicle_type_id":"4","last_reported":1692900512,"current_range_meters":15600,"station_id":"ce4bgt92rcd13ifvqcf0","pricing_plan_id":"free"},{"bike_id":"c28d36c1-7fe6-42e3-97f3-6de237420fdb","system_id":"levelo_inurba_marseille","lat":43.304606,"lon":5.379026,"is_reserved":false,"is_disabled":false,"rental_uris":{"android":"levelo://app?vid=c28d36c1-7fe6-42e3-97f3-6de237420fdb","ios":"levelo://app?vid=c28d36c1-7fe6-42e3-97f3-6de237420fdb"},"vehicle_type_id":"4","last_reported":1692900512,"current_range_meters":13200,"station_id":"ce4bgup2rcd13ifvqcn0","pricing_plan_id":"free"},{"bike_id":"e6c1ed00-ceb3-42f8-814a-09c0fdf2f93d","system_id":"levelo_inurba_marseille","lat":43.304606,"lon":5.379026,"is_reserved":false,"is_disabled":false,"rental_uris":{"android":"levelo://app?vid=e6c1ed00-ceb3-42f8-814a-09c0fdf2f93d","ios":"levelo://app?vid=e6c1ed00-ceb3-42f8-814a-09c0fdf2f93d"},"vehicle_type_id":"4","last_reported":1692900512,"current_range_meters":19600,"station_id":"ce4bgup2rcd13ifvqcn0","pricing_plan_id":"free"},{"bike_id":"d567945c-9150-46b1-8d0c-4cab9e1dc5d4","system_id":"levelo_inurba_marseille","lat":43.31371,"lon":5.38495,"is_reserved":false,"is_disabled":false,"rental_uris":{"android":"levelo://app?vid=d567945c-9150-46b1-8d0c-4cab9e1dc5d4","ios":"levelo://app?vid=d567945c-9150-46b1-8d0c-4cab9e1dc5d4"},"vehicle_type_id":"4","last_reported":1692900512,"current_range_meters":19200,"station_id":"ce4bgt92rcd13ifvqcf0","pricing_plan_id":"free"},{"bike_id":"95dc9ecf-047e-4c3a-bb12-a5676cb36ad4","system_id":"levelo_inurba_marseille","lat":43.3216,"lon":5.38166,"is_reserved":false,"is_disabled":false,"rental_uris":{"android":"levelo://app?vid=95dc9ecf-047e-4c3a-bb12-a5676cb36ad4","ios":"levelo://app?vid=95dc9ecf-047e-4c3a-bb12-a5676cb36ad4"},"vehicle_type_id":"4","last_reported":1692900512,"current_range_meters":0,"station_id":"","pricing_plan_id":"free"},{"bike_id":"d7ab4f36-7b14-4f2c-a3c5-f4f76b5a15a4","system_id":"levelo_inurba_marseille","lat":43.305364,"lon":5.384119,"is_reserved":false,"is_disabled":false,"rental_uris":{"android":"levelo://app?vid=d7ab4f36-7b14-4f2c-a3c5-f4f76b5a15a4","ios":"levelo://app?vid=d7ab4f36-7b14-4f2c-a3c5-f4f76b5a15a4"},"vehicle_type_id":"4","last_reported":1692900512,"current_range_meters":14400,"station_id":"ce4bgg92rcd13ifvqb30","pricing_plan_id":"free"},{"bike_id":"ea628102-f413-4421-a451-01c3055a1ca3","system_id":"levelo_inurba_marseille","lat":43.30541,"lon":5.38428,"is_reserved":false,"is_disabled":false,"rental_uris":{"android":"levelo://app?vid=ea628102-f413-4421-a451-01c3055a1ca3","ios":"levelo://app?vid=ea628102-f413-4421-a451-01c3055a1ca3"},"vehicle_type_id":"4","last_reported":1692900512,"current_range_meters":31200,"station_id":"ce4bgg92rcd13ifvqb30","pricing_plan_id":"free"},{"bike_id":"b885f463-e8c5-42cc-902f-7152167ce1c7","system_id":"levelo_inurba_marseille","lat":43.299243,"lon":5.374807,"is_reserved":false,"is_disabled":false,"rental_uris":{"android":"levelo://app?vid=b885f463-e8c5-42cc-902f-7152167ce1c7","ios":"levelo://app?vid=b885f463-e8c5-42cc-902f-7152167ce1c7"},"vehicle_type_id":"4","last_reported":1692900512,"current_range_meters":31200,"station_id":"ce4bgjh2rcd13ifvqbg0","pricing_plan_id":"free"},{"bike_id":"2f9e2def-2173-4eb4-a460-9a385f59debe","system_id":"levelo_inurba_marseille","lat":43.299243,"lon":5.37481,"is_reserved":false,"is_disabled":false,"rental_uris":{"android":"levelo://app?vid=2f9e2def-2173-4eb4-a460-9a385f59debe","ios":"levelo://app?vid=2f9e2def-2173-4eb4-a460-9a385f59debe"},"vehicle_type_id":"4","last_reported":1692900512,"current_range_meters":31200,"station_id":"ce4bgjh2rcd13ifvqbg0","pricing_plan_id":"free"},{"bike_id":"35eec3a1-aa54-4990-8eb4-78e6c0dd24d0","system_id":"levelo_inurba_marseille","lat":43.29907,"lon":5.37474,"is_reserved":false,"is_disabled":false,"rental_uris":{"android":"levelo://app?vid=35eec3a1-aa54-4990-8eb4-78e6c0dd24d0","ios":"levelo://app?vid=35eec3a1-aa54-4990-8eb4-78e6c0dd24d0"},"vehicle_type_id":"4","last_reported":1692900512,"current_range_meters":25600,"station_id":"ce4bgjh2rcd13ifvqbg0","pricing_plan_id":"free"},{"bike_id":"fe2034e0-e182-4f2e-a5a4-cdaba840da70","system_id":"levelo_inurba_marseille","lat":43.297794,"lon":5.370888,"is_reserved":false,"is_disabled":false,"rental_uris":{"android":"levelo://app?vid=fe2034e0-e182-4f2e-a5a4-cdaba840da70","ios":"levelo://app?vid=fe2034e0-e182-4f2e-a5a4-cdaba840da70"},"vehicle_type_id":"4","last_reported":1692900512,"current_range_meters":11200,"station_id":"ce4bgop2rcd13ifvqc1g","pricing_plan_id":"free"},{"bike_id":"ec844575-80e3-48e3-a814-bb9b7868aae1","system_id":"levelo_inurba_marseille","lat":43.297774,"lon":5.370875,"is_reserved":false,"is_disabled":false,"rental_uris":{"android":"levelo://app?vid=ec844575-80e3-48e3-a814-bb9b7868aae1","ios":"levelo://app?vid=ec844575-80e3-48e3-a814-bb9b7868aae1"},"vehicle_type_id":"4","last_reported":1692900512,"current_range_meters":16400,"station_id":"ce4bgop2rcd13ifvqc1g","pricing_plan_id":"free"},{"bike_id":"236ed6c3-86ca-435f-84e0-e4c3ce229bc0","system_id":"levelo_inurba_marseille","lat":43.31061,"lon":5.38791,"is_reserved":false,"is_disabled":false,"rental_uris":{"android":"levelo://app?vid=236ed6c3-86ca-435f-84e0-e4c3ce229bc0","ios":"levelo://app?vid=236ed6c3-86ca-435f-84e0-e4c3ce229bc0"},"vehicle_type_id":"4","last_reported":1692900512,"current_range_meters":2400,"station_id":"","pricing_plan_id":"free"},{"bike_id":"d0f5a968-75c3-45cf-8359-a2045afc57cd","system_id":"levelo_inurba_marseille","lat":43.32826,"lon":5.36694,"is_reserved":false,"is_disabled":false,"rental_uris":{"android":"levelo://app?vid=d0f5a968-75c3-45cf-8359-a2045afc57cd","ios":"levelo://app?vid=d0f5a968-75c3-45cf-8359-a2045afc57cd"},"vehicle_type_id":"4","last_reported":1692900512,"current_range_meters":26800,"station_id":"ce4bhs92rcd13ifvqi0g","pricing_plan_id":"free"},{"bike_id":"3211ecce-f995-46dc-92c1-cfcbe265d45c","system_id":"levelo_inurba_marseille","lat":43.32827,"lon":5.36693,"is_reserved":false,"is_disabled":false,"rental_uris":{"android":"levelo://app?vid=3211ecce-f995-46dc-92c1-cfcbe265d45c","ios":"levelo://app?vid=3211ecce-f995-46dc-92c1-cfcbe265d45c"},"vehicle_type_id":"4","last_reported":1692900512,"current_range_meters":18800,"station_id":"ce4bhs92rcd13ifvqi0g","pricing_plan_id":"free"},{"bike_id":"8a59e8ab-78e1-4e00-8471-10d3a5200fef","system_id":"levelo_inurba_marseille","lat":43.32827,"lon":5.36691,"is_reserved":false,"is_disabled":false,"rental_uris":{"android":"levelo://app?vid=8a59e8ab-78e1-4e00-8471-10d3a5200fef","ios":"levelo://app?vid=8a59e8ab-78e1-4e00-8471-10d3a5200fef"},"vehicle_type_id":"4","last_reported":1692900512,"current_range_meters":9600,"station_id":"ce4bhs92rcd13ifvqi0g","pricing_plan_id":"free"},{"bike_id":"e8bb02d1-9858-48a8-8092-ec21fda4d700","system_id":"levelo_inurba_marseille","lat":43.32828,"lon":5.36669,"is_reserved":false,"is_disabled":false,"rental_uris":{"android":"levelo://app?vid=e8bb02d1-9858-48a8-8092-ec21fda4d700","ios":"levelo://app?vid=e8bb02d1-9858-48a8-8092-ec21fda4d700"},"vehicle_type_id":"4","last_reported":1692900512,"current_range_meters":24000,"station_id":"ce4bhs92rcd13ifvqi0g","pricing_plan_id":"free"},{"bike_id":"1982984c-1826-44ed-b984-c794b80833b8","system_id":"levelo_inurba_marseille","lat":43.32833,"lon":5.36677,"is_reserved":false,"is_disabled":false,"rental_uris":{"android":"levelo://app?vid=1982984c-1826-44ed-b984-c794b80833b8","ios":"levelo://app?vid=1982984c-1826-44ed-b984-c794b80833b8"},"vehicle_type_id":"4","last_reported":1692900512,"current_range_meters":30400,"station_id":"ce4bhs92rcd13ifvqi0g","pricing_plan_id":"free"},{"bike_id":"bd0bd295-6ecc-40c4-a4d0-89f645593756","system_id":"levelo_inurba_marseille","lat":43.297163,"lon":5.365866,"is_reserved":false,"is_disabled":false,"rental_uris":{"android":"levelo://app?vid=bd0bd295-6ecc-40c4-a4d0-89f645593756","ios":"levelo://app?vid=bd0bd295-6ecc-40c4-a4d0-89f645593756"},"vehicle_type_id":"4","last_reported":1692900512,"current_range_meters":19600,"station_id":"ce4bgn12rcd13ifvqbt0","pricing_plan_id":"free"},{"bike_id":"dd789220-e7b5-42c1-b9dc-dc4243148021","system_id":"levelo_inurba_marseille","lat":43.297163,"lon":5.365866,"is_reserved":false,"is_disabled":false,"rental_uris":{"android":"levelo://app?vid=dd789220-e7b5-42c1-b9dc-dc4243148021","ios":"levelo://app?vid=dd789220-e7b5-42c1-b9dc-dc4243148021"},"vehicle_type_id":"4","last_reported":1692900512,"current_range_meters":31200,"station_id":"ce4bgn12rcd13ifvqbt0","pricing_plan_id":"free"},{"bike_id":"4a3a19c2-7ef4-4180-b6b7-f185e0a5f4c0","system_id":"levelo_inurba_marseille","lat":43.29619,"lon":5.37156,"is_reserved":false,"is_disabled":false,"rental_uris":{"android":"levelo://app?vid=4a3a19c2-7ef4-4180-b6b7-f185e0a5f4c0","ios":"levelo://app?vid=4a3a19c2-7ef4-4180-b6b7-f185e0a5f4c0"},"vehicle_type_id":"4","last_reported":1692900512,"current_range_meters":13200,"station_id":"","pricing_plan_id":"free"},{"bike_id":"d3139180-8ba9-4c91-b6e4-8baae3c22113","system_id":"levelo_inurba_marseille","lat":43.296131,"lon":5.370791,"is_reserved":false,"is_disabled":false,"rental_uris":{"android":"levelo://app?vid=d3139180-8ba9-4c91-b6e4-8baae3c22113","ios":"levelo://app?vid=d3139180-8ba9-4c91-b6e4-8baae3c22113"},"vehicle_type_id":"4","last_reported":1692900512,"current_range_meters":31200,"station_id":"ce4bgnh2rcd13ifvqc0g","pricing_plan_id":"free"},{"bike_id":"e3521786-6792-4480-92ec-9af5cda0b810","system_id":"levelo_inurba_marseille","lat":43.317557,"lon":5.390173,"is_reserved":false,"is_disabled":false,"rental_uris":{"android":"levelo://app?vid=e3521786-6792-4480-92ec-9af5cda0b810","ios":"levelo://app?vid=e3521786-6792-4480-92ec-9af5cda0b810"},"vehicle_type_id":"4","last_reported":1692900512,"current_range_meters":17200,"station_id":"ce4bhqp2rcd13ifvqhng","pricing_plan_id":"free"},{"bike_id":"fe6bdf49-128d-4cf5-9d7f-7377ae493cd1","system_id":"levelo_inurba_marseille","lat":43.317557,"lon":5.390173,"is_reserved":false,"is_disabled":false,"rental_uris":{"android":"levelo://app?vid=fe6bdf49-128d-4cf5-9d7f-7377ae493cd1","ios":"levelo://app?vid=fe6bdf49-128d-4cf5-9d7f-7377ae493cd1"},"vehicle_type_id":"4","last_reported":1692900512,"current_range_meters":4800,"station_id":"ce4bhqp2rcd13ifvqhng","pricing_plan_id":"free"},{"bike_id":"bd7ed5a1-2659-459b-b821-8407e71d9000","system_id":"levelo_inurba_marseille","lat":43.317557,"lon":5.390173,"is_reserved":false,"is_disabled":false,"rental_uris":{"android":"levelo://app?vid=bd7ed5a1-2659-459b-b821-8407e71d9000","ios":"levelo://app?vid=bd7ed5a1-2659-459b-b821-8407e71d9000"},"vehicle_type_id":"4","last_reported":1692900512,"current_range_meters":22000,"station_id":"ce4bhqp2rcd13ifvqhng","pricing_plan_id":"free"},{"bike_id":"e191e4d1-9ef6-4356-b921-cf33b60eb1fb","system_id":"levelo_inurba_marseille","lat":43.317557,"lon":5.390173,"is_reserved":false,"is_disabled":false,"rental_uris":{"android":"levelo://app?vid=e191e4d1-9ef6-4356-b921-cf33b60eb1fb","ios":"levelo://app?vid=e191e4d1-9ef6-4356-b921-cf33b60eb1fb"},"vehicle_type_id":"4","last_reported":1692900512,"current_range_meters":21600,"station_id":"ce4bhqp2rcd13ifvqhng","pricing_plan_id":"free"},{"bike_id":"6d8f3609-3a72-4964-bb63-294509618951","system_id":"levelo_inurba_marseille","lat":43.317557,"lon":5.390173,"is_reserved":false,"is_disabled":false,"rental_uris":{"android":"levelo://app?vid=6d8f3609-3a72-4964-bb63-294509618951","ios":"levelo://app?vid=6d8f3609-3a72-4964-bb63-294509618951"},"vehicle_type_id":"4","last_reported":1692900512,"current_range_meters":21600,"station_id":"ce4bhqp2rcd13ifvqhng","pricing_plan_id":"free"},{"bike_id":"2c93ce6f-c5e1-4ec9-9941-ebb7469bb8f2","system_id":"levelo_inurba_marseille","lat":43.317557,"lon":5.390173,"is_reserved":false,"is_disabled":false,"rental_uris":{"android":"levelo://app?vid=2c93ce6f-c5e1-4ec9-9941-ebb7469bb8f2","ios":"levelo://app?vid=2c93ce6f-c5e1-4ec9-9941-ebb7469bb8f2"},"vehicle_type_id":"4","last_reported":1692900512,"current_range_meters":31600,"station_id":"ce4bhqp2rcd13ifvqhng","pricing_plan_id":"free"},{"bike_id":"1ce4b758-4417-40aa-8a3a-9320613a3732","system_id":"levelo_inurba_marseille","lat":43.317557,"lon":5.390173,"is_reserved":false,"is_disabled":false,"rental_uris":{"android":"levelo://app?vid=1ce4b758-4417-40aa-8a3a-9320613a3732","ios":"levelo://app?vid=1ce4b758-4417-40aa-8a3a-9320613a3732"},"vehicle_type_id":"4","last_reported":1692900512,"current_range_meters":8800,"station_id":"ce4bhqp2rcd13ifvqhng","pricing_plan_id":"free"},{"bike_id":"4685d910-a672-4de4-98d0-bd113f700960","system_id":"levelo_inurba_marseille","lat":43.298037,"lon":5.381066,"is_reserved":false,"is_disabled":false,"rental_uris":{"android":"levelo://app?vid=4685d910-a672-4de4-98d0-bd113f700960","ios":"levelo://app?vid=4685d910-a672-4de4-98d0-bd113f700960"},"vehicle_type_id":"4","last_reported":1692900512,"current_range_meters":8400,"station_id":"ce4bgip2rcd13ifvqbb0","pricing_plan_id":"free"},{"bike_id":"1466baa7-5ed1-4dcb-aa82-10d1799589cd","system_id":"levelo_inurba_marseille","lat":43.295748,"lon":5.37522,"is_reserved":false,"is_disabled":false,"rental_uris":{"android":"levelo://app?vid=1466baa7-5ed1-4dcb-aa82-10d1799589cd","ios":"levelo://app?vid=1466baa7-5ed1-4dcb-aa82-10d1799589cd"},"vehicle_type_id":"4","last_reported":1692900512,"current_range_meters":0,"station_id":"ce4bgh92rcd13ifvqb50","pricing_plan_id":"free"},{"bike_id":"952a19e7-6602-41c3-942f-79cfb514366f","system_id":"levelo_inurba_marseille","lat":43.296277,"lon":5.377108,"is_reserved":false,"is_disabled":false,"rental_uris":{"android":"levelo://app?vid=952a19e7-6602-41c3-942f-79cfb514366f","ios":"levelo://app?vid=952a19e7-6602-41c3-942f-79cfb514366f"},"vehicle_type_id":"4","last_reported":1692900512,"current_range_meters":31200,"station_id":"ce4bgi92rcd13ifvqb90","pricing_plan_id":"free"},{"bike_id":"88633cd0-092e-443a-a19c-7f566d24b133","system_id":"levelo_inurba_marseille","lat":43.33072,"lon":5.36267,"is_reserved":false,"is_disabled":false,"rental_uris":{"android":"levelo://app?vid=88633cd0-092e-443a-a19c-7f566d24b133","ios":"levelo://app?vid=88633cd0-092e-443a-a19c-7f566d24b133"},"vehicle_type_id":"4","last_reported":1692900512,"current_range_meters":8800,"station_id":"","pricing_plan_id":"free"},{"bike_id":"c63cebcf-46a4-495c-8b2f-aee28e71d083","system_id":"levelo_inurba_marseille","lat":43.295279,"lon":5.375048,"is_reserved":false,"is_disabled":false,"rental_uris":{"android":"levelo://app?vid=c63cebcf-46a4-495c-8b2f-aee28e71d083","ios":"levelo://app?vid=c63cebcf-46a4-495c-8b2f-aee28e71d083"},"vehicle_type_id":"4","last_reported":1692900512,"current_range_meters":0,"station_id":"ce4bgkp2rcd13ifvqbmg","pricing_plan_id":"free"},{"bike_id":"329b52da-6179-4119-8885-76b50cbdc2a9","system_id":"levelo_inurba_marseille","lat":43.299717,"lon":5.384845,"is_reserved":false,"is_disabled":false,"rental_uris":{"android":"levelo://app?vid=329b52da-6179-4119-8885-76b50cbdc2a9","ios":"levelo://app?vid=329b52da-6179-4119-8885-76b50cbdc2a9"},"vehicle_type_id":"4","last_reported":1692900512,"current_range_meters":23200,"station_id":"ce4bgj92rcd13ifvqbd0","pricing_plan_id":"free"},{"bike_id":"3281605d-48d9-4f19-bd9b-4a63de58a7cd","system_id":"levelo_inurba_marseille","lat":43.299717,"lon":5.384845,"is_reserved":false,"is_disabled":false,"rental_uris":{"android":"levelo://app?vid=3281605d-48d9-4f19-bd9b-4a63de58a7cd","ios":"levelo://app?vid=3281605d-48d9-4f19-bd9b-4a63de58a7cd"},"vehicle_type_id":"4","last_reported":1692900512,"current_range_meters":1600,"station_id":"ce4bgj92rcd13ifvqbd0","pricing_plan_id":"free"},{"bike_id":"f439d872-2c03-42ea-8dd5-8ff37ee7e529","system_id":"levelo_inurba_marseille","lat":43.299724,"lon":5.384848,"is_reserved":false,"is_disabled":false,"rental_uris":{"android":"levelo://app?vid=f439d872-2c03-42ea-8dd5-8ff37ee7e529","ios":"levelo://app?vid=f439d872-2c03-42ea-8dd5-8ff37ee7e529"},"vehicle_type_id":"4","last_reported":1692900512,"current_range_meters":5200,"station_id":"ce4bgj92rcd13ifvqbd0","pricing_plan_id":"free"},{"bike_id":"17b24b50-2328-478b-9728-0ee91fa1fb2f","system_id":"levelo_inurba_marseille","lat":43.301252,"lon":5.387877,"is_reserved":false,"is_disabled":false,"rental_uris":{"android":"levelo://app?vid=17b24b50-2328-478b-9728-0ee91fa1fb2f","ios":"levelo://app?vid=17b24b50-2328-478b-9728-0ee91fa1fb2f"},"vehicle_type_id":"4","last_reported":1692900512,"current_range_meters":22400,"station_id":"","pricing_plan_id":"free"},{"bike_id":"2ebab041-34c6-441f-bc09-68b4a40ab8e5","system_id":"levelo_inurba_marseille","lat":43.32358,"lon":5.3888,"is_reserved":false,"is_disabled":false,"rental_uris":{"android":"levelo://app?vid=2ebab041-34c6-441f-bc09-68b4a40ab8e5","ios":"levelo://app?vid=2ebab041-34c6-441f-bc09-68b4a40ab8e5"},"vehicle_type_id":"4","last_reported":1692900512,"current_range_meters":16000,"station_id":"ce4bhqp2rcd13ifvqhog","pricing_plan_id":"free"},{"bike_id":"828dede6-92f9-4c93-ad20-df1fdc8a0c35","system_id":"levelo_inurba_marseille","lat":43.32362,"lon":5.38879,"is_reserved":false,"is_disabled":false,"rental_uris":{"android":"levelo://app?vid=828dede6-92f9-4c93-ad20-df1fdc8a0c35","ios":"levelo://app?vid=828dede6-92f9-4c93-ad20-df1fdc8a0c35"},"vehicle_type_id":"4","last_reported":1692900512,"current_range_meters":12000,"station_id":"ce4bhqp2rcd13ifvqhog","pricing_plan_id":"free"},{"bike_id":"b3dddd5b-4472-425c-96dc-a1618bfd0091","system_id":"levelo_inurba_marseille","lat":43.32363,"lon":5.3888,"is_reserved":false,"is_disabled":false,"rental_uris":{"android":"levelo://app?vid=b3dddd5b-4472-425c-96dc-a1618bfd0091","ios":"levelo://app?vid=b3dddd5b-4472-425c-96dc-a1618bfd0091"},"vehicle_type_id":"4","last_reported":1692900512,"current_range_meters":26400,"station_id":"ce4bhqp2rcd13ifvqhog","pricing_plan_id":"free"},{"bike_id":"9622801f-a665-42a8-bdea-eba2330a474a","system_id":"levelo_inurba_marseille","lat":43.32362,"lon":5.38885,"is_reserved":false,"is_disabled":false,"rental_uris":{"android":"levelo://app?vid=9622801f-a665-42a8-bdea-eba2330a474a","ios":"levelo://app?vid=9622801f-a665-42a8-bdea-eba2330a474a"},"vehicle_type_id":"4","last_reported":1692900512,"current_range_meters":23600,"station_id":"ce4bhqp2rcd13ifvqhog","pricing_plan_id":"free"},{"bike_id":"7c7d326f-cdfb-41e6-abbb-d7c1d9d2955d","system_id":"levelo_inurba_marseille","lat":43.32367,"lon":5.388836,"is_reserved":false,"is_disabled":false,"rental_uris":{"android":"levelo://app?vid=7c7d326f-cdfb-41e6-abbb-d7c1d9d2955d","ios":"levelo://app?vid=7c7d326f-cdfb-41e6-abbb-d7c1d9d2955d"},"vehicle_type_id":"4","last_reported":1692900512,"current_range_meters":23600,"station_id":"ce4bhqp2rcd13ifvqhog","pricing_plan_id":"free"},{"bike_id":"00883cd9-a56a-4720-bb55-237d0136a4a1","system_id":"levelo_inurba_marseille","lat":43.32367,"lon":5.388836,"is_reserved":false,"is_disabled":false,"rental_uris":{"android":"levelo://app?vid=00883cd9-a56a-4720-bb55-237d0136a4a1","ios":"levelo://app?vid=00883cd9-a56a-4720-bb55-237d0136a4a1"},"vehicle_type_id":"4","last_reported":1692900512,"current_range_meters":24800,"station_id":"ce4bhqp2rcd13ifvqhog","pricing_plan_id":"free"},{"bike_id":"4cc6afcb-8ab3-420f-b8e1-a4bccdd2c827","system_id":"levelo_inurba_marseille","lat":43.32367,"lon":5.38889,"is_reserved":false,"is_disabled":false,"rental_uris":{"android":"levelo://app?vid=4cc6afcb-8ab3-420f-b8e1-a4bccdd2c827","ios":"levelo://app?vid=4cc6afcb-8ab3-420f-b8e1-a4bccdd2c827"},"vehicle_type_id":"4","last_reported":1692900512,"current_range_meters":31200,"station_id":"ce4bhqp2rcd13ifvqhog","pricing_plan_id":"free"},{"bike_id":"1a88eed5-38ad-4c10-99f3-1f4be0531afd","system_id":"levelo_inurba_marseille","lat":43.29308,"lon":5.37169,"is_reserved":false,"is_disabled":false,"rental_uris":{"android":"levelo://app?vid=1a88eed5-38ad-4c10-99f3-1f4be0531afd","ios":"levelo://app?vid=1a88eed5-38ad-4c10-99f3-1f4be0531afd"},"vehicle_type_id":"4","last_reported":1692900512,"current_range_meters":0,"station_id":"ce4bgh92rcd13ifvqb40","pricing_plan_id":"free"},{"bike_id":"346fe1f3-76a1-4ff1-a419-ab807104ac8c","system_id":"levelo_inurba_marseille","lat":43.29274,"lon":5.36841,"is_reserved":false,"is_disabled":false,"rental_uris":{"android":"levelo://app?vid=346fe1f3-76a1-4ff1-a419-ab807104ac8c","ios":"levelo://app?vid=346fe1f3-76a1-4ff1-a419-ab807104ac8c"},"vehicle_type_id":"4","last_reported":1692900512,"current_range_meters":8400,"station_id":"ce4bhbp2rcd13ifvqesg","pricing_plan_id":"free"},{"bike_id":"1be6d2ae-e91c-4711-9e6a-0accd11d6044","system_id":"levelo_inurba_marseille","lat":43.293249,"lon":5.371578,"is_reserved":false,"is_disabled":false,"rental_uris":{"android":"levelo://app?vid=1be6d2ae-e91c-4711-9e6a-0accd11d6044","ios":"levelo://app?vid=1be6d2ae-e91c-4711-9e6a-0accd11d6044"},"vehicle_type_id":"4","last_reported":1692900512,"current_range_meters":10000,"station_id":"ce4bgh92rcd13ifvqb40","pricing_plan_id":"free"},{"bike_id":"38fef587-7cc5-4800-b069-87b8f296a10a","system_id":"levelo_inurba_marseille","lat":43.293009,"lon":5.374584,"is_reserved":false,"is_disabled":false,"rental_uris":{"android":"levelo://app?vid=38fef587-7cc5-4800-b069-87b8f296a10a","ios":"levelo://app?vid=38fef587-7cc5-4800-b069-87b8f296a10a"},"vehicle_type_id":"4","last_reported":1692900512,"current_range_meters":31200,"station_id":"ce4bgi12rcd13ifvqb70","pricing_plan_id":"free"},{"bike_id":"6533c646-1091-4458-9ef2-bc9d36dce22d","system_id":"levelo_inurba_marseille","lat":43.293009,"lon":5.374584,"is_reserved":false,"is_disabled":false,"rental_uris":{"android":"levelo://app?vid=6533c646-1091-4458-9ef2-bc9d36dce22d","ios":"levelo://app?vid=6533c646-1091-4458-9ef2-bc9d36dce22d"},"vehicle_type_id":"4","last_reported":1692900512,"current_range_meters":30400,"station_id":"ce4bgi12rcd13ifvqb70","pricing_plan_id":"free"},{"bike_id":"59d4a7cc-c4d8-47e1-a63f-2e26b5d209c3","system_id":"levelo_inurba_marseille","lat":43.2936,"lon":5.37835,"is_reserved":false,"is_disabled":false,"rental_uris":{"android":"levelo://app?vid=59d4a7cc-c4d8-47e1-a63f-2e26b5d209c3","ios":"levelo://app?vid=59d4a7cc-c4d8-47e1-a63f-2e26b5d209c3"},"vehicle_type_id":"4","last_reported":1692900512,"current_range_meters":30000,"station_id":"ce4bgjh2rcd13ifvqbf0","pricing_plan_id":"free"},{"bike_id":"0724f352-a262-45b7-9b71-9a09ff17d945","system_id":"levelo_inurba_marseille","lat":43.303,"lon":5.39212,"is_reserved":false,"is_disabled":false,"rental_uris":{"android":"levelo://app?vid=0724f352-a262-45b7-9b71-9a09ff17d945","ios":"levelo://app?vid=0724f352-a262-45b7-9b71-9a09ff17d945"},"vehicle_type_id":"4","last_reported":1692900512,"current_range_meters":21200,"station_id":"ce4bgkh2rcd13ifvqbk0","pricing_plan_id":"free"},{"bike_id":"1e2707b6-3233-4f26-a9c7-32d41e85cc19","system_id":"levelo_inurba_marseille","lat":43.30088,"lon":5.39056,"is_reserved":false,"is_disabled":false,"rental_uris":{"android":"levelo://app?vid=1e2707b6-3233-4f26-a9c7-32d41e85cc19","ios":"levelo://app?vid=1e2707b6-3233-4f26-a9c7-32d41e85cc19"},"vehicle_type_id":"4","last_reported":1692900512,"current_range_meters":11600,"station_id":"","pricing_plan_id":"free"},{"bike_id":"aa580c52-be90-44d1-984b-2685026dd8ec","system_id":"levelo_inurba_marseille","lat":43.29218,"lon":5.36057,"is_reserved":false,"is_disabled":false,"rental_uris":{"android":"levelo://app?vid=aa580c52-be90-44d1-984b-2685026dd8ec","ios":"levelo://app?vid=aa580c52-be90-44d1-984b-2685026dd8ec"},"vehicle_type_id":"4","last_reported":1692900512,"current_range_meters":30800,"station_id":"ce4bhbh2rcd13ifvqeqg","pricing_plan_id":"free"},{"bike_id":"9bb2c07b-2d39-4c40-a547-b40e572c7838","system_id":"levelo_inurba_marseille","lat":43.29206,"lon":5.35794,"is_reserved":false,"is_disabled":false,"rental_uris":{"android":"levelo://app?vid=9bb2c07b-2d39-4c40-a547-b40e572c7838","ios":"levelo://app?vid=9bb2c07b-2d39-4c40-a547-b40e572c7838"},"vehicle_type_id":"4","last_reported":1692900512,"current_range_meters":27200,"station_id":"ce4bhb12rcd13ifvqel0","pricing_plan_id":"free"},{"bike_id":"a1f95357-19e9-4379-904b-62f1af33a51a","system_id":"levelo_inurba_marseille","lat":43.313291,"lon":5.396838,"is_reserved":false,"is_disabled":false,"rental_uris":{"android":"levelo://app?vid=a1f95357-19e9-4379-904b-62f1af33a51a","ios":"levelo://app?vid=a1f95357-19e9-4379-904b-62f1af33a51a"},"vehicle_type_id":"4","last_reported":1692900512,"current_range_meters":24400,"station_id":"ce4bgvp2rcd13ifvqcu0","pricing_plan_id":"free"},{"bike_id":"5c36a391-eb0a-4a4d-9578-a1889bc4da5f","system_id":"levelo_inurba_marseille","lat":43.31328,"lon":5.39686,"is_reserved":false,"is_disabled":false,"rental_uris":{"android":"levelo://app?vid=5c36a391-eb0a-4a4d-9578-a1889bc4da5f","ios":"levelo://app?vid=5c36a391-eb0a-4a4d-9578-a1889bc4da5f"},"vehicle_type_id":"4","last_reported":1692900512,"current_range_meters":0,"station_id":"ce4bgvp2rcd13ifvqcu0","pricing_plan_id":"free"},{"bike_id":"127741e7-71da-4469-9c7d-a7776f901127","system_id":"levelo_inurba_marseille","lat":43.31326,"lon":5.39694,"is_reserved":false,"is_disabled":false,"rental_uris":{"android":"levelo://app?vid=127741e7-71da-4469-9c7d-a7776f901127","ios":"levelo://app?vid=127741e7-71da-4469-9c7d-a7776f901127"},"vehicle_type_id":"4","last_reported":1692900512,"current_range_meters":15600,"station_id":"ce4bgvp2rcd13ifvqcu0","pricing_plan_id":"free"},{"bike_id":"e7b4d14f-8ad1-4f96-83be-a4422c722e6d","system_id":"levelo_inurba_marseille","lat":43.31322,"lon":5.39696,"is_reserved":false,"is_disabled":false,"rental_uris":{"android":"levelo://app?vid=e7b4d14f-8ad1-4f96-83be-a4422c722e6d","ios":"levelo://app?vid=e7b4d14f-8ad1-4f96-83be-a4422c722e6d"},"vehicle_type_id":"4","last_reported":1692900512,"current_range_meters":0,"station_id":"ce4bgvp2rcd13ifvqcu0","pricing_plan_id":"free"},{"bike_id":"c0545643-9089-4a2d-98ac-5e7bc6ccb724","system_id":"levelo_inurba_marseille","lat":43.29529,"lon":5.385581,"is_reserved":false,"is_disabled":false,"rental_uris":{"android":"levelo://app?vid=c0545643-9089-4a2d-98ac-5e7bc6ccb724","ios":"levelo://app?vid=c0545643-9089-4a2d-98ac-5e7bc6ccb724"},"vehicle_type_id":"4","last_reported":1692900512,"current_range_meters":15600,"station_id":"ce4bgih2rcd13ifvqba0","pricing_plan_id":"free"},{"bike_id":"39af186c-11e7-4647-8814-1ab595c4f478","system_id":"levelo_inurba_marseille","lat":43.295271,"lon":5.385357,"is_reserved":false,"is_disabled":false,"rental_uris":{"android":"levelo://app?vid=39af186c-11e7-4647-8814-1ab595c4f478","ios":"levelo://app?vid=39af186c-11e7-4647-8814-1ab595c4f478"},"vehicle_type_id":"4","last_reported":1692900512,"current_range_meters":22000,"station_id":"ce4bgih2rcd13ifvqba0","pricing_plan_id":"free"},{"bike_id":"7a83b5d5-8541-4e7d-a6bf-8cfcbf9a2891","system_id":"levelo_inurba_marseille","lat":43.2953,"lon":5.38541,"is_reserved":false,"is_disabled":false,"rental_uris":{"android":"levelo://app?vid=7a83b5d5-8541-4e7d-a6bf-8cfcbf9a2891","ios":"levelo://app?vid=7a83b5d5-8541-4e7d-a6bf-8cfcbf9a2891"},"vehicle_type_id":"4","last_reported":1692900512,"current_range_meters":10400,"station_id":"","pricing_plan_id":"free"},{"bike_id":"39b5b5cf-86ef-48ea-a176-58e554756417","system_id":"levelo_inurba_marseille","lat":43.302008,"lon":5.394694,"is_reserved":false,"is_disabled":false,"rental_uris":{"android":"levelo://app?vid=39b5b5cf-86ef-48ea-a176-58e554756417","ios":"levelo://app?vid=39b5b5cf-86ef-48ea-a176-58e554756417"},"vehicle_type_id":"4","last_reported":1692900512,"current_range_meters":29600,"station_id":"ce4bh0p2rcd13ifvqd70","pricing_plan_id":"free"},{"bike_id":"aa8482ca-8903-47cf-9829-83813d7cb53c","system_id":"levelo_inurba_marseille","lat":43.290631,"lon":5.359244,"is_reserved":false,"is_disabled":false,"rental_uris":{"android":"levelo://app?vid=aa8482ca-8903-47cf-9829-83813d7cb53c","ios":"levelo://app?vid=aa8482ca-8903-47cf-9829-83813d7cb53c"},"vehicle_type_id":"4","last_reported":1692900512,"current_range_meters":1600,"station_id":"ce4bha92rcd13ifvqeg0","pricing_plan_id":"free"},{"bike_id":"61618eb8-6021-4488-963e-961940096e13","system_id":"levelo_inurba_marseille","lat":43.290327,"lon":5.375711,"is_reserved":false,"is_disabled":false,"rental_uris":{"android":"levelo://app?vid=61618eb8-6021-4488-963e-961940096e13","ios":"levelo://app?vid=61618eb8-6021-4488-963e-961940096e13"},"vehicle_type_id":"4","last_reported":1692900512,"current_range_meters":25600,"station_id":"ce4bh692rcd13ifvqe90","pricing_plan_id":"free"},{"bike_id":"4e1f44c9-ab31-459f-828d-0552434b52f4","system_id":"levelo_inurba_marseille","lat":43.294153,"lon":5.386305,"is_reserved":false,"is_disabled":false,"rental_uris":{"android":"levelo://app?vid=4e1f44c9-ab31-459f-828d-0552434b52f4","ios":"levelo://app?vid=4e1f44c9-ab31-459f-828d-0552434b52f4"},"vehicle_type_id":"4","last_reported":1692900512,"current_range_meters":4400,"station_id":"ce4bh2h2rcd13ifvqdh0","pricing_plan_id":"free"},{"bike_id":"a911df92-9462-4b75-a3e5-66fde4210d75","system_id":"levelo_inurba_marseille","lat":43.294162,"lon":5.386292,"is_reserved":false,"is_disabled":false,"rental_uris":{"android":"levelo://app?vid=a911df92-9462-4b75-a3e5-66fde4210d75","ios":"levelo://app?vid=a911df92-9462-4b75-a3e5-66fde4210d75"},"vehicle_type_id":"4","last_reported":1692900512,"current_range_meters":11200,"station_id":"ce4bh2h2rcd13ifvqdh0","pricing_plan_id":"free"},{"bike_id":"c20de6ee-c4ce-41cd-9b1b-df8baca22e2a","system_id":"levelo_inurba_marseille","lat":43.294162,"lon":5.386292,"is_reserved":false,"is_disabled":false,"rental_uris":{"android":"levelo://app?vid=c20de6ee-c4ce-41cd-9b1b-df8baca22e2a","ios":"levelo://app?vid=c20de6ee-c4ce-41cd-9b1b-df8baca22e2a"},"vehicle_type_id":"4","last_reported":1692900512,"current_range_meters":2800,"station_id":"ce4bh2h2rcd13ifvqdh0","pricing_plan_id":"free"},{"bike_id":"7920e61c-803d-473d-94fc-61115b1b641a","system_id":"levelo_inurba_marseille","lat":43.294162,"lon":5.386292,"is_reserved":false,"is_disabled":false,"rental_uris":{"android":"levelo://app?vid=7920e61c-803d-473d-94fc-61115b1b641a","ios":"levelo://app?vid=7920e61c-803d-473d-94fc-61115b1b641a"},"vehicle_type_id":"4","last_reported":1692900512,"current_range_meters":10800,"station_id":"ce4bh2h2rcd13ifvqdh0","pricing_plan_id":"free"},{"bike_id":"a10e93da-a15f-4eed-9ca5-f174f216f950","system_id":"levelo_inurba_marseille","lat":43.294162,"lon":5.386292,"is_reserved":false,"is_disabled":false,"rental_uris":{"android":"levelo://app?vid=a10e93da-a15f-4eed-9ca5-f174f216f950","ios":"levelo://app?vid=a10e93da-a15f-4eed-9ca5-f174f216f950"},"vehicle_type_id":"4","last_reported":1692900512,"current_range_meters":26400,"station_id":"ce4bh2h2rcd13ifvqdh0","pricing_plan_id":"free"},{"bike_id":"c3070491-e03e-4040-a70a-0a4fcb5cfe4c","system_id":"levelo_inurba_marseille","lat":43.294162,"lon":5.386292,"is_reserved":false,"is_disabled":false,"rental_uris":{"android":"levelo://app?vid=c3070491-e03e-4040-a70a-0a4fcb5cfe4c","ios":"levelo://app?vid=c3070491-e03e-4040-a70a-0a4fcb5cfe4c"},"vehicle_type_id":"4","last_reported":1692900512,"current_range_meters":1600,"station_id":"ce4bh2h2rcd13ifvqdh0","pricing_plan_id":"free"},{"bike_id":"ebac930f-14c6-4c9b-8055-c912e05b8db9","system_id":"levelo_inurba_marseille","lat":43.294162,"lon":5.386292,"is_reserved":false,"is_disabled":false,"rental_uris":{"android":"levelo://app?vid=ebac930f-14c6-4c9b-8055-c912e05b8db9","ios":"levelo://app?vid=ebac930f-14c6-4c9b-8055-c912e05b8db9"},"vehicle_type_id":"4","last_reported":1692900512,"current_range_meters":5200,"station_id":"ce4bh2h2rcd13ifvqdh0","pricing_plan_id":"free"},{"bike_id":"c083150e-52a4-4e25-9674-dc35950c3103","system_id":"levelo_inurba_marseille","lat":43.289184,"lon":5.366408,"is_reserved":false,"is_disabled":false,"rental_uris":{"android":"levelo://app?vid=c083150e-52a4-4e25-9674-dc35950c3103","ios":"levelo://app?vid=c083150e-52a4-4e25-9674-dc35950c3103"},"vehicle_type_id":"4","last_reported":1692900512,"current_range_meters":9600,"station_id":"ce4bhap2rcd13ifvqek0","pricing_plan_id":"free"},{"bike_id":"1c07e25f-84db-4513-bedb-11b97c6ec9b6","system_id":"levelo_inurba_marseille","lat":43.33041,"lon":5.38914,"is_reserved":false,"is_disabled":false,"rental_uris":{"android":"levelo://app?vid=1c07e25f-84db-4513-bedb-11b97c6ec9b6","ios":"levelo://app?vid=1c07e25f-84db-4513-bedb-11b97c6ec9b6"},"vehicle_type_id":"4","last_reported":1692900512,"current_range_meters":31200,"station_id":"ce4bhr92rcd13ifvqhrg","pricing_plan_id":"free"},{"bike_id":"bd7daa76-25f4-40b2-86bd-a216524cfea0","system_id":"levelo_inurba_marseille","lat":43.33042,"lon":5.38915,"is_reserved":false,"is_disabled":false,"rental_uris":{"android":"levelo://app?vid=bd7daa76-25f4-40b2-86bd-a216524cfea0","ios":"levelo://app?vid=bd7daa76-25f4-40b2-86bd-a216524cfea0"},"vehicle_type_id":"4","last_reported":1692900512,"current_range_meters":10400,"station_id":"ce4bhr92rcd13ifvqhrg","pricing_plan_id":"free"},{"bike_id":"be8459eb-81bf-48fb-8c04-d06090ab246c","system_id":"levelo_inurba_marseille","lat":43.33042,"lon":5.38915,"is_reserved":false,"is_disabled":false,"rental_uris":{"android":"levelo://app?vid=be8459eb-81bf-48fb-8c04-d06090ab246c","ios":"levelo://app?vid=be8459eb-81bf-48fb-8c04-d06090ab246c"},"vehicle_type_id":"4","last_reported":1692900512,"current_range_meters":8800,"station_id":"ce4bhr92rcd13ifvqhrg","pricing_plan_id":"free"},{"bike_id":"a2a8c01f-7280-4ca6-bc8a-6f0c618673eb","system_id":"levelo_inurba_marseille","lat":43.33042,"lon":5.38917,"is_reserved":false,"is_disabled":false,"rental_uris":{"android":"levelo://app?vid=a2a8c01f-7280-4ca6-bc8a-6f0c618673eb","ios":"levelo://app?vid=a2a8c01f-7280-4ca6-bc8a-6f0c618673eb"},"vehicle_type_id":"4","last_reported":1692900512,"current_range_meters":14400,"station_id":"ce4bhr92rcd13ifvqhrg","pricing_plan_id":"free"},{"bike_id":"73e30c8d-1fec-42fa-994e-db63cd20ad16","system_id":"levelo_inurba_marseille","lat":43.33039,"lon":5.38922,"is_reserved":false,"is_disabled":false,"rental_uris":{"android":"levelo://app?vid=73e30c8d-1fec-42fa-994e-db63cd20ad16","ios":"levelo://app?vid=73e30c8d-1fec-42fa-994e-db63cd20ad16"},"vehicle_type_id":"4","last_reported":1692900512,"current_range_meters":19600,"station_id":"ce4bhr92rcd13ifvqhrg","pricing_plan_id":"free"},{"bike_id":"5f4f9907-0787-4bf8-8a56-fcaa0a043375","system_id":"levelo_inurba_marseille","lat":43.3304,"lon":5.38922,"is_reserved":false,"is_disabled":false,"rental_uris":{"android":"levelo://app?vid=5f4f9907-0787-4bf8-8a56-fcaa0a043375","ios":"levelo://app?vid=5f4f9907-0787-4bf8-8a56-fcaa0a043375"},"vehicle_type_id":"4","last_reported":1692900512,"current_range_meters":16000,"station_id":"ce4bhr92rcd13ifvqhrg","pricing_plan_id":"free"},{"bike_id":"c64531b8-215c-466c-8107-948273dfc7b2","system_id":"levelo_inurba_marseille","lat":43.33045,"lon":5.38917,"is_reserved":false,"is_disabled":false,"rental_uris":{"android":"levelo://app?vid=c64531b8-215c-466c-8107-948273dfc7b2","ios":"levelo://app?vid=c64531b8-215c-466c-8107-948273dfc7b2"},"vehicle_type_id":"4","last_reported":1692900512,"current_range_meters":31200,"station_id":"ce4bhr92rcd13ifvqhrg","pricing_plan_id":"free"},{"bike_id":"8b9f9b54-2e03-4d4e-bfd8-a7cfda03648a","system_id":"levelo_inurba_marseille","lat":43.3304,"lon":5.38925,"is_reserved":false,"is_disabled":false,"rental_uris":{"android":"levelo://app?vid=8b9f9b54-2e03-4d4e-bfd8-a7cfda03648a","ios":"levelo://app?vid=8b9f9b54-2e03-4d4e-bfd8-a7cfda03648a"},"vehicle_type_id":"4","last_reported":1692900512,"current_range_meters":22000,"station_id":"ce4bhr92rcd13ifvqhrg","pricing_plan_id":"free"},{"bike_id":"1895038e-acdb-4d35-aa35-e1291f23a30a","system_id":"levelo_inurba_marseille","lat":43.290104,"lon":5.356111,"is_reserved":false,"is_disabled":false,"rental_uris":{"android":"levelo://app?vid=1895038e-acdb-4d35-aa35-e1291f23a30a","ios":"levelo://app?vid=1895038e-acdb-4d35-aa35-e1291f23a30a"},"vehicle_type_id":"4","last_reported":1692900512,"current_range_meters":31200,"station_id":"ce4bhb92rcd13ifvqen0","pricing_plan_id":"free"},{"bike_id":"81bdd50f-e2c9-4875-93b8-ce66b1f39ff9","system_id":"levelo_inurba_marseille","lat":43.33043,"lon":5.38924,"is_reserved":false,"is_disabled":false,"rental_uris":{"android":"levelo://app?vid=81bdd50f-e2c9-4875-93b8-ce66b1f39ff9","ios":"levelo://app?vid=81bdd50f-e2c9-4875-93b8-ce66b1f39ff9"},"vehicle_type_id":"4","last_reported":1692900512,"current_range_meters":31200,"station_id":"ce4bhr92rcd13ifvqhrg","pricing_plan_id":"free"},{"bike_id":"a4df99ce-0488-49dd-a888-94686f562e88","system_id":"levelo_inurba_marseille","lat":43.290104,"lon":5.356111,"is_reserved":false,"is_disabled":false,"rental_uris":{"android":"levelo://app?vid=a4df99ce-0488-49dd-a888-94686f562e88","ios":"levelo://app?vid=a4df99ce-0488-49dd-a888-94686f562e88"},"vehicle_type_id":"4","last_reported":1692900512,"current_range_meters":29200,"station_id":"ce4bhb92rcd13ifvqen0","pricing_plan_id":"free"},{"bike_id":"6093d433-f9d6-48fe-897b-a1be7c29ef34","system_id":"levelo_inurba_marseille","lat":43.29001,"lon":5.35615,"is_reserved":false,"is_disabled":false,"rental_uris":{"android":"levelo://app?vid=6093d433-f9d6-48fe-897b-a1be7c29ef34","ios":"levelo://app?vid=6093d433-f9d6-48fe-897b-a1be7c29ef34"},"vehicle_type_id":"4","last_reported":1692900512,"current_range_meters":28800,"station_id":"ce4bhb92rcd13ifvqen0","pricing_plan_id":"free"},{"bike_id":"27f8d5cf-4298-43c1-bd25-5b47725c1ef8","system_id":"levelo_inurba_marseille","lat":43.28856,"lon":5.358371,"is_reserved":false,"is_disabled":false,"rental_uris":{"android":"levelo://app?vid=27f8d5cf-4298-43c1-bd25-5b47725c1ef8","ios":"levelo://app?vid=27f8d5cf-4298-43c1-bd25-5b47725c1ef8"},"vehicle_type_id":"4","last_reported":1692900512,"current_range_meters":6000,"station_id":"ce4bhb12rcd13ifvqem0","pricing_plan_id":"free"},{"bike_id":"a7ecb86b-ab10-4b6d-8225-3addb33953dc","system_id":"levelo_inurba_marseille","lat":43.28838,"lon":5.35839,"is_reserved":false,"is_disabled":false,"rental_uris":{"android":"levelo://app?vid=a7ecb86b-ab10-4b6d-8225-3addb33953dc","ios":"levelo://app?vid=a7ecb86b-ab10-4b6d-8225-3addb33953dc"},"vehicle_type_id":"4","last_reported":1692900512,"current_range_meters":31200,"station_id":"ce4bhb12rcd13ifvqem0","pricing_plan_id":"free"},{"bike_id":"0b6e6503-071b-46e3-b3e0-2359f63fcaa8","system_id":"levelo_inurba_marseille","lat":43.31282,"lon":5.4017,"is_reserved":false,"is_disabled":false,"rental_uris":{"android":"levelo://app?vid=0b6e6503-071b-46e3-b3e0-2359f63fcaa8","ios":"levelo://app?vid=0b6e6503-071b-46e3-b3e0-2359f63fcaa8"},"vehicle_type_id":"4","last_reported":1692900512,"current_range_meters":16000,"station_id":"ce4bh092rcd13ifvqd30","pricing_plan_id":"free"},{"bike_id":"7ec63ae0-5357-4200-8eb4-d18505c2f27f","system_id":"levelo_inurba_marseille","lat":43.286591,"lon":5.363346,"is_reserved":false,"is_disabled":false,"rental_uris":{"android":"levelo://app?vid=7ec63ae0-5357-4200-8eb4-d18505c2f27f","ios":"levelo://app?vid=7ec63ae0-5357-4200-8eb4-d18505c2f27f"},"vehicle_type_id":"4","last_reported":1692900512,"current_range_meters":31600,"station_id":"ce4bhah2rcd13ifvqej0","pricing_plan_id":"free"},{"bike_id":"94a797db-df97-4fac-be3c-b3ea283a0aac","system_id":"levelo_inurba_marseille","lat":43.286591,"lon":5.363346,"is_reserved":false,"is_disabled":false,"rental_uris":{"android":"levelo://app?vid=94a797db-df97-4fac-be3c-b3ea283a0aac","ios":"levelo://app?vid=94a797db-df97-4fac-be3c-b3ea283a0aac"},"vehicle_type_id":"4","last_reported":1692900512,"current_range_meters":31200,"station_id":"ce4bhah2rcd13ifvqej0","pricing_plan_id":"free"},{"bike_id":"75199276-b705-4ad7-b6a9-49aeaa84628a","system_id":"levelo_inurba_marseille","lat":43.286591,"lon":5.363346,"is_reserved":false,"is_disabled":false,"rental_uris":{"android":"levelo://app?vid=75199276-b705-4ad7-b6a9-49aeaa84628a","ios":"levelo://app?vid=75199276-b705-4ad7-b6a9-49aeaa84628a"},"vehicle_type_id":"4","last_reported":1692900512,"current_range_meters":25600,"station_id":"ce4bhah2rcd13ifvqej0","pricing_plan_id":"free"},{"bike_id":"29da9839-5dd7-40ee-8405-7f5ed107c110","system_id":"levelo_inurba_marseille","lat":43.286591,"lon":5.363346,"is_reserved":false,"is_disabled":false,"rental_uris":{"android":"levelo://app?vid=29da9839-5dd7-40ee-8405-7f5ed107c110","ios":"levelo://app?vid=29da9839-5dd7-40ee-8405-7f5ed107c110"},"vehicle_type_id":"4","last_reported":1692900512,"current_range_meters":31200,"station_id":"ce4bhah2rcd13ifvqej0","pricing_plan_id":"free"},{"bike_id":"eb6b9546-a618-4e2e-96e6-bad962ac4633","system_id":"levelo_inurba_marseille","lat":43.304188,"lon":5.412904,"is_reserved":false,"is_disabled":false,"rental_uris":{"android":"levelo://app?vid=eb6b9546-a618-4e2e-96e6-bad962ac4633","ios":"levelo://app?vid=eb6b9546-a618-4e2e-96e6-bad962ac4633"},"vehicle_type_id":"4","last_reported":1692900512,"current_range_meters":9600,"station_id":"ce4bhop2rcd13ifvqh8g","pricing_plan_id":"free"},{"bike_id":"2365150f-73ab-4507-aea4-76016e6109c8","system_id":"levelo_inurba_marseille","lat":43.286591,"lon":5.363346,"is_reserved":false,"is_disabled":false,"rental_uris":{"android":"levelo://app?vid=2365150f-73ab-4507-aea4-76016e6109c8","ios":"levelo://app?vid=2365150f-73ab-4507-aea4-76016e6109c8"},"vehicle_type_id":"4","last_reported":1692900512,"current_range_meters":31200,"station_id":"ce4bhah2rcd13ifvqej0","pricing_plan_id":"free"},{"bike_id":"ff4571cc-b1e0-4cd3-9e98-a334860576b4","system_id":"levelo_inurba_marseille","lat":43.286591,"lon":5.363346,"is_reserved":false,"is_disabled":false,"rental_uris":{"android":"levelo://app?vid=ff4571cc-b1e0-4cd3-9e98-a334860576b4","ios":"levelo://app?vid=ff4571cc-b1e0-4cd3-9e98-a334860576b4"},"vehicle_type_id":"4","last_reported":1692900512,"current_range_meters":31200,"station_id":"ce4bhah2rcd13ifvqej0","pricing_plan_id":"free"},{"bike_id":"c201125f-a9fd-4697-a1db-1f76427e1f11","system_id":"levelo_inurba_marseille","lat":43.295194,"lon":5.39397,"is_reserved":false,"is_disabled":false,"rental_uris":{"android":"levelo://app?vid=c201125f-a9fd-4697-a1db-1f76427e1f11","ios":"levelo://app?vid=c201125f-a9fd-4697-a1db-1f76427e1f11"},"vehicle_type_id":"4","last_reported":1692900512,"current_range_meters":22000,"station_id":"ce4bh292rcd13ifvqdf0","pricing_plan_id":"free"},{"bike_id":"4c5d8de4-7aa6-49af-bc51-190d76d459bf","system_id":"levelo_inurba_marseille","lat":43.290345,"lon":5.38646,"is_reserved":false,"is_disabled":false,"rental_uris":{"android":"levelo://app?vid=4c5d8de4-7aa6-49af-bc51-190d76d459bf","ios":"levelo://app?vid=4c5d8de4-7aa6-49af-bc51-190d76d459bf"},"vehicle_type_id":"4","last_reported":1692900512,"current_range_meters":17600,"station_id":"ce4bh4p2rcd13ifvqe0g","pricing_plan_id":"free"},{"bike_id":"9d48f99e-3c6e-42d7-95e7-91fbf8f7a357","system_id":"levelo_inurba_marseille","lat":43.290336,"lon":5.386425,"is_reserved":false,"is_disabled":false,"rental_uris":{"android":"levelo://app?vid=9d48f99e-3c6e-42d7-95e7-91fbf8f7a357","ios":"levelo://app?vid=9d48f99e-3c6e-42d7-95e7-91fbf8f7a357"},"vehicle_type_id":"4","last_reported":1692900512,"current_range_meters":8000,"station_id":"ce4bh4p2rcd13ifvqe0g","pricing_plan_id":"free"},{"bike_id":"87236aaf-314f-4ca3-8acb-2c8e5ad12d6c","system_id":"levelo_inurba_marseille","lat":43.290345,"lon":5.38646,"is_reserved":false,"is_disabled":false,"rental_uris":{"android":"levelo://app?vid=87236aaf-314f-4ca3-8acb-2c8e5ad12d6c","ios":"levelo://app?vid=87236aaf-314f-4ca3-8acb-2c8e5ad12d6c"},"vehicle_type_id":"4","last_reported":1692900512,"current_range_meters":21600,"station_id":"ce4bh4p2rcd13ifvqe0g","pricing_plan_id":"free"},{"bike_id":"99f8748a-c7b7-4c9a-94a5-cff1beabbfc9","system_id":"levelo_inurba_marseille","lat":43.290345,"lon":5.38646,"is_reserved":false,"is_disabled":false,"rental_uris":{"android":"levelo://app?vid=99f8748a-c7b7-4c9a-94a5-cff1beabbfc9","ios":"levelo://app?vid=99f8748a-c7b7-4c9a-94a5-cff1beabbfc9"},"vehicle_type_id":"4","last_reported":1692900512,"current_range_meters":30800,"station_id":"ce4bh4p2rcd13ifvqe0g","pricing_plan_id":"free"},{"bike_id":"3ad9805f-f873-4cff-aeb2-5f74f4488e2b","system_id":"levelo_inurba_marseille","lat":43.290336,"lon":5.386425,"is_reserved":false,"is_disabled":false,"rental_uris":{"android":"levelo://app?vid=3ad9805f-f873-4cff-aeb2-5f74f4488e2b","ios":"levelo://app?vid=3ad9805f-f873-4cff-aeb2-5f74f4488e2b"},"vehicle_type_id":"4","last_reported":1692900512,"current_range_meters":28800,"station_id":"ce4bh4p2rcd13ifvqe0g","pricing_plan_id":"free"},{"bike_id":"eeac80cb-e824-475d-9e5c-4da14b271757","system_id":"levelo_inurba_marseille","lat":43.286039,"lon":5.370679,"is_reserved":false,"is_disabled":false,"rental_uris":{"android":"levelo://app?vid=eeac80cb-e824-475d-9e5c-4da14b271757","ios":"levelo://app?vid=eeac80cb-e824-475d-9e5c-4da14b271757"},"vehicle_type_id":"4","last_reported":1692900512,"current_range_meters":0,"station_id":"ce4bht12rcd13ifvqi60","pricing_plan_id":"free"},{"bike_id":"b479af77-2d49-4f51-89b2-cae994a0ab9a","system_id":"levelo_inurba_marseille","lat":43.28602,"lon":5.37064,"is_reserved":false,"is_disabled":false,"rental_uris":{"android":"levelo://app?vid=b479af77-2d49-4f51-89b2-cae994a0ab9a","ios":"levelo://app?vid=b479af77-2d49-4f51-89b2-cae994a0ab9a"},"vehicle_type_id":"4","last_reported":1692900512,"current_range_meters":8400,"station_id":"ce4bht12rcd13ifvqi60","pricing_plan_id":"free"},{"bike_id":"1b7a7daf-7296-4f74-8002-a52f8912ff84","system_id":"levelo_inurba_marseille","lat":43.287184,"lon":5.37937,"is_reserved":false,"is_disabled":false,"rental_uris":{"android":"levelo://app?vid=1b7a7daf-7296-4f74-8002-a52f8912ff84","ios":"levelo://app?vid=1b7a7daf-7296-4f74-8002-a52f8912ff84"},"vehicle_type_id":"4","last_reported":1692900512,"current_range_meters":10800,"station_id":"ce4bh9p2rcd13ifvqec0","pricing_plan_id":"free"},{"bike_id":"f1a7268e-7036-4bea-9326-3fc1d9b1550b","system_id":"levelo_inurba_marseille","lat":43.287185,"lon":5.379373,"is_reserved":false,"is_disabled":false,"rental_uris":{"android":"levelo://app?vid=f1a7268e-7036-4bea-9326-3fc1d9b1550b","ios":"levelo://app?vid=f1a7268e-7036-4bea-9326-3fc1d9b1550b"},"vehicle_type_id":"4","last_reported":1692900512,"current_range_meters":12400,"station_id":"ce4bh9p2rcd13ifvqec0","pricing_plan_id":"free"},{"bike_id":"ba7396f7-8fee-4df3-95a0-c73325b06bdf","system_id":"levelo_inurba_marseille","lat":43.31645,"lon":5.40432,"is_reserved":false,"is_disabled":false,"rental_uris":{"android":"levelo://app?vid=ba7396f7-8fee-4df3-95a0-c73325b06bdf","ios":"levelo://app?vid=ba7396f7-8fee-4df3-95a0-c73325b06bdf"},"vehicle_type_id":"4","last_reported":1692900512,"current_range_meters":20400,"station_id":"ce4bh012rcd13ifvqd00","pricing_plan_id":"free"},{"bike_id":"7da9e437-1e79-4b5f-9ab0-65254ac17dd7","system_id":"levelo_inurba_marseille","lat":43.31651,"lon":5.40447,"is_reserved":false,"is_disabled":false,"rental_uris":{"android":"levelo://app?vid=7da9e437-1e79-4b5f-9ab0-65254ac17dd7","ios":"levelo://app?vid=7da9e437-1e79-4b5f-9ab0-65254ac17dd7"},"vehicle_type_id":"4","last_reported":1692900512,"current_range_meters":21600,"station_id":"ce4bh012rcd13ifvqd00","pricing_plan_id":"free"},{"bike_id":"e924cf15-456b-4282-b411-813ea3419989","system_id":"levelo_inurba_marseille","lat":43.28461,"lon":5.35888,"is_reserved":false,"is_disabled":false,"rental_uris":{"android":"levelo://app?vid=e924cf15-456b-4282-b411-813ea3419989","ios":"levelo://app?vid=e924cf15-456b-4282-b411-813ea3419989"},"vehicle_type_id":"4","last_reported":1692900512,"current_range_meters":800,"station_id":"ce4bhah2rcd13ifvqei0","pricing_plan_id":"free"},{"bike_id":"2363d3b5-6c15-401a-a59c-ee80bd4af927","system_id":"levelo_inurba_marseille","lat":43.28415,"lon":5.37522,"is_reserved":false,"is_disabled":false,"rental_uris":{"android":"levelo://app?vid=2363d3b5-6c15-401a-a59c-ee80bd4af927","ios":"levelo://app?vid=2363d3b5-6c15-401a-a59c-ee80bd4af927"},"vehicle_type_id":"4","last_reported":1692900512,"current_range_meters":800,"station_id":"ce4bh412rcd13ifvqds0","pricing_plan_id":"free"},{"bike_id":"0262e533-6648-4c31-a85d-abc458c3a3d6","system_id":"levelo_inurba_marseille","lat":43.284057,"lon":5.374996,"is_reserved":false,"is_disabled":false,"rental_uris":{"android":"levelo://app?vid=0262e533-6648-4c31-a85d-abc458c3a3d6","ios":"levelo://app?vid=0262e533-6648-4c31-a85d-abc458c3a3d6"},"vehicle_type_id":"4","last_reported":1692900512,"current_range_meters":6400,"station_id":"ce4bh412rcd13ifvqds0","pricing_plan_id":"free"},{"bike_id":"88fcb016-5900-41b9-8b1b-90f88279b5ab","system_id":"levelo_inurba_marseille","lat":43.286039,"lon":5.370679,"is_reserved":false,"is_disabled":false,"rental_uris":{"android":"levelo://app?vid=88fcb016-5900-41b9-8b1b-90f88279b5ab","ios":"levelo://app?vid=88fcb016-5900-41b9-8b1b-90f88279b5ab"},"vehicle_type_id":"4","last_reported":1692900512,"current_range_meters":23600,"station_id":"ce4bht12rcd13ifvqi60","pricing_plan_id":"free"},{"bike_id":"1a113ea8-232a-4f8b-91de-04aed477da84","system_id":"levelo_inurba_marseille","lat":43.28541,"lon":5.38487,"is_reserved":false,"is_disabled":false,"rental_uris":{"android":"levelo://app?vid=1a113ea8-232a-4f8b-91de-04aed477da84","ios":"levelo://app?vid=1a113ea8-232a-4f8b-91de-04aed477da84"},"vehicle_type_id":"4","last_reported":1692900512,"current_range_meters":19600,"station_id":"","pricing_plan_id":"free"},{"bike_id":"fa78aabd-8504-4fff-97d5-67819f3c7e97","system_id":"levelo_inurba_marseille","lat":43.33712,"lon":5.39176,"is_reserved":false,"is_disabled":false,"rental_uris":{"android":"levelo://app?vid=fa78aabd-8504-4fff-97d5-67819f3c7e97","ios":"levelo://app?vid=fa78aabd-8504-4fff-97d5-67819f3c7e97"},"vehicle_type_id":"4","last_reported":1692900512,"current_range_meters":31200,"station_id":"ce4bhr92rcd13ifvqhsg","pricing_plan_id":"free"},{"bike_id":"a67bc8ba-477f-4950-afee-36977800f97f","system_id":"levelo_inurba_marseille","lat":43.33711,"lon":5.3918,"is_reserved":false,"is_disabled":false,"rental_uris":{"android":"levelo://app?vid=a67bc8ba-477f-4950-afee-36977800f97f","ios":"levelo://app?vid=a67bc8ba-477f-4950-afee-36977800f97f"},"vehicle_type_id":"4","last_reported":1692900512,"current_range_meters":30000,"station_id":"ce4bhr92rcd13ifvqhsg","pricing_plan_id":"free"},{"bike_id":"e54ac8bf-03e6-4445-b501-5f2a8496318b","system_id":"levelo_inurba_marseille","lat":43.337168,"lon":5.391825,"is_reserved":false,"is_disabled":false,"rental_uris":{"android":"levelo://app?vid=e54ac8bf-03e6-4445-b501-5f2a8496318b","ios":"levelo://app?vid=e54ac8bf-03e6-4445-b501-5f2a8496318b"},"vehicle_type_id":"4","last_reported":1692900512,"current_range_meters":12400,"station_id":"ce4bhr92rcd13ifvqhsg","pricing_plan_id":"free"},{"bike_id":"22f5ebde-00e6-4c30-b807-8619e53ee930","system_id":"levelo_inurba_marseille","lat":43.33724,"lon":5.39185,"is_reserved":false,"is_disabled":false,"rental_uris":{"android":"levelo://app?vid=22f5ebde-00e6-4c30-b807-8619e53ee930","ios":"levelo://app?vid=22f5ebde-00e6-4c30-b807-8619e53ee930"},"vehicle_type_id":"4","last_reported":1692900512,"current_range_meters":31200,"station_id":"ce4bhr92rcd13ifvqhsg","pricing_plan_id":"free"},{"bike_id":"f59572cd-eeee-45a7-81fd-c3c75f5406c9","system_id":"levelo_inurba_marseille","lat":43.33727,"lon":5.39181,"is_reserved":false,"is_disabled":false,"rental_uris":{"android":"levelo://app?vid=f59572cd-eeee-45a7-81fd-c3c75f5406c9","ios":"levelo://app?vid=f59572cd-eeee-45a7-81fd-c3c75f5406c9"},"vehicle_type_id":"4","last_reported":1692900512,"current_range_meters":28800,"station_id":"ce4bhr92rcd13ifvqhsg","pricing_plan_id":"free"},{"bike_id":"7009255e-b3b4-4c16-89fc-1dba203d6726","system_id":"levelo_inurba_marseille","lat":43.33725,"lon":5.39185,"is_reserved":false,"is_disabled":false,"rental_uris":{"android":"levelo://app?vid=7009255e-b3b4-4c16-89fc-1dba203d6726","ios":"levelo://app?vid=7009255e-b3b4-4c16-89fc-1dba203d6726"},"vehicle_type_id":"4","last_reported":1692900512,"current_range_meters":17600,"station_id":"ce4bhr92rcd13ifvqhsg","pricing_plan_id":"free"},{"bike_id":"3584ed82-8c83-4732-884b-ec35eb5758d6","system_id":"levelo_inurba_marseille","lat":43.33726,"lon":5.39185,"is_reserved":false,"is_disabled":false,"rental_uris":{"android":"levelo://app?vid=3584ed82-8c83-4732-884b-ec35eb5758d6","ios":"levelo://app?vid=3584ed82-8c83-4732-884b-ec35eb5758d6"},"vehicle_type_id":"4","last_reported":1692900512,"current_range_meters":14000,"station_id":"ce4bhr92rcd13ifvqhsg","pricing_plan_id":"free"},{"bike_id":"486e5578-f4b6-46c8-b288-dd2598c97761","system_id":"levelo_inurba_marseille","lat":43.33726,"lon":5.3919,"is_reserved":false,"is_disabled":false,"rental_uris":{"android":"levelo://app?vid=486e5578-f4b6-46c8-b288-dd2598c97761","ios":"levelo://app?vid=486e5578-f4b6-46c8-b288-dd2598c97761"},"vehicle_type_id":"4","last_reported":1692900512,"current_range_meters":31200,"station_id":"ce4bhr92rcd13ifvqhsg","pricing_plan_id":"free"},{"bike_id":"fcd157e8-6bfb-4a6b-89b1-fbc530062c9a","system_id":"levelo_inurba_marseille","lat":43.3373,"lon":5.39185,"is_reserved":false,"is_disabled":false,"rental_uris":{"android":"levelo://app?vid=fcd157e8-6bfb-4a6b-89b1-fbc530062c9a","ios":"levelo://app?vid=fcd157e8-6bfb-4a6b-89b1-fbc530062c9a"},"vehicle_type_id":"4","last_reported":1692900512,"current_range_meters":31200,"station_id":"ce4bhr92rcd13ifvqhsg","pricing_plan_id":"free"},{"bike_id":"54aa535b-3168-437d-a935-bb332c86467c","system_id":"levelo_inurba_marseille","lat":43.33728,"lon":5.39189,"is_reserved":false,"is_disabled":false,"rental_uris":{"android":"levelo://app?vid=54aa535b-3168-437d-a935-bb332c86467c","ios":"levelo://app?vid=54aa535b-3168-437d-a935-bb332c86467c"},"vehicle_type_id":"4","last_reported":1692900512,"current_range_meters":24800,"station_id":"ce4bhr92rcd13ifvqhsg","pricing_plan_id":"free"},{"bike_id":"2bb0cad1-d962-4ed6-8b66-bd4e77e92780","system_id":"levelo_inurba_marseille","lat":43.297946,"lon":5.404063,"is_reserved":false,"is_disabled":false,"rental_uris":{"android":"levelo://app?vid=2bb0cad1-d962-4ed6-8b66-bd4e77e92780","ios":"levelo://app?vid=2bb0cad1-d962-4ed6-8b66-bd4e77e92780"},"vehicle_type_id":"4","last_reported":1692900512,"current_range_meters":10000,"station_id":"ce4bh112rcd13ifvqd90","pricing_plan_id":"free"},{"bike_id":"81207e02-e329-4cea-9b6c-33ba9c0267d2","system_id":"levelo_inurba_marseille","lat":43.284787,"lon":5.384116,"is_reserved":false,"is_disabled":false,"rental_uris":{"android":"levelo://app?vid=81207e02-e329-4cea-9b6c-33ba9c0267d2","ios":"levelo://app?vid=81207e02-e329-4cea-9b6c-33ba9c0267d2"},"vehicle_type_id":"4","last_reported":1692900512,"current_range_meters":31200,"station_id":"ce4bh512rcd13ifvqe3g","pricing_plan_id":"free"},{"bike_id":"414290bd-353b-41b2-bd9a-1d3c2c5739df","system_id":"levelo_inurba_marseille","lat":43.284793,"lon":5.384119,"is_reserved":false,"is_disabled":false,"rental_uris":{"android":"levelo://app?vid=414290bd-353b-41b2-bd9a-1d3c2c5739df","ios":"levelo://app?vid=414290bd-353b-41b2-bd9a-1d3c2c5739df"},"vehicle_type_id":"4","last_reported":1692900512,"current_range_meters":26400,"station_id":"ce4bh512rcd13ifvqe3g","pricing_plan_id":"free"},{"bike_id":"290896ae-62be-452b-ba94-1e0c3bb88c82","system_id":"levelo_inurba_marseille","lat":43.284219,"lon":5.3497,"is_reserved":false,"is_disabled":false,"rental_uris":{"android":"levelo://app?vid=290896ae-62be-452b-ba94-1e0c3bb88c82","ios":"levelo://app?vid=290896ae-62be-452b-ba94-1e0c3bb88c82"},"vehicle_type_id":"4","last_reported":1692900512,"current_range_meters":12000,"station_id":"ce4bhbh2rcd13ifvqepg","pricing_plan_id":"free"},{"bike_id":"f50aca5f-cf5b-4020-925f-826a2e34874f","system_id":"levelo_inurba_marseille","lat":43.289363,"lon":5.396322,"is_reserved":false,"is_disabled":false,"rental_uris":{"android":"levelo://app?vid=f50aca5f-cf5b-4020-925f-826a2e34874f","ios":"levelo://app?vid=f50aca5f-cf5b-4020-925f-826a2e34874f"},"vehicle_type_id":"4","last_reported":1692900512,"current_range_meters":31200,"station_id":"ce4bh3h2rcd13ifvqdn0","pricing_plan_id":"free"},{"bike_id":"79ae07f7-3d9b-456b-927e-8e880eafedba","system_id":"levelo_inurba_marseille","lat":43.32572,"lon":5.40673,"is_reserved":false,"is_disabled":false,"rental_uris":{"android":"levelo://app?vid=79ae07f7-3d9b-456b-927e-8e880eafedba","ios":"levelo://app?vid=79ae07f7-3d9b-456b-927e-8e880eafedba"},"vehicle_type_id":"4","last_reported":1692900512,"current_range_meters":0,"station_id":"","pricing_plan_id":"free"},{"bike_id":"8f1b9876-2f23-4844-9ae1-81b89a2a5778","system_id":"levelo_inurba_marseille","lat":43.3296,"lon":5.40432,"is_reserved":false,"is_disabled":false,"rental_uris":{"android":"levelo://app?vid=8f1b9876-2f23-4844-9ae1-81b89a2a5778","ios":"levelo://app?vid=8f1b9876-2f23-4844-9ae1-81b89a2a5778"},"vehicle_type_id":"4","last_reported":1692900512,"current_range_meters":26800,"station_id":"","pricing_plan_id":"free"},{"bike_id":"49dd2626-769b-42da-a83b-4618a2cc293c","system_id":"levelo_inurba_marseille","lat":43.32957,"lon":5.40468,"is_reserved":false,"is_disabled":false,"rental_uris":{"android":"levelo://app?vid=49dd2626-769b-42da-a83b-4618a2cc293c","ios":"levelo://app?vid=49dd2626-769b-42da-a83b-4618a2cc293c"},"vehicle_type_id":"4","last_reported":1692900512,"current_range_meters":28800,"station_id":"","pricing_plan_id":"free"},{"bike_id":"91dd42e0-56db-49a8-945c-69599640ea3b","system_id":"levelo_inurba_marseille","lat":43.28275,"lon":5.3505,"is_reserved":false,"is_disabled":false,"rental_uris":{"android":"levelo://app?vid=91dd42e0-56db-49a8-945c-69599640ea3b","ios":"levelo://app?vid=91dd42e0-56db-49a8-945c-69599640ea3b"},"vehicle_type_id":"4","last_reported":1692900512,"current_range_meters":22800,"station_id":"ce4bhbp2rcd13ifvqerg","pricing_plan_id":"free"},{"bike_id":"5a2e6287-97ed-41f0-893d-ffb9c5599485","system_id":"levelo_inurba_marseille","lat":43.282754,"lon":5.350519,"is_reserved":false,"is_disabled":false,"rental_uris":{"android":"levelo://app?vid=5a2e6287-97ed-41f0-893d-ffb9c5599485","ios":"levelo://app?vid=5a2e6287-97ed-41f0-893d-ffb9c5599485"},"vehicle_type_id":"4","last_reported":1692900512,"current_range_meters":25200,"station_id":"ce4bhbp2rcd13ifvqerg","pricing_plan_id":"free"},{"bike_id":"27c0054c-b87f-4958-b0c4-832fa7d8dce6","system_id":"levelo_inurba_marseille","lat":43.282754,"lon":5.350519,"is_reserved":false,"is_disabled":false,"rental_uris":{"android":"levelo://app?vid=27c0054c-b87f-4958-b0c4-832fa7d8dce6","ios":"levelo://app?vid=27c0054c-b87f-4958-b0c4-832fa7d8dce6"},"vehicle_type_id":"4","last_reported":1692900512,"current_range_meters":22400,"station_id":"ce4bhbp2rcd13ifvqerg","pricing_plan_id":"free"},{"bike_id":"169d4224-09a7-4e1f-ad2d-2cded32d98c8","system_id":"levelo_inurba_marseille","lat":43.282754,"lon":5.350519,"is_reserved":false,"is_disabled":false,"rental_uris":{"android":"levelo://app?vid=169d4224-09a7-4e1f-ad2d-2cded32d98c8","ios":"levelo://app?vid=169d4224-09a7-4e1f-ad2d-2cded32d98c8"},"vehicle_type_id":"4","last_reported":1692900512,"current_range_meters":3200,"station_id":"ce4bhbp2rcd13ifvqerg","pricing_plan_id":"free"},{"bike_id":"730a4d26-8eaa-4ee8-851e-949482775563","system_id":"levelo_inurba_marseille","lat":43.28039,"lon":5.369297,"is_reserved":false,"is_disabled":false,"rental_uris":{"android":"levelo://app?vid=730a4d26-8eaa-4ee8-851e-949482775563","ios":"levelo://app?vid=730a4d26-8eaa-4ee8-851e-949482775563"},"vehicle_type_id":"4","last_reported":1692900512,"current_range_meters":24800,"station_id":"ce4bha12rcd13ifvqef0","pricing_plan_id":"free"},{"bike_id":"092ac69e-0b84-4fac-b30e-1a858ad5a391","system_id":"levelo_inurba_marseille","lat":43.2804,"lon":5.36938,"is_reserved":false,"is_disabled":false,"rental_uris":{"android":"levelo://app?vid=092ac69e-0b84-4fac-b30e-1a858ad5a391","ios":"levelo://app?vid=092ac69e-0b84-4fac-b30e-1a858ad5a391"},"vehicle_type_id":"4","last_reported":1692900512,"current_range_meters":14400,"station_id":"ce4bha12rcd13ifvqef0","pricing_plan_id":"free"},{"bike_id":"42c9473c-f049-4828-af5a-9d7c8c0d1007","system_id":"levelo_inurba_marseille","lat":43.28039,"lon":5.369297,"is_reserved":false,"is_disabled":false,"rental_uris":{"android":"levelo://app?vid=42c9473c-f049-4828-af5a-9d7c8c0d1007","ios":"levelo://app?vid=42c9473c-f049-4828-af5a-9d7c8c0d1007"},"vehicle_type_id":"4","last_reported":1692900512,"current_range_meters":1200,"station_id":"ce4bha12rcd13ifvqef0","pricing_plan_id":"free"},{"bike_id":"9f46cfde-4f76-4076-bade-5765c2d3d473","system_id":"levelo_inurba_marseille","lat":43.28039,"lon":5.369297,"is_reserved":false,"is_disabled":false,"rental_uris":{"android":"levelo://app?vid=9f46cfde-4f76-4076-bade-5765c2d3d473","ios":"levelo://app?vid=9f46cfde-4f76-4076-bade-5765c2d3d473"},"vehicle_type_id":"4","last_reported":1692900512,"current_range_meters":31600,"station_id":"ce4bha12rcd13ifvqef0","pricing_plan_id":"free"},{"bike_id":"947fddc4-7335-40a0-9d17-d97f3ea482a1","system_id":"levelo_inurba_marseille","lat":43.28442,"lon":5.39193,"is_reserved":false,"is_disabled":false,"rental_uris":{"android":"levelo://app?vid=947fddc4-7335-40a0-9d17-d97f3ea482a1","ios":"levelo://app?vid=947fddc4-7335-40a0-9d17-d97f3ea482a1"},"vehicle_type_id":"4","last_reported":1692900512,"current_range_meters":16800,"station_id":"ce4bhoh2rcd13ifvqh5g","pricing_plan_id":"free"},{"bike_id":"0219c6be-b8b7-435e-bd84-cadaef6bbdeb","system_id":"levelo_inurba_marseille","lat":43.28439,"lon":5.39189,"is_reserved":false,"is_disabled":false,"rental_uris":{"android":"levelo://app?vid=0219c6be-b8b7-435e-bd84-cadaef6bbdeb","ios":"levelo://app?vid=0219c6be-b8b7-435e-bd84-cadaef6bbdeb"},"vehicle_type_id":"4","last_reported":1692900512,"current_range_meters":0,"station_id":"ce4bhoh2rcd13ifvqh5g","pricing_plan_id":"free"},{"bike_id":"9497f445-f7e9-499b-b661-7cca69396823","system_id":"levelo_inurba_marseille","lat":43.32655,"lon":5.4099,"is_reserved":false,"is_disabled":false,"rental_uris":{"android":"levelo://app?vid=9497f445-f7e9-499b-b661-7cca69396823","ios":"levelo://app?vid=9497f445-f7e9-499b-b661-7cca69396823"},"vehicle_type_id":"4","last_reported":1692900512,"current_range_meters":30000,"station_id":"ce4bhpp2rcd13ifvqhgg","pricing_plan_id":"free"},{"bike_id":"3012b52b-725b-4ccc-9d3e-3fb14617a0b6","system_id":"levelo_inurba_marseille","lat":43.32655,"lon":5.40993,"is_reserved":false,"is_disabled":false,"rental_uris":{"android":"levelo://app?vid=3012b52b-725b-4ccc-9d3e-3fb14617a0b6","ios":"levelo://app?vid=3012b52b-725b-4ccc-9d3e-3fb14617a0b6"},"vehicle_type_id":"4","last_reported":1692900512,"current_range_meters":31200,"station_id":"ce4bhpp2rcd13ifvqhgg","pricing_plan_id":"free"},{"bike_id":"ce5437a3-ffc1-4454-848a-15a251877d37","system_id":"levelo_inurba_marseille","lat":43.32658,"lon":5.40992,"is_reserved":false,"is_disabled":false,"rental_uris":{"android":"levelo://app?vid=ce5437a3-ffc1-4454-848a-15a251877d37","ios":"levelo://app?vid=ce5437a3-ffc1-4454-848a-15a251877d37"},"vehicle_type_id":"4","last_reported":1692900512,"current_range_meters":26800,"station_id":"ce4bhpp2rcd13ifvqhgg","pricing_plan_id":"free"},{"bike_id":"c8df95a4-8dd4-4266-9b3a-2b6bf800c8bf","system_id":"levelo_inurba_marseille","lat":43.32658,"lon":5.40993,"is_reserved":false,"is_disabled":false,"rental_uris":{"android":"levelo://app?vid=c8df95a4-8dd4-4266-9b3a-2b6bf800c8bf","ios":"levelo://app?vid=c8df95a4-8dd4-4266-9b3a-2b6bf800c8bf"},"vehicle_type_id":"4","last_reported":1692900512,"current_range_meters":28400,"station_id":"ce4bhpp2rcd13ifvqhgg","pricing_plan_id":"free"},{"bike_id":"ef316339-2a9a-417f-b678-7a5af43ec4ff","system_id":"levelo_inurba_marseille","lat":43.3266,"lon":5.40992,"is_reserved":false,"is_disabled":false,"rental_uris":{"android":"levelo://app?vid=ef316339-2a9a-417f-b678-7a5af43ec4ff","ios":"levelo://app?vid=ef316339-2a9a-417f-b678-7a5af43ec4ff"},"vehicle_type_id":"4","last_reported":1692900512,"current_range_meters":27600,"station_id":"ce4bhpp2rcd13ifvqhgg","pricing_plan_id":"free"},{"bike_id":"0182811c-7990-4e85-93c1-dcb0f1497a54","system_id":"levelo_inurba_marseille","lat":43.326605,"lon":5.409903,"is_reserved":false,"is_disabled":false,"rental_uris":{"android":"levelo://app?vid=0182811c-7990-4e85-93c1-dcb0f1497a54","ios":"levelo://app?vid=0182811c-7990-4e85-93c1-dcb0f1497a54"},"vehicle_type_id":"4","last_reported":1692900512,"current_range_meters":16000,"station_id":"ce4bhpp2rcd13ifvqhgg","pricing_plan_id":"free"},{"bike_id":"22a4a2a5-52ae-4e25-aefd-0e02a4daa4cf","system_id":"levelo_inurba_marseille","lat":43.32659,"lon":5.40995,"is_reserved":false,"is_disabled":false,"rental_uris":{"android":"levelo://app?vid=22a4a2a5-52ae-4e25-aefd-0e02a4daa4cf","ios":"levelo://app?vid=22a4a2a5-52ae-4e25-aefd-0e02a4daa4cf"},"vehicle_type_id":"4","last_reported":1692900512,"current_range_meters":8800,"station_id":"ce4bhpp2rcd13ifvqhgg","pricing_plan_id":"free"},{"bike_id":"88d933c4-45b2-4433-a559-869e72c91fc5","system_id":"levelo_inurba_marseille","lat":43.30422,"lon":5.41284,"is_reserved":false,"is_disabled":false,"rental_uris":{"android":"levelo://app?vid=88d933c4-45b2-4433-a559-869e72c91fc5","ios":"levelo://app?vid=88d933c4-45b2-4433-a559-869e72c91fc5"},"vehicle_type_id":"4","last_reported":1692900512,"current_range_meters":9200,"station_id":"ce4bhop2rcd13ifvqh8g","pricing_plan_id":"free"},{"bike_id":"d1278ab8-85e4-4f10-9479-b55859215f65","system_id":"levelo_inurba_marseille","lat":43.287154,"lon":5.399979,"is_reserved":false,"is_disabled":false,"rental_uris":{"android":"levelo://app?vid=d1278ab8-85e4-4f10-9479-b55859215f65","ios":"levelo://app?vid=d1278ab8-85e4-4f10-9479-b55859215f65"},"vehicle_type_id":"4","last_reported":1692900512,"current_range_meters":8800,"station_id":"ce4bho92rcd13ifvqh3g","pricing_plan_id":"free"},{"bike_id":"a5e53d67-7900-43f3-93b2-db240d782e96","system_id":"levelo_inurba_marseille","lat":43.287154,"lon":5.399979,"is_reserved":false,"is_disabled":false,"rental_uris":{"android":"levelo://app?vid=a5e53d67-7900-43f3-93b2-db240d782e96","ios":"levelo://app?vid=a5e53d67-7900-43f3-93b2-db240d782e96"},"vehicle_type_id":"4","last_reported":1692900512,"current_range_meters":0,"station_id":"ce4bho92rcd13ifvqh3g","pricing_plan_id":"free"},{"bike_id":"1e283795-9031-494f-a2e0-01877e7df5ac","system_id":"levelo_inurba_marseille","lat":43.320045,"lon":5.415046,"is_reserved":false,"is_disabled":false,"rental_uris":{"android":"levelo://app?vid=1e283795-9031-494f-a2e0-01877e7df5ac","ios":"levelo://app?vid=1e283795-9031-494f-a2e0-01877e7df5ac"},"vehicle_type_id":"4","last_reported":1692900512,"current_range_meters":26800,"station_id":"ce4bhq92rcd13ifvqhkg","pricing_plan_id":"free"},{"bike_id":"c327718a-8fe6-4791-a349-aba0f8f94e82","system_id":"levelo_inurba_marseille","lat":43.279742,"lon":5.38744,"is_reserved":false,"is_disabled":false,"rental_uris":{"android":"levelo://app?vid=c327718a-8fe6-4791-a349-aba0f8f94e82","ios":"levelo://app?vid=c327718a-8fe6-4791-a349-aba0f8f94e82"},"vehicle_type_id":"4","last_reported":1692900512,"current_range_meters":24400,"station_id":"ce4bhg12rcd13ifvqf80","pricing_plan_id":"free"},{"bike_id":"07ca86d9-6fc1-46c5-8aec-3d97278af2ae","system_id":"levelo_inurba_marseille","lat":43.279742,"lon":5.38744,"is_reserved":false,"is_disabled":false,"rental_uris":{"android":"levelo://app?vid=07ca86d9-6fc1-46c5-8aec-3d97278af2ae","ios":"levelo://app?vid=07ca86d9-6fc1-46c5-8aec-3d97278af2ae"},"vehicle_type_id":"4","last_reported":1692900512,"current_range_meters":7200,"station_id":"ce4bhg12rcd13ifvqf80","pricing_plan_id":"free"},{"bike_id":"077155d3-4190-48d9-a094-d0cf0d120b7f","system_id":"levelo_inurba_marseille","lat":43.27617,"lon":5.3611,"is_reserved":false,"is_disabled":false,"rental_uris":{"android":"levelo://app?vid=077155d3-4190-48d9-a094-d0cf0d120b7f","ios":"levelo://app?vid=077155d3-4190-48d9-a094-d0cf0d120b7f"},"vehicle_type_id":"4","last_reported":1692900512,"current_range_meters":18800,"station_id":"ce4bgj92rcd13ifvqbe0","pricing_plan_id":"free"},{"bike_id":"bc4d7d50-4da9-4505-b8b3-0454368b2e97","system_id":"levelo_inurba_marseille","lat":43.276179,"lon":5.361009,"is_reserved":false,"is_disabled":false,"rental_uris":{"android":"levelo://app?vid=bc4d7d50-4da9-4505-b8b3-0454368b2e97","ios":"levelo://app?vid=bc4d7d50-4da9-4505-b8b3-0454368b2e97"},"vehicle_type_id":"4","last_reported":1692900512,"current_range_meters":2800,"station_id":"ce4bgj92rcd13ifvqbe0","pricing_plan_id":"free"},{"bike_id":"e209d7c3-b9ee-4fb2-b8ca-62ec9988cdfb","system_id":"levelo_inurba_marseille","lat":43.3483,"lon":5.34961,"is_reserved":false,"is_disabled":false,"rental_uris":{"android":"levelo://app?vid=e209d7c3-b9ee-4fb2-b8ca-62ec9988cdfb","ios":"levelo://app?vid=e209d7c3-b9ee-4fb2-b8ca-62ec9988cdfb"},"vehicle_type_id":"4","last_reported":1692900512,"current_range_meters":0,"station_id":"","pricing_plan_id":"free"},{"bike_id":"9fa34995-60cc-46bf-94d4-abfd9869e8d1","system_id":"levelo_inurba_marseille","lat":43.280784,"lon":5.396622,"is_reserved":false,"is_disabled":false,"rental_uris":{"android":"levelo://app?vid=9fa34995-60cc-46bf-94d4-abfd9869e8d1","ios":"levelo://app?vid=9fa34995-60cc-46bf-94d4-abfd9869e8d1"},"vehicle_type_id":"4","last_reported":1692900512,"current_range_meters":2400,"station_id":"ce4bho12rcd13ifvqh2g","pricing_plan_id":"free"},{"bike_id":"e771f898-9276-4916-b2af-8cad46c44f8e","system_id":"levelo_inurba_marseille","lat":43.27423,"lon":5.36185,"is_reserved":false,"is_disabled":false,"rental_uris":{"android":"levelo://app?vid=e771f898-9276-4916-b2af-8cad46c44f8e","ios":"levelo://app?vid=e771f898-9276-4916-b2af-8cad46c44f8e"},"vehicle_type_id":"4","last_reported":1692900512,"current_range_meters":6800,"station_id":"","pricing_plan_id":"free"},{"bike_id":"8fb262eb-9af4-4761-a87a-d98233585e22","system_id":"levelo_inurba_marseille","lat":43.27838,"lon":5.39193,"is_reserved":false,"is_disabled":false,"rental_uris":{"android":"levelo://app?vid=8fb262eb-9af4-4761-a87a-d98233585e22","ios":"levelo://app?vid=8fb262eb-9af4-4761-a87a-d98233585e22"},"vehicle_type_id":"4","last_reported":1692900512,"current_range_meters":12400,"station_id":"ce4bhjp2rcd13ifvqga0","pricing_plan_id":"free"},{"bike_id":"28f3f861-7f3c-4170-b9d8-8fd34dff154f","system_id":"levelo_inurba_marseille","lat":43.27381,"lon":5.36252,"is_reserved":false,"is_disabled":false,"rental_uris":{"android":"levelo://app?vid=28f3f861-7f3c-4170-b9d8-8fd34dff154f","ios":"levelo://app?vid=28f3f861-7f3c-4170-b9d8-8fd34dff154f"},"vehicle_type_id":"4","last_reported":1692900512,"current_range_meters":24800,"station_id":"ce4bhbh2rcd13ifvqeo0","pricing_plan_id":"free"},{"bike_id":"0856cd92-895d-4ac0-a99a-b96c9db84aee","system_id":"levelo_inurba_marseille","lat":43.273613,"lon":5.362705,"is_reserved":false,"is_disabled":false,"rental_uris":{"android":"levelo://app?vid=0856cd92-895d-4ac0-a99a-b96c9db84aee","ios":"levelo://app?vid=0856cd92-895d-4ac0-a99a-b96c9db84aee"},"vehicle_type_id":"4","last_reported":1692900512,"current_range_meters":0,"station_id":"ce4bhbh2rcd13ifvqeo0","pricing_plan_id":"free"},{"bike_id":"a447539f-f9e6-4047-97b5-41a83abb9f37","system_id":"levelo_inurba_marseille","lat":43.273613,"lon":5.362705,"is_reserved":false,"is_disabled":false,"rental_uris":{"android":"levelo://app?vid=a447539f-f9e6-4047-97b5-41a83abb9f37","ios":"levelo://app?vid=a447539f-f9e6-4047-97b5-41a83abb9f37"},"vehicle_type_id":"4","last_reported":1692900512,"current_range_meters":8400,"station_id":"ce4bhbh2rcd13ifvqeo0","pricing_plan_id":"free"},{"bike_id":"68eca0bf-156e-4baa-bc4c-7d35fba2fb2f","system_id":"levelo_inurba_marseille","lat":43.273613,"lon":5.362705,"is_reserved":false,"is_disabled":false,"rental_uris":{"android":"levelo://app?vid=68eca0bf-156e-4baa-bc4c-7d35fba2fb2f","ios":"levelo://app?vid=68eca0bf-156e-4baa-bc4c-7d35fba2fb2f"},"vehicle_type_id":"4","last_reported":1692900512,"current_range_meters":28000,"station_id":"ce4bhbh2rcd13ifvqeo0","pricing_plan_id":"free"},{"bike_id":"c201e90a-007f-4afb-b898-875571b4bcff","system_id":"levelo_inurba_marseille","lat":43.27373,"lon":5.36257,"is_reserved":false,"is_disabled":false,"rental_uris":{"android":"levelo://app?vid=c201e90a-007f-4afb-b898-875571b4bcff","ios":"levelo://app?vid=c201e90a-007f-4afb-b898-875571b4bcff"},"vehicle_type_id":"4","last_reported":1692900512,"current_range_meters":8000,"station_id":"ce4bhbh2rcd13ifvqeo0","pricing_plan_id":"free"},{"bike_id":"5e93efc5-ad3c-45c2-90e5-1b023f586779","system_id":"levelo_inurba_marseille","lat":43.275625,"lon":5.384392,"is_reserved":false,"is_disabled":false,"rental_uris":{"android":"levelo://app?vid=5e93efc5-ad3c-45c2-90e5-1b023f586779","ios":"levelo://app?vid=5e93efc5-ad3c-45c2-90e5-1b023f586779"},"vehicle_type_id":"4","last_reported":1692900512,"current_range_meters":2800,"station_id":"ce4bhh92rcd13ifvqfi0","pricing_plan_id":"free"},{"bike_id":"2187cfce-ba60-40ac-97b2-a78f59401b28","system_id":"levelo_inurba_marseille","lat":43.2737,"lon":5.36264,"is_reserved":false,"is_disabled":false,"rental_uris":{"android":"levelo://app?vid=2187cfce-ba60-40ac-97b2-a78f59401b28","ios":"levelo://app?vid=2187cfce-ba60-40ac-97b2-a78f59401b28"},"vehicle_type_id":"4","last_reported":1692900512,"current_range_meters":24000,"station_id":"ce4bhbh2rcd13ifvqeo0","pricing_plan_id":"free"},{"bike_id":"11817a8e-192b-44bb-98bc-8617a691fb9e","system_id":"levelo_inurba_marseille","lat":43.2737,"lon":5.36258,"is_reserved":false,"is_disabled":false,"rental_uris":{"android":"levelo://app?vid=11817a8e-192b-44bb-98bc-8617a691fb9e","ios":"levelo://app?vid=11817a8e-192b-44bb-98bc-8617a691fb9e"},"vehicle_type_id":"4","last_reported":1692900512,"current_range_meters":0,"station_id":"ce4bhbh2rcd13ifvqeo0","pricing_plan_id":"free"},{"bike_id":"9278726e-fbb6-4d1c-afd8-9bbbcc5e3810","system_id":"levelo_inurba_marseille","lat":43.3361,"lon":5.41031,"is_reserved":false,"is_disabled":false,"rental_uris":{"android":"levelo://app?vid=9278726e-fbb6-4d1c-afd8-9bbbcc5e3810","ios":"levelo://app?vid=9278726e-fbb6-4d1c-afd8-9bbbcc5e3810"},"vehicle_type_id":"4","last_reported":1692900512,"current_range_meters":13200,"station_id":"ce4bhqh2rcd13ifvqhmg","pricing_plan_id":"free"},{"bike_id":"f754ac75-4fe1-4659-b4d4-b0149a5f4e2a","system_id":"levelo_inurba_marseille","lat":43.336134,"lon":5.410341,"is_reserved":false,"is_disabled":false,"rental_uris":{"android":"levelo://app?vid=f754ac75-4fe1-4659-b4d4-b0149a5f4e2a","ios":"levelo://app?vid=f754ac75-4fe1-4659-b4d4-b0149a5f4e2a"},"vehicle_type_id":"4","last_reported":1692900512,"current_range_meters":20800,"station_id":"ce4bhqh2rcd13ifvqhmg","pricing_plan_id":"free"},{"bike_id":"2c002134-e4d2-41d1-b436-28e8e2ea24ca","system_id":"levelo_inurba_marseille","lat":43.276771,"lon":5.388799,"is_reserved":false,"is_disabled":false,"rental_uris":{"android":"levelo://app?vid=2c002134-e4d2-41d1-b436-28e8e2ea24ca","ios":"levelo://app?vid=2c002134-e4d2-41d1-b436-28e8e2ea24ca"},"vehicle_type_id":"4","last_reported":1692900512,"current_range_meters":28400,"station_id":"ce4bhi12rcd13ifvqfo0","pricing_plan_id":"free"},{"bike_id":"517e42e8-7bf0-407a-9148-08d9c9486339","system_id":"levelo_inurba_marseille","lat":43.34142,"lon":5.40898,"is_reserved":false,"is_disabled":false,"rental_uris":{"android":"levelo://app?vid=517e42e8-7bf0-407a-9148-08d9c9486339","ios":"levelo://app?vid=517e42e8-7bf0-407a-9148-08d9c9486339"},"vehicle_type_id":"4","last_reported":1692900512,"current_range_meters":29600,"station_id":"ce4bhqh2rcd13ifvqhlg","pricing_plan_id":"free"},{"bike_id":"80bc4f7f-6b01-4264-9dc0-f1d8e1d4062e","system_id":"levelo_inurba_marseille","lat":43.34142,"lon":5.40898,"is_reserved":false,"is_disabled":false,"rental_uris":{"android":"levelo://app?vid=80bc4f7f-6b01-4264-9dc0-f1d8e1d4062e","ios":"levelo://app?vid=80bc4f7f-6b01-4264-9dc0-f1d8e1d4062e"},"vehicle_type_id":"4","last_reported":1692900512,"current_range_meters":22800,"station_id":"ce4bhqh2rcd13ifvqhlg","pricing_plan_id":"free"},{"bike_id":"56fae68c-5275-441a-9dc9-be69facb353e","system_id":"levelo_inurba_marseille","lat":43.34142,"lon":5.40902,"is_reserved":false,"is_disabled":false,"rental_uris":{"android":"levelo://app?vid=56fae68c-5275-441a-9dc9-be69facb353e","ios":"levelo://app?vid=56fae68c-5275-441a-9dc9-be69facb353e"},"vehicle_type_id":"4","last_reported":1692900512,"current_range_meters":25200,"station_id":"ce4bhqh2rcd13ifvqhlg","pricing_plan_id":"free"},{"bike_id":"b48fafa3-f376-4f62-bf2a-79b952294cee","system_id":"levelo_inurba_marseille","lat":43.34143,"lon":5.40902,"is_reserved":false,"is_disabled":false,"rental_uris":{"android":"levelo://app?vid=b48fafa3-f376-4f62-bf2a-79b952294cee","ios":"levelo://app?vid=b48fafa3-f376-4f62-bf2a-79b952294cee"},"vehicle_type_id":"4","last_reported":1692900512,"current_range_meters":29200,"station_id":"ce4bhqh2rcd13ifvqhlg","pricing_plan_id":"free"},{"bike_id":"8597d573-3163-48a6-852f-be56568980fa","system_id":"levelo_inurba_marseille","lat":43.34146,"lon":5.409,"is_reserved":false,"is_disabled":false,"rental_uris":{"android":"levelo://app?vid=8597d573-3163-48a6-852f-be56568980fa","ios":"levelo://app?vid=8597d573-3163-48a6-852f-be56568980fa"},"vehicle_type_id":"4","last_reported":1692900512,"current_range_meters":27200,"station_id":"ce4bhqh2rcd13ifvqhlg","pricing_plan_id":"free"},{"bike_id":"002bb0a0-bb1a-470c-9c13-2518fae8f480","system_id":"levelo_inurba_marseille","lat":43.340804,"lon":5.410219,"is_reserved":false,"is_disabled":false,"rental_uris":{"android":"levelo://app?vid=002bb0a0-bb1a-470c-9c13-2518fae8f480","ios":"levelo://app?vid=002bb0a0-bb1a-470c-9c13-2518fae8f480"},"vehicle_type_id":"4","last_reported":1692900512,"current_range_meters":26400,"station_id":"ce4bhqh2rcd13ifvqhlg","pricing_plan_id":"free"},{"bike_id":"e70b76ea-5268-4e50-abe3-2f0407cbacc6","system_id":"levelo_inurba_marseille","lat":43.34148,"lon":5.40902,"is_reserved":false,"is_disabled":false,"rental_uris":{"android":"levelo://app?vid=e70b76ea-5268-4e50-abe3-2f0407cbacc6","ios":"levelo://app?vid=e70b76ea-5268-4e50-abe3-2f0407cbacc6"},"vehicle_type_id":"4","last_reported":1692900512,"current_range_meters":8800,"station_id":"ce4bhqh2rcd13ifvqhlg","pricing_plan_id":"free"},{"bike_id":"31852202-872c-40ee-ad71-fa11e1944efb","system_id":"levelo_inurba_marseille","lat":43.340804,"lon":5.410219,"is_reserved":false,"is_disabled":false,"rental_uris":{"android":"levelo://app?vid=31852202-872c-40ee-ad71-fa11e1944efb","ios":"levelo://app?vid=31852202-872c-40ee-ad71-fa11e1944efb"},"vehicle_type_id":"4","last_reported":1692900512,"current_range_meters":22400,"station_id":"ce4bhqh2rcd13ifvqhlg","pricing_plan_id":"free"},{"bike_id":"9b5a7fc0-c499-4328-adaa-ad99c8868fbc","system_id":"levelo_inurba_marseille","lat":43.30416,"lon":5.42543,"is_reserved":false,"is_disabled":false,"rental_uris":{"android":"levelo://app?vid=9b5a7fc0-c499-4328-adaa-ad99c8868fbc","ios":"levelo://app?vid=9b5a7fc0-c499-4328-adaa-ad99c8868fbc"},"vehicle_type_id":"4","last_reported":1692900512,"current_range_meters":1200,"station_id":"ce4bhoh2rcd13ifvqh6g","pricing_plan_id":"free"},{"bike_id":"4e20ea79-06ec-4a8f-9a23-8238aa6e934b","system_id":"levelo_inurba_marseille","lat":43.304136,"lon":5.425478,"is_reserved":false,"is_disabled":false,"rental_uris":{"android":"levelo://app?vid=4e20ea79-06ec-4a8f-9a23-8238aa6e934b","ios":"levelo://app?vid=4e20ea79-06ec-4a8f-9a23-8238aa6e934b"},"vehicle_type_id":"4","last_reported":1692900512,"current_range_meters":11600,"station_id":"ce4bhoh2rcd13ifvqh6g","pricing_plan_id":"free"},{"bike_id":"ae01cb88-b30b-490f-95b3-c0db0e86ff9b","system_id":"levelo_inurba_marseille","lat":43.29555,"lon":5.42282,"is_reserved":false,"is_disabled":false,"rental_uris":{"android":"levelo://app?vid=ae01cb88-b30b-490f-95b3-c0db0e86ff9b","ios":"levelo://app?vid=ae01cb88-b30b-490f-95b3-c0db0e86ff9b"},"vehicle_type_id":"4","last_reported":1692900512,"current_range_meters":27200,"station_id":"ce4bhph2rcd13ifvqhdg","pricing_plan_id":"free"},{"bike_id":"e925c7fc-62b4-46e0-b980-1e64df98966e","system_id":"levelo_inurba_marseille","lat":43.295511,"lon":5.422926,"is_reserved":false,"is_disabled":false,"rental_uris":{"android":"levelo://app?vid=e925c7fc-62b4-46e0-b980-1e64df98966e","ios":"levelo://app?vid=e925c7fc-62b4-46e0-b980-1e64df98966e"},"vehicle_type_id":"4","last_reported":1692900512,"current_range_meters":27200,"station_id":"ce4bhph2rcd13ifvqhdg","pricing_plan_id":"free"},{"bike_id":"f358dd86-e4e1-4c2f-93db-b885100a6066","system_id":"levelo_inurba_marseille","lat":43.295523,"lon":5.422926,"is_reserved":false,"is_disabled":false,"rental_uris":{"android":"levelo://app?vid=f358dd86-e4e1-4c2f-93db-b885100a6066","ios":"levelo://app?vid=f358dd86-e4e1-4c2f-93db-b885100a6066"},"vehicle_type_id":"4","last_reported":1692900512,"current_range_meters":12400,"station_id":"ce4bhph2rcd13ifvqhdg","pricing_plan_id":"free"},{"bike_id":"d01f22bd-bf75-4960-a042-15c4f91e1c39","system_id":"levelo_inurba_marseille","lat":43.295511,"lon":5.422926,"is_reserved":false,"is_disabled":false,"rental_uris":{"android":"levelo://app?vid=d01f22bd-bf75-4960-a042-15c4f91e1c39","ios":"levelo://app?vid=d01f22bd-bf75-4960-a042-15c4f91e1c39"},"vehicle_type_id":"4","last_reported":1692900512,"current_range_meters":25600,"station_id":"ce4bhph2rcd13ifvqhdg","pricing_plan_id":"free"},{"bike_id":"afe5eece-04ac-4cb8-81a6-3f8aa772aeb3","system_id":"levelo_inurba_marseille","lat":43.272124,"lon":5.391768,"is_reserved":false,"is_disabled":false,"rental_uris":{"android":"levelo://app?vid=afe5eece-04ac-4cb8-81a6-3f8aa772aeb3","ios":"levelo://app?vid=afe5eece-04ac-4cb8-81a6-3f8aa772aeb3"},"vehicle_type_id":"4","last_reported":1692900512,"current_range_meters":2000,"station_id":"ce4bhhp2rcd13ifvqfm0","pricing_plan_id":"free"},{"bike_id":"de868bce-0b06-407c-b50c-ef7c71ec525c","system_id":"levelo_inurba_marseille","lat":43.272116,"lon":5.391747,"is_reserved":false,"is_disabled":false,"rental_uris":{"android":"levelo://app?vid=de868bce-0b06-407c-b50c-ef7c71ec525c","ios":"levelo://app?vid=de868bce-0b06-407c-b50c-ef7c71ec525c"},"vehicle_type_id":"4","last_reported":1692900512,"current_range_meters":25600,"station_id":"ce4bhhp2rcd13ifvqfm0","pricing_plan_id":"free"},{"bike_id":"3d8384a3-1a59-49d9-b716-c0650db74ce0","system_id":"levelo_inurba_marseille","lat":43.26929,"lon":5.38911,"is_reserved":false,"is_disabled":false,"rental_uris":{"android":"levelo://app?vid=3d8384a3-1a59-49d9-b716-c0650db74ce0","ios":"levelo://app?vid=3d8384a3-1a59-49d9-b716-c0650db74ce0"},"vehicle_type_id":"4","last_reported":1692900512,"current_range_meters":24400,"station_id":"ce4bhhh2rcd13ifvqfl0","pricing_plan_id":"free"},{"bike_id":"6e3ab586-a51c-4e6f-80fa-0b2ff07afb5e","system_id":"levelo_inurba_marseille","lat":43.27092,"lon":5.40028,"is_reserved":false,"is_disabled":false,"rental_uris":{"android":"levelo://app?vid=6e3ab586-a51c-4e6f-80fa-0b2ff07afb5e","ios":"levelo://app?vid=6e3ab586-a51c-4e6f-80fa-0b2ff07afb5e"},"vehicle_type_id":"4","last_reported":1692900512,"current_range_meters":12800,"station_id":"","pricing_plan_id":"free"},{"bike_id":"c7bbc296-128b-468c-b6ad-4ec02d5200d7","system_id":"levelo_inurba_marseille","lat":43.26229,"lon":5.37436,"is_reserved":false,"is_disabled":false,"rental_uris":{"android":"levelo://app?vid=c7bbc296-128b-468c-b6ad-4ec02d5200d7","ios":"levelo://app?vid=c7bbc296-128b-468c-b6ad-4ec02d5200d7"},"vehicle_type_id":"4","last_reported":1692900512,"current_range_meters":16400,"station_id":"","pricing_plan_id":"free"},{"bike_id":"d26577ae-1a46-440b-95ff-3a0ecf6f5147","system_id":"levelo_inurba_marseille","lat":43.26194,"lon":5.37445,"is_reserved":false,"is_disabled":false,"rental_uris":{"android":"levelo://app?vid=d26577ae-1a46-440b-95ff-3a0ecf6f5147","ios":"levelo://app?vid=d26577ae-1a46-440b-95ff-3a0ecf6f5147"},"vehicle_type_id":"4","last_reported":1692900512,"current_range_meters":7600,"station_id":"","pricing_plan_id":"free"},{"bike_id":"d6fe0202-a6cb-4953-aab0-9505dced1dbf","system_id":"levelo_inurba_marseille","lat":43.26193,"lon":5.37435,"is_reserved":false,"is_disabled":false,"rental_uris":{"android":"levelo://app?vid=d6fe0202-a6cb-4953-aab0-9505dced1dbf","ios":"levelo://app?vid=d6fe0202-a6cb-4953-aab0-9505dced1dbf"},"vehicle_type_id":"4","last_reported":1692900512,"current_range_meters":21600,"station_id":"","pricing_plan_id":"free"},{"bike_id":"e1eba1ec-e78b-4de8-9f05-3cb72a64465c","system_id":"levelo_inurba_marseille","lat":43.261922,"lon":5.374383,"is_reserved":false,"is_disabled":false,"rental_uris":{"android":"levelo://app?vid=e1eba1ec-e78b-4de8-9f05-3cb72a64465c","ios":"levelo://app?vid=e1eba1ec-e78b-4de8-9f05-3cb72a64465c"},"vehicle_type_id":"4","last_reported":1692900512,"current_range_meters":4000,"station_id":"","pricing_plan_id":"free"},{"bike_id":"95be610f-1fad-4edb-8ac1-7aa271f09429","system_id":"levelo_inurba_marseille","lat":43.26191,"lon":5.37441,"is_reserved":false,"is_disabled":false,"rental_uris":{"android":"levelo://app?vid=95be610f-1fad-4edb-8ac1-7aa271f09429","ios":"levelo://app?vid=95be610f-1fad-4edb-8ac1-7aa271f09429"},"vehicle_type_id":"4","last_reported":1692900512,"current_range_meters":11200,"station_id":"","pricing_plan_id":"free"},{"bike_id":"085da663-8c6a-47bb-88e2-e83a8aa9f7a0","system_id":"levelo_inurba_marseille","lat":43.2619,"lon":5.37439,"is_reserved":false,"is_disabled":false,"rental_uris":{"android":"levelo://app?vid=085da663-8c6a-47bb-88e2-e83a8aa9f7a0","ios":"levelo://app?vid=085da663-8c6a-47bb-88e2-e83a8aa9f7a0"},"vehicle_type_id":"4","last_reported":1692900512,"current_range_meters":20000,"station_id":"","pricing_plan_id":"free"},{"bike_id":"1213b440-485a-447f-bebb-ce844e05efeb","system_id":"levelo_inurba_marseille","lat":43.26189,"lon":5.3743,"is_reserved":false,"is_disabled":false,"rental_uris":{"android":"levelo://app?vid=1213b440-485a-447f-bebb-ce844e05efeb","ios":"levelo://app?vid=1213b440-485a-447f-bebb-ce844e05efeb"},"vehicle_type_id":"4","last_reported":1692900512,"current_range_meters":15600,"station_id":"","pricing_plan_id":"free"},{"bike_id":"eba9e12c-4946-4c3e-9532-40519f37e675","system_id":"levelo_inurba_marseille","lat":43.26189,"lon":5.3744,"is_reserved":false,"is_disabled":false,"rental_uris":{"android":"levelo://app?vid=eba9e12c-4946-4c3e-9532-40519f37e675","ios":"levelo://app?vid=eba9e12c-4946-4c3e-9532-40519f37e675"},"vehicle_type_id":"4","last_reported":1692900512,"current_range_meters":8400,"station_id":"","pricing_plan_id":"free"},{"bike_id":"c4840ed9-a568-4074-89e8-78b57d29f844","system_id":"levelo_inurba_marseille","lat":43.317104,"lon":5.436818,"is_reserved":false,"is_disabled":false,"rental_uris":{"android":"levelo://app?vid=c4840ed9-a568-4074-89e8-78b57d29f844","ios":"levelo://app?vid=c4840ed9-a568-4074-89e8-78b57d29f844"},"vehicle_type_id":"4","last_reported":1692900512,"current_range_meters":29200,"station_id":"ce4bhp92rcd13ifvqhcg","pricing_plan_id":"free"},{"bike_id":"3aede007-9a76-49da-9e24-8059f37d085c","system_id":"levelo_inurba_marseille","lat":43.26188,"lon":5.3744,"is_reserved":false,"is_disabled":false,"rental_uris":{"android":"levelo://app?vid=3aede007-9a76-49da-9e24-8059f37d085c","ios":"levelo://app?vid=3aede007-9a76-49da-9e24-8059f37d085c"},"vehicle_type_id":"4","last_reported":1692900512,"current_range_meters":22400,"station_id":"","pricing_plan_id":"free"},{"bike_id":"1bc65f79-481c-4f5a-9510-503ff1fc4d22","system_id":"levelo_inurba_marseille","lat":43.26188,"lon":5.37446,"is_reserved":false,"is_disabled":false,"rental_uris":{"android":"levelo://app?vid=1bc65f79-481c-4f5a-9510-503ff1fc4d22","ios":"levelo://app?vid=1bc65f79-481c-4f5a-9510-503ff1fc4d22"},"vehicle_type_id":"4","last_reported":1692900512,"current_range_meters":17600,"station_id":"","pricing_plan_id":"free"},{"bike_id":"a2ec74f1-7b4a-4d3b-a2e9-1e7500774b76","system_id":"levelo_inurba_marseille","lat":43.26187,"lon":5.37435,"is_reserved":false,"is_disabled":false,"rental_uris":{"android":"levelo://app?vid=a2ec74f1-7b4a-4d3b-a2e9-1e7500774b76","ios":"levelo://app?vid=a2ec74f1-7b4a-4d3b-a2e9-1e7500774b76"},"vehicle_type_id":"4","last_reported":1692900512,"current_range_meters":10800,"station_id":"","pricing_plan_id":"free"},{"bike_id":"6742d20a-a004-4f92-8bb3-78c6ef6559e1","system_id":"levelo_inurba_marseille","lat":43.26187,"lon":5.37441,"is_reserved":false,"is_disabled":false,"rental_uris":{"android":"levelo://app?vid=6742d20a-a004-4f92-8bb3-78c6ef6559e1","ios":"levelo://app?vid=6742d20a-a004-4f92-8bb3-78c6ef6559e1"},"vehicle_type_id":"4","last_reported":1692900512,"current_range_meters":6400,"station_id":"","pricing_plan_id":"free"},{"bike_id":"a1876d02-9b35-467a-a1ef-16340a88af67","system_id":"levelo_inurba_marseille","lat":43.26187,"lon":5.37443,"is_reserved":false,"is_disabled":false,"rental_uris":{"android":"levelo://app?vid=a1876d02-9b35-467a-a1ef-16340a88af67","ios":"levelo://app?vid=a1876d02-9b35-467a-a1ef-16340a88af67"},"vehicle_type_id":"4","last_reported":1692900512,"current_range_meters":25200,"station_id":"","pricing_plan_id":"free"},{"bike_id":"40eabb6e-b972-4448-a2d0-0e4069a4a9d4","system_id":"levelo_inurba_marseille","lat":43.26187,"lon":5.37446,"is_reserved":false,"is_disabled":false,"rental_uris":{"android":"levelo://app?vid=40eabb6e-b972-4448-a2d0-0e4069a4a9d4","ios":"levelo://app?vid=40eabb6e-b972-4448-a2d0-0e4069a4a9d4"},"vehicle_type_id":"4","last_reported":1692900512,"current_range_meters":0,"station_id":"","pricing_plan_id":"free"},{"bike_id":"988df165-85a0-49d9-b885-6ae4a04ed801","system_id":"levelo_inurba_marseille","lat":43.26187,"lon":5.3745,"is_reserved":false,"is_disabled":false,"rental_uris":{"android":"levelo://app?vid=988df165-85a0-49d9-b885-6ae4a04ed801","ios":"levelo://app?vid=988df165-85a0-49d9-b885-6ae4a04ed801"},"vehicle_type_id":"4","last_reported":1692900512,"current_range_meters":23200,"station_id":"","pricing_plan_id":"free"},{"bike_id":"f06e7d50-bf00-4111-8184-49a3a40754c3","system_id":"levelo_inurba_marseille","lat":43.26186,"lon":5.37441,"is_reserved":false,"is_disabled":false,"rental_uris":{"android":"levelo://app?vid=f06e7d50-bf00-4111-8184-49a3a40754c3","ios":"levelo://app?vid=f06e7d50-bf00-4111-8184-49a3a40754c3"},"vehicle_type_id":"4","last_reported":1692900512,"current_range_meters":26000,"station_id":"","pricing_plan_id":"free"},{"bike_id":"b1caa4c2-29c3-4e67-bc10-b4e10adeb6fa","system_id":"levelo_inurba_marseille","lat":43.26186,"lon":5.37442,"is_reserved":false,"is_disabled":false,"rental_uris":{"android":"levelo://app?vid=b1caa4c2-29c3-4e67-bc10-b4e10adeb6fa","ios":"levelo://app?vid=b1caa4c2-29c3-4e67-bc10-b4e10adeb6fa"},"vehicle_type_id":"4","last_reported":1692900512,"current_range_meters":17200,"station_id":"","pricing_plan_id":"free"},{"bike_id":"ea8bd491-cb71-4c8b-862c-f6ca3d1ee5cb","system_id":"levelo_inurba_marseille","lat":43.26186,"lon":5.37442,"is_reserved":false,"is_disabled":false,"rental_uris":{"android":"levelo://app?vid=ea8bd491-cb71-4c8b-862c-f6ca3d1ee5cb","ios":"levelo://app?vid=ea8bd491-cb71-4c8b-862c-f6ca3d1ee5cb"},"vehicle_type_id":"4","last_reported":1692900512,"current_range_meters":22800,"station_id":"","pricing_plan_id":"free"},{"bike_id":"76f85ae7-6296-4dc8-b8ed-0f8a5b82b3d6","system_id":"levelo_inurba_marseille","lat":43.26186,"lon":5.37442,"is_reserved":false,"is_disabled":false,"rental_uris":{"android":"levelo://app?vid=76f85ae7-6296-4dc8-b8ed-0f8a5b82b3d6","ios":"levelo://app?vid=76f85ae7-6296-4dc8-b8ed-0f8a5b82b3d6"},"vehicle_type_id":"4","last_reported":1692900512,"current_range_meters":22800,"station_id":"","pricing_plan_id":"free"},{"bike_id":"2a895f09-3014-4973-ad28-3542c918f901","system_id":"levelo_inurba_marseille","lat":43.26186,"lon":5.37443,"is_reserved":false,"is_disabled":false,"rental_uris":{"android":"levelo://app?vid=2a895f09-3014-4973-ad28-3542c918f901","ios":"levelo://app?vid=2a895f09-3014-4973-ad28-3542c918f901"},"vehicle_type_id":"4","last_reported":1692900512,"current_range_meters":10800,"station_id":"","pricing_plan_id":"free"},{"bike_id":"dc61fe66-a5b0-4c9b-acd7-1c620b8eafc0","system_id":"levelo_inurba_marseille","lat":43.26186,"lon":5.37444,"is_reserved":false,"is_disabled":false,"rental_uris":{"android":"levelo://app?vid=dc61fe66-a5b0-4c9b-acd7-1c620b8eafc0","ios":"levelo://app?vid=dc61fe66-a5b0-4c9b-acd7-1c620b8eafc0"},"vehicle_type_id":"4","last_reported":1692900512,"current_range_meters":16800,"station_id":"","pricing_plan_id":"free"},{"bike_id":"7ca7da80-5684-4dd9-8c35-19720f4d6833","system_id":"levelo_inurba_marseille","lat":43.26184,"lon":5.37446,"is_reserved":false,"is_disabled":false,"rental_uris":{"android":"levelo://app?vid=7ca7da80-5684-4dd9-8c35-19720f4d6833","ios":"levelo://app?vid=7ca7da80-5684-4dd9-8c35-19720f4d6833"},"vehicle_type_id":"4","last_reported":1692900512,"current_range_meters":21200,"station_id":"","pricing_plan_id":"free"},{"bike_id":"d69b6697-5e36-4687-b8fb-cbe3488f8e07","system_id":"levelo_inurba_marseille","lat":43.317104,"lon":5.436818,"is_reserved":false,"is_disabled":false,"rental_uris":{"android":"levelo://app?vid=d69b6697-5e36-4687-b8fb-cbe3488f8e07","ios":"levelo://app?vid=d69b6697-5e36-4687-b8fb-cbe3488f8e07"},"vehicle_type_id":"4","last_reported":1692900512,"current_range_meters":28000,"station_id":"ce4bhp92rcd13ifvqhcg","pricing_plan_id":"free"},{"bike_id":"05b9602a-8253-4595-9938-0f8af85c1e6b","system_id":"levelo_inurba_marseille","lat":43.2618,"lon":5.37449,"is_reserved":false,"is_disabled":false,"rental_uris":{"android":"levelo://app?vid=05b9602a-8253-4595-9938-0f8af85c1e6b","ios":"levelo://app?vid=05b9602a-8253-4595-9938-0f8af85c1e6b"},"vehicle_type_id":"4","last_reported":1692900512,"current_range_meters":22800,"station_id":"","pricing_plan_id":"free"},{"bike_id":"2a3f497d-cc8a-4d79-8012-fb9dfb12cfc8","system_id":"levelo_inurba_marseille","lat":43.317104,"lon":5.436818,"is_reserved":false,"is_disabled":false,"rental_uris":{"android":"levelo://app?vid=2a3f497d-cc8a-4d79-8012-fb9dfb12cfc8","ios":"levelo://app?vid=2a3f497d-cc8a-4d79-8012-fb9dfb12cfc8"},"vehicle_type_id":"4","last_reported":1692900512,"current_range_meters":31200,"station_id":"ce4bhp92rcd13ifvqhcg","pricing_plan_id":"free"},{"bike_id":"6d976d58-781a-45d9-897c-611d02565aba","system_id":"levelo_inurba_marseille","lat":43.26177,"lon":5.37453,"is_reserved":false,"is_disabled":false,"rental_uris":{"android":"levelo://app?vid=6d976d58-781a-45d9-897c-611d02565aba","ios":"levelo://app?vid=6d976d58-781a-45d9-897c-611d02565aba"},"vehicle_type_id":"4","last_reported":1692900512,"current_range_meters":22000,"station_id":"","pricing_plan_id":"free"},{"bike_id":"c7cae9f7-889a-448b-883e-e008a37dc05c","system_id":"levelo_inurba_marseille","lat":43.26176,"lon":5.37445,"is_reserved":false,"is_disabled":false,"rental_uris":{"android":"levelo://app?vid=c7cae9f7-889a-448b-883e-e008a37dc05c","ios":"levelo://app?vid=c7cae9f7-889a-448b-883e-e008a37dc05c"},"vehicle_type_id":"4","last_reported":1692900512,"current_range_meters":24800,"station_id":"","pricing_plan_id":"free"},{"bike_id":"d1a78b2a-add7-413f-aba2-5ab4dca036e8","system_id":"levelo_inurba_marseille","lat":43.31719,"lon":5.43714,"is_reserved":false,"is_disabled":false,"rental_uris":{"android":"levelo://app?vid=d1a78b2a-add7-413f-aba2-5ab4dca036e8","ios":"levelo://app?vid=d1a78b2a-add7-413f-aba2-5ab4dca036e8"},"vehicle_type_id":"4","last_reported":1692900512,"current_range_meters":30400,"station_id":"ce4bhp92rcd13ifvqhcg","pricing_plan_id":"free"},{"bike_id":"e03f0ff7-2d3b-44fb-9443-ddeefe8f69b4","system_id":"levelo_inurba_marseille","lat":43.317104,"lon":5.436818,"is_reserved":false,"is_disabled":false,"rental_uris":{"android":"levelo://app?vid=e03f0ff7-2d3b-44fb-9443-ddeefe8f69b4","ios":"levelo://app?vid=e03f0ff7-2d3b-44fb-9443-ddeefe8f69b4"},"vehicle_type_id":"4","last_reported":1692900512,"current_range_meters":31200,"station_id":"ce4bhp92rcd13ifvqhcg","pricing_plan_id":"free"},{"bike_id":"6beac647-5ef2-4ea6-ac41-a98447ba0c9a","system_id":"levelo_inurba_marseille","lat":43.26173,"lon":5.37451,"is_reserved":false,"is_disabled":false,"rental_uris":{"android":"levelo://app?vid=6beac647-5ef2-4ea6-ac41-a98447ba0c9a","ios":"levelo://app?vid=6beac647-5ef2-4ea6-ac41-a98447ba0c9a"},"vehicle_type_id":"4","last_reported":1692900512,"current_range_meters":19200,"station_id":"","pricing_plan_id":"free"},{"bike_id":"f762fd75-c874-46f3-a48c-43e9d9007c27","system_id":"levelo_inurba_marseille","lat":43.2617,"lon":5.37448,"is_reserved":false,"is_disabled":false,"rental_uris":{"android":"levelo://app?vid=f762fd75-c874-46f3-a48c-43e9d9007c27","ios":"levelo://app?vid=f762fd75-c874-46f3-a48c-43e9d9007c27"},"vehicle_type_id":"4","last_reported":1692900512,"current_range_meters":4800,"station_id":"","pricing_plan_id":"free"},{"bike_id":"2bf2d55e-1fbb-4fb5-8788-611b40c3ab1a","system_id":"levelo_inurba_marseille","lat":43.26211,"lon":5.37925,"is_reserved":false,"is_disabled":false,"rental_uris":{"android":"levelo://app?vid=2bf2d55e-1fbb-4fb5-8788-611b40c3ab1a","ios":"levelo://app?vid=2bf2d55e-1fbb-4fb5-8788-611b40c3ab1a"},"vehicle_type_id":"4","last_reported":1692900512,"current_range_meters":2800,"station_id":"ce4bhjp2rcd13ifvqg90","pricing_plan_id":"free"},{"bike_id":"006f18d9-689b-40f6-9bbe-1bfadb6cd4e7","system_id":"levelo_inurba_marseille","lat":43.2621,"lon":5.37927,"is_reserved":false,"is_disabled":false,"rental_uris":{"android":"levelo://app?vid=006f18d9-689b-40f6-9bbe-1bfadb6cd4e7","ios":"levelo://app?vid=006f18d9-689b-40f6-9bbe-1bfadb6cd4e7"},"vehicle_type_id":"4","last_reported":1692900512,"current_range_meters":12400,"station_id":"ce4bhjp2rcd13ifvqg90","pricing_plan_id":"free"},{"bike_id":"cbb2c9a4-3312-4653-8751-1fc8bcfec93a","system_id":"levelo_inurba_marseille","lat":43.26206,"lon":5.37929,"is_reserved":false,"is_disabled":false,"rental_uris":{"android":"levelo://app?vid=cbb2c9a4-3312-4653-8751-1fc8bcfec93a","ios":"levelo://app?vid=cbb2c9a4-3312-4653-8751-1fc8bcfec93a"},"vehicle_type_id":"4","last_reported":1692900512,"current_range_meters":6000,"station_id":"ce4bhjp2rcd13ifvqg90","pricing_plan_id":"free"},{"bike_id":"45d99741-8d1f-471e-ae7e-de4c0814de96","system_id":"levelo_inurba_marseille","lat":43.26206,"lon":5.3793,"is_reserved":false,"is_disabled":false,"rental_uris":{"android":"levelo://app?vid=45d99741-8d1f-471e-ae7e-de4c0814de96","ios":"levelo://app?vid=45d99741-8d1f-471e-ae7e-de4c0814de96"},"vehicle_type_id":"4","last_reported":1692900512,"current_range_meters":25200,"station_id":"ce4bhjp2rcd13ifvqg90","pricing_plan_id":"free"},