{"last_updated":1750403434,"ttl":60,"version":"2.2","data":{"bikes":[{"bike_id":"3da29fb8-fc97-44c6-b9ac-31dd456b2fd4","system_id":"levelo_inurba_marseille","lat":43.33771,"lon":5.37424,"is_reserved":false,"is_disabled":true,"rental_uris":{"android":"levelo://app?vid=3da29fb8-fc97-44c6-b9ac-31dd456b2fd4","ios":"levelo://app?vid=3da29fb8-fc97-44c6-b9ac-31dd456b2fd4"},"vehicle_type_id":"4","last_reported":1750403434,"current_range_meters":0,"station_id":"","pricing_plan_id":"cebpf4jnsgd1na2vs0mg"},{"bike_id":"01861ad8-a8d7-4be6-816e-651927c87584","system_id":"levelo_inurba_marseille","lat":43.33751,"lon":5.37456,"is_reserved":false,"is_disabled":true,"rental_uris":{"android":"levelo://app?vid=01861ad8-a8d7-4be6-816e-651927c87584","ios":"levelo://app?vid=01861ad8-a8d7-4be6-816e-651927c87584"},"vehicle_type_id":"4","last_reported":1750403434,"current_range_meters":0,"station_id":"","pricing_plan_id":"cebpf4jnsgd1na2vs0mg"},{"bike_id":"eff675e9-75ca-47c9-bd95-5090bc060d4f","system_id":"levelo_inurba_marseille","lat":43.34059,"lon":5.36105,"is_reserved":false,"is_disabled":true,"rental_uris":{"android":"levelo://app?vid=eff675e9-75ca-47c9-bd95-5090bc060d4f","ios":"levelo://app?vid=eff675e9-75ca-47c9-bd95-5090bc060d4f"},"vehicle_type_id":"4","last_reported":1750403434,"current_range_meters":0,"station_id":"","pricing_plan_id":"cebpf4jnsgd1na2vs0mg"},{"bike_id":"4f79ed18-3754-4594-beef-87f7c093389b","system_id":"levelo_inurba_marseille","lat":43.34244,"lon":5.40345,"is_reserved":false,"is_disabled":true,"rental_uris":{"android":"levelo://app?vid=4f79ed18-3754-4594-beef-87f7c093389b","ios":"levelo://app?vid=4f79ed18-3754-4594-beef-87f7c093389b"},"vehicle_type_id":"4","last_reported":1750403434,"current_range_meters":0,"station_id":"","pricing_plan_id":"cebpf4jnsgd1na2vs0mg"},{"bike_id":"d4b2375e-15c2-4b2f-a628-6d423b46231b","system_id":"levelo_inurba_marseille","lat":43.242566,"lon":5.411603,"is_reserved":false,"is_disabled":true,"rental_uris":{"android":"levelo://app?vid=d4b2375e-15c2-4b2f-a628-6d423b46231b","ios":"levelo://app?vid=d4b2375e-15c2-4b2f-a628-6d423b46231b"},"vehicle_type_id":"4","last_reported":1750403434,"current_range_meters":0,"station_id":"","pricing_plan_id":"cebpf4jnsgd1na2vs0mg"},{"bike_id":"64b8b83e-503a-4015-b7c1-3bd9b6c0bb97","system_id":"levelo_inurba_marseille","lat":43.30308,"lon":5.45173,"is_reserved":false,"is_disabled":true,"rental_uris":{"android":"levelo://app?vid=64b8b83e-503a-4015-b7c1-3bd9b6c0bb97","ios":"levelo://app?vid=64b8b83e-503a-4015-b7c1-3bd9b6c0bb97"},"vehicle_type_id":"4","last_reported":1750403434,"current_range_meters":0,"station_id":"","pricing_plan_id":"cebpf4jnsgd1na2vs0mg"},{"bike_id":"d2bd57c8-6b64-48db-ad24-5398eb3fd9d6","system_id":"levelo_inurba_marseille","lat":43.337444,"lon":5.374475,"is_reserved":false,"is_disabled":true,"rental_uris":{"android":"levelo://app?vid=d2bd57c8-6b64-48db-ad24-5398eb3fd9d6","ios":"levelo://app?vid=d2bd57c8-6b64-48db-ad24-5398eb3fd9d6"},"vehicle_type_id":"4","last_reported":1750403434,"current_range_meters":0,"station_id":"","pricing_plan_id":"cebpf4jnsgd1na2vs0mg"},{"bike_id":"62a493c7-4534-4419-ad43-0582de34a72a","system_id":"levelo_inurba_marseille","lat":43.21366,"lon":5.355183,"is_reserved":false,"is_disabled":true,"rental_uris":{"android":"levelo://app?vid=62a493c7-4534-4419-ad43-0582de34a72a","ios":"levelo://app?vid=62a493c7-4534-4419-ad43-0582de34a72a"},"vehicle_type_id":"4","last_reported":1750403434,"current_range_meters":0,"station_id":"","pricing_plan_id":"cebpf4jnsgd1na2vs0mg"},{"bike_id":"4058c190-2d8f-4783-8d80-8d72c78a821c","system_id":"levelo_inurba_marseille","lat":43.33448,"lon":5.36411,"is_reserved":false,"is_disabled":true,"rental_uris":{"android":"levelo://app?vid=4058c190-2d8f-4783-8d80-8d72c78a821c","ios":"levelo://app?vid=4058c190-2d8f-4783-8d80-8d72c78a821c"},"vehicle_type_id":"4","last_reported":1750403434,"current_range_meters":0,"station_id":"","pricing_plan_id":"cebpf4jnsgd1na2vs0mg"},{"bike_id":"8ad9234e-001a-4549-8bba-9baf2ef98804","system_id":"levelo_inurba_marseille","lat":43.2689,"lon":5.39883,"is_reserved":false,"is_disabled":true,"rental_uris":{"android":"levelo://app?vid=8ad9234e-001a-4549-8bba-9baf2ef98804","ios":"levelo://app?vid=8ad9234e-001a-4549-8bba-9baf2ef98804"},"vehicle_type_id":"4","last_reported":1750403434,"current_range_meters":0,"station_id":"","pricing_plan_id":"cebpf4jnsgd1na2vs0mg"},{"bike_id":"a50a6588-33f7-480b-86db-f01191577927","system_id":"levelo_inurba_marseille","lat":43.278591,"lon":5.428133,"is_reserved":false,"is_disabled":true,"rental_uris":{"android":"levelo://app?vid=a50a6588-33f7-480b-86db-f01191577927","ios":"levelo://app?vid=a50a6588-33f7-480b-86db-f01191577927"},"vehicle_type_id":"4","last_reported":1750403434,"current_range_meters":0,"station_id":"","pricing_plan_id":"cebpf4jnsgd1na2vs0mg"},{"bike_id":"47196f00-388f-4b3b-a4de-3dba126cd107","system_id":"levelo_inurba_marseille","lat":43.24405,"lon":5.41159,"is_reserved":false,"is_disabled":true,"rental_uris":{"android":"levelo://app?vid=47196f00-388f-4b3b-a4de-3dba126cd107","ios":"levelo://app?vid=47196f00-388f-4b3b-a4de-3dba126cd107"},"vehicle_type_id":"4","last_reported":1750403434,"current_range_meters":0,"station_id":"","pricing_plan_id":"cebpf4jnsgd1na2vs0mg"},{"bike_id":"efb4bfd8-07a4-4223-a74a-5636a3528a1c","system_id":"levelo_inurba_marseille","lat":43.29293,"lon":5.45644,"is_reserved":false,"is_disabled":true,"rental_uris":{"android":"levelo://app?vid=efb4bfd8-07a4-4223-a74a-5636a3528a1c","ios":"levelo://app?vid=efb4bfd8-07a4-4223-a74a-5636a3528a1c"},"vehicle_type_id":"4","last_reported":1750403434,"current_range_meters":0,"station_id":"","pricing_plan_id":"cebpf4jnsgd1na2vs0mg"},{"bike_id":"d6609b4f-333b-43c1-9ebe-8726f5e76e88","system_id":"levelo_inurba_marseille","lat":43.337444,"lon":5.374475,"is_reserved":false,"is_disabled":true,"rental_uris":{"android":"levelo://app?vid=d6609b4f-333b-43c1-9ebe-8726f5e76e88","ios":"levelo://app?vid=d6609b4f-333b-43c1-9ebe-8726f5e76e88"},"vehicle_type_id":"4","last_reported":1750403434,"current_range_meters":0,"station_id":"","pricing_plan_id":"cebpf4jnsgd1na2vs0mg"},{"bike_id":"57c83ce1-960e-466a-b6c5-d93bc130c53a","system_id":"levelo_inurba_marseille","lat":43.24947,"lon":5.38942,"is_reserved":false,"is_disabled":true,"rental_uris":{"android":"levelo://app?vid=57c83ce1-960e-466a-b6c5-d93bc130c53a","ios":"levelo://app?vid=57c83ce1-960e-466a-b6c5-d93bc130c53a"},"vehicle_type_id":"4","last_reported":1750403434,"current_range_meters":0,"station_id":"","pricing_plan_id":"cebpf4jnsgd1na2vs0mg"},{"bike_id":"439201bb-589e-474e-886a-ccf77a705631","system_id":"levelo_inurba_marseille","lat":43.2566,"lon":5.38249,"is_reserved":false,"is_disabled":true,"rental_uris":{"android":"levelo://app?vid=439201bb-589e-474e-886a-ccf77a705631","ios":"levelo://app?vid=439201bb-589e-474e-886a-ccf77a705631"},"vehicle_type_id":"4","last_reported":1750403434,"current_range_meters":0,"station_id":"","pricing_plan_id":"cebpf4jnsgd1na2vs0mg"},{"bike_id":"45bbf0a9-fb71-4554-b265-a4213254df71","system_id":"levelo_inurba_marseille","lat":43.291958,"lon":5.357966,"is_reserved":false,"is_disabled":true,"rental_uris":{"android":"levelo://app?vid=45bbf0a9-fb71-4554-b265-a4213254df71","ios":"levelo://app?vid=45bbf0a9-fb71-4554-b265-a4213254df71"},"vehicle_type_id":"4","last_reported":1750403434,"current_range_meters":0,"station_id":"ce4bgip2rcd13ifvqbb0","pricing_plan_id":"cebpf4jnsgd1na2vs0mg"},{"bike_id":"096e63b8-03bf-4850-8b00-88037ebcf16b","system_id":"levelo_inurba_marseille","lat":43.2986,"lon":5.39731,"is_reserved":false,"is_disabled":true,"rental_uris":{"android":"levelo://app?vid=096e63b8-03bf-4850-8b00-88037ebcf16b","ios":"levelo://app?vid=096e63b8-03bf-4850-8b00-88037ebcf16b"},"vehicle_type_id":"4","last_reported":1750403434,"current_range_meters":0,"station_id":"ce4bh0h2rcd13ifvqd50","pricing_plan_id":"cebpf4jnsgd1na2vs0mg"},{"bike_id":"f2330c81-7f47-4a9d-84ec-267467bcc4ce","system_id":"levelo_inurba_marseille","lat":43.303494,"lon":5.404263,"is_reserved":false,"is_disabled":true,"rental_uris":{"android":"levelo://app?vid=f2330c81-7f47-4a9d-84ec-267467bcc4ce","ios":"levelo://app?vid=f2330c81-7f47-4a9d-84ec-267467bcc4ce"},"vehicle_type_id":"4","last_reported":1750403434,"current_range_meters":0,"station_id":"ce4bh392rcd13ifvqdm0","pricing_plan_id":"cebpf4jnsgd1na2vs0mg"},{"bike_id":"be584ec1-1021-471f-bad1-235e3c079827","system_id":"levelo_inurba_marseille","lat":43.28937,"lon":5.39641,"is_reserved":false,"is_disabled":true,"rental_uris":{"android":"levelo://app?vid=be584ec1-1021-471f-bad1-235e3c079827","ios":"levelo://app?vid=be584ec1-1021-471f-bad1-235e3c079827"},"vehicle_type_id":"4","last_reported":1750403434,"current_range_meters":0,"station_id":"ce4bh3h2rcd13ifvqdn0","pricing_plan_id":"cebpf4jnsgd1na2vs0mg"},{"bike_id":"ad22dd41-6ab2-491e-89f1-ee202bdb5075","system_id":"levelo_inurba_marseille","lat":43.266833,"lon":5.38273,"is_reserved":false,"is_disabled":true,"rental_uris":{"android":"levelo://app?vid=ad22dd41-6ab2-491e-89f1-ee202bdb5075","ios":"levelo://app?vid=ad22dd41-6ab2-491e-89f1-ee202bdb5075"},"vehicle_type_id":"4","last_reported":1750403434,"current_range_meters":0,"station_id":"ce4bhg92rcd13ifvqf90","pricing_plan_id":"cebpf4jnsgd1na2vs0mg"},{"bike_id":"3a3cfd7e-7a98-4188-9f0a-1c558e9d8b36","system_id":"levelo_inurba_marseille","lat":43.27322,"lon":5.39071,"is_reserved":false,"is_disabled":true,"rental_uris":{"android":"levelo://app?vid=3a3cfd7e-7a98-4188-9f0a-1c558e9d8b36","ios":"levelo://app?vid=3a3cfd7e-7a98-4188-9f0a-1c558e9d8b36"},"vehicle_type_id":"4","last_reported":1750403434,"current_range_meters":0,"station_id":"ce4bhgp2rcd13ifvqfe0","pricing_plan_id":"cebpf4jnsgd1na2vs0mg"},{"bike_id":"2ccf13bc-8b26-4b82-8802-8c6ab6961b05","system_id":"levelo_inurba_marseille","lat":43.23148,"lon":5.43718,"is_reserved":false,"is_disabled":true,"rental_uris":{"android":"levelo://app?vid=2ccf13bc-8b26-4b82-8802-8c6ab6961b05","ios":"levelo://app?vid=2ccf13bc-8b26-4b82-8802-8c6ab6961b05"},"vehicle_type_id":"4","last_reported":1750403434,"current_range_meters":0,"station_id":"ce4bhmp2rcd13ifvqgog","pricing_plan_id":"cebpf4jnsgd1na2vs0mg"},{"bike_id":"aeb33d79-a850-4545-aa09-69c06d0cf3f5","system_id":"levelo_inurba_marseille","lat":43.24176,"lon":5.3972,"is_reserved":false,"is_disabled":true,"rental_uris":{"android":"levelo://app?vid=aeb33d79-a850-4545-aa09-69c06d0cf3f5","ios":"levelo://app?vid=aeb33d79-a850-4545-aa09-69c06d0cf3f5"},"vehicle_type_id":"4","last_reported":1750403434,"current_range_meters":0,"station_id":"ce4bhn12rcd13ifvqgpg","pricing_plan_id":"cebpf4jnsgd1na2vs0mg"},{"bike_id":"05172c24-6dde-4907-8af6-01d0e481b4de","system_id":"levelo_inurba_marseille","lat":43.22498,"lon":5.34787,"is_reserved":false,"is_disabled":true,"rental_uris":{"android":"levelo://app?vid=05172c24-6dde-4907-8af6-01d0e481b4de","ios":"levelo://app?vid=05172c24-6dde-4907-8af6-01d0e481b4de"},"vehicle_type_id":"4","last_reported":1750403434,"current_range_meters":0,"station_id":"st_cvj5dfep6f1abm77gieg","pricing_plan_id":"cebpf4jnsgd1na2vs0mg"},{"bike_id":"071be348-e535-46a5-b437-2fe87f1c4155","system_id":"levelo_inurba_marseille","lat":43.21781,"lon":5.34619,"is_reserved":false,"is_disabled":true,"rental_uris":{"android":"levelo://app?vid=071be348-e535-46a5-b437-2fe87f1c4155","ios":"levelo://app?vid=071be348-e535-46a5-b437-2fe87f1c4155"},"vehicle_type_id":"4","last_reported":1750403434,"current_range_meters":0,"station_id":"st_cvj6r9ubvosntc0bgbag","pricing_plan_id":"cebpf4jnsgd1na2vs0mg"},{"bike_id":"9f330ac5-5f1d-46ed-a6b0-51cde3054b1a","system_id":"levelo_inurba_marseille","lat":43.21183,"lon":5.35079,"is_reserved":false,"is_disabled":true,"rental_uris":{"android":"levelo://app?vid=9f330ac5-5f1d-46ed-a6b0-51cde3054b1a","ios":"levelo://app?vid=9f330ac5-5f1d-46ed-a6b0-51cde3054b1a"},"vehicle_type_id":"4","last_reported":1750403434,"current_range_meters":0,"station_id":"st_cvj6sg6p6f1abm77japg","pricing_plan_id":"cebpf4jnsgd1na2vs0mg"},{"bike_id":"780983d0-98cd-48cd-b864-ef9a767ea130","system_id":"levelo_inurba_marseille","lat":43.21203,"lon":5.35068,"is_reserved":false,"is_disabled":true,"rental_uris":{"android":"levelo://app?vid=780983d0-98cd-48cd-b864-ef9a767ea130","ios":"levelo://app?vid=780983d0-98cd-48cd-b864-ef9a767ea130"},"vehicle_type_id":"4","last_reported":1750403434,"current_range_meters":0,"station_id":"st_cvj6sg6p6f1abm77japg","pricing_plan_id":"cebpf4jnsgd1na2vs0mg"},{"bike_id":"4ce5b165-f22d-40cf-abd3-1cb294861955","system_id":"levelo_inurba_marseille","lat":43.2121,"lon":5.35083,"is_reserved":false,"is_disabled":true,"rental_uris":{"android":"levelo://app?vid=4ce5b165-f22d-40cf-abd3-1cb294861955","ios":"levelo://app?vid=4ce5b165-f22d-40cf-abd3-1cb294861955"},"vehicle_type_id":"4","last_reported":1750403434,"current_range_meters":0,"station_id":"st_cvj6sg6p6f1abm77japg","pricing_plan_id":"cebpf4jnsgd1na2vs0mg"},{"bike_id":"3bbb3ce5-c63f-42a2-b2a1-470bb9065f9e","system_id":"levelo_inurba_marseille","lat":43.21199,"lon":5.35076,"is_reserved":false,"is_disabled":true,"rental_uris":{"android":"levelo://app?vid=3bbb3ce5-c63f-42a2-b2a1-470bb9065f9e","ios":"levelo://app?vid=3bbb3ce5-c63f-42a2-b2a1-470bb9065f9e"},"vehicle_type_id":"4","last_reported":1750403434,"current_range_meters":0,"station_id":"st_cvj6sg6p6f1abm77japg","pricing_plan_id":"cebpf4jnsgd1na2vs0mg"},{"bike_id":"8f49a748-5547-4851-a01f-ec21c1b4690e","system_id":"levelo_inurba_marseille","lat":43.32475,"lon":5.36563,"is_reserved":false,"is_disabled":true,"rental_uris":{"android":"levelo://app?vid=8f49a748-5547-4851-a01f-ec21c1b4690e","ios":"levelo://app?vid=8f49a748-5547-4851-a01f-ec21c1b4690e"},"vehicle_type_id":"4","last_reported":1750403434,"current_range_meters":400,"station_id":"ce4bhs12rcd13ifvqhvg","pricing_plan_id":"cebpf4jnsgd1na2vs0mg"},{"bike_id":"8c76e6fc-f748-4c6a-8e47-9bb612804b75","system_id":"levelo_inurba_marseille","lat":43.27842,"lon":5.39202,"is_reserved":false,"is_disabled":true,"rental_uris":{"android":"levelo://app?vid=8c76e6fc-f748-4c6a-8e47-9bb612804b75","ios":"levelo://app?vid=8c76e6fc-f748-4c6a-8e47-9bb612804b75"},"vehicle_type_id":"4","last_reported":1750403434,"current_range_meters":800,"station_id":"ce4bhjp2rcd13ifvqga0","pricing_plan_id":"cebpf4jnsgd1na2vs0mg"},{"bike_id":"cdfe7948-a710-4ab8-a2f8-9e1f8a38b925","system_id":"levelo_inurba_marseille","lat":43.23147,"lon":5.43718,"is_reserved":false,"is_disabled":true,"rental_uris":{"android":"levelo://app?vid=cdfe7948-a710-4ab8-a2f8-9e1f8a38b925","ios":"levelo://app?vid=cdfe7948-a710-4ab8-a2f8-9e1f8a38b925"},"vehicle_type_id":"4","last_reported":1750403434,"current_range_meters":800,"station_id":"ce4bhmp2rcd13ifvqgog","pricing_plan_id":"cebpf4jnsgd1na2vs0mg"},{"bike_id":"97b9f71b-c1c8-453e-924e-c76d68d72e28","system_id":"levelo_inurba_marseille","lat":43.292617,"lon":5.38442,"is_reserved":false,"is_disabled":true,"rental_uris":{"android":"levelo://app?vid=97b9f71b-c1c8-453e-924e-c76d68d72e28","ios":"levelo://app?vid=97b9f71b-c1c8-453e-924e-c76d68d72e28"},"vehicle_type_id":"4","last_reported":1750403434,"current_range_meters":1200,"station_id":"ce4bh692rcd13ifvqea0","pricing_plan_id":"cebpf4jnsgd1na2vs0mg"},{"bike_id":"dd78fbbb-806f-404d-a05b-e4e69450a8bc","system_id":"levelo_inurba_marseille","lat":43.29719,"lon":5.39798,"is_reserved":false,"is_disabled":true,"rental_uris":{"android":"levelo://app?vid=dd78fbbb-806f-404d-a05b-e4e69450a8bc","ios":"levelo://app?vid=dd78fbbb-806f-404d-a05b-e4e69450a8bc"},"vehicle_type_id":"4","last_reported":1750403434,"current_range_meters":1600,"station_id":"","pricing_plan_id":"cebpf4jnsgd1na2vs0mg"},{"bike_id":"1296a05b-0bb7-41b1-9035-618e3991d14e","system_id":"levelo_inurba_marseille","lat":43.24168,"lon":5.39727,"is_reserved":false,"is_disabled":true,"rental_uris":{"android":"levelo://app?vid=1296a05b-0bb7-41b1-9035-618e3991d14e","ios":"levelo://app?vid=1296a05b-0bb7-41b1-9035-618e3991d14e"},"vehicle_type_id":"4","last_reported":1750403434,"current_range_meters":1600,"station_id":"ce4bhn12rcd13ifvqgpg","pricing_plan_id":"cebpf4jnsgd1na2vs0mg"},{"bike_id":"5a865566-97ce-42e1-a8e4-50b5e46ac3c8","system_id":"levelo_inurba_marseille","lat":43.29597,"lon":5.38107,"is_reserved":false,"is_disabled":true,"rental_uris":{"android":"levelo://app?vid=5a865566-97ce-42e1-a8e4-50b5e46ac3c8","ios":"levelo://app?vid=5a865566-97ce-42e1-a8e4-50b5e46ac3c8"},"vehicle_type_id":"4","last_reported":1750403434,"current_range_meters":2000,"station_id":"ce4bgl12rcd13ifvqbo0","pricing_plan_id":"cebpf4jnsgd1na2vs0mg"},{"bike_id":"0053df57-afe6-431a-b155-878524745f3c","system_id":"levelo_inurba_marseille","lat":43.30301,"lon":5.36896,"is_reserved":false,"is_disabled":true,"rental_uris":{"android":"levelo://app?vid=0053df57-afe6-431a-b155-878524745f3c","ios":"levelo://app?vid=0053df57-afe6-431a-b155-878524745f3c"},"vehicle_type_id":"4","last_reported":1750403434,"current_range_meters":2000,"station_id":"ce4bgqh2rcd13ifvqc5g","pricing_plan_id":"cebpf4jnsgd1na2vs0mg"},{"bike_id":"5758f02d-ab77-4076-9ccd-2538e67f35b9","system_id":"levelo_inurba_marseille","lat":43.30095,"lon":5.37932,"is_reserved":false,"is_disabled":false,"rental_uris":{"android":"levelo://app?vid=5758f02d-ab77-4076-9ccd-2538e67f35b9","ios":"levelo://app?vid=5758f02d-ab77-4076-9ccd-2538e67f35b9"},"vehicle_type_id":"4","last_reported":1750403434,"current_range_meters":2800,"station_id":"","pricing_plan_id":"cebpf4jnsgd1na2vs0mg"},{"bike_id":"0bf896f6-fc0c-4490-8536-3ef4e0c5228f","system_id":"levelo_inurba_marseille","lat":43.29166,"lon":5.37166,"is_reserved":false,"is_disabled":false,"rental_uris":{"android":"levelo://app?vid=0bf896f6-fc0c-4490-8536-3ef4e0c5228f","ios":"levelo://app?vid=0bf896f6-fc0c-4490-8536-3ef4e0c5228f"},"vehicle_type_id":"4","last_reported":1750403434,"current_range_meters":2800,"station_id":"ce4bha92rcd13ifvqeh0","pricing_plan_id":"cebpf4jnsgd1na2vs0mg"},{"bike_id":"bb9d734f-710b-40b4-8234-5a3dab276cc8","system_id":"levelo_inurba_marseille","lat":43.298,"lon":5.37115,"is_reserved":false,"is_disabled":false,"rental_uris":{"android":"levelo://app?vid=bb9d734f-710b-40b4-8234-5a3dab276cc8","ios":"levelo://app?vid=bb9d734f-710b-40b4-8234-5a3dab276cc8"},"vehicle_type_id":"4","last_reported":1750403434,"current_range_meters":3200,"station_id":"ce4bgop2rcd13ifvqc1g","pricing_plan_id":"cebpf4jnsgd1na2vs0mg"},{"bike_id":"18da219c-61ee-49e5-88a0-c9f8ae682cd7","system_id":"levelo_inurba_marseille","lat":43.30471,"lon":5.37906,"is_reserved":false,"is_disabled":false,"rental_uris":{"android":"levelo://app?vid=18da219c-61ee-49e5-88a0-c9f8ae682cd7","ios":"levelo://app?vid=18da219c-61ee-49e5-88a0-c9f8ae682cd7"},"vehicle_type_id":"4","last_reported":1750403434,"current_range_meters":3200,"station_id":"ce4bgup2rcd13ifvqcn0","pricing_plan_id":"cebpf4jnsgd1na2vs0mg"},{"bike_id":"04234bfb-5b04-4677-b80a-47353f31bdfc","system_id":"levelo_inurba_marseille","lat":43.30952,"lon":5.39035,"is_reserved":false,"is_disabled":false,"rental_uris":{"android":"levelo://app?vid=04234bfb-5b04-4677-b80a-47353f31bdfc","ios":"levelo://app?vid=04234bfb-5b04-4677-b80a-47353f31bdfc"},"vehicle_type_id":"4","last_reported":1750403434,"current_range_meters":3200,"station_id":"ce4bgup2rcd13ifvqco0","pricing_plan_id":"cebpf4jnsgd1na2vs0mg"},{"bike_id":"3b964a8a-42f8-4674-bf87-6264c380b75b","system_id":"levelo_inurba_marseille","lat":43.25001,"lon":5.38926,"is_reserved":false,"is_disabled":false,"rental_uris":{"android":"levelo://app?vid=3b964a8a-42f8-4674-bf87-6264c380b75b","ios":"levelo://app?vid=3b964a8a-42f8-4674-bf87-6264c380b75b"},"vehicle_type_id":"4","last_reported":1750403434,"current_range_meters":3200,"station_id":"ce4bhgp2rcd13ifvqfd0","pricing_plan_id":"cebpf4jnsgd1na2vs0mg"},{"bike_id":"91a85639-4d74-41bc-8379-7b9e8ddc6e53","system_id":"levelo_inurba_marseille","lat":43.29784,"lon":5.37102,"is_reserved":false,"is_disabled":false,"rental_uris":{"android":"levelo://app?vid=91a85639-4d74-41bc-8379-7b9e8ddc6e53","ios":"levelo://app?vid=91a85639-4d74-41bc-8379-7b9e8ddc6e53"},"vehicle_type_id":"4","last_reported":1750403434,"current_range_meters":3600,"station_id":"ce4bgop2rcd13ifvqc1g","pricing_plan_id":"cebpf4jnsgd1na2vs0mg"},{"bike_id":"1146368b-70cf-43b5-829e-869dca99ae78","system_id":"levelo_inurba_marseille","lat":43.28695,"lon":5.37387,"is_reserved":false,"is_disabled":false,"rental_uris":{"android":"levelo://app?vid=1146368b-70cf-43b5-829e-869dca99ae78","ios":"levelo://app?vid=1146368b-70cf-43b5-829e-869dca99ae78"},"vehicle_type_id":"4","last_reported":1750403434,"current_range_meters":3600,"station_id":"ce4bh3p2rcd13ifvqdq0","pricing_plan_id":"cebpf4jnsgd1na2vs0mg"},{"bike_id":"b4e99003-3a17-4a5f-b89e-ae57b66f07f3","system_id":"levelo_inurba_marseille","lat":43.29552,"lon":5.38543,"is_reserved":false,"is_disabled":false,"rental_uris":{"android":"levelo://app?vid=b4e99003-3a17-4a5f-b89e-ae57b66f07f3","ios":"levelo://app?vid=b4e99003-3a17-4a5f-b89e-ae57b66f07f3"},"vehicle_type_id":"4","last_reported":1750403434,"current_range_meters":4000,"station_id":"ce4bgih2rcd13ifvqba0","pricing_plan_id":"cebpf4jnsgd1na2vs0mg"},{"bike_id":"c2a8340e-e6e3-415c-aa69-8cf0312cdb61","system_id":"levelo_inurba_marseille","lat":43.309418,"lon":5.401669,"is_reserved":false,"is_disabled":false,"rental_uris":{"android":"levelo://app?vid=c2a8340e-e6e3-415c-aa69-8cf0312cdb61","ios":"levelo://app?vid=c2a8340e-e6e3-415c-aa69-8cf0312cdb61"},"vehicle_type_id":"4","last_reported":1750403434,"current_range_meters":4000,"station_id":"ce4bgvp2rcd13ifvqct0","pricing_plan_id":"cebpf4jnsgd1na2vs0mg"},{"bike_id":"bb2d2550-005d-483f-9047-dae98936df78","system_id":"levelo_inurba_marseille","lat":43.23967,"lon":5.36627,"is_reserved":false,"is_disabled":false,"rental_uris":{"android":"levelo://app?vid=bb2d2550-005d-483f-9047-dae98936df78","ios":"levelo://app?vid=bb2d2550-005d-483f-9047-dae98936df78"},"vehicle_type_id":"4","last_reported":1750403434,"current_range_meters":4000,"station_id":"ce4bhi12rcd13ifvqfp0","pricing_plan_id":"cebpf4jnsgd1na2vs0mg"},{"bike_id":"3fd858b2-825f-4f7a-b0cf-08057dd2e0ef","system_id":"levelo_inurba_marseille","lat":43.33608,"lon":5.41037,"is_reserved":false,"is_disabled":false,"rental_uris":{"android":"levelo://app?vid=3fd858b2-825f-4f7a-b0cf-08057dd2e0ef","ios":"levelo://app?vid=3fd858b2-825f-4f7a-b0cf-08057dd2e0ef"},"vehicle_type_id":"4","last_reported":1750403434,"current_range_meters":4000,"station_id":"ce4bhqh2rcd13ifvqhmg","pricing_plan_id":"cebpf4jnsgd1na2vs0mg"},{"bike_id":"ac0ce348-7e23-495c-844b-f21d8527a660","system_id":"levelo_inurba_marseille","lat":43.2837,"lon":5.43291,"is_reserved":false,"is_disabled":false,"rental_uris":{"android":"levelo://app?vid=ac0ce348-7e23-495c-844b-f21d8527a660","ios":"levelo://app?vid=ac0ce348-7e23-495c-844b-f21d8527a660"},"vehicle_type_id":"4","last_reported":1750403434,"current_range_meters":4400,"station_id":"","pricing_plan_id":"cebpf4jnsgd1na2vs0mg"},{"bike_id":"90a25513-6996-43bf-ae26-d822b1c2888c","system_id":"levelo_inurba_marseille","lat":43.29559,"lon":5.375,"is_reserved":false,"is_disabled":false,"rental_uris":{"android":"levelo://app?vid=90a25513-6996-43bf-ae26-d822b1c2888c","ios":"levelo://app?vid=90a25513-6996-43bf-ae26-d822b1c2888c"},"vehicle_type_id":"4","last_reported":1750403434,"current_range_meters":4400,"station_id":"ce4bgh92rcd13ifvqb50","pricing_plan_id":"cebpf4jnsgd1na2vs0mg"},{"bike_id":"e514235e-95f3-4980-bff5-853364f1166d","system_id":"levelo_inurba_marseille","lat":43.30311,"lon":5.36899,"is_reserved":false,"is_disabled":false,"rental_uris":{"android":"levelo://app?vid=e514235e-95f3-4980-bff5-853364f1166d","ios":"levelo://app?vid=e514235e-95f3-4980-bff5-853364f1166d"},"vehicle_type_id":"4","last_reported":1750403434,"current_range_meters":4400,"station_id":"ce4bgqh2rcd13ifvqc5g","pricing_plan_id":"cebpf4jnsgd1na2vs0mg"},{"bike_id":"162e96fe-ada3-4006-a418-e49a30e3da0e","system_id":"levelo_inurba_marseille","lat":43.31727,"lon":5.40453,"is_reserved":false,"is_disabled":false,"rental_uris":{"android":"levelo://app?vid=162e96fe-ada3-4006-a418-e49a30e3da0e","ios":"levelo://app?vid=162e96fe-ada3-4006-a418-e49a30e3da0e"},"vehicle_type_id":"4","last_reported":1750403434,"current_range_meters":4400,"station_id":"ce4bh012rcd13ifvqd00","pricing_plan_id":"cebpf4jnsgd1na2vs0mg"},{"bike_id":"e83ad87f-ff16-4526-916b-50388f819011","system_id":"levelo_inurba_marseille","lat":43.28715,"lon":5.37934,"is_reserved":false,"is_disabled":false,"rental_uris":{"android":"levelo://app?vid=e83ad87f-ff16-4526-916b-50388f819011","ios":"levelo://app?vid=e83ad87f-ff16-4526-916b-50388f819011"},"vehicle_type_id":"4","last_reported":1750403434,"current_range_meters":4400,"station_id":"ce4bh9p2rcd13ifvqec0","pricing_plan_id":"cebpf4jnsgd1na2vs0mg"},{"bike_id":"886c2642-242f-4d5b-8d7a-76f6730bb69e","system_id":"levelo_inurba_marseille","lat":43.25936,"lon":5.409,"is_reserved":false,"is_disabled":false,"rental_uris":{"android":"levelo://app?vid=886c2642-242f-4d5b-8d7a-76f6730bb69e","ios":"levelo://app?vid=886c2642-242f-4d5b-8d7a-76f6730bb69e"},"vehicle_type_id":"4","last_reported":1750403434,"current_range_meters":4400,"station_id":"ce4bhm92rcd13ifvqglg","pricing_plan_id":"cebpf4jnsgd1na2vs0mg"},{"bike_id":"cb1e5ce0-b879-4678-999a-624f045890b9","system_id":"levelo_inurba_marseille","lat":43.31345,"lon":5.36697,"is_reserved":false,"is_disabled":false,"rental_uris":{"android":"levelo://app?vid=cb1e5ce0-b879-4678-999a-624f045890b9","ios":"levelo://app?vid=cb1e5ce0-b879-4678-999a-624f045890b9"},"vehicle_type_id":"4","last_reported":1750403434,"current_range_meters":4800,"station_id":"ce4bgr92rcd13ifvqc6g","pricing_plan_id":"cebpf4jnsgd1na2vs0mg"},{"bike_id":"1b552bab-0139-42c6-ba44-16c773d9c260","system_id":"levelo_inurba_marseille","lat":43.2926,"lon":5.40961,"is_reserved":false,"is_disabled":false,"rental_uris":{"android":"levelo://app?vid=1b552bab-0139-42c6-ba44-16c773d9c260","ios":"levelo://app?vid=1b552bab-0139-42c6-ba44-16c773d9c260"},"vehicle_type_id":"4","last_reported":1750403434,"current_range_meters":5600,"station_id":"","pricing_plan_id":"cebpf4jnsgd1na2vs0mg"},{"bike_id":"e6318816-efd1-427a-92d1-41f1bb8742b4","system_id":"levelo_inurba_marseille","lat":43.33747,"lon":5.37457,"is_reserved":false,"is_disabled":false,"rental_uris":{"android":"levelo://app?vid=e6318816-efd1-427a-92d1-41f1bb8742b4","ios":"levelo://app?vid=e6318816-efd1-427a-92d1-41f1bb8742b4"},"vehicle_type_id":"4","last_reported":1750403434,"current_range_meters":5600,"station_id":"","pricing_plan_id":"cebpf4jnsgd1na2vs0mg"},{"bike_id":"29c79b0b-308d-4c3e-a11e-45c915850854","system_id":"levelo_inurba_marseille","lat":43.26196,"lon":5.3793,"is_reserved":false,"is_disabled":false,"rental_uris":{"android":"levelo://app?vid=29c79b0b-308d-4c3e-a11e-45c915850854","ios":"levelo://app?vid=29c79b0b-308d-4c3e-a11e-45c915850854"},"vehicle_type_id":"4","last_reported":1750403434,"current_range_meters":5600,"station_id":"ce4bhjp2rcd13ifvqg90","pricing_plan_id":"cebpf4jnsgd1na2vs0mg"},{"bike_id":"eb29e592-42da-403c-9fc5-74c4172f197d","system_id":"levelo_inurba_marseille","lat":43.28977,"lon":5.35563,"is_reserved":false,"is_disabled":false,"rental_uris":{"android":"levelo://app?vid=eb29e592-42da-403c-9fc5-74c4172f197d","ios":"levelo://app?vid=eb29e592-42da-403c-9fc5-74c4172f197d"},"vehicle_type_id":"4","last_reported":1750403434,"current_range_meters":6400,"station_id":"","pricing_plan_id":"cebpf4jnsgd1na2vs0mg"},{"bike_id":"1fe79cb7-859e-4b36-97ec-df55af1cc282","system_id":"levelo_inurba_marseille","lat":43.30529,"lon":5.36717,"is_reserved":false,"is_disabled":false,"rental_uris":{"android":"levelo://app?vid=1fe79cb7-859e-4b36-97ec-df55af1cc282","ios":"levelo://app?vid=1fe79cb7-859e-4b36-97ec-df55af1cc282"},"vehicle_type_id":"4","last_reported":1750403434,"current_range_meters":6400,"station_id":"ce4bgrp2rcd13ifvqc9g","pricing_plan_id":"cebpf4jnsgd1na2vs0mg"},{"bike_id":"bbee0522-9891-47b4-b0db-61cf16e025ab","system_id":"levelo_inurba_marseille","lat":43.30464,"lon":5.37901,"is_reserved":false,"is_disabled":false,"rental_uris":{"android":"levelo://app?vid=bbee0522-9891-47b4-b0db-61cf16e025ab","ios":"levelo://app?vid=bbee0522-9891-47b4-b0db-61cf16e025ab"},"vehicle_type_id":"4","last_reported":1750403434,"current_range_meters":6400,"station_id":"ce4bgup2rcd13ifvqcn0","pricing_plan_id":"cebpf4jnsgd1na2vs0mg"},{"bike_id":"da541c51-4e45-4200-a10c-493536bdeaf3","system_id":"levelo_inurba_marseille","lat":43.29273,"lon":5.36848,"is_reserved":false,"is_disabled":false,"rental_uris":{"android":"levelo://app?vid=da541c51-4e45-4200-a10c-493536bdeaf3","ios":"levelo://app?vid=da541c51-4e45-4200-a10c-493536bdeaf3"},"vehicle_type_id":"4","last_reported":1750403434,"current_range_meters":6400,"station_id":"ce4bhbp2rcd13ifvqesg","pricing_plan_id":"cebpf4jnsgd1na2vs0mg"},{"bike_id":"0dedb6f6-6801-483b-bfb8-9cd4533d158f","system_id":"levelo_inurba_marseille","lat":43.311351,"lon":5.380979,"is_reserved":false,"is_disabled":false,"rental_uris":{"android":"levelo://app?vid=0dedb6f6-6801-483b-bfb8-9cd4533d158f","ios":"levelo://app?vid=0dedb6f6-6801-483b-bfb8-9cd4533d158f"},"vehicle_type_id":"4","last_reported":1750403434,"current_range_meters":6800,"station_id":"","pricing_plan_id":"cebpf4jnsgd1na2vs0mg"},{"bike_id":"6c301803-a672-4eef-a23a-95b54253e930","system_id":"levelo_inurba_marseille","lat":43.30185,"lon":5.36613,"is_reserved":false,"is_disabled":false,"rental_uris":{"android":"levelo://app?vid=6c301803-a672-4eef-a23a-95b54253e930","ios":"levelo://app?vid=6c301803-a672-4eef-a23a-95b54253e930"},"vehicle_type_id":"4","last_reported":1750403434,"current_range_meters":6800,"station_id":"ce4bgrh2rcd13ifvqc8g","pricing_plan_id":"cebpf4jnsgd1na2vs0mg"},{"bike_id":"f0ddc391-34e2-4568-a946-d90bc81b12b6","system_id":"levelo_inurba_marseille","lat":43.30535,"lon":5.36545,"is_reserved":false,"is_disabled":false,"rental_uris":{"android":"levelo://app?vid=f0ddc391-34e2-4568-a946-d90bc81b12b6","ios":"levelo://app?vid=f0ddc391-34e2-4568-a946-d90bc81b12b6"},"vehicle_type_id":"4","last_reported":1750403434,"current_range_meters":6800,"station_id":"ce4bgs12rcd13ifvqcag","pricing_plan_id":"cebpf4jnsgd1na2vs0mg"},{"bike_id":"be0d89ba-35b1-4f33-adf6-4dbcbb61c73f","system_id":"levelo_inurba_marseille","lat":43.304622,"lon":5.379127,"is_reserved":false,"is_disabled":false,"rental_uris":{"android":"levelo://app?vid=be0d89ba-35b1-4f33-adf6-4dbcbb61c73f","ios":"levelo://app?vid=be0d89ba-35b1-4f33-adf6-4dbcbb61c73f"},"vehicle_type_id":"4","last_reported":1750403434,"current_range_meters":6800,"station_id":"ce4bgup2rcd13ifvqcn0","pricing_plan_id":"cebpf4jnsgd1na2vs0mg"},{"bike_id":"8ab23675-32b1-4185-a792-35c0613cd52f","system_id":"levelo_inurba_marseille","lat":43.30956,"lon":5.3904,"is_reserved":false,"is_disabled":false,"rental_uris":{"android":"levelo://app?vid=8ab23675-32b1-4185-a792-35c0613cd52f","ios":"levelo://app?vid=8ab23675-32b1-4185-a792-35c0613cd52f"},"vehicle_type_id":"4","last_reported":1750403434,"current_range_meters":6800,"station_id":"ce4bgup2rcd13ifvqco0","pricing_plan_id":"cebpf4jnsgd1na2vs0mg"},{"bike_id":"268aafb4-1331-426c-97bc-a7d6564caeb6","system_id":"levelo_inurba_marseille","lat":43.32933,"lon":5.37919,"is_reserved":false,"is_disabled":false,"rental_uris":{"android":"levelo://app?vid=268aafb4-1331-426c-97bc-a7d6564caeb6","ios":"levelo://app?vid=268aafb4-1331-426c-97bc-a7d6564caeb6"},"vehicle_type_id":"4","last_reported":1750403434,"current_range_meters":7200,"station_id":"","pricing_plan_id":"cebpf4jnsgd1na2vs0mg"},{"bike_id":"4ccbc923-3c71-432b-ab47-a8ec155e4316","system_id":"levelo_inurba_marseille","lat":43.30212,"lon":5.39478,"is_reserved":false,"is_disabled":false,"rental_uris":{"android":"levelo://app?vid=4ccbc923-3c71-432b-ab47-a8ec155e4316","ios":"levelo://app?vid=4ccbc923-3c71-432b-ab47-a8ec155e4316"},"vehicle_type_id":"4","last_reported":1750403434,"current_range_meters":7200,"station_id":"ce4bh0p2rcd13ifvqd70","pricing_plan_id":"cebpf4jnsgd1na2vs0mg"},{"bike_id":"4053d86c-a5fa-4fb5-bff4-0e4a6065b148","system_id":"levelo_inurba_marseille","lat":43.29043,"lon":5.39983,"is_reserved":false,"is_disabled":false,"rental_uris":{"android":"levelo://app?vid=4053d86c-a5fa-4fb5-bff4-0e4a6065b148","ios":"levelo://app?vid=4053d86c-a5fa-4fb5-bff4-0e4a6065b148"},"vehicle_type_id":"4","last_reported":1750403434,"current_range_meters":7200,"station_id":"ce4bh392rcd13ifvqdm0","pricing_plan_id":"cebpf4jnsgd1na2vs0mg"},{"bike_id":"60115219-d5ce-4bfb-9afc-8d2f62da7ea0","system_id":"levelo_inurba_marseille","lat":43.249997,"lon":5.389247,"is_reserved":false,"is_disabled":false,"rental_uris":{"android":"levelo://app?vid=60115219-d5ce-4bfb-9afc-8d2f62da7ea0","ios":"levelo://app?vid=60115219-d5ce-4bfb-9afc-8d2f62da7ea0"},"vehicle_type_id":"4","last_reported":1750403434,"current_range_meters":7200,"station_id":"ce4bhgp2rcd13ifvqfd0","pricing_plan_id":"cebpf4jnsgd1na2vs0mg"},{"bike_id":"da32209e-34f8-44bc-a49e-9e216b2c6bfe","system_id":"levelo_inurba_marseille","lat":43.24077,"lon":5.37752,"is_reserved":false,"is_disabled":false,"rental_uris":{"android":"levelo://app?vid=da32209e-34f8-44bc-a49e-9e216b2c6bfe","ios":"levelo://app?vid=da32209e-34f8-44bc-a49e-9e216b2c6bfe"},"vehicle_type_id":"4","last_reported":1750403434,"current_range_meters":7200,"station_id":"ce4bhnp2rcd13ifvqgvg","pricing_plan_id":"cebpf4jnsgd1na2vs0mg"},{"bike_id":"b09c6775-718e-48e2-bcde-a26a1024ed2c","system_id":"levelo_inurba_marseille","lat":43.26214,"lon":5.37435,"is_reserved":false,"is_disabled":false,"rental_uris":{"android":"levelo://app?vid=b09c6775-718e-48e2-bcde-a26a1024ed2c","ios":"levelo://app?vid=b09c6775-718e-48e2-bcde-a26a1024ed2c"},"vehicle_type_id":"4","last_reported":1750403434,"current_range_meters":8000,"station_id":"ce4bhgp2rcd13ifvqfc0","pricing_plan_id":"cebpf4jnsgd1na2vs0mg"},{"bike_id":"eb994d2d-f47b-453a-80bf-b52d3e939cf9","system_id":"levelo_inurba_marseille","lat":43.24072,"lon":5.37761,"is_reserved":false,"is_disabled":false,"rental_uris":{"android":"levelo://app?vid=eb994d2d-f47b-453a-80bf-b52d3e939cf9","ios":"levelo://app?vid=eb994d2d-f47b-453a-80bf-b52d3e939cf9"},"vehicle_type_id":"4","last_reported":1750403434,"current_range_meters":8000,"station_id":"ce4bhnp2rcd13ifvqgvg","pricing_plan_id":"cebpf4jnsgd1na2vs0mg"},{"bike_id":"41427841-d839-40c1-81bd-45e69072b2cd","system_id":"levelo_inurba_marseille","lat":43.22503,"lon":5.34793,"is_reserved":false,"is_disabled":false,"rental_uris":{"android":"levelo://app?vid=41427841-d839-40c1-81bd-45e69072b2cd","ios":"levelo://app?vid=41427841-d839-40c1-81bd-45e69072b2cd"},"vehicle_type_id":"4","last_reported":1750403434,"current_range_meters":8000,"station_id":"st_cvj5dfep6f1abm77gieg","pricing_plan_id":"cebpf4jnsgd1na2vs0mg"},{"bike_id":"6d9576a5-cb1c-4708-9646-c0cb01350f45","system_id":"levelo_inurba_marseille","lat":43.272066,"lon":5.391823,"is_reserved":false,"is_disabled":false,"rental_uris":{"android":"levelo://app?vid=6d9576a5-cb1c-4708-9646-c0cb01350f45","ios":"levelo://app?vid=6d9576a5-cb1c-4708-9646-c0cb01350f45"},"vehicle_type_id":"4","last_reported":1750403434,"current_range_meters":8400,"station_id":"","pricing_plan_id":"cebpf4jnsgd1na2vs0mg"},{"bike_id":"f6513459-c067-4078-8178-05f7f3bfa95c","system_id":"levelo_inurba_marseille","lat":43.30493,"lon":5.37909,"is_reserved":false,"is_disabled":false,"rental_uris":{"android":"levelo://app?vid=f6513459-c067-4078-8178-05f7f3bfa95c","ios":"levelo://app?vid=f6513459-c067-4078-8178-05f7f3bfa95c"},"vehicle_type_id":"4","last_reported":1750403434,"current_range_meters":8400,"station_id":"ce4bgup2rcd13ifvqcn0","pricing_plan_id":"cebpf4jnsgd1na2vs0mg"},{"bike_id":"20b465a0-acb1-4425-9257-e6da7da2a1c4","system_id":"levelo_inurba_marseille","lat":43.30948,"lon":5.39042,"is_reserved":false,"is_disabled":false,"rental_uris":{"android":"levelo://app?vid=20b465a0-acb1-4425-9257-e6da7da2a1c4","ios":"levelo://app?vid=20b465a0-acb1-4425-9257-e6da7da2a1c4"},"vehicle_type_id":"4","last_reported":1750403434,"current_range_meters":8400,"station_id":"ce4bgup2rcd13ifvqco0","pricing_plan_id":"cebpf4jnsgd1na2vs0mg"},{"bike_id":"95549b48-ebcf-4c41-8803-1f1e285c01b3","system_id":"levelo_inurba_marseille","lat":43.23962,"lon":5.36629,"is_reserved":false,"is_disabled":false,"rental_uris":{"android":"levelo://app?vid=95549b48-ebcf-4c41-8803-1f1e285c01b3","ios":"levelo://app?vid=95549b48-ebcf-4c41-8803-1f1e285c01b3"},"vehicle_type_id":"4","last_reported":1750403434,"current_range_meters":8400,"station_id":"ce4bhi12rcd13ifvqfp0","pricing_plan_id":"cebpf4jnsgd1na2vs0mg"},{"bike_id":"597039c8-2fb4-471b-9dc7-8d1705a243e5","system_id":"levelo_inurba_marseille","lat":43.28431,"lon":5.39199,"is_reserved":false,"is_disabled":false,"rental_uris":{"android":"levelo://app?vid=597039c8-2fb4-471b-9dc7-8d1705a243e5","ios":"levelo://app?vid=597039c8-2fb4-471b-9dc7-8d1705a243e5"},"vehicle_type_id":"4","last_reported":1750403434,"current_range_meters":8400,"station_id":"ce4bhoh2rcd13ifvqh5g","pricing_plan_id":"cebpf4jnsgd1na2vs0mg"},{"bike_id":"361c99c7-2be5-4181-8870-4416458b2d38","system_id":"levelo_inurba_marseille","lat":43.24166,"lon":5.36393,"is_reserved":false,"is_disabled":false,"rental_uris":{"android":"levelo://app?vid=361c99c7-2be5-4181-8870-4416458b2d38","ios":"levelo://app?vid=361c99c7-2be5-4181-8870-4416458b2d38"},"vehicle_type_id":"4","last_reported":1750403434,"current_range_meters":8400,"station_id":"cpo36qri1sfpv3e86is0","pricing_plan_id":"cebpf4jnsgd1na2vs0mg"},{"bike_id":"07ce0677-e4a3-426a-a60d-61e83ba96c43","system_id":"levelo_inurba_marseille","lat":43.34688,"lon":5.37867,"is_reserved":false,"is_disabled":false,"rental_uris":{"android":"levelo://app?vid=07ce0677-e4a3-426a-a60d-61e83ba96c43","ios":"levelo://app?vid=07ce0677-e4a3-426a-a60d-61e83ba96c43"},"vehicle_type_id":"4","last_reported":1750403434,"current_range_meters":8800,"station_id":"","pricing_plan_id":"cebpf4jnsgd1na2vs0mg"},{"bike_id":"56fdfc4e-979c-4ed5-9885-57018d76de79","system_id":"levelo_inurba_marseille","lat":43.29366,"lon":5.42833,"is_reserved":false,"is_disabled":false,"rental_uris":{"android":"levelo://app?vid=56fdfc4e-979c-4ed5-9885-57018d76de79","ios":"levelo://app?vid=56fdfc4e-979c-4ed5-9885-57018d76de79"},"vehicle_type_id":"4","last_reported":1750403434,"current_range_meters":8800,"station_id":"","pricing_plan_id":"cebpf4jnsgd1na2vs0mg"},{"bike_id":"fdaaa105-0af6-4556-80fc-c0b4bdc822fc","system_id":"levelo_inurba_marseille","lat":43.31222,"lon":5.36873,"is_reserved":false,"is_disabled":false,"rental_uris":{"android":"levelo://app?vid=fdaaa105-0af6-4556-80fc-c0b4bdc822fc","ios":"levelo://app?vid=fdaaa105-0af6-4556-80fc-c0b4bdc822fc"},"vehicle_type_id":"4","last_reported":1750403434,"current_range_meters":8800,"station_id":"ce4bgl92rcd13ifvqbq0","pricing_plan_id":"cebpf4jnsgd1na2vs0mg"},{"bike_id":"ca109adb-27fd-4a69-842d-95e2cede97e4","system_id":"levelo_inurba_marseille","lat":43.30614,"lon":5.3722,"is_reserved":false,"is_disabled":false,"rental_uris":{"android":"levelo://app?vid=ca109adb-27fd-4a69-842d-95e2cede97e4","ios":"levelo://app?vid=ca109adb-27fd-4a69-842d-95e2cede97e4"},"vehicle_type_id":"4","last_reported":1750403434,"current_range_meters":8800,"station_id":"ce4bgqh2rcd13ifvqc4g","pricing_plan_id":"cebpf4jnsgd1na2vs0mg"},{"bike_id":"d84d343d-37c8-4abc-9c40-b441f97d722e","system_id":"levelo_inurba_marseille","lat":43.31365,"lon":5.38494,"is_reserved":false,"is_disabled":false,"rental_uris":{"android":"levelo://app?vid=d84d343d-37c8-4abc-9c40-b441f97d722e","ios":"levelo://app?vid=d84d343d-37c8-4abc-9c40-b441f97d722e"},"vehicle_type_id":"4","last_reported":1750403434,"current_range_meters":8800,"station_id":"ce4bgt92rcd13ifvqcf0","pricing_plan_id":"cebpf4jnsgd1na2vs0mg"},{"bike_id":"6ed81a33-09ad-42be-9924-aaecd89e05b7","system_id":"levelo_inurba_marseille","lat":43.30277,"lon":5.37709,"is_reserved":false,"is_disabled":false,"rental_uris":{"android":"levelo://app?vid=6ed81a33-09ad-42be-9924-aaecd89e05b7","ios":"levelo://app?vid=6ed81a33-09ad-42be-9924-aaecd89e05b7"},"vehicle_type_id":"4","last_reported":1750403434,"current_range_meters":8800,"station_id":"ce4bguh2rcd13ifvqcj0","pricing_plan_id":"cebpf4jnsgd1na2vs0mg"},{"bike_id":"72429354-fe4e-4847-b95e-c714789752a9","system_id":"levelo_inurba_marseille","lat":43.29041,"lon":5.39965,"is_reserved":false,"is_disabled":false,"rental_uris":{"android":"levelo://app?vid=72429354-fe4e-4847-b95e-c714789752a9","ios":"levelo://app?vid=72429354-fe4e-4847-b95e-c714789752a9"},"vehicle_type_id":"4","last_reported":1750403434,"current_range_meters":8800,"station_id":"ce4bh392rcd13ifvqdm0","pricing_plan_id":"cebpf4jnsgd1na2vs0mg"},{"bike_id":"82cc94f1-bdda-4ab5-903c-765911625e00","system_id":"levelo_inurba_marseille","lat":43.2868,"lon":5.38656,"is_reserved":false,"is_disabled":false,"rental_uris":{"android":"levelo://app?vid=82cc94f1-bdda-4ab5-903c-765911625e00","ios":"levelo://app?vid=82cc94f1-bdda-4ab5-903c-765911625e00"},"vehicle_type_id":"4","last_reported":1750403434,"current_range_meters":8800,"station_id":"ce4bh492rcd13ifvqdug","pricing_plan_id":"cebpf4jnsgd1na2vs0mg"},{"bike_id":"1f5d1de4-6bb3-4488-8890-21f754feb749","system_id":"levelo_inurba_marseille","lat":43.27661,"lon":5.38878,"is_reserved":false,"is_disabled":false,"rental_uris":{"android":"levelo://app?vid=1f5d1de4-6bb3-4488-8890-21f754feb749","ios":"levelo://app?vid=1f5d1de4-6bb3-4488-8890-21f754feb749"},"vehicle_type_id":"4","last_reported":1750403434,"current_range_meters":8800,"station_id":"ce4bhi12rcd13ifvqfo0","pricing_plan_id":"cebpf4jnsgd1na2vs0mg"},{"bike_id":"f025e0b0-8595-426c-b214-cb9b74c5fcfd","system_id":"levelo_inurba_marseille","lat":43.32201,"lon":5.40572,"is_reserved":false,"is_disabled":false,"rental_uris":{"android":"levelo://app?vid=f025e0b0-8595-426c-b214-cb9b74c5fcfd","ios":"levelo://app?vid=f025e0b0-8595-426c-b214-cb9b74c5fcfd"},"vehicle_type_id":"4","last_reported":1750403434,"current_range_meters":9200,"station_id":"","pricing_plan_id":"cebpf4jnsgd1na2vs0mg"},{"bike_id":"8158c371-6eb8-4a17-bc85-de54cc201408","system_id":"levelo_inurba_marseille","lat":43.304585,"lon":5.379025,"is_reserved":false,"is_disabled":false,"rental_uris":{"android":"levelo://app?vid=8158c371-6eb8-4a17-bc85-de54cc201408","ios":"levelo://app?vid=8158c371-6eb8-4a17-bc85-de54cc201408"},"vehicle_type_id":"4","last_reported":1750403434,"current_range_meters":9200,"station_id":"ce4bgup2rcd13ifvqcn0","pricing_plan_id":"cebpf4jnsgd1na2vs0mg"},{"bike_id":"46e9544b-ef80-4e1a-acbe-f1d1ca68f765","system_id":"levelo_inurba_marseille","lat":43.31699,"lon":5.40458,"is_reserved":false,"is_disabled":false,"rental_uris":{"android":"levelo://app?vid=46e9544b-ef80-4e1a-acbe-f1d1ca68f765","ios":"levelo://app?vid=46e9544b-ef80-4e1a-acbe-f1d1ca68f765"},"vehicle_type_id":"4","last_reported":1750403434,"current_range_meters":9200,"station_id":"ce4bh012rcd13ifvqd00","pricing_plan_id":"cebpf4jnsgd1na2vs0mg"},{"bike_id":"71b2f7d2-69af-47f6-805d-8528ec935530","system_id":"levelo_inurba_marseille","lat":43.29275,"lon":5.36844,"is_reserved":false,"is_disabled":false,"rental_uris":{"android":"levelo://app?vid=71b2f7d2-69af-47f6-805d-8528ec935530","ios":"levelo://app?vid=71b2f7d2-69af-47f6-805d-8528ec935530"},"vehicle_type_id":"4","last_reported":1750403434,"current_range_meters":9200,"station_id":"ce4bhbp2rcd13ifvqesg","pricing_plan_id":"cebpf4jnsgd1na2vs0mg"},{"bike_id":"469198e9-ec83-4a13-a569-b7f98653d928","system_id":"levelo_inurba_marseille","lat":43.24805,"lon":5.37452,"is_reserved":false,"is_disabled":false,"rental_uris":{"android":"levelo://app?vid=469198e9-ec83-4a13-a569-b7f98653d928","ios":"levelo://app?vid=469198e9-ec83-4a13-a569-b7f98653d928"},"vehicle_type_id":"4","last_reported":1750403434,"current_range_meters":9200,"station_id":"ce4bhgh2rcd13ifvqfb0","pricing_plan_id":"cebpf4jnsgd1na2vs0mg"},{"bike_id":"b70e9aff-0973-4d3f-8203-19675e665e0a","system_id":"levelo_inurba_marseille","lat":43.30949,"lon":5.3903,"is_reserved":false,"is_disabled":false,"rental_uris":{"android":"levelo://app?vid=b70e9aff-0973-4d3f-8203-19675e665e0a","ios":"levelo://app?vid=b70e9aff-0973-4d3f-8203-19675e665e0a"},"vehicle_type_id":"4","last_reported":1750403434,"current_range_meters":9600,"station_id":"ce4bgup2rcd13ifvqco0","pricing_plan_id":"cebpf4jnsgd1na2vs0mg"},{"bike_id":"fe7bc7a3-2612-4384-bc02-3b0faf75d74a","system_id":"levelo_inurba_marseille","lat":43.29027,"lon":5.39965,"is_reserved":false,"is_disabled":false,"rental_uris":{"android":"levelo://app?vid=fe7bc7a3-2612-4384-bc02-3b0faf75d74a","ios":"levelo://app?vid=fe7bc7a3-2612-4384-bc02-3b0faf75d74a"},"vehicle_type_id":"4","last_reported":1750403434,"current_range_meters":9600,"station_id":"ce4bh392rcd13ifvqdm0","pricing_plan_id":"cebpf4jnsgd1na2vs0mg"},{"bike_id":"c23d8ecb-92fa-4bc5-b496-c92409604518","system_id":"levelo_inurba_marseille","lat":43.27492,"lon":5.42445,"is_reserved":false,"is_disabled":false,"rental_uris":{"android":"levelo://app?vid=c23d8ecb-92fa-4bc5-b496-c92409604518","ios":"levelo://app?vid=c23d8ecb-92fa-4bc5-b496-c92409604518"},"vehicle_type_id":"4","last_reported":1750403434,"current_range_meters":9600,"station_id":"ce4bhn92rcd13ifvqgrg","pricing_plan_id":"cebpf4jnsgd1na2vs0mg"},{"bike_id":"282a5e29-818d-4889-9c76-abfbd5895eb8","system_id":"levelo_inurba_marseille","lat":43.3038,"lon":5.42477,"is_reserved":false,"is_disabled":false,"rental_uris":{"android":"levelo://app?vid=282a5e29-818d-4889-9c76-abfbd5895eb8","ios":"levelo://app?vid=282a5e29-818d-4889-9c76-abfbd5895eb8"},"vehicle_type_id":"4","last_reported":1750403434,"current_range_meters":9600,"station_id":"ce4bhoh2rcd13ifvqh6g","pricing_plan_id":"cebpf4jnsgd1na2vs0mg"},{"bike_id":"df735c88-ae0a-4f8e-9723-d29eb27d80b9","system_id":"levelo_inurba_marseille","lat":43.29917,"lon":5.37634,"is_reserved":false,"is_disabled":false,"rental_uris":{"android":"levelo://app?vid=df735c88-ae0a-4f8e-9723-d29eb27d80b9","ios":"levelo://app?vid=df735c88-ae0a-4f8e-9723-d29eb27d80b9"},"vehicle_type_id":"4","last_reported":1750403434,"current_range_meters":10000,"station_id":"","pricing_plan_id":"cebpf4jnsgd1na2vs0mg"},{"bike_id":"f7d85a7e-7764-4bb9-8201-23213a11e7ea","system_id":"levelo_inurba_marseille","lat":43.267323,"lon":5.392004,"is_reserved":false,"is_disabled":false,"rental_uris":{"android":"levelo://app?vid=f7d85a7e-7764-4bb9-8201-23213a11e7ea","ios":"levelo://app?vid=f7d85a7e-7764-4bb9-8201-23213a11e7ea"},"vehicle_type_id":"4","last_reported":1750403434,"current_range_meters":10800,"station_id":"","pricing_plan_id":"cebpf4jnsgd1na2vs0mg"},{"bike_id":"d9b2950a-cd4b-488f-8f1a-b2421b953666","system_id":"levelo_inurba_marseille","lat":43.31464,"lon":5.39222,"is_reserved":false,"is_disabled":false,"rental_uris":{"android":"levelo://app?vid=d9b2950a-cd4b-488f-8f1a-b2421b953666","ios":"levelo://app?vid=d9b2950a-cd4b-488f-8f1a-b2421b953666"},"vehicle_type_id":"4","last_reported":1750403434,"current_range_meters":10800,"station_id":"","pricing_plan_id":"cebpf4jnsgd1na2vs0mg"},{"bike_id":"6b49fe31-99ea-4a27-b36f-f0959bfbd249","system_id":"levelo_inurba_marseille","lat":43.29618,"lon":5.37734,"is_reserved":false,"is_disabled":false,"rental_uris":{"android":"levelo://app?vid=6b49fe31-99ea-4a27-b36f-f0959bfbd249","ios":"levelo://app?vid=6b49fe31-99ea-4a27-b36f-f0959bfbd249"},"vehicle_type_id":"4","last_reported":1750403434,"current_range_meters":10800,"station_id":"ce4bgi92rcd13ifvqb90","pricing_plan_id":"cebpf4jnsgd1na2vs0mg"},{"bike_id":"23164ea7-f10f-412e-a0de-db806c5e2185","system_id":"levelo_inurba_marseille","lat":43.31725,"lon":5.4366,"is_reserved":false,"is_disabled":false,"rental_uris":{"android":"levelo://app?vid=23164ea7-f10f-412e-a0de-db806c5e2185","ios":"levelo://app?vid=23164ea7-f10f-412e-a0de-db806c5e2185"},"vehicle_type_id":"4","last_reported":1750403434,"current_range_meters":10800,"station_id":"ce4bhp92rcd13ifvqhcg","pricing_plan_id":"cebpf4jnsgd1na2vs0mg"},{"bike_id":"44eed855-89a6-4512-abd6-b640c3efd422","system_id":"levelo_inurba_marseille","lat":43.32537,"lon":5.41437,"is_reserved":false,"is_disabled":false,"rental_uris":{"android":"levelo://app?vid=44eed855-89a6-4512-abd6-b640c3efd422","ios":"levelo://app?vid=44eed855-89a6-4512-abd6-b640c3efd422"},"vehicle_type_id":"4","last_reported":1750403434,"current_range_meters":10800,"station_id":"ce4bhq12rcd13ifvqhhg","pricing_plan_id":"cebpf4jnsgd1na2vs0mg"},{"bike_id":"5b43db9d-b35a-477e-af1d-a0f3964d74db","system_id":"levelo_inurba_marseille","lat":43.33032,"lon":5.39037,"is_reserved":false,"is_disabled":false,"rental_uris":{"android":"levelo://app?vid=5b43db9d-b35a-477e-af1d-a0f3964d74db","ios":"levelo://app?vid=5b43db9d-b35a-477e-af1d-a0f3964d74db"},"vehicle_type_id":"4","last_reported":1750403434,"current_range_meters":10800,"station_id":"ce4bhr92rcd13ifvqhrg","pricing_plan_id":"cebpf4jnsgd1na2vs0mg"},{"bike_id":"3faf2329-83a2-494e-b098-e7888ccf5fcb","system_id":"levelo_inurba_marseille","lat":43.28718,"lon":5.38315,"is_reserved":false,"is_disabled":false,"rental_uris":{"android":"levelo://app?vid=3faf2329-83a2-494e-b098-e7888ccf5fcb","ios":"levelo://app?vid=3faf2329-83a2-494e-b098-e7888ccf5fcb"},"vehicle_type_id":"4","last_reported":1750403434,"current_range_meters":11200,"station_id":"","pricing_plan_id":"cebpf4jnsgd1na2vs0mg"},{"bike_id":"ad6a4f1c-aeb7-4c6c-bcb2-1c647b6d275d","system_id":"levelo_inurba_marseille","lat":43.31343,"lon":5.36742,"is_reserved":false,"is_disabled":false,"rental_uris":{"android":"levelo://app?vid=ad6a4f1c-aeb7-4c6c-bcb2-1c647b6d275d","ios":"levelo://app?vid=ad6a4f1c-aeb7-4c6c-bcb2-1c647b6d275d"},"vehicle_type_id":"4","last_reported":1750403434,"current_range_meters":11200,"station_id":"ce4bgr92rcd13ifvqc6g","pricing_plan_id":"cebpf4jnsgd1na2vs0mg"},{"bike_id":"9765131a-3ace-43fa-bca8-8a29ccceccbb","system_id":"levelo_inurba_marseille","lat":43.28414,"lon":5.34995,"is_reserved":false,"is_disabled":false,"rental_uris":{"android":"levelo://app?vid=9765131a-3ace-43fa-bca8-8a29ccceccbb","ios":"levelo://app?vid=9765131a-3ace-43fa-bca8-8a29ccceccbb"},"vehicle_type_id":"4","last_reported":1750403434,"current_range_meters":11200,"station_id":"ce4bhbh2rcd13ifvqepg","pricing_plan_id":"cebpf4jnsgd1na2vs0mg"},{"bike_id":"a86e0a46-e444-43f1-b075-e18344039884","system_id":"levelo_inurba_marseille","lat":43.240754,"lon":5.37763,"is_reserved":false,"is_disabled":false,"rental_uris":{"android":"levelo://app?vid=a86e0a46-e444-43f1-b075-e18344039884","ios":"levelo://app?vid=a86e0a46-e444-43f1-b075-e18344039884"},"vehicle_type_id":"4","last_reported":1750403434,"current_range_meters":11600,"station_id":"","pricing_plan_id":"cebpf4jnsgd1na2vs0mg"},{"bike_id":"1e466cd0-4ebd-40dc-a9d0-f5b0d3d7d813","system_id":"levelo_inurba_marseille","lat":43.30538,"lon":5.36689,"is_reserved":false,"is_disabled":false,"rental_uris":{"android":"levelo://app?vid=1e466cd0-4ebd-40dc-a9d0-f5b0d3d7d813","ios":"levelo://app?vid=1e466cd0-4ebd-40dc-a9d0-f5b0d3d7d813"},"vehicle_type_id":"4","last_reported":1750403434,"current_range_meters":11600,"station_id":"","pricing_plan_id":"cebpf4jnsgd1na2vs0mg"},{"bike_id":"f97e8a5a-a455-4cfe-992b-65845c83e180","system_id":"levelo_inurba_marseille","lat":43.29579,"lon":5.3753,"is_reserved":false,"is_disabled":false,"rental_uris":{"android":"levelo://app?vid=f97e8a5a-a455-4cfe-992b-65845c83e180","ios":"levelo://app?vid=f97e8a5a-a455-4cfe-992b-65845c83e180"},"vehicle_type_id":"4","last_reported":1750403434,"current_range_meters":11600,"station_id":"ce4bgh92rcd13ifvqb50","pricing_plan_id":"cebpf4jnsgd1na2vs0mg"},{"bike_id":"d976c5ad-5171-47e3-9a04-4cedcf058ed1","system_id":"levelo_inurba_marseille","lat":43.308986,"lon":5.371981,"is_reserved":false,"is_disabled":false,"rental_uris":{"android":"levelo://app?vid=d976c5ad-5171-47e3-9a04-4cedcf058ed1","ios":"levelo://app?vid=d976c5ad-5171-47e3-9a04-4cedcf058ed1"},"vehicle_type_id":"4","last_reported":1750403434,"current_range_meters":11600,"station_id":"ce4bguh2rcd13ifvqckg","pricing_plan_id":"cebpf4jnsgd1na2vs0mg"},{"bike_id":"8acd79f5-91a0-4a31-9a71-4712b9deda73","system_id":"levelo_inurba_marseille","lat":43.336069,"lon":5.410349,"is_reserved":false,"is_disabled":false,"rental_uris":{"android":"levelo://app?vid=8acd79f5-91a0-4a31-9a71-4712b9deda73","ios":"levelo://app?vid=8acd79f5-91a0-4a31-9a71-4712b9deda73"},"vehicle_type_id":"4","last_reported":1750403434,"current_range_meters":11600,"station_id":"ce4bhqh2rcd13ifvqhmg","pricing_plan_id":"cebpf4jnsgd1na2vs0mg"},{"bike_id":"57452e76-494f-4de7-8664-8d06979c1b6f","system_id":"levelo_inurba_marseille","lat":43.291078,"lon":5.42811,"is_reserved":false,"is_disabled":false,"rental_uris":{"android":"levelo://app?vid=57452e76-494f-4de7-8664-8d06979c1b6f","ios":"levelo://app?vid=57452e76-494f-4de7-8664-8d06979c1b6f"},"vehicle_type_id":"4","last_reported":1750403434,"current_range_meters":12000,"station_id":"","pricing_plan_id":"cebpf4jnsgd1na2vs0mg"},{"bike_id":"60563cbb-9061-4006-8e41-2def95d43c6c","system_id":"levelo_inurba_marseille","lat":43.3136,"lon":5.38611,"is_reserved":false,"is_disabled":false,"rental_uris":{"android":"levelo://app?vid=60563cbb-9061-4006-8e41-2def95d43c6c","ios":"levelo://app?vid=60563cbb-9061-4006-8e41-2def95d43c6c"},"vehicle_type_id":"4","last_reported":1750403434,"current_range_meters":12000,"station_id":"","pricing_plan_id":"cebpf4jnsgd1na2vs0mg"},{"bike_id":"f7574965-0667-4f3b-90e2-276750d028f1","system_id":"levelo_inurba_marseille","lat":43.330958,"lon":5.382403,"is_reserved":false,"is_disabled":false,"rental_uris":{"android":"levelo://app?vid=f7574965-0667-4f3b-90e2-276750d028f1","ios":"levelo://app?vid=f7574965-0667-4f3b-90e2-276750d028f1"},"vehicle_type_id":"4","last_reported":1750403434,"current_range_meters":12000,"station_id":"","pricing_plan_id":"cebpf4jnsgd1na2vs0mg"},{"bike_id":"e27573fd-8b8d-4e34-a09d-9cb09aa5fa49","system_id":"levelo_inurba_marseille","lat":43.29227,"lon":5.40057,"is_reserved":false,"is_disabled":false,"rental_uris":{"android":"levelo://app?vid=e27573fd-8b8d-4e34-a09d-9cb09aa5fa49","ios":"levelo://app?vid=e27573fd-8b8d-4e34-a09d-9cb09aa5fa49"},"vehicle_type_id":"4","last_reported":1750403434,"current_range_meters":12000,"station_id":"","pricing_plan_id":"cebpf4jnsgd1na2vs0mg"},{"bike_id":"40f12f24-9b34-49b3-bd05-4dd53a2b38bc","system_id":"levelo_inurba_marseille","lat":43.30531,"lon":5.38428,"is_reserved":false,"is_disabled":false,"rental_uris":{"android":"levelo://app?vid=40f12f24-9b34-49b3-bd05-4dd53a2b38bc","ios":"levelo://app?vid=40f12f24-9b34-49b3-bd05-4dd53a2b38bc"},"vehicle_type_id":"4","last_reported":1750403434,"current_range_meters":12000,"station_id":"ce4bgg92rcd13ifvqb30","pricing_plan_id":"cebpf4jnsgd1na2vs0mg"},{"bike_id":"c073cb9e-d6a4-4278-a40e-1d7841b21132","system_id":"levelo_inurba_marseille","lat":43.30952,"lon":5.39038,"is_reserved":false,"is_disabled":false,"rental_uris":{"android":"levelo://app?vid=c073cb9e-d6a4-4278-a40e-1d7841b21132","ios":"levelo://app?vid=c073cb9e-d6a4-4278-a40e-1d7841b21132"},"vehicle_type_id":"4","last_reported":1750403434,"current_range_meters":12000,"station_id":"ce4bgup2rcd13ifvqco0","pricing_plan_id":"cebpf4jnsgd1na2vs0mg"},{"bike_id":"9f04acc3-811e-4524-b0de-5eea7bde1e9e","system_id":"levelo_inurba_marseille","lat":43.27311,"lon":5.3908,"is_reserved":false,"is_disabled":false,"rental_uris":{"android":"levelo://app?vid=9f04acc3-811e-4524-b0de-5eea7bde1e9e","ios":"levelo://app?vid=9f04acc3-811e-4524-b0de-5eea7bde1e9e"},"vehicle_type_id":"4","last_reported":1750403434,"current_range_meters":12000,"station_id":"ce4bhgp2rcd13ifvqfe0","pricing_plan_id":"cebpf4jnsgd1na2vs0mg"},{"bike_id":"ee9e43c0-6612-42d2-8e5d-ee22cfd8ab29","system_id":"levelo_inurba_marseille","lat":43.246398,"lon":5.384395,"is_reserved":false,"is_disabled":false,"rental_uris":{"android":"levelo://app?vid=ee9e43c0-6612-42d2-8e5d-ee22cfd8ab29","ios":"levelo://app?vid=ee9e43c0-6612-42d2-8e5d-ee22cfd8ab29"},"vehicle_type_id":"4","last_reported":1750403434,"current_range_meters":12000,"station_id":"ce4bhhh2rcd13ifvqfk0","pricing_plan_id":"cebpf4jnsgd1na2vs0mg"},{"bike_id":"38d0fcff-25d8-413e-a210-a4c09f959b92","system_id":"levelo_inurba_marseille","lat":43.30535,"lon":5.38434,"is_reserved":false,"is_disabled":false,"rental_uris":{"android":"levelo://app?vid=38d0fcff-25d8-413e-a210-a4c09f959b92","ios":"levelo://app?vid=38d0fcff-25d8-413e-a210-a4c09f959b92"},"vehicle_type_id":"4","last_reported":1750403434,"current_range_meters":12400,"station_id":"ce4bgg92rcd13ifvqb30","pricing_plan_id":"cebpf4jnsgd1na2vs0mg"},{"bike_id":"d12874b3-02ea-4409-a12a-99cbcc280260","system_id":"levelo_inurba_marseille","lat":43.30173,"lon":5.38088,"is_reserved":false,"is_disabled":false,"rental_uris":{"android":"levelo://app?vid=d12874b3-02ea-4409-a12a-99cbcc280260","ios":"levelo://app?vid=d12874b3-02ea-4409-a12a-99cbcc280260"},"vehicle_type_id":"4","last_reported":1750403434,"current_range_meters":12400,"station_id":"ce4bgjp2rcd13ifvqbh0","pricing_plan_id":"cebpf4jnsgd1na2vs0mg"},{"bike_id":"ef7690c8-f5e8-40a9-b017-58b923aec390","system_id":"levelo_inurba_marseille","lat":43.28721,"lon":5.37933,"is_reserved":false,"is_disabled":false,"rental_uris":{"android":"levelo://app?vid=ef7690c8-f5e8-40a9-b017-58b923aec390","ios":"levelo://app?vid=ef7690c8-f5e8-40a9-b017-58b923aec390"},"vehicle_type_id":"4","last_reported":1750403434,"current_range_meters":12400,"station_id":"ce4bh9p2rcd13ifvqec0","pricing_plan_id":"cebpf4jnsgd1na2vs0mg"},{"bike_id":"24743e94-99df-4ee0-b400-acbf70edd372","system_id":"levelo_inurba_marseille","lat":43.30532,"lon":5.36714,"is_reserved":false,"is_disabled":false,"rental_uris":{"android":"levelo://app?vid=24743e94-99df-4ee0-b400-acbf70edd372","ios":"levelo://app?vid=24743e94-99df-4ee0-b400-acbf70edd372"},"vehicle_type_id":"4","last_reported":1750403434,"current_range_meters":12800,"station_id":"ce4bgrp2rcd13ifvqc9g","pricing_plan_id":"cebpf4jnsgd1na2vs0mg"},{"bike_id":"cadb2b50-d670-4a95-9735-4db81b144651","system_id":"levelo_inurba_marseille","lat":43.28614,"lon":5.35107,"is_reserved":false,"is_disabled":false,"rental_uris":{"android":"levelo://app?vid=cadb2b50-d670-4a95-9735-4db81b144651","ios":"levelo://app?vid=cadb2b50-d670-4a95-9735-4db81b144651"},"vehicle_type_id":"4","last_reported":1750403434,"current_range_meters":12800,"station_id":"ce4bhch2rcd13ifvqeug","pricing_plan_id":"cebpf4jnsgd1na2vs0mg"},{"bike_id":"eab8c379-21d8-4b1a-9fb3-125d6ecb9192","system_id":"levelo_inurba_marseille","lat":43.28267,"lon":5.35062,"is_reserved":false,"is_disabled":false,"rental_uris":{"android":"levelo://app?vid=eab8c379-21d8-4b1a-9fb3-125d6ecb9192","ios":"levelo://app?vid=eab8c379-21d8-4b1a-9fb3-125d6ecb9192"},"vehicle_type_id":"4","last_reported":1750403434,"current_range_meters":13600,"station_id":"ce4bhbp2rcd13ifvqerg","pricing_plan_id":"cebpf4jnsgd1na2vs0mg"},{"bike_id":"7c6c2e11-aafd-41b6-b6a5-2f4aa4f3e42d","system_id":"levelo_inurba_marseille","lat":43.26692,"lon":5.38276,"is_reserved":false,"is_disabled":false,"rental_uris":{"android":"levelo://app?vid=7c6c2e11-aafd-41b6-b6a5-2f4aa4f3e42d","ios":"levelo://app?vid=7c6c2e11-aafd-41b6-b6a5-2f4aa4f3e42d"},"vehicle_type_id":"4","last_reported":1750403434,"current_range_meters":13600,"station_id":"ce4bhg92rcd13ifvqf90","pricing_plan_id":"cebpf4jnsgd1na2vs0mg"},{"bike_id":"cfcc63e5-33ec-4229-a7bf-4d1c7311a7b9","system_id":"levelo_inurba_marseille","lat":43.29894,"lon":5.43662,"is_reserved":false,"is_disabled":false,"rental_uris":{"android":"levelo://app?vid=cfcc63e5-33ec-4229-a7bf-4d1c7311a7b9","ios":"levelo://app?vid=cfcc63e5-33ec-4229-a7bf-4d1c7311a7b9"},"vehicle_type_id":"4","last_reported":1750403434,"current_range_meters":13600,"station_id":"ce4bhpp2rcd13ifvqhfg","pricing_plan_id":"cebpf4jnsgd1na2vs0mg"},{"bike_id":"199c2831-e081-4bc0-9b94-19503817091d","system_id":"levelo_inurba_marseille","lat":43.248947,"lon":5.406736,"is_reserved":false,"is_disabled":false,"rental_uris":{"android":"levelo://app?vid=199c2831-e081-4bc0-9b94-19503817091d","ios":"levelo://app?vid=199c2831-e081-4bc0-9b94-19503817091d"},"vehicle_type_id":"4","last_reported":1750403434,"current_range_meters":14000,"station_id":"","pricing_plan_id":"cebpf4jnsgd1na2vs0mg"},{"bike_id":"ea833185-b2be-41ee-b611-cb1f55e0b1b4","system_id":"levelo_inurba_marseille","lat":43.304642,"lon":5.379154,"is_reserved":false,"is_disabled":false,"rental_uris":{"android":"levelo://app?vid=ea833185-b2be-41ee-b611-cb1f55e0b1b4","ios":"levelo://app?vid=ea833185-b2be-41ee-b611-cb1f55e0b1b4"},"vehicle_type_id":"4","last_reported":1750403434,"current_range_meters":14000,"station_id":"ce4bgup2rcd13ifvqcn0","pricing_plan_id":"cebpf4jnsgd1na2vs0mg"},{"bike_id":"c1c38230-8663-4aab-9d61-8daab2b9d1e3","system_id":"levelo_inurba_marseille","lat":43.2873,"lon":5.36086,"is_reserved":false,"is_disabled":false,"rental_uris":{"android":"levelo://app?vid=c1c38230-8663-4aab-9d61-8daab2b9d1e3","ios":"levelo://app?vid=c1c38230-8663-4aab-9d61-8daab2b9d1e3"},"vehicle_type_id":"4","last_reported":1750403434,"current_range_meters":14000,"station_id":"cki0cbj6b192h4jlfktg","pricing_plan_id":"cebpf4jnsgd1na2vs0mg"},{"bike_id":"f3d7bf34-f0d1-4255-af65-f8675bd207e5","system_id":"levelo_inurba_marseille","lat":43.28268,"lon":5.35058,"is_reserved":false,"is_disabled":false,"rental_uris":{"android":"levelo://app?vid=f3d7bf34-f0d1-4255-af65-f8675bd207e5","ios":"levelo://app?vid=f3d7bf34-f0d1-4255-af65-f8675bd207e5"},"vehicle_type_id":"4","last_reported":1750403434,"current_range_meters":14400,"station_id":"ce4bhbp2rcd13ifvqerg","pricing_plan_id":"cebpf4jnsgd1na2vs0mg"},{"bike_id":"fdd3bd23-900b-4e02-aacf-7f06ecc114eb","system_id":"levelo_inurba_marseille","lat":43.25933,"lon":5.40896,"is_reserved":false,"is_disabled":false,"rental_uris":{"android":"levelo://app?vid=fdd3bd23-900b-4e02-aacf-7f06ecc114eb","ios":"levelo://app?vid=fdd3bd23-900b-4e02-aacf-7f06ecc114eb"},"vehicle_type_id":"4","last_reported":1750403434,"current_range_meters":14400,"station_id":"ce4bhm92rcd13ifvqglg","pricing_plan_id":"cebpf4jnsgd1na2vs0mg"},{"bike_id":"0708cf38-7a7f-4f4d-a4c6-7778c58c5a3c","system_id":"levelo_inurba_marseille","lat":43.283174,"lon":5.411024,"is_reserved":false,"is_disabled":false,"rental_uris":{"android":"levelo://app?vid=0708cf38-7a7f-4f4d-a4c6-7778c58c5a3c","ios":"levelo://app?vid=0708cf38-7a7f-4f4d-a4c6-7778c58c5a3c"},"vehicle_type_id":"4","last_reported":1750403434,"current_range_meters":14800,"station_id":"","pricing_plan_id":"cebpf4jnsgd1na2vs0mg"},{"bike_id":"59d39ccb-de8c-4723-8105-b2aa24d2605f","system_id":"levelo_inurba_marseille","lat":43.33712,"lon":5.39184,"is_reserved":false,"is_disabled":false,"rental_uris":{"android":"levelo://app?vid=59d39ccb-de8c-4723-8105-b2aa24d2605f","ios":"levelo://app?vid=59d39ccb-de8c-4723-8105-b2aa24d2605f"},"vehicle_type_id":"4","last_reported":1750403434,"current_range_meters":14800,"station_id":"ce4bhr92rcd13ifvqhsg","pricing_plan_id":"cebpf4jnsgd1na2vs0mg"},{"bike_id":"b3bd77b1-d684-4fd5-ad82-32d6d079ab24","system_id":"levelo_inurba_marseille","lat":43.23061,"lon":5.3549,"is_reserved":false,"is_disabled":false,"rental_uris":{"android":"levelo://app?vid=b3bd77b1-d684-4fd5-ad82-32d6d079ab24","ios":"levelo://app?vid=b3bd77b1-d684-4fd5-ad82-32d6d079ab24"},"vehicle_type_id":"4","last_reported":1750403434,"current_range_meters":15200,"station_id":"cpo3342slgdg3j2ifvpg","pricing_plan_id":"cebpf4jnsgd1na2vs0mg"},{"bike_id":"f30123e7-96d3-442d-9d01-6c98dc61e7c8","system_id":"levelo_inurba_marseille","lat":43.29829,"lon":5.36813,"is_reserved":false,"is_disabled":false,"rental_uris":{"android":"levelo://app?vid=f30123e7-96d3-442d-9d01-6c98dc61e7c8","ios":"levelo://app?vid=f30123e7-96d3-442d-9d01-6c98dc61e7c8"},"vehicle_type_id":"4","last_reported":1750403434,"current_range_meters":16000,"station_id":"","pricing_plan_id":"cebpf4jnsgd1na2vs0mg"},{"bike_id":"7fb8f777-502e-4027-8e9f-d463bb7373be","system_id":"levelo_inurba_marseille","lat":43.29638,"lon":5.38019,"is_reserved":false,"is_disabled":false,"rental_uris":{"android":"levelo://app?vid=7fb8f777-502e-4027-8e9f-d463bb7373be","ios":"levelo://app?vid=7fb8f777-502e-4027-8e9f-d463bb7373be"},"vehicle_type_id":"4","last_reported":1750403434,"current_range_meters":16000,"station_id":"","pricing_plan_id":"cebpf4jnsgd1na2vs0mg"},{"bike_id":"94bca566-5118-44a2-872d-38a2f6a7996a","system_id":"levelo_inurba_marseille","lat":43.295,"lon":5.37508,"is_reserved":false,"is_disabled":false,"rental_uris":{"android":"levelo://app?vid=94bca566-5118-44a2-872d-38a2f6a7996a","ios":"levelo://app?vid=94bca566-5118-44a2-872d-38a2f6a7996a"},"vehicle_type_id":"4","last_reported":1750403434,"current_range_meters":16000,"station_id":"ce4bgkp2rcd13ifvqbmg","pricing_plan_id":"cebpf4jnsgd1na2vs0mg"},{"bike_id":"17e68843-85e7-4028-a2f3-a4a893ebbd1b","system_id":"levelo_inurba_marseille","lat":43.29014,"lon":5.38133,"is_reserved":false,"is_disabled":false,"rental_uris":{"android":"levelo://app?vid=17e68843-85e7-4028-a2f3-a4a893ebbd1b","ios":"levelo://app?vid=17e68843-85e7-4028-a2f3-a4a893ebbd1b"},"vehicle_type_id":"4","last_reported":1750403434,"current_range_meters":16000,"station_id":"ce4bh4p2rcd13ifvqe1g","pricing_plan_id":"cebpf4jnsgd1na2vs0mg"},{"bike_id":"21e8a1fe-5d14-4d1c-9afb-9cdfcbeb0d92","system_id":"levelo_inurba_marseille","lat":43.25933,"lon":5.40905,"is_reserved":false,"is_disabled":false,"rental_uris":{"android":"levelo://app?vid=21e8a1fe-5d14-4d1c-9afb-9cdfcbeb0d92","ios":"levelo://app?vid=21e8a1fe-5d14-4d1c-9afb-9cdfcbeb0d92"},"vehicle_type_id":"4","last_reported":1750403434,"current_range_meters":16000,"station_id":"ce4bhm92rcd13ifvqglg","pricing_plan_id":"cebpf4jnsgd1na2vs0mg"},{"bike_id":"ca043159-162f-47ba-bdae-8e619c41526a","system_id":"levelo_inurba_marseille","lat":43.23175,"lon":5.39989,"is_reserved":false,"is_disabled":false,"rental_uris":{"android":"levelo://app?vid=ca043159-162f-47ba-bdae-8e619c41526a","ios":"levelo://app?vid=ca043159-162f-47ba-bdae-8e619c41526a"},"vehicle_type_id":"4","last_reported":1750403434,"current_range_meters":16000,"station_id":"ce4bhn12rcd13ifvqgqg","pricing_plan_id":"cebpf4jnsgd1na2vs0mg"},{"bike_id":"a19f7c27-1733-4b8c-8e80-26f31b64c7e6","system_id":"levelo_inurba_marseille","lat":43.30374,"lon":5.4248,"is_reserved":false,"is_disabled":false,"rental_uris":{"android":"levelo://app?vid=a19f7c27-1733-4b8c-8e80-26f31b64c7e6","ios":"levelo://app?vid=a19f7c27-1733-4b8c-8e80-26f31b64c7e6"},"vehicle_type_id":"4","last_reported":1750403434,"current_range_meters":16000,"station_id":"ce4bhoh2rcd13ifvqh6g","pricing_plan_id":"cebpf4jnsgd1na2vs0mg"},{"bike_id":"ca6842d6-6a08-4dae-b545-a4aefc25764b","system_id":"levelo_inurba_marseille","lat":43.30314,"lon":5.38908,"is_reserved":false,"is_disabled":false,"rental_uris":{"android":"levelo://app?vid=ca6842d6-6a08-4dae-b545-a4aefc25764b","ios":"levelo://app?vid=ca6842d6-6a08-4dae-b545-a4aefc25764b"},"vehicle_type_id":"4","last_reported":1750403434,"current_range_meters":16400,"station_id":"","pricing_plan_id":"cebpf4jnsgd1na2vs0mg"},{"bike_id":"f862cead-7518-460e-9fcd-28b63d975383","system_id":"levelo_inurba_marseille","lat":43.29597,"lon":5.38105,"is_reserved":false,"is_disabled":false,"rental_uris":{"android":"levelo://app?vid=f862cead-7518-460e-9fcd-28b63d975383","ios":"levelo://app?vid=f862cead-7518-460e-9fcd-28b63d975383"},"vehicle_type_id":"4","last_reported":1750403434,"current_range_meters":16400,"station_id":"ce4bgl12rcd13ifvqbo0","pricing_plan_id":"cebpf4jnsgd1na2vs0mg"},{"bike_id":"9d8c36fe-b850-4225-aadd-41e3caedf4c5","system_id":"levelo_inurba_marseille","lat":43.29043,"lon":5.39961,"is_reserved":false,"is_disabled":false,"rental_uris":{"android":"levelo://app?vid=9d8c36fe-b850-4225-aadd-41e3caedf4c5","ios":"levelo://app?vid=9d8c36fe-b850-4225-aadd-41e3caedf4c5"},"vehicle_type_id":"4","last_reported":1750403434,"current_range_meters":16400,"station_id":"ce4bh392rcd13ifvqdm0","pricing_plan_id":"cebpf4jnsgd1na2vs0mg"},{"bike_id":"8752215e-f1ed-4825-a70e-e36fd340f21c","system_id":"levelo_inurba_marseille","lat":43.26935,"lon":5.40261,"is_reserved":false,"is_disabled":false,"rental_uris":{"android":"levelo://app?vid=8752215e-f1ed-4825-a70e-e36fd340f21c","ios":"levelo://app?vid=8752215e-f1ed-4825-a70e-e36fd340f21c"},"vehicle_type_id":"4","last_reported":1750403434,"current_range_meters":16400,"station_id":"cjm6bp8fraef2m0cb0m0","pricing_plan_id":"cebpf4jnsgd1na2vs0mg"},{"bike_id":"39ef9621-abc8-4224-9c70-d4b1653baf36","system_id":"levelo_inurba_marseille","lat":43.211883,"lon":5.350726,"is_reserved":false,"is_disabled":false,"rental_uris":{"android":"levelo://app?vid=39ef9621-abc8-4224-9c70-d4b1653baf36","ios":"levelo://app?vid=39ef9621-abc8-4224-9c70-d4b1653baf36"},"vehicle_type_id":"4","last_reported":1750403434,"current_range_meters":16400,"station_id":"st_cvj6sg6p6f1abm77japg","pricing_plan_id":"cebpf4jnsgd1na2vs0mg"},{"bike_id":"d49b02fa-3402-45ae-bdfb-0320fb6783da","system_id":"levelo_inurba_marseille","lat":43.30899,"lon":5.38056,"is_reserved":false,"is_disabled":false,"rental_uris":{"android":"levelo://app?vid=d49b02fa-3402-45ae-bdfb-0320fb6783da","ios":"levelo://app?vid=d49b02fa-3402-45ae-bdfb-0320fb6783da"},"vehicle_type_id":"4","last_reported":1750403434,"current_range_meters":16800,"station_id":"","pricing_plan_id":"cebpf4jnsgd1na2vs0mg"},{"bike_id":"d3123ee8-d63e-498f-9b55-f6b1cf1b7b86","system_id":"levelo_inurba_marseille","lat":43.30452,"lon":5.39739,"is_reserved":false,"is_disabled":false,"rental_uris":{"android":"levelo://app?vid=d3123ee8-d63e-498f-9b55-f6b1cf1b7b86","ios":"levelo://app?vid=d3123ee8-d63e-498f-9b55-f6b1cf1b7b86"},"vehicle_type_id":"4","last_reported":1750403434,"current_range_meters":16800,"station_id":"ce4bh092rcd13ifvqd20","pricing_plan_id":"cebpf4jnsgd1na2vs0mg"},{"bike_id":"4b2bccf4-f1c6-4d3f-9b58-9a00eaaf7c66","system_id":"levelo_inurba_marseille","lat":43.29196,"lon":5.35803,"is_reserved":false,"is_disabled":false,"rental_uris":{"android":"levelo://app?vid=4b2bccf4-f1c6-4d3f-9b58-9a00eaaf7c66","ios":"levelo://app?vid=4b2bccf4-f1c6-4d3f-9b58-9a00eaaf7c66"},"vehicle_type_id":"4","last_reported":1750403434,"current_range_meters":16800,"station_id":"ce4bhb12rcd13ifvqel0","pricing_plan_id":"cebpf4jnsgd1na2vs0mg"},{"bike_id":"02f1decb-02b6-4f35-8b63-76d7582d5e9a","system_id":"levelo_inurba_marseille","lat":43.23186,"lon":5.39982,"is_reserved":false,"is_disabled":false,"rental_uris":{"android":"levelo://app?vid=02f1decb-02b6-4f35-8b63-76d7582d5e9a","ios":"levelo://app?vid=02f1decb-02b6-4f35-8b63-76d7582d5e9a"},"vehicle_type_id":"4","last_reported":1750403434,"current_range_meters":16800,"station_id":"ce4bhn12rcd13ifvqgqg","pricing_plan_id":"cebpf4jnsgd1na2vs0mg"},{"bike_id":"9c9432f2-200a-4685-a0d1-4fe23879268a","system_id":"levelo_inurba_marseille","lat":43.24071,"lon":5.37761,"is_reserved":false,"is_disabled":false,"rental_uris":{"android":"levelo://app?vid=9c9432f2-200a-4685-a0d1-4fe23879268a","ios":"levelo://app?vid=9c9432f2-200a-4685-a0d1-4fe23879268a"},"vehicle_type_id":"4","last_reported":1750403434,"current_range_meters":16800,"station_id":"ce4bhnp2rcd13ifvqgvg","pricing_plan_id":"cebpf4jnsgd1na2vs0mg"},{"bike_id":"e22c0377-1f6d-4faf-b2b3-3701e84eedcf","system_id":"levelo_inurba_marseille","lat":43.287119,"lon":5.399755,"is_reserved":false,"is_disabled":false,"rental_uris":{"android":"levelo://app?vid=e22c0377-1f6d-4faf-b2b3-3701e84eedcf","ios":"levelo://app?vid=e22c0377-1f6d-4faf-b2b3-3701e84eedcf"},"vehicle_type_id":"4","last_reported":1750403434,"current_range_meters":16800,"station_id":"ce4bho92rcd13ifvqh3g","pricing_plan_id":"cebpf4jnsgd1na2vs0mg"},{"bike_id":"8e92feac-7d18-4ddd-8b47-3e77cf9b9c34","system_id":"levelo_inurba_marseille","lat":43.23199,"lon":5.35553,"is_reserved":false,"is_disabled":false,"rental_uris":{"android":"levelo://app?vid=8e92feac-7d18-4ddd-8b47-3e77cf9b9c34","ios":"levelo://app?vid=8e92feac-7d18-4ddd-8b47-3e77cf9b9c34"},"vehicle_type_id":"4","last_reported":1750403434,"current_range_meters":16800,"station_id":"ce4bhu92rcd13ifvqi70","pricing_plan_id":"cebpf4jnsgd1na2vs0mg"},{"bike_id":"dc540ba2-fb63-45eb-b83a-1826fb3d30b7","system_id":"levelo_inurba_marseille","lat":43.24601,"lon":5.39267,"is_reserved":false,"is_disabled":false,"rental_uris":{"android":"levelo://app?vid=dc540ba2-fb63-45eb-b83a-1826fb3d30b7","ios":"levelo://app?vid=dc540ba2-fb63-45eb-b83a-1826fb3d30b7"},"vehicle_type_id":"4","last_reported":1750403434,"current_range_meters":17200,"station_id":"","pricing_plan_id":"cebpf4jnsgd1na2vs0mg"},{"bike_id":"d40af265-11b5-43a6-9bb6-f910f57901ba","system_id":"levelo_inurba_marseille","lat":43.32914,"lon":5.38035,"is_reserved":false,"is_disabled":false,"rental_uris":{"android":"levelo://app?vid=d40af265-11b5-43a6-9bb6-f910f57901ba","ios":"levelo://app?vid=d40af265-11b5-43a6-9bb6-f910f57901ba"},"vehicle_type_id":"4","last_reported":1750403434,"current_range_meters":17200,"station_id":"","pricing_plan_id":"cebpf4jnsgd1na2vs0mg"},{"bike_id":"b999c313-d6eb-46a2-b611-aedbb042c63f","system_id":"levelo_inurba_marseille","lat":43.28086,"lon":5.44074,"is_reserved":false,"is_disabled":false,"rental_uris":{"android":"levelo://app?vid=b999c313-d6eb-46a2-b611-aedbb042c63f","ios":"levelo://app?vid=b999c313-d6eb-46a2-b611-aedbb042c63f"},"vehicle_type_id":"4","last_reported":1750403434,"current_range_meters":17200,"station_id":"","pricing_plan_id":"cebpf4jnsgd1na2vs0mg"},{"bike_id":"8ef11a45-504d-45b0-a2b5-97fef9594218","system_id":"levelo_inurba_marseille","lat":43.29556,"lon":5.3814,"is_reserved":false,"is_disabled":false,"rental_uris":{"android":"levelo://app?vid=8ef11a45-504d-45b0-a2b5-97fef9594218","ios":"levelo://app?vid=8ef11a45-504d-45b0-a2b5-97fef9594218"},"vehicle_type_id":"4","last_reported":1750403434,"current_range_meters":17200,"station_id":"","pricing_plan_id":"cebpf4jnsgd1na2vs0mg"},{"bike_id":"03402ab3-303d-4a70-b075-a1e0800d8c20","system_id":"levelo_inurba_marseille","lat":43.30315,"lon":5.3689,"is_reserved":false,"is_disabled":false,"rental_uris":{"android":"levelo://app?vid=03402ab3-303d-4a70-b075-a1e0800d8c20","ios":"levelo://app?vid=03402ab3-303d-4a70-b075-a1e0800d8c20"},"vehicle_type_id":"4","last_reported":1750403434,"current_range_meters":17200,"station_id":"ce4bgqh2rcd13ifvqc5g","pricing_plan_id":"cebpf4jnsgd1na2vs0mg"},{"bike_id":"60bd9a0e-d45b-43f1-b725-994e8db86573","system_id":"levelo_inurba_marseille","lat":43.2963,"lon":5.40588,"is_reserved":false,"is_disabled":false,"rental_uris":{"android":"levelo://app?vid=60bd9a0e-d45b-43f1-b725-994e8db86573","ios":"levelo://app?vid=60bd9a0e-d45b-43f1-b725-994e8db86573"},"vehicle_type_id":"4","last_reported":1750403434,"current_range_meters":17200,"station_id":"ce4bh0h2rcd13ifvqd60","pricing_plan_id":"cebpf4jnsgd1na2vs0mg"},{"bike_id":"b805bdd0-4e20-4192-ba59-d34cbdc3d96b","system_id":"levelo_inurba_marseille","lat":43.26573,"lon":5.39005,"is_reserved":false,"is_disabled":false,"rental_uris":{"android":"levelo://app?vid=b805bdd0-4e20-4192-ba59-d34cbdc3d96b","ios":"levelo://app?vid=b805bdd0-4e20-4192-ba59-d34cbdc3d96b"},"vehicle_type_id":"4","last_reported":1750403434,"current_range_meters":17200,"station_id":"ce4bhe12rcd13ifvqf30","pricing_plan_id":"cebpf4jnsgd1na2vs0mg"},{"bike_id":"8e0cab98-7fd9-4048-a5d5-42e156688643","system_id":"levelo_inurba_marseille","lat":43.28686,"lon":5.39981,"is_reserved":false,"is_disabled":false,"rental_uris":{"android":"levelo://app?vid=8e0cab98-7fd9-4048-a5d5-42e156688643","ios":"levelo://app?vid=8e0cab98-7fd9-4048-a5d5-42e156688643"},"vehicle_type_id":"4","last_reported":1750403434,"current_range_meters":17200,"station_id":"ce4bho92rcd13ifvqh3g","pricing_plan_id":"cebpf4jnsgd1na2vs0mg"},{"bike_id":"c7a83f03-dac2-4117-a93e-084f50699cff","system_id":"levelo_inurba_marseille","lat":43.21192,"lon":5.35065,"is_reserved":false,"is_disabled":false,"rental_uris":{"android":"levelo://app?vid=c7a83f03-dac2-4117-a93e-084f50699cff","ios":"levelo://app?vid=c7a83f03-dac2-4117-a93e-084f50699cff"},"vehicle_type_id":"4","last_reported":1750403434,"current_range_meters":17200,"station_id":"st_cvj6sg6p6f1abm77japg","pricing_plan_id":"cebpf4jnsgd1na2vs0mg"},{"bike_id":"bd27fe72-6fbc-453f-8b77-bee10ab3b13c","system_id":"levelo_inurba_marseille","lat":43.29531,"lon":5.4236,"is_reserved":false,"is_disabled":false,"rental_uris":{"android":"levelo://app?vid=bd27fe72-6fbc-453f-8b77-bee10ab3b13c","ios":"levelo://app?vid=bd27fe72-6fbc-453f-8b77-bee10ab3b13c"},"vehicle_type_id":"4","last_reported":1750403434,"current_range_meters":17600,"station_id":"","pricing_plan_id":"cebpf4jnsgd1na2vs0mg"},{"bike_id":"e904481c-c075-4235-ab4b-c7d3ddbe3194","system_id":"levelo_inurba_marseille","lat":43.293304,"lon":5.370808,"is_reserved":false,"is_disabled":false,"rental_uris":{"android":"levelo://app?vid=e904481c-c075-4235-ab4b-c7d3ddbe3194","ios":"levelo://app?vid=e904481c-c075-4235-ab4b-c7d3ddbe3194"},"vehicle_type_id":"4","last_reported":1750403434,"current_range_meters":17600,"station_id":"","pricing_plan_id":"cebpf4jnsgd1na2vs0mg"},{"bike_id":"86ee09af-7fe2-4c93-8a5f-82ada7fd10ee","system_id":"levelo_inurba_marseille","lat":43.30993,"lon":5.37972,"is_reserved":false,"is_disabled":false,"rental_uris":{"android":"levelo://app?vid=86ee09af-7fe2-4c93-8a5f-82ada7fd10ee","ios":"levelo://app?vid=86ee09af-7fe2-4c93-8a5f-82ada7fd10ee"},"vehicle_type_id":"4","last_reported":1750403434,"current_range_meters":18000,"station_id":"","pricing_plan_id":"cebpf4jnsgd1na2vs0mg"},{"bike_id":"a22aa312-0025-4f42-88e2-b1e95e79340f","system_id":"levelo_inurba_marseille","lat":43.31747,"lon":5.38407,"is_reserved":false,"is_disabled":false,"rental_uris":{"android":"levelo://app?vid=a22aa312-0025-4f42-88e2-b1e95e79340f","ios":"levelo://app?vid=a22aa312-0025-4f42-88e2-b1e95e79340f"},"vehicle_type_id":"4","last_reported":1750403434,"current_range_meters":18000,"station_id":"","pricing_plan_id":"cebpf4jnsgd1na2vs0mg"},{"bike_id":"b50a1d6f-5fe7-47b6-b4e4-0b1578a7b2a9","system_id":"levelo_inurba_marseille","lat":43.29303,"lon":5.37174,"is_reserved":false,"is_disabled":false,"rental_uris":{"android":"levelo://app?vid=b50a1d6f-5fe7-47b6-b4e4-0b1578a7b2a9","ios":"levelo://app?vid=b50a1d6f-5fe7-47b6-b4e4-0b1578a7b2a9"},"vehicle_type_id":"4","last_reported":1750403434,"current_range_meters":18000,"station_id":"ce4bgh92rcd13ifvqb40","pricing_plan_id":"cebpf4jnsgd1na2vs0mg"},{"bike_id":"fadd18fa-e422-4f91-af16-6c53186f6820","system_id":"levelo_inurba_marseille","lat":43.293,"lon":5.37464,"is_reserved":false,"is_disabled":false,"rental_uris":{"android":"levelo://app?vid=fadd18fa-e422-4f91-af16-6c53186f6820","ios":"levelo://app?vid=fadd18fa-e422-4f91-af16-6c53186f6820"},"vehicle_type_id":"4","last_reported":1750403434,"current_range_meters":18000,"station_id":"ce4bgi12rcd13ifvqb70","pricing_plan_id":"cebpf4jnsgd1na2vs0mg"},{"bike_id":"a355deee-f604-4bbe-bc6d-9b0b2f98b683","system_id":"levelo_inurba_marseille","lat":43.3149,"lon":5.37297,"is_reserved":false,"is_disabled":false,"rental_uris":{"android":"levelo://app?vid=a355deee-f604-4bbe-bc6d-9b0b2f98b683","ios":"levelo://app?vid=a355deee-f604-4bbe-bc6d-9b0b2f98b683"},"vehicle_type_id":"4","last_reported":1750403434,"current_range_meters":18000,"station_id":"ce4bgt12rcd13ifvqcd0","pricing_plan_id":"cebpf4jnsgd1na2vs0mg"},{"bike_id":"df45026e-fb92-4939-a854-6b04a769a040","system_id":"levelo_inurba_marseille","lat":43.31488,"lon":5.37307,"is_reserved":false,"is_disabled":false,"rental_uris":{"android":"levelo://app?vid=df45026e-fb92-4939-a854-6b04a769a040","ios":"levelo://app?vid=df45026e-fb92-4939-a854-6b04a769a040"},"vehicle_type_id":"4","last_reported":1750403434,"current_range_meters":18000,"station_id":"ce4bgt12rcd13ifvqcd0","pricing_plan_id":"cebpf4jnsgd1na2vs0mg"},{"bike_id":"5ad91d08-dafd-4b06-ad6f-741f77df8b64","system_id":"levelo_inurba_marseille","lat":43.3026,"lon":5.37706,"is_reserved":false,"is_disabled":false,"rental_uris":{"android":"levelo://app?vid=5ad91d08-dafd-4b06-ad6f-741f77df8b64","ios":"levelo://app?vid=5ad91d08-dafd-4b06-ad6f-741f77df8b64"},"vehicle_type_id":"4","last_reported":1750403434,"current_range_meters":18000,"station_id":"ce4bguh2rcd13ifvqcj0","pricing_plan_id":"cebpf4jnsgd1na2vs0mg"},{"bike_id":"2a998aea-0168-4872-acef-46c608570009","system_id":"levelo_inurba_marseille","lat":43.29542,"lon":5.42302,"is_reserved":false,"is_disabled":false,"rental_uris":{"android":"levelo://app?vid=2a998aea-0168-4872-acef-46c608570009","ios":"levelo://app?vid=2a998aea-0168-4872-acef-46c608570009"},"vehicle_type_id":"4","last_reported":1750403434,"current_range_meters":18000,"station_id":"ce4bhph2rcd13ifvqhdg","pricing_plan_id":"cebpf4jnsgd1na2vs0mg"},{"bike_id":"46473805-e008-487e-8655-1ad069a37996","system_id":"levelo_inurba_marseille","lat":43.33604,"lon":5.4103,"is_reserved":false,"is_disabled":false,"rental_uris":{"android":"levelo://app?vid=46473805-e008-487e-8655-1ad069a37996","ios":"levelo://app?vid=46473805-e008-487e-8655-1ad069a37996"},"vehicle_type_id":"4","last_reported":1750403434,"current_range_meters":18000,"station_id":"ce4bhqh2rcd13ifvqhmg","pricing_plan_id":"cebpf4jnsgd1na2vs0mg"},{"bike_id":"4643bc90-1bac-4c4b-98b1-e2d500830573","system_id":"levelo_inurba_marseille","lat":43.31371,"lon":5.37704,"is_reserved":false,"is_disabled":false,"rental_uris":{"android":"levelo://app?vid=4643bc90-1bac-4c4b-98b1-e2d500830573","ios":"levelo://app?vid=4643bc90-1bac-4c4b-98b1-e2d500830573"},"vehicle_type_id":"4","last_reported":1750403434,"current_range_meters":18800,"station_id":"","pricing_plan_id":"cebpf4jnsgd1na2vs0mg"},{"bike_id":"ffbb0c22-3f4e-4cdb-a0e5-79e3b9f3e1a2","system_id":"levelo_inurba_marseille","lat":43.33776,"lon":5.37427,"is_reserved":false,"is_disabled":false,"rental_uris":{"android":"levelo://app?vid=ffbb0c22-3f4e-4cdb-a0e5-79e3b9f3e1a2","ios":"levelo://app?vid=ffbb0c22-3f4e-4cdb-a0e5-79e3b9f3e1a2"},"vehicle_type_id":"4","last_reported":1750403434,"current_range_meters":18800,"station_id":"","pricing_plan_id":"cebpf4jnsgd1na2vs0mg"},{"bike_id":"1bc91bee-9179-4068-bbc2-ec0040a130cf","system_id":"levelo_inurba_marseille","lat":43.2968,"lon":5.37279,"is_reserved":false,"is_disabled":false,"rental_uris":{"android":"levelo://app?vid=1bc91bee-9179-4068-bbc2-ec0040a130cf","ios":"levelo://app?vid=1bc91bee-9179-4068-bbc2-ec0040a130cf"},"vehicle_type_id":"4","last_reported":1750403434,"current_range_meters":18800,"station_id":"ce4bgk12rcd13ifvqbj0","pricing_plan_id":"cebpf4jnsgd1na2vs0mg"},{"bike_id":"6ad92130-8bf2-4c13-a2f4-38925a261880","system_id":"levelo_inurba_marseille","lat":43.30476,"lon":5.37904,"is_reserved":false,"is_disabled":false,"rental_uris":{"android":"levelo://app?vid=6ad92130-8bf2-4c13-a2f4-38925a261880","ios":"levelo://app?vid=6ad92130-8bf2-4c13-a2f4-38925a261880"},"vehicle_type_id":"4","last_reported":1750403434,"current_range_meters":18800,"station_id":"ce4bgup2rcd13ifvqcn0","pricing_plan_id":"cebpf4jnsgd1na2vs0mg"},{"bike_id":"04e6c675-cf73-4733-ad92-003e7bd5ccf1","system_id":"levelo_inurba_marseille","lat":43.30462,"lon":5.37905,"is_reserved":false,"is_disabled":false,"rental_uris":{"android":"levelo://app?vid=04e6c675-cf73-4733-ad92-003e7bd5ccf1","ios":"levelo://app?vid=04e6c675-cf73-4733-ad92-003e7bd5ccf1"},"vehicle_type_id":"4","last_reported":1750403434,"current_range_meters":18800,"station_id":"ce4bgup2rcd13ifvqcn0","pricing_plan_id":"cebpf4jnsgd1na2vs0mg"},{"bike_id":"0a11771e-cc24-4d24-baf4-0abfe3e65cfe","system_id":"levelo_inurba_marseille","lat":43.28616,"lon":5.35109,"is_reserved":false,"is_disabled":false,"rental_uris":{"android":"levelo://app?vid=0a11771e-cc24-4d24-baf4-0abfe3e65cfe","ios":"levelo://app?vid=0a11771e-cc24-4d24-baf4-0abfe3e65cfe"},"vehicle_type_id":"4","last_reported":1750403434,"current_range_meters":18800,"station_id":"ce4bhch2rcd13ifvqeug","pricing_plan_id":"cebpf4jnsgd1na2vs0mg"},{"bike_id":"204afd8f-d13a-468d-a59c-e2db9671fff1","system_id":"levelo_inurba_marseille","lat":43.24403,"lon":5.37087,"is_reserved":false,"is_disabled":false,"rental_uris":{"android":"levelo://app?vid=204afd8f-d13a-468d-a59c-e2db9671fff1","ios":"levelo://app?vid=204afd8f-d13a-468d-a59c-e2db9671fff1"},"vehicle_type_id":"4","last_reported":1750403434,"current_range_meters":18800,"station_id":"ce4bhhh2rcd13ifvqfk0","pricing_plan_id":"cebpf4jnsgd1na2vs0mg"},{"bike_id":"82b46f4a-45a2-4bf8-8545-92a56f2376c5","system_id":"levelo_inurba_marseille","lat":43.25719,"lon":5.41118,"is_reserved":false,"is_disabled":false,"rental_uris":{"android":"levelo://app?vid=82b46f4a-45a2-4bf8-8545-92a56f2376c5","ios":"levelo://app?vid=82b46f4a-45a2-4bf8-8545-92a56f2376c5"},"vehicle_type_id":"4","last_reported":1750403434,"current_range_meters":18800,"station_id":"ce4bhkp2rcd13ifvqgd0","pricing_plan_id":"cebpf4jnsgd1na2vs0mg"},{"bike_id":"508e5ed4-c38c-418b-bfef-a39bf1b6f450","system_id":"levelo_inurba_marseille","lat":43.27806,"lon":5.40712,"is_reserved":false,"is_disabled":false,"rental_uris":{"android":"levelo://app?vid=508e5ed4-c38c-418b-bfef-a39bf1b6f450","ios":"levelo://app?vid=508e5ed4-c38c-418b-bfef-a39bf1b6f450"},"vehicle_type_id":"4","last_reported":1750403434,"current_range_meters":18800,"station_id":"ce4bhnh2rcd13ifvqgtg","pricing_plan_id":"cebpf4jnsgd1na2vs0mg"},{"bike_id":"a9f7e5b6-c3b9-477a-9dd1-4ff223f734c0","system_id":"levelo_inurba_marseille","lat":43.298969,"lon":5.436701,"is_reserved":false,"is_disabled":false,"rental_uris":{"android":"levelo://app?vid=a9f7e5b6-c3b9-477a-9dd1-4ff223f734c0","ios":"levelo://app?vid=a9f7e5b6-c3b9-477a-9dd1-4ff223f734c0"},"vehicle_type_id":"4","last_reported":1750403434,"current_range_meters":18800,"station_id":"ce4bhpp2rcd13ifvqhfg","pricing_plan_id":"cebpf4jnsgd1na2vs0mg"},{"bike_id":"584bf8b8-5da7-4909-96ad-5a643d3bf26a","system_id":"levelo_inurba_marseille","lat":43.30461,"lon":5.37895,"is_reserved":false,"is_disabled":false,"rental_uris":{"android":"levelo://app?vid=584bf8b8-5da7-4909-96ad-5a643d3bf26a","ios":"levelo://app?vid=584bf8b8-5da7-4909-96ad-5a643d3bf26a"},"vehicle_type_id":"4","last_reported":1750403434,"current_range_meters":19200,"station_id":"ce4bgup2rcd13ifvqcn0","pricing_plan_id":"cebpf4jnsgd1na2vs0mg"},{"bike_id":"69a9638a-cee1-4963-9475-b7bcc7bb05f8","system_id":"levelo_inurba_marseille","lat":43.24994,"lon":5.38933,"is_reserved":false,"is_disabled":false,"rental_uris":{"android":"levelo://app?vid=69a9638a-cee1-4963-9475-b7bcc7bb05f8","ios":"levelo://app?vid=69a9638a-cee1-4963-9475-b7bcc7bb05f8"},"vehicle_type_id":"4","last_reported":1750403434,"current_range_meters":19200,"station_id":"ce4bhgp2rcd13ifvqfd0","pricing_plan_id":"cebpf4jnsgd1na2vs0mg"},{"bike_id":"a4ff1886-948f-489c-b8f8-527cff5591b8","system_id":"levelo_inurba_marseille","lat":43.29599,"lon":5.381,"is_reserved":false,"is_disabled":false,"rental_uris":{"android":"levelo://app?vid=a4ff1886-948f-489c-b8f8-527cff5591b8","ios":"levelo://app?vid=a4ff1886-948f-489c-b8f8-527cff5591b8"},"vehicle_type_id":"4","last_reported":1750403434,"current_range_meters":19600,"station_id":"","pricing_plan_id":"cebpf4jnsgd1na2vs0mg"},{"bike_id":"a9cca4e7-c0c5-4e7e-bd71-3d26daad6e18","system_id":"levelo_inurba_marseille","lat":43.30175,"lon":5.37374,"is_reserved":false,"is_disabled":false,"rental_uris":{"android":"levelo://app?vid=a9cca4e7-c0c5-4e7e-bd71-3d26daad6e18","ios":"levelo://app?vid=a9cca4e7-c0c5-4e7e-bd71-3d26daad6e18"},"vehicle_type_id":"4","last_reported":1750403434,"current_range_meters":19600,"station_id":"ce4bgs92rcd13ifvqcc0","pricing_plan_id":"cebpf4jnsgd1na2vs0mg"},{"bike_id":"5e91a204-734b-44cc-97d9-c8e05cacb556","system_id":"levelo_inurba_marseille","lat":43.288703,"lon":5.39307,"is_reserved":false,"is_disabled":false,"rental_uris":{"android":"levelo://app?vid=5e91a204-734b-44cc-97d9-c8e05cacb556","ios":"levelo://app?vid=5e91a204-734b-44cc-97d9-c8e05cacb556"},"vehicle_type_id":"4","last_reported":1750403434,"current_range_meters":19600,"station_id":"ce4bh2p2rcd13ifvqdi0","pricing_plan_id":"cebpf4jnsgd1na2vs0mg"},{"bike_id":"3c77a923-0645-4b9b-8072-9af9cba9127c","system_id":"levelo_inurba_marseille","lat":43.25724,"lon":5.41107,"is_reserved":false,"is_disabled":false,"rental_uris":{"android":"levelo://app?vid=3c77a923-0645-4b9b-8072-9af9cba9127c","ios":"levelo://app?vid=3c77a923-0645-4b9b-8072-9af9cba9127c"},"vehicle_type_id":"4","last_reported":1750403434,"current_range_meters":19600,"station_id":"ce4bhkp2rcd13ifvqgd0","pricing_plan_id":"cebpf4jnsgd1na2vs0mg"},{"bike_id":"11557f66-39f3-4e91-acc2-0989a3bc2c7b","system_id":"levelo_inurba_marseille","lat":43.24076,"lon":5.3776,"is_reserved":false,"is_disabled":false,"rental_uris":{"android":"levelo://app?vid=11557f66-39f3-4e91-acc2-0989a3bc2c7b","ios":"levelo://app?vid=11557f66-39f3-4e91-acc2-0989a3bc2c7b"},"vehicle_type_id":"4","last_reported":1750403434,"current_range_meters":19600,"station_id":"ce4bhnp2rcd13ifvqgvg","pricing_plan_id":"cebpf4jnsgd1na2vs0mg"},{"bike_id":"ebd468cf-6662-4fa9-87c4-1c37973b61c9","system_id":"levelo_inurba_marseille","lat":43.29571,"lon":5.39983,"is_reserved":false,"is_disabled":false,"rental_uris":{"android":"levelo://app?vid=ebd468cf-6662-4fa9-87c4-1c37973b61c9","ios":"levelo://app?vid=ebd468cf-6662-4fa9-87c4-1c37973b61c9"},"vehicle_type_id":"4","last_reported":1750403434,"current_range_meters":20000,"station_id":"","pricing_plan_id":"cebpf4jnsgd1na2vs0mg"},{"bike_id":"686b243f-e090-40cb-8de1-a7d77c593f28","system_id":"levelo_inurba_marseille","lat":43.297084,"lon":5.376896,"is_reserved":false,"is_disabled":false,"rental_uris":{"android":"levelo://app?vid=686b243f-e090-40cb-8de1-a7d77c593f28","ios":"levelo://app?vid=686b243f-e090-40cb-8de1-a7d77c593f28"},"vehicle_type_id":"4","last_reported":1750403434,"current_range_meters":20000,"station_id":"ce4bgkh2rcd13ifvqbl0","pricing_plan_id":"cebpf4jnsgd1na2vs0mg"},{"bike_id":"5f77ee41-856b-432f-be4e-84ec40db7522","system_id":"levelo_inurba_marseille","lat":43.3014,"lon":5.37408,"is_reserved":false,"is_disabled":false,"rental_uris":{"android":"levelo://app?vid=5f77ee41-856b-432f-be4e-84ec40db7522","ios":"levelo://app?vid=5f77ee41-856b-432f-be4e-84ec40db7522"},"vehicle_type_id":"4","last_reported":1750403434,"current_range_meters":20000,"station_id":"ce4bgs92rcd13ifvqcc0","pricing_plan_id":"cebpf4jnsgd1na2vs0mg"},{"bike_id":"063e9941-d5f6-480d-a2cf-92698b2a4bd1","system_id":"levelo_inurba_marseille","lat":43.31475,"lon":5.37293,"is_reserved":false,"is_disabled":false,"rental_uris":{"android":"levelo://app?vid=063e9941-d5f6-480d-a2cf-92698b2a4bd1","ios":"levelo://app?vid=063e9941-d5f6-480d-a2cf-92698b2a4bd1"},"vehicle_type_id":"4","last_reported":1750403434,"current_range_meters":20000,"station_id":"ce4bgt12rcd13ifvqcd0","pricing_plan_id":"cebpf4jnsgd1na2vs0mg"},{"bike_id":"3dccf99d-e25f-4fc9-8226-bf1f114f959c","system_id":"levelo_inurba_marseille","lat":43.23179,"lon":5.39989,"is_reserved":false,"is_disabled":false,"rental_uris":{"android":"levelo://app?vid=3dccf99d-e25f-4fc9-8226-bf1f114f959c","ios":"levelo://app?vid=3dccf99d-e25f-4fc9-8226-bf1f114f959c"},"vehicle_type_id":"4","last_reported":1750403434,"current_range_meters":20000,"station_id":"ce4bhn12rcd13ifvqgqg","pricing_plan_id":"cebpf4jnsgd1na2vs0mg"},{"bike_id":"9661cd18-5066-41fc-b198-bdca5d8a541c","system_id":"levelo_inurba_marseille","lat":43.2417,"lon":5.36392,"is_reserved":false,"is_disabled":false,"rental_uris":{"android":"levelo://app?vid=9661cd18-5066-41fc-b198-bdca5d8a541c","ios":"levelo://app?vid=9661cd18-5066-41fc-b198-bdca5d8a541c"},"vehicle_type_id":"4","last_reported":1750403434,"current_range_meters":20000,"station_id":"cpo36qri1sfpv3e86is0","pricing_plan_id":"cebpf4jnsgd1na2vs0mg"},{"bike_id":"07457f23-62c4-4b53-99d8-44f374338b1b","system_id":"levelo_inurba_marseille","lat":43.30174,"lon":5.38083,"is_reserved":false,"is_disabled":false,"rental_uris":{"android":"levelo://app?vid=07457f23-62c4-4b53-99d8-44f374338b1b","ios":"levelo://app?vid=07457f23-62c4-4b53-99d8-44f374338b1b"},"vehicle_type_id":"4","last_reported":1750403434,"current_range_meters":20400,"station_id":"ce4bgjp2rcd13ifvqbh0","pricing_plan_id":"cebpf4jnsgd1na2vs0mg"},{"bike_id":"8086b655-0d03-498b-b12e-3d1362d2c617","system_id":"levelo_inurba_marseille","lat":43.31699,"lon":5.40467,"is_reserved":false,"is_disabled":false,"rental_uris":{"android":"levelo://app?vid=8086b655-0d03-498b-b12e-3d1362d2c617","ios":"levelo://app?vid=8086b655-0d03-498b-b12e-3d1362d2c617"},"vehicle_type_id":"4","last_reported":1750403434,"current_range_meters":20400,"station_id":"ce4bh012rcd13ifvqd00","pricing_plan_id":"cebpf4jnsgd1na2vs0mg"},{"bike_id":"d53481d3-5c36-41fb-944c-5e443da7f251","system_id":"levelo_inurba_marseille","lat":43.30325,"lon":5.40433,"is_reserved":false,"is_disabled":false,"rental_uris":{"android":"levelo://app?vid=d53481d3-5c36-41fb-944c-5e443da7f251","ios":"levelo://app?vid=d53481d3-5c36-41fb-944c-5e443da7f251"},"vehicle_type_id":"4","last_reported":1750403434,"current_range_meters":20400,"station_id":"ce4bh012rcd13ifvqd10","pricing_plan_id":"cebpf4jnsgd1na2vs0mg"},{"bike_id":"d4dbe130-b7e9-4595-870e-5209d9775666","system_id":"levelo_inurba_marseille","lat":43.28344,"lon":5.38102,"is_reserved":false,"is_disabled":false,"rental_uris":{"android":"levelo://app?vid=d4dbe130-b7e9-4595-870e-5209d9775666","ios":"levelo://app?vid=d4dbe130-b7e9-4595-870e-5209d9775666"},"vehicle_type_id":"4","last_reported":1750403434,"current_range_meters":20400,"station_id":"ce4bh412rcd13ifvqdr0","pricing_plan_id":"cebpf4jnsgd1na2vs0mg"},{"bike_id":"870c0e41-4f8f-4255-8033-a12fb7a131b1","system_id":"levelo_inurba_marseille","lat":43.289316,"lon":5.366398,"is_reserved":false,"is_disabled":false,"rental_uris":{"android":"levelo://app?vid=870c0e41-4f8f-4255-8033-a12fb7a131b1","ios":"levelo://app?vid=870c0e41-4f8f-4255-8033-a12fb7a131b1"},"vehicle_type_id":"4","last_reported":1750403434,"current_range_meters":20400,"station_id":"ce4bhap2rcd13ifvqek0","pricing_plan_id":"cebpf4jnsgd1na2vs0mg"},{"bike_id":"b3c403d1-b04b-4c6f-9171-8101d3df2718","system_id":"levelo_inurba_marseille","lat":43.276272,"lon":5.392595,"is_reserved":false,"is_disabled":false,"rental_uris":{"android":"levelo://app?vid=b3c403d1-b04b-4c6f-9171-8101d3df2718","ios":"levelo://app?vid=b3c403d1-b04b-4c6f-9171-8101d3df2718"},"vehicle_type_id":"4","last_reported":1750403434,"current_range_meters":20400,"station_id":"ce4bhm92rcd13ifvqglg","pricing_plan_id":"cebpf4jnsgd1na2vs0mg"},{"bike_id":"21ae0a45-6d1a-45cf-8a2c-bc0061c0ebf9","system_id":"levelo_inurba_marseille","lat":43.27992,"lon":5.41668,"is_reserved":false,"is_disabled":false,"rental_uris":{"android":"levelo://app?vid=21ae0a45-6d1a-45cf-8a2c-bc0061c0ebf9","ios":"levelo://app?vid=21ae0a45-6d1a-45cf-8a2c-bc0061c0ebf9"},"vehicle_type_id":"4","last_reported":1750403434,"current_range_meters":20400,"station_id":"ce4bho12rcd13ifvqh1g","pricing_plan_id":"cebpf4jnsgd1na2vs0mg"},{"bike_id":"5187990f-0e38-4183-960c-3c6c679fb2e8","system_id":"levelo_inurba_marseille","lat":43.21191,"lon":5.35075,"is_reserved":false,"is_disabled":false,"rental_uris":{"android":"levelo://app?vid=5187990f-0e38-4183-960c-3c6c679fb2e8","ios":"levelo://app?vid=5187990f-0e38-4183-960c-3c6c679fb2e8"},"vehicle_type_id":"4","last_reported":1750403434,"current_range_meters":20400,"station_id":"st_cvj6sg6p6f1abm77japg","pricing_plan_id":"cebpf4jnsgd1na2vs0mg"},{"bike_id":"973db25f-144a-495b-98c4-15b4ae2dacd8","system_id":"levelo_inurba_marseille","lat":43.313127,"lon":5.37504,"is_reserved":false,"is_disabled":false,"rental_uris":{"android":"levelo://app?vid=973db25f-144a-495b-98c4-15b4ae2dacd8","ios":"levelo://app?vid=973db25f-144a-495b-98c4-15b4ae2dacd8"},"vehicle_type_id":"4","last_reported":1750403434,"current_range_meters":20800,"station_id":"","pricing_plan_id":"cebpf4jnsgd1na2vs0mg"},{"bike_id":"2d50ff45-3046-40df-b784-ee274c648ea0","system_id":"levelo_inurba_marseille","lat":43.3203,"lon":5.40817,"is_reserved":false,"is_disabled":false,"rental_uris":{"android":"levelo://app?vid=2d50ff45-3046-40df-b784-ee274c648ea0","ios":"levelo://app?vid=2d50ff45-3046-40df-b784-ee274c648ea0"},"vehicle_type_id":"4","last_reported":1750403434,"current_range_meters":20800,"station_id":"","pricing_plan_id":"cebpf4jnsgd1na2vs0mg"},{"bike_id":"c9d78316-699c-4115-8955-513bfe3919b3","system_id":"levelo_inurba_marseille","lat":43.29907,"lon":5.37467,"is_reserved":false,"is_disabled":false,"rental_uris":{"android":"levelo://app?vid=c9d78316-699c-4115-8955-513bfe3919b3","ios":"levelo://app?vid=c9d78316-699c-4115-8955-513bfe3919b3"},"vehicle_type_id":"4","last_reported":1750403434,"current_range_meters":20800,"station_id":"ce4bgjh2rcd13ifvqbg0","pricing_plan_id":"cebpf4jnsgd1na2vs0mg"},{"bike_id":"89fb8236-72e5-4a28-9b96-3512f92ace29","system_id":"levelo_inurba_marseille","lat":43.23178,"lon":5.3999,"is_reserved":false,"is_disabled":false,"rental_uris":{"android":"levelo://app?vid=89fb8236-72e5-4a28-9b96-3512f92ace29","ios":"levelo://app?vid=89fb8236-72e5-4a28-9b96-3512f92ace29"},"vehicle_type_id":"4","last_reported":1750403434,"current_range_meters":20800,"station_id":"ce4bhn12rcd13ifvqgqg","pricing_plan_id":"cebpf4jnsgd1na2vs0mg"},{"bike_id":"2ebb486d-da0f-4ded-9558-964d959bffed","system_id":"levelo_inurba_marseille","lat":43.31717,"lon":5.43713,"is_reserved":false,"is_disabled":false,"rental_uris":{"android":"levelo://app?vid=2ebb486d-da0f-4ded-9558-964d959bffed","ios":"levelo://app?vid=2ebb486d-da0f-4ded-9558-964d959bffed"},"vehicle_type_id":"4","last_reported":1750403434,"current_range_meters":20800,"station_id":"ce4bhp92rcd13ifvqhcg","pricing_plan_id":"cebpf4jnsgd1na2vs0mg"},{"bike_id":"995b80e0-e9ea-409a-99b2-5d12ed3ca7b8","system_id":"levelo_inurba_marseille","lat":43.296032,"lon":5.381078,"is_reserved":false,"is_disabled":false,"rental_uris":{"android":"levelo://app?vid=995b80e0-e9ea-409a-99b2-5d12ed3ca7b8","ios":"levelo://app?vid=995b80e0-e9ea-409a-99b2-5d12ed3ca7b8"},"vehicle_type_id":"4","last_reported":1750403434,"current_range_meters":21600,"station_id":"ce4bgl12rcd13ifvqbo0","pricing_plan_id":"cebpf4jnsgd1na2vs0mg"},{"bike_id":"35bbafb0-338b-45fa-aa43-e97fb698e4ce","system_id":"levelo_inurba_marseille","lat":43.30538,"lon":5.36549,"is_reserved":false,"is_disabled":false,"rental_uris":{"android":"levelo://app?vid=35bbafb0-338b-45fa-aa43-e97fb698e4ce","ios":"levelo://app?vid=35bbafb0-338b-45fa-aa43-e97fb698e4ce"},"vehicle_type_id":"4","last_reported":1750403434,"current_range_meters":21600,"station_id":"ce4bgs12rcd13ifvqcag","pricing_plan_id":"cebpf4jnsgd1na2vs0mg"},{"bike_id":"f6c9afc2-3d31-46e2-ab6d-860bb6987ced","system_id":"levelo_inurba_marseille","lat":43.2907,"lon":5.37164,"is_reserved":false,"is_disabled":false,"rental_uris":{"android":"levelo://app?vid=f6c9afc2-3d31-46e2-ab6d-860bb6987ced","ios":"levelo://app?vid=f6c9afc2-3d31-46e2-ab6d-860bb6987ced"},"vehicle_type_id":"4","last_reported":1750403434,"current_range_meters":21600,"station_id":"ce4bh5p2rcd13ifvqe4g","pricing_plan_id":"cebpf4jnsgd1na2vs0mg"},{"bike_id":"c55d2f7b-157d-41db-953c-a1c1ccc2a8cd","system_id":"levelo_inurba_marseille","lat":43.25936,"lon":5.40908,"is_reserved":false,"is_disabled":false,"rental_uris":{"android":"levelo://app?vid=c55d2f7b-157d-41db-953c-a1c1ccc2a8cd","ios":"levelo://app?vid=c55d2f7b-157d-41db-953c-a1c1ccc2a8cd"},"vehicle_type_id":"4","last_reported":1750403434,"current_range_meters":21600,"station_id":"ce4bhm92rcd13ifvqglg","pricing_plan_id":"cebpf4jnsgd1na2vs0mg"},{"bike_id":"5da4e83b-8697-4c2d-ab54-ded034bb60b7","system_id":"levelo_inurba_marseille","lat":43.29716,"lon":5.4584,"is_reserved":false,"is_disabled":false,"rental_uris":{"android":"levelo://app?vid=5da4e83b-8697-4c2d-ab54-ded034bb60b7","ios":"levelo://app?vid=5da4e83b-8697-4c2d-ab54-ded034bb60b7"},"vehicle_type_id":"4","last_reported":1750403434,"current_range_meters":22000,"station_id":"","pricing_plan_id":"cebpf4jnsgd1na2vs0mg"},{"bike_id":"63c12ab5-dbb7-4854-9217-ba0deca49cf5","system_id":"levelo_inurba_marseille","lat":43.30181,"lon":5.38047,"is_reserved":false,"is_disabled":false,"rental_uris":{"android":"levelo://app?vid=63c12ab5-dbb7-4854-9217-ba0deca49cf5","ios":"levelo://app?vid=63c12ab5-dbb7-4854-9217-ba0deca49cf5"},"vehicle_type_id":"4","last_reported":1750403434,"current_range_meters":22000,"station_id":"","pricing_plan_id":"cebpf4jnsgd1na2vs0mg"},{"bike_id":"f20d9be8-f65a-4615-a334-097d875818ce","system_id":"levelo_inurba_marseille","lat":43.289058,"lon":5.372899,"is_reserved":false,"is_disabled":false,"rental_uris":{"android":"levelo://app?vid=f20d9be8-f65a-4615-a334-097d875818ce","ios":"levelo://app?vid=f20d9be8-f65a-4615-a334-097d875818ce"},