{"last_updated":1714813706,"ttl":30,"version":"2.2","data":{"bikes":[{"bike_id":"908032e3-d82c-410d-aeb9-3573c816557f","system_id":"levelo_inurba_marseille","lat":43.31341,"lon":5.367098,"is_reserved":false,"is_disabled":false,"rental_uris":{"android":"levelo://app?vid=908032e3-d82c-410d-aeb9-3573c816557f","ios":"levelo://app?vid=908032e3-d82c-410d-aeb9-3573c816557f"},"vehicle_type_id":"4","last_reported":1714813706,"current_range_meters":26000,"station_id":"ce4bgr92rcd13ifvqc6g","pricing_plan_id":"cebpf4jnsgd1na2vs0mg"},{"bike_id":"70be0e3b-885a-438f-b1a3-b94db12c74bc","system_id":"levelo_inurba_marseille","lat":43.312239,"lon":5.368562,"is_reserved":false,"is_disabled":false,"rental_uris":{"android":"levelo://app?vid=70be0e3b-885a-438f-b1a3-b94db12c74bc","ios":"levelo://app?vid=70be0e3b-885a-438f-b1a3-b94db12c74bc"},"vehicle_type_id":"4","last_reported":1714813706,"current_range_meters":14400,"station_id":"ce4bgl92rcd13ifvqbq0","pricing_plan_id":"cebpf4jnsgd1na2vs0mg"},{"bike_id":"72ceacb7-8cb5-438a-b0c2-9afcf3fc346f","system_id":"levelo_inurba_marseille","lat":43.312239,"lon":5.368562,"is_reserved":false,"is_disabled":false,"rental_uris":{"android":"levelo://app?vid=72ceacb7-8cb5-438a-b0c2-9afcf3fc346f","ios":"levelo://app?vid=72ceacb7-8cb5-438a-b0c2-9afcf3fc346f"},"vehicle_type_id":"4","last_reported":1714813706,"current_range_meters":19200,"station_id":"ce4bgl92rcd13ifvqbq0","pricing_plan_id":"cebpf4jnsgd1na2vs0mg"},{"bike_id":"969fb5a9-4afa-4d49-abbc-c5a3c451f38f","system_id":"levelo_inurba_marseille","lat":43.312239,"lon":5.368562,"is_reserved":false,"is_disabled":false,"rental_uris":{"android":"levelo://app?vid=969fb5a9-4afa-4d49-abbc-c5a3c451f38f","ios":"levelo://app?vid=969fb5a9-4afa-4d49-abbc-c5a3c451f38f"},"vehicle_type_id":"4","last_reported":1714813706,"current_range_meters":19200,"station_id":"ce4bgl92rcd13ifvqbq0","pricing_plan_id":"cebpf4jnsgd1na2vs0mg"},{"bike_id":"6e6b1a31-9867-4d15-a661-3fea3e4c9561","system_id":"levelo_inurba_marseille","lat":43.309076,"lon":5.368465,"is_reserved":false,"is_disabled":false,"rental_uris":{"android":"levelo://app?vid=6e6b1a31-9867-4d15-a661-3fea3e4c9561","ios":"levelo://app?vid=6e6b1a31-9867-4d15-a661-3fea3e4c9561"},"vehicle_type_id":"4","last_reported":1714813706,"current_range_meters":18800,"station_id":"ce4bgn92rcd13ifvqbvg","pricing_plan_id":"cebpf4jnsgd1na2vs0mg"},{"bike_id":"86f1fba8-c873-4460-b4f2-ea811e069a5e","system_id":"levelo_inurba_marseille","lat":43.309076,"lon":5.368465,"is_reserved":false,"is_disabled":false,"rental_uris":{"android":"levelo://app?vid=86f1fba8-c873-4460-b4f2-ea811e069a5e","ios":"levelo://app?vid=86f1fba8-c873-4460-b4f2-ea811e069a5e"},"vehicle_type_id":"4","last_reported":1714813706,"current_range_meters":11600,"station_id":"ce4bgn92rcd13ifvqbvg","pricing_plan_id":"cebpf4jnsgd1na2vs0mg"},{"bike_id":"ec45d7d5-6fa0-4844-8362-8302d196a716","system_id":"levelo_inurba_marseille","lat":43.309076,"lon":5.368465,"is_reserved":false,"is_disabled":false,"rental_uris":{"android":"levelo://app?vid=ec45d7d5-6fa0-4844-8362-8302d196a716","ios":"levelo://app?vid=ec45d7d5-6fa0-4844-8362-8302d196a716"},"vehicle_type_id":"4","last_reported":1714813706,"current_range_meters":26400,"station_id":"ce4bgn92rcd13ifvqbvg","pricing_plan_id":"cebpf4jnsgd1na2vs0mg"},{"bike_id":"20c134b7-083b-49cd-8f87-c9a6aa08642e","system_id":"levelo_inurba_marseille","lat":43.309076,"lon":5.368465,"is_reserved":false,"is_disabled":false,"rental_uris":{"android":"levelo://app?vid=20c134b7-083b-49cd-8f87-c9a6aa08642e","ios":"levelo://app?vid=20c134b7-083b-49cd-8f87-c9a6aa08642e"},"vehicle_type_id":"4","last_reported":1714813706,"current_range_meters":0,"station_id":"ce4bgn92rcd13ifvqbvg","pricing_plan_id":"cebpf4jnsgd1na2vs0mg"},{"bike_id":"7186baf8-09fb-4b3b-8622-6228849199dc","system_id":"levelo_inurba_marseille","lat":43.309076,"lon":5.368465,"is_reserved":false,"is_disabled":false,"rental_uris":{"android":"levelo://app?vid=7186baf8-09fb-4b3b-8622-6228849199dc","ios":"levelo://app?vid=7186baf8-09fb-4b3b-8622-6228849199dc"},"vehicle_type_id":"4","last_reported":1714813706,"current_range_meters":30000,"station_id":"ce4bgn92rcd13ifvqbvg","pricing_plan_id":"cebpf4jnsgd1na2vs0mg"},{"bike_id":"77f6855d-a725-498b-8aac-280eedeb0b7b","system_id":"levelo_inurba_marseille","lat":43.309076,"lon":5.368465,"is_reserved":false,"is_disabled":false,"rental_uris":{"android":"levelo://app?vid=77f6855d-a725-498b-8aac-280eedeb0b7b","ios":"levelo://app?vid=77f6855d-a725-498b-8aac-280eedeb0b7b"},"vehicle_type_id":"4","last_reported":1714813706,"current_range_meters":24400,"station_id":"ce4bgn92rcd13ifvqbvg","pricing_plan_id":"cebpf4jnsgd1na2vs0mg"},{"bike_id":"2d8599af-dfce-4c90-bc1e-62878e1eb485","system_id":"levelo_inurba_marseille","lat":43.309076,"lon":5.368465,"is_reserved":false,"is_disabled":false,"rental_uris":{"android":"levelo://app?vid=2d8599af-dfce-4c90-bc1e-62878e1eb485","ios":"levelo://app?vid=2d8599af-dfce-4c90-bc1e-62878e1eb485"},"vehicle_type_id":"4","last_reported":1714813706,"current_range_meters":15600,"station_id":"ce4bgn92rcd13ifvqbvg","pricing_plan_id":"cebpf4jnsgd1na2vs0mg"},{"bike_id":"533eb9bc-392d-40a1-839a-639c27c465a6","system_id":"levelo_inurba_marseille","lat":43.309076,"lon":5.368465,"is_reserved":false,"is_disabled":false,"rental_uris":{"android":"levelo://app?vid=533eb9bc-392d-40a1-839a-639c27c465a6","ios":"levelo://app?vid=533eb9bc-392d-40a1-839a-639c27c465a6"},"vehicle_type_id":"4","last_reported":1714813706,"current_range_meters":27600,"station_id":"ce4bgn92rcd13ifvqbvg","pricing_plan_id":"cebpf4jnsgd1na2vs0mg"},{"bike_id":"f12e5e51-a326-4fcf-af63-1948a3a2f059","system_id":"levelo_inurba_marseille","lat":43.309076,"lon":5.368465,"is_reserved":false,"is_disabled":false,"rental_uris":{"android":"levelo://app?vid=f12e5e51-a326-4fcf-af63-1948a3a2f059","ios":"levelo://app?vid=f12e5e51-a326-4fcf-af63-1948a3a2f059"},"vehicle_type_id":"4","last_reported":1714813706,"current_range_meters":8000,"station_id":"ce4bgn92rcd13ifvqbvg","pricing_plan_id":"cebpf4jnsgd1na2vs0mg"},{"bike_id":"5bc0874c-9df1-4fc3-899e-878fc70335af","system_id":"levelo_inurba_marseille","lat":43.309076,"lon":5.368465,"is_reserved":false,"is_disabled":false,"rental_uris":{"android":"levelo://app?vid=5bc0874c-9df1-4fc3-899e-878fc70335af","ios":"levelo://app?vid=5bc0874c-9df1-4fc3-899e-878fc70335af"},"vehicle_type_id":"4","last_reported":1714813706,"current_range_meters":0,"station_id":"ce4bgn92rcd13ifvqbvg","pricing_plan_id":"cebpf4jnsgd1na2vs0mg"},{"bike_id":"fc61b7f6-e85f-49fb-8dea-0a44896d52e9","system_id":"levelo_inurba_marseille","lat":43.309076,"lon":5.368465,"is_reserved":false,"is_disabled":false,"rental_uris":{"android":"levelo://app?vid=fc61b7f6-e85f-49fb-8dea-0a44896d52e9","ios":"levelo://app?vid=fc61b7f6-e85f-49fb-8dea-0a44896d52e9"},"vehicle_type_id":"4","last_reported":1714813706,"current_range_meters":21600,"station_id":"ce4bgn92rcd13ifvqbvg","pricing_plan_id":"cebpf4jnsgd1na2vs0mg"},{"bike_id":"ee411583-f14e-4573-801e-36142a510fa6","system_id":"levelo_inurba_marseille","lat":43.309076,"lon":5.368465,"is_reserved":false,"is_disabled":false,"rental_uris":{"android":"levelo://app?vid=ee411583-f14e-4573-801e-36142a510fa6","ios":"levelo://app?vid=ee411583-f14e-4573-801e-36142a510fa6"},"vehicle_type_id":"4","last_reported":1714813706,"current_range_meters":16000,"station_id":"ce4bgn92rcd13ifvqbvg","pricing_plan_id":"cebpf4jnsgd1na2vs0mg"},{"bike_id":"98b393e4-5aa2-4283-89f0-b0f61303cfbb","system_id":"levelo_inurba_marseille","lat":43.309076,"lon":5.368465,"is_reserved":false,"is_disabled":false,"rental_uris":{"android":"levelo://app?vid=98b393e4-5aa2-4283-89f0-b0f61303cfbb","ios":"levelo://app?vid=98b393e4-5aa2-4283-89f0-b0f61303cfbb"},"vehicle_type_id":"4","last_reported":1714813706,"current_range_meters":31200,"station_id":"ce4bgn92rcd13ifvqbvg","pricing_plan_id":"cebpf4jnsgd1na2vs0mg"},{"bike_id":"ef0c74d2-2d88-4dc8-9663-ed41e14699fa","system_id":"levelo_inurba_marseille","lat":43.308905,"lon":5.366737,"is_reserved":false,"is_disabled":false,"rental_uris":{"android":"levelo://app?vid=ef0c74d2-2d88-4dc8-9663-ed41e14699fa","ios":"levelo://app?vid=ef0c74d2-2d88-4dc8-9663-ed41e14699fa"},"vehicle_type_id":"4","last_reported":1714813706,"current_range_meters":20800,"station_id":"","pricing_plan_id":"cebpf4jnsgd1na2vs0mg"},{"bike_id":"b8973567-991b-43e5-b622-4b887c38a733","system_id":"levelo_inurba_marseille","lat":43.314811,"lon":5.373103,"is_reserved":false,"is_disabled":false,"rental_uris":{"android":"levelo://app?vid=b8973567-991b-43e5-b622-4b887c38a733","ios":"levelo://app?vid=b8973567-991b-43e5-b622-4b887c38a733"},"vehicle_type_id":"4","last_reported":1714813706,"current_range_meters":6000,"station_id":"ce4bgt12rcd13ifvqcd0","pricing_plan_id":"cebpf4jnsgd1na2vs0mg"},{"bike_id":"a57f64ea-928d-47b6-85db-2d0cf509db0b","system_id":"levelo_inurba_marseille","lat":43.309039,"lon":5.371797,"is_reserved":false,"is_disabled":false,"rental_uris":{"android":"levelo://app?vid=a57f64ea-928d-47b6-85db-2d0cf509db0b","ios":"levelo://app?vid=a57f64ea-928d-47b6-85db-2d0cf509db0b"},"vehicle_type_id":"4","last_reported":1714813706,"current_range_meters":20000,"station_id":"ce4bguh2rcd13ifvqckg","pricing_plan_id":"cebpf4jnsgd1na2vs0mg"},{"bike_id":"7259cc6b-a84b-403d-862f-cb6d3b316ac6","system_id":"levelo_inurba_marseille","lat":43.30537,"lon":5.367345,"is_reserved":false,"is_disabled":false,"rental_uris":{"android":"levelo://app?vid=7259cc6b-a84b-403d-862f-cb6d3b316ac6","ios":"levelo://app?vid=7259cc6b-a84b-403d-862f-cb6d3b316ac6"},"vehicle_type_id":"4","last_reported":1714813706,"current_range_meters":30400,"station_id":"ce4bgrp2rcd13ifvqc9g","pricing_plan_id":"cebpf4jnsgd1na2vs0mg"},{"bike_id":"20ebfe17-5e6b-45a5-8b4c-16294505b590","system_id":"levelo_inurba_marseille","lat":43.30537,"lon":5.367345,"is_reserved":false,"is_disabled":false,"rental_uris":{"android":"levelo://app?vid=20ebfe17-5e6b-45a5-8b4c-16294505b590","ios":"levelo://app?vid=20ebfe17-5e6b-45a5-8b4c-16294505b590"},"vehicle_type_id":"4","last_reported":1714813706,"current_range_meters":20400,"station_id":"ce4bgrp2rcd13ifvqc9g","pricing_plan_id":"cebpf4jnsgd1na2vs0mg"},{"bike_id":"07897691-ef16-4588-a403-6a26a99b99ff","system_id":"levelo_inurba_marseille","lat":43.305712,"lon":5.365641,"is_reserved":false,"is_disabled":false,"rental_uris":{"android":"levelo://app?vid=07897691-ef16-4588-a403-6a26a99b99ff","ios":"levelo://app?vid=07897691-ef16-4588-a403-6a26a99b99ff"},"vehicle_type_id":"4","last_reported":1714813706,"current_range_meters":28400,"station_id":"ce4bgs12rcd13ifvqcag","pricing_plan_id":"cebpf4jnsgd1na2vs0mg"},{"bike_id":"1ef27e25-d777-4d79-b481-bf9e9edeb07e","system_id":"levelo_inurba_marseille","lat":43.30537,"lon":5.367345,"is_reserved":false,"is_disabled":false,"rental_uris":{"android":"levelo://app?vid=1ef27e25-d777-4d79-b481-bf9e9edeb07e","ios":"levelo://app?vid=1ef27e25-d777-4d79-b481-bf9e9edeb07e"},"vehicle_type_id":"4","last_reported":1714813706,"current_range_meters":6000,"station_id":"ce4bgrp2rcd13ifvqc9g","pricing_plan_id":"cebpf4jnsgd1na2vs0mg"},{"bike_id":"046a389e-c6c7-42eb-9753-28f9cc3001f2","system_id":"levelo_inurba_marseille","lat":43.305712,"lon":5.365641,"is_reserved":false,"is_disabled":false,"rental_uris":{"android":"levelo://app?vid=046a389e-c6c7-42eb-9753-28f9cc3001f2","ios":"levelo://app?vid=046a389e-c6c7-42eb-9753-28f9cc3001f2"},"vehicle_type_id":"4","last_reported":1714813706,"current_range_meters":31600,"station_id":"ce4bgs12rcd13ifvqcag","pricing_plan_id":"cebpf4jnsgd1na2vs0mg"},{"bike_id":"2897b500-1c74-46f9-ba98-8f7ab0661d6c","system_id":"levelo_inurba_marseille","lat":43.305712,"lon":5.365641,"is_reserved":false,"is_disabled":false,"rental_uris":{"android":"levelo://app?vid=2897b500-1c74-46f9-ba98-8f7ab0661d6c","ios":"levelo://app?vid=2897b500-1c74-46f9-ba98-8f7ab0661d6c"},"vehicle_type_id":"4","last_reported":1714813706,"current_range_meters":30000,"station_id":"ce4bgs12rcd13ifvqcag","pricing_plan_id":"cebpf4jnsgd1na2vs0mg"},{"bike_id":"6ab0b958-af1d-4e92-a532-44d4882c3137","system_id":"levelo_inurba_marseille","lat":43.305712,"lon":5.365641,"is_reserved":false,"is_disabled":false,"rental_uris":{"android":"levelo://app?vid=6ab0b958-af1d-4e92-a532-44d4882c3137","ios":"levelo://app?vid=6ab0b958-af1d-4e92-a532-44d4882c3137"},"vehicle_type_id":"4","last_reported":1714813706,"current_range_meters":24800,"station_id":"ce4bgs12rcd13ifvqcag","pricing_plan_id":"cebpf4jnsgd1na2vs0mg"},{"bike_id":"c428638e-e5e5-403b-9338-b1b6cd8f35b8","system_id":"levelo_inurba_marseille","lat":43.305368,"lon":5.367343,"is_reserved":false,"is_disabled":false,"rental_uris":{"android":"levelo://app?vid=c428638e-e5e5-403b-9338-b1b6cd8f35b8","ios":"levelo://app?vid=c428638e-e5e5-403b-9338-b1b6cd8f35b8"},"vehicle_type_id":"4","last_reported":1714813706,"current_range_meters":28800,"station_id":"ce4bgrp2rcd13ifvqc9g","pricing_plan_id":"cebpf4jnsgd1na2vs0mg"},{"bike_id":"7149e450-0463-47f5-aa45-82fd51ce8521","system_id":"levelo_inurba_marseille","lat":43.305714,"lon":5.365633,"is_reserved":false,"is_disabled":false,"rental_uris":{"android":"levelo://app?vid=7149e450-0463-47f5-aa45-82fd51ce8521","ios":"levelo://app?vid=7149e450-0463-47f5-aa45-82fd51ce8521"},"vehicle_type_id":"4","last_reported":1714813706,"current_range_meters":8000,"station_id":"ce4bgs12rcd13ifvqcag","pricing_plan_id":"cebpf4jnsgd1na2vs0mg"},{"bike_id":"9e6320bf-0c89-42b1-91ee-29bda4d13fdb","system_id":"levelo_inurba_marseille","lat":43.305706,"lon":5.365654,"is_reserved":false,"is_disabled":false,"rental_uris":{"android":"levelo://app?vid=9e6320bf-0c89-42b1-91ee-29bda4d13fdb","ios":"levelo://app?vid=9e6320bf-0c89-42b1-91ee-29bda4d13fdb"},"vehicle_type_id":"4","last_reported":1714813706,"current_range_meters":22000,"station_id":"ce4bgs12rcd13ifvqcag","pricing_plan_id":"cebpf4jnsgd1na2vs0mg"},{"bike_id":"6d48ccd4-2fdd-48e8-8f34-9932a3cea4eb","system_id":"levelo_inurba_marseille","lat":43.305714,"lon":5.365633,"is_reserved":false,"is_disabled":false,"rental_uris":{"android":"levelo://app?vid=6d48ccd4-2fdd-48e8-8f34-9932a3cea4eb","ios":"levelo://app?vid=6d48ccd4-2fdd-48e8-8f34-9932a3cea4eb"},"vehicle_type_id":"4","last_reported":1714813706,"current_range_meters":30000,"station_id":"ce4bgs12rcd13ifvqcag","pricing_plan_id":"cebpf4jnsgd1na2vs0mg"},{"bike_id":"8b1a5869-91af-40a8-bd48-dd74f6acc1e8","system_id":"levelo_inurba_marseille","lat":43.30537,"lon":5.367345,"is_reserved":false,"is_disabled":false,"rental_uris":{"android":"levelo://app?vid=8b1a5869-91af-40a8-bd48-dd74f6acc1e8","ios":"levelo://app?vid=8b1a5869-91af-40a8-bd48-dd74f6acc1e8"},"vehicle_type_id":"4","last_reported":1714813706,"current_range_meters":30000,"station_id":"ce4bgrp2rcd13ifvqc9g","pricing_plan_id":"cebpf4jnsgd1na2vs0mg"},{"bike_id":"ffed7ed8-fbcf-4aa4-8711-2ba4c4fd1153","system_id":"levelo_inurba_marseille","lat":43.305368,"lon":5.367343,"is_reserved":false,"is_disabled":false,"rental_uris":{"android":"levelo://app?vid=ffed7ed8-fbcf-4aa4-8711-2ba4c4fd1153","ios":"levelo://app?vid=ffed7ed8-fbcf-4aa4-8711-2ba4c4fd1153"},"vehicle_type_id":"4","last_reported":1714813706,"current_range_meters":31600,"station_id":"ce4bgrp2rcd13ifvqc9g","pricing_plan_id":"cebpf4jnsgd1na2vs0mg"},{"bike_id":"a89bb877-199f-4880-befc-b98e20c7616e","system_id":"levelo_inurba_marseille","lat":43.305714,"lon":5.365633,"is_reserved":false,"is_disabled":false,"rental_uris":{"android":"levelo://app?vid=a89bb877-199f-4880-befc-b98e20c7616e","ios":"levelo://app?vid=a89bb877-199f-4880-befc-b98e20c7616e"},"vehicle_type_id":"4","last_reported":1714813706,"current_range_meters":27200,"station_id":"ce4bgs12rcd13ifvqcag","pricing_plan_id":"cebpf4jnsgd1na2vs0mg"},{"bike_id":"c096f30c-25c7-4bbe-952f-193a232967c7","system_id":"levelo_inurba_marseille","lat":43.305714,"lon":5.365633,"is_reserved":false,"is_disabled":false,"rental_uris":{"android":"levelo://app?vid=c096f30c-25c7-4bbe-952f-193a232967c7","ios":"levelo://app?vid=c096f30c-25c7-4bbe-952f-193a232967c7"},"vehicle_type_id":"4","last_reported":1714813706,"current_range_meters":25200,"station_id":"ce4bgs12rcd13ifvqcag","pricing_plan_id":"cebpf4jnsgd1na2vs0mg"},{"bike_id":"28ee70e9-cf88-4f16-b7a1-d973aa854558","system_id":"levelo_inurba_marseille","lat":43.305369,"lon":5.365521,"is_reserved":false,"is_disabled":false,"rental_uris":{"android":"levelo://app?vid=28ee70e9-cf88-4f16-b7a1-d973aa854558","ios":"levelo://app?vid=28ee70e9-cf88-4f16-b7a1-d973aa854558"},"vehicle_type_id":"4","last_reported":1714813706,"current_range_meters":24400,"station_id":"ce4bgs12rcd13ifvqcag","pricing_plan_id":"cebpf4jnsgd1na2vs0mg"},{"bike_id":"cfd5bd8e-991a-44e7-95cb-b895fe4f611f","system_id":"levelo_inurba_marseille","lat":43.305368,"lon":5.367343,"is_reserved":false,"is_disabled":false,"rental_uris":{"android":"levelo://app?vid=cfd5bd8e-991a-44e7-95cb-b895fe4f611f","ios":"levelo://app?vid=cfd5bd8e-991a-44e7-95cb-b895fe4f611f"},"vehicle_type_id":"4","last_reported":1714813706,"current_range_meters":26000,"station_id":"ce4bgrp2rcd13ifvqc9g","pricing_plan_id":"cebpf4jnsgd1na2vs0mg"},{"bike_id":"43003932-c525-47a5-83f4-bc2e09faf6e5","system_id":"levelo_inurba_marseille","lat":43.305361,"lon":5.365338,"is_reserved":false,"is_disabled":false,"rental_uris":{"android":"levelo://app?vid=43003932-c525-47a5-83f4-bc2e09faf6e5","ios":"levelo://app?vid=43003932-c525-47a5-83f4-bc2e09faf6e5"},"vehicle_type_id":"4","last_reported":1714813706,"current_range_meters":25600,"station_id":"ce4bgs12rcd13ifvqcag","pricing_plan_id":"cebpf4jnsgd1na2vs0mg"},{"bike_id":"ff5bcd22-2050-4222-84c8-a8b5fee34de7","system_id":"levelo_inurba_marseille","lat":43.305714,"lon":5.365633,"is_reserved":false,"is_disabled":false,"rental_uris":{"android":"levelo://app?vid=ff5bcd22-2050-4222-84c8-a8b5fee34de7","ios":"levelo://app?vid=ff5bcd22-2050-4222-84c8-a8b5fee34de7"},"vehicle_type_id":"4","last_reported":1714813706,"current_range_meters":27200,"station_id":"ce4bgs12rcd13ifvqcag","pricing_plan_id":"cebpf4jnsgd1na2vs0mg"},{"bike_id":"948c85af-eaf5-469b-a74d-26e10a57c135","system_id":"levelo_inurba_marseille","lat":43.30535,"lon":5.36532,"is_reserved":false,"is_disabled":false,"rental_uris":{"android":"levelo://app?vid=948c85af-eaf5-469b-a74d-26e10a57c135","ios":"levelo://app?vid=948c85af-eaf5-469b-a74d-26e10a57c135"},"vehicle_type_id":"4","last_reported":1714813706,"current_range_meters":13600,"station_id":"ce4bgs12rcd13ifvqcag","pricing_plan_id":"cebpf4jnsgd1na2vs0mg"},{"bike_id":"7e9793fe-1c18-4c92-8a41-980b9bfd1e12","system_id":"levelo_inurba_marseille","lat":43.305324,"lon":5.365516,"is_reserved":false,"is_disabled":false,"rental_uris":{"android":"levelo://app?vid=7e9793fe-1c18-4c92-8a41-980b9bfd1e12","ios":"levelo://app?vid=7e9793fe-1c18-4c92-8a41-980b9bfd1e12"},"vehicle_type_id":"4","last_reported":1714813706,"current_range_meters":18800,"station_id":"ce4bgs12rcd13ifvqcag","pricing_plan_id":"cebpf4jnsgd1na2vs0mg"},{"bike_id":"148f5d0f-53ce-4303-8587-9dfbfbe31c2b","system_id":"levelo_inurba_marseille","lat":43.305318,"lon":5.365568,"is_reserved":false,"is_disabled":false,"rental_uris":{"android":"levelo://app?vid=148f5d0f-53ce-4303-8587-9dfbfbe31c2b","ios":"levelo://app?vid=148f5d0f-53ce-4303-8587-9dfbfbe31c2b"},"vehicle_type_id":"4","last_reported":1714813706,"current_range_meters":18800,"station_id":"ce4bgs12rcd13ifvqcag","pricing_plan_id":"cebpf4jnsgd1na2vs0mg"},{"bike_id":"9d75d328-ccce-404e-ab4e-bd766d43f520","system_id":"levelo_inurba_marseille","lat":43.305286,"lon":5.365294,"is_reserved":false,"is_disabled":false,"rental_uris":{"android":"levelo://app?vid=9d75d328-ccce-404e-ab4e-bd766d43f520","ios":"levelo://app?vid=9d75d328-ccce-404e-ab4e-bd766d43f520"},"vehicle_type_id":"4","last_reported":1714813706,"current_range_meters":10000,"station_id":"ce4bgs12rcd13ifvqcag","pricing_plan_id":"cebpf4jnsgd1na2vs0mg"},{"bike_id":"a3f98d7f-519a-4e7a-8c23-519227895519","system_id":"levelo_inurba_marseille","lat":43.305989,"lon":5.37225,"is_reserved":false,"is_disabled":false,"rental_uris":{"android":"levelo://app?vid=a3f98d7f-519a-4e7a-8c23-519227895519","ios":"levelo://app?vid=a3f98d7f-519a-4e7a-8c23-519227895519"},"vehicle_type_id":"4","last_reported":1714813706,"current_range_meters":26400,"station_id":"ce4bgqh2rcd13ifvqc4g","pricing_plan_id":"cebpf4jnsgd1na2vs0mg"},{"bike_id":"a89702c4-f7b1-4a22-9488-7e92337af37c","system_id":"levelo_inurba_marseille","lat":43.307945,"lon":5.376487,"is_reserved":false,"is_disabled":false,"rental_uris":{"android":"levelo://app?vid=a89702c4-f7b1-4a22-9488-7e92337af37c","ios":"levelo://app?vid=a89702c4-f7b1-4a22-9488-7e92337af37c"},"vehicle_type_id":"4","last_reported":1714813706,"current_range_meters":31600,"station_id":"ce4bgv92rcd13ifvqcq0","pricing_plan_id":"cebpf4jnsgd1na2vs0mg"},{"bike_id":"c60ea721-624e-497c-b024-62b1ad2c0b94","system_id":"levelo_inurba_marseille","lat":43.307945,"lon":5.376487,"is_reserved":false,"is_disabled":false,"rental_uris":{"android":"levelo://app?vid=c60ea721-624e-497c-b024-62b1ad2c0b94","ios":"levelo://app?vid=c60ea721-624e-497c-b024-62b1ad2c0b94"},"vehicle_type_id":"4","last_reported":1714813706,"current_range_meters":28000,"station_id":"ce4bgv92rcd13ifvqcq0","pricing_plan_id":"cebpf4jnsgd1na2vs0mg"},{"bike_id":"bbcf636b-d9ed-4b86-800e-ef53cbdd330e","system_id":"levelo_inurba_marseille","lat":43.307945,"lon":5.376487,"is_reserved":false,"is_disabled":false,"rental_uris":{"android":"levelo://app?vid=bbcf636b-d9ed-4b86-800e-ef53cbdd330e","ios":"levelo://app?vid=bbcf636b-d9ed-4b86-800e-ef53cbdd330e"},"vehicle_type_id":"4","last_reported":1714813706,"current_range_meters":27600,"station_id":"ce4bgv92rcd13ifvqcq0","pricing_plan_id":"cebpf4jnsgd1na2vs0mg"},{"bike_id":"48c88d6f-3479-4564-9a4f-7b77d5f27236","system_id":"levelo_inurba_marseille","lat":43.307945,"lon":5.376487,"is_reserved":false,"is_disabled":false,"rental_uris":{"android":"levelo://app?vid=48c88d6f-3479-4564-9a4f-7b77d5f27236","ios":"levelo://app?vid=48c88d6f-3479-4564-9a4f-7b77d5f27236"},"vehicle_type_id":"4","last_reported":1714813706,"current_range_meters":30000,"station_id":"ce4bgv92rcd13ifvqcq0","pricing_plan_id":"cebpf4jnsgd1na2vs0mg"},{"bike_id":"d2ec5daa-c888-4dc8-bfa6-6ad0c273acf7","system_id":"levelo_inurba_marseille","lat":43.307945,"lon":5.376487,"is_reserved":false,"is_disabled":false,"rental_uris":{"android":"levelo://app?vid=d2ec5daa-c888-4dc8-bfa6-6ad0c273acf7","ios":"levelo://app?vid=d2ec5daa-c888-4dc8-bfa6-6ad0c273acf7"},"vehicle_type_id":"4","last_reported":1714813706,"current_range_meters":22400,"station_id":"ce4bgv92rcd13ifvqcq0","pricing_plan_id":"cebpf4jnsgd1na2vs0mg"},{"bike_id":"ec7ef21d-8b66-48cf-941c-3f2bbc57ad54","system_id":"levelo_inurba_marseille","lat":43.307945,"lon":5.376487,"is_reserved":false,"is_disabled":false,"rental_uris":{"android":"levelo://app?vid=ec7ef21d-8b66-48cf-941c-3f2bbc57ad54","ios":"levelo://app?vid=ec7ef21d-8b66-48cf-941c-3f2bbc57ad54"},"vehicle_type_id":"4","last_reported":1714813706,"current_range_meters":28000,"station_id":"ce4bgv92rcd13ifvqcq0","pricing_plan_id":"cebpf4jnsgd1na2vs0mg"},{"bike_id":"8541d9ac-6888-43a2-91a9-5d73c668a8e8","system_id":"levelo_inurba_marseille","lat":43.307945,"lon":5.376487,"is_reserved":false,"is_disabled":false,"rental_uris":{"android":"levelo://app?vid=8541d9ac-6888-43a2-91a9-5d73c668a8e8","ios":"levelo://app?vid=8541d9ac-6888-43a2-91a9-5d73c668a8e8"},"vehicle_type_id":"4","last_reported":1714813706,"current_range_meters":20000,"station_id":"ce4bgv92rcd13ifvqcq0","pricing_plan_id":"cebpf4jnsgd1na2vs0mg"},{"bike_id":"31db974c-c28c-454c-ab80-0933c1dd6ed3","system_id":"levelo_inurba_marseille","lat":43.307945,"lon":5.376487,"is_reserved":false,"is_disabled":false,"rental_uris":{"android":"levelo://app?vid=31db974c-c28c-454c-ab80-0933c1dd6ed3","ios":"levelo://app?vid=31db974c-c28c-454c-ab80-0933c1dd6ed3"},"vehicle_type_id":"4","last_reported":1714813706,"current_range_meters":30000,"station_id":"ce4bgv92rcd13ifvqcq0","pricing_plan_id":"cebpf4jnsgd1na2vs0mg"},{"bike_id":"86baad8d-ed04-458b-a936-4483d9eb95e2","system_id":"levelo_inurba_marseille","lat":43.307945,"lon":5.376487,"is_reserved":false,"is_disabled":false,"rental_uris":{"android":"levelo://app?vid=86baad8d-ed04-458b-a936-4483d9eb95e2","ios":"levelo://app?vid=86baad8d-ed04-458b-a936-4483d9eb95e2"},"vehicle_type_id":"4","last_reported":1714813706,"current_range_meters":15600,"station_id":"ce4bgv92rcd13ifvqcq0","pricing_plan_id":"cebpf4jnsgd1na2vs0mg"},{"bike_id":"79941350-30c4-4ec5-9dd2-151c4381308c","system_id":"levelo_inurba_marseille","lat":43.317075,"lon":5.377367,"is_reserved":false,"is_disabled":false,"rental_uris":{"android":"levelo://app?vid=79941350-30c4-4ec5-9dd2-151c4381308c","ios":"levelo://app?vid=79941350-30c4-4ec5-9dd2-151c4381308c"},"vehicle_type_id":"4","last_reported":1714813706,"current_range_meters":27600,"station_id":"ce4bgth2rcd13ifvqch0","pricing_plan_id":"cebpf4jnsgd1na2vs0mg"},{"bike_id":"c43d6d98-27d6-46a6-ad6f-5b7ca9f08b92","system_id":"levelo_inurba_marseille","lat":43.317075,"lon":5.377367,"is_reserved":false,"is_disabled":false,"rental_uris":{"android":"levelo://app?vid=c43d6d98-27d6-46a6-ad6f-5b7ca9f08b92","ios":"levelo://app?vid=c43d6d98-27d6-46a6-ad6f-5b7ca9f08b92"},"vehicle_type_id":"4","last_reported":1714813706,"current_range_meters":22000,"station_id":"ce4bgth2rcd13ifvqch0","pricing_plan_id":"cebpf4jnsgd1na2vs0mg"},{"bike_id":"f360ddf7-2b2f-4a94-9fb7-5d3856a40809","system_id":"levelo_inurba_marseille","lat":43.317075,"lon":5.377367,"is_reserved":false,"is_disabled":false,"rental_uris":{"android":"levelo://app?vid=f360ddf7-2b2f-4a94-9fb7-5d3856a40809","ios":"levelo://app?vid=f360ddf7-2b2f-4a94-9fb7-5d3856a40809"},"vehicle_type_id":"4","last_reported":1714813706,"current_range_meters":18400,"station_id":"ce4bgth2rcd13ifvqch0","pricing_plan_id":"cebpf4jnsgd1na2vs0mg"},{"bike_id":"99d66f7b-2ebe-4936-92b5-2748601520c9","system_id":"levelo_inurba_marseille","lat":43.317075,"lon":5.377367,"is_reserved":false,"is_disabled":false,"rental_uris":{"android":"levelo://app?vid=99d66f7b-2ebe-4936-92b5-2748601520c9","ios":"levelo://app?vid=99d66f7b-2ebe-4936-92b5-2748601520c9"},"vehicle_type_id":"4","last_reported":1714813706,"current_range_meters":32000,"station_id":"ce4bgth2rcd13ifvqch0","pricing_plan_id":"cebpf4jnsgd1na2vs0mg"},{"bike_id":"147735a4-2e2c-4a6b-9c5a-21eb219cc018","system_id":"levelo_inurba_marseille","lat":43.317075,"lon":5.377367,"is_reserved":false,"is_disabled":false,"rental_uris":{"android":"levelo://app?vid=147735a4-2e2c-4a6b-9c5a-21eb219cc018","ios":"levelo://app?vid=147735a4-2e2c-4a6b-9c5a-21eb219cc018"},"vehicle_type_id":"4","last_reported":1714813706,"current_range_meters":24800,"station_id":"ce4bgth2rcd13ifvqch0","pricing_plan_id":"cebpf4jnsgd1na2vs0mg"},{"bike_id":"d26193fd-5032-4b50-a1bc-b40e902346de","system_id":"levelo_inurba_marseille","lat":43.317075,"lon":5.377367,"is_reserved":false,"is_disabled":false,"rental_uris":{"android":"levelo://app?vid=d26193fd-5032-4b50-a1bc-b40e902346de","ios":"levelo://app?vid=d26193fd-5032-4b50-a1bc-b40e902346de"},"vehicle_type_id":"4","last_reported":1714813706,"current_range_meters":30800,"station_id":"ce4bgth2rcd13ifvqch0","pricing_plan_id":"cebpf4jnsgd1na2vs0mg"},{"bike_id":"9f75e496-236b-4501-93c9-18ca058e14b9","system_id":"levelo_inurba_marseille","lat":43.317075,"lon":5.377367,"is_reserved":false,"is_disabled":false,"rental_uris":{"android":"levelo://app?vid=9f75e496-236b-4501-93c9-18ca058e14b9","ios":"levelo://app?vid=9f75e496-236b-4501-93c9-18ca058e14b9"},"vehicle_type_id":"4","last_reported":1714813706,"current_range_meters":31600,"station_id":"ce4bgth2rcd13ifvqch0","pricing_plan_id":"cebpf4jnsgd1na2vs0mg"},{"bike_id":"3acf13b8-fc53-4899-8d9f-3b7820e50391","system_id":"levelo_inurba_marseille","lat":43.317075,"lon":5.377367,"is_reserved":false,"is_disabled":false,"rental_uris":{"android":"levelo://app?vid=3acf13b8-fc53-4899-8d9f-3b7820e50391","ios":"levelo://app?vid=3acf13b8-fc53-4899-8d9f-3b7820e50391"},"vehicle_type_id":"4","last_reported":1714813706,"current_range_meters":18800,"station_id":"ce4bgth2rcd13ifvqch0","pricing_plan_id":"cebpf4jnsgd1na2vs0mg"},{"bike_id":"f33074f0-f971-448c-aab9-950e2f3b9074","system_id":"levelo_inurba_marseille","lat":43.31712,"lon":5.37766,"is_reserved":false,"is_disabled":false,"rental_uris":{"android":"levelo://app?vid=f33074f0-f971-448c-aab9-950e2f3b9074","ios":"levelo://app?vid=f33074f0-f971-448c-aab9-950e2f3b9074"},"vehicle_type_id":"4","last_reported":1714813706,"current_range_meters":23600,"station_id":"ce4bgth2rcd13ifvqch0","pricing_plan_id":"cebpf4jnsgd1na2vs0mg"},{"bike_id":"c170d119-e2ba-4a8b-a7fb-3898ed8a582c","system_id":"levelo_inurba_marseille","lat":43.315289,"lon":5.380349,"is_reserved":false,"is_disabled":false,"rental_uris":{"android":"levelo://app?vid=c170d119-e2ba-4a8b-a7fb-3898ed8a582c","ios":"levelo://app?vid=c170d119-e2ba-4a8b-a7fb-3898ed8a582c"},"vehicle_type_id":"4","last_reported":1714813706,"current_range_meters":23200,"station_id":"ce4bhsp2rcd13ifvqi50","pricing_plan_id":"cebpf4jnsgd1na2vs0mg"},{"bike_id":"6080db49-4740-498b-ac8f-6bff221a118f","system_id":"levelo_inurba_marseille","lat":43.315289,"lon":5.380349,"is_reserved":false,"is_disabled":false,"rental_uris":{"android":"levelo://app?vid=6080db49-4740-498b-ac8f-6bff221a118f","ios":"levelo://app?vid=6080db49-4740-498b-ac8f-6bff221a118f"},"vehicle_type_id":"4","last_reported":1714813706,"current_range_meters":13600,"station_id":"ce4bhsp2rcd13ifvqi50","pricing_plan_id":"cebpf4jnsgd1na2vs0mg"},{"bike_id":"fae5be81-9b6d-4f89-804e-06a586026b33","system_id":"levelo_inurba_marseille","lat":43.315289,"lon":5.380349,"is_reserved":false,"is_disabled":false,"rental_uris":{"android":"levelo://app?vid=fae5be81-9b6d-4f89-804e-06a586026b33","ios":"levelo://app?vid=fae5be81-9b6d-4f89-804e-06a586026b33"},"vehicle_type_id":"4","last_reported":1714813706,"current_range_meters":3600,"station_id":"ce4bhsp2rcd13ifvqi50","pricing_plan_id":"cebpf4jnsgd1na2vs0mg"},{"bike_id":"bc56b1fc-fdaa-405b-8ab7-76d1696e5de8","system_id":"levelo_inurba_marseille","lat":43.315289,"lon":5.380349,"is_reserved":false,"is_disabled":false,"rental_uris":{"android":"levelo://app?vid=bc56b1fc-fdaa-405b-8ab7-76d1696e5de8","ios":"levelo://app?vid=bc56b1fc-fdaa-405b-8ab7-76d1696e5de8"},"vehicle_type_id":"4","last_reported":1714813706,"current_range_meters":31200,"station_id":"ce4bhsp2rcd13ifvqi50","pricing_plan_id":"cebpf4jnsgd1na2vs0mg"},{"bike_id":"7d16cb21-4808-44be-bd41-bfe04ef4b72a","system_id":"levelo_inurba_marseille","lat":43.315293,"lon":5.380349,"is_reserved":false,"is_disabled":false,"rental_uris":{"android":"levelo://app?vid=7d16cb21-4808-44be-bd41-bfe04ef4b72a","ios":"levelo://app?vid=7d16cb21-4808-44be-bd41-bfe04ef4b72a"},"vehicle_type_id":"4","last_reported":1714813706,"current_range_meters":5200,"station_id":"ce4bhsp2rcd13ifvqi50","pricing_plan_id":"cebpf4jnsgd1na2vs0mg"},{"bike_id":"742a3dac-15c5-4959-903e-fe0445dce0f4","system_id":"levelo_inurba_marseille","lat":43.30265,"lon":5.36556,"is_reserved":false,"is_disabled":false,"rental_uris":{"android":"levelo://app?vid=742a3dac-15c5-4959-903e-fe0445dce0f4","ios":"levelo://app?vid=742a3dac-15c5-4959-903e-fe0445dce0f4"},"vehicle_type_id":"4","last_reported":1714813706,"current_range_meters":10400,"station_id":"","pricing_plan_id":"cebpf4jnsgd1na2vs0mg"},{"bike_id":"4a12fe43-233d-4932-8f8c-98005063d081","system_id":"levelo_inurba_marseille","lat":43.302569,"lon":5.365735,"is_reserved":false,"is_disabled":false,"rental_uris":{"android":"levelo://app?vid=4a12fe43-233d-4932-8f8c-98005063d081","ios":"levelo://app?vid=4a12fe43-233d-4932-8f8c-98005063d081"},"vehicle_type_id":"4","last_reported":1714813706,"current_range_meters":6400,"station_id":"","pricing_plan_id":"cebpf4jnsgd1na2vs0mg"},{"bike_id":"f19930e0-ef16-498e-bc67-fbe67a31f368","system_id":"levelo_inurba_marseille","lat":43.302861,"lon":5.372694,"is_reserved":false,"is_disabled":false,"rental_uris":{"android":"levelo://app?vid=f19930e0-ef16-498e-bc67-fbe67a31f368","ios":"levelo://app?vid=f19930e0-ef16-498e-bc67-fbe67a31f368"},"vehicle_type_id":"4","last_reported":1714813706,"current_range_meters":11600,"station_id":"","pricing_plan_id":"cebpf4jnsgd1na2vs0mg"},{"bike_id":"f102f2ba-1a85-481b-ac25-9f62401121a6","system_id":"levelo_inurba_marseille","lat":43.308012,"lon":5.381511,"is_reserved":false,"is_disabled":false,"rental_uris":{"android":"levelo://app?vid=f102f2ba-1a85-481b-ac25-9f62401121a6","ios":"levelo://app?vid=f102f2ba-1a85-481b-ac25-9f62401121a6"},"vehicle_type_id":"4","last_reported":1714813706,"current_range_meters":24800,"station_id":"ce4bgt12rcd13ifvqce0","pricing_plan_id":"cebpf4jnsgd1na2vs0mg"},{"bike_id":"ba2dc9a6-9e0d-42a6-9d46-d883cd806734","system_id":"levelo_inurba_marseille","lat":43.308012,"lon":5.381511,"is_reserved":false,"is_disabled":false,"rental_uris":{"android":"levelo://app?vid=ba2dc9a6-9e0d-42a6-9d46-d883cd806734","ios":"levelo://app?vid=ba2dc9a6-9e0d-42a6-9d46-d883cd806734"},"vehicle_type_id":"4","last_reported":1714813706,"current_range_meters":22000,"station_id":"ce4bgt12rcd13ifvqce0","pricing_plan_id":"cebpf4jnsgd1na2vs0mg"},{"bike_id":"bbf5118e-d69b-4dac-aaf6-f2cf0f3a692f","system_id":"levelo_inurba_marseille","lat":43.308012,"lon":5.381511,"is_reserved":false,"is_disabled":false,"rental_uris":{"android":"levelo://app?vid=bbf5118e-d69b-4dac-aaf6-f2cf0f3a692f","ios":"levelo://app?vid=bbf5118e-d69b-4dac-aaf6-f2cf0f3a692f"},"vehicle_type_id":"4","last_reported":1714813706,"current_range_meters":12000,"station_id":"ce4bgt12rcd13ifvqce0","pricing_plan_id":"cebpf4jnsgd1na2vs0mg"},{"bike_id":"8ac0e3bc-dbf2-4a1b-8c86-42e5c9e3d578","system_id":"levelo_inurba_marseille","lat":43.304606,"lon":5.379026,"is_reserved":false,"is_disabled":false,"rental_uris":{"android":"levelo://app?vid=8ac0e3bc-dbf2-4a1b-8c86-42e5c9e3d578","ios":"levelo://app?vid=8ac0e3bc-dbf2-4a1b-8c86-42e5c9e3d578"},"vehicle_type_id":"4","last_reported":1714813706,"current_range_meters":0,"station_id":"ce4bgup2rcd13ifvqcn0","pricing_plan_id":"cebpf4jnsgd1na2vs0mg"},{"bike_id":"0bec32d0-bc58-49a5-bf1d-7b7ab1b13a75","system_id":"levelo_inurba_marseille","lat":43.304606,"lon":5.379026,"is_reserved":false,"is_disabled":false,"rental_uris":{"android":"levelo://app?vid=0bec32d0-bc58-49a5-bf1d-7b7ab1b13a75","ios":"levelo://app?vid=0bec32d0-bc58-49a5-bf1d-7b7ab1b13a75"},"vehicle_type_id":"4","last_reported":1714813706,"current_range_meters":24800,"station_id":"ce4bgup2rcd13ifvqcn0","pricing_plan_id":"cebpf4jnsgd1na2vs0mg"},{"bike_id":"98b389a8-8fb9-4811-9f57-44ace3ff32f2","system_id":"levelo_inurba_marseille","lat":43.304606,"lon":5.379026,"is_reserved":false,"is_disabled":false,"rental_uris":{"android":"levelo://app?vid=98b389a8-8fb9-4811-9f57-44ace3ff32f2","ios":"levelo://app?vid=98b389a8-8fb9-4811-9f57-44ace3ff32f2"},"vehicle_type_id":"4","last_reported":1714813706,"current_range_meters":30400,"station_id":"ce4bgup2rcd13ifvqcn0","pricing_plan_id":"cebpf4jnsgd1na2vs0mg"},{"bike_id":"9181ccfe-4eea-4a94-b9da-4d310c4befb9","system_id":"levelo_inurba_marseille","lat":43.304606,"lon":5.379026,"is_reserved":false,"is_disabled":false,"rental_uris":{"android":"levelo://app?vid=9181ccfe-4eea-4a94-b9da-4d310c4befb9","ios":"levelo://app?vid=9181ccfe-4eea-4a94-b9da-4d310c4befb9"},"vehicle_type_id":"4","last_reported":1714813706,"current_range_meters":8000,"station_id":"ce4bgup2rcd13ifvqcn0","pricing_plan_id":"cebpf4jnsgd1na2vs0mg"},{"bike_id":"d791b811-5a3a-41b8-972d-7a863e9e74be","system_id":"levelo_inurba_marseille","lat":43.304606,"lon":5.379026,"is_reserved":false,"is_disabled":false,"rental_uris":{"android":"levelo://app?vid=d791b811-5a3a-41b8-972d-7a863e9e74be","ios":"levelo://app?vid=d791b811-5a3a-41b8-972d-7a863e9e74be"},"vehicle_type_id":"4","last_reported":1714813706,"current_range_meters":6800,"station_id":"ce4bgup2rcd13ifvqcn0","pricing_plan_id":"cebpf4jnsgd1na2vs0mg"},{"bike_id":"60cb037e-7fc9-4d90-92ae-72e4c1b63d32","system_id":"levelo_inurba_marseille","lat":43.304606,"lon":5.379026,"is_reserved":false,"is_disabled":false,"rental_uris":{"android":"levelo://app?vid=60cb037e-7fc9-4d90-92ae-72e4c1b63d32","ios":"levelo://app?vid=60cb037e-7fc9-4d90-92ae-72e4c1b63d32"},"vehicle_type_id":"4","last_reported":1714813706,"current_range_meters":30800,"station_id":"ce4bgup2rcd13ifvqcn0","pricing_plan_id":"cebpf4jnsgd1na2vs0mg"},{"bike_id":"680d017f-d85a-4100-b94c-c5e81c041334","system_id":"levelo_inurba_marseille","lat":43.304606,"lon":5.379026,"is_reserved":false,"is_disabled":false,"rental_uris":{"android":"levelo://app?vid=680d017f-d85a-4100-b94c-c5e81c041334","ios":"levelo://app?vid=680d017f-d85a-4100-b94c-c5e81c041334"},"vehicle_type_id":"4","last_reported":1714813706,"current_range_meters":24800,"station_id":"ce4bgup2rcd13ifvqcn0","pricing_plan_id":"cebpf4jnsgd1na2vs0mg"},{"bike_id":"642dca7b-357e-4e62-abff-09fb3b6f4672","system_id":"levelo_inurba_marseille","lat":43.304606,"lon":5.379026,"is_reserved":false,"is_disabled":false,"rental_uris":{"android":"levelo://app?vid=642dca7b-357e-4e62-abff-09fb3b6f4672","ios":"levelo://app?vid=642dca7b-357e-4e62-abff-09fb3b6f4672"},"vehicle_type_id":"4","last_reported":1714813706,"current_range_meters":30000,"station_id":"ce4bgup2rcd13ifvqcn0","pricing_plan_id":"cebpf4jnsgd1na2vs0mg"},{"bike_id":"86144bcf-a594-41ca-95fd-af73d1207898","system_id":"levelo_inurba_marseille","lat":43.304606,"lon":5.379026,"is_reserved":false,"is_disabled":false,"rental_uris":{"android":"levelo://app?vid=86144bcf-a594-41ca-95fd-af73d1207898","ios":"levelo://app?vid=86144bcf-a594-41ca-95fd-af73d1207898"},"vehicle_type_id":"4","last_reported":1714813706,"current_range_meters":22400,"station_id":"ce4bgup2rcd13ifvqcn0","pricing_plan_id":"cebpf4jnsgd1na2vs0mg"},{"bike_id":"d92a9c18-b9fa-4fff-8662-b0d52ecffe27","system_id":"levelo_inurba_marseille","lat":43.304606,"lon":5.379026,"is_reserved":false,"is_disabled":false,"rental_uris":{"android":"levelo://app?vid=d92a9c18-b9fa-4fff-8662-b0d52ecffe27","ios":"levelo://app?vid=d92a9c18-b9fa-4fff-8662-b0d52ecffe27"},"vehicle_type_id":"4","last_reported":1714813706,"current_range_meters":20400,"station_id":"ce4bgup2rcd13ifvqcn0","pricing_plan_id":"cebpf4jnsgd1na2vs0mg"},{"bike_id":"6bb6405a-6ded-4b76-a1e1-2f412735e396","system_id":"levelo_inurba_marseille","lat":43.304606,"lon":5.379026,"is_reserved":false,"is_disabled":false,"rental_uris":{"android":"levelo://app?vid=6bb6405a-6ded-4b76-a1e1-2f412735e396","ios":"levelo://app?vid=6bb6405a-6ded-4b76-a1e1-2f412735e396"},"vehicle_type_id":"4","last_reported":1714813706,"current_range_meters":18400,"station_id":"ce4bgup2rcd13ifvqcn0","pricing_plan_id":"cebpf4jnsgd1na2vs0mg"},{"bike_id":"4eddfd04-af13-46bd-9b85-12560f669bce","system_id":"levelo_inurba_marseille","lat":43.304606,"lon":5.379026,"is_reserved":false,"is_disabled":false,"rental_uris":{"android":"levelo://app?vid=4eddfd04-af13-46bd-9b85-12560f669bce","ios":"levelo://app?vid=4eddfd04-af13-46bd-9b85-12560f669bce"},"vehicle_type_id":"4","last_reported":1714813706,"current_range_meters":24400,"station_id":"ce4bgup2rcd13ifvqcn0","pricing_plan_id":"cebpf4jnsgd1na2vs0mg"},{"bike_id":"02d442b2-73bb-43df-9ba5-71470f94ad05","system_id":"levelo_inurba_marseille","lat":43.304606,"lon":5.379026,"is_reserved":false,"is_disabled":false,"rental_uris":{"android":"levelo://app?vid=02d442b2-73bb-43df-9ba5-71470f94ad05","ios":"levelo://app?vid=02d442b2-73bb-43df-9ba5-71470f94ad05"},"vehicle_type_id":"4","last_reported":1714813706,"current_range_meters":22800,"station_id":"ce4bgup2rcd13ifvqcn0","pricing_plan_id":"cebpf4jnsgd1na2vs0mg"},{"bike_id":"2602c796-20b0-48aa-8047-02d044ebb093","system_id":"levelo_inurba_marseille","lat":43.304606,"lon":5.379026,"is_reserved":false,"is_disabled":false,"rental_uris":{"android":"levelo://app?vid=2602c796-20b0-48aa-8047-02d044ebb093","ios":"levelo://app?vid=2602c796-20b0-48aa-8047-02d044ebb093"},"vehicle_type_id":"4","last_reported":1714813706,"current_range_meters":24000,"station_id":"ce4bgup2rcd13ifvqcn0","pricing_plan_id":"cebpf4jnsgd1na2vs0mg"},{"bike_id":"6952533d-fc0b-444e-b8ae-e8d47b24104c","system_id":"levelo_inurba_marseille","lat":43.304606,"lon":5.379026,"is_reserved":false,"is_disabled":false,"rental_uris":{"android":"levelo://app?vid=6952533d-fc0b-444e-b8ae-e8d47b24104c","ios":"levelo://app?vid=6952533d-fc0b-444e-b8ae-e8d47b24104c"},"vehicle_type_id":"4","last_reported":1714813706,"current_range_meters":22000,"station_id":"ce4bgup2rcd13ifvqcn0","pricing_plan_id":"cebpf4jnsgd1na2vs0mg"},{"bike_id":"1ae38b5e-e983-4bcc-a711-06eaf00280d9","system_id":"levelo_inurba_marseille","lat":43.304606,"lon":5.379026,"is_reserved":false,"is_disabled":false,"rental_uris":{"android":"levelo://app?vid=1ae38b5e-e983-4bcc-a711-06eaf00280d9","ios":"levelo://app?vid=1ae38b5e-e983-4bcc-a711-06eaf00280d9"},"vehicle_type_id":"4","last_reported":1714813706,"current_range_meters":31200,"station_id":"ce4bgup2rcd13ifvqcn0","pricing_plan_id":"cebpf4jnsgd1na2vs0mg"},{"bike_id":"c1411a33-362f-4cc5-85fd-78a6ec95195d","system_id":"levelo_inurba_marseille","lat":43.304606,"lon":5.379026,"is_reserved":false,"is_disabled":false,"rental_uris":{"android":"levelo://app?vid=c1411a33-362f-4cc5-85fd-78a6ec95195d","ios":"levelo://app?vid=c1411a33-362f-4cc5-85fd-78a6ec95195d"},"vehicle_type_id":"4","last_reported":1714813706,"current_range_meters":16800,"station_id":"ce4bgup2rcd13ifvqcn0","pricing_plan_id":"cebpf4jnsgd1na2vs0mg"},{"bike_id":"ca07f513-6811-41a2-80e5-7863acbf52d8","system_id":"levelo_inurba_marseille","lat":43.304606,"lon":5.379026,"is_reserved":false,"is_disabled":false,"rental_uris":{"android":"levelo://app?vid=ca07f513-6811-41a2-80e5-7863acbf52d8","ios":"levelo://app?vid=ca07f513-6811-41a2-80e5-7863acbf52d8"},"vehicle_type_id":"4","last_reported":1714813706,"current_range_meters":16000,"station_id":"ce4bgup2rcd13ifvqcn0","pricing_plan_id":"cebpf4jnsgd1na2vs0mg"},{"bike_id":"b00a08f7-d27a-4c24-9420-136ed6cb31a6","system_id":"levelo_inurba_marseille","lat":43.304606,"lon":5.379026,"is_reserved":false,"is_disabled":false,"rental_uris":{"android":"levelo://app?vid=b00a08f7-d27a-4c24-9420-136ed6cb31a6","ios":"levelo://app?vid=b00a08f7-d27a-4c24-9420-136ed6cb31a6"},"vehicle_type_id":"4","last_reported":1714813706,"current_range_meters":5200,"station_id":"ce4bgup2rcd13ifvqcn0","pricing_plan_id":"cebpf4jnsgd1na2vs0mg"},{"bike_id":"aec6250e-ec27-441f-a6b6-47f3770c1059","system_id":"levelo_inurba_marseille","lat":43.304606,"lon":5.379026,"is_reserved":false,"is_disabled":false,"rental_uris":{"android":"levelo://app?vid=aec6250e-ec27-441f-a6b6-47f3770c1059","ios":"levelo://app?vid=aec6250e-ec27-441f-a6b6-47f3770c1059"},"vehicle_type_id":"4","last_reported":1714813706,"current_range_meters":29600,"station_id":"ce4bgup2rcd13ifvqcn0","pricing_plan_id":"cebpf4jnsgd1na2vs0mg"},{"bike_id":"9f4a9d3a-8160-46dd-a4b1-018f30ccf03e","system_id":"levelo_inurba_marseille","lat":43.304606,"lon":5.379026,"is_reserved":false,"is_disabled":false,"rental_uris":{"android":"levelo://app?vid=9f4a9d3a-8160-46dd-a4b1-018f30ccf03e","ios":"levelo://app?vid=9f4a9d3a-8160-46dd-a4b1-018f30ccf03e"},"vehicle_type_id":"4","last_reported":1714813706,"current_range_meters":19600,"station_id":"ce4bgup2rcd13ifvqcn0","pricing_plan_id":"cebpf4jnsgd1na2vs0mg"},{"bike_id":"029d0ec2-cf2c-4278-a64a-4072c621a547","system_id":"levelo_inurba_marseille","lat":43.304606,"lon":5.379026,"is_reserved":false,"is_disabled":false,"rental_uris":{"android":"levelo://app?vid=029d0ec2-cf2c-4278-a64a-4072c621a547","ios":"levelo://app?vid=029d0ec2-cf2c-4278-a64a-4072c621a547"},"vehicle_type_id":"4","last_reported":1714813706,"current_range_meters":25200,"station_id":"ce4bgup2rcd13ifvqcn0","pricing_plan_id":"cebpf4jnsgd1na2vs0mg"},{"bike_id":"8032cfec-98d8-498f-837d-8c57db38d494","system_id":"levelo_inurba_marseille","lat":43.304606,"lon":5.379026,"is_reserved":false,"is_disabled":false,"rental_uris":{"android":"levelo://app?vid=8032cfec-98d8-498f-837d-8c57db38d494","ios":"levelo://app?vid=8032cfec-98d8-498f-837d-8c57db38d494"},"vehicle_type_id":"4","last_reported":1714813706,"current_range_meters":32000,"station_id":"ce4bgup2rcd13ifvqcn0","pricing_plan_id":"cebpf4jnsgd1na2vs0mg"},{"bike_id":"3a92125c-b467-4ca4-8f86-b7a0be0349d5","system_id":"levelo_inurba_marseille","lat":43.304606,"lon":5.379026,"is_reserved":false,"is_disabled":false,"rental_uris":{"android":"levelo://app?vid=3a92125c-b467-4ca4-8f86-b7a0be0349d5","ios":"levelo://app?vid=3a92125c-b467-4ca4-8f86-b7a0be0349d5"},"vehicle_type_id":"4","last_reported":1714813706,"current_range_meters":17600,"station_id":"ce4bgup2rcd13ifvqcn0","pricing_plan_id":"cebpf4jnsgd1na2vs0mg"},{"bike_id":"310fd886-56e1-4df5-bb08-4edbb3e43088","system_id":"levelo_inurba_marseille","lat":43.304606,"lon":5.379026,"is_reserved":false,"is_disabled":false,"rental_uris":{"android":"levelo://app?vid=310fd886-56e1-4df5-bb08-4edbb3e43088","ios":"levelo://app?vid=310fd886-56e1-4df5-bb08-4edbb3e43088"},"vehicle_type_id":"4","last_reported":1714813706,"current_range_meters":24800,"station_id":"ce4bgup2rcd13ifvqcn0","pricing_plan_id":"cebpf4jnsgd1na2vs0mg"},{"bike_id":"d1a79ac9-8f71-4dec-b025-be24e842b195","system_id":"levelo_inurba_marseille","lat":43.30466,"lon":5.37913,"is_reserved":false,"is_disabled":false,"rental_uris":{"android":"levelo://app?vid=d1a79ac9-8f71-4dec-b025-be24e842b195","ios":"levelo://app?vid=d1a79ac9-8f71-4dec-b025-be24e842b195"},"vehicle_type_id":"4","last_reported":1714813706,"current_range_meters":11200,"station_id":"ce4bgup2rcd13ifvqcn0","pricing_plan_id":"cebpf4jnsgd1na2vs0mg"},{"bike_id":"7c0fa229-2151-4b1b-b82f-60d00afecce6","system_id":"levelo_inurba_marseille","lat":43.304606,"lon":5.379026,"is_reserved":false,"is_disabled":false,"rental_uris":{"android":"levelo://app?vid=7c0fa229-2151-4b1b-b82f-60d00afecce6","ios":"levelo://app?vid=7c0fa229-2151-4b1b-b82f-60d00afecce6"},"vehicle_type_id":"4","last_reported":1714813706,"current_range_meters":32000,"station_id":"ce4bgup2rcd13ifvqcn0","pricing_plan_id":"cebpf4jnsgd1na2vs0mg"},{"bike_id":"b67cd154-6f41-4008-bc6e-26afcaedccba","system_id":"levelo_inurba_marseille","lat":43.304606,"lon":5.379026,"is_reserved":false,"is_disabled":false,"rental_uris":{"android":"levelo://app?vid=b67cd154-6f41-4008-bc6e-26afcaedccba","ios":"levelo://app?vid=b67cd154-6f41-4008-bc6e-26afcaedccba"},"vehicle_type_id":"4","last_reported":1714813706,"current_range_meters":26400,"station_id":"ce4bgup2rcd13ifvqcn0","pricing_plan_id":"cebpf4jnsgd1na2vs0mg"},{"bike_id":"1056c00f-3858-4425-ae1d-2a6eb2237b94","system_id":"levelo_inurba_marseille","lat":43.324771,"lon":5.36557,"is_reserved":false,"is_disabled":false,"rental_uris":{"android":"levelo://app?vid=1056c00f-3858-4425-ae1d-2a6eb2237b94","ios":"levelo://app?vid=1056c00f-3858-4425-ae1d-2a6eb2237b94"},"vehicle_type_id":"4","last_reported":1714813706,"current_range_meters":30000,"station_id":"ce4bhs12rcd13ifvqhvg","pricing_plan_id":"cebpf4jnsgd1na2vs0mg"},{"bike_id":"390768df-0775-4983-b544-e01b1dabd226","system_id":"levelo_inurba_marseille","lat":43.304606,"lon":5.379026,"is_reserved":false,"is_disabled":false,"rental_uris":{"android":"levelo://app?vid=390768df-0775-4983-b544-e01b1dabd226","ios":"levelo://app?vid=390768df-0775-4983-b544-e01b1dabd226"},"vehicle_type_id":"4","last_reported":1714813706,"current_range_meters":16400,"station_id":"ce4bgup2rcd13ifvqcn0","pricing_plan_id":"cebpf4jnsgd1na2vs0mg"},{"bike_id":"2a150113-a543-43ee-967f-1ee3eeea8a82","system_id":"levelo_inurba_marseille","lat":43.304606,"lon":5.379026,"is_reserved":false,"is_disabled":false,"rental_uris":{"android":"levelo://app?vid=2a150113-a543-43ee-967f-1ee3eeea8a82","ios":"levelo://app?vid=2a150113-a543-43ee-967f-1ee3eeea8a82"},"vehicle_type_id":"4","last_reported":1714813706,"current_range_meters":14400,"station_id":"ce4bgup2rcd13ifvqcn0","pricing_plan_id":"cebpf4jnsgd1na2vs0mg"},{"bike_id":"f240037b-865c-406a-97c4-724023d11f97","system_id":"levelo_inurba_marseille","lat":43.324771,"lon":5.36557,"is_reserved":false,"is_disabled":false,"rental_uris":{"android":"levelo://app?vid=f240037b-865c-406a-97c4-724023d11f97","ios":"levelo://app?vid=f240037b-865c-406a-97c4-724023d11f97"},"vehicle_type_id":"4","last_reported":1714813706,"current_range_meters":10800,"station_id":"ce4bhs12rcd13ifvqhvg","pricing_plan_id":"cebpf4jnsgd1na2vs0mg"},{"bike_id":"db80ccfc-bf9e-43d1-a634-92857c44b32a","system_id":"levelo_inurba_marseille","lat":43.324771,"lon":5.36557,"is_reserved":false,"is_disabled":false,"rental_uris":{"android":"levelo://app?vid=db80ccfc-bf9e-43d1-a634-92857c44b32a","ios":"levelo://app?vid=db80ccfc-bf9e-43d1-a634-92857c44b32a"},"vehicle_type_id":"4","last_reported":1714813706,"current_range_meters":27200,"station_id":"ce4bhs12rcd13ifvqhvg","pricing_plan_id":"cebpf4jnsgd1na2vs0mg"},{"bike_id":"ab433a0f-8d26-4cc0-8f78-ff251c1d3633","system_id":"levelo_inurba_marseille","lat":43.324771,"lon":5.36557,"is_reserved":false,"is_disabled":false,"rental_uris":{"android":"levelo://app?vid=ab433a0f-8d26-4cc0-8f78-ff251c1d3633","ios":"levelo://app?vid=ab433a0f-8d26-4cc0-8f78-ff251c1d3633"},"vehicle_type_id":"4","last_reported":1714813706,"current_range_meters":20000,"station_id":"ce4bhs12rcd13ifvqhvg","pricing_plan_id":"cebpf4jnsgd1na2vs0mg"},{"bike_id":"d48f6404-6785-424d-8dfd-382e63d4ef62","system_id":"levelo_inurba_marseille","lat":43.310804,"lon":5.38359,"is_reserved":false,"is_disabled":false,"rental_uris":{"android":"levelo://app?vid=d48f6404-6785-424d-8dfd-382e63d4ef62","ios":"levelo://app?vid=d48f6404-6785-424d-8dfd-382e63d4ef62"},"vehicle_type_id":"4","last_reported":1714813706,"current_range_meters":29200,"station_id":"ce4bgv92rcd13ifvqcr0","pricing_plan_id":"cebpf4jnsgd1na2vs0mg"},{"bike_id":"b0e3ce72-bb22-4932-8131-8f2132ad3be7","system_id":"levelo_inurba_marseille","lat":43.310804,"lon":5.38359,"is_reserved":false,"is_disabled":false,"rental_uris":{"android":"levelo://app?vid=b0e3ce72-bb22-4932-8131-8f2132ad3be7","ios":"levelo://app?vid=b0e3ce72-bb22-4932-8131-8f2132ad3be7"},"vehicle_type_id":"4","last_reported":1714813706,"current_range_meters":800,"station_id":"ce4bgv92rcd13ifvqcr0","pricing_plan_id":"cebpf4jnsgd1na2vs0mg"},{"bike_id":"b129b8c5-0e17-457b-9faa-76d7ce5fb52b","system_id":"levelo_inurba_marseille","lat":43.310804,"lon":5.38359,"is_reserved":false,"is_disabled":false,"rental_uris":{"android":"levelo://app?vid=b129b8c5-0e17-457b-9faa-76d7ce5fb52b","ios":"levelo://app?vid=b129b8c5-0e17-457b-9faa-76d7ce5fb52b"},"vehicle_type_id":"4","last_reported":1714813706,"current_range_meters":10800,"station_id":"ce4bgv92rcd13ifvqcr0","pricing_plan_id":"cebpf4jnsgd1na2vs0mg"},{"bike_id":"7797d3db-5739-4186-9afa-82e6c41fbaa1","system_id":"levelo_inurba_marseille","lat":43.310744,"lon":5.383604,"is_reserved":false,"is_disabled":false,"rental_uris":{"android":"levelo://app?vid=7797d3db-5739-4186-9afa-82e6c41fbaa1","ios":"levelo://app?vid=7797d3db-5739-4186-9afa-82e6c41fbaa1"},"vehicle_type_id":"4","last_reported":1714813706,"current_range_meters":22800,"station_id":"ce4bgv92rcd13ifvqcr0","pricing_plan_id":"cebpf4jnsgd1na2vs0mg"},{"bike_id":"e8abf879-fab1-433a-9910-13fd46a76e73","system_id":"levelo_inurba_marseille","lat":43.31069,"lon":5.38362,"is_reserved":false,"is_disabled":false,"rental_uris":{"android":"levelo://app?vid=e8abf879-fab1-433a-9910-13fd46a76e73","ios":"levelo://app?vid=e8abf879-fab1-433a-9910-13fd46a76e73"},"vehicle_type_id":"4","last_reported":1714813706,"current_range_meters":25200,"station_id":"ce4bgv92rcd13ifvqcr0","pricing_plan_id":"cebpf4jnsgd1na2vs0mg"},{"bike_id":"9f1022e6-824d-457e-927b-997b4ae70608","system_id":"levelo_inurba_marseille","lat":43.302784,"lon":5.377158,"is_reserved":false,"is_disabled":false,"rental_uris":{"android":"levelo://app?vid=9f1022e6-824d-457e-927b-997b4ae70608","ios":"levelo://app?vid=9f1022e6-824d-457e-927b-997b4ae70608"},"vehicle_type_id":"4","last_reported":1714813706,"current_range_meters":18000,"station_id":"ce4bguh2rcd13ifvqcj0","pricing_plan_id":"cebpf4jnsgd1na2vs0mg"},{"bike_id":"ab28f178-7e8d-430c-8dd6-c7a30df44e25","system_id":"levelo_inurba_marseille","lat":43.310804,"lon":5.38359,"is_reserved":false,"is_disabled":false,"rental_uris":{"android":"levelo://app?vid=ab28f178-7e8d-430c-8dd6-c7a30df44e25","ios":"levelo://app?vid=ab28f178-7e8d-430c-8dd6-c7a30df44e25"},"vehicle_type_id":"4","last_reported":1714813706,"current_range_meters":19200,"station_id":"ce4bgv92rcd13ifvqcr0","pricing_plan_id":"cebpf4jnsgd1na2vs0mg"},{"bike_id":"ef03f8a1-3084-44f5-8efb-04962435749b","system_id":"levelo_inurba_marseille","lat":43.310804,"lon":5.38359,"is_reserved":false,"is_disabled":false,"rental_uris":{"android":"levelo://app?vid=ef03f8a1-3084-44f5-8efb-04962435749b","ios":"levelo://app?vid=ef03f8a1-3084-44f5-8efb-04962435749b"},"vehicle_type_id":"4","last_reported":1714813706,"current_range_meters":26800,"station_id":"ce4bgv92rcd13ifvqcr0","pricing_plan_id":"cebpf4jnsgd1na2vs0mg"},{"bike_id":"bf8f5765-d920-4e3e-8dfd-40cb90a1523b","system_id":"levelo_inurba_marseille","lat":43.302784,"lon":5.377158,"is_reserved":false,"is_disabled":false,"rental_uris":{"android":"levelo://app?vid=bf8f5765-d920-4e3e-8dfd-40cb90a1523b","ios":"levelo://app?vid=bf8f5765-d920-4e3e-8dfd-40cb90a1523b"},"vehicle_type_id":"4","last_reported":1714813706,"current_range_meters":18000,"station_id":"ce4bguh2rcd13ifvqcj0","pricing_plan_id":"cebpf4jnsgd1na2vs0mg"},{"bike_id":"c69a8a04-6d3d-4259-b2e7-f9b30efa0160","system_id":"levelo_inurba_marseille","lat":43.302784,"lon":5.377158,"is_reserved":false,"is_disabled":false,"rental_uris":{"android":"levelo://app?vid=c69a8a04-6d3d-4259-b2e7-f9b30efa0160","ios":"levelo://app?vid=c69a8a04-6d3d-4259-b2e7-f9b30efa0160"},"vehicle_type_id":"4","last_reported":1714813706,"current_range_meters":30400,"station_id":"ce4bguh2rcd13ifvqcj0","pricing_plan_id":"cebpf4jnsgd1na2vs0mg"},{"bike_id":"450e06ff-1b00-4602-998d-7108fe1db74b","system_id":"levelo_inurba_marseille","lat":43.30143,"lon":5.37413,"is_reserved":false,"is_disabled":false,"rental_uris":{"android":"levelo://app?vid=450e06ff-1b00-4602-998d-7108fe1db74b","ios":"levelo://app?vid=450e06ff-1b00-4602-998d-7108fe1db74b"},"vehicle_type_id":"4","last_reported":1714813706,"current_range_meters":16400,"station_id":"ce4bgs92rcd13ifvqcc0","pricing_plan_id":"cebpf4jnsgd1na2vs0mg"},{"bike_id":"21d139ac-a676-4263-a013-3fb928edb0e1","system_id":"levelo_inurba_marseille","lat":43.302784,"lon":5.377158,"is_reserved":false,"is_disabled":false,"rental_uris":{"android":"levelo://app?vid=21d139ac-a676-4263-a013-3fb928edb0e1","ios":"levelo://app?vid=21d139ac-a676-4263-a013-3fb928edb0e1"},"vehicle_type_id":"4","last_reported":1714813706,"current_range_meters":16400,"station_id":"ce4bguh2rcd13ifvqcj0","pricing_plan_id":"cebpf4jnsgd1na2vs0mg"},{"bike_id":"616fffd4-c1a1-4157-82be-5ccc9189af46","system_id":"levelo_inurba_marseille","lat":43.30143,"lon":5.37413,"is_reserved":false,"is_disabled":false,"rental_uris":{"android":"levelo://app?vid=616fffd4-c1a1-4157-82be-5ccc9189af46","ios":"levelo://app?vid=616fffd4-c1a1-4157-82be-5ccc9189af46"},"vehicle_type_id":"4","last_reported":1714813706,"current_range_meters":8800,"station_id":"ce4bgs92rcd13ifvqcc0","pricing_plan_id":"cebpf4jnsgd1na2vs0mg"},{"bike_id":"c19423cd-ad9a-4502-98c1-822779c6dfba","system_id":"levelo_inurba_marseille","lat":43.30143,"lon":5.37413,"is_reserved":false,"is_disabled":false,"rental_uris":{"android":"levelo://app?vid=c19423cd-ad9a-4502-98c1-822779c6dfba","ios":"levelo://app?vid=c19423cd-ad9a-4502-98c1-822779c6dfba"},"vehicle_type_id":"4","last_reported":1714813706,"current_range_meters":22800,"station_id":"ce4bgs92rcd13ifvqcc0","pricing_plan_id":"cebpf4jnsgd1na2vs0mg"},{"bike_id":"b82119d3-a04b-42f3-958b-cca78ac5ef4c","system_id":"levelo_inurba_marseille","lat":43.30143,"lon":5.37413,"is_reserved":false,"is_disabled":false,"rental_uris":{"android":"levelo://app?vid=b82119d3-a04b-42f3-958b-cca78ac5ef4c","ios":"levelo://app?vid=b82119d3-a04b-42f3-958b-cca78ac5ef4c"},"vehicle_type_id":"4","last_reported":1714813706,"current_range_meters":3600,"station_id":"ce4bgs92rcd13ifvqcc0","pricing_plan_id":"cebpf4jnsgd1na2vs0mg"},{"bike_id":"0aee953b-5c34-4a94-8856-145a34376436","system_id":"levelo_inurba_marseille","lat":43.301429,"lon":5.37413,"is_reserved":false,"is_disabled":false,"rental_uris":{"android":"levelo://app?vid=0aee953b-5c34-4a94-8856-145a34376436","ios":"levelo://app?vid=0aee953b-5c34-4a94-8856-145a34376436"},"vehicle_type_id":"4","last_reported":1714813706,"current_range_meters":20000,"station_id":"ce4bgs92rcd13ifvqcc0","pricing_plan_id":"cebpf4jnsgd1na2vs0mg"},{"bike_id":"967f0bd5-8379-4e36-8388-fcb8fee31635","system_id":"levelo_inurba_marseille","lat":43.30143,"lon":5.37413,"is_reserved":false,"is_disabled":false,"rental_uris":{"android":"levelo://app?vid=967f0bd5-8379-4e36-8388-fcb8fee31635","ios":"levelo://app?vid=967f0bd5-8379-4e36-8388-fcb8fee31635"},"vehicle_type_id":"4","last_reported":1714813706,"current_range_meters":31600,"station_id":"ce4bgs92rcd13ifvqcc0","pricing_plan_id":"cebpf4jnsgd1na2vs0mg"},{"bike_id":"482fad09-94fd-4ffe-841d-adb54cefe538","system_id":"levelo_inurba_marseille","lat":43.302784,"lon":5.377158,"is_reserved":false,"is_disabled":false,"rental_uris":{"android":"levelo://app?vid=482fad09-94fd-4ffe-841d-adb54cefe538","ios":"levelo://app?vid=482fad09-94fd-4ffe-841d-adb54cefe538"},"vehicle_type_id":"4","last_reported":1714813706,"current_range_meters":13200,"station_id":"ce4bguh2rcd13ifvqcj0","pricing_plan_id":"cebpf4jnsgd1na2vs0mg"},{"bike_id":"f9c8779c-412e-4a77-b274-55ba4a215576","system_id":"levelo_inurba_marseille","lat":43.301429,"lon":5.37413,"is_reserved":false,"is_disabled":false,"rental_uris":{"android":"levelo://app?vid=f9c8779c-412e-4a77-b274-55ba4a215576","ios":"levelo://app?vid=f9c8779c-412e-4a77-b274-55ba4a215576"},"vehicle_type_id":"4","last_reported":1714813706,"current_range_meters":12000,"station_id":"ce4bgs92rcd13ifvqcc0","pricing_plan_id":"cebpf4jnsgd1na2vs0mg"},{"bike_id":"020005a5-982a-4dde-9e69-54296ffdcfdb","system_id":"levelo_inurba_marseille","lat":43.31997,"lon":5.38147,"is_reserved":false,"is_disabled":false,"rental_uris":{"android":"levelo://app?vid=020005a5-982a-4dde-9e69-54296ffdcfdb","ios":"levelo://app?vid=020005a5-982a-4dde-9e69-54296ffdcfdb"},"vehicle_type_id":"4","last_reported":1714813706,"current_range_meters":28400,"station_id":"","pricing_plan_id":"cebpf4jnsgd1na2vs0mg"},{"bike_id":"9a9f0b60-3362-43f9-b7d2-02c43d690845","system_id":"levelo_inurba_marseille","lat":43.319935,"lon":5.381699,"is_reserved":false,"is_disabled":false,"rental_uris":{"android":"levelo://app?vid=9a9f0b60-3362-43f9-b7d2-02c43d690845","ios":"levelo://app?vid=9a9f0b60-3362-43f9-b7d2-02c43d690845"},"vehicle_type_id":"4","last_reported":1714813706,"current_range_meters":5200,"station_id":"ce4bhr12rcd13ifvqhpg","pricing_plan_id":"cebpf4jnsgd1na2vs0mg"},{"bike_id":"771abfac-4ede-40b9-b478-52ebd38982b0","system_id":"levelo_inurba_marseille","lat":43.30116,"lon":5.375018,"is_reserved":false,"is_disabled":false,"rental_uris":{"android":"levelo://app?vid=771abfac-4ede-40b9-b478-52ebd38982b0","ios":"levelo://app?vid=771abfac-4ede-40b9-b478-52ebd38982b0"},"vehicle_type_id":"4","last_reported":1714813706,"current_range_meters":16800,"station_id":"","pricing_plan_id":"cebpf4jnsgd1na2vs0mg"},{"bike_id":"b90725be-3d0b-4e24-9778-a7274610f45f","system_id":"levelo_inurba_marseille","lat":43.313571,"lon":5.384829,"is_reserved":false,"is_disabled":false,"rental_uris":{"android":"levelo://app?vid=b90725be-3d0b-4e24-9778-a7274610f45f","ios":"levelo://app?vid=b90725be-3d0b-4e24-9778-a7274610f45f"},"vehicle_type_id":"4","last_reported":1714813706,"current_range_meters":21200,"station_id":"ce4bgt92rcd13ifvqcf0","pricing_plan_id":"cebpf4jnsgd1na2vs0mg"},{"bike_id":"b64c80e8-db9c-46f1-99e8-c159374db233","system_id":"levelo_inurba_marseille","lat":43.313571,"lon":5.384829,"is_reserved":false,"is_disabled":false,"rental_uris":{"android":"levelo://app?vid=b64c80e8-db9c-46f1-99e8-c159374db233","ios":"levelo://app?vid=b64c80e8-db9c-46f1-99e8-c159374db233"},"vehicle_type_id":"4","last_reported":1714813706,"current_range_meters":0,"station_id":"ce4bgt92rcd13ifvqcf0","pricing_plan_id":"cebpf4jnsgd1na2vs0mg"},{"bike_id":"935bfcde-1834-4399-b2b5-6dbd384cd875","system_id":"levelo_inurba_marseille","lat":43.299222,"lon":5.365554,"is_reserved":false,"is_disabled":false,"rental_uris":{"android":"levelo://app?vid=935bfcde-1834-4399-b2b5-6dbd384cd875","ios":"levelo://app?vid=935bfcde-1834-4399-b2b5-6dbd384cd875"},"vehicle_type_id":"4","last_reported":1714813706,"current_range_meters":19600,"station_id":"ce4bgm92rcd13ifvqbr0","pricing_plan_id":"cebpf4jnsgd1na2vs0mg"},{"bike_id":"fc7fa8f8-bb15-41fa-9fe1-0bae44ec7d38","system_id":"levelo_inurba_marseille","lat":43.299724,"lon":5.371829,"is_reserved":false,"is_disabled":false,"rental_uris":{"android":"levelo://app?vid=fc7fa8f8-bb15-41fa-9fe1-0bae44ec7d38","ios":"levelo://app?vid=fc7fa8f8-bb15-41fa-9fe1-0bae44ec7d38"},"vehicle_type_id":"4","last_reported":1714813706,"current_range_meters":25600,"station_id":"ce4bgr92rcd13ifvqc7g","pricing_plan_id":"cebpf4jnsgd1na2vs0mg"},{"bike_id":"90295f9e-4fdb-4f28-883f-a51e1d36cb44","system_id":"levelo_inurba_marseille","lat":43.299222,"lon":5.365554,"is_reserved":false,"is_disabled":false,"rental_uris":{"android":"levelo://app?vid=90295f9e-4fdb-4f28-883f-a51e1d36cb44","ios":"levelo://app?vid=90295f9e-4fdb-4f28-883f-a51e1d36cb44"},"vehicle_type_id":"4","last_reported":1714813706,"current_range_meters":12000,"station_id":"ce4bgm92rcd13ifvqbr0","pricing_plan_id":"cebpf4jnsgd1na2vs0mg"},{"bike_id":"35305fb0-8f04-4ad9-a34d-0a509297af49","system_id":"levelo_inurba_marseille","lat":43.298433,"lon":5.362774,"is_reserved":false,"is_disabled":false,"rental_uris":{"android":"levelo://app?vid=35305fb0-8f04-4ad9-a34d-0a509297af49","ios":"levelo://app?vid=35305fb0-8f04-4ad9-a34d-0a509297af49"},"vehicle_type_id":"4","last_reported":1714813706,"current_range_meters":8000,"station_id":"ce4bgpp2rcd13ifvqc3g","pricing_plan_id":"cebpf4jnsgd1na2vs0mg"},{"bike_id":"6b74ff89-a097-4d8b-8295-f6377be4152e","system_id":"levelo_inurba_marseille","lat":43.298433,"lon":5.362774,"is_reserved":false,"is_disabled":false,"rental_uris":{"android":"levelo://app?vid=6b74ff89-a097-4d8b-8295-f6377be4152e","ios":"levelo://app?vid=6b74ff89-a097-4d8b-8295-f6377be4152e"},"vehicle_type_id":"4","last_reported":1714813706,"current_range_meters":25600,"station_id":"ce4bgpp2rcd13ifvqc3g","pricing_plan_id":"cebpf4jnsgd1na2vs0mg"},{"bike_id":"88bec3f3-e343-4c65-86ba-e7ba8800d72b","system_id":"levelo_inurba_marseille","lat":43.305322,"lon":5.384143,"is_reserved":false,"is_disabled":false,"rental_uris":{"android":"levelo://app?vid=88bec3f3-e343-4c65-86ba-e7ba8800d72b","ios":"levelo://app?vid=88bec3f3-e343-4c65-86ba-e7ba8800d72b"},"vehicle_type_id":"4","last_reported":1714813706,"current_range_meters":0,"station_id":"ce4bgg92rcd13ifvqb30","pricing_plan_id":"cebpf4jnsgd1na2vs0mg"},{"bike_id":"586ec5f0-44c6-4c3e-8f59-cf8300085659","system_id":"levelo_inurba_marseille","lat":43.298433,"lon":5.362774,"is_reserved":false,"is_disabled":false,"rental_uris":{"android":"levelo://app?vid=586ec5f0-44c6-4c3e-8f59-cf8300085659","ios":"levelo://app?vid=586ec5f0-44c6-4c3e-8f59-cf8300085659"},"vehicle_type_id":"4","last_reported":1714813706,"current_range_meters":31600,"station_id":"ce4bgpp2rcd13ifvqc3g","pricing_plan_id":"cebpf4jnsgd1na2vs0mg"},{"bike_id":"36fb2477-0aa9-4c35-b4cc-4f39b1eca3a3","system_id":"levelo_inurba_marseille","lat":43.298433,"lon":5.362774,"is_reserved":false,"is_disabled":false,"rental_uris":{"android":"levelo://app?vid=36fb2477-0aa9-4c35-b4cc-4f39b1eca3a3","ios":"levelo://app?vid=36fb2477-0aa9-4c35-b4cc-4f39b1eca3a3"},"vehicle_type_id":"4","last_reported":1714813706,"current_range_meters":15200,"station_id":"ce4bgpp2rcd13ifvqc3g","pricing_plan_id":"cebpf4jnsgd1na2vs0mg"},{"bike_id":"0d346813-3bae-4ea4-908d-613cc503270c","system_id":"levelo_inurba_marseille","lat":43.305364,"lon":5.384119,"is_reserved":false,"is_disabled":false,"rental_uris":{"android":"levelo://app?vid=0d346813-3bae-4ea4-908d-613cc503270c","ios":"levelo://app?vid=0d346813-3bae-4ea4-908d-613cc503270c"},"vehicle_type_id":"4","last_reported":1714813706,"current_range_meters":30400,"station_id":"ce4bgg92rcd13ifvqb30","pricing_plan_id":"cebpf4jnsgd1na2vs0mg"},{"bike_id":"9525fe77-7041-43aa-9d4f-3e722c660ca6","system_id":"levelo_inurba_marseille","lat":43.30548,"lon":5.38432,"is_reserved":false,"is_disabled":false,"rental_uris":{"android":"levelo://app?vid=9525fe77-7041-43aa-9d4f-3e722c660ca6","ios":"levelo://app?vid=9525fe77-7041-43aa-9d4f-3e722c660ca6"},"vehicle_type_id":"4","last_reported":1714813706,"current_range_meters":0,"station_id":"ce4bgg92rcd13ifvqb30","pricing_plan_id":"cebpf4jnsgd1na2vs0mg"},{"bike_id":"91f5384e-1a80-4548-9f72-c64011f11373","system_id":"levelo_inurba_marseille","lat":43.305364,"lon":5.384119,"is_reserved":false,"is_disabled":false,"rental_uris":{"android":"levelo://app?vid=91f5384e-1a80-4548-9f72-c64011f11373","ios":"levelo://app?vid=91f5384e-1a80-4548-9f72-c64011f11373"},"vehicle_type_id":"4","last_reported":1714813706,"current_range_meters":20800,"station_id":"ce4bgg92rcd13ifvqb30","pricing_plan_id":"cebpf4jnsgd1na2vs0mg"},{"bike_id":"ff4194c6-e9e8-422a-9782-80f48264d9d9","system_id":"levelo_inurba_marseille","lat":43.298433,"lon":5.362774,"is_reserved":false,"is_disabled":false,"rental_uris":{"android":"levelo://app?vid=ff4194c6-e9e8-422a-9782-80f48264d9d9","ios":"levelo://app?vid=ff4194c6-e9e8-422a-9782-80f48264d9d9"},"vehicle_type_id":"4","last_reported":1714813706,"current_range_meters":25200,"station_id":"ce4bgpp2rcd13ifvqc3g","pricing_plan_id":"cebpf4jnsgd1na2vs0mg"},{"bike_id":"236649b1-cb13-4ba5-9b34-70e3144187fd","system_id":"levelo_inurba_marseille","lat":43.298433,"lon":5.362774,"is_reserved":false,"is_disabled":false,"rental_uris":{"android":"levelo://app?vid=236649b1-cb13-4ba5-9b34-70e3144187fd","ios":"levelo://app?vid=236649b1-cb13-4ba5-9b34-70e3144187fd"},"vehicle_type_id":"4","last_reported":1714813706,"current_range_meters":24000,"station_id":"ce4bgpp2rcd13ifvqc3g","pricing_plan_id":"cebpf4jnsgd1na2vs0mg"},{"bike_id":"5f6eac54-ab54-4f45-a0e7-92bd8029a645","system_id":"levelo_inurba_marseille","lat":43.298433,"lon":5.362774,"is_reserved":false,"is_disabled":false,"rental_uris":{"android":"levelo://app?vid=5f6eac54-ab54-4f45-a0e7-92bd8029a645","ios":"levelo://app?vid=5f6eac54-ab54-4f45-a0e7-92bd8029a645"},"vehicle_type_id":"4","last_reported":1714813706,"current_range_meters":16000,"station_id":"ce4bgpp2rcd13ifvqc3g","pricing_plan_id":"cebpf4jnsgd1na2vs0mg"},{"bike_id":"4ed6f04a-0b78-46d8-8439-04b29ba33820","system_id":"levelo_inurba_marseille","lat":43.305364,"lon":5.384119,"is_reserved":false,"is_disabled":false,"rental_uris":{"android":"levelo://app?vid=4ed6f04a-0b78-46d8-8439-04b29ba33820","ios":"levelo://app?vid=4ed6f04a-0b78-46d8-8439-04b29ba33820"},"vehicle_type_id":"4","last_reported":1714813706,"current_range_meters":8000,"station_id":"ce4bgg92rcd13ifvqb30","pricing_plan_id":"cebpf4jnsgd1na2vs0mg"},{"bike_id":"69c00394-7821-43a5-8962-eb8073071b9f","system_id":"levelo_inurba_marseille","lat":43.305364,"lon":5.384119,"is_reserved":false,"is_disabled":false,"rental_uris":{"android":"levelo://app?vid=69c00394-7821-43a5-8962-eb8073071b9f","ios":"levelo://app?vid=69c00394-7821-43a5-8962-eb8073071b9f"},"vehicle_type_id":"4","last_reported":1714813706,"current_range_meters":8400,"station_id":"ce4bgg92rcd13ifvqb30","pricing_plan_id":"cebpf4jnsgd1na2vs0mg"},{"bike_id":"f94a3147-27e4-475e-9991-1468d6ab4d7e","system_id":"levelo_inurba_marseille","lat":43.298433,"lon":5.362774,"is_reserved":false,"is_disabled":false,"rental_uris":{"android":"levelo://app?vid=f94a3147-27e4-475e-9991-1468d6ab4d7e","ios":"levelo://app?vid=f94a3147-27e4-475e-9991-1468d6ab4d7e"},"vehicle_type_id":"4","last_reported":1714813706,"current_range_meters":12800,"station_id":"ce4bgpp2rcd13ifvqc3g","pricing_plan_id":"cebpf4jnsgd1na2vs0mg"},{"bike_id":"991937c6-60ce-442f-9abf-60b8dd61be5c","system_id":"levelo_inurba_marseille","lat":43.305364,"lon":5.384119,"is_reserved":false,"is_disabled":false,"rental_uris":{"android":"levelo://app?vid=991937c6-60ce-442f-9abf-60b8dd61be5c","ios":"levelo://app?vid=991937c6-60ce-442f-9abf-60b8dd61be5c"},"vehicle_type_id":"4","last_reported":1714813706,"current_range_meters":9600,"station_id":"ce4bgg92rcd13ifvqb30","pricing_plan_id":"cebpf4jnsgd1na2vs0mg"},{"bike_id":"0f9a0660-2d43-4652-9bfb-5d26bb49df60","system_id":"levelo_inurba_marseille","lat":43.298433,"lon":5.362774,"is_reserved":false,"is_disabled":false,"rental_uris":{"android":"levelo://app?vid=0f9a0660-2d43-4652-9bfb-5d26bb49df60","ios":"levelo://app?vid=0f9a0660-2d43-4652-9bfb-5d26bb49df60"},"vehicle_type_id":"4","last_reported":1714813706,"current_range_meters":8000,"station_id":"ce4bgpp2rcd13ifvqc3g","pricing_plan_id":"cebpf4jnsgd1na2vs0mg"},{"bike_id":"a6560b70-942d-41fc-af53-77c518afe33a","system_id":"levelo_inurba_marseille","lat":43.298433,"lon":5.362774,"is_reserved":false,"is_disabled":false,"rental_uris":{"android":"levelo://app?vid=a6560b70-942d-41fc-af53-77c518afe33a","ios":"levelo://app?vid=a6560b70-942d-41fc-af53-77c518afe33a"},"vehicle_type_id":"4","last_reported":1714813706,"current_range_meters":14400,"station_id":"ce4bgpp2rcd13ifvqc3g","pricing_plan_id":"cebpf4jnsgd1na2vs0mg"},{"bike_id":"f534b1ad-09ae-4b5d-a5f7-2656ee753ba0","system_id":"levelo_inurba_marseille","lat":43.298433,"lon":5.362774,"is_reserved":false,"is_disabled":false,"rental_uris":{"android":"levelo://app?vid=f534b1ad-09ae-4b5d-a5f7-2656ee753ba0","ios":"levelo://app?vid=f534b1ad-09ae-4b5d-a5f7-2656ee753ba0"},"vehicle_type_id":"4","last_reported":1714813706,"current_range_meters":21600,"station_id":"ce4bgpp2rcd13ifvqc3g","pricing_plan_id":"cebpf4jnsgd1na2vs0mg"},{"bike_id":"eabee1ca-c911-4fab-ab50-4df05d1bc5f7","system_id":"levelo_inurba_marseille","lat":43.298433,"lon":5.362774,"is_reserved":false,"is_disabled":false,"rental_uris":{"android":"levelo://app?vid=eabee1ca-c911-4fab-ab50-4df05d1bc5f7","ios":"levelo://app?vid=eabee1ca-c911-4fab-ab50-4df05d1bc5f7"},"vehicle_type_id":"4","last_reported":1714813706,"current_range_meters":12800,"station_id":"ce4bgpp2rcd13ifvqc3g","pricing_plan_id":"cebpf4jnsgd1na2vs0mg"},{"bike_id":"660439f8-79d9-434f-a4a0-6fc55a522277","system_id":"levelo_inurba_marseille","lat":43.298433,"lon":5.362774,"is_reserved":false,"is_disabled":false,"rental_uris":{"android":"levelo://app?vid=660439f8-79d9-434f-a4a0-6fc55a522277","ios":"levelo://app?vid=660439f8-79d9-434f-a4a0-6fc55a522277"},"vehicle_type_id":"4","last_reported":1714813706,"current_range_meters":17600,"station_id":"ce4bgpp2rcd13ifvqc3g","pricing_plan_id":"cebpf4jnsgd1na2vs0mg"},{"bike_id":"79ca2c7f-db31-437d-99af-96c3d0a28aba","system_id":"levelo_inurba_marseille","lat":43.298433,"lon":5.362774,"is_reserved":false,"is_disabled":false,"rental_uris":{"android":"levelo://app?vid=79ca2c7f-db31-437d-99af-96c3d0a28aba","ios":"levelo://app?vid=79ca2c7f-db31-437d-99af-96c3d0a28aba"},"vehicle_type_id":"4","last_reported":1714813706,"current_range_meters":15600,"station_id":"ce4bgpp2rcd13ifvqc3g","pricing_plan_id":"cebpf4jnsgd1na2vs0mg"},{"bike_id":"a41a4441-6a57-4939-8c85-84b93f00f83b","system_id":"levelo_inurba_marseille","lat":43.298433,"lon":5.362774,"is_reserved":false,"is_disabled":false,"rental_uris":{"android":"levelo://app?vid=a41a4441-6a57-4939-8c85-84b93f00f83b","ios":"levelo://app?vid=a41a4441-6a57-4939-8c85-84b93f00f83b"},"vehicle_type_id":"4","last_reported":1714813706,"current_range_meters":26800,"station_id":"ce4bgpp2rcd13ifvqc3g","pricing_plan_id":"cebpf4jnsgd1na2vs0mg"},{"bike_id":"83042602-6bc0-4bad-ad68-fc20daa01e55","system_id":"levelo_inurba_marseille","lat":43.298433,"lon":5.362774,"is_reserved":false,"is_disabled":false,"rental_uris":{"android":"levelo://app?vid=83042602-6bc0-4bad-ad68-fc20daa01e55","ios":"levelo://app?vid=83042602-6bc0-4bad-ad68-fc20daa01e55"},"vehicle_type_id":"4","last_reported":1714813706,"current_range_meters":16800,"station_id":"ce4bgpp2rcd13ifvqc3g","pricing_plan_id":"cebpf4jnsgd1na2vs0mg"},{"bike_id":"265dedf9-3afc-43fa-8061-a48b168a21c8","system_id":"levelo_inurba_marseille","lat":43.305364,"lon":5.384119,"is_reserved":false,"is_disabled":false,"rental_uris":{"android":"levelo://app?vid=265dedf9-3afc-43fa-8061-a48b168a21c8","ios":"levelo://app?vid=265dedf9-3afc-43fa-8061-a48b168a21c8"},"vehicle_type_id":"4","last_reported":1714813706,"current_range_meters":26000,"station_id":"ce4bgg92rcd13ifvqb30","pricing_plan_id":"cebpf4jnsgd1na2vs0mg"},{"bike_id":"19ce1430-7e30-4273-a602-ad245b333fb4","system_id":"levelo_inurba_marseille","lat":43.311722,"lon":5.387247,"is_reserved":false,"is_disabled":false,"rental_uris":{"android":"levelo://app?vid=19ce1430-7e30-4273-a602-ad245b333fb4","ios":"levelo://app?vid=19ce1430-7e30-4273-a602-ad245b333fb4"},"vehicle_type_id":"4","last_reported":1714813706,"current_range_meters":4800,"station_id":"ce4bgv12rcd13ifvqcp0","pricing_plan_id":"cebpf4jnsgd1na2vs0mg"},{"bike_id":"828e3929-0826-4399-8561-a6c589fc3a36","system_id":"levelo_inurba_marseille","lat":43.297794,"lon":5.370888,"is_reserved":false,"is_disabled":false,"rental_uris":{"android":"levelo://app?vid=828e3929-0826-4399-8561-a6c589fc3a36","ios":"levelo://app?vid=828e3929-0826-4399-8561-a6c589fc3a36"},"vehicle_type_id":"4","last_reported":1714813706,"current_range_meters":16000,"station_id":"ce4bgop2rcd13ifvqc1g","pricing_plan_id":"cebpf4jnsgd1na2vs0mg"},{"bike_id":"aa3964d7-eca9-45f5-92d2-c5901eaa14d9","system_id":"levelo_inurba_marseille","lat":43.297794,"lon":5.370888,"is_reserved":false,"is_disabled":false,"rental_uris":{"android":"levelo://app?vid=aa3964d7-eca9-45f5-92d2-c5901eaa14d9","ios":"levelo://app?vid=aa3964d7-eca9-45f5-92d2-c5901eaa14d9"},"vehicle_type_id":"4","last_reported":1714813706,"current_range_meters":12800,"station_id":"ce4bgop2rcd13ifvqc1g","pricing_plan_id":"cebpf4jnsgd1na2vs0mg"},{"bike_id":"419a2b5c-4238-4e2c-8bf0-24105af66f38","system_id":"levelo_inurba_marseille","lat":43.322872,"lon":5.382756,"is_reserved":false,"is_disabled":false,"rental_uris":{"android":"levelo://app?vid=419a2b5c-4238-4e2c-8bf0-24105af66f38","ios":"levelo://app?vid=419a2b5c-4238-4e2c-8bf0-24105af66f38"},"vehicle_type_id":"4","last_reported":1714813706,"current_range_meters":6000,"station_id":"ce4bhr12rcd13ifvqhqg","pricing_plan_id":"cebpf4jnsgd1na2vs0mg"},{"bike_id":"14eddade-44a2-4c4b-8f32-fc2a6ba4aa96","system_id":"levelo_inurba_marseille","lat":43.322872,"lon":5.382756,"is_reserved":false,"is_disabled":false,"rental_uris":{"android":"levelo://app?vid=14eddade-44a2-4c4b-8f32-fc2a6ba4aa96","ios":"levelo://app?vid=14eddade-44a2-4c4b-8f32-fc2a6ba4aa96"},"vehicle_type_id":"4","last_reported":1714813706,"current_range_meters":800,"station_id":"ce4bhr12rcd13ifvqhqg","pricing_plan_id":"cebpf4jnsgd1na2vs0mg"},{"bike_id":"ee5d5f57-aa9f-4035-ad0b-fffa8eb347a1","system_id":"levelo_inurba_marseille","lat":43.322872,"lon":5.382756,"is_reserved":false,"is_disabled":false,"rental_uris":{"android":"levelo://app?vid=ee5d5f57-aa9f-4035-ad0b-fffa8eb347a1","ios":"levelo://app?vid=ee5d5f57-aa9f-4035-ad0b-fffa8eb347a1"},"vehicle_type_id":"4","last_reported":1714813706,"current_range_meters":31200,"station_id":"ce4bhr12rcd13ifvqhqg","pricing_plan_id":"cebpf4jnsgd1na2vs0mg"},{"bike_id":"d15c365d-48f4-41ec-8a15-8c93a9cf008b","system_id":"levelo_inurba_marseille","lat":43.322872,"lon":5.382756,"is_reserved":false,"is_disabled":false,"rental_uris":{"android":"levelo://app?vid=d15c365d-48f4-41ec-8a15-8c93a9cf008b","ios":"levelo://app?vid=d15c365d-48f4-41ec-8a15-8c93a9cf008b"},"vehicle_type_id":"4","last_reported":1714813706,"current_range_meters":28000,"station_id":"ce4bhr12rcd13ifvqhqg","pricing_plan_id":"cebpf4jnsgd1na2vs0mg"},{"bike_id":"20e0b06a-25d4-4137-9fd3-d07bb00f838c","system_id":"levelo_inurba_marseille","lat":43.322872,"lon":5.382756,"is_reserved":false,"is_disabled":false,"rental_uris":{"android":"levelo://app?vid=20e0b06a-25d4-4137-9fd3-d07bb00f838c","ios":"levelo://app?vid=20e0b06a-25d4-4137-9fd3-d07bb00f838c"},"vehicle_type_id":"4","last_reported":1714813706,"current_range_meters":30400,"station_id":"ce4bhr12rcd13ifvqhqg","pricing_plan_id":"cebpf4jnsgd1na2vs0mg"},{"bike_id":"f929e145-dba0-49ad-bdd7-f7eab2013de3","system_id":"levelo_inurba_marseille","lat":43.297163,"lon":5.365866,"is_reserved":false,"is_disabled":false,"rental_uris":{"android":"levelo://app?vid=f929e145-dba0-49ad-bdd7-f7eab2013de3","ios":"levelo://app?vid=f929e145-dba0-49ad-bdd7-f7eab2013de3"},"vehicle_type_id":"4","last_reported":1714813706,"current_range_meters":23200,"station_id":"ce4bgn12rcd13ifvqbt0","pricing_plan_id":"cebpf4jnsgd1na2vs0mg"},{"bike_id":"1ea160af-6cf5-4a1d-ae8a-3642d02ad6d8","system_id":"levelo_inurba_marseille","lat":43.296129,"lon":5.370777,"is_reserved":false,"is_disabled":false,"rental_uris":{"android":"levelo://app?vid=1ea160af-6cf5-4a1d-ae8a-3642d02ad6d8","ios":"levelo://app?vid=1ea160af-6cf5-4a1d-ae8a-3642d02ad6d8"},"vehicle_type_id":"4","last_reported":1714813706,"current_range_meters":0,"station_id":"ce4bgnh2rcd13ifvqc0g","pricing_plan_id":"cebpf4jnsgd1na2vs0mg"},{"bike_id":"81103643-7fec-4265-8703-b46a2144508e","system_id":"levelo_inurba_marseille","lat":43.296131,"lon":5.370773,"is_reserved":false,"is_disabled":false,"rental_uris":{"android":"levelo://app?vid=81103643-7fec-4265-8703-b46a2144508e","ios":"levelo://app?vid=81103643-7fec-4265-8703-b46a2144508e"},"vehicle_type_id":"4","last_reported":1714813706,"current_range_meters":22400,"station_id":"ce4bgnh2rcd13ifvqc0g","pricing_plan_id":"cebpf4jnsgd1na2vs0mg"},{"bike_id":"5a2fe208-f853-4529-9a5e-a23a90a5d7af","system_id":"levelo_inurba_marseille","lat":43.296131,"lon":5.370791,"is_reserved":false,"is_disabled":false,"rental_uris":{"android":"levelo://app?vid=5a2fe208-f853-4529-9a5e-a23a90a5d7af","ios":"levelo://app?vid=5a2fe208-f853-4529-9a5e-a23a90a5d7af"},"vehicle_type_id":"4","last_reported":1714813706,"current_range_meters":22400,"station_id":"ce4bgnh2rcd13ifvqc0g","pricing_plan_id":"cebpf4jnsgd1na2vs0mg"},{"bike_id":"76ffba5c-b3f1-4791-a0bc-a68e06f43536","system_id":"levelo_inurba_marseille","lat":43.296129,"lon":5.370777,"is_reserved":false,"is_disabled":false,"rental_uris":{"android":"levelo://app?vid=76ffba5c-b3f1-4791-a0bc-a68e06f43536","ios":"levelo://app?vid=76ffba5c-b3f1-4791-a0bc-a68e06f43536"},"vehicle_type_id":"4","last_reported":1714813706,"current_range_meters":14400,"station_id":"ce4bgnh2rcd13ifvqc0g","pricing_plan_id":"cebpf4jnsgd1na2vs0mg"},{"bike_id":"60b46171-5789-4fba-b7f0-be79f92a4e56","system_id":"levelo_inurba_marseille","lat":43.29573,"lon":5.367355,"is_reserved":false,"is_disabled":false,"rental_uris":{"android":"levelo://app?vid=60b46171-5789-4fba-b7f0-be79f92a4e56","ios":"levelo://app?vid=60b46171-5789-4fba-b7f0-be79f92a4e56"},"vehicle_type_id":"4","last_reported":1714813706,"current_range_meters":21200,"station_id":"ce4bgph2rcd13ifvqc2g","pricing_plan_id":"cebpf4jnsgd1na2vs0mg"},{"bike_id":"b74ae44a-7d09-47a3-b149-200fedd6a4d3","system_id":"levelo_inurba_marseille","lat":43.29573,"lon":5.367355,"is_reserved":false,"is_disabled":false,"rental_uris":{"android":"levelo://app?vid=b74ae44a-7d09-47a3-b149-200fedd6a4d3","ios":"levelo://app?vid=b74ae44a-7d09-47a3-b149-200fedd6a4d3"},"vehicle_type_id":"4","last_reported":1714813706,"current_range_meters":27200,"station_id":"ce4bgph2rcd13ifvqc2g","pricing_plan_id":"cebpf4jnsgd1na2vs0mg"},{"bike_id":"be0435cb-8837-407e-940d-cd7048a087a4","system_id":"levelo_inurba_marseille","lat":43.29573,"lon":5.367355,"is_reserved":false,"is_disabled":false,"rental_uris":{"android":"levelo://app?vid=be0435cb-8837-407e-940d-cd7048a087a4","ios":"levelo://app?vid=be0435cb-8837-407e-940d-cd7048a087a4"},"vehicle_type_id":"4","last_reported":1714813706,"current_range_meters":30400,"station_id":"ce4bgph2rcd13ifvqc2g","pricing_plan_id":"cebpf4jnsgd1na2vs0mg"},{"bike_id":"20d99301-0dfe-4fa2-a8b1-05297836445f","system_id":"levelo_inurba_marseille","lat":43.337168,"lon":5.391825,"is_reserved":false,"is_disabled":false,"rental_uris":{"android":"levelo://app?vid=20d99301-0dfe-4fa2-a8b1-05297836445f","ios":"levelo://app?vid=20d99301-0dfe-4fa2-a8b1-05297836445f"},"vehicle_type_id":"4","last_reported":1714813706,"current_range_meters":29600,"station_id":"ce4bhr92rcd13ifvqhsg","pricing_plan_id":"cebpf4jnsgd1na2vs0mg"},{"bike_id":"0fa3f37e-5c4e-414b-a5b0-b826b4318aee","system_id":"levelo_inurba_marseille","lat":43.29573,"lon":5.367355,"is_reserved":false,"is_disabled":false,"rental_uris":{"android":"levelo://app?vid=0fa3f37e-5c4e-414b-a5b0-b826b4318aee","ios":"levelo://app?vid=0fa3f37e-5c4e-414b-a5b0-b826b4318aee"},"vehicle_type_id":"4","last_reported":1714813706,"current_range_meters":19600,"station_id":"ce4bgph2rcd13ifvqc2g","pricing_plan_id":"cebpf4jnsgd1na2vs0mg"},{"bike_id":"129647ee-2853-445e-853a-e0c26257d4d3","system_id":"levelo_inurba_marseille","lat":43.29573,"lon":5.367355,"is_reserved":false,"is_disabled":false,"rental_uris":{"android":"levelo://app?vid=129647ee-2853-445e-853a-e0c26257d4d3","ios":"levelo://app?vid=129647ee-2853-445e-853a-e0c26257d4d3"},"vehicle_type_id":"4","last_reported":1714813706,"current_range_meters":23600,"station_id":"ce4bgph2rcd13ifvqc2g","pricing_plan_id":"cebpf4jnsgd1na2vs0mg"},{"bike_id":"5e0daab0-b3db-4805-8218-30c5c187b7f0","system_id":"levelo_inurba_marseille","lat":43.295694,"lon":5.367297,"is_reserved":false,"is_disabled":false,"rental_uris":{"android":"levelo://app?vid=5e0daab0-b3db-4805-8218-30c5c187b7f0","ios":"levelo://app?vid=5e0daab0-b3db-4805-8218-30c5c187b7f0"},"vehicle_type_id":"4","last_reported":1714813706,"current_range_meters":15600,"station_id":"ce4bgph2rcd13ifvqc2g","pricing_plan_id":"cebpf4jnsgd1na2vs0mg"},{"bike_id":"548a5803-6e8d-41a1-ba13-64df723d3739","system_id":"levelo_inurba_marseille","lat":43.296935,"lon":5.376544,"is_reserved":false,"is_disabled":false,"rental_uris":{"android":"levelo://app?vid=548a5803-6e8d-41a1-ba13-64df723d3739","ios":"levelo://app?vid=548a5803-6e8d-41a1-ba13-64df723d3739"},"vehicle_type_id":"4","last_reported":1714813706,"current_range_meters":30800,"station_id":"ce4bgkh2rcd13ifvqbl0","pricing_plan_id":"cebpf4jnsgd1na2vs0mg"},{"bike_id":"e7d76aa0-b0f2-4e35-9ce0-7b12c69205b9","system_id":"levelo_inurba_marseille","lat":43.296921,"lon":5.376579,"is_reserved":false,"is_disabled":false,"rental_uris":{"android":"levelo://app?vid=e7d76aa0-b0f2-4e35-9ce0-7b12c69205b9","ios":"levelo://app?vid=e7d76aa0-b0f2-4e35-9ce0-7b12c69205b9"},"vehicle_type_id":"4","last_reported":1714813706,"current_range_meters":16000,"station_id":"ce4bgkh2rcd13ifvqbl0","pricing_plan_id":"cebpf4jnsgd1na2vs0mg"},{"bike_id":"0756942b-e129-47e0-b300-1f200672337c","system_id":"levelo_inurba_marseille","lat":43.296921,"lon":5.376579,"is_reserved":false,"is_disabled":false,"rental_uris":{"android":"levelo://app?vid=0756942b-e129-47e0-b300-1f200672337c","ios":"levelo://app?vid=0756942b-e129-47e0-b300-1f200672337c"},"vehicle_type_id":"4","last_reported":1714813706,"current_range_meters":24000,"station_id":"ce4bgkh2rcd13ifvqbl0","pricing_plan_id":"cebpf4jnsgd1na2vs0mg"},{"bike_id":"35b83244-dc72-46af-a2e0-5a42f42baefe","system_id":"levelo_inurba_marseille","lat":43.296921,"lon":5.376579,"is_reserved":false,"is_disabled":false,"rental_uris":{"android":"levelo://app?vid=35b83244-dc72-46af-a2e0-5a42f42baefe","ios":"levelo://app?vid=35b83244-dc72-46af-a2e0-5a42f42baefe"},"vehicle_type_id":"4","last_reported":1714813706,"current_range_meters":13200,"station_id":"ce4bgkh2rcd13ifvqbl0","pricing_plan_id":"cebpf4jnsgd1na2vs0mg"},{"bike_id":"d8f6a881-30ee-4699-8474-b77432c097a1","system_id":"levelo_inurba_marseille","lat":43.296921,"lon":5.376579,"is_reserved":false,"is_disabled":false,"rental_uris":{"android":"levelo://app?vid=d8f6a881-30ee-4699-8474-b77432c097a1","ios":"levelo://app?vid=d8f6a881-30ee-4699-8474-b77432c097a1"},"vehicle_type_id":"4","last_reported":1714813706,"current_range_meters":8400,"station_id":"ce4bgkh2rcd13ifvqbl0","pricing_plan_id":"cebpf4jnsgd1na2vs0mg"},{"bike_id":"f52153ef-d5d5-4544-bc39-9582614392db","system_id":"levelo_inurba_marseille","lat":43.309589,"lon":5.390258,"is_reserved":false,"is_disabled":false,"rental_uris":{"android":"levelo://app?vid=f52153ef-d5d5-4544-bc39-9582614392db","ios":"levelo://app?vid=f52153ef-d5d5-4544-bc39-9582614392db"},"vehicle_type_id":"4","last_reported":1714813706,"current_range_meters":13200,"station_id":"ce4bgup2rcd13ifvqco0","pricing_plan_id":"cebpf4jnsgd1na2vs0mg"},{"bike_id":"75b18376-9d0f-49a3-b3c7-7eff4d0c33bf","system_id":"levelo_inurba_marseille","lat":43.309589,"lon":5.390258,"is_reserved":false,"is_disabled":false,"rental_uris":{"android":"levelo://app?vid=75b18376-9d0f-49a3-b3c7-7eff4d0c33bf","ios":"levelo://app?vid=75b18376-9d0f-49a3-b3c7-7eff4d0c33bf"},"vehicle_type_id":"4","last_reported":1714813706,"current_range_meters":22400,"station_id":"ce4bgup2rcd13ifvqco0","pricing_plan_id":"cebpf4jnsgd1na2vs0mg"},{"bike_id":"96d2fa50-b888-4648-8397-3497d405f77e","system_id":"levelo_inurba_marseille","lat":43.309589,"lon":5.390258,"is_reserved":false,"is_disabled":false,"rental_uris":{"android":"levelo://app?vid=96d2fa50-b888-4648-8397-3497d405f77e","ios":"levelo://app?vid=96d2fa50-b888-4648-8397-3497d405f77e"},"vehicle_type_id":"4","last_reported":1714813706,"current_range_meters":6400,"station_id":"ce4bgup2rcd13ifvqco0","pricing_plan_id":"cebpf4jnsgd1na2vs0mg"},{"bike_id":"b334cd85-d111-4b95-8419-066333191168","system_id":"levelo_inurba_marseille","lat":43.309589,"lon":5.390258,"is_reserved":false,"is_disabled":false,"rental_uris":{"android":"levelo://app?vid=b334cd85-d111-4b95-8419-066333191168","ios":"levelo://app?vid=b334cd85-d111-4b95-8419-066333191168"},"vehicle_type_id":"4","last_reported":1714813706,"current_range_meters":18400,"station_id":"ce4bgup2rcd13ifvqco0","pricing_plan_id":"cebpf4jnsgd1na2vs0mg"},{"bike_id":"627a0d6c-5d83-4259-bbc6-92dd62b106d4","system_id":"levelo_inurba_marseille","lat":43.309589,"lon":5.390258,"is_reserved":false,"is_disabled":false,"rental_uris":{"android":"levelo://app?vid=627a0d6c-5d83-4259-bbc6-92dd62b106d4","ios":"levelo://app?vid=627a0d6c-5d83-4259-bbc6-92dd62b106d4"},"vehicle_type_id":"4","last_reported":1714813706,"current_range_meters":20800,"station_id":"ce4bgup2rcd13ifvqco0","pricing_plan_id":"cebpf4jnsgd1na2vs0mg"},{"bike_id":"8aa1bff4-8da8-4cc9-b157-93870f93cf00","system_id":"levelo_inurba_marseille","lat":43.317557,"lon":5.390173,"is_reserved":false,"is_disabled":false,"rental_uris":{"android":"levelo://app?vid=8aa1bff4-8da8-4cc9-b157-93870f93cf00","ios":"levelo://app?vid=8aa1bff4-8da8-4cc9-b157-93870f93cf00"},"vehicle_type_id":"4","last_reported":1714813706,"current_range_meters":16000,"station_id":"ce4bhqp2rcd13ifvqhng","pricing_plan_id":"cebpf4jnsgd1na2vs0mg"},{"bike_id":"7c16e763-310b-4054-8222-0fc25fff9d85","system_id":"levelo_inurba_marseille","lat":43.317557,"lon":5.390173,"is_reserved":false,"is_disabled":false,"rental_uris":{"android":"levelo://app?vid=7c16e763-310b-4054-8222-0fc25fff9d85","ios":"levelo://app?vid=7c16e763-310b-4054-8222-0fc25fff9d85"},"vehicle_type_id":"4","last_reported":1714813706,"current_range_meters":7200,"station_id":"ce4bhqp2rcd13ifvqhng","pricing_plan_id":"cebpf4jnsgd1na2vs0mg"},{"bike_id":"8342e0a4-f969-42e3-bab6-635654b6e385","system_id":"levelo_inurba_marseille","lat":43.317557,"lon":5.390173,"is_reserved":false,"is_disabled":false,"rental_uris":{"android":"levelo://app?vid=8342e0a4-f969-42e3-bab6-635654b6e385","ios":"levelo://app?vid=8342e0a4-f969-42e3-bab6-635654b6e385"},"vehicle_type_id":"4","last_reported":1714813706,"current_range_meters":20000,"station_id":"ce4bhqp2rcd13ifvqhng","pricing_plan_id":"cebpf4jnsgd1na2vs0mg"},{"bike_id":"f4f7eb9f-bca1-4073-a996-abded8f23886","system_id":"levelo_inurba_marseille","lat":43.312,"lon":5.39112,"is_reserved":false,"is_disabled":false,"rental_uris":{"android":"levelo://app?vid=f4f7eb9f-bca1-4073-a996-abded8f23886","ios":"levelo://app?vid=f4f7eb9f-bca1-4073-a996-abded8f23886"},"vehicle_type_id":"4","last_reported":1714813706,"current_range_meters":24800,"station_id":"","pricing_plan_id":"cebpf4jnsgd1na2vs0mg"},{"bike_id":"1a721125-a8c1-434c-93df-8e6b9190373a","system_id":"levelo_inurba_marseille","lat":43.295748,"lon":5.37522,"is_reserved":false,"is_disabled":false,"rental_uris":{"android":"levelo://app?vid=1a721125-a8c1-434c-93df-8e6b9190373a","ios":"levelo://app?vid=1a721125-a8c1-434c-93df-8e6b9190373a"},"vehicle_type_id":"4","last_reported":1714813706,"current_range_meters":31600,"station_id":"ce4bgh92rcd13ifvqb50","pricing_plan_id":"cebpf4jnsgd1na2vs0mg"},{"bike_id":"b5b5e0bf-d266-4b33-af46-96fdeecb9482","system_id":"levelo_inurba_marseille","lat":43.298037,"lon":5.381066,"is_reserved":false,"is_disabled":false,"rental_uris":{"android":"levelo://app?vid=b5b5e0bf-d266-4b33-af46-96fdeecb9482","ios":"levelo://app?vid=b5b5e0bf-d266-4b33-af46-96fdeecb9482"},"vehicle_type_id":"4","last_reported":1714813706,"current_range_meters":25600,"station_id":"ce4bgip2rcd13ifvqbb0","pricing_plan_id":"cebpf4jnsgd1na2vs0mg"},{"bike_id":"d4429d53-b9fa-4e9d-b662-2aa692bee896","system_id":"levelo_inurba_marseille","lat":43.295748,"lon":5.37522,"is_reserved":false,"is_disabled":false,"rental_uris":{"android":"levelo://app?vid=d4429d53-b9fa-4e9d-b662-2aa692bee896","ios":"levelo://app?vid=d4429d53-b9fa-4e9d-b662-2aa692bee896"},"vehicle_type_id":"4","last_reported":1714813706,"current_range_meters":6400,"station_id":"ce4bgh92rcd13ifvqb50","pricing_plan_id":"cebpf4jnsgd1na2vs0mg"},{"bike_id":"5ba5c109-f109-4f31-9da8-fc8b2a3dddf5","system_id":"levelo_inurba_marseille","lat":43.295748,"lon":5.37522,"is_reserved":false,"is_disabled":false,"rental_uris":{"android":"levelo://app?vid=5ba5c109-f109-4f31-9da8-fc8b2a3dddf5","ios":"levelo://app?vid=5ba5c109-f109-4f31-9da8-fc8b2a3dddf5"},"vehicle_type_id":"4","last_reported":1714813706,"current_range_meters":24800,"station_id":"ce4bgh92rcd13ifvqb50","pricing_plan_id":"cebpf4jnsgd1na2vs0mg"},{"bike_id":"0c484672-fa32-40bd-9057-f3cb72aecd0e","system_id":"levelo_inurba_marseille","lat":43.30434,"lon":5.38879,"is_reserved":false,"is_disabled":false,"rental_uris":{"android":"levelo://app?vid=0c484672-fa32-40bd-9057-f3cb72aecd0e","ios":"levelo://app?vid=0c484672-fa32-40bd-9057-f3cb72aecd0e"},"vehicle_type_id":"4","last_reported":1714813706,"current_range_meters":26800,"station_id":"ce4bgk12rcd13ifvqbi0","pricing_plan_id":"cebpf4jnsgd1na2vs0mg"},{"bike_id":"f02b28b3-60b3-4faa-acf2-b8829173bebd","system_id":"levelo_inurba_marseille","lat":43.295748,"lon":5.37522,"is_reserved":false,"is_disabled":false,"rental_uris":{"android":"levelo://app?vid=f02b28b3-60b3-4faa-acf2-b8829173bebd","ios":"levelo://app?vid=f02b28b3-60b3-4faa-acf2-b8829173bebd"},"vehicle_type_id":"4","last_reported":1714813706,"current_range_meters":29600,"station_id":"ce4bgh92rcd13ifvqb50","pricing_plan_id":"cebpf4jnsgd1na2vs0mg"},{"bike_id":"ecb704d9-d344-4c12-9c5b-880c9b7653a7","system_id":"levelo_inurba_marseille","lat":43.304278,"lon":5.388868,"is_reserved":false,"is_disabled":false,"rental_uris":{"android":"levelo://app?vid=ecb704d9-d344-4c12-9c5b-880c9b7653a7","ios":"levelo://app?vid=ecb704d9-d344-4c12-9c5b-880c9b7653a7"},"vehicle_type_id":"4","last_reported":1714813706,"current_range_meters":24800,"station_id":"ce4bgk12rcd13ifvqbi0","pricing_plan_id":"cebpf4jnsgd1na2vs0mg"},{"bike_id":"ce0388a4-343d-46b7-8aef-62621ee00849","system_id":"levelo_inurba_marseille","lat":43.295748,"lon":5.37522,"is_reserved":false,"is_disabled":false,"rental_uris":{"android":"levelo://app?vid=ce0388a4-343d-46b7-8aef-62621ee00849","ios":"levelo://app?vid=ce0388a4-343d-46b7-8aef-62621ee00849"},"vehicle_type_id":"4","last_reported":1714813706,"current_range_meters":31600,"station_id":"ce4bgh92rcd13ifvqb50","pricing_plan_id":"cebpf4jnsgd1na2vs0mg"},{"bike_id":"f8107935-2170-4756-adaa-188448f8a3d9","system_id":"levelo_inurba_marseille","lat":43.295748,"lon":5.37522,"is_reserved":false,"is_disabled":false,"rental_uris":{"android":"levelo://app?vid=f8107935-2170-4756-adaa-188448f8a3d9","ios":"levelo://app?vid=f8107935-2170-4756-adaa-188448f8a3d9"},"vehicle_type_id":"4","last_reported":1714813706,"current_range_meters":9200,"station_id":"ce4bgh92rcd13ifvqb50","pricing_plan_id":"cebpf4jnsgd1na2vs0mg"},{"bike_id":"dc68629a-9787-4f18-8aca-be95d17b937e","system_id":"levelo_inurba_marseille","lat":43.295748,"lon":5.37522,"is_reserved":false,"is_disabled":false,"rental_uris":{"android":"levelo://app?vid=dc68629a-9787-4f18-8aca-be95d17b937e","ios":"levelo://app?vid=dc68629a-9787-4f18-8aca-be95d17b937e"},"vehicle_type_id":"4","last_reported":1714813706,"current_range_meters":15200,"station_id":"ce4bgh92rcd13ifvqb50","pricing_plan_id":"cebpf4jnsgd1na2vs0mg"},{"bike_id":"54ef763b-d44d-4486-b0f3-eb22bbf5182a","system_id":"levelo_inurba_marseille","lat":43.298037,"lon":5.381066,"is_reserved":false,"is_disabled":false,"rental_uris":{"android":"levelo://app?vid=54ef763b-d44d-4486-b0f3-eb22bbf5182a","ios":"levelo://app?vid=54ef763b-d44d-4486-b0f3-eb22bbf5182a"},"vehicle_type_id":"4","last_reported":1714813706,"current_range_meters":25600,"station_id":"ce4bgip2rcd13ifvqbb0","pricing_plan_id":"cebpf4jnsgd1na2vs0mg"},{"bike_id":"c6c38324-40ce-4d96-a97c-63ccb074bfa1","system_id":"levelo_inurba_marseille","lat":43.296263,"lon":5.377094,"is_reserved":false,"is_disabled":false,"rental_uris":{"android":"levelo://app?vid=c6c38324-40ce-4d96-a97c-63ccb074bfa1","ios":"levelo://app?vid=c6c38324-40ce-4d96-a97c-63ccb074bfa1"},"vehicle_type_id":"4","last_reported":1714813706,"current_range_meters":800,"station_id":"ce4bgi92rcd13ifvqb90","pricing_plan_id":"cebpf4jnsgd1na2vs0mg"},{"bike_id":"5639f4f3-bd02-4a8e-8a9f-8b900509f408","system_id":"levelo_inurba_marseille","lat":43.296263,"lon":5.377094,"is_reserved":false,"is_disabled":false,"rental_uris":{"android":"levelo://app?vid=5639f4f3-bd02-4a8e-8a9f-8b900509f408","ios":"levelo://app?vid=5639f4f3-bd02-4a8e-8a9f-8b900509f408"},"vehicle_type_id":"4","last_reported":1714813706,"current_range_meters":10000,"station_id":"ce4bgi92rcd13ifvqb90","pricing_plan_id":"cebpf4jnsgd1na2vs0mg"},{"bike_id":"a5205759-571f-4497-981b-7d7ebbe10d9d","system_id":"levelo_inurba_marseille","lat":43.295279,"lon":5.375048,"is_reserved":false,"is_disabled":false,"rental_uris":{"android":"levelo://app?vid=a5205759-571f-4497-981b-7d7ebbe10d9d","ios":"levelo://app?vid=a5205759-571f-4497-981b-7d7ebbe10d9d"},"vehicle_type_id":"4","last_reported":1714813706,"current_range_meters":16000,"station_id":"ce4bgkp2rcd13ifvqbmg","pricing_plan_id":"cebpf4jnsgd1na2vs0mg"},{"bike_id":"1975ea01-cefb-4856-b22e-93b704b91f81","system_id":"levelo_inurba_marseille","lat":43.299724,"lon":5.384848,"is_reserved":false,"is_disabled":false,"rental_uris":{"android":"levelo://app?vid=1975ea01-cefb-4856-b22e-93b704b91f81","ios":"levelo://app?vid=1975ea01-cefb-4856-b22e-93b704b91f81"},"vehicle_type_id":"4","last_reported":1714813706,"current_range_meters":8800,"station_id":"ce4bgj92rcd13ifvqbd0","pricing_plan_id":"cebpf4jnsgd1na2vs0mg"},{"bike_id":"d98be8ae-51d6-4d15-b806-d2703a3ad536","system_id":"levelo_inurba_marseille","lat":43.295279,"lon":5.375048,"is_reserved":false,"is_disabled":false,"rental_uris":{"android":"levelo://app?vid=d98be8ae-51d6-4d15-b806-d2703a3ad536","ios":"levelo://app?vid=d98be8ae-51d6-4d15-b806-d2703a3ad536"},"vehicle_type_id":"4","last_reported":1714813706,"current_range_meters":13200,"station_id":"ce4bgkp2rcd13ifvqbmg","pricing_plan_id":"cebpf4jnsgd1na2vs0mg"},{"bike_id":"d53022ad-80f0-4dc0-b87e-20a6b46c77e7","system_id":"levelo_inurba_marseille","lat":43.295279,"lon":5.375048,"is_reserved":false,"is_disabled":false,"rental_uris":{"android":"levelo://app?vid=d53022ad-80f0-4dc0-b87e-20a6b46c77e7","ios":"levelo://app?vid=d53022ad-80f0-4dc0-b87e-20a6b46c77e7"},"vehicle_type_id":"4","last_reported":1714813706,"current_range_meters":20000,"station_id":"ce4bgkp2rcd13ifvqbmg","pricing_plan_id":"cebpf4jnsgd1na2vs0mg"},{"bike_id":"e2801e7a-e305-48c2-9504-811ee40668c1","system_id":"levelo_inurba_marseille","lat":43.295279,"lon":5.375048,"is_reserved":false,"is_disabled":false,"rental_uris":{"android":"levelo://app?vid=e2801e7a-e305-48c2-9504-811ee40668c1","ios":"levelo://app?vid=e2801e7a-e305-48c2-9504-811ee40668c1"},"vehicle_type_id":"4","last_reported":1714813706,"current_range_meters":5600,"station_id":"ce4bgkp2rcd13ifvqbmg","pricing_plan_id":"cebpf4jnsgd1na2vs0mg"},{"bike_id":"ed48fcba-5c53-41ed-bc23-69ce1ec319a4","system_id":"levelo_inurba_marseille","lat":43.299717,"lon":5.384845,"is_reserved":false,"is_disabled":false,"rental_uris":{"android":"levelo://app?vid=ed48fcba-5c53-41ed-bc23-69ce1ec319a4","ios":"levelo://app?vid=ed48fcba-5c53-41ed-bc23-69ce1ec319a4"},"vehicle_type_id":"4","last_reported":1714813706,"current_range_meters":5200,"station_id":"ce4bgj92rcd13ifvqbd0","pricing_plan_id":"cebpf4jnsgd1na2vs0mg"},{"bike_id":"81cdc562-29ee-4117-9bdd-8c4ac22c6246","system_id":"levelo_inurba_marseille","lat":43.295279,"lon":5.375048,"is_reserved":false,"is_disabled":false,"rental_uris":{"android":"levelo://app?vid=81cdc562-29ee-4117-9bdd-8c4ac22c6246","ios":"levelo://app?vid=81cdc562-29ee-4117-9bdd-8c4ac22c6246"},"vehicle_type_id":"4","last_reported":1714813706,"current_range_meters":23600,"station_id":"ce4bgkp2rcd13ifvqbmg","pricing_plan_id":"cebpf4jnsgd1na2vs0mg"},{"bike_id":"c1cfbe2e-f868-40e5-bb38-c81276184942","system_id":"levelo_inurba_marseille","lat":43.295279,"lon":5.375048,"is_reserved":false,"is_disabled":false,"rental_uris":{"android":"levelo://app?vid=c1cfbe2e-f868-40e5-bb38-c81276184942","ios":"levelo://app?vid=c1cfbe2e-f868-40e5-bb38-c81276184942"},"vehicle_type_id":"4","last_reported":1714813706,"current_range_meters":16000,"station_id":"ce4bgkp2rcd13ifvqbmg","pricing_plan_id":"cebpf4jnsgd1na2vs0mg"},{"bike_id":"2ecb1d5e-8186-4f33-892a-059af6873df1","system_id":"levelo_inurba_marseille","lat":43.2952,"lon":5.37506,"is_reserved":false,"is_disabled":false,"rental_uris":{"android":"levelo://app?vid=2ecb1d5e-8186-4f33-892a-059af6873df1","ios":"levelo://app?vid=2ecb1d5e-8186-4f33-892a-059af6873df1"},"vehicle_type_id":"4","last_reported":1714813706,"current_range_meters":21200,"station_id":"ce4bgkp2rcd13ifvqbmg","pricing_plan_id":"cebpf4jnsgd1na2vs0mg"},{"bike_id":"5bf6e51b-35c5-4ada-a1ff-21b0ae4090d4","system_id":"levelo_inurba_marseille","lat":43.295279,"lon":5.375048,"is_reserved":false,"is_disabled":false,"rental_uris":{"android":"levelo://app?vid=5bf6e51b-35c5-4ada-a1ff-21b0ae4090d4","ios":"levelo://app?vid=5bf6e51b-35c5-4ada-a1ff-21b0ae4090d4"},"vehicle_type_id":"4","last_reported":1714813706,"current_range_meters":5200,"station_id":"ce4bgkp2rcd13ifvqbmg","pricing_plan_id":"cebpf4jnsgd1na2vs0mg"},{"bike_id":"91599177-5223-4893-872c-919f270fc2e0","system_id":"levelo_inurba_marseille","lat":43.299717,"lon":5.384845,"is_reserved":false,"is_disabled":false,"rental_uris":{"android":"levelo://app?vid=91599177-5223-4893-872c-919f270fc2e0","ios":"levelo://app?vid=91599177-5223-4893-872c-919f270fc2e0"},"vehicle_type_id":"4","last_reported":1714813706,"current_range_meters":5200,"station_id":"ce4bgj92rcd13ifvqbd0","pricing_plan_id":"cebpf4jnsgd1na2vs0mg"},{"bike_id":"10eac331-0931-4e0a-a584-4bbfe90a873f","system_id":"levelo_inurba_marseille","lat":43.299724,"lon":5.384848,"is_reserved":false,"is_disabled":false,"rental_uris":{"android":"levelo://app?vid=10eac331-0931-4e0a-a584-4bbfe90a873f","ios":"levelo://app?vid=10eac331-0931-4e0a-a584-4bbfe90a873f"},"vehicle_type_id":"4","last_reported":1714813706,"current_range_meters":11600,"station_id":"ce4bgj92rcd13ifvqbd0","pricing_plan_id":"cebpf4jnsgd1na2vs0mg"},{"bike_id":"ac8668e1-e249-40ea-b0e6-d73636acbb50","system_id":"levelo_inurba_marseille","lat":43.32366,"lon":5.3888,"is_reserved":false,"is_disabled":false,"rental_uris":{"android":"levelo://app?vid=ac8668e1-e249-40ea-b0e6-d73636acbb50","ios":"levelo://app?vid=ac8668e1-e249-40ea-b0e6-d73636acbb50"},"vehicle_type_id":"4","last_reported":1714813706,"current_range_meters":20000,"station_id":"ce4bhqp2rcd13ifvqhog","pricing_plan_id":"cebpf4jnsgd1na2vs0mg"},