{"last_updated":1679134019,"ttl":30,"version":"2.2","data":{"bikes":[{"bike_id":"803dc7b6-96e3-48f6-b6f7-0ece13589a20","system_id":"levelo_inurba_marseille","lat":43.312239,"lon":5.368562,"is_reserved":false,"is_disabled":false,"rental_uris":{"android":"levelo://app?vid=803dc7b6-96e3-48f6-b6f7-0ece13589a20","ios":"levelo://app?vid=803dc7b6-96e3-48f6-b6f7-0ece13589a20"},"vehicle_type_id":"4","last_reported":1679134019,"current_range_meters":32000,"station_id":"ce4bgl92rcd13ifvqbq0","pricing_plan_id":"free"},{"bike_id":"8a7a4241-93e6-494b-b7ff-3af64e99a637","system_id":"levelo_inurba_marseille","lat":43.312239,"lon":5.368562,"is_reserved":false,"is_disabled":false,"rental_uris":{"android":"levelo://app?vid=8a7a4241-93e6-494b-b7ff-3af64e99a637","ios":"levelo://app?vid=8a7a4241-93e6-494b-b7ff-3af64e99a637"},"vehicle_type_id":"4","last_reported":1679134019,"current_range_meters":22000,"station_id":"ce4bgl92rcd13ifvqbq0","pricing_plan_id":"free"},{"bike_id":"6c124e48-3392-41df-a796-16cc1aa068c0","system_id":"levelo_inurba_marseille","lat":43.312239,"lon":5.368562,"is_reserved":false,"is_disabled":false,"rental_uris":{"android":"levelo://app?vid=6c124e48-3392-41df-a796-16cc1aa068c0","ios":"levelo://app?vid=6c124e48-3392-41df-a796-16cc1aa068c0"},"vehicle_type_id":"4","last_reported":1679134019,"current_range_meters":17600,"station_id":"ce4bgl92rcd13ifvqbq0","pricing_plan_id":"free"},{"bike_id":"97bf4b6f-e159-4e4b-a5c1-6189ac93b154","system_id":"levelo_inurba_marseille","lat":43.309076,"lon":5.368465,"is_reserved":false,"is_disabled":false,"rental_uris":{"android":"levelo://app?vid=97bf4b6f-e159-4e4b-a5c1-6189ac93b154","ios":"levelo://app?vid=97bf4b6f-e159-4e4b-a5c1-6189ac93b154"},"vehicle_type_id":"4","last_reported":1679134019,"current_range_meters":30800,"station_id":"ce4bgn92rcd13ifvqbvg","pricing_plan_id":"free"},{"bike_id":"97cb2b17-186d-4e2e-8d06-3852be14513e","system_id":"levelo_inurba_marseille","lat":43.309076,"lon":5.368465,"is_reserved":false,"is_disabled":false,"rental_uris":{"android":"levelo://app?vid=97cb2b17-186d-4e2e-8d06-3852be14513e","ios":"levelo://app?vid=97cb2b17-186d-4e2e-8d06-3852be14513e"},"vehicle_type_id":"4","last_reported":1679134019,"current_range_meters":29200,"station_id":"ce4bgn92rcd13ifvqbvg","pricing_plan_id":"free"},{"bike_id":"b8eda21b-83de-4248-8b75-265279000c19","system_id":"levelo_inurba_marseille","lat":43.309076,"lon":5.368465,"is_reserved":false,"is_disabled":false,"rental_uris":{"android":"levelo://app?vid=b8eda21b-83de-4248-8b75-265279000c19","ios":"levelo://app?vid=b8eda21b-83de-4248-8b75-265279000c19"},"vehicle_type_id":"4","last_reported":1679134019,"current_range_meters":30400,"station_id":"ce4bgn92rcd13ifvqbvg","pricing_plan_id":"free"},{"bike_id":"f273d4fc-8773-4cc3-a870-85f4a91f1948","system_id":"levelo_inurba_marseille","lat":43.309076,"lon":5.368465,"is_reserved":false,"is_disabled":false,"rental_uris":{"android":"levelo://app?vid=f273d4fc-8773-4cc3-a870-85f4a91f1948","ios":"levelo://app?vid=f273d4fc-8773-4cc3-a870-85f4a91f1948"},"vehicle_type_id":"4","last_reported":1679134019,"current_range_meters":31200,"station_id":"ce4bgn92rcd13ifvqbvg","pricing_plan_id":"free"},{"bike_id":"54cce7ff-96b3-4498-bf48-60fcfbe779c3","system_id":"levelo_inurba_marseille","lat":43.309076,"lon":5.368465,"is_reserved":false,"is_disabled":false,"rental_uris":{"android":"levelo://app?vid=54cce7ff-96b3-4498-bf48-60fcfbe779c3","ios":"levelo://app?vid=54cce7ff-96b3-4498-bf48-60fcfbe779c3"},"vehicle_type_id":"4","last_reported":1679134019,"current_range_meters":29600,"station_id":"ce4bgn92rcd13ifvqbvg","pricing_plan_id":"free"},{"bike_id":"be8ce812-2c6c-47fb-8f0b-ccd422e14a09","system_id":"levelo_inurba_marseille","lat":43.309076,"lon":5.368465,"is_reserved":false,"is_disabled":false,"rental_uris":{"android":"levelo://app?vid=be8ce812-2c6c-47fb-8f0b-ccd422e14a09","ios":"levelo://app?vid=be8ce812-2c6c-47fb-8f0b-ccd422e14a09"},"vehicle_type_id":"4","last_reported":1679134019,"current_range_meters":18000,"station_id":"ce4bgn92rcd13ifvqbvg","pricing_plan_id":"free"},{"bike_id":"8fefd53f-ff48-4634-aa1d-ed3b01652207","system_id":"levelo_inurba_marseille","lat":43.309076,"lon":5.368465,"is_reserved":false,"is_disabled":false,"rental_uris":{"android":"levelo://app?vid=8fefd53f-ff48-4634-aa1d-ed3b01652207","ios":"levelo://app?vid=8fefd53f-ff48-4634-aa1d-ed3b01652207"},"vehicle_type_id":"4","last_reported":1679134019,"current_range_meters":31600,"station_id":"ce4bgn92rcd13ifvqbvg","pricing_plan_id":"free"},{"bike_id":"d4237953-9f1b-4a71-ae99-095ea19cd0d8","system_id":"levelo_inurba_marseille","lat":43.314811,"lon":5.373103,"is_reserved":false,"is_disabled":false,"rental_uris":{"android":"levelo://app?vid=d4237953-9f1b-4a71-ae99-095ea19cd0d8","ios":"levelo://app?vid=d4237953-9f1b-4a71-ae99-095ea19cd0d8"},"vehicle_type_id":"4","last_reported":1679134019,"current_range_meters":21200,"station_id":"ce4bgt12rcd13ifvqcd0","pricing_plan_id":"free"},{"bike_id":"e8789af8-838c-490a-8383-5a53c275a960","system_id":"levelo_inurba_marseille","lat":43.314811,"lon":5.373103,"is_reserved":false,"is_disabled":false,"rental_uris":{"android":"levelo://app?vid=e8789af8-838c-490a-8383-5a53c275a960","ios":"levelo://app?vid=e8789af8-838c-490a-8383-5a53c275a960"},"vehicle_type_id":"4","last_reported":1679134019,"current_range_meters":31600,"station_id":"ce4bgt12rcd13ifvqcd0","pricing_plan_id":"free"},{"bike_id":"b08dd174-7128-42c1-bfe2-a89a0e69f701","system_id":"levelo_inurba_marseille","lat":43.305989,"lon":5.37225,"is_reserved":false,"is_disabled":false,"rental_uris":{"android":"levelo://app?vid=b08dd174-7128-42c1-bfe2-a89a0e69f701","ios":"levelo://app?vid=b08dd174-7128-42c1-bfe2-a89a0e69f701"},"vehicle_type_id":"4","last_reported":1679134019,"current_range_meters":26400,"station_id":"ce4bgqh2rcd13ifvqc4g","pricing_plan_id":"free"},{"bike_id":"dc7d4cde-684c-4844-8469-77bb438b0636","system_id":"levelo_inurba_marseille","lat":43.306391,"lon":5.373596,"is_reserved":false,"is_disabled":false,"rental_uris":{"android":"levelo://app?vid=dc7d4cde-684c-4844-8469-77bb438b0636","ios":"levelo://app?vid=dc7d4cde-684c-4844-8469-77bb438b0636"},"vehicle_type_id":"4","last_reported":1679134019,"current_range_meters":20400,"station_id":"","pricing_plan_id":"free"},{"bike_id":"572f6e8f-2886-4dee-b96f-0dfadddbb5b5","system_id":"levelo_inurba_marseille","lat":43.317075,"lon":5.377367,"is_reserved":false,"is_disabled":false,"rental_uris":{"android":"levelo://app?vid=572f6e8f-2886-4dee-b96f-0dfadddbb5b5","ios":"levelo://app?vid=572f6e8f-2886-4dee-b96f-0dfadddbb5b5"},"vehicle_type_id":"4","last_reported":1679134019,"current_range_meters":0,"station_id":"ce4bgth2rcd13ifvqch0","pricing_plan_id":"free"},{"bike_id":"c99609ff-118f-4e7c-8c61-aeba6f41fc88","system_id":"levelo_inurba_marseille","lat":43.308012,"lon":5.381511,"is_reserved":false,"is_disabled":false,"rental_uris":{"android":"levelo://app?vid=c99609ff-118f-4e7c-8c61-aeba6f41fc88","ios":"levelo://app?vid=c99609ff-118f-4e7c-8c61-aeba6f41fc88"},"vehicle_type_id":"4","last_reported":1679134019,"current_range_meters":25200,"station_id":"ce4bgt12rcd13ifvqce0","pricing_plan_id":"free"},{"bike_id":"82c70a27-7014-4ee5-85fb-4d89453ce77a","system_id":"levelo_inurba_marseille","lat":43.3047,"lon":5.37908,"is_reserved":false,"is_disabled":false,"rental_uris":{"android":"levelo://app?vid=82c70a27-7014-4ee5-85fb-4d89453ce77a","ios":"levelo://app?vid=82c70a27-7014-4ee5-85fb-4d89453ce77a"},"vehicle_type_id":"4","last_reported":1679134019,"current_range_meters":4800,"station_id":"","pricing_plan_id":"free"},{"bike_id":"6a6d850d-0efb-4471-9fc7-383018d3340f","system_id":"levelo_inurba_marseille","lat":43.301429,"lon":5.37413,"is_reserved":false,"is_disabled":false,"rental_uris":{"android":"levelo://app?vid=6a6d850d-0efb-4471-9fc7-383018d3340f","ios":"levelo://app?vid=6a6d850d-0efb-4471-9fc7-383018d3340f"},"vehicle_type_id":"4","last_reported":1679134019,"current_range_meters":10800,"station_id":"ce4bgs92rcd13ifvqcc0","pricing_plan_id":"free"},{"bike_id":"55a3acda-1cbe-410b-929b-520566ef494d","system_id":"levelo_inurba_marseille","lat":43.30143,"lon":5.37413,"is_reserved":false,"is_disabled":false,"rental_uris":{"android":"levelo://app?vid=55a3acda-1cbe-410b-929b-520566ef494d","ios":"levelo://app?vid=55a3acda-1cbe-410b-929b-520566ef494d"},"vehicle_type_id":"4","last_reported":1679134019,"current_range_meters":26800,"station_id":"ce4bgs92rcd13ifvqcc0","pricing_plan_id":"free"},{"bike_id":"47a5ef5c-448f-4109-8746-80ead4b2f530","system_id":"levelo_inurba_marseille","lat":43.301429,"lon":5.37413,"is_reserved":false,"is_disabled":false,"rental_uris":{"android":"levelo://app?vid=47a5ef5c-448f-4109-8746-80ead4b2f530","ios":"levelo://app?vid=47a5ef5c-448f-4109-8746-80ead4b2f530"},"vehicle_type_id":"4","last_reported":1679134019,"current_range_meters":31600,"station_id":"ce4bgs92rcd13ifvqcc0","pricing_plan_id":"free"},{"bike_id":"967215d4-8d36-4b4b-b62b-35cb5d83f5e2","system_id":"levelo_inurba_marseille","lat":43.30143,"lon":5.37413,"is_reserved":false,"is_disabled":false,"rental_uris":{"android":"levelo://app?vid=967215d4-8d36-4b4b-b62b-35cb5d83f5e2","ios":"levelo://app?vid=967215d4-8d36-4b4b-b62b-35cb5d83f5e2"},"vehicle_type_id":"4","last_reported":1679134019,"current_range_meters":31600,"station_id":"ce4bgs92rcd13ifvqcc0","pricing_plan_id":"free"},{"bike_id":"ff2e2610-575e-49ec-b409-c53389650bc4","system_id":"levelo_inurba_marseille","lat":43.31367,"lon":5.38492,"is_reserved":false,"is_disabled":false,"rental_uris":{"android":"levelo://app?vid=ff2e2610-575e-49ec-b409-c53389650bc4","ios":"levelo://app?vid=ff2e2610-575e-49ec-b409-c53389650bc4"},"vehicle_type_id":"4","last_reported":1679134019,"current_range_meters":8000,"station_id":"","pricing_plan_id":"free"},{"bike_id":"4fbe129f-3ee9-4c44-bff0-240162cff772","system_id":"levelo_inurba_marseille","lat":43.31348,"lon":5.38505,"is_reserved":false,"is_disabled":false,"rental_uris":{"android":"levelo://app?vid=4fbe129f-3ee9-4c44-bff0-240162cff772","ios":"levelo://app?vid=4fbe129f-3ee9-4c44-bff0-240162cff772"},"vehicle_type_id":"4","last_reported":1679134019,"current_range_meters":21600,"station_id":"","pricing_plan_id":"free"},{"bike_id":"464d4bfb-cbcc-4880-8a45-d5c540d011ea","system_id":"levelo_inurba_marseille","lat":43.299094,"lon":5.365415,"is_reserved":false,"is_disabled":false,"rental_uris":{"android":"levelo://app?vid=464d4bfb-cbcc-4880-8a45-d5c540d011ea","ios":"levelo://app?vid=464d4bfb-cbcc-4880-8a45-d5c540d011ea"},"vehicle_type_id":"4","last_reported":1679134019,"current_range_meters":31600,"station_id":"ce4bgm92rcd13ifvqbr0","pricing_plan_id":"free"},{"bike_id":"8f6585ad-5434-49bb-9d11-d0c307e238cb","system_id":"levelo_inurba_marseille","lat":43.31523,"lon":5.3858,"is_reserved":false,"is_disabled":false,"rental_uris":{"android":"levelo://app?vid=8f6585ad-5434-49bb-9d11-d0c307e238cb","ios":"levelo://app?vid=8f6585ad-5434-49bb-9d11-d0c307e238cb"},"vehicle_type_id":"4","last_reported":1679134019,"current_range_meters":0,"station_id":"","pricing_plan_id":"free"},{"bike_id":"4eee1518-13f1-42d3-a976-3b1fa2bcd9f2","system_id":"levelo_inurba_marseille","lat":43.305364,"lon":5.384119,"is_reserved":false,"is_disabled":false,"rental_uris":{"android":"levelo://app?vid=4eee1518-13f1-42d3-a976-3b1fa2bcd9f2","ios":"levelo://app?vid=4eee1518-13f1-42d3-a976-3b1fa2bcd9f2"},"vehicle_type_id":"4","last_reported":1679134019,"current_range_meters":13600,"station_id":"ce4bgg92rcd13ifvqb30","pricing_plan_id":"free"},{"bike_id":"455b0d6d-b4b0-432a-9d5f-396abaa183dd","system_id":"levelo_inurba_marseille","lat":43.305364,"lon":5.384119,"is_reserved":false,"is_disabled":false,"rental_uris":{"android":"levelo://app?vid=455b0d6d-b4b0-432a-9d5f-396abaa183dd","ios":"levelo://app?vid=455b0d6d-b4b0-432a-9d5f-396abaa183dd"},"vehicle_type_id":"4","last_reported":1679134019,"current_range_meters":31600,"station_id":"ce4bgg92rcd13ifvqb30","pricing_plan_id":"free"},{"bike_id":"2d92e8ea-7706-40bd-9164-f5c3b79aad09","system_id":"levelo_inurba_marseille","lat":43.298433,"lon":5.362774,"is_reserved":false,"is_disabled":false,"rental_uris":{"android":"levelo://app?vid=2d92e8ea-7706-40bd-9164-f5c3b79aad09","ios":"levelo://app?vid=2d92e8ea-7706-40bd-9164-f5c3b79aad09"},"vehicle_type_id":"4","last_reported":1679134019,"current_range_meters":30800,"station_id":"ce4bgpp2rcd13ifvqc3g","pricing_plan_id":"free"},{"bike_id":"51b7dfab-188d-4dd3-b5fa-37db1908386f","system_id":"levelo_inurba_marseille","lat":43.298433,"lon":5.362774,"is_reserved":false,"is_disabled":false,"rental_uris":{"android":"levelo://app?vid=51b7dfab-188d-4dd3-b5fa-37db1908386f","ios":"levelo://app?vid=51b7dfab-188d-4dd3-b5fa-37db1908386f"},"vehicle_type_id":"4","last_reported":1679134019,"current_range_meters":800,"station_id":"ce4bgpp2rcd13ifvqc3g","pricing_plan_id":"free"},{"bike_id":"ba114c7c-f7d7-49b2-acfc-ec7161aa4fc0","system_id":"levelo_inurba_marseille","lat":43.311722,"lon":5.387247,"is_reserved":false,"is_disabled":false,"rental_uris":{"android":"levelo://app?vid=ba114c7c-f7d7-49b2-acfc-ec7161aa4fc0","ios":"levelo://app?vid=ba114c7c-f7d7-49b2-acfc-ec7161aa4fc0"},"vehicle_type_id":"4","last_reported":1679134019,"current_range_meters":22800,"station_id":"ce4bgv12rcd13ifvqcp0","pricing_plan_id":"free"},{"bike_id":"a508872a-9d97-4b5b-bcba-f7157ec2aa37","system_id":"levelo_inurba_marseille","lat":43.298433,"lon":5.362774,"is_reserved":false,"is_disabled":false,"rental_uris":{"android":"levelo://app?vid=a508872a-9d97-4b5b-bcba-f7157ec2aa37","ios":"levelo://app?vid=a508872a-9d97-4b5b-bcba-f7157ec2aa37"},"vehicle_type_id":"4","last_reported":1679134019,"current_range_meters":5200,"station_id":"ce4bgpp2rcd13ifvqc3g","pricing_plan_id":"free"},{"bike_id":"3a3dc792-503d-495a-b957-bc419db73ab3","system_id":"levelo_inurba_marseille","lat":43.299243,"lon":5.374807,"is_reserved":false,"is_disabled":false,"rental_uris":{"android":"levelo://app?vid=3a3dc792-503d-495a-b957-bc419db73ab3","ios":"levelo://app?vid=3a3dc792-503d-495a-b957-bc419db73ab3"},"vehicle_type_id":"4","last_reported":1679134019,"current_range_meters":14800,"station_id":"ce4bgjh2rcd13ifvqbg0","pricing_plan_id":"free"},{"bike_id":"a8870438-2856-4fc6-a175-bc1ece7b5ac4","system_id":"levelo_inurba_marseille","lat":43.299243,"lon":5.374807,"is_reserved":false,"is_disabled":false,"rental_uris":{"android":"levelo://app?vid=a8870438-2856-4fc6-a175-bc1ece7b5ac4","ios":"levelo://app?vid=a8870438-2856-4fc6-a175-bc1ece7b5ac4"},"vehicle_type_id":"4","last_reported":1679134019,"current_range_meters":29600,"station_id":"ce4bgjh2rcd13ifvqbg0","pricing_plan_id":"free"},{"bike_id":"3998b253-cb56-4f44-8594-477ac1b5c3c6","system_id":"levelo_inurba_marseille","lat":43.299243,"lon":5.374807,"is_reserved":false,"is_disabled":false,"rental_uris":{"android":"levelo://app?vid=3998b253-cb56-4f44-8594-477ac1b5c3c6","ios":"levelo://app?vid=3998b253-cb56-4f44-8594-477ac1b5c3c6"},"vehicle_type_id":"4","last_reported":1679134019,"current_range_meters":19200,"station_id":"ce4bgjh2rcd13ifvqbg0","pricing_plan_id":"free"},{"bike_id":"155cb80a-aa64-4be9-8b89-8fe675ee2ffa","system_id":"levelo_inurba_marseille","lat":43.297794,"lon":5.370888,"is_reserved":false,"is_disabled":false,"rental_uris":{"android":"levelo://app?vid=155cb80a-aa64-4be9-8b89-8fe675ee2ffa","ios":"levelo://app?vid=155cb80a-aa64-4be9-8b89-8fe675ee2ffa"},"vehicle_type_id":"4","last_reported":1679134019,"current_range_meters":18000,"station_id":"ce4bgop2rcd13ifvqc1g","pricing_plan_id":"free"},{"bike_id":"98387c0e-78cc-4deb-990f-611eab5ee203","system_id":"levelo_inurba_marseille","lat":43.297819,"lon":5.371108,"is_reserved":false,"is_disabled":false,"rental_uris":{"android":"levelo://app?vid=98387c0e-78cc-4deb-990f-611eab5ee203","ios":"levelo://app?vid=98387c0e-78cc-4deb-990f-611eab5ee203"},"vehicle_type_id":"4","last_reported":1679134019,"current_range_meters":0,"station_id":"ce4bgop2rcd13ifvqc1g","pricing_plan_id":"free"},{"bike_id":"716cab1a-6f99-44e2-b866-f370620642fe","system_id":"levelo_inurba_marseille","lat":43.296131,"lon":5.370791,"is_reserved":false,"is_disabled":false,"rental_uris":{"android":"levelo://app?vid=716cab1a-6f99-44e2-b866-f370620642fe","ios":"levelo://app?vid=716cab1a-6f99-44e2-b866-f370620642fe"},"vehicle_type_id":"4","last_reported":1679134019,"current_range_meters":18400,"station_id":"ce4bgnh2rcd13ifvqc0g","pricing_plan_id":"free"},{"bike_id":"51e479e5-8d68-4924-9629-0898f6a90537","system_id":"levelo_inurba_marseille","lat":43.296131,"lon":5.370791,"is_reserved":false,"is_disabled":false,"rental_uris":{"android":"levelo://app?vid=51e479e5-8d68-4924-9629-0898f6a90537","ios":"levelo://app?vid=51e479e5-8d68-4924-9629-0898f6a90537"},"vehicle_type_id":"4","last_reported":1679134019,"current_range_meters":31200,"station_id":"ce4bgnh2rcd13ifvqc0g","pricing_plan_id":"free"},{"bike_id":"ac8165b6-bbd4-47a5-b3a9-0ac2de3cba4e","system_id":"levelo_inurba_marseille","lat":43.29573,"lon":5.367355,"is_reserved":false,"is_disabled":false,"rental_uris":{"android":"levelo://app?vid=ac8165b6-bbd4-47a5-b3a9-0ac2de3cba4e","ios":"levelo://app?vid=ac8165b6-bbd4-47a5-b3a9-0ac2de3cba4e"},"vehicle_type_id":"4","last_reported":1679134019,"current_range_meters":28000,"station_id":"ce4bgph2rcd13ifvqc2g","pricing_plan_id":"free"},{"bike_id":"25a0d29f-8944-4cef-925b-43215b798a9c","system_id":"levelo_inurba_marseille","lat":43.29573,"lon":5.367355,"is_reserved":false,"is_disabled":false,"rental_uris":{"android":"levelo://app?vid=25a0d29f-8944-4cef-925b-43215b798a9c","ios":"levelo://app?vid=25a0d29f-8944-4cef-925b-43215b798a9c"},"vehicle_type_id":"4","last_reported":1679134019,"current_range_meters":31600,"station_id":"ce4bgph2rcd13ifvqc2g","pricing_plan_id":"free"},{"bike_id":"09f3ac46-f53c-4054-8008-780b2ededb2f","system_id":"levelo_inurba_marseille","lat":43.29573,"lon":5.367355,"is_reserved":false,"is_disabled":false,"rental_uris":{"android":"levelo://app?vid=09f3ac46-f53c-4054-8008-780b2ededb2f","ios":"levelo://app?vid=09f3ac46-f53c-4054-8008-780b2ededb2f"},"vehicle_type_id":"4","last_reported":1679134019,"current_range_meters":28400,"station_id":"ce4bgph2rcd13ifvqc2g","pricing_plan_id":"free"},{"bike_id":"20492a8c-7ae3-4d5f-a0bc-b602484ce536","system_id":"levelo_inurba_marseille","lat":43.29573,"lon":5.367355,"is_reserved":false,"is_disabled":false,"rental_uris":{"android":"levelo://app?vid=20492a8c-7ae3-4d5f-a0bc-b602484ce536","ios":"levelo://app?vid=20492a8c-7ae3-4d5f-a0bc-b602484ce536"},"vehicle_type_id":"4","last_reported":1679134019,"current_range_meters":31600,"station_id":"ce4bgph2rcd13ifvqc2g","pricing_plan_id":"free"},{"bike_id":"d002ed42-b06c-4c72-897e-e4fc16e9b300","system_id":"levelo_inurba_marseille","lat":43.29573,"lon":5.367355,"is_reserved":false,"is_disabled":false,"rental_uris":{"android":"levelo://app?vid=d002ed42-b06c-4c72-897e-e4fc16e9b300","ios":"levelo://app?vid=d002ed42-b06c-4c72-897e-e4fc16e9b300"},"vehicle_type_id":"4","last_reported":1679134019,"current_range_meters":16400,"station_id":"ce4bgph2rcd13ifvqc2g","pricing_plan_id":"free"},{"bike_id":"405df897-bf5a-4dcb-8f5f-70192c61f116","system_id":"levelo_inurba_marseille","lat":43.296921,"lon":5.376579,"is_reserved":false,"is_disabled":false,"rental_uris":{"android":"levelo://app?vid=405df897-bf5a-4dcb-8f5f-70192c61f116","ios":"levelo://app?vid=405df897-bf5a-4dcb-8f5f-70192c61f116"},"vehicle_type_id":"4","last_reported":1679134019,"current_range_meters":11200,"station_id":"ce4bgkh2rcd13ifvqbl0","pricing_plan_id":"free"},{"bike_id":"66017a68-f4b0-43e1-b69d-4d55b826fcbe","system_id":"levelo_inurba_marseille","lat":43.317557,"lon":5.390173,"is_reserved":false,"is_disabled":false,"rental_uris":{"android":"levelo://app?vid=66017a68-f4b0-43e1-b69d-4d55b826fcbe","ios":"levelo://app?vid=66017a68-f4b0-43e1-b69d-4d55b826fcbe"},"vehicle_type_id":"4","last_reported":1679134019,"current_range_meters":26400,"station_id":"ce4bhqp2rcd13ifvqhng","pricing_plan_id":"free"},{"bike_id":"02f93a76-c55f-4f6b-8202-b139cae6a9a5","system_id":"levelo_inurba_marseille","lat":43.317557,"lon":5.390173,"is_reserved":false,"is_disabled":false,"rental_uris":{"android":"levelo://app?vid=02f93a76-c55f-4f6b-8202-b139cae6a9a5","ios":"levelo://app?vid=02f93a76-c55f-4f6b-8202-b139cae6a9a5"},"vehicle_type_id":"4","last_reported":1679134019,"current_range_meters":21600,"station_id":"ce4bhqp2rcd13ifvqhng","pricing_plan_id":"free"},{"bike_id":"4dafff6b-9621-4e2b-86a4-abd86b4f6566","system_id":"levelo_inurba_marseille","lat":43.3176,"lon":5.39017,"is_reserved":false,"is_disabled":false,"rental_uris":{"android":"levelo://app?vid=4dafff6b-9621-4e2b-86a4-abd86b4f6566","ios":"levelo://app?vid=4dafff6b-9621-4e2b-86a4-abd86b4f6566"},"vehicle_type_id":"4","last_reported":1679134019,"current_range_meters":0,"station_id":"ce4bhqp2rcd13ifvqhng","pricing_plan_id":"free"},{"bike_id":"0dd82044-24a0-4753-a67a-2ac8767c190a","system_id":"levelo_inurba_marseille","lat":43.317557,"lon":5.390173,"is_reserved":false,"is_disabled":false,"rental_uris":{"android":"levelo://app?vid=0dd82044-24a0-4753-a67a-2ac8767c190a","ios":"levelo://app?vid=0dd82044-24a0-4753-a67a-2ac8767c190a"},"vehicle_type_id":"4","last_reported":1679134019,"current_range_meters":30000,"station_id":"ce4bhqp2rcd13ifvqhng","pricing_plan_id":"free"},{"bike_id":"feb4cf67-ee90-4622-a072-eceb92bf9521","system_id":"levelo_inurba_marseille","lat":43.298037,"lon":5.381066,"is_reserved":false,"is_disabled":false,"rental_uris":{"android":"levelo://app?vid=feb4cf67-ee90-4622-a072-eceb92bf9521","ios":"levelo://app?vid=feb4cf67-ee90-4622-a072-eceb92bf9521"},"vehicle_type_id":"4","last_reported":1679134019,"current_range_meters":22400,"station_id":"ce4bgip2rcd13ifvqbb0","pricing_plan_id":"free"},{"bike_id":"ccee9088-0467-47f3-afd0-7f6ddf4fa2b1","system_id":"levelo_inurba_marseille","lat":43.298037,"lon":5.381066,"is_reserved":false,"is_disabled":false,"rental_uris":{"android":"levelo://app?vid=ccee9088-0467-47f3-afd0-7f6ddf4fa2b1","ios":"levelo://app?vid=ccee9088-0467-47f3-afd0-7f6ddf4fa2b1"},"vehicle_type_id":"4","last_reported":1679134019,"current_range_meters":28800,"station_id":"ce4bgip2rcd13ifvqbb0","pricing_plan_id":"free"},{"bike_id":"ed3e8e14-9e11-4e5c-a777-2f3ab96a55da","system_id":"levelo_inurba_marseille","lat":43.299724,"lon":5.384848,"is_reserved":false,"is_disabled":false,"rental_uris":{"android":"levelo://app?vid=ed3e8e14-9e11-4e5c-a777-2f3ab96a55da","ios":"levelo://app?vid=ed3e8e14-9e11-4e5c-a777-2f3ab96a55da"},"vehicle_type_id":"4","last_reported":1679134019,"current_range_meters":19600,"station_id":"ce4bgj92rcd13ifvqbd0","pricing_plan_id":"free"},{"bike_id":"5971bedb-4e55-4cca-a827-15c1c85bce63","system_id":"levelo_inurba_marseille","lat":43.299662,"lon":5.384972,"is_reserved":false,"is_disabled":false,"rental_uris":{"android":"levelo://app?vid=5971bedb-4e55-4cca-a827-15c1c85bce63","ios":"levelo://app?vid=5971bedb-4e55-4cca-a827-15c1c85bce63"},"vehicle_type_id":"4","last_reported":1679134019,"current_range_meters":0,"station_id":"ce4bgj92rcd13ifvqbd0","pricing_plan_id":"free"},{"bike_id":"0697f7c4-7ca8-4885-ad60-f38638fd912d","system_id":"levelo_inurba_marseille","lat":43.32367,"lon":5.388836,"is_reserved":false,"is_disabled":false,"rental_uris":{"android":"levelo://app?vid=0697f7c4-7ca8-4885-ad60-f38638fd912d","ios":"levelo://app?vid=0697f7c4-7ca8-4885-ad60-f38638fd912d"},"vehicle_type_id":"4","last_reported":1679134019,"current_range_meters":18800,"station_id":"ce4bhqp2rcd13ifvqhog","pricing_plan_id":"free"},{"bike_id":"4ba5fdc8-8e11-4427-81b7-6eab3e472283","system_id":"levelo_inurba_marseille","lat":43.29327,"lon":5.37114,"is_reserved":false,"is_disabled":false,"rental_uris":{"android":"levelo://app?vid=4ba5fdc8-8e11-4427-81b7-6eab3e472283","ios":"levelo://app?vid=4ba5fdc8-8e11-4427-81b7-6eab3e472283"},"vehicle_type_id":"4","last_reported":1679134019,"current_range_meters":22800,"station_id":"","pricing_plan_id":"free"},{"bike_id":"0474e54e-e46c-492b-88a0-c26758345b61","system_id":"levelo_inurba_marseille","lat":43.29306,"lon":5.37441,"is_reserved":false,"is_disabled":false,"rental_uris":{"android":"levelo://app?vid=0474e54e-e46c-492b-88a0-c26758345b61","ios":"levelo://app?vid=0474e54e-e46c-492b-88a0-c26758345b61"},"vehicle_type_id":"4","last_reported":1679134019,"current_range_meters":0,"station_id":"ce4bgi12rcd13ifvqb70","pricing_plan_id":"free"},{"bike_id":"e0bc3a7e-c416-4e0d-adb5-7768306b6b24","system_id":"levelo_inurba_marseille","lat":43.29378,"lon":5.378335,"is_reserved":false,"is_disabled":false,"rental_uris":{"android":"levelo://app?vid=e0bc3a7e-c416-4e0d-adb5-7768306b6b24","ios":"levelo://app?vid=e0bc3a7e-c416-4e0d-adb5-7768306b6b24"},"vehicle_type_id":"4","last_reported":1679134019,"current_range_meters":14400,"station_id":"ce4bgjh2rcd13ifvqbf0","pricing_plan_id":"free"},{"bike_id":"f218707e-e0e5-49b7-b175-1d6a90ed2777","system_id":"levelo_inurba_marseille","lat":43.2936,"lon":5.37835,"is_reserved":false,"is_disabled":false,"rental_uris":{"android":"levelo://app?vid=f218707e-e0e5-49b7-b175-1d6a90ed2777","ios":"levelo://app?vid=f218707e-e0e5-49b7-b175-1d6a90ed2777"},"vehicle_type_id":"4","last_reported":1679134019,"current_range_meters":6000,"station_id":"ce4bgjh2rcd13ifvqbf0","pricing_plan_id":"free"},{"bike_id":"d7f732b6-2ab9-4ea0-bd06-a7e43015c39f","system_id":"levelo_inurba_marseille","lat":43.2936,"lon":5.37835,"is_reserved":false,"is_disabled":false,"rental_uris":{"android":"levelo://app?vid=d7f732b6-2ab9-4ea0-bd06-a7e43015c39f","ios":"levelo://app?vid=d7f732b6-2ab9-4ea0-bd06-a7e43015c39f"},"vehicle_type_id":"4","last_reported":1679134019,"current_range_meters":29200,"station_id":"ce4bgjh2rcd13ifvqbf0","pricing_plan_id":"free"},{"bike_id":"47df26f4-4325-41a8-8082-f7506d83557c","system_id":"levelo_inurba_marseille","lat":43.292311,"lon":5.360731,"is_reserved":false,"is_disabled":false,"rental_uris":{"android":"levelo://app?vid=47df26f4-4325-41a8-8082-f7506d83557c","ios":"levelo://app?vid=47df26f4-4325-41a8-8082-f7506d83557c"},"vehicle_type_id":"4","last_reported":1679134019,"current_range_meters":25600,"station_id":"ce4bhbh2rcd13ifvqeqg","pricing_plan_id":"free"},{"bike_id":"38960917-4bc4-4c19-a83d-a7514a869020","system_id":"levelo_inurba_marseille","lat":43.292311,"lon":5.360731,"is_reserved":false,"is_disabled":false,"rental_uris":{"android":"levelo://app?vid=38960917-4bc4-4c19-a83d-a7514a869020","ios":"levelo://app?vid=38960917-4bc4-4c19-a83d-a7514a869020"},"vehicle_type_id":"4","last_reported":1679134019,"current_range_meters":31200,"station_id":"ce4bhbh2rcd13ifvqeqg","pricing_plan_id":"free"},{"bike_id":"e4eddc37-0919-41b7-a793-697bd7dc7ed1","system_id":"levelo_inurba_marseille","lat":43.292311,"lon":5.360731,"is_reserved":false,"is_disabled":false,"rental_uris":{"android":"levelo://app?vid=e4eddc37-0919-41b7-a793-697bd7dc7ed1","ios":"levelo://app?vid=e4eddc37-0919-41b7-a793-697bd7dc7ed1"},"vehicle_type_id":"4","last_reported":1679134019,"current_range_meters":27600,"station_id":"ce4bhbh2rcd13ifvqeqg","pricing_plan_id":"free"},{"bike_id":"81332887-bb65-478d-898e-c16209d3e18e","system_id":"levelo_inurba_marseille","lat":43.29227,"lon":5.36054,"is_reserved":false,"is_disabled":false,"rental_uris":{"android":"levelo://app?vid=81332887-bb65-478d-898e-c16209d3e18e","ios":"levelo://app?vid=81332887-bb65-478d-898e-c16209d3e18e"},"vehicle_type_id":"4","last_reported":1679134019,"current_range_meters":24400,"station_id":"ce4bhbh2rcd13ifvqeqg","pricing_plan_id":"free"},{"bike_id":"73db3ffd-e5a1-4bc0-b829-dd3f2a4624e1","system_id":"levelo_inurba_marseille","lat":43.292311,"lon":5.360731,"is_reserved":false,"is_disabled":false,"rental_uris":{"android":"levelo://app?vid=73db3ffd-e5a1-4bc0-b829-dd3f2a4624e1","ios":"levelo://app?vid=73db3ffd-e5a1-4bc0-b829-dd3f2a4624e1"},"vehicle_type_id":"4","last_reported":1679134019,"current_range_meters":13600,"station_id":"ce4bhbh2rcd13ifvqeqg","pricing_plan_id":"free"},{"bike_id":"2cf74bd7-eaf9-4861-957e-94c6a02a153d","system_id":"levelo_inurba_marseille","lat":43.291675,"lon":5.371583,"is_reserved":false,"is_disabled":false,"rental_uris":{"android":"levelo://app?vid=2cf74bd7-eaf9-4861-957e-94c6a02a153d","ios":"levelo://app?vid=2cf74bd7-eaf9-4861-957e-94c6a02a153d"},"vehicle_type_id":"4","last_reported":1679134019,"current_range_meters":8000,"station_id":"ce4bha92rcd13ifvqeh0","pricing_plan_id":"free"},{"bike_id":"1a0e49e9-99b2-499f-bba4-9f0dd07fe4ef","system_id":"levelo_inurba_marseille","lat":43.29529,"lon":5.385581,"is_reserved":false,"is_disabled":false,"rental_uris":{"android":"levelo://app?vid=1a0e49e9-99b2-499f-bba4-9f0dd07fe4ef","ios":"levelo://app?vid=1a0e49e9-99b2-499f-bba4-9f0dd07fe4ef"},"vehicle_type_id":"4","last_reported":1679134019,"current_range_meters":22800,"station_id":"ce4bgih2rcd13ifvqba0","pricing_plan_id":"free"},{"bike_id":"e1b317c8-b00c-4116-9934-d8fdc391b5d0","system_id":"levelo_inurba_marseille","lat":43.298764,"lon":5.388973,"is_reserved":false,"is_disabled":false,"rental_uris":{"android":"levelo://app?vid=e1b317c8-b00c-4116-9934-d8fdc391b5d0","ios":"levelo://app?vid=e1b317c8-b00c-4116-9934-d8fdc391b5d0"},"vehicle_type_id":"4","last_reported":1679134019,"current_range_meters":30800,"station_id":"ce4bh392rcd13ifvqdl0","pricing_plan_id":"free"},{"bike_id":"486beaed-628f-4bcc-ba3b-e0de696bd3dc","system_id":"levelo_inurba_marseille","lat":43.322109,"lon":5.394238,"is_reserved":false,"is_disabled":false,"rental_uris":{"android":"levelo://app?vid=486beaed-628f-4bcc-ba3b-e0de696bd3dc","ios":"levelo://app?vid=486beaed-628f-4bcc-ba3b-e0de696bd3dc"},"vehicle_type_id":"4","last_reported":1679134019,"current_range_meters":11200,"station_id":"","pricing_plan_id":"free"},{"bike_id":"8cb84b77-3d6e-4959-94c2-76d87494004b","system_id":"levelo_inurba_marseille","lat":43.29529,"lon":5.385581,"is_reserved":false,"is_disabled":false,"rental_uris":{"android":"levelo://app?vid=8cb84b77-3d6e-4959-94c2-76d87494004b","ios":"levelo://app?vid=8cb84b77-3d6e-4959-94c2-76d87494004b"},"vehicle_type_id":"4","last_reported":1679134019,"current_range_meters":25600,"station_id":"ce4bgih2rcd13ifvqba0","pricing_plan_id":"free"},{"bike_id":"c73bdc3a-4839-4868-9e94-654e91b81fa1","system_id":"levelo_inurba_marseille","lat":43.294162,"lon":5.386292,"is_reserved":false,"is_disabled":false,"rental_uris":{"android":"levelo://app?vid=c73bdc3a-4839-4868-9e94-654e91b81fa1","ios":"levelo://app?vid=c73bdc3a-4839-4868-9e94-654e91b81fa1"},"vehicle_type_id":"4","last_reported":1679134019,"current_range_meters":24800,"station_id":"ce4bh2h2rcd13ifvqdh0","pricing_plan_id":"free"},{"bike_id":"fb61b3be-5e22-42d5-8cb6-fcf2cc23418d","system_id":"levelo_inurba_marseille","lat":43.294153,"lon":5.386344,"is_reserved":false,"is_disabled":false,"rental_uris":{"android":"levelo://app?vid=fb61b3be-5e22-42d5-8cb6-fcf2cc23418d","ios":"levelo://app?vid=fb61b3be-5e22-42d5-8cb6-fcf2cc23418d"},"vehicle_type_id":"4","last_reported":1679134019,"current_range_meters":0,"station_id":"ce4bh2h2rcd13ifvqdh0","pricing_plan_id":"free"},{"bike_id":"b799def0-bf00-4409-9ba7-8bddf8c3051d","system_id":"levelo_inurba_marseille","lat":43.330442,"lon":5.389148,"is_reserved":false,"is_disabled":false,"rental_uris":{"android":"levelo://app?vid=b799def0-bf00-4409-9ba7-8bddf8c3051d","ios":"levelo://app?vid=b799def0-bf00-4409-9ba7-8bddf8c3051d"},"vehicle_type_id":"4","last_reported":1679134019,"current_range_meters":30000,"station_id":"ce4bhr92rcd13ifvqhrg","pricing_plan_id":"free"},{"bike_id":"23ea9f68-ae8c-426e-bd80-5d4f6a9bb37d","system_id":"levelo_inurba_marseille","lat":43.330442,"lon":5.389148,"is_reserved":false,"is_disabled":false,"rental_uris":{"android":"levelo://app?vid=23ea9f68-ae8c-426e-bd80-5d4f6a9bb37d","ios":"levelo://app?vid=23ea9f68-ae8c-426e-bd80-5d4f6a9bb37d"},"vehicle_type_id":"4","last_reported":1679134019,"current_range_meters":16800,"station_id":"ce4bhr92rcd13ifvqhrg","pricing_plan_id":"free"},{"bike_id":"d74aa3e9-0c22-406f-a29f-3cd2f43e1816","system_id":"levelo_inurba_marseille","lat":43.330442,"lon":5.389148,"is_reserved":false,"is_disabled":false,"rental_uris":{"android":"levelo://app?vid=d74aa3e9-0c22-406f-a29f-3cd2f43e1816","ios":"levelo://app?vid=d74aa3e9-0c22-406f-a29f-3cd2f43e1816"},"vehicle_type_id":"4","last_reported":1679134019,"current_range_meters":16400,"station_id":"ce4bhr92rcd13ifvqhrg","pricing_plan_id":"free"},{"bike_id":"bb3b3cee-b3de-4952-b882-fa911f225f43","system_id":"levelo_inurba_marseille","lat":43.330442,"lon":5.389148,"is_reserved":false,"is_disabled":false,"rental_uris":{"android":"levelo://app?vid=bb3b3cee-b3de-4952-b882-fa911f225f43","ios":"levelo://app?vid=bb3b3cee-b3de-4952-b882-fa911f225f43"},"vehicle_type_id":"4","last_reported":1679134019,"current_range_meters":31600,"station_id":"ce4bhr92rcd13ifvqhrg","pricing_plan_id":"free"},{"bike_id":"524de86b-2883-4a80-b759-f083c92aa20c","system_id":"levelo_inurba_marseille","lat":43.330442,"lon":5.389148,"is_reserved":false,"is_disabled":false,"rental_uris":{"android":"levelo://app?vid=524de86b-2883-4a80-b759-f083c92aa20c","ios":"levelo://app?vid=524de86b-2883-4a80-b759-f083c92aa20c"},"vehicle_type_id":"4","last_reported":1679134019,"current_range_meters":8800,"station_id":"ce4bhr92rcd13ifvqhrg","pricing_plan_id":"free"},{"bike_id":"c69afdb3-4f0f-4cb6-a387-4969a018dbf0","system_id":"levelo_inurba_marseille","lat":43.330442,"lon":5.389148,"is_reserved":false,"is_disabled":false,"rental_uris":{"android":"levelo://app?vid=c69afdb3-4f0f-4cb6-a387-4969a018dbf0","ios":"levelo://app?vid=c69afdb3-4f0f-4cb6-a387-4969a018dbf0"},"vehicle_type_id":"4","last_reported":1679134019,"current_range_meters":22000,"station_id":"ce4bhr92rcd13ifvqhrg","pricing_plan_id":"free"},{"bike_id":"40fa3a1a-2ecc-435c-868f-43dec3f32230","system_id":"levelo_inurba_marseille","lat":43.330442,"lon":5.389148,"is_reserved":false,"is_disabled":false,"rental_uris":{"android":"levelo://app?vid=40fa3a1a-2ecc-435c-868f-43dec3f32230","ios":"levelo://app?vid=40fa3a1a-2ecc-435c-868f-43dec3f32230"},"vehicle_type_id":"4","last_reported":1679134019,"current_range_meters":21200,"station_id":"ce4bhr92rcd13ifvqhrg","pricing_plan_id":"free"},{"bike_id":"15872149-795b-438e-94f8-c02167b5478e","system_id":"levelo_inurba_marseille","lat":43.290995,"lon":5.381361,"is_reserved":false,"is_disabled":false,"rental_uris":{"android":"levelo://app?vid=15872149-795b-438e-94f8-c02167b5478e","ios":"levelo://app?vid=15872149-795b-438e-94f8-c02167b5478e"},"vehicle_type_id":"4","last_reported":1679134019,"current_range_meters":23600,"station_id":"ce4bh512rcd13ifvqe2g","pricing_plan_id":"free"},{"bike_id":"122077c4-1d67-4438-b704-b62aec810677","system_id":"levelo_inurba_marseille","lat":43.291016,"lon":5.38145,"is_reserved":false,"is_disabled":false,"rental_uris":{"android":"levelo://app?vid=122077c4-1d67-4438-b704-b62aec810677","ios":"levelo://app?vid=122077c4-1d67-4438-b704-b62aec810677"},"vehicle_type_id":"4","last_reported":1679134019,"current_range_meters":0,"station_id":"ce4bh512rcd13ifvqe2g","pricing_plan_id":"free"},{"bike_id":"ee597fb4-fbd3-4574-b072-2fdb1477d514","system_id":"levelo_inurba_marseille","lat":43.290995,"lon":5.381361,"is_reserved":false,"is_disabled":false,"rental_uris":{"android":"levelo://app?vid=ee597fb4-fbd3-4574-b072-2fdb1477d514","ios":"levelo://app?vid=ee597fb4-fbd3-4574-b072-2fdb1477d514"},"vehicle_type_id":"4","last_reported":1679134019,"current_range_meters":27600,"station_id":"ce4bh512rcd13ifvqe2g","pricing_plan_id":"free"},{"bike_id":"f0888a5d-8469-4a4a-aa32-e51183159fbe","system_id":"levelo_inurba_marseille","lat":43.337437,"lon":5.374608,"is_reserved":false,"is_disabled":false,"rental_uris":{"android":"levelo://app?vid=f0888a5d-8469-4a4a-aa32-e51183159fbe","ios":"levelo://app?vid=f0888a5d-8469-4a4a-aa32-e51183159fbe"},"vehicle_type_id":"4","last_reported":1679134019,"current_range_meters":12000,"station_id":"","pricing_plan_id":"free"},{"bike_id":"97a70748-85a2-4139-aa8d-3426ee2a5b86","system_id":"levelo_inurba_marseille","lat":43.337501,"lon":5.374448,"is_reserved":false,"is_disabled":false,"rental_uris":{"android":"levelo://app?vid=97a70748-85a2-4139-aa8d-3426ee2a5b86","ios":"levelo://app?vid=97a70748-85a2-4139-aa8d-3426ee2a5b86"},"vehicle_type_id":"4","last_reported":1679134019,"current_range_meters":0,"station_id":"","pricing_plan_id":"free"},{"bike_id":"3691d997-1cad-46ed-b7e6-586680d35f2f","system_id":"levelo_inurba_marseille","lat":43.337476,"lon":5.374746,"is_reserved":false,"is_disabled":false,"rental_uris":{"android":"levelo://app?vid=3691d997-1cad-46ed-b7e6-586680d35f2f","ios":"levelo://app?vid=3691d997-1cad-46ed-b7e6-586680d35f2f"},"vehicle_type_id":"4","last_reported":1679134019,"current_range_meters":22400,"station_id":"","pricing_plan_id":"free"},{"bike_id":"f3e60a9c-2b74-43cb-ac11-5dfafdbb73c0","system_id":"levelo_inurba_marseille","lat":43.337554,"lon":5.374615,"is_reserved":false,"is_disabled":false,"rental_uris":{"android":"levelo://app?vid=f3e60a9c-2b74-43cb-ac11-5dfafdbb73c0","ios":"levelo://app?vid=f3e60a9c-2b74-43cb-ac11-5dfafdbb73c0"},"vehicle_type_id":"4","last_reported":1679134019,"current_range_meters":27200,"station_id":"","pricing_plan_id":"free"},{"bike_id":"26955271-acee-402a-9912-2c64dcb60d54","system_id":"levelo_inurba_marseille","lat":43.301117,"lon":5.398795,"is_reserved":false,"is_disabled":false,"rental_uris":{"android":"levelo://app?vid=26955271-acee-402a-9912-2c64dcb60d54","ios":"levelo://app?vid=26955271-acee-402a-9912-2c64dcb60d54"},"vehicle_type_id":"4","last_reported":1679134019,"current_range_meters":19200,"station_id":"ce4bh0h2rcd13ifvqd40","pricing_plan_id":"free"},{"bike_id":"67e5abe4-6716-47cf-9ed1-ac7ffbe23b66","system_id":"levelo_inurba_marseille","lat":43.29546,"lon":5.39398,"is_reserved":false,"is_disabled":false,"rental_uris":{"android":"levelo://app?vid=67e5abe4-6716-47cf-9ed1-ac7ffbe23b66","ios":"levelo://app?vid=67e5abe4-6716-47cf-9ed1-ac7ffbe23b66"},"vehicle_type_id":"4","last_reported":1679134019,"current_range_meters":25200,"station_id":"ce4bh212rcd13ifvqde0","pricing_plan_id":"free"},{"bike_id":"7d8123dd-d5d0-4bc1-b347-f4b12a3175c2","system_id":"levelo_inurba_marseille","lat":43.300728,"lon":5.399558,"is_reserved":false,"is_disabled":false,"rental_uris":{"android":"levelo://app?vid=7d8123dd-d5d0-4bc1-b347-f4b12a3175c2","ios":"levelo://app?vid=7d8123dd-d5d0-4bc1-b347-f4b12a3175c2"},"vehicle_type_id":"4","last_reported":1679134019,"current_range_meters":0,"station_id":"","pricing_plan_id":"free"},{"bike_id":"5c11baf7-1d41-441f-a676-ca7f69505b18","system_id":"levelo_inurba_marseille","lat":43.287185,"lon":5.379373,"is_reserved":false,"is_disabled":false,"rental_uris":{"android":"levelo://app?vid=5c11baf7-1d41-441f-a676-ca7f69505b18","ios":"levelo://app?vid=5c11baf7-1d41-441f-a676-ca7f69505b18"},"vehicle_type_id":"4","last_reported":1679134019,"current_range_meters":400,"station_id":"ce4bh9p2rcd13ifvqec0","pricing_plan_id":"free"},{"bike_id":"64437c18-c8ec-4a82-84fa-226dd02b4e85","system_id":"levelo_inurba_marseille","lat":43.31642,"lon":5.40435,"is_reserved":false,"is_disabled":false,"rental_uris":{"android":"levelo://app?vid=64437c18-c8ec-4a82-84fa-226dd02b4e85","ios":"levelo://app?vid=64437c18-c8ec-4a82-84fa-226dd02b4e85"},"vehicle_type_id":"4","last_reported":1679134019,"current_range_meters":28800,"station_id":"ce4bh012rcd13ifvqd00","pricing_plan_id":"free"},{"bike_id":"9ba17943-9b60-40e6-a2f1-8ef46c90ca70","system_id":"levelo_inurba_marseille","lat":43.31647,"lon":5.40435,"is_reserved":false,"is_disabled":false,"rental_uris":{"android":"levelo://app?vid=9ba17943-9b60-40e6-a2f1-8ef46c90ca70","ios":"levelo://app?vid=9ba17943-9b60-40e6-a2f1-8ef46c90ca70"},"vehicle_type_id":"4","last_reported":1679134019,"current_range_meters":19200,"station_id":"ce4bh012rcd13ifvqd00","pricing_plan_id":"free"},{"bike_id":"516debef-fc21-4abd-9f22-13ab642323fe","system_id":"levelo_inurba_marseille","lat":43.316385,"lon":5.404396,"is_reserved":false,"is_disabled":false,"rental_uris":{"android":"levelo://app?vid=516debef-fc21-4abd-9f22-13ab642323fe","ios":"levelo://app?vid=516debef-fc21-4abd-9f22-13ab642323fe"},"vehicle_type_id":"4","last_reported":1679134019,"current_range_meters":30000,"station_id":"ce4bh012rcd13ifvqd00","pricing_plan_id":"free"},{"bike_id":"0b78fa95-996e-4416-8ef4-27f9d9ef3e48","system_id":"levelo_inurba_marseille","lat":43.32342,"lon":5.40619,"is_reserved":false,"is_disabled":false,"rental_uris":{"android":"levelo://app?vid=0b78fa95-996e-4416-8ef4-27f9d9ef3e48","ios":"levelo://app?vid=0b78fa95-996e-4416-8ef4-27f9d9ef3e48"},"vehicle_type_id":"4","last_reported":1679134019,"current_range_meters":0,"station_id":"","pricing_plan_id":"free"},{"bike_id":"7da50cf2-84b2-4cdc-90b1-294cf45698cb","system_id":"levelo_inurba_marseille","lat":43.32342,"lon":5.40619,"is_reserved":false,"is_disabled":false,"rental_uris":{"android":"levelo://app?vid=7da50cf2-84b2-4cdc-90b1-294cf45698cb","ios":"levelo://app?vid=7da50cf2-84b2-4cdc-90b1-294cf45698cb"},"vehicle_type_id":"4","last_reported":1679134019,"current_range_meters":8400,"station_id":"ce4bhq92rcd13ifvqhjg","pricing_plan_id":"free"},{"bike_id":"5f9f6a68-b7bd-4e7c-81f2-8596a29c1b98","system_id":"levelo_inurba_marseille","lat":43.32338,"lon":5.40625,"is_reserved":false,"is_disabled":false,"rental_uris":{"android":"levelo://app?vid=5f9f6a68-b7bd-4e7c-81f2-8596a29c1b98","ios":"levelo://app?vid=5f9f6a68-b7bd-4e7c-81f2-8596a29c1b98"},"vehicle_type_id":"4","last_reported":1679134019,"current_range_meters":0,"station_id":"ce4bhq92rcd13ifvqhjg","pricing_plan_id":"free"},{"bike_id":"7e0634e3-59cc-4727-8ea4-2cd38f8e49a8","system_id":"levelo_inurba_marseille","lat":43.28854,"lon":5.39303,"is_reserved":false,"is_disabled":false,"rental_uris":{"android":"levelo://app?vid=7e0634e3-59cc-4727-8ea4-2cd38f8e49a8","ios":"levelo://app?vid=7e0634e3-59cc-4727-8ea4-2cd38f8e49a8"},"vehicle_type_id":"4","last_reported":1679134019,"current_range_meters":24000,"station_id":"ce4bh2p2rcd13ifvqdi0","pricing_plan_id":"free"},{"bike_id":"153662a8-b6ac-49e6-92c1-4bfde0b5802f","system_id":"levelo_inurba_marseille","lat":43.284219,"lon":5.3497,"is_reserved":false,"is_disabled":false,"rental_uris":{"android":"levelo://app?vid=153662a8-b6ac-49e6-92c1-4bfde0b5802f","ios":"levelo://app?vid=153662a8-b6ac-49e6-92c1-4bfde0b5802f"},"vehicle_type_id":"4","last_reported":1679134019,"current_range_meters":29200,"station_id":"ce4bhbh2rcd13ifvqepg","pricing_plan_id":"free"},{"bike_id":"c0c16ab5-0888-4dea-9ef8-c133b093b0b2","system_id":"levelo_inurba_marseille","lat":43.28422,"lon":5.34985,"is_reserved":false,"is_disabled":false,"rental_uris":{"android":"levelo://app?vid=c0c16ab5-0888-4dea-9ef8-c133b093b0b2","ios":"levelo://app?vid=c0c16ab5-0888-4dea-9ef8-c133b093b0b2"},"vehicle_type_id":"4","last_reported":1679134019,"current_range_meters":24800,"station_id":"","pricing_plan_id":"free"},{"bike_id":"fed9bde1-63c4-4cee-a5c9-1152d7a2236e","system_id":"levelo_inurba_marseille","lat":43.282754,"lon":5.350519,"is_reserved":false,"is_disabled":false,"rental_uris":{"android":"levelo://app?vid=fed9bde1-63c4-4cee-a5c9-1152d7a2236e","ios":"levelo://app?vid=fed9bde1-63c4-4cee-a5c9-1152d7a2236e"},"vehicle_type_id":"4","last_reported":1679134019,"current_range_meters":20800,"station_id":"ce4bhbp2rcd13ifvqerg","pricing_plan_id":"free"},{"bike_id":"3dc6c132-a5c1-4cf4-9030-519e233abc73","system_id":"levelo_inurba_marseille","lat":43.282754,"lon":5.350519,"is_reserved":false,"is_disabled":false,"rental_uris":{"android":"levelo://app?vid=3dc6c132-a5c1-4cf4-9030-519e233abc73","ios":"levelo://app?vid=3dc6c132-a5c1-4cf4-9030-519e233abc73"},"vehicle_type_id":"4","last_reported":1679134019,"current_range_meters":26400,"station_id":"ce4bhbp2rcd13ifvqerg","pricing_plan_id":"free"},{"bike_id":"dfc837ee-65e2-4e6c-ab6d-f48f989b26d7","system_id":"levelo_inurba_marseille","lat":43.282754,"lon":5.350519,"is_reserved":false,"is_disabled":false,"rental_uris":{"android":"levelo://app?vid=dfc837ee-65e2-4e6c-ab6d-f48f989b26d7","ios":"levelo://app?vid=dfc837ee-65e2-4e6c-ab6d-f48f989b26d7"},"vehicle_type_id":"4","last_reported":1679134019,"current_range_meters":26000,"station_id":"ce4bhbp2rcd13ifvqerg","pricing_plan_id":"free"},{"bike_id":"b0dccff7-f19d-40cc-b572-de795b5bc827","system_id":"levelo_inurba_marseille","lat":43.282754,"lon":5.350519,"is_reserved":false,"is_disabled":false,"rental_uris":{"android":"levelo://app?vid=b0dccff7-f19d-40cc-b572-de795b5bc827","ios":"levelo://app?vid=b0dccff7-f19d-40cc-b572-de795b5bc827"},"vehicle_type_id":"4","last_reported":1679134019,"current_range_meters":6400,"station_id":"ce4bhbp2rcd13ifvqerg","pricing_plan_id":"free"},{"bike_id":"bd85ab80-8e47-4eaf-8252-004322c2139b","system_id":"levelo_inurba_marseille","lat":43.282754,"lon":5.350519,"is_reserved":false,"is_disabled":false,"rental_uris":{"android":"levelo://app?vid=bd85ab80-8e47-4eaf-8252-004322c2139b","ios":"levelo://app?vid=bd85ab80-8e47-4eaf-8252-004322c2139b"},"vehicle_type_id":"4","last_reported":1679134019,"current_range_meters":32000,"station_id":"ce4bhbp2rcd13ifvqerg","pricing_plan_id":"free"},{"bike_id":"fd94f329-7a13-4190-8e3c-0c1eb267c7ec","system_id":"levelo_inurba_marseille","lat":43.304188,"lon":5.412904,"is_reserved":false,"is_disabled":false,"rental_uris":{"android":"levelo://app?vid=fd94f329-7a13-4190-8e3c-0c1eb267c7ec","ios":"levelo://app?vid=fd94f329-7a13-4190-8e3c-0c1eb267c7ec"},"vehicle_type_id":"4","last_reported":1679134019,"current_range_meters":24400,"station_id":"ce4bhop2rcd13ifvqh8g","pricing_plan_id":"free"},{"bike_id":"2f032b77-131f-41ac-bb8c-c73cf83f7ea0","system_id":"levelo_inurba_marseille","lat":43.304188,"lon":5.412904,"is_reserved":false,"is_disabled":false,"rental_uris":{"android":"levelo://app?vid=2f032b77-131f-41ac-bb8c-c73cf83f7ea0","ios":"levelo://app?vid=2f032b77-131f-41ac-bb8c-c73cf83f7ea0"},"vehicle_type_id":"4","last_reported":1679134019,"current_range_meters":27200,"station_id":"ce4bhop2rcd13ifvqh8g","pricing_plan_id":"free"},{"bike_id":"45393937-dcaf-44fb-9447-7c776899be08","system_id":"levelo_inurba_marseille","lat":43.304188,"lon":5.412904,"is_reserved":false,"is_disabled":false,"rental_uris":{"android":"levelo://app?vid=45393937-dcaf-44fb-9447-7c776899be08","ios":"levelo://app?vid=45393937-dcaf-44fb-9447-7c776899be08"},"vehicle_type_id":"4","last_reported":1679134019,"current_range_meters":29600,"station_id":"ce4bhop2rcd13ifvqh8g","pricing_plan_id":"free"},{"bike_id":"be07edc5-529e-4756-b305-881d86a2d995","system_id":"levelo_inurba_marseille","lat":43.287154,"lon":5.399979,"is_reserved":false,"is_disabled":false,"rental_uris":{"android":"levelo://app?vid=be07edc5-529e-4756-b305-881d86a2d995","ios":"levelo://app?vid=be07edc5-529e-4756-b305-881d86a2d995"},"vehicle_type_id":"4","last_reported":1679134019,"current_range_meters":4400,"station_id":"ce4bho92rcd13ifvqh3g","pricing_plan_id":"free"},{"bike_id":"c34d57ec-4476-4cc1-a06c-036c66df0b9d","system_id":"levelo_inurba_marseille","lat":43.320045,"lon":5.415048,"is_reserved":false,"is_disabled":false,"rental_uris":{"android":"levelo://app?vid=c34d57ec-4476-4cc1-a06c-036c66df0b9d","ios":"levelo://app?vid=c34d57ec-4476-4cc1-a06c-036c66df0b9d"},"vehicle_type_id":"4","last_reported":1679134019,"current_range_meters":23600,"station_id":"ce4bhq92rcd13ifvqhkg","pricing_plan_id":"free"},{"bike_id":"53313bda-b6c3-49f2-9ae1-f6929bc8dab2","system_id":"levelo_inurba_marseille","lat":43.320045,"lon":5.415048,"is_reserved":false,"is_disabled":false,"rental_uris":{"android":"levelo://app?vid=53313bda-b6c3-49f2-9ae1-f6929bc8dab2","ios":"levelo://app?vid=53313bda-b6c3-49f2-9ae1-f6929bc8dab2"},"vehicle_type_id":"4","last_reported":1679134019,"current_range_meters":31600,"station_id":"ce4bhq92rcd13ifvqhkg","pricing_plan_id":"free"},{"bike_id":"0639489d-1295-4cb2-a2d6-4bb0b0fc90f6","system_id":"levelo_inurba_marseille","lat":43.320045,"lon":5.415048,"is_reserved":false,"is_disabled":false,"rental_uris":{"android":"levelo://app?vid=0639489d-1295-4cb2-a2d6-4bb0b0fc90f6","ios":"levelo://app?vid=0639489d-1295-4cb2-a2d6-4bb0b0fc90f6"},"vehicle_type_id":"4","last_reported":1679134019,"current_range_meters":31600,"station_id":"ce4bhq92rcd13ifvqhkg","pricing_plan_id":"free"},{"bike_id":"ac26a89f-860a-4ae6-aff3-af283aaa0485","system_id":"levelo_inurba_marseille","lat":43.320045,"lon":5.415048,"is_reserved":false,"is_disabled":false,"rental_uris":{"android":"levelo://app?vid=ac26a89f-860a-4ae6-aff3-af283aaa0485","ios":"levelo://app?vid=ac26a89f-860a-4ae6-aff3-af283aaa0485"},"vehicle_type_id":"4","last_reported":1679134019,"current_range_meters":30000,"station_id":"ce4bhq92rcd13ifvqhkg","pricing_plan_id":"free"},{"bike_id":"e63b7c40-45c8-4a0e-8f35-eb897d4b615f","system_id":"levelo_inurba_marseille","lat":43.320045,"lon":5.415048,"is_reserved":false,"is_disabled":false,"rental_uris":{"android":"levelo://app?vid=e63b7c40-45c8-4a0e-8f35-eb897d4b615f","ios":"levelo://app?vid=e63b7c40-45c8-4a0e-8f35-eb897d4b615f"},"vehicle_type_id":"4","last_reported":1679134019,"current_range_meters":28800,"station_id":"ce4bhq92rcd13ifvqhkg","pricing_plan_id":"free"},{"bike_id":"9d002998-c479-45f0-879d-1bd38fbf953b","system_id":"levelo_inurba_marseille","lat":43.324758,"lon":5.414345,"is_reserved":false,"is_disabled":false,"rental_uris":{"android":"levelo://app?vid=9d002998-c479-45f0-879d-1bd38fbf953b","ios":"levelo://app?vid=9d002998-c479-45f0-879d-1bd38fbf953b"},"vehicle_type_id":"4","last_reported":1679134019,"current_range_meters":11200,"station_id":"","pricing_plan_id":"free"},{"bike_id":"3e0a4efa-b5ed-4634-b603-5b6e7ea190f6","system_id":"levelo_inurba_marseille","lat":43.325233,"lon":5.414318,"is_reserved":false,"is_disabled":false,"rental_uris":{"android":"levelo://app?vid=3e0a4efa-b5ed-4634-b603-5b6e7ea190f6","ios":"levelo://app?vid=3e0a4efa-b5ed-4634-b603-5b6e7ea190f6"},"vehicle_type_id":"4","last_reported":1679134019,"current_range_meters":31600,"station_id":"ce4bhq12rcd13ifvqhhg","pricing_plan_id":"free"},{"bike_id":"3dc8ece6-ffe1-42e1-92ff-fb6ace983759","system_id":"levelo_inurba_marseille","lat":43.325233,"lon":5.414318,"is_reserved":false,"is_disabled":false,"rental_uris":{"android":"levelo://app?vid=3dc8ece6-ffe1-42e1-92ff-fb6ace983759","ios":"levelo://app?vid=3dc8ece6-ffe1-42e1-92ff-fb6ace983759"},"vehicle_type_id":"4","last_reported":1679134019,"current_range_meters":9200,"station_id":"ce4bhq12rcd13ifvqhhg","pricing_plan_id":"free"},{"bike_id":"3b072b8d-0328-4207-8661-f5603f7f4f42","system_id":"levelo_inurba_marseille","lat":43.325243,"lon":5.414326,"is_reserved":false,"is_disabled":false,"rental_uris":{"android":"levelo://app?vid=3b072b8d-0328-4207-8661-f5603f7f4f42","ios":"levelo://app?vid=3b072b8d-0328-4207-8661-f5603f7f4f42"},"vehicle_type_id":"4","last_reported":1679134019,"current_range_meters":16400,"station_id":"ce4bhq12rcd13ifvqhhg","pricing_plan_id":"free"},{"bike_id":"a891bf3d-9de5-4f10-960c-7b419fe43d80","system_id":"levelo_inurba_marseille","lat":43.325243,"lon":5.414326,"is_reserved":false,"is_disabled":false,"rental_uris":{"android":"levelo://app?vid=a891bf3d-9de5-4f10-960c-7b419fe43d80","ios":"levelo://app?vid=a891bf3d-9de5-4f10-960c-7b419fe43d80"},"vehicle_type_id":"4","last_reported":1679134019,"current_range_meters":27200,"station_id":"ce4bhq12rcd13ifvqhhg","pricing_plan_id":"free"},{"bike_id":"1fcc799d-f7a6-41a4-a72c-851db06557f6","system_id":"levelo_inurba_marseille","lat":43.336134,"lon":5.410341,"is_reserved":false,"is_disabled":false,"rental_uris":{"android":"levelo://app?vid=1fcc799d-f7a6-41a4-a72c-851db06557f6","ios":"levelo://app?vid=1fcc799d-f7a6-41a4-a72c-851db06557f6"},"vehicle_type_id":"4","last_reported":1679134019,"current_range_meters":31600,"station_id":"ce4bhqh2rcd13ifvqhmg","pricing_plan_id":"free"},{"bike_id":"3e398d2e-cfd7-4b2e-91ac-0826b401e2ed","system_id":"levelo_inurba_marseille","lat":43.336148,"lon":5.410349,"is_reserved":false,"is_disabled":false,"rental_uris":{"android":"levelo://app?vid=3e398d2e-cfd7-4b2e-91ac-0826b401e2ed","ios":"levelo://app?vid=3e398d2e-cfd7-4b2e-91ac-0826b401e2ed"},"vehicle_type_id":"4","last_reported":1679134019,"current_range_meters":31600,"station_id":"ce4bhqh2rcd13ifvqhmg","pricing_plan_id":"free"},{"bike_id":"86a1b167-223a-4ef7-8830-5d1b683f711f","system_id":"levelo_inurba_marseille","lat":43.336148,"lon":5.410349,"is_reserved":false,"is_disabled":false,"rental_uris":{"android":"levelo://app?vid=86a1b167-223a-4ef7-8830-5d1b683f711f","ios":"levelo://app?vid=86a1b167-223a-4ef7-8830-5d1b683f711f"},"vehicle_type_id":"4","last_reported":1679134019,"current_range_meters":31600,"station_id":"ce4bhqh2rcd13ifvqhmg","pricing_plan_id":"free"},{"bike_id":"a575a2f9-3307-4dc1-b894-76da5ed3793e","system_id":"levelo_inurba_marseille","lat":43.33604,"lon":5.41034,"is_reserved":false,"is_disabled":false,"rental_uris":{"android":"levelo://app?vid=a575a2f9-3307-4dc1-b894-76da5ed3793e","ios":"levelo://app?vid=a575a2f9-3307-4dc1-b894-76da5ed3793e"},"vehicle_type_id":"4","last_reported":1679134019,"current_range_meters":23600,"station_id":"ce4bhqh2rcd13ifvqhmg","pricing_plan_id":"free"},{"bike_id":"ed411acc-24e0-449f-96b9-d5888b534eb0","system_id":"levelo_inurba_marseille","lat":43.336134,"lon":5.410341,"is_reserved":false,"is_disabled":false,"rental_uris":{"android":"levelo://app?vid=ed411acc-24e0-449f-96b9-d5888b534eb0","ios":"levelo://app?vid=ed411acc-24e0-449f-96b9-d5888b534eb0"},"vehicle_type_id":"4","last_reported":1679134019,"current_range_meters":31200,"station_id":"ce4bhqh2rcd13ifvqhmg","pricing_plan_id":"free"},{"bike_id":"03f81e19-7645-4413-bf4d-70bbbae26897","system_id":"levelo_inurba_marseille","lat":43.336134,"lon":5.410341,"is_reserved":false,"is_disabled":false,"rental_uris":{"android":"levelo://app?vid=03f81e19-7645-4413-bf4d-70bbbae26897","ios":"levelo://app?vid=03f81e19-7645-4413-bf4d-70bbbae26897"},"vehicle_type_id":"4","last_reported":1679134019,"current_range_meters":30800,"station_id":"ce4bhqh2rcd13ifvqhmg","pricing_plan_id":"free"},{"bike_id":"8a5b1134-272b-4294-88f9-a7d7d960b1d4","system_id":"levelo_inurba_marseille","lat":43.336134,"lon":5.410341,"is_reserved":false,"is_disabled":false,"rental_uris":{"android":"levelo://app?vid=8a5b1134-272b-4294-88f9-a7d7d960b1d4","ios":"levelo://app?vid=8a5b1134-272b-4294-88f9-a7d7d960b1d4"},"vehicle_type_id":"4","last_reported":1679134019,"current_range_meters":30000,"station_id":"ce4bhqh2rcd13ifvqhmg","pricing_plan_id":"free"},{"bike_id":"8ecd9035-33da-4efe-9cc7-35bd6404030c","system_id":"levelo_inurba_marseille","lat":43.336148,"lon":5.410349,"is_reserved":false,"is_disabled":false,"rental_uris":{"android":"levelo://app?vid=8ecd9035-33da-4efe-9cc7-35bd6404030c","ios":"levelo://app?vid=8ecd9035-33da-4efe-9cc7-35bd6404030c"},"vehicle_type_id":"4","last_reported":1679134019,"current_range_meters":28800,"station_id":"ce4bhqh2rcd13ifvqhmg","pricing_plan_id":"free"},{"bike_id":"40815926-c78c-4486-bbbd-3198a0975d5a","system_id":"levelo_inurba_marseille","lat":43.276671,"lon":5.389063,"is_reserved":false,"is_disabled":false,"rental_uris":{"android":"levelo://app?vid=40815926-c78c-4486-bbbd-3198a0975d5a","ios":"levelo://app?vid=40815926-c78c-4486-bbbd-3198a0975d5a"},"vehicle_type_id":"4","last_reported":1679134019,"current_range_meters":0,"station_id":"","pricing_plan_id":"free"},{"bike_id":"7f588b82-d836-4732-84b9-a9b9c8d2f67c","system_id":"levelo_inurba_marseille","lat":43.276678,"lon":5.38916,"is_reserved":false,"is_disabled":false,"rental_uris":{"android":"levelo://app?vid=7f588b82-d836-4732-84b9-a9b9c8d2f67c","ios":"levelo://app?vid=7f588b82-d836-4732-84b9-a9b9c8d2f67c"},"vehicle_type_id":"4","last_reported":1679134019,"current_range_meters":0,"station_id":"","pricing_plan_id":"free"},{"bike_id":"b7a56549-6b7d-497e-8496-7ff25fff6ed4","system_id":"levelo_inurba_marseille","lat":43.3108,"lon":5.4243,"is_reserved":false,"is_disabled":false,"rental_uris":{"android":"levelo://app?vid=b7a56549-6b7d-497e-8496-7ff25fff6ed4","ios":"levelo://app?vid=b7a56549-6b7d-497e-8496-7ff25fff6ed4"},"vehicle_type_id":"4","last_reported":1679134019,"current_range_meters":27600,"station_id":"","pricing_plan_id":"free"},{"bike_id":"f3e8fb6d-352b-4dd2-b33c-1eafeef7186f","system_id":"levelo_inurba_marseille","lat":43.31081,"lon":5.42433,"is_reserved":false,"is_disabled":false,"rental_uris":{"android":"levelo://app?vid=f3e8fb6d-352b-4dd2-b33c-1eafeef7186f","ios":"levelo://app?vid=f3e8fb6d-352b-4dd2-b33c-1eafeef7186f"},"vehicle_type_id":"4","last_reported":1679134019,"current_range_meters":28000,"station_id":"","pricing_plan_id":"free"},{"bike_id":"dcf781a7-183f-4b18-a082-0731d10fe12d","system_id":"levelo_inurba_marseille","lat":43.304096,"lon":5.425385,"is_reserved":false,"is_disabled":false,"rental_uris":{"android":"levelo://app?vid=dcf781a7-183f-4b18-a082-0731d10fe12d","ios":"levelo://app?vid=dcf781a7-183f-4b18-a082-0731d10fe12d"},"vehicle_type_id":"4","last_reported":1679134019,"current_range_meters":28000,"station_id":"ce4bhoh2rcd13ifvqh6g","pricing_plan_id":"free"},{"bike_id":"246c9cc1-efb7-4307-b85e-64d129dfd4bc","system_id":"levelo_inurba_marseille","lat":43.30413,"lon":5.42539,"is_reserved":false,"is_disabled":false,"rental_uris":{"android":"levelo://app?vid=246c9cc1-efb7-4307-b85e-64d129dfd4bc","ios":"levelo://app?vid=246c9cc1-efb7-4307-b85e-64d129dfd4bc"},"vehicle_type_id":"4","last_reported":1679134019,"current_range_meters":12400,"station_id":"","pricing_plan_id":"free"},{"bike_id":"d332159b-fec7-4b67-9919-be60931f34a1","system_id":"levelo_inurba_marseille","lat":43.304096,"lon":5.425385,"is_reserved":false,"is_disabled":false,"rental_uris":{"android":"levelo://app?vid=d332159b-fec7-4b67-9919-be60931f34a1","ios":"levelo://app?vid=d332159b-fec7-4b67-9919-be60931f34a1"},"vehicle_type_id":"4","last_reported":1679134019,"current_range_meters":25600,"station_id":"ce4bhoh2rcd13ifvqh6g","pricing_plan_id":"free"},{"bike_id":"c65b0f2f-ddd4-4ced-99dc-a066a8acf787","system_id":"levelo_inurba_marseille","lat":43.304096,"lon":5.425385,"is_reserved":false,"is_disabled":false,"rental_uris":{"android":"levelo://app?vid=c65b0f2f-ddd4-4ced-99dc-a066a8acf787","ios":"levelo://app?vid=c65b0f2f-ddd4-4ced-99dc-a066a8acf787"},"vehicle_type_id":"4","last_reported":1679134019,"current_range_meters":16800,"station_id":"ce4bhoh2rcd13ifvqh6g","pricing_plan_id":"free"},{"bike_id":"f6c8bd2c-a4dc-41e6-b41c-3f99f5c5dd2b","system_id":"levelo_inurba_marseille","lat":43.304096,"lon":5.425385,"is_reserved":false,"is_disabled":false,"rental_uris":{"android":"levelo://app?vid=f6c8bd2c-a4dc-41e6-b41c-3f99f5c5dd2b","ios":"levelo://app?vid=f6c8bd2c-a4dc-41e6-b41c-3f99f5c5dd2b"},"vehicle_type_id":"4","last_reported":1679134019,"current_range_meters":25600,"station_id":"ce4bhoh2rcd13ifvqh6g","pricing_plan_id":"free"},{"bike_id":"5eecbdc6-4bd3-493c-a320-5c6a01a076fb","system_id":"levelo_inurba_marseille","lat":43.304096,"lon":5.425385,"is_reserved":false,"is_disabled":false,"rental_uris":{"android":"levelo://app?vid=5eecbdc6-4bd3-493c-a320-5c6a01a076fb","ios":"levelo://app?vid=5eecbdc6-4bd3-493c-a320-5c6a01a076fb"},"vehicle_type_id":"4","last_reported":1679134019,"current_range_meters":31600,"station_id":"ce4bhoh2rcd13ifvqh6g","pricing_plan_id":"free"},{"bike_id":"4c260c9a-8730-453f-9a5e-5d3f544c6a77","system_id":"levelo_inurba_marseille","lat":43.3041,"lon":5.42541,"is_reserved":false,"is_disabled":false,"rental_uris":{"android":"levelo://app?vid=4c260c9a-8730-453f-9a5e-5d3f544c6a77","ios":"levelo://app?vid=4c260c9a-8730-453f-9a5e-5d3f544c6a77"},"vehicle_type_id":"4","last_reported":1679134019,"current_range_meters":27200,"station_id":"ce4bhoh2rcd13ifvqh6g","pricing_plan_id":"free"},{"bike_id":"97845fa5-b394-4ad4-aedb-37c067bbba4d","system_id":"levelo_inurba_marseille","lat":43.30417,"lon":5.42543,"is_reserved":false,"is_disabled":false,"rental_uris":{"android":"levelo://app?vid=97845fa5-b394-4ad4-aedb-37c067bbba4d","ios":"levelo://app?vid=97845fa5-b394-4ad4-aedb-37c067bbba4d"},"vehicle_type_id":"4","last_reported":1679134019,"current_range_meters":24800,"station_id":"","pricing_plan_id":"free"},{"bike_id":"d42ef606-e766-4dbb-9a6d-8e540834e31a","system_id":"levelo_inurba_marseille","lat":43.304096,"lon":5.425385,"is_reserved":false,"is_disabled":false,"rental_uris":{"android":"levelo://app?vid=d42ef606-e766-4dbb-9a6d-8e540834e31a","ios":"levelo://app?vid=d42ef606-e766-4dbb-9a6d-8e540834e31a"},"vehicle_type_id":"4","last_reported":1679134019,"current_range_meters":25600,"station_id":"ce4bhoh2rcd13ifvqh6g","pricing_plan_id":"free"},{"bike_id":"1930c931-7c3d-4e8f-8003-d1ac6bd13849","system_id":"levelo_inurba_marseille","lat":43.304096,"lon":5.425385,"is_reserved":false,"is_disabled":false,"rental_uris":{"android":"levelo://app?vid=1930c931-7c3d-4e8f-8003-d1ac6bd13849","ios":"levelo://app?vid=1930c931-7c3d-4e8f-8003-d1ac6bd13849"},"vehicle_type_id":"4","last_reported":1679134019,"current_range_meters":24400,"station_id":"ce4bhoh2rcd13ifvqh6g","pricing_plan_id":"free"},{"bike_id":"0102a14d-1976-4b23-815b-e01f89045796","system_id":"levelo_inurba_marseille","lat":43.304096,"lon":5.425385,"is_reserved":false,"is_disabled":false,"rental_uris":{"android":"levelo://app?vid=0102a14d-1976-4b23-815b-e01f89045796","ios":"levelo://app?vid=0102a14d-1976-4b23-815b-e01f89045796"},"vehicle_type_id":"4","last_reported":1679134019,"current_range_meters":25600,"station_id":"ce4bhoh2rcd13ifvqh6g","pricing_plan_id":"free"},{"bike_id":"07b4fcbf-0b2a-496b-a57f-97dfd12cb6e4","system_id":"levelo_inurba_marseille","lat":43.29554,"lon":5.42276,"is_reserved":false,"is_disabled":false,"rental_uris":{"android":"levelo://app?vid=07b4fcbf-0b2a-496b-a57f-97dfd12cb6e4","ios":"levelo://app?vid=07b4fcbf-0b2a-496b-a57f-97dfd12cb6e4"},"vehicle_type_id":"4","last_reported":1679134019,"current_range_meters":6000,"station_id":"","pricing_plan_id":"free"},{"bike_id":"9b282168-f6a1-478c-b744-be67d026feb4","system_id":"levelo_inurba_marseille","lat":43.295523,"lon":5.422926,"is_reserved":false,"is_disabled":false,"rental_uris":{"android":"levelo://app?vid=9b282168-f6a1-478c-b744-be67d026feb4","ios":"levelo://app?vid=9b282168-f6a1-478c-b744-be67d026feb4"},"vehicle_type_id":"4","last_reported":1679134019,"current_range_meters":22800,"station_id":"ce4bhph2rcd13ifvqhdg","pricing_plan_id":"free"},{"bike_id":"c9972f80-e251-4166-af7c-0461e95842a3","system_id":"levelo_inurba_marseille","lat":43.295513,"lon":5.422919,"is_reserved":false,"is_disabled":false,"rental_uris":{"android":"levelo://app?vid=c9972f80-e251-4166-af7c-0461e95842a3","ios":"levelo://app?vid=c9972f80-e251-4166-af7c-0461e95842a3"},"vehicle_type_id":"4","last_reported":1679134019,"current_range_meters":26400,"station_id":"ce4bhph2rcd13ifvqhdg","pricing_plan_id":"free"},{"bike_id":"4a323648-6a6a-4603-bc2c-12b70102a17c","system_id":"levelo_inurba_marseille","lat":43.295498,"lon":5.422914,"is_reserved":false,"is_disabled":false,"rental_uris":{"android":"levelo://app?vid=4a323648-6a6a-4603-bc2c-12b70102a17c","ios":"levelo://app?vid=4a323648-6a6a-4603-bc2c-12b70102a17c"},"vehicle_type_id":"4","last_reported":1679134019,"current_range_meters":31600,"station_id":"ce4bhph2rcd13ifvqhdg","pricing_plan_id":"free"},{"bike_id":"d5ce91c7-eea7-4f5f-869d-fd52053f0c67","system_id":"levelo_inurba_marseille","lat":43.295499,"lon":5.422921,"is_reserved":false,"is_disabled":false,"rental_uris":{"android":"levelo://app?vid=d5ce91c7-eea7-4f5f-869d-fd52053f0c67","ios":"levelo://app?vid=d5ce91c7-eea7-4f5f-869d-fd52053f0c67"},"vehicle_type_id":"4","last_reported":1679134019,"current_range_meters":12400,"station_id":"ce4bhph2rcd13ifvqhdg","pricing_plan_id":"free"},{"bike_id":"141a9303-f150-4a10-a349-f013d006a082","system_id":"levelo_inurba_marseille","lat":43.295492,"lon":5.422935,"is_reserved":false,"is_disabled":false,"rental_uris":{"android":"levelo://app?vid=141a9303-f150-4a10-a349-f013d006a082","ios":"levelo://app?vid=141a9303-f150-4a10-a349-f013d006a082"},"vehicle_type_id":"4","last_reported":1679134019,"current_range_meters":31600,"station_id":"ce4bhph2rcd13ifvqhdg","pricing_plan_id":"free"},{"bike_id":"dbea5ff4-f167-4b32-87bf-1f0841adf67d","system_id":"levelo_inurba_marseille","lat":43.272116,"lon":5.391763,"is_reserved":false,"is_disabled":false,"rental_uris":{"android":"levelo://app?vid=dbea5ff4-f167-4b32-87bf-1f0841adf67d","ios":"levelo://app?vid=dbea5ff4-f167-4b32-87bf-1f0841adf67d"},"vehicle_type_id":"4","last_reported":1679134019,"current_range_meters":29600,"station_id":"ce4bhhp2rcd13ifvqfm0","pricing_plan_id":"free"},{"bike_id":"c2990e26-682e-45ad-a2f4-5438007dbd51","system_id":"levelo_inurba_marseille","lat":43.272116,"lon":5.391747,"is_reserved":false,"is_disabled":false,"rental_uris":{"android":"levelo://app?vid=c2990e26-682e-45ad-a2f4-5438007dbd51","ios":"levelo://app?vid=c2990e26-682e-45ad-a2f4-5438007dbd51"},"vehicle_type_id":"4","last_reported":1679134019,"current_range_meters":12400,"station_id":"ce4bhhp2rcd13ifvqfm0","pricing_plan_id":"free"},{"bike_id":"aec12683-1a63-4563-aacf-6403d26c6ba1","system_id":"levelo_inurba_marseille","lat":43.269467,"lon":5.386439,"is_reserved":false,"is_disabled":false,"rental_uris":{"android":"levelo://app?vid=aec12683-1a63-4563-aacf-6403d26c6ba1","ios":"levelo://app?vid=aec12683-1a63-4563-aacf-6403d26c6ba1"},"vehicle_type_id":"4","last_reported":1679134019,"current_range_meters":28800,"station_id":"ce4bhh92rcd13ifvqfh0","pricing_plan_id":"free"},{"bike_id":"883ddb36-0e61-4dc1-b349-326a1c9ab598","system_id":"levelo_inurba_marseille","lat":43.269467,"lon":5.386439,"is_reserved":false,"is_disabled":false,"rental_uris":{"android":"levelo://app?vid=883ddb36-0e61-4dc1-b349-326a1c9ab598","ios":"levelo://app?vid=883ddb36-0e61-4dc1-b349-326a1c9ab598"},"vehicle_type_id":"4","last_reported":1679134019,"current_range_meters":31200,"station_id":"ce4bhh92rcd13ifvqfh0","pricing_plan_id":"free"},{"bike_id":"6b3dcc17-e244-4278-873b-dcc4f88e1197","system_id":"levelo_inurba_marseille","lat":43.33775,"lon":5.42131,"is_reserved":false,"is_disabled":false,"rental_uris":{"android":"levelo://app?vid=6b3dcc17-e244-4278-873b-dcc4f88e1197","ios":"levelo://app?vid=6b3dcc17-e244-4278-873b-dcc4f88e1197"},"vehicle_type_id":"4","last_reported":1679134019,"current_range_meters":11600,"station_id":"","pricing_plan_id":"free"},{"bike_id":"c37a8779-b07f-48a8-b121-efa8d9c2b9d1","system_id":"levelo_inurba_marseille","lat":43.265664,"lon":5.373438,"is_reserved":false,"is_disabled":false,"rental_uris":{"android":"levelo://app?vid=c37a8779-b07f-48a8-b121-efa8d9c2b9d1","ios":"levelo://app?vid=c37a8779-b07f-48a8-b121-efa8d9c2b9d1"},"vehicle_type_id":"4","last_reported":1679134019,"current_range_meters":26000,"station_id":"ce4bhg12rcd13ifvqf70","pricing_plan_id":"free"},{"bike_id":"29ea0626-4c3b-487d-bae3-e7379a3827bd","system_id":"levelo_inurba_marseille","lat":43.26681,"lon":5.382694,"is_reserved":false,"is_disabled":false,"rental_uris":{"android":"levelo://app?vid=29ea0626-4c3b-487d-bae3-e7379a3827bd","ios":"levelo://app?vid=29ea0626-4c3b-487d-bae3-e7379a3827bd"},"vehicle_type_id":"4","last_reported":1679134019,"current_range_meters":31600,"station_id":"ce4bhg92rcd13ifvqf90","pricing_plan_id":"free"},{"bike_id":"2b7d740c-bbee-4413-bddf-2d040fcfbd0f","system_id":"levelo_inurba_marseille","lat":43.27996,"lon":5.416624,"is_reserved":false,"is_disabled":false,"rental_uris":{"android":"levelo://app?vid=2b7d740c-bbee-4413-bddf-2d040fcfbd0f","ios":"levelo://app?vid=2b7d740c-bbee-4413-bddf-2d040fcfbd0f"},"vehicle_type_id":"4","last_reported":1679134019,"current_range_meters":14000,"station_id":"ce4bho12rcd13ifvqh1g","pricing_plan_id":"free"},{"bike_id":"58f5cb79-74ca-409a-9a1d-37166a506752","system_id":"levelo_inurba_marseille","lat":43.261901,"lon":5.374441,"is_reserved":false,"is_disabled":false,"rental_uris":{"android":"levelo://app?vid=58f5cb79-74ca-409a-9a1d-37166a506752","ios":"levelo://app?vid=58f5cb79-74ca-409a-9a1d-37166a506752"},"vehicle_type_id":"4","last_reported":1679134019,"current_range_meters":24400,"station_id":"ce4bhgp2rcd13ifvqfc0","pricing_plan_id":"free"},{"bike_id":"e96667f1-a214-4a1c-b594-76b9eac8aafa","system_id":"levelo_inurba_marseille","lat":43.317104,"lon":5.436818,"is_reserved":false,"is_disabled":false,"rental_uris":{"android":"levelo://app?vid=e96667f1-a214-4a1c-b594-76b9eac8aafa","ios":"levelo://app?vid=e96667f1-a214-4a1c-b594-76b9eac8aafa"},"vehicle_type_id":"4","last_reported":1679134019,"current_range_meters":12400,"station_id":"ce4bhp92rcd13ifvqhcg","pricing_plan_id":"free"},{"bike_id":"b0f8d92d-54ef-4d6e-9420-16fd8792197d","system_id":"levelo_inurba_marseille","lat":43.26202,"lon":5.379299,"is_reserved":false,"is_disabled":false,"rental_uris":{"android":"levelo://app?vid=b0f8d92d-54ef-4d6e-9420-16fd8792197d","ios":"levelo://app?vid=b0f8d92d-54ef-4d6e-9420-16fd8792197d"},"vehicle_type_id":"4","last_reported":1679134019,"current_range_meters":31600,"station_id":"ce4bhjp2rcd13ifvqg90","pricing_plan_id":"free"},{"bike_id":"0ca7ef43-de91-4079-9718-c5b3e5168439","system_id":"levelo_inurba_marseille","lat":43.26202,"lon":5.379299,"is_reserved":false,"is_disabled":false,"rental_uris":{"android":"levelo://app?vid=0ca7ef43-de91-4079-9718-c5b3e5168439","ios":"levelo://app?vid=0ca7ef43-de91-4079-9718-c5b3e5168439"},"vehicle_type_id":"4","last_reported":1679134019,"current_range_meters":19600,"station_id":"ce4bhjp2rcd13ifvqg90","pricing_plan_id":"free"},{"bike_id":"7212bc5e-4034-4cb8-b4ad-d08759e0262a","system_id":"levelo_inurba_marseille","lat":43.26202,"lon":5.379299,"is_reserved":false,"is_disabled":false,"rental_uris":{"android":"levelo://app?vid=7212bc5e-4034-4cb8-b4ad-d08759e0262a","ios":"levelo://app?vid=7212bc5e-4034-4cb8-b4ad-d08759e0262a"},"vehicle_type_id":"4","last_reported":1679134019,"current_range_meters":20800,"station_id":"ce4bhjp2rcd13ifvqg90","pricing_plan_id":"free"},{"bike_id":"7bd26da8-bbc3-48d7-ad51-aedb8b79f361","system_id":"levelo_inurba_marseille","lat":43.267959,"lon":5.402687,"is_reserved":false,"is_disabled":false,"rental_uris":{"android":"levelo://app?vid=7bd26da8-bbc3-48d7-ad51-aedb8b79f361","ios":"levelo://app?vid=7bd26da8-bbc3-48d7-ad51-aedb8b79f361"},"vehicle_type_id":"4","last_reported":1679134019,"current_range_meters":24000,"station_id":"ce501612rcd8frsf0b60","pricing_plan_id":"free"},{"bike_id":"4771475e-9e36-4bda-8975-732fd73a60f0","system_id":"levelo_inurba_marseille","lat":43.26012,"lon":5.37553,"is_reserved":false,"is_disabled":false,"rental_uris":{"android":"levelo://app?vid=4771475e-9e36-4bda-8975-732fd73a60f0","ios":"levelo://app?vid=4771475e-9e36-4bda-8975-732fd73a60f0"},"vehicle_type_id":"4","last_reported":1679134019,"current_range_meters":8000,"station_id":"ce4bhgh2rcd13ifvqfa0","pricing_plan_id":"free"},{"bike_id":"62e92b87-9bc8-41b6-82b6-0ac85cf490ee","system_id":"levelo_inurba_marseille","lat":43.2607,"lon":5.393983,"is_reserved":false,"is_disabled":false,"rental_uris":{"android":"levelo://app?vid=62e92b87-9bc8-41b6-82b6-0ac85cf490ee","ios":"levelo://app?vid=62e92b87-9bc8-41b6-82b6-0ac85cf490ee"},"vehicle_type_id":"4","last_reported":1679134019,"current_range_meters":16800,"station_id":"ce4bhh92rcd13ifvqfj0","pricing_plan_id":"free"},{"bike_id":"23acdd83-9307-479a-8ffc-2982fcec5e44","system_id":"levelo_inurba_marseille","lat":43.2607,"lon":5.393983,"is_reserved":false,"is_disabled":false,"rental_uris":{"android":"levelo://app?vid=23acdd83-9307-479a-8ffc-2982fcec5e44","ios":"levelo://app?vid=23acdd83-9307-479a-8ffc-2982fcec5e44"},"vehicle_type_id":"4","last_reported":1679134019,"current_range_meters":23200,"station_id":"ce4bhh92rcd13ifvqfj0","pricing_plan_id":"free"},{"bike_id":"1853a056-c7e4-40ee-8ba5-99de629854c5","system_id":"levelo_inurba_marseille","lat":43.260909,"lon":5.397591,"is_reserved":false,"is_disabled":false,"rental_uris":{"android":"levelo://app?vid=1853a056-c7e4-40ee-8ba5-99de629854c5","ios":"levelo://app?vid=1853a056-c7e4-40ee-8ba5-99de629854c5"},"vehicle_type_id":"4","last_reported":1679134019,"current_range_meters":25600,"station_id":"ce4bhi12rcd13ifvqfq0","pricing_plan_id":"free"},{"bike_id":"db26e18b-aab2-4a23-9e45-3cf7b1bf06f1","system_id":"levelo_inurba_marseille","lat":43.255773,"lon":5.382354,"is_reserved":false,"is_disabled":false,"rental_uris":{"android":"levelo://app?vid=db26e18b-aab2-4a23-9e45-3cf7b1bf06f1","ios":"levelo://app?vid=db26e18b-aab2-4a23-9e45-3cf7b1bf06f1"},"vehicle_type_id":"4","last_reported":1679134019,"current_range_meters":0,"station_id":"ce4bhih2rcd13ifvqfs0","pricing_plan_id":"free"},{"bike_id":"cc4d2495-2472-43b9-b5ab-c4dd6953f9ac","system_id":"levelo_inurba_marseille","lat":43.254947,"lon":5.376454,"is_reserved":false,"is_disabled":false,"rental_uris":{"android":"levelo://app?vid=cc4d2495-2472-43b9-b5ab-c4dd6953f9ac","ios":"levelo://app?vid=cc4d2495-2472-43b9-b5ab-c4dd6953f9ac"},"vehicle_type_id":"4","last_reported":1679134019,"current_range_meters":15600,"station_id":"ce4bhh12rcd13ifvqff0","pricing_plan_id":"free"},{"bike_id":"206b87ee-7e92-434d-866d-002ab3b698dd","system_id":"levelo_inurba_marseille","lat":43.270721,"lon":5.422764,"is_reserved":false,"is_disabled":false,"rental_uris":{"android":"levelo://app?vid=206b87ee-7e92-434d-866d-002ab3b698dd","ios":"levelo://app?vid=206b87ee-7e92-434d-866d-002ab3b698dd"},"vehicle_type_id":"4","last_reported":1679134019,"current_range_meters":16800,"station_id":"ce4bhk92rcd13ifvqgb0","pricing_plan_id":"free"},{"bike_id":"01f9478c-d287-4d04-8514-90768cd6040c","system_id":"levelo_inurba_marseille","lat":43.270721,"lon":5.422764,"is_reserved":false,"is_disabled":false,"rental_uris":{"android":"levelo://app?vid=01f9478c-d287-4d04-8514-90768cd6040c","ios":"levelo://app?vid=01f9478c-d287-4d04-8514-90768cd6040c"},"vehicle_type_id":"4","last_reported":1679134019,"current_range_meters":12800,"station_id":"ce4bhk92rcd13ifvqgb0","pricing_plan_id":"free"},{"bike_id":"1698e4bc-0cd4-42c8-b568-28e7f57b0656","system_id":"levelo_inurba_marseille","lat":43.270721,"lon":5.422764,"is_reserved":false,"is_disabled":false,"rental_uris":{"android":"levelo://app?vid=1698e4bc-0cd4-42c8-b568-28e7f57b0656","ios":"levelo://app?vid=1698e4bc-0cd4-42c8-b568-28e7f57b0656"},"vehicle_type_id":"4","last_reported":1679134019,"current_range_meters":23200,"station_id":"ce4bhk92rcd13ifvqgb0","pricing_plan_id":"free"},{"bike_id":"5a4f00b0-535f-4dde-93c2-d600d6ccbdfc","system_id":"levelo_inurba_marseille","lat":43.270689,"lon":5.422814,"is_reserved":false,"is_disabled":false,"rental_uris":{"android":"levelo://app?vid=5a4f00b0-535f-4dde-93c2-d600d6ccbdfc","ios":"levelo://app?vid=5a4f00b0-535f-4dde-93c2-d600d6ccbdfc"},"vehicle_type_id":"4","last_reported":1679134019,"current_range_meters":6000,"station_id":"ce4bhk92rcd13ifvqgb0","pricing_plan_id":"free"},{"bike_id":"48c92539-5b1d-427d-8194-94f6969f4638","system_id":"levelo_inurba_marseille","lat":43.262798,"lon":5.411884,"is_reserved":false,"is_disabled":false,"rental_uris":{"android":"levelo://app?vid=48c92539-5b1d-427d-8194-94f6969f4638","ios":"levelo://app?vid=48c92539-5b1d-427d-8194-94f6969f4638"},"vehicle_type_id":"4","last_reported":1679134019,"current_range_meters":0,"station_id":"","pricing_plan_id":"free"},{"bike_id":"1e222674-c7fa-4849-9836-a6f20052e7b9","system_id":"levelo_inurba_marseille","lat":43.250009,"lon":5.389195,"is_reserved":false,"is_disabled":false,"rental_uris":{"android":"levelo://app?vid=1e222674-c7fa-4849-9836-a6f20052e7b9","ios":"levelo://app?vid=1e222674-c7fa-4849-9836-a6f20052e7b9"},"vehicle_type_id":"4","last_reported":1679134019,"current_range_meters":27200,"station_id":"ce4bhgp2rcd13ifvqfd0","pricing_plan_id":"free"},{"bike_id":"d3033048-c81a-4bb4-9bf8-b1c88293fa96","system_id":"levelo_inurba_marseille","lat":43.250009,"lon":5.389195,"is_reserved":false,"is_disabled":false,"rental_uris":{"android":"levelo://app?vid=d3033048-c81a-4bb4-9bf8-b1c88293fa96","ios":"levelo://app?vid=d3033048-c81a-4bb4-9bf8-b1c88293fa96"},"vehicle_type_id":"4","last_reported":1679134019,"current_range_meters":31600,"station_id":"ce4bhgp2rcd13ifvqfd0","pricing_plan_id":"free"},{"bike_id":"b97371b0-2081-4d7c-9ff6-4ce3dbddad9f","system_id":"levelo_inurba_marseille","lat":43.250009,"lon":5.389195,"is_reserved":false,"is_disabled":false,"rental_uris":{"android":"levelo://app?vid=b97371b0-2081-4d7c-9ff6-4ce3dbddad9f","ios":"levelo://app?vid=b97371b0-2081-4d7c-9ff6-4ce3dbddad9f"},"vehicle_type_id":"4","last_reported":1679134019,"current_range_meters":31200,"station_id":"ce4bhgp2rcd13ifvqfd0","pricing_plan_id":"free"},{"bike_id":"9402795b-e345-4c63-998c-39ec5c0ea4c1","system_id":"levelo_inurba_marseille","lat":43.250009,"lon":5.389195,"is_reserved":false,"is_disabled":false,"rental_uris":{"android":"levelo://app?vid=9402795b-e345-4c63-998c-39ec5c0ea4c1","ios":"levelo://app?vid=9402795b-e345-4c63-998c-39ec5c0ea4c1"},"vehicle_type_id":"4","last_reported":1679134019,"current_range_meters":31600,"station_id":"ce4bhgp2rcd13ifvqfd0","pricing_plan_id":"free"},{"bike_id":"bf4fb621-500e-4434-aef7-29623ecc99dc","system_id":"levelo_inurba_marseille","lat":43.250009,"lon":5.389195,"is_reserved":false,"is_disabled":false,"rental_uris":{"android":"levelo://app?vid=bf4fb621-500e-4434-aef7-29623ecc99dc","ios":"levelo://app?vid=bf4fb621-500e-4434-aef7-29623ecc99dc"},"vehicle_type_id":"4","last_reported":1679134019,"current_range_meters":13600,"station_id":"ce4bhgp2rcd13ifvqfd0","pricing_plan_id":"free"},{"bike_id":"d4c63f60-40f1-48d2-8689-3c61ecbc0b6c","system_id":"levelo_inurba_marseille","lat":43.250009,"lon":5.389195,"is_reserved":false,"is_disabled":false,"rental_uris":{"android":"levelo://app?vid=d4c63f60-40f1-48d2-8689-3c61ecbc0b6c","ios":"levelo://app?vid=d4c63f60-40f1-48d2-8689-3c61ecbc0b6c"},"vehicle_type_id":"4","last_reported":1679134019,"current_range_meters":31600,"station_id":"ce4bhgp2rcd13ifvqfd0","pricing_plan_id":"free"},{"bike_id":"84af4f38-ec70-4ebb-af39-a66368d94cd0","system_id":"levelo_inurba_marseille","lat":43.250009,"lon":5.389195,"is_reserved":false,"is_disabled":false,"rental_uris":{"android":"levelo://app?vid=84af4f38-ec70-4ebb-af39-a66368d94cd0","ios":"levelo://app?vid=84af4f38-ec70-4ebb-af39-a66368d94cd0"},"vehicle_type_id":"4","last_reported":1679134019,"current_range_meters":28800,"station_id":"ce4bhgp2rcd13ifvqfd0","pricing_plan_id":"free"},{"bike_id":"0d931327-2afb-4863-afec-a87278f14e2e","system_id":"levelo_inurba_marseille","lat":43.250009,"lon":5.389195,"is_reserved":false,"is_disabled":false,"rental_uris":{"android":"levelo://app?vid=0d931327-2afb-4863-afec-a87278f14e2e","ios":"levelo://app?vid=0d931327-2afb-4863-afec-a87278f14e2e"},"vehicle_type_id":"4","last_reported":1679134019,"current_range_meters":28400,"station_id":"ce4bhgp2rcd13ifvqfd0","pricing_plan_id":"free"},{"bike_id":"fa2b681f-8672-4599-8263-aa7e1cbcfe31","system_id":"levelo_inurba_marseille","lat":43.24812,"lon":5.37455,"is_reserved":false,"is_disabled":false,"rental_uris":{"android":"levelo://app?vid=fa2b681f-8672-4599-8263-aa7e1cbcfe31","ios":"levelo://app?vid=fa2b681f-8672-4599-8263-aa7e1cbcfe31"},"vehicle_type_id":"4","last_reported":1679134019,"current_range_meters":17600,"station_id":"","pricing_plan_id":"free"},{"bike_id":"e7987d1e-4c1e-4857-95a0-727645aaef87","system_id":"levelo_inurba_marseille","lat":43.250009,"lon":5.389195,"is_reserved":false,"is_disabled":false,"rental_uris":{"android":"levelo://app?vid=e7987d1e-4c1e-4857-95a0-727645aaef87","ios":"levelo://app?vid=e7987d1e-4c1e-4857-95a0-727645aaef87"},"vehicle_type_id":"4","last_reported":1679134019,"current_range_meters":19200,"station_id":"ce4bhgp2rcd13ifvqfd0","pricing_plan_id":"free"},{"bike_id":"e9c85263-36c1-47e3-b49a-8fbba606bbf6","system_id":"levelo_inurba_marseille","lat":43.2479,"lon":5.374457,"is_reserved":false,"is_disabled":false,"rental_uris":{"android":"levelo://app?vid=e9c85263-36c1-47e3-b49a-8fbba606bbf6","ios":"levelo://app?vid=e9c85263-36c1-47e3-b49a-8fbba606bbf6"},"vehicle_type_id":"4","last_reported":1679134019,"current_range_meters":20400,"station_id":"ce4bhgh2rcd13ifvqfb0","pricing_plan_id":"free"},{"bike_id":"864e4a65-6ef1-4cb1-bcac-a59d5dc301e3","system_id":"levelo_inurba_marseille","lat":43.24793,"lon":5.37448,"is_reserved":false,"is_disabled":false,"rental_uris":{"android":"levelo://app?vid=864e4a65-6ef1-4cb1-bcac-a59d5dc301e3","ios":"levelo://app?vid=864e4a65-6ef1-4cb1-bcac-a59d5dc301e3"},"vehicle_type_id":"4","last_reported":1679134019,"current_range_meters":28800,"station_id":"","pricing_plan_id":"free"},{"bike_id":"045b5826-dd55-4546-90ee-04206913d4d4","system_id":"levelo_inurba_marseille","lat":43.25102,"lon":5.403214,"is_reserved":false,"is_disabled":false,"rental_uris":{"android":"levelo://app?vid=045b5826-dd55-4546-90ee-04206913d4d4","ios":"levelo://app?vid=045b5826-dd55-4546-90ee-04206913d4d4"},"vehicle_type_id":"4","last_reported":1679134019,"current_range_meters":17200,"station_id":"ce4bhlh2rcd13ifvqgig","pricing_plan_id":"free"},{"bike_id":"7ce66863-916e-43d9-9f4d-1ac9f0665a8c","system_id":"levelo_inurba_marseille","lat":43.246467,"lon":5.388984,"is_reserved":false,"is_disabled":false,"rental_uris":{"android":"levelo://app?vid=7ce66863-916e-43d9-9f4d-1ac9f0665a8c","ios":"levelo://app?vid=7ce66863-916e-43d9-9f4d-1ac9f0665a8c"},"vehicle_type_id":"4","last_reported":1679134019,"current_range_meters":26800,"station_id":"ce4bhg12rcd13ifvqf60","pricing_plan_id":"free"},{"bike_id":"592adabc-a5ae-45cb-8040-f3f3638a9dd4","system_id":"levelo_inurba_marseille","lat":43.246461,"lon":5.389014,"is_reserved":false,"is_disabled":false,"rental_uris":{"android":"levelo://app?vid=592adabc-a5ae-45cb-8040-f3f3638a9dd4","ios":"levelo://app?vid=592adabc-a5ae-45cb-8040-f3f3638a9dd4"},"vehicle_type_id":"4","last_reported":1679134019,"current_range_meters":30000,"station_id":"ce4bhg12rcd13ifvqf60","pricing_plan_id":"free"},{"bike_id":"2f2e67d9-ef12-49f5-93bb-89e83bd22016","system_id":"levelo_inurba_marseille","lat":43.246467,"lon":5.388984,"is_reserved":false,"is_disabled":false,"rental_uris":{"android":"levelo://app?vid=2f2e67d9-ef12-49f5-93bb-89e83bd22016","ios":"levelo://app?vid=2f2e67d9-ef12-49f5-93bb-89e83bd22016"},"vehicle_type_id":"4","last_reported":1679134019,"current_range_meters":31200,"station_id":"ce4bhg12rcd13ifvqf60","pricing_plan_id":"free"},{"bike_id":"ecb3a446-224f-464f-b1cd-12740cea4b67","system_id":"levelo_inurba_marseille","lat":43.24391,"lon":5.37062,"is_reserved":false,"is_disabled":false,"rental_uris":{"android":"levelo://app?vid=ecb3a446-224f-464f-b1cd-12740cea4b67","ios":"levelo://app?vid=ecb3a446-224f-464f-b1cd-12740cea4b67"},"vehicle_type_id":"4","last_reported":1679134019,"current_range_meters":30000,"station_id":"","pricing_plan_id":"free"},{"bike_id":"27451b56-b88f-4f88-8075-fbbc8f0dc709","system_id":"levelo_inurba_marseille","lat":43.2439,"lon":5.37057,"is_reserved":false,"is_disabled":false,"rental_uris":{"android":"levelo://app?vid=27451b56-b88f-4f88-8075-fbbc8f0dc709","ios":"levelo://app?vid=27451b56-b88f-4f88-8075-fbbc8f0dc709"},"vehicle_type_id":"4","last_reported":1679134019,"current_range_meters":31600,"station_id":"","pricing_plan_id":"free"},{"bike_id":"27450aed-d877-488a-a0ec-8d24e5ef24d4","system_id":"levelo_inurba_marseille","lat":43.2439,"lon":5.37058,"is_reserved":false,"is_disabled":false,"rental_uris":{"android":"levelo://app?vid=27450aed-d877-488a-a0ec-8d24e5ef24d4","ios":"levelo://app?vid=27450aed-d877-488a-a0ec-8d24e5ef24d4"},"vehicle_type_id":"4","last_reported":1679134019,"current_range_meters":20000,"station_id":"ce4bhhh2rcd13ifvqfk0","pricing_plan_id":"free"},{"bike_id":"7cf502a4-d89a-4150-9a4f-384b140ecf74","system_id":"levelo_inurba_marseille","lat":43.243884,"lon":5.370736,"is_reserved":false,"is_disabled":false,"rental_uris":{"android":"levelo://app?vid=7cf502a4-d89a-4150-9a4f-384b140ecf74","ios":"levelo://app?vid=7cf502a4-d89a-4150-9a4f-384b140ecf74"},"vehicle_type_id":"4","last_reported":1679134019,"current_range_meters":13200,"station_id":"ce4bhhh2rcd13ifvqfk0","pricing_plan_id":"free"},{"bike_id":"8b7b458d-aa1c-4fcc-a769-93085e71bc1e","system_id":"levelo_inurba_marseille","lat":43.243884,"lon":5.370736,"is_reserved":false,"is_disabled":false,"rental_uris":{"android":"levelo://app?vid=8b7b458d-aa1c-4fcc-a769-93085e71bc1e","ios":"levelo://app?vid=8b7b458d-aa1c-4fcc-a769-93085e71bc1e"},"vehicle_type_id":"4","last_reported":1679134019,"current_range_meters":20000,"station_id":"ce4bhhh2rcd13ifvqfk0","pricing_plan_id":"free"},{"bike_id":"782a3d8c-8a8b-4ca2-a441-c2168bb095ed","system_id":"levelo_inurba_marseille","lat":43.245581,"lon":5.395069,"is_reserved":false,"is_disabled":false,"rental_uris":{"android":"levelo://app?vid=782a3d8c-8a8b-4ca2-a441-c2168bb095ed","ios":"levelo://app?vid=782a3d8c-8a8b-4ca2-a441-c2168bb095ed"},"vehicle_type_id":"4","last_reported":1679134019,"current_range_meters":24800,"station_id":"ce4bhlp2rcd13ifvqgjg","pricing_plan_id":"free"},{"bike_id":"a21ff591-b797-470a-9a64-b6c3a667dee5","system_id":"levelo_inurba_marseille","lat":43.245581,"lon":5.395069,"is_reserved":false,"is_disabled":false,"rental_uris":{"android":"levelo://app?vid=a21ff591-b797-470a-9a64-b6c3a667dee5","ios":"levelo://app?vid=a21ff591-b797-470a-9a64-b6c3a667dee5"},"vehicle_type_id":"4","last_reported":1679134019,"current_range_meters":31600,"station_id":"ce4bhlp2rcd13ifvqgjg","pricing_plan_id":"free"},{"bike_id":"fd4f3f4c-fe43-47d4-bd0a-5ece4cf39169","system_id":"levelo_inurba_marseille","lat":43.287526,"lon":5.458848,"is_reserved":false,"is_disabled":false,"rental_uris":{"android":"levelo://app?vid=fd4f3f4c-fe43-47d4-bd0a-5ece4cf39169","ios":"levelo://app?vid=fd4f3f4c-fe43-47d4-bd0a-5ece4cf39169"},"vehicle_type_id":"4","last_reported":1679134019,"current_range_meters":0,"station_id":"","pricing_plan_id":"free"},{"bike_id":"5c6341fd-8bc2-48ef-b984-5aab12472d86","system_id":"levelo_inurba_marseille","lat":43.287503,"lon":5.458976,"is_reserved":false,"is_disabled":false,"rental_uris":{"android":"levelo://app?vid=5c6341fd-8bc2-48ef-b984-5aab12472d86","ios":"levelo://app?vid=5c6341fd-8bc2-48ef-b984-5aab12472d86"},"vehicle_type_id":"4","last_reported":1679134019,"current_range_meters":8000,"station_id":"","pricing_plan_id":"free"},{"bike_id":"5521ec33-ee6d-49f4-9471-d24cf70bcd7b","system_id":"levelo_inurba_marseille","lat":43.240623,"lon":5.377642,"is_reserved":false,"is_disabled":false,"rental_uris":{"android":"levelo://app?vid=5521ec33-ee6d-49f4-9471-d24cf70bcd7b","ios":"levelo://app?vid=5521ec33-ee6d-49f4-9471-d24cf70bcd7b"},"vehicle_type_id":"4","last_reported":1679134019,"current_range_meters":31600,"station_id":"ce4bhnp2rcd13ifvqgvg","pricing_plan_id":"free"},{"bike_id":"ad1dc089-4a54-4561-856d-26d7bb94e38b","system_id":"levelo_inurba_marseille","lat":43.240623,"lon":5.377642,"is_reserved":false,"is_disabled":false,"rental_uris":{"android":"levelo://app?vid=ad1dc089-4a54-4561-856d-26d7bb94e38b","ios":"levelo://app?vid=ad1dc089-4a54-4561-856d-26d7bb94e38b"},"vehicle_type_id":"4","last_reported":1679134019,"current_range_meters":400,"station_id":"ce4bhnp2rcd13ifvqgvg","pricing_plan_id":"free"},{"bike_id":"c03daf93-bd02-4eae-9c2b-09e471aa7c7a","system_id":"levelo_inurba_marseille","lat":43.240623,"lon":5.377642,"is_reserved":false,"is_disabled":false,"rental_uris":{"android":"levelo://app?vid=c03daf93-bd02-4eae-9c2b-09e471aa7c7a","ios":"levelo://app?vid=c03daf93-bd02-4eae-9c2b-09e471aa7c7a"},"vehicle_type_id":"4","last_reported":1679134019,"current_range_meters":14800,"station_id":"ce4bhnp2rcd13ifvqgvg","pricing_plan_id":"free"},{"bike_id":"d1636f64-6b09-4b48-bf38-0b5b7957612a","system_id":"levelo_inurba_marseille","lat":43.240623,"lon":5.377642,"is_reserved":false,"is_disabled":false,"rental_uris":{"android":"levelo://app?vid=d1636f64-6b09-4b48-bf38-0b5b7957612a","ios":"levelo://app?vid=d1636f64-6b09-4b48-bf38-0b5b7957612a"},"vehicle_type_id":"4","last_reported":1679134019,"current_range_meters":31600,"station_id":"ce4bhnp2rcd13ifvqgvg","pricing_plan_id":"free"},{"bike_id":"6c1b86ae-6f99-47ab-850c-d6cfd7e427f3","system_id":"levelo_inurba_marseille","lat":43.240623,"lon":5.377642,"is_reserved":false,"is_disabled":false,"rental_uris":{"android":"levelo://app?vid=6c1b86ae-6f99-47ab-850c-d6cfd7e427f3","ios":"levelo://app?vid=6c1b86ae-6f99-47ab-850c-d6cfd7e427f3"},"vehicle_type_id":"4","last_reported":1679134019,"current_range_meters":23200,"station_id":"ce4bhnp2rcd13ifvqgvg","pricing_plan_id":"free"},{"bike_id":"e2b39f61-a433-4fea-8ef4-f9a8742713b8","system_id":"levelo_inurba_marseille","lat":43.240623,"lon":5.377642,"is_reserved":false,"is_disabled":false,"rental_uris":{"android":"levelo://app?vid=e2b39f61-a433-4fea-8ef4-f9a8742713b8","ios":"levelo://app?vid=e2b39f61-a433-4fea-8ef4-f9a8742713b8"},"vehicle_type_id":"4","last_reported":1679134019,"current_range_meters":10000,"station_id":"ce4bhnp2rcd13ifvqgvg","pricing_plan_id":"free"},{"bike_id":"339c1e63-5f80-41c0-9b02-04a53519dd7f","system_id":"levelo_inurba_marseille","lat":43.240623,"lon":5.377642,"is_reserved":false,"is_disabled":false,"rental_uris":{"android":"levelo://app?vid=339c1e63-5f80-41c0-9b02-04a53519dd7f","ios":"levelo://app?vid=339c1e63-5f80-41c0-9b02-04a53519dd7f"},"vehicle_type_id":"4","last_reported":1679134019,"current_range_meters":19200,"station_id":"ce4bhnp2rcd13ifvqgvg","pricing_plan_id":"free"},{"bike_id":"1cf51fd7-292b-4239-aa57-f8f4b8e031d4","system_id":"levelo_inurba_marseille","lat":43.240623,"lon":5.377642,"is_reserved":false,"is_disabled":false,"rental_uris":{"android":"levelo://app?vid=1cf51fd7-292b-4239-aa57-f8f4b8e031d4","ios":"levelo://app?vid=1cf51fd7-292b-4239-aa57-f8f4b8e031d4"},"vehicle_type_id":"4","last_reported":1679134019,"current_range_meters":31600,"station_id":"ce4bhnp2rcd13ifvqgvg","pricing_plan_id":"free"},{"bike_id":"77800063-d00a-4522-9222-b8d7fdda693b","system_id":"levelo_inurba_marseille","lat":43.240623,"lon":5.377642,"is_reserved":false,"is_disabled":false,"rental_uris":{"android":"levelo://app?vid=77800063-d00a-4522-9222-b8d7fdda693b","ios":"levelo://app?vid=77800063-d00a-4522-9222-b8d7fdda693b"},"vehicle_type_id":"4","last_reported":1679134019,"current_range_meters":31600,"station_id":"ce4bhnp2rcd13ifvqgvg","pricing_plan_id":"free"},{"bike_id":"811a07ed-5ca5-49ed-93cc-5ab9d215e5d0","system_id":"levelo_inurba_marseille","lat":43.240623,"lon":5.377642,"is_reserved":false,"is_disabled":false,"rental_uris":{"android":"levelo://app?vid=811a07ed-5ca5-49ed-93cc-5ab9d215e5d0","ios":"levelo://app?vid=811a07ed-5ca5-49ed-93cc-5ab9d215e5d0"},"vehicle_type_id":"4","last_reported":1679134019,"current_range_meters":26800,"station_id":"ce4bhnp2rcd13ifvqgvg","pricing_plan_id":"free"},{"bike_id":"1b1d4d40-f035-4b05-ac23-061d1c3ac3e4","system_id":"levelo_inurba_marseille","lat":43.240623,"lon":5.377642,"is_reserved":false,"is_disabled":false,"rental_uris":{"android":"levelo://app?vid=1b1d4d40-f035-4b05-ac23-061d1c3ac3e4","ios":"levelo://app?vid=1b1d4d40-f035-4b05-ac23-061d1c3ac3e4"},"vehicle_type_id":"4","last_reported":1679134019,"current_range_meters":31200,"station_id":"ce4bhnp2rcd13ifvqgvg","pricing_plan_id":"free"},{"bike_id":"28a5abdd-44bc-4bba-b54a-18ea855ff7cb","system_id":"levelo_inurba_marseille","lat":43.240623,"lon":5.377642,"is_reserved":false,"is_disabled":false,"rental_uris":{"android":"levelo://app?vid=28a5abdd-44bc-4bba-b54a-18ea855ff7cb","ios":"levelo://app?vid=28a5abdd-44bc-4bba-b54a-18ea855ff7cb"},"vehicle_type_id":"4","last_reported":1679134019,"current_range_meters":30800,"station_id":"ce4bhnp2rcd13ifvqgvg","pricing_plan_id":"free"},{"bike_id":"253f883e-25d9-439c-8974-25584f2b9023","system_id":"levelo_inurba_marseille","lat":43.240623,"lon":5.377642,"is_reserved":false,"is_disabled":false,"rental_uris":{"android":"levelo://app?vid=253f883e-25d9-439c-8974-25584f2b9023","ios":"levelo://app?vid=253f883e-25d9-439c-8974-25584f2b9023"},"vehicle_type_id":"4","last_reported":1679134019,"current_range_meters":400,"station_id":"ce4bhnp2rcd13ifvqgvg","pricing_plan_id":"free"},{"bike_id":"1160818b-86ff-4cff-80c0-e478bee146f0","system_id":"levelo_inurba_marseille","lat":43.239588,"lon":5.366238,"is_reserved":false,"is_disabled":false,"rental_uris":{"android":"levelo://app?vid=1160818b-86ff-4cff-80c0-e478bee146f0","ios":"levelo://app?vid=1160818b-86ff-4cff-80c0-e478bee146f0"},"vehicle_type_id":"4","last_reported":1679134019,"current_range_meters":31200,"station_id":"ce4bhi12rcd13ifvqfp0","pricing_plan_id":"free"},{"bike_id":"f960b67b-eb2e-4f7c-a88b-6b2a6352d4a8","system_id":"levelo_inurba_marseille","lat":43.239667,"lon":5.366225,"is_reserved":false,"is_disabled":false,"rental_uris":{"android":"levelo://app?vid=f960b67b-eb2e-4f7c-a88b-6b2a6352d4a8","ios":"levelo://app?vid=f960b67b-eb2e-4f7c-a88b-6b2a6352d4a8"},"vehicle_type_id":"4","last_reported":1679134019,"current_range_meters":24800,"station_id":"ce4bhi12rcd13ifvqfp0","pricing_plan_id":"free"},{"bike_id":"b7c0b7fd-b75f-4654-849d-0c508a7e912a","system_id":"levelo_inurba_marseille","lat":43.239588,"lon":5.366238,"is_reserved":false,"is_disabled":false,"rental_uris":{"android":"levelo://app?vid=b7c0b7fd-b75f-4654-849d-0c508a7e912a","ios":"levelo://app?vid=b7c0b7fd-b75f-4654-849d-0c508a7e912a"},"vehicle_type_id":"4","last_reported":1679134019,"current_range_meters":31600,"station_id":"ce4bhi12rcd13ifvqfp0","pricing_plan_id":"free"},{"bike_id":"ab394c89-8497-404c-883e-f087b1f270d4","system_id":"levelo_inurba_marseille","lat":43.23962,"lon":5.36634,"is_reserved":false,"is_disabled":false,"rental_uris":{"android":"levelo://app?vid=ab394c89-8497-404c-883e-f087b1f270d4","ios":"levelo://app?vid=ab394c89-8497-404c-883e-f087b1f270d4"},"vehicle_type_id":"4","last_reported":1679134019,"current_range_meters":26800,"station_id":"ce4bhi12rcd13ifvqfp0","pricing_plan_id":"free"},{"bike_id":"ce0d0e2f-16b2-419e-bf1d-7ecab68ee399","system_id":"levelo_inurba_marseille","lat":43.239588,"lon":5.366238,"is_reserved":false,"is_disabled":false,"rental_uris":{"android":"levelo://app?vid=ce0d0e2f-16b2-419e-bf1d-7ecab68ee399","ios":"levelo://app?vid=ce0d0e2f-16b2-419e-bf1d-7ecab68ee399"},"vehicle_type_id":"4","last_reported":1679134019,"current_range_meters":31600,"station_id":"ce4bhi12rcd13ifvqfp0","pricing_plan_id":"free"},{"bike_id":"a93c0770-e4fd-489f-a66a-ccd3ea1c69fc","system_id":"levelo_inurba_marseille","lat":43.2396,"lon":5.36635,"is_reserved":false,"is_disabled":false,"rental_uris":{"android":"levelo://app?vid=a93c0770-e4fd-489f-a66a-ccd3ea1c69fc","ios":"levelo://app?vid=a93c0770-e4fd-489f-a66a-ccd3ea1c69fc"},"vehicle_type_id":"4","last_reported":1679134019,"current_range_meters":20800,"station_id":"ce4bhi12rcd13ifvqfp0","pricing_plan_id":"free"},{"bike_id":"c97a4080-8b03-41c3-aabf-61ffb1ae7bc3","system_id":"levelo_inurba_marseille","lat":43.241782,"lon":5.397264,"is_reserved":false,"is_disabled":false,"rental_uris":{"android":"levelo://app?vid=c97a4080-8b03-41c3-aabf-61ffb1ae7bc3","ios":"levelo://app?vid=c97a4080-8b03-41c3-aabf-61ffb1ae7bc3"},"vehicle_type_id":"4","last_reported":1679134019,"current_range_meters":31600,"station_id":"ce4bhn12rcd13ifvqgpg","pricing_plan_id":"free"},{"bike_id":"383b24ac-9324-4dd9-91f6-51ce7fd5181a","system_id":"levelo_inurba_marseille","lat":43.241782,"lon":5.397264,"is_reserved":false,"is_disabled":false,"rental_uris":{"android":"levelo://app?vid=383b24ac-9324-4dd9-91f6-51ce7fd5181a","ios":"levelo://app?vid=383b24ac-9324-4dd9-91f6-51ce7fd5181a"},"vehicle_type_id":"4","last_reported":1679134019,"current_range_meters":31600,"station_id":"ce4bhn12rcd13ifvqgpg","pricing_plan_id":"free"},{"bike_id":"88879922-dcd9-4b6f-9fe6-a6a039e9642d","system_id":"levelo_inurba_marseille","lat":43.231923,"lon":5.355545,"is_reserved":false,"is_disabled":false,"rental_uris":{"android":"levelo://app?vid=88879922-dcd9-4b6f-9fe6-a6a039e9642d","ios":"levelo://app?vid=88879922-dcd9-4b6f-9fe6-a6a039e9642d"},"vehicle_type_id":"4","last_reported":1679134019,"current_range_meters":31600,"station_id":"ce4bhu92rcd13ifvqi70","pricing_plan_id":"free"},{"bike_id":"b9f6f4f0-f36b-4f70-8715-1fede5862196","system_id":"levelo_inurba_marseille","lat":43.231919,"lon":5.355532,"is_reserved":false,"is_disabled":false,"rental_uris":{"android":"levelo://app?vid=b9f6f4f0-f36b-4f70-8715-1fede5862196","ios":"levelo://app?vid=b9f6f4f0-f36b-4f70-8715-1fede5862196"},"vehicle_type_id":"4","last_reported":1679134019,"current_range_meters":31600,"station_id":"ce4bhu92rcd13ifvqi70","pricing_plan_id":"free"},{"bike_id":"9396a642-8421-4ca9-b20d-a2492104caf9","system_id":"levelo_inurba_marseille","lat":43.231919,"lon":5.355532,"is_reserved":false,"is_disabled":false,"rental_uris":{"android":"levelo://app?vid=9396a642-8421-4ca9-b20d-a2492104caf9","ios":"levelo://app?vid=9396a642-8421-4ca9-b20d-a2492104caf9"},"vehicle_type_id":"4","last_reported":1679134019,"current_range_meters":32000,"station_id":"ce4bhu92rcd13ifvqi70","pricing_plan_id":"free"},{"bike_id":"956fe110-a343-4414-91a1-6e3d50bfa094","system_id":"levelo_inurba_marseille","lat":43.231923,"lon":5.355545,"is_reserved":false,"is_disabled":false,"rental_uris":{"android":"levelo://app?vid=956fe110-a343-4414-91a1-6e3d50bfa094","ios":"levelo://app?vid=956fe110-a343-4414-91a1-6e3d50bfa094"},"vehicle_type_id":"4","last_reported":1679134019,"current_range_meters":31200,"station_id":"ce4bhu92rcd13ifvqi70","pricing_plan_id":"free"},{"bike_id":"5c296cfe-bb42-4ddc-9604-9304ff266475","system_id":"levelo_inurba_marseille","lat":43.231919,"lon":5.355532,"is_reserved":false,"is_disabled":false,"rental_uris":{"android":"levelo://app?vid=5c296cfe-bb42-4ddc-9604-9304ff266475","ios":"levelo://app?vid=5c296cfe-bb42-4ddc-9604-9304ff266475"},"vehicle_type_id":"4","last_reported":1679134019,"current_range_meters":32000,"station_id":"ce4bhu92rcd13ifvqi70","pricing_plan_id":"free"},{"bike_id":"0010ebe6-0da4-49c8-96ff-1cfa6d1925a0","system_id":"levelo_inurba_marseille","lat":43.23192,"lon":5.35557,"is_reserved":false,"is_disabled":false,"rental_uris":{"android":"levelo://app?vid=0010ebe6-0da4-49c8-96ff-1cfa6d1925a0","ios":"levelo://app?vid=0010ebe6-0da4-49c8-96ff-1cfa6d1925a0"},"vehicle_type_id":"4","last_reported":1679134019,"current_range_meters":18800,"station_id":"ce4bhu92rcd13ifvqi70","pricing_plan_id":"free"},{"bike_id":"ff98316f-748f-4069-a942-b27635abd352","system_id":"levelo_inurba_marseille","lat":43.231923,"lon":5.355545,"is_reserved":false,"is_disabled":false,"rental_uris":{"android":"levelo://app?vid=ff98316f-748f-4069-a942-b27635abd352","ios":"levelo://app?vid=ff98316f-748f-4069-a942-b27635abd352"},"vehicle_type_id":"4","last_reported":1679134019,"current_range_meters":31600,"station_id":"ce4bhu92rcd13ifvqi70","pricing_plan_id":"free"},{"bike_id":"c609bd05-9ac8-45c2-9e95-79b7cc3205ec","system_id":"levelo_inurba_marseille","lat":43.231919,"lon":5.355532,"is_reserved":false,"is_disabled":false,"rental_uris":{"android":"levelo://app?vid=c609bd05-9ac8-45c2-9e95-79b7cc3205ec","ios":"levelo://app?vid=c609bd05-9ac8-45c2-9e95-79b7cc3205ec"},"vehicle_type_id":"4","last_reported":1679134019,"current_range_meters":17200,"station_id":"ce4bhu92rcd13ifvqi70","pricing_plan_id":"free"},{"bike_id":"beaf722f-8cce-48cc-9f08-62b9af3ed634","system_id":"levelo_inurba_marseille","lat":43.231919,"lon":5.355532,"is_reserved":false,"is_disabled":false,"rental_uris":{"android":"levelo://app?vid=beaf722f-8cce-48cc-9f08-62b9af3ed634","ios":"levelo://app?vid=beaf722f-8cce-48cc-9f08-62b9af3ed634"},"vehicle_type_id":"4","last_reported":1679134019,"current_range_meters":22000,"station_id":"ce4bhu92rcd13ifvqi70","pricing_plan_id":"free"}]}}