{"last_updated":1751663395,"ttl":60,"version":"2.2","data":{"bikes":[{"bike_id":"3da29fb8-fc97-44c6-b9ac-31dd456b2fd4","system_id":"levelo_inurba_marseille","lat":43.33771,"lon":5.37424,"is_reserved":false,"is_disabled":true,"rental_uris":{"android":"levelo://app?vid=3da29fb8-fc97-44c6-b9ac-31dd456b2fd4","ios":"levelo://app?vid=3da29fb8-fc97-44c6-b9ac-31dd456b2fd4"},"vehicle_type_id":"4","last_reported":1751663395,"current_range_meters":0,"station_id":"","pricing_plan_id":"cebpf4jnsgd1na2vs0mg"},{"bike_id":"01861ad8-a8d7-4be6-816e-651927c87584","system_id":"levelo_inurba_marseille","lat":43.33751,"lon":5.37456,"is_reserved":false,"is_disabled":true,"rental_uris":{"android":"levelo://app?vid=01861ad8-a8d7-4be6-816e-651927c87584","ios":"levelo://app?vid=01861ad8-a8d7-4be6-816e-651927c87584"},"vehicle_type_id":"4","last_reported":1751663395,"current_range_meters":0,"station_id":"","pricing_plan_id":"cebpf4jnsgd1na2vs0mg"},{"bike_id":"fb7eaa34-3090-467a-bc3a-a4c2c7cd510d","system_id":"levelo_inurba_marseille","lat":43.21694,"lon":5.34635,"is_reserved":false,"is_disabled":true,"rental_uris":{"android":"levelo://app?vid=fb7eaa34-3090-467a-bc3a-a4c2c7cd510d","ios":"levelo://app?vid=fb7eaa34-3090-467a-bc3a-a4c2c7cd510d"},"vehicle_type_id":"4","last_reported":1751663395,"current_range_meters":0,"station_id":"","pricing_plan_id":"cebpf4jnsgd1na2vs0mg"},{"bike_id":"eb2a50ca-506b-4e80-b379-08adc8ae9a82","system_id":"levelo_inurba_marseille","lat":43.25396,"lon":5.37511,"is_reserved":false,"is_disabled":true,"rental_uris":{"android":"levelo://app?vid=eb2a50ca-506b-4e80-b379-08adc8ae9a82","ios":"levelo://app?vid=eb2a50ca-506b-4e80-b379-08adc8ae9a82"},"vehicle_type_id":"4","last_reported":1751663395,"current_range_meters":0,"station_id":"","pricing_plan_id":"cebpf4jnsgd1na2vs0mg"},{"bike_id":"d594088d-7cb9-4f95-8646-b495a2c02aa9","system_id":"levelo_inurba_marseille","lat":43.31692,"lon":5.40471,"is_reserved":false,"is_disabled":true,"rental_uris":{"android":"levelo://app?vid=d594088d-7cb9-4f95-8646-b495a2c02aa9","ios":"levelo://app?vid=d594088d-7cb9-4f95-8646-b495a2c02aa9"},"vehicle_type_id":"4","last_reported":1751663395,"current_range_meters":0,"station_id":"ce4bh012rcd13ifvqd00","pricing_plan_id":"cebpf4jnsgd1na2vs0mg"},{"bike_id":"e0273622-eef9-4296-ae2b-bb8c1e44d0cd","system_id":"levelo_inurba_marseille","lat":43.30635,"lon":5.40085,"is_reserved":false,"is_disabled":true,"rental_uris":{"android":"levelo://app?vid=e0273622-eef9-4296-ae2b-bb8c1e44d0cd","ios":"levelo://app?vid=e0273622-eef9-4296-ae2b-bb8c1e44d0cd"},"vehicle_type_id":"4","last_reported":1751663395,"current_range_meters":0,"station_id":"ce4bh112rcd13ifvqda0","pricing_plan_id":"cebpf4jnsgd1na2vs0mg"},{"bike_id":"c5c441b3-987d-4bab-aae8-416e7195bf29","system_id":"levelo_inurba_marseille","lat":43.2927,"lon":5.40136,"is_reserved":false,"is_disabled":true,"rental_uris":{"android":"levelo://app?vid=c5c441b3-987d-4bab-aae8-416e7195bf29","ios":"levelo://app?vid=c5c441b3-987d-4bab-aae8-416e7195bf29"},"vehicle_type_id":"4","last_reported":1751663395,"current_range_meters":0,"station_id":"ce4bh312rcd13ifvqdk0","pricing_plan_id":"cebpf4jnsgd1na2vs0mg"},{"bike_id":"f626e8f0-6274-4579-b6df-e825c0d4beec","system_id":"levelo_inurba_marseille","lat":43.24777,"lon":5.37492,"is_reserved":false,"is_disabled":true,"rental_uris":{"android":"levelo://app?vid=f626e8f0-6274-4579-b6df-e825c0d4beec","ios":"levelo://app?vid=f626e8f0-6274-4579-b6df-e825c0d4beec"},"vehicle_type_id":"4","last_reported":1751663395,"current_range_meters":0,"station_id":"ce4bhgh2rcd13ifvqfb0","pricing_plan_id":"cebpf4jnsgd1na2vs0mg"},{"bike_id":"d016d5c1-02ca-4b1b-960b-b2ded45e88fb","system_id":"levelo_inurba_marseille","lat":43.261988,"lon":5.374438,"is_reserved":false,"is_disabled":true,"rental_uris":{"android":"levelo://app?vid=d016d5c1-02ca-4b1b-960b-b2ded45e88fb","ios":"levelo://app?vid=d016d5c1-02ca-4b1b-960b-b2ded45e88fb"},"vehicle_type_id":"4","last_reported":1751663395,"current_range_meters":0,"station_id":"ce4bhgp2rcd13ifvqfc0","pricing_plan_id":"cebpf4jnsgd1na2vs0mg"},{"bike_id":"72440427-ed19-4faa-9a23-8d3613e65c18","system_id":"levelo_inurba_marseille","lat":43.26193,"lon":5.37457,"is_reserved":false,"is_disabled":true,"rental_uris":{"android":"levelo://app?vid=72440427-ed19-4faa-9a23-8d3613e65c18","ios":"levelo://app?vid=72440427-ed19-4faa-9a23-8d3613e65c18"},"vehicle_type_id":"4","last_reported":1751663395,"current_range_meters":0,"station_id":"ce4bhgp2rcd13ifvqfc0","pricing_plan_id":"cebpf4jnsgd1na2vs0mg"},{"bike_id":"2db7de25-6c57-447b-bff5-ea01c3753780","system_id":"levelo_inurba_marseille","lat":43.21749,"lon":5.3461,"is_reserved":false,"is_disabled":true,"rental_uris":{"android":"levelo://app?vid=2db7de25-6c57-447b-bff5-ea01c3753780","ios":"levelo://app?vid=2db7de25-6c57-447b-bff5-ea01c3753780"},"vehicle_type_id":"4","last_reported":1751663395,"current_range_meters":0,"station_id":"st_cvj6r9ubvosntc0bgbag","pricing_plan_id":"cebpf4jnsgd1na2vs0mg"},{"bike_id":"5e8830ec-34e5-4f0f-b607-434b2954d153","system_id":"levelo_inurba_marseille","lat":43.211934,"lon":5.350709,"is_reserved":false,"is_disabled":true,"rental_uris":{"android":"levelo://app?vid=5e8830ec-34e5-4f0f-b607-434b2954d153","ios":"levelo://app?vid=5e8830ec-34e5-4f0f-b607-434b2954d153"},"vehicle_type_id":"4","last_reported":1751663395,"current_range_meters":0,"station_id":"st_cvj6sg6p6f1abm77japg","pricing_plan_id":"cebpf4jnsgd1na2vs0mg"},{"bike_id":"cee0b5b6-9b90-457a-85f4-540287a23b84","system_id":"levelo_inurba_marseille","lat":43.21191,"lon":5.35071,"is_reserved":false,"is_disabled":true,"rental_uris":{"android":"levelo://app?vid=cee0b5b6-9b90-457a-85f4-540287a23b84","ios":"levelo://app?vid=cee0b5b6-9b90-457a-85f4-540287a23b84"},"vehicle_type_id":"4","last_reported":1751663395,"current_range_meters":0,"station_id":"st_cvj6sg6p6f1abm77japg","pricing_plan_id":"cebpf4jnsgd1na2vs0mg"},{"bike_id":"cd2a3af2-854b-4519-92e5-1eaf70ba8a37","system_id":"levelo_inurba_marseille","lat":43.21205,"lon":5.35058,"is_reserved":false,"is_disabled":true,"rental_uris":{"android":"levelo://app?vid=cd2a3af2-854b-4519-92e5-1eaf70ba8a37","ios":"levelo://app?vid=cd2a3af2-854b-4519-92e5-1eaf70ba8a37"},"vehicle_type_id":"4","last_reported":1751663395,"current_range_meters":0,"station_id":"st_cvj6sg6p6f1abm77japg","pricing_plan_id":"cebpf4jnsgd1na2vs0mg"},{"bike_id":"e4345b57-dbf1-44ec-83e4-afa01bcad8a4","system_id":"levelo_inurba_marseille","lat":43.30147,"lon":5.38778,"is_reserved":false,"is_disabled":true,"rental_uris":{"android":"levelo://app?vid=e4345b57-dbf1-44ec-83e4-afa01bcad8a4","ios":"levelo://app?vid=e4345b57-dbf1-44ec-83e4-afa01bcad8a4"},"vehicle_type_id":"4","last_reported":1751663395,"current_range_meters":400,"station_id":"ce4bghh2rcd13ifvqb60","pricing_plan_id":"cebpf4jnsgd1na2vs0mg"},{"bike_id":"56a0bd6a-5a43-4eff-9db4-41baa3f191f8","system_id":"levelo_inurba_marseille","lat":43.30307,"lon":5.36907,"is_reserved":false,"is_disabled":true,"rental_uris":{"android":"levelo://app?vid=56a0bd6a-5a43-4eff-9db4-41baa3f191f8","ios":"levelo://app?vid=56a0bd6a-5a43-4eff-9db4-41baa3f191f8"},"vehicle_type_id":"4","last_reported":1751663395,"current_range_meters":400,"station_id":"ce4bgqh2rcd13ifvqc5g","pricing_plan_id":"cebpf4jnsgd1na2vs0mg"},{"bike_id":"677a7dbc-84a8-423e-b8d9-aed84e5c6d93","system_id":"levelo_inurba_marseille","lat":43.294189,"lon":5.386154,"is_reserved":false,"is_disabled":true,"rental_uris":{"android":"levelo://app?vid=677a7dbc-84a8-423e-b8d9-aed84e5c6d93","ios":"levelo://app?vid=677a7dbc-84a8-423e-b8d9-aed84e5c6d93"},"vehicle_type_id":"4","last_reported":1751663395,"current_range_meters":800,"station_id":"ce4bh2h2rcd13ifvqdh0","pricing_plan_id":"cebpf4jnsgd1na2vs0mg"},{"bike_id":"b7612024-58fb-48af-a9cb-fe7096a67d21","system_id":"levelo_inurba_marseille","lat":43.28846,"lon":5.3931,"is_reserved":false,"is_disabled":true,"rental_uris":{"android":"levelo://app?vid=b7612024-58fb-48af-a9cb-fe7096a67d21","ios":"levelo://app?vid=b7612024-58fb-48af-a9cb-fe7096a67d21"},"vehicle_type_id":"4","last_reported":1751663395,"current_range_meters":800,"station_id":"ce4bh2p2rcd13ifvqdi0","pricing_plan_id":"cebpf4jnsgd1na2vs0mg"},{"bike_id":"692629f7-7d5a-4014-be41-461c13cfd7fc","system_id":"levelo_inurba_marseille","lat":43.28675,"lon":5.38663,"is_reserved":false,"is_disabled":true,"rental_uris":{"android":"levelo://app?vid=692629f7-7d5a-4014-be41-461c13cfd7fc","ios":"levelo://app?vid=692629f7-7d5a-4014-be41-461c13cfd7fc"},"vehicle_type_id":"4","last_reported":1751663395,"current_range_meters":1200,"station_id":"ce4bh492rcd13ifvqdug","pricing_plan_id":"cebpf4jnsgd1na2vs0mg"},{"bike_id":"6c9c01ad-e650-4fcd-ba1f-7d1d06a0aa95","system_id":"levelo_inurba_marseille","lat":43.25106,"lon":5.40325,"is_reserved":false,"is_disabled":true,"rental_uris":{"android":"levelo://app?vid=6c9c01ad-e650-4fcd-ba1f-7d1d06a0aa95","ios":"levelo://app?vid=6c9c01ad-e650-4fcd-ba1f-7d1d06a0aa95"},"vehicle_type_id":"4","last_reported":1751663395,"current_range_meters":1200,"station_id":"ce4bhlh2rcd13ifvqgig","pricing_plan_id":"cebpf4jnsgd1na2vs0mg"},{"bike_id":"2bc2e2f5-abc3-468a-a27b-5c8b3060b750","system_id":"levelo_inurba_marseille","lat":43.25107,"lon":5.40336,"is_reserved":false,"is_disabled":true,"rental_uris":{"android":"levelo://app?vid=2bc2e2f5-abc3-468a-a27b-5c8b3060b750","ios":"levelo://app?vid=2bc2e2f5-abc3-468a-a27b-5c8b3060b750"},"vehicle_type_id":"4","last_reported":1751663395,"current_range_meters":1200,"station_id":"ce4bhlh2rcd13ifvqgig","pricing_plan_id":"cebpf4jnsgd1na2vs0mg"},{"bike_id":"96a3c80e-b95b-4d2f-b837-19b5a4c7632b","system_id":"levelo_inurba_marseille","lat":43.32332,"lon":5.40629,"is_reserved":false,"is_disabled":true,"rental_uris":{"android":"levelo://app?vid=96a3c80e-b95b-4d2f-b837-19b5a4c7632b","ios":"levelo://app?vid=96a3c80e-b95b-4d2f-b837-19b5a4c7632b"},"vehicle_type_id":"4","last_reported":1751663395,"current_range_meters":1200,"station_id":"ce4bhq92rcd13ifvqhjg","pricing_plan_id":"cebpf4jnsgd1na2vs0mg"},{"bike_id":"d52317ec-9d8e-4e5d-a5ef-563eb0952a26","system_id":"levelo_inurba_marseille","lat":43.31754,"lon":5.39014,"is_reserved":false,"is_disabled":true,"rental_uris":{"android":"levelo://app?vid=d52317ec-9d8e-4e5d-a5ef-563eb0952a26","ios":"levelo://app?vid=d52317ec-9d8e-4e5d-a5ef-563eb0952a26"},"vehicle_type_id":"4","last_reported":1751663395,"current_range_meters":1200,"station_id":"ce4bhqp2rcd13ifvqhng","pricing_plan_id":"cebpf4jnsgd1na2vs0mg"},{"bike_id":"232c7599-afff-41a5-b0d2-0bcec5f48bb6","system_id":"levelo_inurba_marseille","lat":43.21712,"lon":5.34616,"is_reserved":false,"is_disabled":true,"rental_uris":{"android":"levelo://app?vid=232c7599-afff-41a5-b0d2-0bcec5f48bb6","ios":"levelo://app?vid=232c7599-afff-41a5-b0d2-0bcec5f48bb6"},"vehicle_type_id":"4","last_reported":1751663395,"current_range_meters":1200,"station_id":"st_cvj6r9ubvosntc0bgbag","pricing_plan_id":"cebpf4jnsgd1na2vs0mg"},{"bike_id":"ff733a57-9da9-4f5c-8167-1de9c2be51f0","system_id":"levelo_inurba_marseille","lat":43.30332,"lon":5.40424,"is_reserved":false,"is_disabled":true,"rental_uris":{"android":"levelo://app?vid=ff733a57-9da9-4f5c-8167-1de9c2be51f0","ios":"levelo://app?vid=ff733a57-9da9-4f5c-8167-1de9c2be51f0"},"vehicle_type_id":"4","last_reported":1751663395,"current_range_meters":1600,"station_id":"ce4bh012rcd13ifvqd10","pricing_plan_id":"cebpf4jnsgd1na2vs0mg"},{"bike_id":"d327be43-34d8-4169-bd67-4fdf2983e6de","system_id":"levelo_inurba_marseille","lat":43.31754,"lon":5.39018,"is_reserved":false,"is_disabled":true,"rental_uris":{"android":"levelo://app?vid=d327be43-34d8-4169-bd67-4fdf2983e6de","ios":"levelo://app?vid=d327be43-34d8-4169-bd67-4fdf2983e6de"},"vehicle_type_id":"4","last_reported":1751663395,"current_range_meters":1600,"station_id":"ce4bhqp2rcd13ifvqhng","pricing_plan_id":"cebpf4jnsgd1na2vs0mg"},{"bike_id":"11e7b8be-6254-46c8-a705-c6941c346d56","system_id":"levelo_inurba_marseille","lat":43.30137,"lon":5.37729,"is_reserved":false,"is_disabled":true,"rental_uris":{"android":"levelo://app?vid=11e7b8be-6254-46c8-a705-c6941c346d56","ios":"levelo://app?vid=11e7b8be-6254-46c8-a705-c6941c346d56"},"vehicle_type_id":"4","last_reported":1751663395,"current_range_meters":2000,"station_id":"","pricing_plan_id":"cebpf4jnsgd1na2vs0mg"},{"bike_id":"e8a0310a-2186-4b4a-b1e6-4100edf9ebca","system_id":"levelo_inurba_marseille","lat":43.30306,"lon":5.36902,"is_reserved":false,"is_disabled":false,"rental_uris":{"android":"levelo://app?vid=e8a0310a-2186-4b4a-b1e6-4100edf9ebca","ios":"levelo://app?vid=e8a0310a-2186-4b4a-b1e6-4100edf9ebca"},"vehicle_type_id":"4","last_reported":1751663395,"current_range_meters":2800,"station_id":"ce4bgqh2rcd13ifvqc5g","pricing_plan_id":"cebpf4jnsgd1na2vs0mg"},{"bike_id":"99377239-adac-457d-ae0a-5c8b0b71d03c","system_id":"levelo_inurba_marseille","lat":43.30212,"lon":5.39471,"is_reserved":false,"is_disabled":false,"rental_uris":{"android":"levelo://app?vid=99377239-adac-457d-ae0a-5c8b0b71d03c","ios":"levelo://app?vid=99377239-adac-457d-ae0a-5c8b0b71d03c"},"vehicle_type_id":"4","last_reported":1751663395,"current_range_meters":2800,"station_id":"ce4bh0p2rcd13ifvqd70","pricing_plan_id":"cebpf4jnsgd1na2vs0mg"},{"bike_id":"ebcd153b-7a35-41e0-a29f-fc0c33fdad1e","system_id":"levelo_inurba_marseille","lat":43.28355,"lon":5.38101,"is_reserved":false,"is_disabled":false,"rental_uris":{"android":"levelo://app?vid=ebcd153b-7a35-41e0-a29f-fc0c33fdad1e","ios":"levelo://app?vid=ebcd153b-7a35-41e0-a29f-fc0c33fdad1e"},"vehicle_type_id":"4","last_reported":1751663395,"current_range_meters":2800,"station_id":"ce4bh412rcd13ifvqdr0","pricing_plan_id":"cebpf4jnsgd1na2vs0mg"},{"bike_id":"d792741b-ec68-427b-b037-0ff6adcbc4d4","system_id":"levelo_inurba_marseille","lat":43.2717,"lon":5.40995,"is_reserved":false,"is_disabled":false,"rental_uris":{"android":"levelo://app?vid=d792741b-ec68-427b-b037-0ff6adcbc4d4","ios":"levelo://app?vid=d792741b-ec68-427b-b037-0ff6adcbc4d4"},"vehicle_type_id":"4","last_reported":1751663395,"current_range_meters":2800,"station_id":"ce4bhl12rcd13ifvqgf0","pricing_plan_id":"cebpf4jnsgd1na2vs0mg"},{"bike_id":"2a241f65-8c0f-4994-b428-7f267bed3702","system_id":"levelo_inurba_marseille","lat":43.29782,"lon":5.39361,"is_reserved":false,"is_disabled":false,"rental_uris":{"android":"levelo://app?vid=2a241f65-8c0f-4994-b428-7f267bed3702","ios":"levelo://app?vid=2a241f65-8c0f-4994-b428-7f267bed3702"},"vehicle_type_id":"4","last_reported":1751663395,"current_range_meters":2800,"station_id":"chh1huq6cuj3fo74tm60","pricing_plan_id":"cebpf4jnsgd1na2vs0mg"},{"bike_id":"6dd0ae1d-9275-495b-bb5d-86f3343a06d0","system_id":"levelo_inurba_marseille","lat":43.29968,"lon":5.38497,"is_reserved":false,"is_disabled":false,"rental_uris":{"android":"levelo://app?vid=6dd0ae1d-9275-495b-bb5d-86f3343a06d0","ios":"levelo://app?vid=6dd0ae1d-9275-495b-bb5d-86f3343a06d0"},"vehicle_type_id":"4","last_reported":1751663395,"current_range_meters":3200,"station_id":"ce4bgj92rcd13ifvqbd0","pricing_plan_id":"cebpf4jnsgd1na2vs0mg"},{"bike_id":"12ced28c-c39b-47f3-8f29-d084fea1551f","system_id":"levelo_inurba_marseille","lat":43.30423,"lon":5.39742,"is_reserved":false,"is_disabled":false,"rental_uris":{"android":"levelo://app?vid=12ced28c-c39b-47f3-8f29-d084fea1551f","ios":"levelo://app?vid=12ced28c-c39b-47f3-8f29-d084fea1551f"},"vehicle_type_id":"4","last_reported":1751663395,"current_range_meters":3200,"station_id":"ce4bh092rcd13ifvqd20","pricing_plan_id":"cebpf4jnsgd1na2vs0mg"},{"bike_id":"6261ec56-a632-4cb4-a5c4-9470f9282277","system_id":"levelo_inurba_marseille","lat":43.28945,"lon":5.36405,"is_reserved":false,"is_disabled":false,"rental_uris":{"android":"levelo://app?vid=6261ec56-a632-4cb4-a5c4-9470f9282277","ios":"levelo://app?vid=6261ec56-a632-4cb4-a5c4-9470f9282277"},"vehicle_type_id":"4","last_reported":1751663395,"current_range_meters":3200,"station_id":"ce4bhc92rcd13ifvqetg","pricing_plan_id":"cebpf4jnsgd1na2vs0mg"},{"bike_id":"08c535d9-509a-49ef-a4fb-b0b56cb4fbf3","system_id":"levelo_inurba_marseille","lat":43.306543,"lon":5.400847,"is_reserved":false,"is_disabled":false,"rental_uris":{"android":"levelo://app?vid=08c535d9-509a-49ef-a4fb-b0b56cb4fbf3","ios":"levelo://app?vid=08c535d9-509a-49ef-a4fb-b0b56cb4fbf3"},"vehicle_type_id":"4","last_reported":1751663395,"current_range_meters":3600,"station_id":"","pricing_plan_id":"cebpf4jnsgd1na2vs0mg"},{"bike_id":"d4b45015-e1e4-483a-b921-46b86d07a0b3","system_id":"levelo_inurba_marseille","lat":43.30306,"lon":5.39212,"is_reserved":false,"is_disabled":false,"rental_uris":{"android":"levelo://app?vid=d4b45015-e1e4-483a-b921-46b86d07a0b3","ios":"levelo://app?vid=d4b45015-e1e4-483a-b921-46b86d07a0b3"},"vehicle_type_id":"4","last_reported":1751663395,"current_range_meters":3600,"station_id":"ce4bgkh2rcd13ifvqbk0","pricing_plan_id":"cebpf4jnsgd1na2vs0mg"},{"bike_id":"d509617e-f5cf-41da-ba44-0e17415917ba","system_id":"levelo_inurba_marseille","lat":43.29604,"lon":5.38114,"is_reserved":false,"is_disabled":false,"rental_uris":{"android":"levelo://app?vid=d509617e-f5cf-41da-ba44-0e17415917ba","ios":"levelo://app?vid=d509617e-f5cf-41da-ba44-0e17415917ba"},"vehicle_type_id":"4","last_reported":1751663395,"current_range_meters":3600,"station_id":"ce4bgl12rcd13ifvqbo0","pricing_plan_id":"cebpf4jnsgd1na2vs0mg"},{"bike_id":"0f6e54a7-e47c-46a3-9755-ec2879fdad27","system_id":"levelo_inurba_marseille","lat":43.31224,"lon":5.36914,"is_reserved":false,"is_disabled":false,"rental_uris":{"android":"levelo://app?vid=0f6e54a7-e47c-46a3-9755-ec2879fdad27","ios":"levelo://app?vid=0f6e54a7-e47c-46a3-9755-ec2879fdad27"},"vehicle_type_id":"4","last_reported":1751663395,"current_range_meters":3600,"station_id":"ce4bgl92rcd13ifvqbq0","pricing_plan_id":"cebpf4jnsgd1na2vs0mg"},{"bike_id":"b09bf325-2d82-45d6-9cbf-5c9d6d1aaed1","system_id":"levelo_inurba_marseille","lat":43.26206,"lon":5.37446,"is_reserved":false,"is_disabled":false,"rental_uris":{"android":"levelo://app?vid=b09bf325-2d82-45d6-9cbf-5c9d6d1aaed1","ios":"levelo://app?vid=b09bf325-2d82-45d6-9cbf-5c9d6d1aaed1"},"vehicle_type_id":"4","last_reported":1751663395,"current_range_meters":3600,"station_id":"ce4bhgp2rcd13ifvqfc0","pricing_plan_id":"cebpf4jnsgd1na2vs0mg"},{"bike_id":"8afa7640-ebe8-4025-983a-c83f3912a2dd","system_id":"levelo_inurba_marseille","lat":43.21163,"lon":5.35106,"is_reserved":false,"is_disabled":false,"rental_uris":{"android":"levelo://app?vid=8afa7640-ebe8-4025-983a-c83f3912a2dd","ios":"levelo://app?vid=8afa7640-ebe8-4025-983a-c83f3912a2dd"},"vehicle_type_id":"4","last_reported":1751663395,"current_range_meters":4000,"station_id":"st_cvj6sg6p6f1abm77japg","pricing_plan_id":"cebpf4jnsgd1na2vs0mg"},{"bike_id":"e26ba497-efc7-4420-b8c5-9fa5e27f2ce4","system_id":"levelo_inurba_marseille","lat":43.31446,"lon":5.37079,"is_reserved":false,"is_disabled":false,"rental_uris":{"android":"levelo://app?vid=e26ba497-efc7-4420-b8c5-9fa5e27f2ce4","ios":"levelo://app?vid=e26ba497-efc7-4420-b8c5-9fa5e27f2ce4"},"vehicle_type_id":"4","last_reported":1751663395,"current_range_meters":4400,"station_id":"","pricing_plan_id":"cebpf4jnsgd1na2vs0mg"},{"bike_id":"c90df404-dee7-4aed-b9c7-e3496eefe3da","system_id":"levelo_inurba_marseille","lat":43.29975,"lon":5.38484,"is_reserved":false,"is_disabled":false,"rental_uris":{"android":"levelo://app?vid=c90df404-dee7-4aed-b9c7-e3496eefe3da","ios":"levelo://app?vid=c90df404-dee7-4aed-b9c7-e3496eefe3da"},"vehicle_type_id":"4","last_reported":1751663395,"current_range_meters":4800,"station_id":"ce4bgj92rcd13ifvqbd0","pricing_plan_id":"cebpf4jnsgd1na2vs0mg"},{"bike_id":"f56c4fd7-02ba-45d7-9f67-fd5846fc39e6","system_id":"levelo_inurba_marseille","lat":43.29277,"lon":5.40114,"is_reserved":false,"is_disabled":false,"rental_uris":{"android":"levelo://app?vid=f56c4fd7-02ba-45d7-9f67-fd5846fc39e6","ios":"levelo://app?vid=f56c4fd7-02ba-45d7-9f67-fd5846fc39e6"},"vehicle_type_id":"4","last_reported":1751663395,"current_range_meters":4800,"station_id":"ce4bh312rcd13ifvqdk0","pricing_plan_id":"cebpf4jnsgd1na2vs0mg"},{"bike_id":"6550b3ea-da0d-444d-a91c-331d97fc8fac","system_id":"levelo_inurba_marseille","lat":43.27173,"lon":5.40995,"is_reserved":false,"is_disabled":false,"rental_uris":{"android":"levelo://app?vid=6550b3ea-da0d-444d-a91c-331d97fc8fac","ios":"levelo://app?vid=6550b3ea-da0d-444d-a91c-331d97fc8fac"},"vehicle_type_id":"4","last_reported":1751663395,"current_range_meters":4800,"station_id":"ce4bhl12rcd13ifvqgf0","pricing_plan_id":"cebpf4jnsgd1na2vs0mg"},{"bike_id":"afa66a48-c4ab-4618-a32d-f5ce0c429f35","system_id":"levelo_inurba_marseille","lat":43.30462,"lon":5.37909,"is_reserved":false,"is_disabled":false,"rental_uris":{"android":"levelo://app?vid=afa66a48-c4ab-4618-a32d-f5ce0c429f35","ios":"levelo://app?vid=afa66a48-c4ab-4618-a32d-f5ce0c429f35"},"vehicle_type_id":"4","last_reported":1751663395,"current_range_meters":5600,"station_id":"ce4bgup2rcd13ifvqcn0","pricing_plan_id":"cebpf4jnsgd1na2vs0mg"},{"bike_id":"c3ae91a3-84a1-49e1-b302-b2dd0c68bce6","system_id":"levelo_inurba_marseille","lat":43.28317,"lon":5.43246,"is_reserved":false,"is_disabled":false,"rental_uris":{"android":"levelo://app?vid=c3ae91a3-84a1-49e1-b302-b2dd0c68bce6","ios":"levelo://app?vid=c3ae91a3-84a1-49e1-b302-b2dd0c68bce6"},"vehicle_type_id":"4","last_reported":1751663395,"current_range_meters":6000,"station_id":"","pricing_plan_id":"cebpf4jnsgd1na2vs0mg"},{"bike_id":"a4d3edf4-916f-4b73-9f5c-3492428d5b02","system_id":"levelo_inurba_marseille","lat":43.306624,"lon":5.400923,"is_reserved":false,"is_disabled":false,"rental_uris":{"android":"levelo://app?vid=a4d3edf4-916f-4b73-9f5c-3492428d5b02","ios":"levelo://app?vid=a4d3edf4-916f-4b73-9f5c-3492428d5b02"},"vehicle_type_id":"4","last_reported":1751663395,"current_range_meters":6000,"station_id":"ce4bh112rcd13ifvqda0","pricing_plan_id":"cebpf4jnsgd1na2vs0mg"},{"bike_id":"05887a34-5950-4640-a2ed-3dc4e962def2","system_id":"levelo_inurba_marseille","lat":43.30136,"lon":5.39869,"is_reserved":false,"is_disabled":false,"rental_uris":{"android":"levelo://app?vid=05887a34-5950-4640-a2ed-3dc4e962def2","ios":"levelo://app?vid=05887a34-5950-4640-a2ed-3dc4e962def2"},"vehicle_type_id":"4","last_reported":1751663395,"current_range_meters":6400,"station_id":"ce4bh0h2rcd13ifvqd40","pricing_plan_id":"cebpf4jnsgd1na2vs0mg"},{"bike_id":"2f538d7c-0199-4f15-8063-5b9cf3785943","system_id":"levelo_inurba_marseille","lat":43.28833,"lon":5.38818,"is_reserved":false,"is_disabled":false,"rental_uris":{"android":"levelo://app?vid=2f538d7c-0199-4f15-8063-5b9cf3785943","ios":"levelo://app?vid=2f538d7c-0199-4f15-8063-5b9cf3785943"},"vehicle_type_id":"4","last_reported":1751663395,"current_range_meters":6800,"station_id":"","pricing_plan_id":"cebpf4jnsgd1na2vs0mg"},{"bike_id":"cc451587-22b3-409b-b05d-96590a9ac879","system_id":"levelo_inurba_marseille","lat":43.29555,"lon":5.38538,"is_reserved":false,"is_disabled":false,"rental_uris":{"android":"levelo://app?vid=cc451587-22b3-409b-b05d-96590a9ac879","ios":"levelo://app?vid=cc451587-22b3-409b-b05d-96590a9ac879"},"vehicle_type_id":"4","last_reported":1751663395,"current_range_meters":6800,"station_id":"ce4bgih2rcd13ifvqba0","pricing_plan_id":"cebpf4jnsgd1na2vs0mg"},{"bike_id":"2fb351bc-c644-4d0e-bfb6-b1c1a2917fe7","system_id":"levelo_inurba_marseille","lat":43.27941,"lon":5.4104,"is_reserved":false,"is_disabled":false,"rental_uris":{"android":"levelo://app?vid=2fb351bc-c644-4d0e-bfb6-b1c1a2917fe7","ios":"levelo://app?vid=2fb351bc-c644-4d0e-bfb6-b1c1a2917fe7"},"vehicle_type_id":"4","last_reported":1751663395,"current_range_meters":6800,"station_id":"ce4bhnp2rcd13ifvqh0g","pricing_plan_id":"cebpf4jnsgd1na2vs0mg"},{"bike_id":"9bfc7d3d-4e60-4f8a-9c32-ef3d0e77ec5b","system_id":"levelo_inurba_marseille","lat":43.21167,"lon":5.35109,"is_reserved":false,"is_disabled":false,"rental_uris":{"android":"levelo://app?vid=9bfc7d3d-4e60-4f8a-9c32-ef3d0e77ec5b","ios":"levelo://app?vid=9bfc7d3d-4e60-4f8a-9c32-ef3d0e77ec5b"},"vehicle_type_id":"4","last_reported":1751663395,"current_range_meters":6800,"station_id":"st_cvj6sg6p6f1abm77japg","pricing_plan_id":"cebpf4jnsgd1na2vs0mg"},{"bike_id":"be4e2ba2-f83c-4be6-923a-932d435bb5ce","system_id":"levelo_inurba_marseille","lat":43.28234,"lon":5.40442,"is_reserved":false,"is_disabled":false,"rental_uris":{"android":"levelo://app?vid=be4e2ba2-f83c-4be6-923a-932d435bb5ce","ios":"levelo://app?vid=be4e2ba2-f83c-4be6-923a-932d435bb5ce"},"vehicle_type_id":"4","last_reported":1751663395,"current_range_meters":7200,"station_id":"","pricing_plan_id":"cebpf4jnsgd1na2vs0mg"},{"bike_id":"78d9dc36-f9e9-49b7-ad4e-4ba9d9cc9b39","system_id":"levelo_inurba_marseille","lat":43.28848,"lon":5.35844,"is_reserved":false,"is_disabled":false,"rental_uris":{"android":"levelo://app?vid=78d9dc36-f9e9-49b7-ad4e-4ba9d9cc9b39","ios":"levelo://app?vid=78d9dc36-f9e9-49b7-ad4e-4ba9d9cc9b39"},"vehicle_type_id":"4","last_reported":1751663395,"current_range_meters":7200,"station_id":"ce4bhb12rcd13ifvqem0","pricing_plan_id":"cebpf4jnsgd1na2vs0mg"},{"bike_id":"c48275b3-7e76-47c2-9b92-2d5bd73821d2","system_id":"levelo_inurba_marseille","lat":43.27675,"lon":5.38877,"is_reserved":false,"is_disabled":false,"rental_uris":{"android":"levelo://app?vid=c48275b3-7e76-47c2-9b92-2d5bd73821d2","ios":"levelo://app?vid=c48275b3-7e76-47c2-9b92-2d5bd73821d2"},"vehicle_type_id":"4","last_reported":1751663395,"current_range_meters":7200,"station_id":"ce4bhi12rcd13ifvqfo0","pricing_plan_id":"cebpf4jnsgd1na2vs0mg"},{"bike_id":"af8b9ead-7c47-4946-b4b8-58014380a592","system_id":"levelo_inurba_marseille","lat":43.32349,"lon":5.40597,"is_reserved":false,"is_disabled":false,"rental_uris":{"android":"levelo://app?vid=af8b9ead-7c47-4946-b4b8-58014380a592","ios":"levelo://app?vid=af8b9ead-7c47-4946-b4b8-58014380a592"},"vehicle_type_id":"4","last_reported":1751663395,"current_range_meters":7200,"station_id":"ce4bhq92rcd13ifvqhjg","pricing_plan_id":"cebpf4jnsgd1na2vs0mg"},{"bike_id":"e3822c24-4fb4-45b7-8cd2-6e1079eeff65","system_id":"levelo_inurba_marseille","lat":43.31079,"lon":5.42432,"is_reserved":false,"is_disabled":false,"rental_uris":{"android":"levelo://app?vid=e3822c24-4fb4-45b7-8cd2-6e1079eeff65","ios":"levelo://app?vid=e3822c24-4fb4-45b7-8cd2-6e1079eeff65"},"vehicle_type_id":"4","last_reported":1751663395,"current_range_meters":8000,"station_id":"ce4bhp92rcd13ifvqhag","pricing_plan_id":"cebpf4jnsgd1na2vs0mg"},{"bike_id":"980bf51a-4e38-4141-b6a5-bcf51641501f","system_id":"levelo_inurba_marseille","lat":43.26558,"lon":5.40336,"is_reserved":false,"is_disabled":false,"rental_uris":{"android":"levelo://app?vid=980bf51a-4e38-4141-b6a5-bcf51641501f","ios":"levelo://app?vid=980bf51a-4e38-4141-b6a5-bcf51641501f"},"vehicle_type_id":"4","last_reported":1751663395,"current_range_meters":8400,"station_id":"","pricing_plan_id":"cebpf4jnsgd1na2vs0mg"},{"bike_id":"d799b321-3a7d-4201-b46e-ffe2ad124f19","system_id":"levelo_inurba_marseille","lat":43.32924,"lon":5.38365,"is_reserved":false,"is_disabled":false,"rental_uris":{"android":"levelo://app?vid=d799b321-3a7d-4201-b46e-ffe2ad124f19","ios":"levelo://app?vid=d799b321-3a7d-4201-b46e-ffe2ad124f19"},"vehicle_type_id":"4","last_reported":1751663395,"current_range_meters":8400,"station_id":"","pricing_plan_id":"cebpf4jnsgd1na2vs0mg"},{"bike_id":"d69e4bbe-da82-4f8c-ad12-b931026fbe9a","system_id":"levelo_inurba_marseille","lat":43.31363,"lon":5.38491,"is_reserved":false,"is_disabled":false,"rental_uris":{"android":"levelo://app?vid=d69e4bbe-da82-4f8c-ad12-b931026fbe9a","ios":"levelo://app?vid=d69e4bbe-da82-4f8c-ad12-b931026fbe9a"},"vehicle_type_id":"4","last_reported":1751663395,"current_range_meters":8400,"station_id":"ce4bgt92rcd13ifvqcf0","pricing_plan_id":"cebpf4jnsgd1na2vs0mg"},{"bike_id":"0cc5df2b-0716-4bdf-822b-16280a05e4d6","system_id":"levelo_inurba_marseille","lat":43.30121,"lon":5.39865,"is_reserved":false,"is_disabled":false,"rental_uris":{"android":"levelo://app?vid=0cc5df2b-0716-4bdf-822b-16280a05e4d6","ios":"levelo://app?vid=0cc5df2b-0716-4bdf-822b-16280a05e4d6"},"vehicle_type_id":"4","last_reported":1751663395,"current_range_meters":8400,"station_id":"ce4bh0h2rcd13ifvqd40","pricing_plan_id":"cebpf4jnsgd1na2vs0mg"},{"bike_id":"6486e142-ca76-4b7f-83a7-accbb19cbe42","system_id":"levelo_inurba_marseille","lat":43.29796,"lon":5.40402,"is_reserved":false,"is_disabled":false,"rental_uris":{"android":"levelo://app?vid=6486e142-ca76-4b7f-83a7-accbb19cbe42","ios":"levelo://app?vid=6486e142-ca76-4b7f-83a7-accbb19cbe42"},"vehicle_type_id":"4","last_reported":1751663395,"current_range_meters":8400,"station_id":"ce4bh112rcd13ifvqd90","pricing_plan_id":"cebpf4jnsgd1na2vs0mg"},{"bike_id":"2a0aa439-8a54-4683-bc42-2a4342d8b06e","system_id":"levelo_inurba_marseille","lat":43.28664,"lon":5.38667,"is_reserved":false,"is_disabled":false,"rental_uris":{"android":"levelo://app?vid=2a0aa439-8a54-4683-bc42-2a4342d8b06e","ios":"levelo://app?vid=2a0aa439-8a54-4683-bc42-2a4342d8b06e"},"vehicle_type_id":"4","last_reported":1751663395,"current_range_meters":8400,"station_id":"ce4bh492rcd13ifvqdug","pricing_plan_id":"cebpf4jnsgd1na2vs0mg"},{"bike_id":"2a6f440c-f8aa-4293-b7ff-9b60fa22f9e8","system_id":"levelo_inurba_marseille","lat":43.26556,"lon":5.37304,"is_reserved":false,"is_disabled":false,"rental_uris":{"android":"levelo://app?vid=2a6f440c-f8aa-4293-b7ff-9b60fa22f9e8","ios":"levelo://app?vid=2a6f440c-f8aa-4293-b7ff-9b60fa22f9e8"},"vehicle_type_id":"4","last_reported":1751663395,"current_range_meters":8400,"station_id":"ce4bhg12rcd13ifvqf70","pricing_plan_id":"cebpf4jnsgd1na2vs0mg"},{"bike_id":"98a7cdbd-d104-4561-bd53-9e153fdeea66","system_id":"levelo_inurba_marseille","lat":43.27175,"lon":5.4099,"is_reserved":false,"is_disabled":false,"rental_uris":{"android":"levelo://app?vid=98a7cdbd-d104-4561-bd53-9e153fdeea66","ios":"levelo://app?vid=98a7cdbd-d104-4561-bd53-9e153fdeea66"},"vehicle_type_id":"4","last_reported":1751663395,"current_range_meters":8400,"station_id":"ce4bhl12rcd13ifvqgf0","pricing_plan_id":"cebpf4jnsgd1na2vs0mg"},{"bike_id":"4bac3f2b-eb39-405f-9e58-7764b5148051","system_id":"levelo_inurba_marseille","lat":43.321653,"lon":5.417742,"is_reserved":false,"is_disabled":false,"rental_uris":{"android":"levelo://app?vid=4bac3f2b-eb39-405f-9e58-7764b5148051","ios":"levelo://app?vid=4bac3f2b-eb39-405f-9e58-7764b5148051"},"vehicle_type_id":"4","last_reported":1751663395,"current_range_meters":8800,"station_id":"","pricing_plan_id":"cebpf4jnsgd1na2vs0mg"},{"bike_id":"dfa1c380-e619-4d58-9700-e366787f15f4","system_id":"levelo_inurba_marseille","lat":43.31028,"lon":5.38414,"is_reserved":false,"is_disabled":false,"rental_uris":{"android":"levelo://app?vid=dfa1c380-e619-4d58-9700-e366787f15f4","ios":"levelo://app?vid=dfa1c380-e619-4d58-9700-e366787f15f4"},"vehicle_type_id":"4","last_reported":1751663395,"current_range_meters":8800,"station_id":"ce4bgv92rcd13ifvqcr0","pricing_plan_id":"cebpf4jnsgd1na2vs0mg"},{"bike_id":"d805a8be-f3ef-448b-ba0d-c12db2cbb042","system_id":"levelo_inurba_marseille","lat":43.27676,"lon":5.38884,"is_reserved":false,"is_disabled":false,"rental_uris":{"android":"levelo://app?vid=d805a8be-f3ef-448b-ba0d-c12db2cbb042","ios":"levelo://app?vid=d805a8be-f3ef-448b-ba0d-c12db2cbb042"},"vehicle_type_id":"4","last_reported":1751663395,"current_range_meters":8800,"station_id":"ce4bhi12rcd13ifvqfo0","pricing_plan_id":"cebpf4jnsgd1na2vs0mg"},{"bike_id":"d86d6cf1-50dc-4750-9949-e1e577bd9675","system_id":"levelo_inurba_marseille","lat":43.25103,"lon":5.4033,"is_reserved":false,"is_disabled":false,"rental_uris":{"android":"levelo://app?vid=d86d6cf1-50dc-4750-9949-e1e577bd9675","ios":"levelo://app?vid=d86d6cf1-50dc-4750-9949-e1e577bd9675"},"vehicle_type_id":"4","last_reported":1751663395,"current_range_meters":8800,"station_id":"ce4bhlh2rcd13ifvqgig","pricing_plan_id":"cebpf4jnsgd1na2vs0mg"},{"bike_id":"91c325fc-a597-4f93-b76d-f935cdf84b9a","system_id":"levelo_inurba_marseille","lat":43.29893,"lon":5.43677,"is_reserved":false,"is_disabled":false,"rental_uris":{"android":"levelo://app?vid=91c325fc-a597-4f93-b76d-f935cdf84b9a","ios":"levelo://app?vid=91c325fc-a597-4f93-b76d-f935cdf84b9a"},"vehicle_type_id":"4","last_reported":1751663395,"current_range_meters":8800,"station_id":"ce4bhpp2rcd13ifvqhfg","pricing_plan_id":"cebpf4jnsgd1na2vs0mg"},{"bike_id":"c76381fd-b6b9-4d02-a8a4-fd4e6891e706","system_id":"levelo_inurba_marseille","lat":43.30242,"lon":5.39026,"is_reserved":false,"is_disabled":false,"rental_uris":{"android":"levelo://app?vid=c76381fd-b6b9-4d02-a8a4-fd4e6891e706","ios":"levelo://app?vid=c76381fd-b6b9-4d02-a8a4-fd4e6891e706"},"vehicle_type_id":"4","last_reported":1751663395,"current_range_meters":9200,"station_id":"","pricing_plan_id":"cebpf4jnsgd1na2vs0mg"},{"bike_id":"a76f5ed6-1e7c-49ec-a3ee-a2a50e3a4e68","system_id":"levelo_inurba_marseille","lat":43.31175,"lon":5.38718,"is_reserved":false,"is_disabled":false,"rental_uris":{"android":"levelo://app?vid=a76f5ed6-1e7c-49ec-a3ee-a2a50e3a4e68","ios":"levelo://app?vid=a76f5ed6-1e7c-49ec-a3ee-a2a50e3a4e68"},"vehicle_type_id":"4","last_reported":1751663395,"current_range_meters":9200,"station_id":"ce4bgv12rcd13ifvqcp0","pricing_plan_id":"cebpf4jnsgd1na2vs0mg"},{"bike_id":"9f1f6042-7e07-4b00-9dc1-8f0343d9174e","system_id":"levelo_inurba_marseille","lat":43.21181,"lon":5.35097,"is_reserved":false,"is_disabled":false,"rental_uris":{"android":"levelo://app?vid=9f1f6042-7e07-4b00-9dc1-8f0343d9174e","ios":"levelo://app?vid=9f1f6042-7e07-4b00-9dc1-8f0343d9174e"},"vehicle_type_id":"4","last_reported":1751663395,"current_range_meters":9200,"station_id":"st_cvj6sg6p6f1abm77japg","pricing_plan_id":"cebpf4jnsgd1na2vs0mg"},{"bike_id":"ba154a12-11bd-42a5-958a-5992f5d043d1","system_id":"levelo_inurba_marseille","lat":43.30491,"lon":5.37078,"is_reserved":false,"is_disabled":false,"rental_uris":{"android":"levelo://app?vid=ba154a12-11bd-42a5-958a-5992f5d043d1","ios":"levelo://app?vid=ba154a12-11bd-42a5-958a-5992f5d043d1"},"vehicle_type_id":"4","last_reported":1751663395,"current_range_meters":9600,"station_id":"","pricing_plan_id":"cebpf4jnsgd1na2vs0mg"},{"bike_id":"dbde0d81-068a-4fa4-a92a-5f5e4289de54","system_id":"levelo_inurba_marseille","lat":43.28424,"lon":5.34985,"is_reserved":false,"is_disabled":false,"rental_uris":{"android":"levelo://app?vid=dbde0d81-068a-4fa4-a92a-5f5e4289de54","ios":"levelo://app?vid=dbde0d81-068a-4fa4-a92a-5f5e4289de54"},"vehicle_type_id":"4","last_reported":1751663395,"current_range_meters":9600,"station_id":"","pricing_plan_id":"cebpf4jnsgd1na2vs0mg"},{"bike_id":"40445a29-e823-48bb-86fc-b898d6843777","system_id":"levelo_inurba_marseille","lat":43.3054,"lon":5.38442,"is_reserved":false,"is_disabled":false,"rental_uris":{"android":"levelo://app?vid=40445a29-e823-48bb-86fc-b898d6843777","ios":"levelo://app?vid=40445a29-e823-48bb-86fc-b898d6843777"},"vehicle_type_id":"4","last_reported":1751663395,"current_range_meters":9600,"station_id":"ce4bgg92rcd13ifvqb30","pricing_plan_id":"cebpf4jnsgd1na2vs0mg"},{"bike_id":"7541f5b3-5ae7-4f8c-88e5-6698445d7fde","system_id":"levelo_inurba_marseille","lat":43.30952,"lon":5.39045,"is_reserved":false,"is_disabled":false,"rental_uris":{"android":"levelo://app?vid=7541f5b3-5ae7-4f8c-88e5-6698445d7fde","ios":"levelo://app?vid=7541f5b3-5ae7-4f8c-88e5-6698445d7fde"},"vehicle_type_id":"4","last_reported":1751663395,"current_range_meters":9600,"station_id":"ce4bgup2rcd13ifvqco0","pricing_plan_id":"cebpf4jnsgd1na2vs0mg"},{"bike_id":"9951acf3-4886-4583-a233-aabf6c7b3f68","system_id":"levelo_inurba_marseille","lat":43.29525,"lon":5.39028,"is_reserved":false,"is_disabled":false,"rental_uris":{"android":"levelo://app?vid=9951acf3-4886-4583-a233-aabf6c7b3f68","ios":"levelo://app?vid=9951acf3-4886-4583-a233-aabf6c7b3f68"},"vehicle_type_id":"4","last_reported":1751663395,"current_range_meters":9600,"station_id":"ce4bh3p2rcd13ifvqdp0","pricing_plan_id":"cebpf4jnsgd1na2vs0mg"},{"bike_id":"0c4b7fdb-b39e-49b3-a2b0-ae3d0f43e89d","system_id":"levelo_inurba_marseille","lat":43.32908,"lon":5.40566,"is_reserved":false,"is_disabled":false,"rental_uris":{"android":"levelo://app?vid=0c4b7fdb-b39e-49b3-a2b0-ae3d0f43e89d","ios":"levelo://app?vid=0c4b7fdb-b39e-49b3-a2b0-ae3d0f43e89d"},"vehicle_type_id":"4","last_reported":1751663395,"current_range_meters":10000,"station_id":"","pricing_plan_id":"cebpf4jnsgd1na2vs0mg"},{"bike_id":"e121d76a-bccc-4b9d-9422-69607902572e","system_id":"levelo_inurba_marseille","lat":43.31114,"lon":5.37764,"is_reserved":false,"is_disabled":false,"rental_uris":{"android":"levelo://app?vid=e121d76a-bccc-4b9d-9422-69607902572e","ios":"levelo://app?vid=e121d76a-bccc-4b9d-9422-69607902572e"},"vehicle_type_id":"4","last_reported":1751663395,"current_range_meters":10000,"station_id":"ce4bgt92rcd13ifvqcg0","pricing_plan_id":"cebpf4jnsgd1na2vs0mg"},{"bike_id":"8d9b73e1-848f-44c4-bcf1-e92b11b87fc0","system_id":"levelo_inurba_marseille","lat":43.28702,"lon":5.37399,"is_reserved":false,"is_disabled":false,"rental_uris":{"android":"levelo://app?vid=8d9b73e1-848f-44c4-bcf1-e92b11b87fc0","ios":"levelo://app?vid=8d9b73e1-848f-44c4-bcf1-e92b11b87fc0"},"vehicle_type_id":"4","last_reported":1751663395,"current_range_meters":10000,"station_id":"ce4bh3p2rcd13ifvqdq0","pricing_plan_id":"cebpf4jnsgd1na2vs0mg"},{"bike_id":"fcafb3ab-d088-45fb-9d5b-cd635d3483b0","system_id":"levelo_inurba_marseille","lat":43.29265,"lon":5.38448,"is_reserved":false,"is_disabled":false,"rental_uris":{"android":"levelo://app?vid=fcafb3ab-d088-45fb-9d5b-cd635d3483b0","ios":"levelo://app?vid=fcafb3ab-d088-45fb-9d5b-cd635d3483b0"},"vehicle_type_id":"4","last_reported":1751663395,"current_range_meters":10000,"station_id":"ce4bh692rcd13ifvqea0","pricing_plan_id":"cebpf4jnsgd1na2vs0mg"},{"bike_id":"ff6e91ec-d001-4098-bf3d-3a8890cf5786","system_id":"levelo_inurba_marseille","lat":43.28158,"lon":5.42681,"is_reserved":false,"is_disabled":false,"rental_uris":{"android":"levelo://app?vid=ff6e91ec-d001-4098-bf3d-3a8890cf5786","ios":"levelo://app?vid=ff6e91ec-d001-4098-bf3d-3a8890cf5786"},"vehicle_type_id":"4","last_reported":1751663395,"current_range_meters":10000,"station_id":"ce4bhnh2rcd13ifvqgug","pricing_plan_id":"cebpf4jnsgd1na2vs0mg"},{"bike_id":"175513bb-dce2-48e2-83c8-1e9f1cb23cd0","system_id":"levelo_inurba_marseille","lat":43.286255,"lon":5.412651,"is_reserved":false,"is_disabled":false,"rental_uris":{"android":"levelo://app?vid=175513bb-dce2-48e2-83c8-1e9f1cb23cd0","ios":"levelo://app?vid=175513bb-dce2-48e2-83c8-1e9f1cb23cd0"},"vehicle_type_id":"4","last_reported":1751663395,"current_range_meters":10800,"station_id":"","pricing_plan_id":"cebpf4jnsgd1na2vs0mg"},{"bike_id":"1b28c0e1-2149-471c-b68c-af20b24ca0b9","system_id":"levelo_inurba_marseille","lat":43.29415,"lon":5.38617,"is_reserved":false,"is_disabled":false,"rental_uris":{"android":"levelo://app?vid=1b28c0e1-2149-471c-b68c-af20b24ca0b9","ios":"levelo://app?vid=1b28c0e1-2149-471c-b68c-af20b24ca0b9"},"vehicle_type_id":"4","last_reported":1751663395,"current_range_meters":10800,"station_id":"ce4bh2h2rcd13ifvqdh0","pricing_plan_id":"cebpf4jnsgd1na2vs0mg"},{"bike_id":"7b61cf6f-e890-4468-8ff4-2cc6696fc64e","system_id":"levelo_inurba_marseille","lat":43.29502,"lon":5.39026,"is_reserved":false,"is_disabled":false,"rental_uris":{"android":"levelo://app?vid=7b61cf6f-e890-4468-8ff4-2cc6696fc64e","ios":"levelo://app?vid=7b61cf6f-e890-4468-8ff4-2cc6696fc64e"},"vehicle_type_id":"4","last_reported":1751663395,"current_range_meters":10800,"station_id":"ce4bh3p2rcd13ifvqdp0","pricing_plan_id":"cebpf4jnsgd1na2vs0mg"},{"bike_id":"41540ecc-5711-40e5-8c9d-7252c226efc8","system_id":"levelo_inurba_marseille","lat":43.28147,"lon":5.42658,"is_reserved":false,"is_disabled":false,"rental_uris":{"android":"levelo://app?vid=41540ecc-5711-40e5-8c9d-7252c226efc8","ios":"levelo://app?vid=41540ecc-5711-40e5-8c9d-7252c226efc8"},"vehicle_type_id":"4","last_reported":1751663395,"current_range_meters":10800,"station_id":"ce4bhnh2rcd13ifvqgug","pricing_plan_id":"cebpf4jnsgd1na2vs0mg"},{"bike_id":"0a69ac9b-1228-4faf-9cc3-78e10e9d1344","system_id":"levelo_inurba_marseille","lat":43.27938,"lon":5.41053,"is_reserved":false,"is_disabled":false,"rental_uris":{"android":"levelo://app?vid=0a69ac9b-1228-4faf-9cc3-78e10e9d1344","ios":"levelo://app?vid=0a69ac9b-1228-4faf-9cc3-78e10e9d1344"},"vehicle_type_id":"4","last_reported":1751663395,"current_range_meters":10800,"station_id":"ce4bhnp2rcd13ifvqh0g","pricing_plan_id":"cebpf4jnsgd1na2vs0mg"},{"bike_id":"97de0065-3604-43c2-8c35-f3c481cf0347","system_id":"levelo_inurba_marseille","lat":43.32363,"lon":5.3889,"is_reserved":false,"is_disabled":false,"rental_uris":{"android":"levelo://app?vid=97de0065-3604-43c2-8c35-f3c481cf0347","ios":"levelo://app?vid=97de0065-3604-43c2-8c35-f3c481cf0347"},"vehicle_type_id":"4","last_reported":1751663395,"current_range_meters":10800,"station_id":"ce4bhqp2rcd13ifvqhog","pricing_plan_id":"cebpf4jnsgd1na2vs0mg"},{"bike_id":"5e197122-e8ec-4f01-b370-6bbfc10c6950","system_id":"levelo_inurba_marseille","lat":43.21201,"lon":5.35062,"is_reserved":false,"is_disabled":false,"rental_uris":{"android":"levelo://app?vid=5e197122-e8ec-4f01-b370-6bbfc10c6950","ios":"levelo://app?vid=5e197122-e8ec-4f01-b370-6bbfc10c6950"},"vehicle_type_id":"4","last_reported":1751663395,"current_range_meters":10800,"station_id":"st_cvj6sg6p6f1abm77japg","pricing_plan_id":"cebpf4jnsgd1na2vs0mg"},{"bike_id":"b9aa0b00-2092-42ee-bef4-651e875ed8b5","system_id":"levelo_inurba_marseille","lat":43.21189,"lon":5.35075,"is_reserved":false,"is_disabled":false,"rental_uris":{"android":"levelo://app?vid=b9aa0b00-2092-42ee-bef4-651e875ed8b5","ios":"levelo://app?vid=b9aa0b00-2092-42ee-bef4-651e875ed8b5"},"vehicle_type_id":"4","last_reported":1751663395,"current_range_meters":10800,"station_id":"st_cvj6sg6p6f1abm77japg","pricing_plan_id":"cebpf4jnsgd1na2vs0mg"},{"bike_id":"d4de4cb5-91e1-4299-843d-eb560f2d6ef8","system_id":"levelo_inurba_marseille","lat":43.337444,"lon":5.374475,"is_reserved":false,"is_disabled":false,"rental_uris":{"android":"levelo://app?vid=d4de4cb5-91e1-4299-843d-eb560f2d6ef8","ios":"levelo://app?vid=d4de4cb5-91e1-4299-843d-eb560f2d6ef8"},"vehicle_type_id":"4","last_reported":1751663395,"current_range_meters":11200,"station_id":"","pricing_plan_id":"cebpf4jnsgd1na2vs0mg"},{"bike_id":"7c60bedf-2ecd-475b-a018-4048df765cb2","system_id":"levelo_inurba_marseille","lat":43.31271,"lon":5.37753,"is_reserved":false,"is_disabled":false,"rental_uris":{"android":"levelo://app?vid=7c60bedf-2ecd-475b-a018-4048df765cb2","ios":"levelo://app?vid=7c60bedf-2ecd-475b-a018-4048df765cb2"},"vehicle_type_id":"4","last_reported":1751663395,"current_range_meters":11200,"station_id":"","pricing_plan_id":"cebpf4jnsgd1na2vs0mg"},{"bike_id":"cef2603d-3a54-4caf-ac47-9a450a899f60","system_id":"levelo_inurba_marseille","lat":43.309505,"lon":5.390338,"is_reserved":false,"is_disabled":false,"rental_uris":{"android":"levelo://app?vid=cef2603d-3a54-4caf-ac47-9a450a899f60","ios":"levelo://app?vid=cef2603d-3a54-4caf-ac47-9a450a899f60"},"vehicle_type_id":"4","last_reported":1751663395,"current_range_meters":11200,"station_id":"ce4bgup2rcd13ifvqco0","pricing_plan_id":"cebpf4jnsgd1na2vs0mg"},{"bike_id":"5aac6af4-509f-4c8d-80dd-c62c83ad9018","system_id":"levelo_inurba_marseille","lat":43.31274,"lon":5.40166,"is_reserved":false,"is_disabled":false,"rental_uris":{"android":"levelo://app?vid=5aac6af4-509f-4c8d-80dd-c62c83ad9018","ios":"levelo://app?vid=5aac6af4-509f-4c8d-80dd-c62c83ad9018"},"vehicle_type_id":"4","last_reported":1751663395,"current_range_meters":11200,"station_id":"ce4bh092rcd13ifvqd30","pricing_plan_id":"cebpf4jnsgd1na2vs0mg"},{"bike_id":"ae24afed-9b65-470f-a222-1ef8c2ea0d91","system_id":"levelo_inurba_marseille","lat":43.29412,"lon":5.38604,"is_reserved":false,"is_disabled":false,"rental_uris":{"android":"levelo://app?vid=ae24afed-9b65-470f-a222-1ef8c2ea0d91","ios":"levelo://app?vid=ae24afed-9b65-470f-a222-1ef8c2ea0d91"},"vehicle_type_id":"4","last_reported":1751663395,"current_range_meters":11200,"station_id":"ce4bh2h2rcd13ifvqdh0","pricing_plan_id":"cebpf4jnsgd1na2vs0mg"},{"bike_id":"691501e3-9db9-483e-87c8-d2bd04529a6f","system_id":"levelo_inurba_marseille","lat":43.29571,"lon":5.39966,"is_reserved":false,"is_disabled":false,"rental_uris":{"android":"levelo://app?vid=691501e3-9db9-483e-87c8-d2bd04529a6f","ios":"levelo://app?vid=691501e3-9db9-483e-87c8-d2bd04529a6f"},"vehicle_type_id":"4","last_reported":1751663395,"current_range_meters":11200,"station_id":"ce4bh312rcd13ifvqdj0","pricing_plan_id":"cebpf4jnsgd1na2vs0mg"},{"bike_id":"ac5b215e-ddcb-415d-9ea5-6be020847cd5","system_id":"levelo_inurba_marseille","lat":43.28351,"lon":5.38108,"is_reserved":false,"is_disabled":false,"rental_uris":{"android":"levelo://app?vid=ac5b215e-ddcb-415d-9ea5-6be020847cd5","ios":"levelo://app?vid=ac5b215e-ddcb-415d-9ea5-6be020847cd5"},"vehicle_type_id":"4","last_reported":1751663395,"current_range_meters":11200,"station_id":"ce4bh412rcd13ifvqdr0","pricing_plan_id":"cebpf4jnsgd1na2vs0mg"},{"bike_id":"f0041242-7940-486f-81f3-b5a4105130d7","system_id":"levelo_inurba_marseille","lat":43.29035,"lon":5.37563,"is_reserved":false,"is_disabled":false,"rental_uris":{"android":"levelo://app?vid=f0041242-7940-486f-81f3-b5a4105130d7","ios":"levelo://app?vid=f0041242-7940-486f-81f3-b5a4105130d7"},"vehicle_type_id":"4","last_reported":1751663395,"current_range_meters":11200,"station_id":"ce4bh692rcd13ifvqe90","pricing_plan_id":"cebpf4jnsgd1na2vs0mg"},{"bike_id":"ca19b8f1-8bbb-465b-a2e2-e87739be69b1","system_id":"levelo_inurba_marseille","lat":43.31995,"lon":5.38165,"is_reserved":false,"is_disabled":false,"rental_uris":{"android":"levelo://app?vid=ca19b8f1-8bbb-465b-a2e2-e87739be69b1","ios":"levelo://app?vid=ca19b8f1-8bbb-465b-a2e2-e87739be69b1"},"vehicle_type_id":"4","last_reported":1751663395,"current_range_meters":11200,"station_id":"ce4bhr12rcd13ifvqhpg","pricing_plan_id":"cebpf4jnsgd1na2vs0mg"},{"bike_id":"43b8b648-960e-46ea-bfad-839bb09cb576","system_id":"levelo_inurba_marseille","lat":43.26214,"lon":5.37041,"is_reserved":false,"is_disabled":false,"rental_uris":{"android":"levelo://app?vid=43b8b648-960e-46ea-bfad-839bb09cb576","ios":"levelo://app?vid=43b8b648-960e-46ea-bfad-839bb09cb576"},"vehicle_type_id":"4","last_reported":1751663395,"current_range_meters":11600,"station_id":"","pricing_plan_id":"cebpf4jnsgd1na2vs0mg"},{"bike_id":"587ccca7-1b88-4b29-97ad-fbf6420feef8","system_id":"levelo_inurba_marseille","lat":43.29256,"lon":5.38437,"is_reserved":false,"is_disabled":false,"rental_uris":{"android":"levelo://app?vid=587ccca7-1b88-4b29-97ad-fbf6420feef8","ios":"levelo://app?vid=587ccca7-1b88-4b29-97ad-fbf6420feef8"},"vehicle_type_id":"4","last_reported":1751663395,"current_range_meters":11600,"station_id":"ce4bh692rcd13ifvqea0","pricing_plan_id":"cebpf4jnsgd1na2vs0mg"},{"bike_id":"244dbaf3-1eb7-4301-8cc1-e11569b538fd","system_id":"levelo_inurba_marseille","lat":43.24799,"lon":5.37452,"is_reserved":false,"is_disabled":false,"rental_uris":{"android":"levelo://app?vid=244dbaf3-1eb7-4301-8cc1-e11569b538fd","ios":"levelo://app?vid=244dbaf3-1eb7-4301-8cc1-e11569b538fd"},"vehicle_type_id":"4","last_reported":1751663395,"current_range_meters":11600,"station_id":"ce4bhgh2rcd13ifvqfb0","pricing_plan_id":"cebpf4jnsgd1na2vs0mg"},{"bike_id":"2b6a7da6-52a5-4587-a2a8-020896164131","system_id":"levelo_inurba_marseille","lat":43.29529,"lon":5.38549,"is_reserved":false,"is_disabled":false,"rental_uris":{"android":"levelo://app?vid=2b6a7da6-52a5-4587-a2a8-020896164131","ios":"levelo://app?vid=2b6a7da6-52a5-4587-a2a8-020896164131"},"vehicle_type_id":"4","last_reported":1751663395,"current_range_meters":12000,"station_id":"ce4bgih2rcd13ifvqba0","pricing_plan_id":"cebpf4jnsgd1na2vs0mg"},{"bike_id":"fadf6b38-6317-413a-8801-268c0084efa6","system_id":"levelo_inurba_marseille","lat":43.31047,"lon":5.38353,"is_reserved":false,"is_disabled":false,"rental_uris":{"android":"levelo://app?vid=fadf6b38-6317-413a-8801-268c0084efa6","ios":"levelo://app?vid=fadf6b38-6317-413a-8801-268c0084efa6"},"vehicle_type_id":"4","last_reported":1751663395,"current_range_meters":12000,"station_id":"ce4bgv92rcd13ifvqcr0","pricing_plan_id":"cebpf4jnsgd1na2vs0mg"},{"bike_id":"667d9aa6-3ac7-438b-b4df-6bcc6b141d08","system_id":"levelo_inurba_marseille","lat":43.30145,"lon":5.39848,"is_reserved":false,"is_disabled":false,"rental_uris":{"android":"levelo://app?vid=667d9aa6-3ac7-438b-b4df-6bcc6b141d08","ios":"levelo://app?vid=667d9aa6-3ac7-438b-b4df-6bcc6b141d08"},"vehicle_type_id":"4","last_reported":1751663395,"current_range_meters":12000,"station_id":"ce4bh0h2rcd13ifvqd40","pricing_plan_id":"cebpf4jnsgd1na2vs0mg"},{"bike_id":"f6ec4d31-7ae7-41a2-98e6-a393eec21dac","system_id":"levelo_inurba_marseille","lat":43.30594,"lon":5.39366,"is_reserved":false,"is_disabled":false,"rental_uris":{"android":"levelo://app?vid=f6ec4d31-7ae7-41a2-98e6-a393eec21dac","ios":"levelo://app?vid=f6ec4d31-7ae7-41a2-98e6-a393eec21dac"},"vehicle_type_id":"4","last_reported":1751663395,"current_range_meters":12000,"station_id":"ce4bh0p2rcd13ifvqd80","pricing_plan_id":"cebpf4jnsgd1na2vs0mg"},{"bike_id":"b83eea69-106d-4c35-b2e6-80a7faf23de8","system_id":"levelo_inurba_marseille","lat":43.286591,"lon":5.386686,"is_reserved":false,"is_disabled":false,"rental_uris":{"android":"levelo://app?vid=b83eea69-106d-4c35-b2e6-80a7faf23de8","ios":"levelo://app?vid=b83eea69-106d-4c35-b2e6-80a7faf23de8"},"vehicle_type_id":"4","last_reported":1751663395,"current_range_meters":12000,"station_id":"ce4bh492rcd13ifvqdug","pricing_plan_id":"cebpf4jnsgd1na2vs0mg"},{"bike_id":"6f854acc-df2a-4d06-8f39-46010fd4354e","system_id":"levelo_inurba_marseille","lat":43.279,"lon":5.38009,"is_reserved":false,"is_disabled":false,"rental_uris":{"android":"levelo://app?vid=6f854acc-df2a-4d06-8f39-46010fd4354e","ios":"levelo://app?vid=6f854acc-df2a-4d06-8f39-46010fd4354e"},"vehicle_type_id":"4","last_reported":1751663395,"current_range_meters":12000,"station_id":"ce4bhf92rcd13ifvqf50","pricing_plan_id":"cebpf4jnsgd1na2vs0mg"},{"bike_id":"0f501d80-c859-4b66-9095-c4132a67bf1e","system_id":"levelo_inurba_marseille","lat":43.29543,"lon":5.38489,"is_reserved":false,"is_disabled":false,"rental_uris":{"android":"levelo://app?vid=0f501d80-c859-4b66-9095-c4132a67bf1e","ios":"levelo://app?vid=0f501d80-c859-4b66-9095-c4132a67bf1e"},"vehicle_type_id":"4","last_reported":1751663395,"current_range_meters":12400,"station_id":"","pricing_plan_id":"cebpf4jnsgd1na2vs0mg"},{"bike_id":"1c8ab180-05fd-405f-9922-b2b2c2d5142f","system_id":"levelo_inurba_marseille","lat":43.33723,"lon":5.38124,"is_reserved":false,"is_disabled":false,"rental_uris":{"android":"levelo://app?vid=1c8ab180-05fd-405f-9922-b2b2c2d5142f","ios":"levelo://app?vid=1c8ab180-05fd-405f-9922-b2b2c2d5142f"},"vehicle_type_id":"4","last_reported":1751663395,"current_range_meters":12400,"station_id":"","pricing_plan_id":"cebpf4jnsgd1na2vs0mg"},{"bike_id":"9f2403d2-f549-4efe-87ef-5f7066367b08","system_id":"levelo_inurba_marseille","lat":43.27369,"lon":5.36259,"is_reserved":false,"is_disabled":false,"rental_uris":{"android":"levelo://app?vid=9f2403d2-f549-4efe-87ef-5f7066367b08","ios":"levelo://app?vid=9f2403d2-f549-4efe-87ef-5f7066367b08"},"vehicle_type_id":"4","last_reported":1751663395,"current_range_meters":12400,"station_id":"ce4bhbh2rcd13ifvqeo0","pricing_plan_id":"cebpf4jnsgd1na2vs0mg"},{"bike_id":"bf16840f-2e0f-47eb-8d30-3dc4199df254","system_id":"levelo_inurba_marseille","lat":43.31765,"lon":5.39,"is_reserved":false,"is_disabled":false,"rental_uris":{"android":"levelo://app?vid=bf16840f-2e0f-47eb-8d30-3dc4199df254","ios":"levelo://app?vid=bf16840f-2e0f-47eb-8d30-3dc4199df254"},"vehicle_type_id":"4","last_reported":1751663395,"current_range_meters":12400,"station_id":"ce4bhqp2rcd13ifvqhng","pricing_plan_id":"cebpf4jnsgd1na2vs0mg"},{"bike_id":"b26fae72-751e-4090-a9c4-76ff5de1ad66","system_id":"levelo_inurba_marseille","lat":43.33253,"lon":5.38036,"is_reserved":false,"is_disabled":false,"rental_uris":{"android":"levelo://app?vid=b26fae72-751e-4090-a9c4-76ff5de1ad66","ios":"levelo://app?vid=b26fae72-751e-4090-a9c4-76ff5de1ad66"},"vehicle_type_id":"4","last_reported":1751663395,"current_range_meters":12800,"station_id":"","pricing_plan_id":"cebpf4jnsgd1na2vs0mg"},{"bike_id":"42dcb50c-34a0-494c-af8e-bc4f9ca755a1","system_id":"levelo_inurba_marseille","lat":43.29531,"lon":5.3904,"is_reserved":false,"is_disabled":false,"rental_uris":{"android":"levelo://app?vid=42dcb50c-34a0-494c-af8e-bc4f9ca755a1","ios":"levelo://app?vid=42dcb50c-34a0-494c-af8e-bc4f9ca755a1"},"vehicle_type_id":"4","last_reported":1751663395,"current_range_meters":12800,"station_id":"ce4bh3p2rcd13ifvqdp0","pricing_plan_id":"cebpf4jnsgd1na2vs0mg"},{"bike_id":"4c20f81b-1a2a-4b54-b1f1-ac371666a6a9","system_id":"levelo_inurba_marseille","lat":43.29506,"lon":5.38572,"is_reserved":false,"is_disabled":false,"rental_uris":{"android":"levelo://app?vid=4c20f81b-1a2a-4b54-b1f1-ac371666a6a9","ios":"levelo://app?vid=4c20f81b-1a2a-4b54-b1f1-ac371666a6a9"},"vehicle_type_id":"4","last_reported":1751663395,"current_range_meters":13600,"station_id":"ce4bgih2rcd13ifvqba0","pricing_plan_id":"cebpf4jnsgd1na2vs0mg"},{"bike_id":"2a1b0cb2-bea1-4680-8728-8fa12ff2f409","system_id":"levelo_inurba_marseille","lat":43.30433,"lon":5.38893,"is_reserved":false,"is_disabled":false,"rental_uris":{"android":"levelo://app?vid=2a1b0cb2-bea1-4680-8728-8fa12ff2f409","ios":"levelo://app?vid=2a1b0cb2-bea1-4680-8728-8fa12ff2f409"},"vehicle_type_id":"4","last_reported":1751663395,"current_range_meters":13600,"station_id":"ce4bgk12rcd13ifvqbi0","pricing_plan_id":"cebpf4jnsgd1na2vs0mg"},{"bike_id":"2be06d5a-f4ba-4a75-8250-5a161d482ce9","system_id":"levelo_inurba_marseille","lat":43.30301,"lon":5.39214,"is_reserved":false,"is_disabled":false,"rental_uris":{"android":"levelo://app?vid=2be06d5a-f4ba-4a75-8250-5a161d482ce9","ios":"levelo://app?vid=2be06d5a-f4ba-4a75-8250-5a161d482ce9"},"vehicle_type_id":"4","last_reported":1751663395,"current_range_meters":13600,"station_id":"ce4bgkh2rcd13ifvqbk0","pricing_plan_id":"cebpf4jnsgd1na2vs0mg"},{"bike_id":"f6ec8560-c3f6-4a2f-a8bf-aed03bd64f92","system_id":"levelo_inurba_marseille","lat":43.29034,"lon":5.39958,"is_reserved":false,"is_disabled":false,"rental_uris":{"android":"levelo://app?vid=f6ec8560-c3f6-4a2f-a8bf-aed03bd64f92","ios":"levelo://app?vid=f6ec8560-c3f6-4a2f-a8bf-aed03bd64f92"},"vehicle_type_id":"4","last_reported":1751663395,"current_range_meters":13600,"station_id":"ce4bh392rcd13ifvqdm0","pricing_plan_id":"cebpf4jnsgd1na2vs0mg"},{"bike_id":"f62ca18a-bcd1-4bc9-bd56-fe0d779eff1d","system_id":"levelo_inurba_marseille","lat":43.26209,"lon":5.37454,"is_reserved":false,"is_disabled":false,"rental_uris":{"android":"levelo://app?vid=f62ca18a-bcd1-4bc9-bd56-fe0d779eff1d","ios":"levelo://app?vid=f62ca18a-bcd1-4bc9-bd56-fe0d779eff1d"},"vehicle_type_id":"4","last_reported":1751663395,"current_range_meters":13600,"station_id":"ce4bhgp2rcd13ifvqfc0","pricing_plan_id":"cebpf4jnsgd1na2vs0mg"},{"bike_id":"3843d112-928f-4232-bedc-cd2cf25b1511","system_id":"levelo_inurba_marseille","lat":43.28078,"lon":5.39668,"is_reserved":false,"is_disabled":false,"rental_uris":{"android":"levelo://app?vid=3843d112-928f-4232-bedc-cd2cf25b1511","ios":"levelo://app?vid=3843d112-928f-4232-bedc-cd2cf25b1511"},"vehicle_type_id":"4","last_reported":1751663395,"current_range_meters":13600,"station_id":"ce4bho12rcd13ifvqh2g","pricing_plan_id":"cebpf4jnsgd1na2vs0mg"},{"bike_id":"76d127a6-3385-47a2-9e3a-490d1d976c59","system_id":"levelo_inurba_marseille","lat":43.31161,"lon":5.38251,"is_reserved":false,"is_disabled":false,"rental_uris":{"android":"levelo://app?vid=76d127a6-3385-47a2-9e3a-490d1d976c59","ios":"levelo://app?vid=76d127a6-3385-47a2-9e3a-490d1d976c59"},"vehicle_type_id":"4","last_reported":1751663395,"current_range_meters":14000,"station_id":"","pricing_plan_id":"cebpf4jnsgd1na2vs0mg"},{"bike_id":"869e2f7c-699a-4ab3-8bba-0ab915bd3e03","system_id":"levelo_inurba_marseille","lat":43.29606,"lon":5.38083,"is_reserved":false,"is_disabled":false,"rental_uris":{"android":"levelo://app?vid=869e2f7c-699a-4ab3-8bba-0ab915bd3e03","ios":"levelo://app?vid=869e2f7c-699a-4ab3-8bba-0ab915bd3e03"},"vehicle_type_id":"4","last_reported":1751663395,"current_range_meters":14000,"station_id":"ce4bgl12rcd13ifvqbo0","pricing_plan_id":"cebpf4jnsgd1na2vs0mg"},{"bike_id":"3d808c9d-27aa-4cff-a685-ed59f5aafcf1","system_id":"levelo_inurba_marseille","lat":43.29872,"lon":5.39733,"is_reserved":false,"is_disabled":false,"rental_uris":{"android":"levelo://app?vid=3d808c9d-27aa-4cff-a685-ed59f5aafcf1","ios":"levelo://app?vid=3d808c9d-27aa-4cff-a685-ed59f5aafcf1"},"vehicle_type_id":"4","last_reported":1751663395,"current_range_meters":14000,"station_id":"ce4bh0h2rcd13ifvqd50","pricing_plan_id":"cebpf4jnsgd1na2vs0mg"},{"bike_id":"1e94fce7-2bc2-4188-9341-f45a9fc20ff8","system_id":"levelo_inurba_marseille","lat":43.30216,"lon":5.39468,"is_reserved":false,"is_disabled":false,"rental_uris":{"android":"levelo://app?vid=1e94fce7-2bc2-4188-9341-f45a9fc20ff8","ios":"levelo://app?vid=1e94fce7-2bc2-4188-9341-f45a9fc20ff8"},"vehicle_type_id":"4","last_reported":1751663395,"current_range_meters":14000,"station_id":"ce4bh0p2rcd13ifvqd70","pricing_plan_id":"cebpf4jnsgd1na2vs0mg"},{"bike_id":"750fe987-38b7-4e4b-81eb-d7ee436e948a","system_id":"levelo_inurba_marseille","lat":43.29248,"lon":5.38437,"is_reserved":false,"is_disabled":false,"rental_uris":{"android":"levelo://app?vid=750fe987-38b7-4e4b-81eb-d7ee436e948a","ios":"levelo://app?vid=750fe987-38b7-4e4b-81eb-d7ee436e948a"},"vehicle_type_id":"4","last_reported":1751663395,"current_range_meters":14000,"station_id":"ce4bh692rcd13ifvqea0","pricing_plan_id":"cebpf4jnsgd1na2vs0mg"},{"bike_id":"f1ead42c-9f68-438b-8d17-3c2f723fb6da","system_id":"levelo_inurba_marseille","lat":43.281036,"lon":5.378323,"is_reserved":false,"is_disabled":false,"rental_uris":{"android":"levelo://app?vid=f1ead42c-9f68-438b-8d17-3c2f723fb6da","ios":"levelo://app?vid=f1ead42c-9f68-438b-8d17-3c2f723fb6da"},"vehicle_type_id":"4","last_reported":1751663395,"current_range_meters":14000,"station_id":"ce4bha12rcd13ifvqee0","pricing_plan_id":"cebpf4jnsgd1na2vs0mg"},{"bike_id":"69c2280d-9883-47db-99f2-c073a6babae6","system_id":"levelo_inurba_marseille","lat":43.30869,"lon":5.37041,"is_reserved":false,"is_disabled":false,"rental_uris":{"android":"levelo://app?vid=69c2280d-9883-47db-99f2-c073a6babae6","ios":"levelo://app?vid=69c2280d-9883-47db-99f2-c073a6babae6"},"vehicle_type_id":"4","last_reported":1751663395,"current_range_meters":14400,"station_id":"","pricing_plan_id":"cebpf4jnsgd1na2vs0mg"},{"bike_id":"ffc98ed0-4733-459e-949d-99aa8fb39a97","system_id":"levelo_inurba_marseille","lat":43.3421,"lon":5.35946,"is_reserved":false,"is_disabled":false,"rental_uris":{"android":"levelo://app?vid=ffc98ed0-4733-459e-949d-99aa8fb39a97","ios":"levelo://app?vid=ffc98ed0-4733-459e-949d-99aa8fb39a97"},"vehicle_type_id":"4","last_reported":1751663395,"current_range_meters":14400,"station_id":"","pricing_plan_id":"cebpf4jnsgd1na2vs0mg"},{"bike_id":"3587d5e5-83fe-4d49-bd25-3fe8e79c4212","system_id":"levelo_inurba_marseille","lat":43.29528,"lon":5.38548,"is_reserved":false,"is_disabled":false,"rental_uris":{"android":"levelo://app?vid=3587d5e5-83fe-4d49-bd25-3fe8e79c4212","ios":"levelo://app?vid=3587d5e5-83fe-4d49-bd25-3fe8e79c4212"},"vehicle_type_id":"4","last_reported":1751663395,"current_range_meters":14400,"station_id":"ce4bgih2rcd13ifvqba0","pricing_plan_id":"cebpf4jnsgd1na2vs0mg"},{"bike_id":"3763ad22-8d57-420a-94c8-659ca71627f0","system_id":"levelo_inurba_marseille","lat":43.309475,"lon":5.390213,"is_reserved":false,"is_disabled":false,"rental_uris":{"android":"levelo://app?vid=3763ad22-8d57-420a-94c8-659ca71627f0","ios":"levelo://app?vid=3763ad22-8d57-420a-94c8-659ca71627f0"},"vehicle_type_id":"4","last_reported":1751663395,"current_range_meters":14400,"station_id":"ce4bgup2rcd13ifvqco0","pricing_plan_id":"cebpf4jnsgd1na2vs0mg"},{"bike_id":"679a51ff-27bf-4768-9b27-ba421700aee9","system_id":"levelo_inurba_marseille","lat":43.31171,"lon":5.38711,"is_reserved":false,"is_disabled":false,"rental_uris":{"android":"levelo://app?vid=679a51ff-27bf-4768-9b27-ba421700aee9","ios":"levelo://app?vid=679a51ff-27bf-4768-9b27-ba421700aee9"},"vehicle_type_id":"4","last_reported":1751663395,"current_range_meters":14400,"station_id":"ce4bgv12rcd13ifvqcp0","pricing_plan_id":"cebpf4jnsgd1na2vs0mg"},{"bike_id":"e90f21eb-9845-47e9-81dc-9dddc5bb91d4","system_id":"levelo_inurba_marseille","lat":43.30858,"lon":5.39639,"is_reserved":false,"is_disabled":false,"rental_uris":{"android":"levelo://app?vid=e90f21eb-9845-47e9-81dc-9dddc5bb91d4","ios":"levelo://app?vid=e90f21eb-9845-47e9-81dc-9dddc5bb91d4"},"vehicle_type_id":"4","last_reported":1751663395,"current_range_meters":14400,"station_id":"ce4bh012rcd13ifvqcv0","pricing_plan_id":"cebpf4jnsgd1na2vs0mg"},{"bike_id":"2f7f5633-8196-42b1-b144-b091dc25222e","system_id":"levelo_inurba_marseille","lat":43.30213,"lon":5.39473,"is_reserved":false,"is_disabled":false,"rental_uris":{"android":"levelo://app?vid=2f7f5633-8196-42b1-b144-b091dc25222e","ios":"levelo://app?vid=2f7f5633-8196-42b1-b144-b091dc25222e"},"vehicle_type_id":"4","last_reported":1751663395,"current_range_meters":14400,"station_id":"ce4bh0p2rcd13ifvqd70","pricing_plan_id":"cebpf4jnsgd1na2vs0mg"},{"bike_id":"4b8da722-ee9e-48a4-a5e5-3a8a10364708","system_id":"levelo_inurba_marseille","lat":43.312284,"lon":5.378121,"is_reserved":false,"is_disabled":false,"rental_uris":{"android":"levelo://app?vid=4b8da722-ee9e-48a4-a5e5-3a8a10364708","ios":"levelo://app?vid=4b8da722-ee9e-48a4-a5e5-3a8a10364708"},"vehicle_type_id":"4","last_reported":1751663395,"current_range_meters":14800,"station_id":"","pricing_plan_id":"cebpf4jnsgd1na2vs0mg"},{"bike_id":"f5a3a1af-0980-4a1d-acab-9d509f7955e6","system_id":"levelo_inurba_marseille","lat":43.27618,"lon":5.36116,"is_reserved":false,"is_disabled":false,"rental_uris":{"android":"levelo://app?vid=f5a3a1af-0980-4a1d-acab-9d509f7955e6","ios":"levelo://app?vid=f5a3a1af-0980-4a1d-acab-9d509f7955e6"},"vehicle_type_id":"4","last_reported":1751663395,"current_range_meters":14800,"station_id":"ce4bgj92rcd13ifvqbe0","pricing_plan_id":"cebpf4jnsgd1na2vs0mg"},{"bike_id":"b9e3ea12-37cd-4700-a9c5-6ea6b5bd378b","system_id":"levelo_inurba_marseille","lat":43.30904,"lon":5.3685,"is_reserved":false,"is_disabled":false,"rental_uris":{"android":"levelo://app?vid=b9e3ea12-37cd-4700-a9c5-6ea6b5bd378b","ios":"levelo://app?vid=b9e3ea12-37cd-4700-a9c5-6ea6b5bd378b"},"vehicle_type_id":"4","last_reported":1751663395,"current_range_meters":14800,"station_id":"ce4bgn92rcd13ifvqbvg","pricing_plan_id":"cebpf4jnsgd1na2vs0mg"},{"bike_id":"f33f04ec-77c4-4567-8613-fa9e365a3a05","system_id":"levelo_inurba_marseille","lat":43.30579,"lon":5.3936,"is_reserved":false,"is_disabled":false,"rental_uris":{"android":"levelo://app?vid=f33f04ec-77c4-4567-8613-fa9e365a3a05","ios":"levelo://app?vid=f33f04ec-77c4-4567-8613-fa9e365a3a05"},"vehicle_type_id":"4","last_reported":1751663395,"current_range_meters":14800,"station_id":"ce4bh0p2rcd13ifvqd80","pricing_plan_id":"cebpf4jnsgd1na2vs0mg"},{"bike_id":"8f06ddb9-437a-45af-bf8c-7800f496f5d8","system_id":"levelo_inurba_marseille","lat":43.28367,"lon":5.38635,"is_reserved":false,"is_disabled":false,"rental_uris":{"android":"levelo://app?vid=8f06ddb9-437a-45af-bf8c-7800f496f5d8","ios":"levelo://app?vid=8f06ddb9-437a-45af-bf8c-7800f496f5d8"},"vehicle_type_id":"4","last_reported":1751663395,"current_range_meters":14800,"station_id":"ce4bh492rcd13ifvqdvg","pricing_plan_id":"cebpf4jnsgd1na2vs0mg"},{"bike_id":"7733a035-b90b-46ec-95b6-5817ffc56ecb","system_id":"levelo_inurba_marseille","lat":43.23188,"lon":5.39989,"is_reserved":false,"is_disabled":false,"rental_uris":{"android":"levelo://app?vid=7733a035-b90b-46ec-95b6-5817ffc56ecb","ios":"levelo://app?vid=7733a035-b90b-46ec-95b6-5817ffc56ecb"},"vehicle_type_id":"4","last_reported":1751663395,"current_range_meters":14800,"station_id":"ce4bhn12rcd13ifvqgqg","pricing_plan_id":"cebpf4jnsgd1na2vs0mg"},{"bike_id":"4db45513-e520-4598-82fa-5809d80d4f3d","system_id":"levelo_inurba_marseille","lat":43.28095,"lon":5.35483,"is_reserved":false,"is_disabled":false,"rental_uris":{"android":"levelo://app?vid=4db45513-e520-4598-82fa-5809d80d4f3d","ios":"levelo://app?vid=4db45513-e520-4598-82fa-5809d80d4f3d"},"vehicle_type_id":"4","last_reported":1751663395,"current_range_meters":15200,"station_id":"","pricing_plan_id":"cebpf4jnsgd1na2vs0mg"},{"bike_id":"8c7b5457-b790-4ceb-8535-d321af702702","system_id":"levelo_inurba_marseille","lat":43.31258,"lon":5.4019,"is_reserved":false,"is_disabled":false,"rental_uris":{"android":"levelo://app?vid=8c7b5457-b790-4ceb-8535-d321af702702","ios":"levelo://app?vid=8c7b5457-b790-4ceb-8535-d321af702702"},"vehicle_type_id":"4","last_reported":1751663395,"current_range_meters":15200,"station_id":"ce4bh092rcd13ifvqd30","pricing_plan_id":"cebpf4jnsgd1na2vs0mg"},{"bike_id":"fc15d0e2-3ad9-4fb7-8bd5-ba03d333db05","system_id":"levelo_inurba_marseille","lat":43.24667,"lon":5.38153,"is_reserved":false,"is_disabled":false,"rental_uris":{"android":"levelo://app?vid=fc15d0e2-3ad9-4fb7-8bd5-ba03d333db05","ios":"levelo://app?vid=fc15d0e2-3ad9-4fb7-8bd5-ba03d333db05"},"vehicle_type_id":"4","last_reported":1751663395,"current_range_meters":15200,"station_id":"ce4bhih2rcd13ifvqfr0","pricing_plan_id":"cebpf4jnsgd1na2vs0mg"},{"bike_id":"4bfb979f-5f1f-4d4f-9bc2-62863e748cdf","system_id":"levelo_inurba_marseille","lat":43.32378,"lon":5.36745,"is_reserved":false,"is_disabled":false,"rental_uris":{"android":"levelo://app?vid=4bfb979f-5f1f-4d4f-9bc2-62863e748cdf","ios":"levelo://app?vid=4bfb979f-5f1f-4d4f-9bc2-62863e748cdf"},"vehicle_type_id":"4","last_reported":1751663395,"current_range_meters":16000,"station_id":"","pricing_plan_id":"cebpf4jnsgd1na2vs0mg"},{"bike_id":"ba02322b-42c6-4f39-aab9-cb5c29c99255","system_id":"levelo_inurba_marseille","lat":43.30129,"lon":5.39876,"is_reserved":false,"is_disabled":false,"rental_uris":{"android":"levelo://app?vid=ba02322b-42c6-4f39-aab9-cb5c29c99255","ios":"levelo://app?vid=ba02322b-42c6-4f39-aab9-cb5c29c99255"},"vehicle_type_id":"4","last_reported":1751663395,"current_range_meters":16000,"station_id":"ce4bh0h2rcd13ifvqd40","pricing_plan_id":"cebpf4jnsgd1na2vs0mg"},{"bike_id":"69888d76-ea5c-4809-a7b2-0ed51767e317","system_id":"levelo_inurba_marseille","lat":43.27969,"lon":5.38735,"is_reserved":false,"is_disabled":false,"rental_uris":{"android":"levelo://app?vid=69888d76-ea5c-4809-a7b2-0ed51767e317","ios":"levelo://app?vid=69888d76-ea5c-4809-a7b2-0ed51767e317"},"vehicle_type_id":"4","last_reported":1751663395,"current_range_meters":16000,"station_id":"ce4bhg12rcd13ifvqf80","pricing_plan_id":"cebpf4jnsgd1na2vs0mg"},{"bike_id":"538edfe9-6c1c-48ac-927d-e31f1b9e66ef","system_id":"levelo_inurba_marseille","lat":43.2621,"lon":5.37443,"is_reserved":false,"is_disabled":false,"rental_uris":{"android":"levelo://app?vid=538edfe9-6c1c-48ac-927d-e31f1b9e66ef","ios":"levelo://app?vid=538edfe9-6c1c-48ac-927d-e31f1b9e66ef"},"vehicle_type_id":"4","last_reported":1751663395,"current_range_meters":16000,"station_id":"ce4bhgp2rcd13ifvqfc0","pricing_plan_id":"cebpf4jnsgd1na2vs0mg"},{"bike_id":"f1753d26-8935-4f4b-9e83-1a8f6f412606","system_id":"levelo_inurba_marseille","lat":43.24678,"lon":5.3816,"is_reserved":false,"is_disabled":false,"rental_uris":{"android":"levelo://app?vid=f1753d26-8935-4f4b-9e83-1a8f6f412606","ios":"levelo://app?vid=f1753d26-8935-4f4b-9e83-1a8f6f412606"},"vehicle_type_id":"4","last_reported":1751663395,"current_range_meters":16000,"station_id":"ce4bhih2rcd13ifvqfr0","pricing_plan_id":"cebpf4jnsgd1na2vs0mg"},{"bike_id":"bfd442a7-2742-451e-9ad9-c8352560f603","system_id":"levelo_inurba_marseille","lat":43.2814,"lon":5.42641,"is_reserved":false,"is_disabled":false,"rental_uris":{"android":"levelo://app?vid=bfd442a7-2742-451e-9ad9-c8352560f603","ios":"levelo://app?vid=bfd442a7-2742-451e-9ad9-c8352560f603"},"vehicle_type_id":"4","last_reported":1751663395,"current_range_meters":16000,"station_id":"ce4bhnh2rcd13ifvqgug","pricing_plan_id":"cebpf4jnsgd1na2vs0mg"},{"bike_id":"3847022a-5187-4521-af78-80f88fe96595","system_id":"levelo_inurba_marseille","lat":43.211874,"lon":5.350737,"is_reserved":false,"is_disabled":false,"rental_uris":{"android":"levelo://app?vid=3847022a-5187-4521-af78-80f88fe96595","ios":"levelo://app?vid=3847022a-5187-4521-af78-80f88fe96595"},"vehicle_type_id":"4","last_reported":1751663395,"current_range_meters":16000,"station_id":"st_cvj6sg6p6f1abm77japg","pricing_plan_id":"cebpf4jnsgd1na2vs0mg"},{"bike_id":"08363369-6a09-4635-a456-5eadb185ea82","system_id":"levelo_inurba_marseille","lat":43.28694,"lon":5.46837,"is_reserved":false,"is_disabled":false,"rental_uris":{"android":"levelo://app?vid=08363369-6a09-4635-a456-5eadb185ea82","ios":"levelo://app?vid=08363369-6a09-4635-a456-5eadb185ea82"},"vehicle_type_id":"4","last_reported":1751663395,"current_range_meters":16400,"station_id":"","pricing_plan_id":"cebpf4jnsgd1na2vs0mg"},{"bike_id":"faf89dbb-891f-47e4-bf67-d7e6d9a0e9fd","system_id":"levelo_inurba_marseille","lat":43.30433,"lon":5.38895,"is_reserved":false,"is_disabled":false,"rental_uris":{"android":"levelo://app?vid=faf89dbb-891f-47e4-bf67-d7e6d9a0e9fd","ios":"levelo://app?vid=faf89dbb-891f-47e4-bf67-d7e6d9a0e9fd"},"vehicle_type_id":"4","last_reported":1751663395,"current_range_meters":16400,"station_id":"ce4bgk12rcd13ifvqbi0","pricing_plan_id":"cebpf4jnsgd1na2vs0mg"},{"bike_id":"8719ee86-3f94-452e-9e40-15be0f3c9309","system_id":"levelo_inurba_marseille","lat":43.31321,"lon":5.39688,"is_reserved":false,"is_disabled":false,"rental_uris":{"android":"levelo://app?vid=8719ee86-3f94-452e-9e40-15be0f3c9309","ios":"levelo://app?vid=8719ee86-3f94-452e-9e40-15be0f3c9309"},"vehicle_type_id":"4","last_reported":1751663395,"current_range_meters":16400,"station_id":"ce4bgvp2rcd13ifvqcu0","pricing_plan_id":"cebpf4jnsgd1na2vs0mg"},{"bike_id":"29b19e99-4845-4ee3-b1ee-35721cd36dc7","system_id":"levelo_inurba_marseille","lat":43.23211,"lon":5.35563,"is_reserved":false,"is_disabled":false,"rental_uris":{"android":"levelo://app?vid=29b19e99-4845-4ee3-b1ee-35721cd36dc7","ios":"levelo://app?vid=29b19e99-4845-4ee3-b1ee-35721cd36dc7"},"vehicle_type_id":"4","last_reported":1751663395,"current_range_meters":16400,"station_id":"ce4bhu92rcd13ifvqi70","pricing_plan_id":"cebpf4jnsgd1na2vs0mg"},{"bike_id":"b1d40197-e49c-4962-8cd8-0babe05d31a6","system_id":"levelo_inurba_marseille","lat":43.21251,"lon":5.35279,"is_reserved":false,"is_disabled":false,"rental_uris":{"android":"levelo://app?vid=b1d40197-e49c-4962-8cd8-0babe05d31a6","ios":"levelo://app?vid=b1d40197-e49c-4962-8cd8-0babe05d31a6"},"vehicle_type_id":"4","last_reported":1751663395,"current_range_meters":16800,"station_id":"","pricing_plan_id":"cebpf4jnsgd1na2vs0mg"},{"bike_id":"f37760c6-ab8b-450e-9ddc-f3de596404e2","system_id":"levelo_inurba_marseille","lat":43.30313,"lon":5.37899,"is_reserved":false,"is_disabled":false,"rental_uris":{"android":"levelo://app?vid=f37760c6-ab8b-450e-9ddc-f3de596404e2","ios":"levelo://app?vid=f37760c6-ab8b-450e-9ddc-f3de596404e2"},"vehicle_type_id":"4","last_reported":1751663395,"current_range_meters":16800,"station_id":"","pricing_plan_id":"cebpf4jnsgd1na2vs0mg"},{"bike_id":"db6caee7-8736-4156-8959-1cbc7ccb72c8","system_id":"levelo_inurba_marseille","lat":43.28857,"lon":5.38456,"is_reserved":false,"is_disabled":false,"rental_uris":{"android":"levelo://app?vid=db6caee7-8736-4156-8959-1cbc7ccb72c8","ios":"levelo://app?vid=db6caee7-8736-4156-8959-1cbc7ccb72c8"},"vehicle_type_id":"4","last_reported":1751663395,"current_range_meters":16800,"station_id":"","pricing_plan_id":"cebpf4jnsgd1na2vs0mg"},{"bike_id":"d4f28c6c-725f-4a09-93e3-db2fcb319aa7","system_id":"levelo_inurba_marseille","lat":43.31166,"lon":5.38734,"is_reserved":false,"is_disabled":false,"rental_uris":{"android":"levelo://app?vid=d4f28c6c-725f-4a09-93e3-db2fcb319aa7","ios":"levelo://app?vid=d4f28c6c-725f-4a09-93e3-db2fcb319aa7"},"vehicle_type_id":"4","last_reported":1751663395,"current_range_meters":16800,"station_id":"ce4bgv12rcd13ifvqcp0","pricing_plan_id":"cebpf4jnsgd1na2vs0mg"},{"bike_id":"b4bb65fd-78f5-4401-9261-96ae94a13a13","system_id":"levelo_inurba_marseille","lat":43.31179,"lon":5.38681,"is_reserved":false,"is_disabled":false,"rental_uris":{"android":"levelo://app?vid=b4bb65fd-78f5-4401-9261-96ae94a13a13","ios":"levelo://app?vid=b4bb65fd-78f5-4401-9261-96ae94a13a13"},"vehicle_type_id":"4","last_reported":1751663395,"current_range_meters":16800,"station_id":"ce4bgv12rcd13ifvqcp0","pricing_plan_id":"cebpf4jnsgd1na2vs0mg"},{"bike_id":"e53e1db5-4cd7-4913-a97d-b1d07a1c7fd6","system_id":"levelo_inurba_marseille","lat":43.29411,"lon":5.38621,"is_reserved":false,"is_disabled":false,"rental_uris":{"android":"levelo://app?vid=e53e1db5-4cd7-4913-a97d-b1d07a1c7fd6","ios":"levelo://app?vid=e53e1db5-4cd7-4913-a97d-b1d07a1c7fd6"},"vehicle_type_id":"4","last_reported":1751663395,"current_range_meters":16800,"station_id":"ce4bh2h2rcd13ifvqdh0","pricing_plan_id":"cebpf4jnsgd1na2vs0mg"},{"bike_id":"fbd8523b-4406-4fc0-9a2a-22543c34cc86","system_id":"levelo_inurba_marseille","lat":43.28666,"lon":5.38668,"is_reserved":false,"is_disabled":false,"rental_uris":{"android":"levelo://app?vid=fbd8523b-4406-4fc0-9a2a-22543c34cc86","ios":"levelo://app?vid=fbd8523b-4406-4fc0-9a2a-22543c34cc86"},"vehicle_type_id":"4","last_reported":1751663395,"current_range_meters":16800,"station_id":"ce4bh492rcd13ifvqdug","pricing_plan_id":"cebpf4jnsgd1na2vs0mg"},{"bike_id":"0c1dd362-fce1-4d31-9699-a176b63e1ecd","system_id":"levelo_inurba_marseille","lat":43.26211,"lon":5.37442,"is_reserved":false,"is_disabled":false,"rental_uris":{"android":"levelo://app?vid=0c1dd362-fce1-4d31-9699-a176b63e1ecd","ios":"levelo://app?vid=0c1dd362-fce1-4d31-9699-a176b63e1ecd"},"vehicle_type_id":"4","last_reported":1751663395,"current_range_meters":16800,"station_id":"ce4bhgp2rcd13ifvqfc0","pricing_plan_id":"cebpf4jnsgd1na2vs0mg"},{"bike_id":"984e09f9-6352-450c-90a3-4f0448120bc4","system_id":"levelo_inurba_marseille","lat":43.23966,"lon":5.36626,"is_reserved":false,"is_disabled":false,"rental_uris":{"android":"levelo://app?vid=984e09f9-6352-450c-90a3-4f0448120bc4","ios":"levelo://app?vid=984e09f9-6352-450c-90a3-4f0448120bc4"},"vehicle_type_id":"4","last_reported":1751663395,"current_range_meters":16800,"station_id":"ce4bhi12rcd13ifvqfp0","pricing_plan_id":"cebpf4jnsgd1na2vs0mg"},{"bike_id":"a4c10b9b-9c59-4267-88f9-e6d899212452","system_id":"levelo_inurba_marseille","lat":43.28436,"lon":5.39196,"is_reserved":false,"is_disabled":false,"rental_uris":{"android":"levelo://app?vid=a4c10b9b-9c59-4267-88f9-e6d899212452","ios":"levelo://app?vid=a4c10b9b-9c59-4267-88f9-e6d899212452"},"vehicle_type_id":"4","last_reported":1751663395,"current_range_meters":16800,"station_id":"ce4bhoh2rcd13ifvqh5g","pricing_plan_id":"cebpf4jnsgd1na2vs0mg"},{"bike_id":"833dcaf2-4903-410f-af44-06dc9eae5be9","system_id":"levelo_inurba_marseille","lat":43.32037,"lon":5.41542,"is_reserved":false,"is_disabled":false,"rental_uris":{"android":"levelo://app?vid=833dcaf2-4903-410f-af44-06dc9eae5be9","ios":"levelo://app?vid=833dcaf2-4903-410f-af44-06dc9eae5be9"},"vehicle_type_id":"4","last_reported":1751663395,"current_range_meters":16800,"station_id":"ce4bhq92rcd13ifvqhkg","pricing_plan_id":"cebpf4jnsgd1na2vs0mg"},{"bike_id":"5f470112-8139-4343-b082-08a74e0b7074","system_id":"levelo_inurba_marseille","lat":43.21191,"lon":5.35085,"is_reserved":false,"is_disabled":false,"rental_uris":{"android":"levelo://app?vid=5f470112-8139-4343-b082-08a74e0b7074","ios":"levelo://app?vid=5f470112-8139-4343-b082-08a74e0b7074"},"vehicle_type_id":"4","last_reported":1751663395,"current_range_meters":16800,"station_id":"st_cvj6sg6p6f1abm77japg","pricing_plan_id":"cebpf4jnsgd1na2vs0mg"},{"bike_id":"25d65b54-2483-49ad-9e8c-b4102ded682f","system_id":"levelo_inurba_marseille","lat":43.212209,"lon":5.350402,"is_reserved":false,"is_disabled":false,"rental_uris":{"android":"levelo://app?vid=25d65b54-2483-49ad-9e8c-b4102ded682f","ios":"levelo://app?vid=25d65b54-2483-49ad-9e8c-b4102ded682f"},"vehicle_type_id":"4","last_reported":1751663395,"current_range_meters":17200,"station_id":"","pricing_plan_id":"cebpf4jnsgd1na2vs0mg"},{"bike_id":"a06cd697-9b1d-4139-b391-7ac7a1c6a64f","system_id":"levelo_inurba_marseille","lat":43.29524,"lon":5.38545,"is_reserved":false,"is_disabled":false,"rental_uris":{"android":"levelo://app?vid=a06cd697-9b1d-4139-b391-7ac7a1c6a64f","ios":"levelo://app?vid=a06cd697-9b1d-4139-b391-7ac7a1c6a64f"},"vehicle_type_id":"4","last_reported":1751663395,"current_range_meters":17200,"station_id":"ce4bgih2rcd13ifvqba0","pricing_plan_id":"cebpf4jnsgd1na2vs0mg"},{"bike_id":"090258be-1c40-4896-8364-f8cfc8f34e03","system_id":"levelo_inurba_marseille","lat":43.29529,"lon":5.38549,"is_reserved":false,"is_disabled":false,"rental_uris":{"android":"levelo://app?vid=090258be-1c40-4896-8364-f8cfc8f34e03","ios":"levelo://app?vid=090258be-1c40-4896-8364-f8cfc8f34e03"},"vehicle_type_id":"4","last_reported":1751663395,"current_range_meters":17200,"station_id":"ce4bgih2rcd13ifvqba0","pricing_plan_id":"cebpf4jnsgd1na2vs0mg"},{"bike_id":"70167b12-3fbd-4b58-bf53-e11cba6d3195","system_id":"levelo_inurba_marseille","lat":43.29522,"lon":5.39044,"is_reserved":false,"is_disabled":false,"rental_uris":{"android":"levelo://app?vid=70167b12-3fbd-4b58-bf53-e11cba6d3195","ios":"levelo://app?vid=70167b12-3fbd-4b58-bf53-e11cba6d3195"},"vehicle_type_id":"4","last_reported":1751663395,"current_range_meters":17200,"station_id":"ce4bh3p2rcd13ifvqdp0","pricing_plan_id":"cebpf4jnsgd1na2vs0mg"},{"bike_id":"144b2835-09b0-4810-b59c-878909a1575d","system_id":"levelo_inurba_marseille","lat":43.28097,"lon":5.37833,"is_reserved":false,"is_disabled":false,"rental_uris":{"android":"levelo://app?vid=144b2835-09b0-4810-b59c-878909a1575d","ios":"levelo://app?vid=144b2835-09b0-4810-b59c-878909a1575d"},"vehicle_type_id":"4","last_reported":1751663395,"current_range_meters":17200,"station_id":"ce4bha12rcd13ifvqee0","pricing_plan_id":"cebpf4jnsgd1na2vs0mg"},{"bike_id":"f4e826d8-ed9e-4549-9acf-20093fe9a4a1","system_id":"levelo_inurba_marseille","lat":43.26553,"lon":5.37285,"is_reserved":false,"is_disabled":false,"rental_uris":{"android":"levelo://app?vid=f4e826d8-ed9e-4549-9acf-20093fe9a4a1","ios":"levelo://app?vid=f4e826d8-ed9e-4549-9acf-20093fe9a4a1"},"vehicle_type_id":"4","last_reported":1751663395,"current_range_meters":17200,"station_id":"ce4bhg12rcd13ifvqf70","pricing_plan_id":"cebpf4jnsgd1na2vs0mg"},{"bike_id":"89c4c171-fa34-44ee-8818-b4f1de745083","system_id":"levelo_inurba_marseille","lat":43.231943,"lon":5.355539,"is_reserved":false,"is_disabled":false,"rental_uris":{"android":"levelo://app?vid=89c4c171-fa34-44ee-8818-b4f1de745083","ios":"levelo://app?vid=89c4c171-fa34-44ee-8818-b4f1de745083"},"vehicle_type_id":"4","last_reported":1751663395,"current_range_meters":17200,"station_id":"ce4bhu92rcd13ifvqi70","pricing_plan_id":"cebpf4jnsgd1na2vs0mg"},{"bike_id":"85e59ae2-b351-4789-8c40-11e04c4e6808","system_id":"levelo_inurba_marseille","lat":43.23197,"lon":5.3555,"is_reserved":false,"is_disabled":false,"rental_uris":{"android":"levelo://app?vid=85e59ae2-b351-4789-8c40-11e04c4e6808","ios":"levelo://app?vid=85e59ae2-b351-4789-8c40-11e04c4e6808"},"vehicle_type_id":"4","last_reported":1751663395,"current_range_meters":17200,"station_id":"ce4bhu92rcd13ifvqi70","pricing_plan_id":"cebpf4jnsgd1na2vs0mg"},{"bike_id":"ef26d274-58a7-40bc-9cf0-6287718684d4","system_id":"levelo_inurba_marseille","lat":43.30749,"lon":5.42447,"is_reserved":false,"is_disabled":false,"rental_uris":{"android":"levelo://app?vid=ef26d274-58a7-40bc-9cf0-6287718684d4","ios":"levelo://app?vid=ef26d274-58a7-40bc-9cf0-6287718684d4"},"vehicle_type_id":"4","last_reported":1751663395,"current_range_meters":17200,"station_id":"st_cvj6ca6bvosntc0bfgr0","pricing_plan_id":"cebpf4jnsgd1na2vs0mg"},{"bike_id":"b67e3de7-3a98-48a8-ada1-6072073e6e54","system_id":"levelo_inurba_marseille","lat":43.24527,"lon":5.37379,"is_reserved":false,"is_disabled":false,"rental_uris":{"android":"levelo://app?vid=b67e3de7-3a98-48a8-ada1-6072073e6e54","ios":"levelo://app?vid=b67e3de7-3a98-48a8-ada1-6072073e6e54"},"vehicle_type_id":"4","last_reported":1751663395,"current_range_meters":17600,"station_id":"","pricing_plan_id":"cebpf4jnsgd1na2vs0mg"},{"bike_id":"9ce4937e-f70c-40c5-8304-a6e4aa82f427","system_id":"levelo_inurba_marseille","lat":43.30325,"lon":5.40445,"is_reserved":false,"is_disabled":false,"rental_uris":{"android":"levelo://app?vid=9ce4937e-f70c-40c5-8304-a6e4aa82f427","ios":"levelo://app?vid=9ce4937e-f70c-40c5-8304-a6e4aa82f427"},"vehicle_type_id":"4","last_reported":1751663395,"current_range_meters":17600,"station_id":"ce4bh012rcd13ifvqd10","pricing_plan_id":"cebpf4jnsgd1na2vs0mg"},{"bike_id":"efef014a-aa00-4990-b2cf-1a13c4273789","system_id":"levelo_inurba_marseille","lat":43.29028,"lon":5.39971,"is_reserved":false,"is_disabled":false,"rental_uris":{"android":"levelo://app?vid=efef014a-aa00-4990-b2cf-1a13c4273789","ios":"levelo://app?vid=efef014a-aa00-4990-b2cf-1a13c4273789"},"vehicle_type_id":"4","last_reported":1751663395,"current_range_meters":17600,"station_id":"ce4bh392rcd13ifvqdm0","pricing_plan_id":"cebpf4jnsgd1na2vs0mg"},{"bike_id":"038f04c6-6a25-4caf-96c3-89ff54742e3a","system_id":"levelo_inurba_marseille","lat":43.28406,"lon":5.37514,"is_reserved":false,"is_disabled":false,"rental_uris":{"android":"levelo://app?vid=038f04c6-6a25-4caf-96c3-89ff54742e3a","ios":"levelo://app?vid=038f04c6-6a25-4caf-96c3-89ff54742e3a"},"vehicle_type_id":"4","last_reported":1751663395,"current_range_meters":17600,"station_id":"ce4bh412rcd13ifvqds0","pricing_plan_id":"cebpf4jnsgd1na2vs0mg"},{"bike_id":"9898e142-28b3-4650-b81a-822e59221a52","system_id":"levelo_inurba_marseille","lat":43.27044,"lon":5.42283,"is_reserved":false,"is_disabled":false,"rental_uris":{"android":"levelo://app?vid=9898e142-28b3-4650-b81a-822e59221a52","ios":"levelo://app?vid=9898e142-28b3-4650-b81a-822e59221a52"},"vehicle_type_id":"4","last_reported":1751663395,"current_range_meters":17600,"station_id":"ce4bhk92rcd13ifvqgb0","pricing_plan_id":"cebpf4jnsgd1na2vs0mg"},{"bike_id":"8501c7f1-4540-433a-9226-9677bd87b71a","system_id":"levelo_inurba_marseille","lat":43.2116,"lon":5.35081,"is_reserved":false,"is_disabled":false,"rental_uris":{"android":"levelo://app?vid=8501c7f1-4540-433a-9226-9677bd87b71a","ios":"levelo://app?vid=8501c7f1-4540-433a-9226-9677bd87b71a"},"vehicle_type_id":"4","last_reported":1751663395,"current_range_meters":17600,"station_id":"st_cvj6sg6p6f1abm77japg","pricing_plan_id":"cebpf4jnsgd1na2vs0mg"},{"bike_id":"49cdc6d1-c04d-4952-8f8b-d43b23f6027f","system_id":"levelo_inurba_marseille","lat":43.294847,"lon":5.385797,"is_reserved":false,"is_disabled":false,"rental_uris":{"android":"levelo://app?vid=49cdc6d1-c04d-4952-8f8b-d43b23f6027f","ios":"levelo://app?vid=49cdc6d1-c04d-4952-8f8b-d43b23f6027f"},"vehicle_type_id":"4","last_reported":1751663395,"current_range_meters":18000,"station_id":"","pricing_plan_id":"cebpf4jnsgd1na2vs0mg"},{"bike_id":"adf1d38d-1f03-40cf-9b57-0a8f15f62b2d","system_id":"levelo_inurba_marseille","lat":43.32956,"lon":5.36434,"is_reserved":false,"is_disabled":false,"rental_uris":{"android":"levelo://app?vid=adf1d38d-1f03-40cf-9b57-0a8f15f62b2d","ios":"levelo://app?vid=adf1d38d-1f03-40cf-9b57-0a8f15f62b2d"},"vehicle_type_id":"4","last_reported":1751663395,"current_range_meters":18000,"station_id":"","pricing_plan_id":"cebpf4jnsgd1na2vs0mg"},{"bike_id":"341bd4b5-fefa-4ffb-8100-125363878a2d","system_id":"levelo_inurba_marseille","lat":43.29304,"lon":5.37459,"is_reserved":false,"is_disabled":false,"rental_uris":{"android":"levelo://app?vid=341bd4b5-fefa-4ffb-8100-125363878a2d","ios":"levelo://app?vid=341bd4b5-fefa-4ffb-8100-125363878a2d"},"vehicle_type_id":"4","last_reported":1751663395,"current_range_meters":18000,"station_id":"ce4bgi12rcd13ifvqb70","pricing_plan_id":"cebpf4jnsgd1na2vs0mg"},{"bike_id":"aa60e0dc-2709-4511-91a9-9bb1ddcf9006","system_id":"levelo_inurba_marseille","lat":43.30946,"lon":5.39036,"is_reserved":false,"is_disabled":false,"rental_uris":{"android":"levelo://app?vid=aa60e0dc-2709-4511-91a9-9bb1ddcf9006","ios":"levelo://app?vid=aa60e0dc-2709-4511-91a9-9bb1ddcf9006"},"vehicle_type_id":"4","last_reported":1751663395,"current_range_meters":18000,"station_id":"ce4bgup2rcd13ifvqco0","pricing_plan_id":"cebpf4jnsgd1na2vs0mg"},{"bike_id":"59a6f59a-7087-4ff9-9862-c0b83ece393e","system_id":"levelo_inurba_marseille","lat":43.30958,"lon":5.39037,"is_reserved":false,"is_disabled":false,"rental_uris":{"android":"levelo://app?vid=59a6f59a-7087-4ff9-9862-c0b83ece393e","ios":"levelo://app?vid=59a6f59a-7087-4ff9-9862-c0b83ece393e"},"vehicle_type_id":"4","last_reported":1751663395,"current_range_meters":18000,"station_id":"ce4bgup2rcd13ifvqco0","pricing_plan_id":"cebpf4jnsgd1na2vs0mg"},{"bike_id":"eee40584-a53a-46c2-94a4-491b77e8d9d1","system_id":"levelo_inurba_marseille","lat":43.21726,"lon":5.34613,"is_reserved":false,"is_disabled":false,"rental_uris":{"android":"levelo://app?vid=eee40584-a53a-46c2-94a4-491b77e8d9d1","ios":"levelo://app?vid=eee40584-a53a-46c2-94a4-491b77e8d9d1"},"vehicle_type_id":"4","last_reported":1751663395,"current_range_meters":18000,"station_id":"st_cvj6r9ubvosntc0bgbag","pricing_plan_id":"cebpf4jnsgd1na2vs0mg"},{"bike_id":"134a6fd1-cb8b-4ade-a0c2-0b22bf7dca76","system_id":"levelo_inurba_marseille","lat":43.211854,"lon":5.350744,"is_reserved":false,"is_disabled":false,"rental_uris":{"android":"levelo://app?vid=134a6fd1-cb8b-4ade-a0c2-0b22bf7dca76","ios":"levelo://app?vid=134a6fd1-cb8b-4ade-a0c2-0b22bf7dca76"},"vehicle_type_id":"4","last_reported":1751663395,"current_range_meters":18000,"station_id":"st_cvj6sg6p6f1abm77japg","pricing_plan_id":"cebpf4jnsgd1na2vs0mg"},{"bike_id":"fe8ee84c-fdfc-40aa-a1c2-6e36409c0740","system_id":"levelo_inurba_marseille","lat":43.26827,"lon":5.39071,"is_reserved":false,"is_disabled":false,"rental_uris":{"android":"levelo://app?vid=fe8ee84c-fdfc-40aa-a1c2-6e36409c0740","ios":"levelo://app?vid=fe8ee84c-fdfc-40aa-a1c2-6e36409c0740"},"vehicle_type_id":"4","last_reported":1751663395,"current_range_meters":18800,"station_id":"","pricing_plan_id":"cebpf4jnsgd1na2vs0mg"},{"bike_id":"3fc62123-78f7-4bfd-9645-67a7412e0768","system_id":"levelo_inurba_marseille","lat":43.2573,"lon":5.41107,"is_reserved":false,"is_disabled":false,"rental_uris":{"android":"levelo://app?vid=3fc62123-78f7-4bfd-9645-67a7412e0768","ios":"levelo://app?vid=3fc62123-78f7-4bfd-9645-67a7412e0768"},"vehicle_type_id":"4","last_reported":1751663395,"current_range_meters":18800,"station_id":"","pricing_plan_id":"cebpf4jnsgd1na2vs0mg"},{"bike_id":"e815741e-439c-46ff-ba75-79172e96442b","system_id":"levelo_inurba_marseille","lat":43.29842,"lon":5.36323,"is_reserved":false,"is_disabled":false,"rental_uris":{"android":"levelo://app?vid=e815741e-439c-46ff-ba75-79172e96442b","ios":"levelo://app?vid=e815741e-439c-46ff-ba75-79172e96442b"},"vehicle_type_id":"4","last_reported":1751663395,"current_range_meters":18800,"station_id":"ce4bgpp2rcd13ifvqc3g","pricing_plan_id":"cebpf4jnsgd1na2vs0mg"},{"bike_id":"f328417f-f2af-419a-a979-9cebfa73d3fe","system_id":"levelo_inurba_marseille","lat":43.31345,"lon":5.38513,"is_reserved":false,"is_disabled":false,"rental_uris":{"android":"levelo://app?vid=f328417f-f2af-419a-a979-9cebfa73d3fe","ios":"levelo://app?vid=f328417f-f2af-419a-a979-9cebfa73d3fe"},"vehicle_type_id":"4","last_reported":1751663395,"current_range_meters":18800,"station_id":"ce4bgt92rcd13ifvqcf0","pricing_plan_id":"cebpf4jnsgd1na2vs0mg"},{"bike_id":"ed941062-3449-4907-a19f-35619aa1f376","system_id":"levelo_inurba_marseille","lat":43.30329,"lon":5.40438,"is_reserved":false,"is_disabled":false,"rental_uris":{"android":"levelo://app?vid=ed941062-3449-4907-a19f-35619aa1f376","ios":"levelo://app?vid=ed941062-3449-4907-a19f-35619aa1f376"},"vehicle_type_id":"4","last_reported":1751663395,"current_range_meters":18800,"station_id":"ce4bh012rcd13ifvqd10","pricing_plan_id":"cebpf4jnsgd1na2vs0mg"},{"bike_id":"b38b549b-7e08-4150-bdf3-3f2e3e200db5","system_id":"levelo_inurba_marseille","lat":43.28413,"lon":5.37567,"is_reserved":false,"is_disabled":false,"rental_uris":{"android":"levelo://app?vid=b38b549b-7e08-4150-bdf3-3f2e3e200db5","ios":"levelo://app?vid=b38b549b-7e08-4150-bdf3-3f2e3e200db5"},"vehicle_type_id":"4","last_reported":1751663395,"current_range_meters":18800,"station_id":"ce4bh412rcd13ifvqds0","pricing_plan_id":"cebpf4jnsgd1na2vs0mg"},{"bike_id":"54756faf-cb40-4ef1-aa74-0a23070f1a67","system_id":"levelo_inurba_marseille","lat":43.26206,"lon":5.37441,"is_reserved":false,"is_disabled":false,"rental_uris":{"android":"levelo://app?vid=54756faf-cb40-4ef1-aa74-0a23070f1a67","ios":"levelo://app?vid=54756faf-cb40-4ef1-aa74-0a23070f1a67"},"vehicle_type_id":"4","last_reported":1751663395,"current_range_meters":18800,"station_id":"ce4bhgp2rcd13ifvqfc0","pricing_plan_id":"cebpf4jnsgd1na2vs0mg"},{"bike_id":"a61b4c77-a7d3-4c81-91e2-0425d45a633f","system_id":"levelo_inurba_marseille","lat":43.28444,"lon":5.39202,"is_reserved":false,"is_disabled":false,"rental_uris":{"android":"levelo://app?vid=a61b4c77-a7d3-4c81-91e2-0425d45a633f","ios":"levelo://app?vid=a61b4c77-a7d3-4c81-91e2-0425d45a633f"},"vehicle_type_id":"4","last_reported":1751663395,"current_range_meters":18800,"station_id":"ce4bhoh2rcd13ifvqh5g","pricing_plan_id":"cebpf4jnsgd1na2vs0mg"},{"bike_id":"631eac7f-62fb-41d0-9040-9f319ca6b63e","system_id":"levelo_inurba_marseille","lat":43.33724,"lon":5.392,"is_reserved":false,"is_disabled":false,"rental_uris":{"android":"levelo://app?vid=631eac7f-62fb-41d0-9040-9f319ca6b63e","ios":"levelo://app?vid=631eac7f-62fb-41d0-9040-9f319ca6b63e"},"vehicle_type_id":"4","last_reported":1751663395,"current_range_meters":18800,"station_id":"ce4bhr92rcd13ifvqhsg","pricing_plan_id":"cebpf4jnsgd1na2vs0mg"},{"bike_id":"d5ef770d-9759-47e3-b3a5-7d2785ef76db","system_id":"levelo_inurba_marseille","lat":43.33057,"lon":5.39369,"is_reserved":false,"is_disabled":false,"rental_uris":{"android":"levelo://app?vid=d5ef770d-9759-47e3-b3a5-7d2785ef76db","ios":"levelo://app?vid=d5ef770d-9759-47e3-b3a5-7d2785ef76db"},"vehicle_type_id":"4","last_reported":1751663395,"current_range_meters":19200,"station_id":"","pricing_plan_id":"cebpf4jnsgd1na2vs0mg"},{"bike_id":"de82732e-0a39-4d40-b3cf-607f82f986f4","system_id":"levelo_inurba_marseille","lat":43.26884,"lon":5.36879,"is_reserved":false,"is_disabled":false,"rental_uris":{"android":"levelo://app?vid=de82732e-0a39-4d40-b3cf-607f82f986f4","ios":"levelo://app?vid=de82732e-0a39-4d40-b3cf-607f82f986f4"},"vehicle_type_id":"4","last_reported":1751663395,"current_range_meters":19200,"station_id":"","pricing_plan_id":"cebpf4jnsgd1na2vs0mg"},{"bike_id":"ed404beb-27d2-4951-b0c7-b56cf2d96909","system_id":"levelo_inurba_marseille","lat":43.29535,"lon":5.38545,"is_reserved":false,"is_disabled":false,"rental_uris":{"android":"levelo://app?vid=ed404beb-27d2-4951-b0c7-b56cf2d96909","ios":"levelo://app?vid=ed404beb-27d2-4951-b0c7-b56cf2d96909"},"vehicle_type_id":"4","last_reported":1751663395,"current_range_meters":19200,"station_id":"ce4bgih2rcd13ifvqba0","pricing_plan_id":"cebpf4jnsgd1na2vs0mg"},{"bike_id":"c7fbdb9e-dcbe-4ec9-91ec-8c3d4d2058e7","system_id":"levelo_inurba_marseille","lat":43.297673,"lon":5.370888,"is_reserved":false,"is_disabled":false,"rental_uris":{"android":"levelo://app?vid=c7fbdb9e-dcbe-4ec9-91ec-8c3d4d2058e7","ios":"levelo://app?vid=c7fbdb9e-dcbe-4ec9-91ec-8c3d4d2058e7"},"vehicle_type_id":"4","last_reported":1751663395,"current_range_meters":19200,"station_id":"ce4bgop2rcd13ifvqc1g","pricing_plan_id":"cebpf4jnsgd1na2vs0mg"},{"bike_id":"10e018ae-1e5c-4128-9ff4-cc3463577ed5","system_id":"levelo_inurba_marseille","lat":43.292704,"lon":5.384368,"is_reserved":false,"is_disabled":false,"rental_uris":{"android":"levelo://app?vid=10e018ae-1e5c-4128-9ff4-cc3463577ed5","ios":"levelo://app?vid=10e018ae-1e5c-4128-9ff4-cc3463577ed5"},"vehicle_type_id":"4","last_reported":1751663395,"current_range_meters":19200,"station_id":"ce4bh692rcd13ifvqea0","pricing_plan_id":"cebpf4jnsgd1na2vs0mg"},{"bike_id":"1ba3d49f-879f-495a-9eec-a5219f46051b","system_id":"levelo_inurba_marseille","lat":43.2467,"lon":5.38158,"is_reserved":false,"is_disabled":false,"rental_uris":{"android":"levelo://app?vid=1ba3d49f-879f-495a-9eec-a5219f46051b","ios":"levelo://app?vid=1ba3d49f-879f-495a-9eec-a5219f46051b"},"vehicle_type_id":"4","last_reported":1751663395,"current_range_meters":19200,"station_id":"ce4bhih2rcd13ifvqfr0","pricing_plan_id":"cebpf4jnsgd1na2vs0mg"},{"bike_id":"48e0c2ea-0004-48b8-aa5f-9e9e02ca3882","system_id":"levelo_inurba_marseille","lat":43.28001,"lon":5.41669,"is_reserved":false,"is_disabled":false,"rental_uris":{"android":"levelo://app?vid=48e0c2ea-0004-48b8-aa5f-9e9e02ca3882","ios":"levelo://app?vid=48e0c2ea-0004-48b8-aa5f-9e9e02ca3882"},"vehicle_type_id":"4","last_reported":1751663395,"current_range_meters":19200,"station_id":"ce4bho12rcd13ifvqh1g","pricing_plan_id":"cebpf4jnsgd1na2vs0mg"},{"bike_id":"7d7ca329-d013-418c-84c4-2b0666103eeb","system_id":"levelo_inurba_marseille","lat":43.29895,"lon":5.43675,"is_reserved":false,"is_disabled":false,"rental_uris":{"android":"levelo://app?vid=7d7ca329-d013-418c-84c4-2b0666103eeb","ios":"levelo://app?vid=7d7ca329-d013-418c-84c4-2b0666103eeb"},"vehicle_type_id":"4","last_reported":1751663395,"current_range_meters":19200,"station_id":"ce4bhpp2rcd13ifvqhfg","pricing_plan_id":"cebpf4jnsgd1na2vs0mg"},{"bike_id":"fe0d87bc-356f-4392-bd27-d2c9ae64a76b","system_id":"levelo_inurba_marseille","lat":43.33598,"lon":5.4095,"is_reserved":false,"is_disabled":false,"rental_uris":{"android":"levelo://app?vid=fe0d87bc-356f-4392-bd27-d2c9ae64a76b","ios":"levelo://app?vid=fe0d87bc-356f-4392-bd27-d2c9ae64a76b"},"vehicle_type_id":"4","last_reported":1751663395,"current_range_meters":19200,"station_id":"ce4bhqh2rcd13ifvqhmg","pricing_plan_id":"cebpf4jnsgd1na2vs0mg"},{"bike_id":"65649ce6-7f39-4a81-afab-6d8bea652e28","system_id":"levelo_inurba_marseille","lat":43.30726,"lon":5.42473,"is_reserved":false,"is_disabled":false,"rental_uris":{"android":"levelo://app?vid=65649ce6-7f39-4a81-afab-6d8bea652e28","ios":"levelo://app?vid=65649ce6-7f39-4a81-afab-6d8bea652e28"},"vehicle_type_id":"4","last_reported":1751663395,"current_range_meters":19200,"station_id":"st_cvj6ca6bvosntc0bfgr0","pricing_plan_id":"cebpf4jnsgd1na2vs0mg"},{"bike_id":"bf24b26e-7f51-4120-9a48-54c87edaa2f7","system_id":"levelo_inurba_marseille","lat":43.211879,"lon":5.350759,"is_reserved":false,"is_disabled":false,"rental_uris":{"android":"levelo://app?vid=bf24b26e-7f51-4120-9a48-54c87edaa2f7","ios":"levelo://app?vid=bf24b26e-7f51-4120-9a48-54c87edaa2f7"},"vehicle_type_id":"4","last_reported":1751663395,"current_range_meters":19200,"station_id":"st_cvj6sg6p6f1abm77japg","pricing_plan_id":"cebpf4jnsgd1na2vs0mg"},{"bike_id":"8a42812b-a6a1-406d-afe6-f3a1f04badd8","system_id":"levelo_inurba_marseille","lat":43.3088,"lon":5.3704,"is_reserved":false,"is_disabled":false,"rental_uris":{"android":"levelo://app?vid=8a42812b-a6a1-406d-afe6-f3a1f04badd8","ios":"levelo://app?vid=8a42812b-a6a1-406d-afe6-f3a1f04badd8"},"vehicle_type_id":"4","last_reported":1751663395,"current_range_meters":19600,"station_id":"","pricing_plan_id":"cebpf4jnsgd1na2vs0mg"},{"bike_id":"a8478cf3-4e19-44d0-9061-f03a8214e6d7","system_id":"levelo_inurba_marseille","lat":43.3028,"lon":5.3922,"is_reserved":false,"is_disabled":false,"rental_uris":{"android":"levelo://app?vid=a8478cf3-4e19-44d0-9061-f03a8214e6d7","ios":"levelo://app?vid=a8478cf3-4e19-44d0-9061-f03a8214e6d7"},"vehicle_type_id":"4","last_reported":1751663395,"current_range_meters":19600,"station_id":"ce4bgkh2rcd13ifvqbk0","pricing_plan_id":"cebpf4jnsgd1na2vs0mg"},{"bike_id":"b5c1b652-2498-4560-b442-65fd5da4062d","system_id":"levelo_inurba_marseille","lat":43.31357,"lon":5.38494,"is_reserved":false,"is_disabled":false,"rental_uris":{"android":"levelo://app?vid=b5c1b652-2498-4560-b442-65fd5da4062d","ios":"levelo://app?vid=b5c1b652-2498-4560-b442-65fd5da4062d"},"vehicle_type_id":"4","last_reported":1751663395,"current_range_meters":19600,"station_id":"ce4bgt92rcd13ifvqcf0","pricing_plan_id":"cebpf4jnsgd1na2vs0mg"},{"bike_id":"6f020c40-a996-4aa2-99ba-c4f055b86810","system_id":"levelo_inurba_marseille","lat":43.31356,"lon":5.38495,"is_reserved":false,"is_disabled":false,"rental_uris":{"android":"levelo://app?vid=6f020c40-a996-4aa2-99ba-c4f055b86810","ios":"levelo://app?vid=6f020c40-a996-4aa2-99ba-c4f055b86810"},"vehicle_type_id":"4","last_reported":1751663395,"current_range_meters":19600,"station_id":"ce4bgt92rcd13ifvqcf0","pricing_plan_id":"cebpf4jnsgd1na2vs0mg"},{"bike_id":"5b5ca915-19f5-4c5c-ba88-71fe4a9869eb","system_id":"levelo_inurba_marseille","lat":43.316871,"lon":5.377551,"is_reserved":false,"is_disabled":false,"rental_uris":{"android":"levelo://app?vid=5b5ca915-19f5-4c5c-ba88-71fe4a9869eb","ios":"levelo://app?vid=5b5ca915-19f5-4c5c-ba88-71fe4a9869eb"},"vehicle_type_id":"4","last_reported":1751663395,"current_range_meters":19600,"station_id":"ce4bgth2rcd13ifvqch0","pricing_plan_id":"cebpf4jnsgd1na2vs0mg"},{"bike_id":"418f3ffe-22f7-452e-84de-b00714781230","system_id":"levelo_inurba_marseille","lat":43.303171,"lon":5.394976,"is_reserved":false,"is_disabled":false,"rental_uris":{"android":"levelo://app?vid=418f3ffe-22f7-452e-84de-b00714781230","ios":"levelo://app?vid=418f3ffe-22f7-452e-84de-b00714781230"},"vehicle_type_id":"4","last_reported":1751663395,"current_range_meters":19600,"station_id":"ce4bgup2rcd13ifvqco0","pricing_plan_id":"cebpf4jnsgd1na2vs0mg"},{"bike_id":"b0a42ca2-ba28-4e04-b2bc-0d8ffd7fe859","system_id":"levelo_inurba_marseille","lat":43.29548,"lon":5.39399,"is_reserved":false,"is_disabled":false,"rental_uris":{"android":"levelo://app?vid=b0a42ca2-ba28-4e04-b2bc-0d8ffd7fe859","ios":"levelo://app?vid=b0a42ca2-ba28-4e04-b2bc-0d8ffd7fe859"},"vehicle_type_id":"4","last_reported":1751663395,"current_range_meters":19600,"station_id":"ce4bh292rcd13ifvqdf0","pricing_plan_id":"cebpf4jnsgd1na2vs0mg"},{"bike_id":"1cdfcd95-2eff-4b77-a860-4bb0b615f673","system_id":"levelo_inurba_marseille","lat":43.29437,"lon":5.39754,"is_reserved":false,"is_disabled":false,"rental_uris":{"android":"levelo://app?vid=1cdfcd95-2eff-4b77-a860-4bb0b615f673","ios":"levelo://app?vid=1cdfcd95-2eff-4b77-a860-4bb0b615f673"},"vehicle_type_id":"4","last_reported":1751663395,"current_range_meters":19600,"station_id":"ce4bh3h2rcd13ifvqdo0","pricing_plan_id":"cebpf4jnsgd1na2vs0mg"},{"bike_id":"afb484e0-31ca-4f69-9441-b375094f87b7","system_id":"levelo_inurba_marseille","lat":43.29269,"lon":5.38448,"is_reserved":false,"is_disabled":false,"rental_uris":{"android":"levelo://app?vid=afb484e0-31ca-4f69-9441-b375094f87b7","ios":"levelo://app?vid=afb484e0-31ca-4f69-9441-b375094f87b7"},"vehicle_type_id":"4","last_reported":1751663395,"current_range_meters":19600,"station_id":"ce4bh692rcd13ifvqea0","pricing_plan_id":"cebpf4jnsgd1na2vs0mg"},{"bike_id":"fb25db52-7ebc-4967-93df-bf3d12017985","system_id":"levelo_inurba_marseille","lat":43.24651,"lon":5.38898,"is_reserved":false,"is_disabled":false,"rental_uris":{"android":"levelo://app?vid=fb25db52-7ebc-4967-93df-bf3d12017985","ios":"levelo://app?vid=fb25db52-7ebc-4967-93df-bf3d12017985"},"vehicle_type_id":"4","last_reported":1751663395,"current_range_meters":19600,"station_id":"ce4bhg12rcd13ifvqf60","pricing_plan_id":"cebpf4jnsgd1na2vs0mg"},{"bike_id":"0193f3ca-1cbe-4220-8b10-68956a2b1f0c","system_id":"levelo_inurba_marseille","lat":43.26198,"lon":5.37452,"is_reserved":false,"is_disabled":false,"rental_uris":{"android":"levelo://app?vid=0193f3ca-1cbe-4220-8b10-68956a2b1f0c","ios":"levelo://app?vid=0193f3ca-1cbe-4220-8b10-68956a2b1f0c"},"vehicle_type_id":"4","last_reported":1751663395,"current_range_meters":19600,"station_id":"ce4bhgp2rcd13ifvqfc0","pricing_plan_id":"cebpf4jnsgd1na2vs0mg"},{"bike_id":"e449aa29-cae1-4432-9aec-dedc13360b20","system_id":"levelo_inurba_marseille","lat":43.21189,"lon":5.35082,"is_reserved":false,"is_disabled":false,"rental_uris":{"android":"levelo://app?vid=e449aa29-cae1-4432-9aec-dedc13360b20","ios":"levelo://app?vid=e449aa29-cae1-4432-9aec-dedc13360b20"},