{"last_updated":1710462829,"ttl":30,"version":"2.2","data":{"bikes":[{"bike_id":"01d55148-69e3-47e6-9867-60cedfb6fb71","system_id":"levelo_inurba_marseille","lat":43.313391,"lon":5.36706,"is_reserved":false,"is_disabled":false,"rental_uris":{"android":"levelo://app?vid=01d55148-69e3-47e6-9867-60cedfb6fb71","ios":"levelo://app?vid=01d55148-69e3-47e6-9867-60cedfb6fb71"},"vehicle_type_id":"4","last_reported":1710462829,"current_range_meters":23200,"station_id":"ce4bgr92rcd13ifvqc6g","pricing_plan_id":"cebpf4jnsgd1na2vs0mg"},{"bike_id":"e21e755b-622c-45b3-8813-ac9e997508d6","system_id":"levelo_inurba_marseille","lat":43.312239,"lon":5.368562,"is_reserved":false,"is_disabled":false,"rental_uris":{"android":"levelo://app?vid=e21e755b-622c-45b3-8813-ac9e997508d6","ios":"levelo://app?vid=e21e755b-622c-45b3-8813-ac9e997508d6"},"vehicle_type_id":"4","last_reported":1710462829,"current_range_meters":14400,"station_id":"ce4bgl92rcd13ifvqbq0","pricing_plan_id":"cebpf4jnsgd1na2vs0mg"},{"bike_id":"dcadd360-a643-43e8-b7b9-1768cc2c3a06","system_id":"levelo_inurba_marseille","lat":43.309076,"lon":5.368465,"is_reserved":false,"is_disabled":false,"rental_uris":{"android":"levelo://app?vid=dcadd360-a643-43e8-b7b9-1768cc2c3a06","ios":"levelo://app?vid=dcadd360-a643-43e8-b7b9-1768cc2c3a06"},"vehicle_type_id":"4","last_reported":1710462829,"current_range_meters":31200,"station_id":"ce4bgn92rcd13ifvqbvg","pricing_plan_id":"cebpf4jnsgd1na2vs0mg"},{"bike_id":"f2822cf1-8d54-4e73-aa5b-cfc5ae1ad058","system_id":"levelo_inurba_marseille","lat":43.309039,"lon":5.371797,"is_reserved":false,"is_disabled":false,"rental_uris":{"android":"levelo://app?vid=f2822cf1-8d54-4e73-aa5b-cfc5ae1ad058","ios":"levelo://app?vid=f2822cf1-8d54-4e73-aa5b-cfc5ae1ad058"},"vehicle_type_id":"4","last_reported":1710462829,"current_range_meters":18400,"station_id":"ce4bguh2rcd13ifvqckg","pricing_plan_id":"cebpf4jnsgd1na2vs0mg"},{"bike_id":"74277f8a-1962-4ab7-b144-eadaab32d2cd","system_id":"levelo_inurba_marseille","lat":43.309039,"lon":5.371797,"is_reserved":false,"is_disabled":false,"rental_uris":{"android":"levelo://app?vid=74277f8a-1962-4ab7-b144-eadaab32d2cd","ios":"levelo://app?vid=74277f8a-1962-4ab7-b144-eadaab32d2cd"},"vehicle_type_id":"4","last_reported":1710462829,"current_range_meters":22000,"station_id":"ce4bguh2rcd13ifvqckg","pricing_plan_id":"cebpf4jnsgd1na2vs0mg"},{"bike_id":"08df17ad-9275-4b95-8231-0d22231cb40e","system_id":"levelo_inurba_marseille","lat":43.309039,"lon":5.371797,"is_reserved":false,"is_disabled":false,"rental_uris":{"android":"levelo://app?vid=08df17ad-9275-4b95-8231-0d22231cb40e","ios":"levelo://app?vid=08df17ad-9275-4b95-8231-0d22231cb40e"},"vehicle_type_id":"4","last_reported":1710462829,"current_range_meters":10800,"station_id":"ce4bguh2rcd13ifvqckg","pricing_plan_id":"cebpf4jnsgd1na2vs0mg"},{"bike_id":"17c1edb8-8f0d-4aa0-9751-b83444665d2b","system_id":"levelo_inurba_marseille","lat":43.309039,"lon":5.371797,"is_reserved":false,"is_disabled":false,"rental_uris":{"android":"levelo://app?vid=17c1edb8-8f0d-4aa0-9751-b83444665d2b","ios":"levelo://app?vid=17c1edb8-8f0d-4aa0-9751-b83444665d2b"},"vehicle_type_id":"4","last_reported":1710462829,"current_range_meters":14800,"station_id":"ce4bguh2rcd13ifvqckg","pricing_plan_id":"cebpf4jnsgd1na2vs0mg"},{"bike_id":"e24f06ab-9db3-4b54-b40c-3db69dab16a4","system_id":"levelo_inurba_marseille","lat":43.309039,"lon":5.371797,"is_reserved":false,"is_disabled":false,"rental_uris":{"android":"levelo://app?vid=e24f06ab-9db3-4b54-b40c-3db69dab16a4","ios":"levelo://app?vid=e24f06ab-9db3-4b54-b40c-3db69dab16a4"},"vehicle_type_id":"4","last_reported":1710462829,"current_range_meters":11600,"station_id":"ce4bguh2rcd13ifvqckg","pricing_plan_id":"cebpf4jnsgd1na2vs0mg"},{"bike_id":"161adb04-254e-446e-b916-77c4099677b4","system_id":"levelo_inurba_marseille","lat":43.309034,"lon":5.371783,"is_reserved":false,"is_disabled":false,"rental_uris":{"android":"levelo://app?vid=161adb04-254e-446e-b916-77c4099677b4","ios":"levelo://app?vid=161adb04-254e-446e-b916-77c4099677b4"},"vehicle_type_id":"4","last_reported":1710462829,"current_range_meters":24400,"station_id":"ce4bguh2rcd13ifvqckg","pricing_plan_id":"cebpf4jnsgd1na2vs0mg"},{"bike_id":"bce47182-09a2-4716-9387-ab334a38b2e8","system_id":"levelo_inurba_marseille","lat":43.31331,"lon":5.37515,"is_reserved":false,"is_disabled":false,"rental_uris":{"android":"levelo://app?vid=bce47182-09a2-4716-9387-ab334a38b2e8","ios":"levelo://app?vid=bce47182-09a2-4716-9387-ab334a38b2e8"},"vehicle_type_id":"4","last_reported":1710462829,"current_range_meters":19600,"station_id":"","pricing_plan_id":"cebpf4jnsgd1na2vs0mg"},{"bike_id":"55c5ac73-da3c-4fe2-a360-876dd99b23a8","system_id":"levelo_inurba_marseille","lat":43.31384,"lon":5.37559,"is_reserved":false,"is_disabled":false,"rental_uris":{"android":"levelo://app?vid=55c5ac73-da3c-4fe2-a360-876dd99b23a8","ios":"levelo://app?vid=55c5ac73-da3c-4fe2-a360-876dd99b23a8"},"vehicle_type_id":"4","last_reported":1710462829,"current_range_meters":0,"station_id":"","pricing_plan_id":"cebpf4jnsgd1na2vs0mg"},{"bike_id":"94264be3-ecfd-43af-a4e3-dcdca3f7ff85","system_id":"levelo_inurba_marseille","lat":43.312,"lon":5.37605,"is_reserved":false,"is_disabled":false,"rental_uris":{"android":"levelo://app?vid=94264be3-ecfd-43af-a4e3-dcdca3f7ff85","ios":"levelo://app?vid=94264be3-ecfd-43af-a4e3-dcdca3f7ff85"},"vehicle_type_id":"4","last_reported":1710462829,"current_range_meters":0,"station_id":"","pricing_plan_id":"cebpf4jnsgd1na2vs0mg"},{"bike_id":"a9bde6a8-26d9-4d57-9698-1b34ae45707e","system_id":"levelo_inurba_marseille","lat":43.30554,"lon":5.3653,"is_reserved":false,"is_disabled":false,"rental_uris":{"android":"levelo://app?vid=a9bde6a8-26d9-4d57-9698-1b34ae45707e","ios":"levelo://app?vid=a9bde6a8-26d9-4d57-9698-1b34ae45707e"},"vehicle_type_id":"4","last_reported":1710462829,"current_range_meters":21200,"station_id":"ce4bgs12rcd13ifvqcag","pricing_plan_id":"cebpf4jnsgd1na2vs0mg"},{"bike_id":"f3dd44a3-4bea-458e-bc09-1c6ac8fe1322","system_id":"levelo_inurba_marseille","lat":43.305368,"lon":5.367343,"is_reserved":false,"is_disabled":false,"rental_uris":{"android":"levelo://app?vid=f3dd44a3-4bea-458e-bc09-1c6ac8fe1322","ios":"levelo://app?vid=f3dd44a3-4bea-458e-bc09-1c6ac8fe1322"},"vehicle_type_id":"4","last_reported":1710462829,"current_range_meters":18000,"station_id":"ce4bgrp2rcd13ifvqc9g","pricing_plan_id":"cebpf4jnsgd1na2vs0mg"},{"bike_id":"08f19e33-db3c-4159-aa84-a2165c3016ec","system_id":"levelo_inurba_marseille","lat":43.305368,"lon":5.367343,"is_reserved":false,"is_disabled":false,"rental_uris":{"android":"levelo://app?vid=08f19e33-db3c-4159-aa84-a2165c3016ec","ios":"levelo://app?vid=08f19e33-db3c-4159-aa84-a2165c3016ec"},"vehicle_type_id":"4","last_reported":1710462829,"current_range_meters":20000,"station_id":"ce4bgrp2rcd13ifvqc9g","pricing_plan_id":"cebpf4jnsgd1na2vs0mg"},{"bike_id":"c1b747d6-1683-4f46-87de-234a38007322","system_id":"levelo_inurba_marseille","lat":43.305368,"lon":5.367343,"is_reserved":false,"is_disabled":false,"rental_uris":{"android":"levelo://app?vid=c1b747d6-1683-4f46-87de-234a38007322","ios":"levelo://app?vid=c1b747d6-1683-4f46-87de-234a38007322"},"vehicle_type_id":"4","last_reported":1710462829,"current_range_meters":14000,"station_id":"ce4bgrp2rcd13ifvqc9g","pricing_plan_id":"cebpf4jnsgd1na2vs0mg"},{"bike_id":"b5e99f45-36ea-4e10-91ac-92ec44227ef8","system_id":"levelo_inurba_marseille","lat":43.305368,"lon":5.367343,"is_reserved":false,"is_disabled":false,"rental_uris":{"android":"levelo://app?vid=b5e99f45-36ea-4e10-91ac-92ec44227ef8","ios":"levelo://app?vid=b5e99f45-36ea-4e10-91ac-92ec44227ef8"},"vehicle_type_id":"4","last_reported":1710462829,"current_range_meters":10400,"station_id":"ce4bgrp2rcd13ifvqc9g","pricing_plan_id":"cebpf4jnsgd1na2vs0mg"},{"bike_id":"9364a632-6c31-4fc7-b181-d3ece6126d66","system_id":"levelo_inurba_marseille","lat":43.305989,"lon":5.37225,"is_reserved":false,"is_disabled":false,"rental_uris":{"android":"levelo://app?vid=9364a632-6c31-4fc7-b181-d3ece6126d66","ios":"levelo://app?vid=9364a632-6c31-4fc7-b181-d3ece6126d66"},"vehicle_type_id":"4","last_reported":1710462829,"current_range_meters":8800,"station_id":"ce4bgqh2rcd13ifvqc4g","pricing_plan_id":"cebpf4jnsgd1na2vs0mg"},{"bike_id":"227cba28-c81f-4803-9371-262bd8d78bb8","system_id":"levelo_inurba_marseille","lat":43.305989,"lon":5.37225,"is_reserved":false,"is_disabled":false,"rental_uris":{"android":"levelo://app?vid=227cba28-c81f-4803-9371-262bd8d78bb8","ios":"levelo://app?vid=227cba28-c81f-4803-9371-262bd8d78bb8"},"vehicle_type_id":"4","last_reported":1710462829,"current_range_meters":28000,"station_id":"ce4bgqh2rcd13ifvqc4g","pricing_plan_id":"cebpf4jnsgd1na2vs0mg"},{"bike_id":"f3516e1c-610f-4f93-a4d1-dc5d67560990","system_id":"levelo_inurba_marseille","lat":43.305989,"lon":5.37225,"is_reserved":false,"is_disabled":false,"rental_uris":{"android":"levelo://app?vid=f3516e1c-610f-4f93-a4d1-dc5d67560990","ios":"levelo://app?vid=f3516e1c-610f-4f93-a4d1-dc5d67560990"},"vehicle_type_id":"4","last_reported":1710462829,"current_range_meters":0,"station_id":"ce4bgqh2rcd13ifvqc4g","pricing_plan_id":"cebpf4jnsgd1na2vs0mg"},{"bike_id":"5db1526d-64da-493c-99b5-cf4162dc506d","system_id":"levelo_inurba_marseille","lat":43.31115,"lon":5.37764,"is_reserved":false,"is_disabled":false,"rental_uris":{"android":"levelo://app?vid=5db1526d-64da-493c-99b5-cf4162dc506d","ios":"levelo://app?vid=5db1526d-64da-493c-99b5-cf4162dc506d"},"vehicle_type_id":"4","last_reported":1710462829,"current_range_meters":24800,"station_id":"ce4bgt92rcd13ifvqcg0","pricing_plan_id":"cebpf4jnsgd1na2vs0mg"},{"bike_id":"340b4c72-4e70-47f1-8b52-c991d59a782d","system_id":"levelo_inurba_marseille","lat":43.31119,"lon":5.37766,"is_reserved":false,"is_disabled":false,"rental_uris":{"android":"levelo://app?vid=340b4c72-4e70-47f1-8b52-c991d59a782d","ios":"levelo://app?vid=340b4c72-4e70-47f1-8b52-c991d59a782d"},"vehicle_type_id":"4","last_reported":1710462829,"current_range_meters":0,"station_id":"ce4bgt92rcd13ifvqcg0","pricing_plan_id":"cebpf4jnsgd1na2vs0mg"},{"bike_id":"d2fc1d8b-85e5-4faa-8473-7466d783f4a7","system_id":"levelo_inurba_marseille","lat":43.311131,"lon":5.377651,"is_reserved":false,"is_disabled":false,"rental_uris":{"android":"levelo://app?vid=d2fc1d8b-85e5-4faa-8473-7466d783f4a7","ios":"levelo://app?vid=d2fc1d8b-85e5-4faa-8473-7466d783f4a7"},"vehicle_type_id":"4","last_reported":1710462829,"current_range_meters":4400,"station_id":"ce4bgt92rcd13ifvqcg0","pricing_plan_id":"cebpf4jnsgd1na2vs0mg"},{"bike_id":"ddec9633-eabc-4023-bf91-ffee71ef4725","system_id":"levelo_inurba_marseille","lat":43.307945,"lon":5.376487,"is_reserved":false,"is_disabled":false,"rental_uris":{"android":"levelo://app?vid=ddec9633-eabc-4023-bf91-ffee71ef4725","ios":"levelo://app?vid=ddec9633-eabc-4023-bf91-ffee71ef4725"},"vehicle_type_id":"4","last_reported":1710462829,"current_range_meters":27600,"station_id":"ce4bgv92rcd13ifvqcq0","pricing_plan_id":"cebpf4jnsgd1na2vs0mg"},{"bike_id":"ecc572fe-683e-417b-8352-2771e89b0726","system_id":"levelo_inurba_marseille","lat":43.307945,"lon":5.376487,"is_reserved":false,"is_disabled":false,"rental_uris":{"android":"levelo://app?vid=ecc572fe-683e-417b-8352-2771e89b0726","ios":"levelo://app?vid=ecc572fe-683e-417b-8352-2771e89b0726"},"vehicle_type_id":"4","last_reported":1710462829,"current_range_meters":18800,"station_id":"ce4bgv92rcd13ifvqcq0","pricing_plan_id":"cebpf4jnsgd1na2vs0mg"},{"bike_id":"0f2f1bf9-0e30-4590-9dae-4b9464cfbdc8","system_id":"levelo_inurba_marseille","lat":43.307945,"lon":5.376487,"is_reserved":false,"is_disabled":false,"rental_uris":{"android":"levelo://app?vid=0f2f1bf9-0e30-4590-9dae-4b9464cfbdc8","ios":"levelo://app?vid=0f2f1bf9-0e30-4590-9dae-4b9464cfbdc8"},"vehicle_type_id":"4","last_reported":1710462829,"current_range_meters":12000,"station_id":"ce4bgv92rcd13ifvqcq0","pricing_plan_id":"cebpf4jnsgd1na2vs0mg"},{"bike_id":"8e408b09-e975-4f21-a8fe-ea0666538df8","system_id":"levelo_inurba_marseille","lat":43.307945,"lon":5.376487,"is_reserved":false,"is_disabled":false,"rental_uris":{"android":"levelo://app?vid=8e408b09-e975-4f21-a8fe-ea0666538df8","ios":"levelo://app?vid=8e408b09-e975-4f21-a8fe-ea0666538df8"},"vehicle_type_id":"4","last_reported":1710462829,"current_range_meters":18000,"station_id":"ce4bgv92rcd13ifvqcq0","pricing_plan_id":"cebpf4jnsgd1na2vs0mg"},{"bike_id":"7f242593-389d-4d89-bce0-3b7781417134","system_id":"levelo_inurba_marseille","lat":43.307945,"lon":5.376487,"is_reserved":false,"is_disabled":false,"rental_uris":{"android":"levelo://app?vid=7f242593-389d-4d89-bce0-3b7781417134","ios":"levelo://app?vid=7f242593-389d-4d89-bce0-3b7781417134"},"vehicle_type_id":"4","last_reported":1710462829,"current_range_meters":29600,"station_id":"ce4bgv92rcd13ifvqcq0","pricing_plan_id":"cebpf4jnsgd1na2vs0mg"},{"bike_id":"8f6ea8c0-491c-4509-9cae-0b6a9764780a","system_id":"levelo_inurba_marseille","lat":43.307945,"lon":5.376487,"is_reserved":false,"is_disabled":false,"rental_uris":{"android":"levelo://app?vid=8f6ea8c0-491c-4509-9cae-0b6a9764780a","ios":"levelo://app?vid=8f6ea8c0-491c-4509-9cae-0b6a9764780a"},"vehicle_type_id":"4","last_reported":1710462829,"current_range_meters":19600,"station_id":"ce4bgv92rcd13ifvqcq0","pricing_plan_id":"cebpf4jnsgd1na2vs0mg"},{"bike_id":"8b67f229-ccbb-4905-96d3-e1a357d4a2d2","system_id":"levelo_inurba_marseille","lat":43.317075,"lon":5.377367,"is_reserved":false,"is_disabled":false,"rental_uris":{"android":"levelo://app?vid=8b67f229-ccbb-4905-96d3-e1a357d4a2d2","ios":"levelo://app?vid=8b67f229-ccbb-4905-96d3-e1a357d4a2d2"},"vehicle_type_id":"4","last_reported":1710462829,"current_range_meters":25200,"station_id":"ce4bgth2rcd13ifvqch0","pricing_plan_id":"cebpf4jnsgd1na2vs0mg"},{"bike_id":"13610ee5-9b7e-429b-b9ff-2489744b5367","system_id":"levelo_inurba_marseille","lat":43.317075,"lon":5.377367,"is_reserved":false,"is_disabled":false,"rental_uris":{"android":"levelo://app?vid=13610ee5-9b7e-429b-b9ff-2489744b5367","ios":"levelo://app?vid=13610ee5-9b7e-429b-b9ff-2489744b5367"},"vehicle_type_id":"4","last_reported":1710462829,"current_range_meters":26400,"station_id":"ce4bgth2rcd13ifvqch0","pricing_plan_id":"cebpf4jnsgd1na2vs0mg"},{"bike_id":"6df8a519-a704-46e9-b3eb-42b1fb917e85","system_id":"levelo_inurba_marseille","lat":43.31763,"lon":5.37773,"is_reserved":false,"is_disabled":false,"rental_uris":{"android":"levelo://app?vid=6df8a519-a704-46e9-b3eb-42b1fb917e85","ios":"levelo://app?vid=6df8a519-a704-46e9-b3eb-42b1fb917e85"},"vehicle_type_id":"4","last_reported":1710462829,"current_range_meters":17600,"station_id":"","pricing_plan_id":"cebpf4jnsgd1na2vs0mg"},{"bike_id":"870db0ec-6297-458d-b45a-c1284b61f7a9","system_id":"levelo_inurba_marseille","lat":43.30304,"lon":5.368987,"is_reserved":false,"is_disabled":false,"rental_uris":{"android":"levelo://app?vid=870db0ec-6297-458d-b45a-c1284b61f7a9","ios":"levelo://app?vid=870db0ec-6297-458d-b45a-c1284b61f7a9"},"vehicle_type_id":"4","last_reported":1710462829,"current_range_meters":20800,"station_id":"ce4bgqh2rcd13ifvqc5g","pricing_plan_id":"cebpf4jnsgd1na2vs0mg"},{"bike_id":"93f062ef-f326-4c87-887e-5bf1fac0810d","system_id":"levelo_inurba_marseille","lat":43.315293,"lon":5.380349,"is_reserved":false,"is_disabled":false,"rental_uris":{"android":"levelo://app?vid=93f062ef-f326-4c87-887e-5bf1fac0810d","ios":"levelo://app?vid=93f062ef-f326-4c87-887e-5bf1fac0810d"},"vehicle_type_id":"4","last_reported":1710462829,"current_range_meters":24400,"station_id":"ce4bhsp2rcd13ifvqi50","pricing_plan_id":"cebpf4jnsgd1na2vs0mg"},{"bike_id":"e90c7245-3185-452e-be4c-02a2a33ef46d","system_id":"levelo_inurba_marseille","lat":43.315227,"lon":5.380372,"is_reserved":false,"is_disabled":false,"rental_uris":{"android":"levelo://app?vid=e90c7245-3185-452e-be4c-02a2a33ef46d","ios":"levelo://app?vid=e90c7245-3185-452e-be4c-02a2a33ef46d"},"vehicle_type_id":"4","last_reported":1710462829,"current_range_meters":18400,"station_id":"","pricing_plan_id":"cebpf4jnsgd1na2vs0mg"},{"bike_id":"2040e52a-a3b0-4840-8c7c-b704a464da1a","system_id":"levelo_inurba_marseille","lat":43.315293,"lon":5.380349,"is_reserved":false,"is_disabled":false,"rental_uris":{"android":"levelo://app?vid=2040e52a-a3b0-4840-8c7c-b704a464da1a","ios":"levelo://app?vid=2040e52a-a3b0-4840-8c7c-b704a464da1a"},"vehicle_type_id":"4","last_reported":1710462829,"current_range_meters":26400,"station_id":"ce4bhsp2rcd13ifvqi50","pricing_plan_id":"cebpf4jnsgd1na2vs0mg"},{"bike_id":"3e4e0393-4f2a-4733-92e1-eb780ce9f127","system_id":"levelo_inurba_marseille","lat":43.315289,"lon":5.380349,"is_reserved":false,"is_disabled":false,"rental_uris":{"android":"levelo://app?vid=3e4e0393-4f2a-4733-92e1-eb780ce9f127","ios":"levelo://app?vid=3e4e0393-4f2a-4733-92e1-eb780ce9f127"},"vehicle_type_id":"4","last_reported":1710462829,"current_range_meters":28400,"station_id":"ce4bhsp2rcd13ifvqi50","pricing_plan_id":"cebpf4jnsgd1na2vs0mg"},{"bike_id":"63b24665-7971-4245-93b8-14c42484c401","system_id":"levelo_inurba_marseille","lat":43.315293,"lon":5.380349,"is_reserved":false,"is_disabled":false,"rental_uris":{"android":"levelo://app?vid=63b24665-7971-4245-93b8-14c42484c401","ios":"levelo://app?vid=63b24665-7971-4245-93b8-14c42484c401"},"vehicle_type_id":"4","last_reported":1710462829,"current_range_meters":4800,"station_id":"ce4bhsp2rcd13ifvqi50","pricing_plan_id":"cebpf4jnsgd1na2vs0mg"},{"bike_id":"99b242b7-c036-40ca-92be-ddb6409e0cdf","system_id":"levelo_inurba_marseille","lat":43.301939,"lon":5.366286,"is_reserved":false,"is_disabled":false,"rental_uris":{"android":"levelo://app?vid=99b242b7-c036-40ca-92be-ddb6409e0cdf","ios":"levelo://app?vid=99b242b7-c036-40ca-92be-ddb6409e0cdf"},"vehicle_type_id":"4","last_reported":1710462829,"current_range_meters":0,"station_id":"ce4bgrh2rcd13ifvqc8g","pricing_plan_id":"cebpf4jnsgd1na2vs0mg"},{"bike_id":"9b4c8268-3eb5-4a01-bb75-be5f5bedd75e","system_id":"levelo_inurba_marseille","lat":43.301939,"lon":5.366286,"is_reserved":false,"is_disabled":false,"rental_uris":{"android":"levelo://app?vid=9b4c8268-3eb5-4a01-bb75-be5f5bedd75e","ios":"levelo://app?vid=9b4c8268-3eb5-4a01-bb75-be5f5bedd75e"},"vehicle_type_id":"4","last_reported":1710462829,"current_range_meters":0,"station_id":"ce4bgrh2rcd13ifvqc8g","pricing_plan_id":"cebpf4jnsgd1na2vs0mg"},{"bike_id":"f8db1eac-6295-4bae-bb22-1f8fe5c291e5","system_id":"levelo_inurba_marseille","lat":43.308012,"lon":5.381511,"is_reserved":false,"is_disabled":false,"rental_uris":{"android":"levelo://app?vid=f8db1eac-6295-4bae-bb22-1f8fe5c291e5","ios":"levelo://app?vid=f8db1eac-6295-4bae-bb22-1f8fe5c291e5"},"vehicle_type_id":"4","last_reported":1710462829,"current_range_meters":6400,"station_id":"ce4bgt12rcd13ifvqce0","pricing_plan_id":"cebpf4jnsgd1na2vs0mg"},{"bike_id":"fa7b34a2-ca15-471c-ae5d-b6d7289f2939","system_id":"levelo_inurba_marseille","lat":43.308012,"lon":5.381511,"is_reserved":false,"is_disabled":false,"rental_uris":{"android":"levelo://app?vid=fa7b34a2-ca15-471c-ae5d-b6d7289f2939","ios":"levelo://app?vid=fa7b34a2-ca15-471c-ae5d-b6d7289f2939"},"vehicle_type_id":"4","last_reported":1710462829,"current_range_meters":28400,"station_id":"ce4bgt12rcd13ifvqce0","pricing_plan_id":"cebpf4jnsgd1na2vs0mg"},{"bike_id":"c9db842a-85ef-426a-81b0-87f4b6cbbdde","system_id":"levelo_inurba_marseille","lat":43.308012,"lon":5.381511,"is_reserved":false,"is_disabled":false,"rental_uris":{"android":"levelo://app?vid=c9db842a-85ef-426a-81b0-87f4b6cbbdde","ios":"levelo://app?vid=c9db842a-85ef-426a-81b0-87f4b6cbbdde"},"vehicle_type_id":"4","last_reported":1710462829,"current_range_meters":15200,"station_id":"ce4bgt12rcd13ifvqce0","pricing_plan_id":"cebpf4jnsgd1na2vs0mg"},{"bike_id":"d5180f62-7208-4d70-898e-f4a5c45c83ed","system_id":"levelo_inurba_marseille","lat":43.308012,"lon":5.381511,"is_reserved":false,"is_disabled":false,"rental_uris":{"android":"levelo://app?vid=d5180f62-7208-4d70-898e-f4a5c45c83ed","ios":"levelo://app?vid=d5180f62-7208-4d70-898e-f4a5c45c83ed"},"vehicle_type_id":"4","last_reported":1710462829,"current_range_meters":24000,"station_id":"ce4bgt12rcd13ifvqce0","pricing_plan_id":"cebpf4jnsgd1na2vs0mg"},{"bike_id":"36f1cc1b-3bf6-4419-bd26-67b7074fdbbc","system_id":"levelo_inurba_marseille","lat":43.308012,"lon":5.381511,"is_reserved":false,"is_disabled":false,"rental_uris":{"android":"levelo://app?vid=36f1cc1b-3bf6-4419-bd26-67b7074fdbbc","ios":"levelo://app?vid=36f1cc1b-3bf6-4419-bd26-67b7074fdbbc"},"vehicle_type_id":"4","last_reported":1710462829,"current_range_meters":2400,"station_id":"ce4bgt12rcd13ifvqce0","pricing_plan_id":"cebpf4jnsgd1na2vs0mg"},{"bike_id":"1f11ea91-a836-4044-b16a-28f642601249","system_id":"levelo_inurba_marseille","lat":43.304606,"lon":5.379026,"is_reserved":false,"is_disabled":false,"rental_uris":{"android":"levelo://app?vid=1f11ea91-a836-4044-b16a-28f642601249","ios":"levelo://app?vid=1f11ea91-a836-4044-b16a-28f642601249"},"vehicle_type_id":"4","last_reported":1710462829,"current_range_meters":19200,"station_id":"ce4bgup2rcd13ifvqcn0","pricing_plan_id":"cebpf4jnsgd1na2vs0mg"},{"bike_id":"8c63214a-07d2-4301-a0f3-855730268f60","system_id":"levelo_inurba_marseille","lat":43.324771,"lon":5.36557,"is_reserved":false,"is_disabled":false,"rental_uris":{"android":"levelo://app?vid=8c63214a-07d2-4301-a0f3-855730268f60","ios":"levelo://app?vid=8c63214a-07d2-4301-a0f3-855730268f60"},"vehicle_type_id":"4","last_reported":1710462829,"current_range_meters":24800,"station_id":"ce4bhs12rcd13ifvqhvg","pricing_plan_id":"cebpf4jnsgd1na2vs0mg"},{"bike_id":"f66e7b84-3042-4c80-9dc4-73fa652870c1","system_id":"levelo_inurba_marseille","lat":43.32477,"lon":5.36559,"is_reserved":false,"is_disabled":false,"rental_uris":{"android":"levelo://app?vid=f66e7b84-3042-4c80-9dc4-73fa652870c1","ios":"levelo://app?vid=f66e7b84-3042-4c80-9dc4-73fa652870c1"},"vehicle_type_id":"4","last_reported":1710462829,"current_range_meters":24000,"station_id":"ce4bhs12rcd13ifvqhvg","pricing_plan_id":"cebpf4jnsgd1na2vs0mg"},{"bike_id":"69f16bc0-91b1-4cad-91b5-51ae8c8ba203","system_id":"levelo_inurba_marseille","lat":43.324771,"lon":5.36557,"is_reserved":false,"is_disabled":false,"rental_uris":{"android":"levelo://app?vid=69f16bc0-91b1-4cad-91b5-51ae8c8ba203","ios":"levelo://app?vid=69f16bc0-91b1-4cad-91b5-51ae8c8ba203"},"vehicle_type_id":"4","last_reported":1710462829,"current_range_meters":23200,"station_id":"ce4bhs12rcd13ifvqhvg","pricing_plan_id":"cebpf4jnsgd1na2vs0mg"},{"bike_id":"12c419ff-5d5f-445b-9471-a4225b24c594","system_id":"levelo_inurba_marseille","lat":43.324771,"lon":5.36557,"is_reserved":false,"is_disabled":false,"rental_uris":{"android":"levelo://app?vid=12c419ff-5d5f-445b-9471-a4225b24c594","ios":"levelo://app?vid=12c419ff-5d5f-445b-9471-a4225b24c594"},"vehicle_type_id":"4","last_reported":1710462829,"current_range_meters":9600,"station_id":"ce4bhs12rcd13ifvqhvg","pricing_plan_id":"cebpf4jnsgd1na2vs0mg"},{"bike_id":"340f9e61-1afc-4e79-b76d-c81945c1e853","system_id":"levelo_inurba_marseille","lat":43.324771,"lon":5.36557,"is_reserved":false,"is_disabled":false,"rental_uris":{"android":"levelo://app?vid=340f9e61-1afc-4e79-b76d-c81945c1e853","ios":"levelo://app?vid=340f9e61-1afc-4e79-b76d-c81945c1e853"},"vehicle_type_id":"4","last_reported":1710462829,"current_range_meters":12000,"station_id":"ce4bhs12rcd13ifvqhvg","pricing_plan_id":"cebpf4jnsgd1na2vs0mg"},{"bike_id":"c8ed2fca-7f91-4fdf-b277-1b2c0a9261ee","system_id":"levelo_inurba_marseille","lat":43.324771,"lon":5.36557,"is_reserved":false,"is_disabled":false,"rental_uris":{"android":"levelo://app?vid=c8ed2fca-7f91-4fdf-b277-1b2c0a9261ee","ios":"levelo://app?vid=c8ed2fca-7f91-4fdf-b277-1b2c0a9261ee"},"vehicle_type_id":"4","last_reported":1710462829,"current_range_meters":12000,"station_id":"ce4bhs12rcd13ifvqhvg","pricing_plan_id":"cebpf4jnsgd1na2vs0mg"},{"bike_id":"1368adf3-c19c-468e-8ad7-e34b11612c9a","system_id":"levelo_inurba_marseille","lat":43.324771,"lon":5.36557,"is_reserved":false,"is_disabled":false,"rental_uris":{"android":"levelo://app?vid=1368adf3-c19c-468e-8ad7-e34b11612c9a","ios":"levelo://app?vid=1368adf3-c19c-468e-8ad7-e34b11612c9a"},"vehicle_type_id":"4","last_reported":1710462829,"current_range_meters":5600,"station_id":"ce4bhs12rcd13ifvqhvg","pricing_plan_id":"cebpf4jnsgd1na2vs0mg"},{"bike_id":"5a88cac3-b216-42e6-93cf-342300695412","system_id":"levelo_inurba_marseille","lat":43.324771,"lon":5.36557,"is_reserved":false,"is_disabled":false,"rental_uris":{"android":"levelo://app?vid=5a88cac3-b216-42e6-93cf-342300695412","ios":"levelo://app?vid=5a88cac3-b216-42e6-93cf-342300695412"},"vehicle_type_id":"4","last_reported":1710462829,"current_range_meters":12400,"station_id":"ce4bhs12rcd13ifvqhvg","pricing_plan_id":"cebpf4jnsgd1na2vs0mg"},{"bike_id":"64568b75-f031-43c1-b864-d2ad6638bde4","system_id":"levelo_inurba_marseille","lat":43.324771,"lon":5.36557,"is_reserved":false,"is_disabled":false,"rental_uris":{"android":"levelo://app?vid=64568b75-f031-43c1-b864-d2ad6638bde4","ios":"levelo://app?vid=64568b75-f031-43c1-b864-d2ad6638bde4"},"vehicle_type_id":"4","last_reported":1710462829,"current_range_meters":28400,"station_id":"ce4bhs12rcd13ifvqhvg","pricing_plan_id":"cebpf4jnsgd1na2vs0mg"},{"bike_id":"af0a83ad-4db4-465e-a460-b561e0502353","system_id":"levelo_inurba_marseille","lat":43.324771,"lon":5.36557,"is_reserved":false,"is_disabled":false,"rental_uris":{"android":"levelo://app?vid=af0a83ad-4db4-465e-a460-b561e0502353","ios":"levelo://app?vid=af0a83ad-4db4-465e-a460-b561e0502353"},"vehicle_type_id":"4","last_reported":1710462829,"current_range_meters":2800,"station_id":"ce4bhs12rcd13ifvqhvg","pricing_plan_id":"cebpf4jnsgd1na2vs0mg"},{"bike_id":"80f2f25f-8c15-455e-a36d-0c4748f88b32","system_id":"levelo_inurba_marseille","lat":43.324771,"lon":5.36557,"is_reserved":false,"is_disabled":false,"rental_uris":{"android":"levelo://app?vid=80f2f25f-8c15-455e-a36d-0c4748f88b32","ios":"levelo://app?vid=80f2f25f-8c15-455e-a36d-0c4748f88b32"},"vehicle_type_id":"4","last_reported":1710462829,"current_range_meters":23200,"station_id":"ce4bhs12rcd13ifvqhvg","pricing_plan_id":"cebpf4jnsgd1na2vs0mg"},{"bike_id":"c9856f53-e27e-45e4-b321-fb02db77bd69","system_id":"levelo_inurba_marseille","lat":43.324771,"lon":5.36557,"is_reserved":false,"is_disabled":false,"rental_uris":{"android":"levelo://app?vid=c9856f53-e27e-45e4-b321-fb02db77bd69","ios":"levelo://app?vid=c9856f53-e27e-45e4-b321-fb02db77bd69"},"vehicle_type_id":"4","last_reported":1710462829,"current_range_meters":16800,"station_id":"ce4bhs12rcd13ifvqhvg","pricing_plan_id":"cebpf4jnsgd1na2vs0mg"},{"bike_id":"18fc47d4-f43a-4eed-abb4-9d13f9e04f59","system_id":"levelo_inurba_marseille","lat":43.324771,"lon":5.36557,"is_reserved":false,"is_disabled":false,"rental_uris":{"android":"levelo://app?vid=18fc47d4-f43a-4eed-abb4-9d13f9e04f59","ios":"levelo://app?vid=18fc47d4-f43a-4eed-abb4-9d13f9e04f59"},"vehicle_type_id":"4","last_reported":1710462829,"current_range_meters":24400,"station_id":"ce4bhs12rcd13ifvqhvg","pricing_plan_id":"cebpf4jnsgd1na2vs0mg"},{"bike_id":"8cb4b7d8-6cda-4ab6-8fb6-ab30f7899ff2","system_id":"levelo_inurba_marseille","lat":43.324771,"lon":5.36557,"is_reserved":false,"is_disabled":false,"rental_uris":{"android":"levelo://app?vid=8cb4b7d8-6cda-4ab6-8fb6-ab30f7899ff2","ios":"levelo://app?vid=8cb4b7d8-6cda-4ab6-8fb6-ab30f7899ff2"},"vehicle_type_id":"4","last_reported":1710462829,"current_range_meters":8800,"station_id":"ce4bhs12rcd13ifvqhvg","pricing_plan_id":"cebpf4jnsgd1na2vs0mg"},{"bike_id":"49f2117d-bbb1-42e5-80a2-7a881aecf261","system_id":"levelo_inurba_marseille","lat":43.324771,"lon":5.36557,"is_reserved":false,"is_disabled":false,"rental_uris":{"android":"levelo://app?vid=49f2117d-bbb1-42e5-80a2-7a881aecf261","ios":"levelo://app?vid=49f2117d-bbb1-42e5-80a2-7a881aecf261"},"vehicle_type_id":"4","last_reported":1710462829,"current_range_meters":4800,"station_id":"ce4bhs12rcd13ifvqhvg","pricing_plan_id":"cebpf4jnsgd1na2vs0mg"},{"bike_id":"fedf4166-a404-4a8a-98ea-3298a66ed1e3","system_id":"levelo_inurba_marseille","lat":43.324771,"lon":5.36557,"is_reserved":false,"is_disabled":false,"rental_uris":{"android":"levelo://app?vid=fedf4166-a404-4a8a-98ea-3298a66ed1e3","ios":"levelo://app?vid=fedf4166-a404-4a8a-98ea-3298a66ed1e3"},"vehicle_type_id":"4","last_reported":1710462829,"current_range_meters":3600,"station_id":"ce4bhs12rcd13ifvqhvg","pricing_plan_id":"cebpf4jnsgd1na2vs0mg"},{"bike_id":"8007df2e-b2f0-4748-a17b-5693c4038c4a","system_id":"levelo_inurba_marseille","lat":43.324771,"lon":5.36557,"is_reserved":false,"is_disabled":false,"rental_uris":{"android":"levelo://app?vid=8007df2e-b2f0-4748-a17b-5693c4038c4a","ios":"levelo://app?vid=8007df2e-b2f0-4748-a17b-5693c4038c4a"},"vehicle_type_id":"4","last_reported":1710462829,"current_range_meters":15600,"station_id":"ce4bhs12rcd13ifvqhvg","pricing_plan_id":"cebpf4jnsgd1na2vs0mg"},{"bike_id":"ddd65abf-700d-47d6-8120-b7b2d13cc88d","system_id":"levelo_inurba_marseille","lat":43.324771,"lon":5.36557,"is_reserved":false,"is_disabled":false,"rental_uris":{"android":"levelo://app?vid=ddd65abf-700d-47d6-8120-b7b2d13cc88d","ios":"levelo://app?vid=ddd65abf-700d-47d6-8120-b7b2d13cc88d"},"vehicle_type_id":"4","last_reported":1710462829,"current_range_meters":8800,"station_id":"ce4bhs12rcd13ifvqhvg","pricing_plan_id":"cebpf4jnsgd1na2vs0mg"},{"bike_id":"eebc860d-ae33-456c-9765-1f4820950750","system_id":"levelo_inurba_marseille","lat":43.324771,"lon":5.36557,"is_reserved":false,"is_disabled":false,"rental_uris":{"android":"levelo://app?vid=eebc860d-ae33-456c-9765-1f4820950750","ios":"levelo://app?vid=eebc860d-ae33-456c-9765-1f4820950750"},"vehicle_type_id":"4","last_reported":1710462829,"current_range_meters":14800,"station_id":"ce4bhs12rcd13ifvqhvg","pricing_plan_id":"cebpf4jnsgd1na2vs0mg"},{"bike_id":"0d1ebee0-00d1-4e6d-bc38-c309f57812af","system_id":"levelo_inurba_marseille","lat":43.324771,"lon":5.36557,"is_reserved":false,"is_disabled":false,"rental_uris":{"android":"levelo://app?vid=0d1ebee0-00d1-4e6d-bc38-c309f57812af","ios":"levelo://app?vid=0d1ebee0-00d1-4e6d-bc38-c309f57812af"},"vehicle_type_id":"4","last_reported":1710462829,"current_range_meters":4000,"station_id":"ce4bhs12rcd13ifvqhvg","pricing_plan_id":"cebpf4jnsgd1na2vs0mg"},{"bike_id":"40daf57d-7265-4d0c-95f9-2f69bc3b1e84","system_id":"levelo_inurba_marseille","lat":43.32484,"lon":5.36561,"is_reserved":false,"is_disabled":false,"rental_uris":{"android":"levelo://app?vid=40daf57d-7265-4d0c-95f9-2f69bc3b1e84","ios":"levelo://app?vid=40daf57d-7265-4d0c-95f9-2f69bc3b1e84"},"vehicle_type_id":"4","last_reported":1710462829,"current_range_meters":23200,"station_id":"ce4bhs12rcd13ifvqhvg","pricing_plan_id":"cebpf4jnsgd1na2vs0mg"},{"bike_id":"80255042-3cd6-44ff-81e6-d5e19ea5948a","system_id":"levelo_inurba_marseille","lat":43.324899,"lon":5.3657,"is_reserved":false,"is_disabled":false,"rental_uris":{"android":"levelo://app?vid=80255042-3cd6-44ff-81e6-d5e19ea5948a","ios":"levelo://app?vid=80255042-3cd6-44ff-81e6-d5e19ea5948a"},"vehicle_type_id":"4","last_reported":1710462829,"current_range_meters":800,"station_id":"ce4bhs12rcd13ifvqhvg","pricing_plan_id":"cebpf4jnsgd1na2vs0mg"},{"bike_id":"ccba654e-a19e-47a4-8a45-c9741be77ea8","system_id":"levelo_inurba_marseille","lat":43.310688,"lon":5.38348,"is_reserved":false,"is_disabled":false,"rental_uris":{"android":"levelo://app?vid=ccba654e-a19e-47a4-8a45-c9741be77ea8","ios":"levelo://app?vid=ccba654e-a19e-47a4-8a45-c9741be77ea8"},"vehicle_type_id":"4","last_reported":1710462829,"current_range_meters":19200,"station_id":"ce4bgv92rcd13ifvqcr0","pricing_plan_id":"cebpf4jnsgd1na2vs0mg"},{"bike_id":"90e3a3b8-8f89-46a7-86fb-82f476eb2a2f","system_id":"levelo_inurba_marseille","lat":43.30132,"lon":5.37399,"is_reserved":false,"is_disabled":false,"rental_uris":{"android":"levelo://app?vid=90e3a3b8-8f89-46a7-86fb-82f476eb2a2f","ios":"levelo://app?vid=90e3a3b8-8f89-46a7-86fb-82f476eb2a2f"},"vehicle_type_id":"4","last_reported":1710462829,"current_range_meters":26800,"station_id":"ce4bgs92rcd13ifvqcc0","pricing_plan_id":"cebpf4jnsgd1na2vs0mg"},{"bike_id":"d2104089-27e4-4aab-8713-2d11215cdc2a","system_id":"levelo_inurba_marseille","lat":43.30133,"lon":5.37418,"is_reserved":false,"is_disabled":false,"rental_uris":{"android":"levelo://app?vid=d2104089-27e4-4aab-8713-2d11215cdc2a","ios":"levelo://app?vid=d2104089-27e4-4aab-8713-2d11215cdc2a"},"vehicle_type_id":"4","last_reported":1710462829,"current_range_meters":30400,"station_id":"ce4bgs92rcd13ifvqcc0","pricing_plan_id":"cebpf4jnsgd1na2vs0mg"},{"bike_id":"9c3bf532-c609-45de-b1e1-a84759495060","system_id":"levelo_inurba_marseille","lat":43.30131,"lon":5.37415,"is_reserved":false,"is_disabled":false,"rental_uris":{"android":"levelo://app?vid=9c3bf532-c609-45de-b1e1-a84759495060","ios":"levelo://app?vid=9c3bf532-c609-45de-b1e1-a84759495060"},"vehicle_type_id":"4","last_reported":1710462829,"current_range_meters":26400,"station_id":"ce4bgs92rcd13ifvqcc0","pricing_plan_id":"cebpf4jnsgd1na2vs0mg"},{"bike_id":"448e959c-81cd-4ad1-90cf-f49b0b437a15","system_id":"levelo_inurba_marseille","lat":43.30287,"lon":5.37795,"is_reserved":false,"is_disabled":false,"rental_uris":{"android":"levelo://app?vid=448e959c-81cd-4ad1-90cf-f49b0b437a15","ios":"levelo://app?vid=448e959c-81cd-4ad1-90cf-f49b0b437a15"},"vehicle_type_id":"4","last_reported":1710462829,"current_range_meters":10400,"station_id":"","pricing_plan_id":"cebpf4jnsgd1na2vs0mg"},{"bike_id":"7b512650-654c-42dd-bfd0-3e85dbf23c43","system_id":"levelo_inurba_marseille","lat":43.319935,"lon":5.381699,"is_reserved":false,"is_disabled":false,"rental_uris":{"android":"levelo://app?vid=7b512650-654c-42dd-bfd0-3e85dbf23c43","ios":"levelo://app?vid=7b512650-654c-42dd-bfd0-3e85dbf23c43"},"vehicle_type_id":"4","last_reported":1710462829,"current_range_meters":7600,"station_id":"ce4bhr12rcd13ifvqhpg","pricing_plan_id":"cebpf4jnsgd1na2vs0mg"},{"bike_id":"ed463af2-a4e2-4543-ba6b-0c9e475f6f80","system_id":"levelo_inurba_marseille","lat":43.319958,"lon":5.381453,"is_reserved":false,"is_disabled":false,"rental_uris":{"android":"levelo://app?vid=ed463af2-a4e2-4543-ba6b-0c9e475f6f80","ios":"levelo://app?vid=ed463af2-a4e2-4543-ba6b-0c9e475f6f80"},"vehicle_type_id":"4","last_reported":1710462829,"current_range_meters":0,"station_id":"","pricing_plan_id":"cebpf4jnsgd1na2vs0mg"},{"bike_id":"b7113a9e-66e0-4213-87c1-f39881728924","system_id":"levelo_inurba_marseille","lat":43.319935,"lon":5.381699,"is_reserved":false,"is_disabled":false,"rental_uris":{"android":"levelo://app?vid=b7113a9e-66e0-4213-87c1-f39881728924","ios":"levelo://app?vid=b7113a9e-66e0-4213-87c1-f39881728924"},"vehicle_type_id":"4","last_reported":1710462829,"current_range_meters":15200,"station_id":"ce4bhr12rcd13ifvqhpg","pricing_plan_id":"cebpf4jnsgd1na2vs0mg"},{"bike_id":"da43fb23-f1fb-486a-8b6a-ecd17980a6d6","system_id":"levelo_inurba_marseille","lat":43.319935,"lon":5.381699,"is_reserved":false,"is_disabled":false,"rental_uris":{"android":"levelo://app?vid=da43fb23-f1fb-486a-8b6a-ecd17980a6d6","ios":"levelo://app?vid=da43fb23-f1fb-486a-8b6a-ecd17980a6d6"},"vehicle_type_id":"4","last_reported":1710462829,"current_range_meters":2000,"station_id":"ce4bhr12rcd13ifvqhpg","pricing_plan_id":"cebpf4jnsgd1na2vs0mg"},{"bike_id":"91f90934-23c0-41e8-8fc8-6fe74da08515","system_id":"levelo_inurba_marseille","lat":43.319935,"lon":5.381699,"is_reserved":false,"is_disabled":false,"rental_uris":{"android":"levelo://app?vid=91f90934-23c0-41e8-8fc8-6fe74da08515","ios":"levelo://app?vid=91f90934-23c0-41e8-8fc8-6fe74da08515"},"vehicle_type_id":"4","last_reported":1710462829,"current_range_meters":800,"station_id":"ce4bhr12rcd13ifvqhpg","pricing_plan_id":"cebpf4jnsgd1na2vs0mg"},{"bike_id":"6e68938d-3eab-40c7-b679-39a999a8cf0c","system_id":"levelo_inurba_marseille","lat":43.319935,"lon":5.381699,"is_reserved":false,"is_disabled":false,"rental_uris":{"android":"levelo://app?vid=6e68938d-3eab-40c7-b679-39a999a8cf0c","ios":"levelo://app?vid=6e68938d-3eab-40c7-b679-39a999a8cf0c"},"vehicle_type_id":"4","last_reported":1710462829,"current_range_meters":24800,"station_id":"ce4bhr12rcd13ifvqhpg","pricing_plan_id":"cebpf4jnsgd1na2vs0mg"},{"bike_id":"ad65bace-3943-4878-a7d0-93b58be89d30","system_id":"levelo_inurba_marseille","lat":43.319935,"lon":5.381699,"is_reserved":false,"is_disabled":false,"rental_uris":{"android":"levelo://app?vid=ad65bace-3943-4878-a7d0-93b58be89d30","ios":"levelo://app?vid=ad65bace-3943-4878-a7d0-93b58be89d30"},"vehicle_type_id":"4","last_reported":1710462829,"current_range_meters":26400,"station_id":"ce4bhr12rcd13ifvqhpg","pricing_plan_id":"cebpf4jnsgd1na2vs0mg"},{"bike_id":"f397c5aa-0f2e-4701-a299-085ce43d030c","system_id":"levelo_inurba_marseille","lat":43.319935,"lon":5.381699,"is_reserved":false,"is_disabled":false,"rental_uris":{"android":"levelo://app?vid=f397c5aa-0f2e-4701-a299-085ce43d030c","ios":"levelo://app?vid=f397c5aa-0f2e-4701-a299-085ce43d030c"},"vehicle_type_id":"4","last_reported":1710462829,"current_range_meters":0,"station_id":"ce4bhr12rcd13ifvqhpg","pricing_plan_id":"cebpf4jnsgd1na2vs0mg"},{"bike_id":"10920d1f-ed27-4c6e-8e73-d40eeae4c535","system_id":"levelo_inurba_marseille","lat":43.319935,"lon":5.381699,"is_reserved":false,"is_disabled":false,"rental_uris":{"android":"levelo://app?vid=10920d1f-ed27-4c6e-8e73-d40eeae4c535","ios":"levelo://app?vid=10920d1f-ed27-4c6e-8e73-d40eeae4c535"},"vehicle_type_id":"4","last_reported":1710462829,"current_range_meters":13200,"station_id":"ce4bhr12rcd13ifvqhpg","pricing_plan_id":"cebpf4jnsgd1na2vs0mg"},{"bike_id":"d255a31e-958b-4231-8c7f-6ea4d236b884","system_id":"levelo_inurba_marseille","lat":43.313571,"lon":5.384829,"is_reserved":false,"is_disabled":false,"rental_uris":{"android":"levelo://app?vid=d255a31e-958b-4231-8c7f-6ea4d236b884","ios":"levelo://app?vid=d255a31e-958b-4231-8c7f-6ea4d236b884"},"vehicle_type_id":"4","last_reported":1710462829,"current_range_meters":11600,"station_id":"ce4bgt92rcd13ifvqcf0","pricing_plan_id":"cebpf4jnsgd1na2vs0mg"},{"bike_id":"f27b133b-83cb-40f7-8683-c3ececb43377","system_id":"levelo_inurba_marseille","lat":43.31357,"lon":5.3849,"is_reserved":false,"is_disabled":false,"rental_uris":{"android":"levelo://app?vid=f27b133b-83cb-40f7-8683-c3ececb43377","ios":"levelo://app?vid=f27b133b-83cb-40f7-8683-c3ececb43377"},"vehicle_type_id":"4","last_reported":1710462829,"current_range_meters":14000,"station_id":"ce4bgt92rcd13ifvqcf0","pricing_plan_id":"cebpf4jnsgd1na2vs0mg"},{"bike_id":"4a7de23a-89ba-44a5-9c99-393071b8ddb1","system_id":"levelo_inurba_marseille","lat":43.31364,"lon":5.38498,"is_reserved":false,"is_disabled":false,"rental_uris":{"android":"levelo://app?vid=4a7de23a-89ba-44a5-9c99-393071b8ddb1","ios":"levelo://app?vid=4a7de23a-89ba-44a5-9c99-393071b8ddb1"},"vehicle_type_id":"4","last_reported":1710462829,"current_range_meters":16400,"station_id":"ce4bgt92rcd13ifvqcf0","pricing_plan_id":"cebpf4jnsgd1na2vs0mg"},{"bike_id":"72406461-786b-46fe-af99-f7495b3917cb","system_id":"levelo_inurba_marseille","lat":43.31362,"lon":5.385,"is_reserved":false,"is_disabled":false,"rental_uris":{"android":"levelo://app?vid=72406461-786b-46fe-af99-f7495b3917cb","ios":"levelo://app?vid=72406461-786b-46fe-af99-f7495b3917cb"},"vehicle_type_id":"4","last_reported":1710462829,"current_range_meters":19600,"station_id":"ce4bgt92rcd13ifvqcf0","pricing_plan_id":"cebpf4jnsgd1na2vs0mg"},{"bike_id":"94c19a63-bb66-4683-aaaf-7ad3afcfff88","system_id":"levelo_inurba_marseille","lat":43.31362,"lon":5.385016,"is_reserved":false,"is_disabled":false,"rental_uris":{"android":"levelo://app?vid=94c19a63-bb66-4683-aaaf-7ad3afcfff88","ios":"levelo://app?vid=94c19a63-bb66-4683-aaaf-7ad3afcfff88"},"vehicle_type_id":"4","last_reported":1710462829,"current_range_meters":12400,"station_id":"ce4bgt92rcd13ifvqcf0","pricing_plan_id":"cebpf4jnsgd1na2vs0mg"},{"bike_id":"52e5d851-db34-4a8a-b7fa-6da921a33056","system_id":"levelo_inurba_marseille","lat":43.313571,"lon":5.384829,"is_reserved":false,"is_disabled":false,"rental_uris":{"android":"levelo://app?vid=52e5d851-db34-4a8a-b7fa-6da921a33056","ios":"levelo://app?vid=52e5d851-db34-4a8a-b7fa-6da921a33056"},"vehicle_type_id":"4","last_reported":1710462829,"current_range_meters":0,"station_id":"ce4bgt92rcd13ifvqcf0","pricing_plan_id":"cebpf4jnsgd1na2vs0mg"},{"bike_id":"fe08f324-dbbe-4a46-8f12-ef3553fd3c0c","system_id":"levelo_inurba_marseille","lat":43.313571,"lon":5.384829,"is_reserved":false,"is_disabled":false,"rental_uris":{"android":"levelo://app?vid=fe08f324-dbbe-4a46-8f12-ef3553fd3c0c","ios":"levelo://app?vid=fe08f324-dbbe-4a46-8f12-ef3553fd3c0c"},"vehicle_type_id":"4","last_reported":1710462829,"current_range_meters":2400,"station_id":"ce4bgt92rcd13ifvqcf0","pricing_plan_id":"cebpf4jnsgd1na2vs0mg"},{"bike_id":"a0258cd1-b021-4de7-9475-d1c453114375","system_id":"levelo_inurba_marseille","lat":43.31361,"lon":5.38504,"is_reserved":false,"is_disabled":false,"rental_uris":{"android":"levelo://app?vid=a0258cd1-b021-4de7-9475-d1c453114375","ios":"levelo://app?vid=a0258cd1-b021-4de7-9475-d1c453114375"},"vehicle_type_id":"4","last_reported":1710462829,"current_range_meters":400,"station_id":"ce4bgt92rcd13ifvqcf0","pricing_plan_id":"cebpf4jnsgd1na2vs0mg"},{"bike_id":"11912c49-750a-40c8-8947-e10ba1836d77","system_id":"levelo_inurba_marseille","lat":43.313571,"lon":5.384829,"is_reserved":false,"is_disabled":false,"rental_uris":{"android":"levelo://app?vid=11912c49-750a-40c8-8947-e10ba1836d77","ios":"levelo://app?vid=11912c49-750a-40c8-8947-e10ba1836d77"},"vehicle_type_id":"4","last_reported":1710462829,"current_range_meters":30800,"station_id":"ce4bgt92rcd13ifvqcf0","pricing_plan_id":"cebpf4jnsgd1na2vs0mg"},{"bike_id":"e9f255e3-c392-41c5-ad29-d2fefa8b4b10","system_id":"levelo_inurba_marseille","lat":43.31369,"lon":5.38505,"is_reserved":false,"is_disabled":false,"rental_uris":{"android":"levelo://app?vid=e9f255e3-c392-41c5-ad29-d2fefa8b4b10","ios":"levelo://app?vid=e9f255e3-c392-41c5-ad29-d2fefa8b4b10"},"vehicle_type_id":"4","last_reported":1710462829,"current_range_meters":400,"station_id":"ce4bgt92rcd13ifvqcf0","pricing_plan_id":"cebpf4jnsgd1na2vs0mg"},{"bike_id":"d8518299-f377-462f-9129-d6ae51c2cf33","system_id":"levelo_inurba_marseille","lat":43.299222,"lon":5.365554,"is_reserved":false,"is_disabled":false,"rental_uris":{"android":"levelo://app?vid=d8518299-f377-462f-9129-d6ae51c2cf33","ios":"levelo://app?vid=d8518299-f377-462f-9129-d6ae51c2cf33"},"vehicle_type_id":"4","last_reported":1710462829,"current_range_meters":12000,"station_id":"ce4bgm92rcd13ifvqbr0","pricing_plan_id":"cebpf4jnsgd1na2vs0mg"},{"bike_id":"757d2871-816c-4c62-85cd-0b4dd8f9ddaf","system_id":"levelo_inurba_marseille","lat":43.299724,"lon":5.371829,"is_reserved":false,"is_disabled":false,"rental_uris":{"android":"levelo://app?vid=757d2871-816c-4c62-85cd-0b4dd8f9ddaf","ios":"levelo://app?vid=757d2871-816c-4c62-85cd-0b4dd8f9ddaf"},"vehicle_type_id":"4","last_reported":1710462829,"current_range_meters":7600,"station_id":"ce4bgr92rcd13ifvqc7g","pricing_plan_id":"cebpf4jnsgd1na2vs0mg"},{"bike_id":"fb966547-691f-4fde-9685-9421b7730c37","system_id":"levelo_inurba_marseille","lat":43.299222,"lon":5.365554,"is_reserved":false,"is_disabled":false,"rental_uris":{"android":"levelo://app?vid=fb966547-691f-4fde-9685-9421b7730c37","ios":"levelo://app?vid=fb966547-691f-4fde-9685-9421b7730c37"},"vehicle_type_id":"4","last_reported":1710462829,"current_range_meters":400,"station_id":"ce4bgm92rcd13ifvqbr0","pricing_plan_id":"cebpf4jnsgd1na2vs0mg"},{"bike_id":"996d3860-4f09-4394-ad4a-6207408cb5b4","system_id":"levelo_inurba_marseille","lat":43.299724,"lon":5.371829,"is_reserved":false,"is_disabled":false,"rental_uris":{"android":"levelo://app?vid=996d3860-4f09-4394-ad4a-6207408cb5b4","ios":"levelo://app?vid=996d3860-4f09-4394-ad4a-6207408cb5b4"},"vehicle_type_id":"4","last_reported":1710462829,"current_range_meters":0,"station_id":"ce4bgr92rcd13ifvqc7g","pricing_plan_id":"cebpf4jnsgd1na2vs0mg"},{"bike_id":"25efbff5-8a27-4bc3-a980-c32ae4b1d4fd","system_id":"levelo_inurba_marseille","lat":43.311623,"lon":5.386748,"is_reserved":false,"is_disabled":false,"rental_uris":{"android":"levelo://app?vid=25efbff5-8a27-4bc3-a980-c32ae4b1d4fd","ios":"levelo://app?vid=25efbff5-8a27-4bc3-a980-c32ae4b1d4fd"},"vehicle_type_id":"4","last_reported":1710462829,"current_range_meters":9600,"station_id":"ce4bgv12rcd13ifvqcp0","pricing_plan_id":"cebpf4jnsgd1na2vs0mg"},{"bike_id":"10e1af50-1cdf-4256-80fe-4202c957c1c9","system_id":"levelo_inurba_marseille","lat":43.311635,"lon":5.386779,"is_reserved":false,"is_disabled":false,"rental_uris":{"android":"levelo://app?vid=10e1af50-1cdf-4256-80fe-4202c957c1c9","ios":"levelo://app?vid=10e1af50-1cdf-4256-80fe-4202c957c1c9"},"vehicle_type_id":"4","last_reported":1710462829,"current_range_meters":29200,"station_id":"ce4bgv12rcd13ifvqcp0","pricing_plan_id":"cebpf4jnsgd1na2vs0mg"},{"bike_id":"2cf630a5-974c-425d-a6f1-ce6765d151f1","system_id":"levelo_inurba_marseille","lat":43.305364,"lon":5.384119,"is_reserved":false,"is_disabled":false,"rental_uris":{"android":"levelo://app?vid=2cf630a5-974c-425d-a6f1-ce6765d151f1","ios":"levelo://app?vid=2cf630a5-974c-425d-a6f1-ce6765d151f1"},"vehicle_type_id":"4","last_reported":1710462829,"current_range_meters":24800,"station_id":"ce4bgg92rcd13ifvqb30","pricing_plan_id":"cebpf4jnsgd1na2vs0mg"},{"bike_id":"93f61aa5-a26a-413c-b339-c5b595ee972b","system_id":"levelo_inurba_marseille","lat":43.311722,"lon":5.387247,"is_reserved":false,"is_disabled":false,"rental_uris":{"android":"levelo://app?vid=93f61aa5-a26a-413c-b339-c5b595ee972b","ios":"levelo://app?vid=93f61aa5-a26a-413c-b339-c5b595ee972b"},"vehicle_type_id":"4","last_reported":1710462829,"current_range_meters":21200,"station_id":"ce4bgv12rcd13ifvqcp0","pricing_plan_id":"cebpf4jnsgd1na2vs0mg"},{"bike_id":"824dd663-df9f-4fa2-b978-5f025f683634","system_id":"levelo_inurba_marseille","lat":43.311722,"lon":5.387247,"is_reserved":false,"is_disabled":false,"rental_uris":{"android":"levelo://app?vid=824dd663-df9f-4fa2-b978-5f025f683634","ios":"levelo://app?vid=824dd663-df9f-4fa2-b978-5f025f683634"},"vehicle_type_id":"4","last_reported":1710462829,"current_range_meters":14800,"station_id":"ce4bgv12rcd13ifvqcp0","pricing_plan_id":"cebpf4jnsgd1na2vs0mg"},{"bike_id":"ae55cc6f-fd28-4832-86c1-df4f4a0ec4fa","system_id":"levelo_inurba_marseille","lat":43.311722,"lon":5.387247,"is_reserved":false,"is_disabled":false,"rental_uris":{"android":"levelo://app?vid=ae55cc6f-fd28-4832-86c1-df4f4a0ec4fa","ios":"levelo://app?vid=ae55cc6f-fd28-4832-86c1-df4f4a0ec4fa"},"vehicle_type_id":"4","last_reported":1710462829,"current_range_meters":400,"station_id":"ce4bgv12rcd13ifvqcp0","pricing_plan_id":"cebpf4jnsgd1na2vs0mg"},{"bike_id":"13288046-2e3b-419b-9773-e3b3ba7d462b","system_id":"levelo_inurba_marseille","lat":43.311722,"lon":5.387247,"is_reserved":false,"is_disabled":false,"rental_uris":{"android":"levelo://app?vid=13288046-2e3b-419b-9773-e3b3ba7d462b","ios":"levelo://app?vid=13288046-2e3b-419b-9773-e3b3ba7d462b"},"vehicle_type_id":"4","last_reported":1710462829,"current_range_meters":15200,"station_id":"ce4bgv12rcd13ifvqcp0","pricing_plan_id":"cebpf4jnsgd1na2vs0mg"},{"bike_id":"99237620-6fbf-499e-b41a-f7b89729b796","system_id":"levelo_inurba_marseille","lat":43.31174,"lon":5.38716,"is_reserved":false,"is_disabled":false,"rental_uris":{"android":"levelo://app?vid=99237620-6fbf-499e-b41a-f7b89729b796","ios":"levelo://app?vid=99237620-6fbf-499e-b41a-f7b89729b796"},"vehicle_type_id":"4","last_reported":1710462829,"current_range_meters":0,"station_id":"ce4bgv12rcd13ifvqcp0","pricing_plan_id":"cebpf4jnsgd1na2vs0mg"},{"bike_id":"8031c991-15ce-4d41-8886-c1689a28a273","system_id":"levelo_inurba_marseille","lat":43.311722,"lon":5.387247,"is_reserved":false,"is_disabled":false,"rental_uris":{"android":"levelo://app?vid=8031c991-15ce-4d41-8886-c1689a28a273","ios":"levelo://app?vid=8031c991-15ce-4d41-8886-c1689a28a273"},"vehicle_type_id":"4","last_reported":1710462829,"current_range_meters":16000,"station_id":"ce4bgv12rcd13ifvqcp0","pricing_plan_id":"cebpf4jnsgd1na2vs0mg"},{"bike_id":"3faad77e-e4e4-42d4-9502-a2c335fab418","system_id":"levelo_inurba_marseille","lat":43.31178,"lon":5.38721,"is_reserved":false,"is_disabled":false,"rental_uris":{"android":"levelo://app?vid=3faad77e-e4e4-42d4-9502-a2c335fab418","ios":"levelo://app?vid=3faad77e-e4e4-42d4-9502-a2c335fab418"},"vehicle_type_id":"4","last_reported":1710462829,"current_range_meters":20800,"station_id":"ce4bgv12rcd13ifvqcp0","pricing_plan_id":"cebpf4jnsgd1na2vs0mg"},{"bike_id":"fc2e5b1a-ba7f-432e-ae14-623f9b19c255","system_id":"levelo_inurba_marseille","lat":43.311722,"lon":5.387247,"is_reserved":false,"is_disabled":false,"rental_uris":{"android":"levelo://app?vid=fc2e5b1a-ba7f-432e-ae14-623f9b19c255","ios":"levelo://app?vid=fc2e5b1a-ba7f-432e-ae14-623f9b19c255"},"vehicle_type_id":"4","last_reported":1710462829,"current_range_meters":20000,"station_id":"ce4bgv12rcd13ifvqcp0","pricing_plan_id":"cebpf4jnsgd1na2vs0mg"},{"bike_id":"18b5c6f7-f047-46b3-a3a8-f5fe4cf845ab","system_id":"levelo_inurba_marseille","lat":43.311722,"lon":5.387247,"is_reserved":false,"is_disabled":false,"rental_uris":{"android":"levelo://app?vid=18b5c6f7-f047-46b3-a3a8-f5fe4cf845ab","ios":"levelo://app?vid=18b5c6f7-f047-46b3-a3a8-f5fe4cf845ab"},"vehicle_type_id":"4","last_reported":1710462829,"current_range_meters":28800,"station_id":"ce4bgv12rcd13ifvqcp0","pricing_plan_id":"cebpf4jnsgd1na2vs0mg"},{"bike_id":"82d5861e-4135-48bd-86e8-9113e6eb5db9","system_id":"levelo_inurba_marseille","lat":43.311722,"lon":5.387247,"is_reserved":false,"is_disabled":false,"rental_uris":{"android":"levelo://app?vid=82d5861e-4135-48bd-86e8-9113e6eb5db9","ios":"levelo://app?vid=82d5861e-4135-48bd-86e8-9113e6eb5db9"},"vehicle_type_id":"4","last_reported":1710462829,"current_range_meters":26400,"station_id":"ce4bgv12rcd13ifvqcp0","pricing_plan_id":"cebpf4jnsgd1na2vs0mg"},{"bike_id":"019f8454-5e33-4daf-9a53-6437ba151d56","system_id":"levelo_inurba_marseille","lat":43.297794,"lon":5.370888,"is_reserved":false,"is_disabled":false,"rental_uris":{"android":"levelo://app?vid=019f8454-5e33-4daf-9a53-6437ba151d56","ios":"levelo://app?vid=019f8454-5e33-4daf-9a53-6437ba151d56"},"vehicle_type_id":"4","last_reported":1710462829,"current_range_meters":24000,"station_id":"ce4bgop2rcd13ifvqc1g","pricing_plan_id":"cebpf4jnsgd1na2vs0mg"},{"bike_id":"3ff125a5-dff1-4591-b6cc-449dc2424878","system_id":"levelo_inurba_marseille","lat":43.322872,"lon":5.382756,"is_reserved":false,"is_disabled":false,"rental_uris":{"android":"levelo://app?vid=3ff125a5-dff1-4591-b6cc-449dc2424878","ios":"levelo://app?vid=3ff125a5-dff1-4591-b6cc-449dc2424878"},"vehicle_type_id":"4","last_reported":1710462829,"current_range_meters":21200,"station_id":"ce4bhr12rcd13ifvqhqg","pricing_plan_id":"cebpf4jnsgd1na2vs0mg"},{"bike_id":"8009e98b-9741-4a89-b982-6c3a1b8606c2","system_id":"levelo_inurba_marseille","lat":43.297794,"lon":5.370888,"is_reserved":false,"is_disabled":false,"rental_uris":{"android":"levelo://app?vid=8009e98b-9741-4a89-b982-6c3a1b8606c2","ios":"levelo://app?vid=8009e98b-9741-4a89-b982-6c3a1b8606c2"},"vehicle_type_id":"4","last_reported":1710462829,"current_range_meters":14800,"station_id":"ce4bgop2rcd13ifvqc1g","pricing_plan_id":"cebpf4jnsgd1na2vs0mg"},{"bike_id":"2b47da7c-7683-4598-a87d-96ff85cd34ce","system_id":"levelo_inurba_marseille","lat":43.297774,"lon":5.370875,"is_reserved":false,"is_disabled":false,"rental_uris":{"android":"levelo://app?vid=2b47da7c-7683-4598-a87d-96ff85cd34ce","ios":"levelo://app?vid=2b47da7c-7683-4598-a87d-96ff85cd34ce"},"vehicle_type_id":"4","last_reported":1710462829,"current_range_meters":25600,"station_id":"ce4bgop2rcd13ifvqc1g","pricing_plan_id":"cebpf4jnsgd1na2vs0mg"},{"bike_id":"190e5233-282c-4384-9bfd-f64966a95e87","system_id":"levelo_inurba_marseille","lat":43.32291,"lon":5.3826,"is_reserved":false,"is_disabled":false,"rental_uris":{"android":"levelo://app?vid=190e5233-282c-4384-9bfd-f64966a95e87","ios":"levelo://app?vid=190e5233-282c-4384-9bfd-f64966a95e87"},"vehicle_type_id":"4","last_reported":1710462829,"current_range_meters":4400,"station_id":"ce4bhr12rcd13ifvqhqg","pricing_plan_id":"cebpf4jnsgd1na2vs0mg"},{"bike_id":"e17f286e-276a-477a-ad66-3e999f055e4c","system_id":"levelo_inurba_marseille","lat":43.322891,"lon":5.382653,"is_reserved":false,"is_disabled":false,"rental_uris":{"android":"levelo://app?vid=e17f286e-276a-477a-ad66-3e999f055e4c","ios":"levelo://app?vid=e17f286e-276a-477a-ad66-3e999f055e4c"},"vehicle_type_id":"4","last_reported":1710462829,"current_range_meters":21600,"station_id":"ce4bhr12rcd13ifvqhqg","pricing_plan_id":"cebpf4jnsgd1na2vs0mg"},{"bike_id":"a1ea46c0-4921-4767-a801-a177044432f3","system_id":"levelo_inurba_marseille","lat":43.322872,"lon":5.382756,"is_reserved":false,"is_disabled":false,"rental_uris":{"android":"levelo://app?vid=a1ea46c0-4921-4767-a801-a177044432f3","ios":"levelo://app?vid=a1ea46c0-4921-4767-a801-a177044432f3"},"vehicle_type_id":"4","last_reported":1710462829,"current_range_meters":30800,"station_id":"ce4bhr12rcd13ifvqhqg","pricing_plan_id":"cebpf4jnsgd1na2vs0mg"},{"bike_id":"df2d3431-3d8a-424a-8388-0b2264eca2ef","system_id":"levelo_inurba_marseille","lat":43.322909,"lon":5.382638,"is_reserved":false,"is_disabled":false,"rental_uris":{"android":"levelo://app?vid=df2d3431-3d8a-424a-8388-0b2264eca2ef","ios":"levelo://app?vid=df2d3431-3d8a-424a-8388-0b2264eca2ef"},"vehicle_type_id":"4","last_reported":1710462829,"current_range_meters":18400,"station_id":"ce4bhr12rcd13ifvqhqg","pricing_plan_id":"cebpf4jnsgd1na2vs0mg"},{"bike_id":"eaf5350b-08e3-4231-8a58-3cf3fba26ee0","system_id":"levelo_inurba_marseille","lat":43.322896,"lon":5.382673,"is_reserved":false,"is_disabled":false,"rental_uris":{"android":"levelo://app?vid=eaf5350b-08e3-4231-8a58-3cf3fba26ee0","ios":"levelo://app?vid=eaf5350b-08e3-4231-8a58-3cf3fba26ee0"},"vehicle_type_id":"4","last_reported":1710462829,"current_range_meters":23200,"station_id":"ce4bhr12rcd13ifvqhqg","pricing_plan_id":"cebpf4jnsgd1na2vs0mg"},{"bike_id":"59df4e26-4e7f-4dbe-9da6-0dd0f7ba8c9a","system_id":"levelo_inurba_marseille","lat":43.32288,"lon":5.3827,"is_reserved":false,"is_disabled":false,"rental_uris":{"android":"levelo://app?vid=59df4e26-4e7f-4dbe-9da6-0dd0f7ba8c9a","ios":"levelo://app?vid=59df4e26-4e7f-4dbe-9da6-0dd0f7ba8c9a"},"vehicle_type_id":"4","last_reported":1710462829,"current_range_meters":10400,"station_id":"ce4bhr12rcd13ifvqhqg","pricing_plan_id":"cebpf4jnsgd1na2vs0mg"},{"bike_id":"c939aef6-9eb0-4060-bb9a-dd2f5ded4615","system_id":"levelo_inurba_marseille","lat":43.32291,"lon":5.38268,"is_reserved":false,"is_disabled":false,"rental_uris":{"android":"levelo://app?vid=c939aef6-9eb0-4060-bb9a-dd2f5ded4615","ios":"levelo://app?vid=c939aef6-9eb0-4060-bb9a-dd2f5ded4615"},"vehicle_type_id":"4","last_reported":1710462829,"current_range_meters":18400,"station_id":"ce4bhr12rcd13ifvqhqg","pricing_plan_id":"cebpf4jnsgd1na2vs0mg"},{"bike_id":"b155ce5c-5a8d-41b1-9dac-9aa8b8e12813","system_id":"levelo_inurba_marseille","lat":43.322852,"lon":5.38276,"is_reserved":false,"is_disabled":false,"rental_uris":{"android":"levelo://app?vid=b155ce5c-5a8d-41b1-9dac-9aa8b8e12813","ios":"levelo://app?vid=b155ce5c-5a8d-41b1-9dac-9aa8b8e12813"},"vehicle_type_id":"4","last_reported":1710462829,"current_range_meters":10400,"station_id":"ce4bhr12rcd13ifvqhqg","pricing_plan_id":"cebpf4jnsgd1na2vs0mg"},{"bike_id":"7bec9906-025d-4ca8-ae74-649cd068031f","system_id":"levelo_inurba_marseille","lat":43.322866,"lon":5.382749,"is_reserved":false,"is_disabled":false,"rental_uris":{"android":"levelo://app?vid=7bec9906-025d-4ca8-ae74-649cd068031f","ios":"levelo://app?vid=7bec9906-025d-4ca8-ae74-649cd068031f"},"vehicle_type_id":"4","last_reported":1710462829,"current_range_meters":400,"station_id":"ce4bhr12rcd13ifvqhqg","pricing_plan_id":"cebpf4jnsgd1na2vs0mg"},{"bike_id":"ff441809-ea3a-4e94-bca8-83d1ea7d40a8","system_id":"levelo_inurba_marseille","lat":43.32293,"lon":5.38268,"is_reserved":false,"is_disabled":false,"rental_uris":{"android":"levelo://app?vid=ff441809-ea3a-4e94-bca8-83d1ea7d40a8","ios":"levelo://app?vid=ff441809-ea3a-4e94-bca8-83d1ea7d40a8"},"vehicle_type_id":"4","last_reported":1710462829,"current_range_meters":21600,"station_id":"ce4bhr12rcd13ifvqhqg","pricing_plan_id":"cebpf4jnsgd1na2vs0mg"},{"bike_id":"5ca6e23a-044e-48ae-80b7-0c7576df53f9","system_id":"levelo_inurba_marseille","lat":43.32288,"lon":5.38275,"is_reserved":false,"is_disabled":false,"rental_uris":{"android":"levelo://app?vid=5ca6e23a-044e-48ae-80b7-0c7576df53f9","ios":"levelo://app?vid=5ca6e23a-044e-48ae-80b7-0c7576df53f9"},"vehicle_type_id":"4","last_reported":1710462829,"current_range_meters":9200,"station_id":"ce4bhr12rcd13ifvqhqg","pricing_plan_id":"cebpf4jnsgd1na2vs0mg"},{"bike_id":"36727d06-0af4-4c64-88de-4193d3d2494b","system_id":"levelo_inurba_marseille","lat":43.322872,"lon":5.382756,"is_reserved":false,"is_disabled":false,"rental_uris":{"android":"levelo://app?vid=36727d06-0af4-4c64-88de-4193d3d2494b","ios":"levelo://app?vid=36727d06-0af4-4c64-88de-4193d3d2494b"},"vehicle_type_id":"4","last_reported":1710462829,"current_range_meters":18800,"station_id":"ce4bhr12rcd13ifvqhqg","pricing_plan_id":"cebpf4jnsgd1na2vs0mg"},{"bike_id":"c7af7f44-3644-4778-bfe3-680257924400","system_id":"levelo_inurba_marseille","lat":43.322899,"lon":5.382765,"is_reserved":false,"is_disabled":false,"rental_uris":{"android":"levelo://app?vid=c7af7f44-3644-4778-bfe3-680257924400","ios":"levelo://app?vid=c7af7f44-3644-4778-bfe3-680257924400"},"vehicle_type_id":"4","last_reported":1710462829,"current_range_meters":0,"station_id":"ce4bhr12rcd13ifvqhqg","pricing_plan_id":"cebpf4jnsgd1na2vs0mg"},{"bike_id":"7d711117-8f24-4ca5-af35-2d207110a750","system_id":"levelo_inurba_marseille","lat":43.322872,"lon":5.382756,"is_reserved":false,"is_disabled":false,"rental_uris":{"android":"levelo://app?vid=7d711117-8f24-4ca5-af35-2d207110a750","ios":"levelo://app?vid=7d711117-8f24-4ca5-af35-2d207110a750"},"vehicle_type_id":"4","last_reported":1710462829,"current_range_meters":31200,"station_id":"ce4bhr12rcd13ifvqhqg","pricing_plan_id":"cebpf4jnsgd1na2vs0mg"},{"bike_id":"f6c248ca-489b-4eb6-8a07-e1445ea6c395","system_id":"levelo_inurba_marseille","lat":43.297794,"lon":5.370888,"is_reserved":false,"is_disabled":false,"rental_uris":{"android":"levelo://app?vid=f6c248ca-489b-4eb6-8a07-e1445ea6c395","ios":"levelo://app?vid=f6c248ca-489b-4eb6-8a07-e1445ea6c395"},"vehicle_type_id":"4","last_reported":1710462829,"current_range_meters":4800,"station_id":"ce4bgop2rcd13ifvqc1g","pricing_plan_id":"cebpf4jnsgd1na2vs0mg"},{"bike_id":"5b93b35e-fc84-4277-95e0-babbd9fcca06","system_id":"levelo_inurba_marseille","lat":43.297163,"lon":5.365866,"is_reserved":false,"is_disabled":false,"rental_uris":{"android":"levelo://app?vid=5b93b35e-fc84-4277-95e0-babbd9fcca06","ios":"levelo://app?vid=5b93b35e-fc84-4277-95e0-babbd9fcca06"},"vehicle_type_id":"4","last_reported":1710462829,"current_range_meters":24800,"station_id":"ce4bgn12rcd13ifvqbt0","pricing_plan_id":"cebpf4jnsgd1na2vs0mg"},{"bike_id":"bb27c1ff-c3a2-4f48-954d-41a4b7b723ff","system_id":"levelo_inurba_marseille","lat":43.297163,"lon":5.365866,"is_reserved":false,"is_disabled":false,"rental_uris":{"android":"levelo://app?vid=bb27c1ff-c3a2-4f48-954d-41a4b7b723ff","ios":"levelo://app?vid=bb27c1ff-c3a2-4f48-954d-41a4b7b723ff"},"vehicle_type_id":"4","last_reported":1710462829,"current_range_meters":7600,"station_id":"ce4bgn12rcd13ifvqbt0","pricing_plan_id":"cebpf4jnsgd1na2vs0mg"},{"bike_id":"3b0231db-44de-4bc1-a68d-7305683066f7","system_id":"levelo_inurba_marseille","lat":43.297163,"lon":5.365866,"is_reserved":false,"is_disabled":false,"rental_uris":{"android":"levelo://app?vid=3b0231db-44de-4bc1-a68d-7305683066f7","ios":"levelo://app?vid=3b0231db-44de-4bc1-a68d-7305683066f7"},"vehicle_type_id":"4","last_reported":1710462829,"current_range_meters":21200,"station_id":"ce4bgn12rcd13ifvqbt0","pricing_plan_id":"cebpf4jnsgd1na2vs0mg"},{"bike_id":"ccf5dc19-45b6-4d0b-95d1-3d7dccd9ac52","system_id":"levelo_inurba_marseille","lat":43.295947,"lon":5.368,"is_reserved":false,"is_disabled":false,"rental_uris":{"android":"levelo://app?vid=ccf5dc19-45b6-4d0b-95d1-3d7dccd9ac52","ios":"levelo://app?vid=ccf5dc19-45b6-4d0b-95d1-3d7dccd9ac52"},"vehicle_type_id":"4","last_reported":1710462829,"current_range_meters":17200,"station_id":"","pricing_plan_id":"cebpf4jnsgd1na2vs0mg"},{"bike_id":"df645f46-76db-48a7-bd57-f3037adcc8b6","system_id":"levelo_inurba_marseille","lat":43.29625,"lon":5.37151,"is_reserved":false,"is_disabled":false,"rental_uris":{"android":"levelo://app?vid=df645f46-76db-48a7-bd57-f3037adcc8b6","ios":"levelo://app?vid=df645f46-76db-48a7-bd57-f3037adcc8b6"},"vehicle_type_id":"4","last_reported":1710462829,"current_range_meters":12800,"station_id":"ce4bgnh2rcd13ifvqc0g","pricing_plan_id":"cebpf4jnsgd1na2vs0mg"},{"bike_id":"20f562f9-aa1c-4e99-9c60-e3e6fdbb3a28","system_id":"levelo_inurba_marseille","lat":43.29573,"lon":5.367355,"is_reserved":false,"is_disabled":false,"rental_uris":{"android":"levelo://app?vid=20f562f9-aa1c-4e99-9c60-e3e6fdbb3a28","ios":"levelo://app?vid=20f562f9-aa1c-4e99-9c60-e3e6fdbb3a28"},"vehicle_type_id":"4","last_reported":1710462829,"current_range_meters":18000,"station_id":"ce4bgph2rcd13ifvqc2g","pricing_plan_id":"cebpf4jnsgd1na2vs0mg"},{"bike_id":"712c2c43-8fc6-42b0-96fd-c6ef3cb9e90b","system_id":"levelo_inurba_marseille","lat":43.29974,"lon":5.38202,"is_reserved":false,"is_disabled":false,"rental_uris":{"android":"levelo://app?vid=712c2c43-8fc6-42b0-96fd-c6ef3cb9e90b","ios":"levelo://app?vid=712c2c43-8fc6-42b0-96fd-c6ef3cb9e90b"},"vehicle_type_id":"4","last_reported":1710462829,"current_range_meters":11600,"station_id":"","pricing_plan_id":"cebpf4jnsgd1na2vs0mg"},{"bike_id":"0e85e5a5-8790-4325-81a0-9beaf4d2d779","system_id":"levelo_inurba_marseille","lat":43.309589,"lon":5.390258,"is_reserved":false,"is_disabled":false,"rental_uris":{"android":"levelo://app?vid=0e85e5a5-8790-4325-81a0-9beaf4d2d779","ios":"levelo://app?vid=0e85e5a5-8790-4325-81a0-9beaf4d2d779"},"vehicle_type_id":"4","last_reported":1710462829,"current_range_meters":18000,"station_id":"ce4bgup2rcd13ifvqco0","pricing_plan_id":"cebpf4jnsgd1na2vs0mg"},{"bike_id":"e7635339-4a3c-42a4-a346-f89d0509c084","system_id":"levelo_inurba_marseille","lat":43.317557,"lon":5.390173,"is_reserved":false,"is_disabled":false,"rental_uris":{"android":"levelo://app?vid=e7635339-4a3c-42a4-a346-f89d0509c084","ios":"levelo://app?vid=e7635339-4a3c-42a4-a346-f89d0509c084"},"vehicle_type_id":"4","last_reported":1710462829,"current_range_meters":26800,"station_id":"ce4bhqp2rcd13ifvqhng","pricing_plan_id":"cebpf4jnsgd1na2vs0mg"},{"bike_id":"77143e07-9a56-4df7-8659-5c80a8c15c48","system_id":"levelo_inurba_marseille","lat":43.31754,"lon":5.39015,"is_reserved":false,"is_disabled":false,"rental_uris":{"android":"levelo://app?vid=77143e07-9a56-4df7-8659-5c80a8c15c48","ios":"levelo://app?vid=77143e07-9a56-4df7-8659-5c80a8c15c48"},"vehicle_type_id":"4","last_reported":1710462829,"current_range_meters":0,"station_id":"","pricing_plan_id":"cebpf4jnsgd1na2vs0mg"},{"bike_id":"d15c66b4-252c-40a5-8e0d-aaa09e7e3259","system_id":"levelo_inurba_marseille","lat":43.317573,"lon":5.39014,"is_reserved":false,"is_disabled":false,"rental_uris":{"android":"levelo://app?vid=d15c66b4-252c-40a5-8e0d-aaa09e7e3259","ios":"levelo://app?vid=d15c66b4-252c-40a5-8e0d-aaa09e7e3259"},"vehicle_type_id":"4","last_reported":1710462829,"current_range_meters":0,"station_id":"ce4bhqp2rcd13ifvqhng","pricing_plan_id":"cebpf4jnsgd1na2vs0mg"},{"bike_id":"67eb208e-05cf-4e89-bfce-ef48257e737b","system_id":"levelo_inurba_marseille","lat":43.31758,"lon":5.39014,"is_reserved":false,"is_disabled":false,"rental_uris":{"android":"levelo://app?vid=67eb208e-05cf-4e89-bfce-ef48257e737b","ios":"levelo://app?vid=67eb208e-05cf-4e89-bfce-ef48257e737b"},"vehicle_type_id":"4","last_reported":1710462829,"current_range_meters":0,"station_id":"ce4bhqp2rcd13ifvqhng","pricing_plan_id":"cebpf4jnsgd1na2vs0mg"},{"bike_id":"a7e9409e-d196-40a9-8913-2226e2a94e30","system_id":"levelo_inurba_marseille","lat":43.317557,"lon":5.390173,"is_reserved":false,"is_disabled":false,"rental_uris":{"android":"levelo://app?vid=a7e9409e-d196-40a9-8913-2226e2a94e30","ios":"levelo://app?vid=a7e9409e-d196-40a9-8913-2226e2a94e30"},"vehicle_type_id":"4","last_reported":1710462829,"current_range_meters":30800,"station_id":"ce4bhqp2rcd13ifvqhng","pricing_plan_id":"cebpf4jnsgd1na2vs0mg"},{"bike_id":"b0bd1f6a-99d2-4d84-a375-85c92b11a593","system_id":"levelo_inurba_marseille","lat":43.317515,"lon":5.39021,"is_reserved":false,"is_disabled":false,"rental_uris":{"android":"levelo://app?vid=b0bd1f6a-99d2-4d84-a375-85c92b11a593","ios":"levelo://app?vid=b0bd1f6a-99d2-4d84-a375-85c92b11a593"},"vehicle_type_id":"4","last_reported":1710462829,"current_range_meters":14400,"station_id":"ce4bhqp2rcd13ifvqhng","pricing_plan_id":"cebpf4jnsgd1na2vs0mg"},{"bike_id":"4406f68a-e6b2-405a-9f34-bc84e800d024","system_id":"levelo_inurba_marseille","lat":43.31758,"lon":5.39019,"is_reserved":false,"is_disabled":false,"rental_uris":{"android":"levelo://app?vid=4406f68a-e6b2-405a-9f34-bc84e800d024","ios":"levelo://app?vid=4406f68a-e6b2-405a-9f34-bc84e800d024"},"vehicle_type_id":"4","last_reported":1710462829,"current_range_meters":0,"station_id":"ce4bhqp2rcd13ifvqhng","pricing_plan_id":"cebpf4jnsgd1na2vs0mg"},{"bike_id":"3f1398ec-4688-46c0-87ad-ae6ee2699afa","system_id":"levelo_inurba_marseille","lat":43.317557,"lon":5.390173,"is_reserved":false,"is_disabled":false,"rental_uris":{"android":"levelo://app?vid=3f1398ec-4688-46c0-87ad-ae6ee2699afa","ios":"levelo://app?vid=3f1398ec-4688-46c0-87ad-ae6ee2699afa"},"vehicle_type_id":"4","last_reported":1710462829,"current_range_meters":25200,"station_id":"ce4bhqp2rcd13ifvqhng","pricing_plan_id":"cebpf4jnsgd1na2vs0mg"},{"bike_id":"5ade5f28-1360-4c60-9e89-43600cb42361","system_id":"levelo_inurba_marseille","lat":43.317556,"lon":5.390229,"is_reserved":false,"is_disabled":false,"rental_uris":{"android":"levelo://app?vid=5ade5f28-1360-4c60-9e89-43600cb42361","ios":"levelo://app?vid=5ade5f28-1360-4c60-9e89-43600cb42361"},"vehicle_type_id":"4","last_reported":1710462829,"current_range_meters":26800,"station_id":"ce4bhqp2rcd13ifvqhng","pricing_plan_id":"cebpf4jnsgd1na2vs0mg"},{"bike_id":"400fc285-08c8-4b6b-a2e6-e4633d9bd4b4","system_id":"levelo_inurba_marseille","lat":43.317557,"lon":5.390173,"is_reserved":false,"is_disabled":false,"rental_uris":{"android":"levelo://app?vid=400fc285-08c8-4b6b-a2e6-e4633d9bd4b4","ios":"levelo://app?vid=400fc285-08c8-4b6b-a2e6-e4633d9bd4b4"},"vehicle_type_id":"4","last_reported":1710462829,"current_range_meters":20000,"station_id":"ce4bhqp2rcd13ifvqhng","pricing_plan_id":"cebpf4jnsgd1na2vs0mg"},{"bike_id":"41e3df2a-b958-4acb-84c5-f5691f8c9dbb","system_id":"levelo_inurba_marseille","lat":43.31754,"lon":5.39028,"is_reserved":false,"is_disabled":false,"rental_uris":{"android":"levelo://app?vid=41e3df2a-b958-4acb-84c5-f5691f8c9dbb","ios":"levelo://app?vid=41e3df2a-b958-4acb-84c5-f5691f8c9dbb"},"vehicle_type_id":"4","last_reported":1710462829,"current_range_meters":2000,"station_id":"ce4bhqp2rcd13ifvqhng","pricing_plan_id":"cebpf4jnsgd1na2vs0mg"},{"bike_id":"934dcfbb-851e-4f5b-8f06-0e4a0da081b2","system_id":"levelo_inurba_marseille","lat":43.2976,"lon":5.37955,"is_reserved":false,"is_disabled":false,"rental_uris":{"android":"levelo://app?vid=934dcfbb-851e-4f5b-8f06-0e4a0da081b2","ios":"levelo://app?vid=934dcfbb-851e-4f5b-8f06-0e4a0da081b2"},"vehicle_type_id":"4","last_reported":1710462829,"current_range_meters":8800,"station_id":"","pricing_plan_id":"cebpf4jnsgd1na2vs0mg"},{"bike_id":"4327193e-2f86-48f8-8037-4327ee277913","system_id":"levelo_inurba_marseille","lat":43.29572,"lon":5.374577,"is_reserved":false,"is_disabled":false,"rental_uris":{"android":"levelo://app?vid=4327193e-2f86-48f8-8037-4327ee277913","ios":"levelo://app?vid=4327193e-2f86-48f8-8037-4327ee277913"},"vehicle_type_id":"4","last_reported":1710462829,"current_range_meters":29200,"station_id":"","pricing_plan_id":"cebpf4jnsgd1na2vs0mg"},{"bike_id":"a2c76fa5-65e3-41d3-848f-0142675dbbe5","system_id":"levelo_inurba_marseille","lat":43.304274,"lon":5.388873,"is_reserved":false,"is_disabled":false,"rental_uris":{"android":"levelo://app?vid=a2c76fa5-65e3-41d3-848f-0142675dbbe5","ios":"levelo://app?vid=a2c76fa5-65e3-41d3-848f-0142675dbbe5"},"vehicle_type_id":"4","last_reported":1710462829,"current_range_meters":31600,"station_id":"ce4bgk12rcd13ifvqbi0","pricing_plan_id":"cebpf4jnsgd1na2vs0mg"},{"bike_id":"ff1a7488-0071-439a-a611-4ec8b156bc9a","system_id":"levelo_inurba_marseille","lat":43.304274,"lon":5.388873,"is_reserved":false,"is_disabled":false,"rental_uris":{"android":"levelo://app?vid=ff1a7488-0071-439a-a611-4ec8b156bc9a","ios":"levelo://app?vid=ff1a7488-0071-439a-a611-4ec8b156bc9a"},"vehicle_type_id":"4","last_reported":1710462829,"current_range_meters":19200,"station_id":"ce4bgk12rcd13ifvqbi0","pricing_plan_id":"cebpf4jnsgd1na2vs0mg"},{"bike_id":"ae74fb6f-8ead-4512-82a9-28659cc10057","system_id":"levelo_inurba_marseille","lat":43.304274,"lon":5.388873,"is_reserved":false,"is_disabled":false,"rental_uris":{"android":"levelo://app?vid=ae74fb6f-8ead-4512-82a9-28659cc10057","ios":"levelo://app?vid=ae74fb6f-8ead-4512-82a9-28659cc10057"},"vehicle_type_id":"4","last_reported":1710462829,"current_range_meters":25200,"station_id":"ce4bgk12rcd13ifvqbi0","pricing_plan_id":"cebpf4jnsgd1na2vs0mg"},{"bike_id":"a981c7aa-d2f1-458a-bf7e-4a038280ff47","system_id":"levelo_inurba_marseille","lat":43.304278,"lon":5.388868,"is_reserved":false,"is_disabled":false,"rental_uris":{"android":"levelo://app?vid=a981c7aa-d2f1-458a-bf7e-4a038280ff47","ios":"levelo://app?vid=a981c7aa-d2f1-458a-bf7e-4a038280ff47"},"vehicle_type_id":"4","last_reported":1710462829,"current_range_meters":7200,"station_id":"ce4bgk12rcd13ifvqbi0","pricing_plan_id":"cebpf4jnsgd1na2vs0mg"},{"bike_id":"cba26192-5128-46fb-b1ba-04502c1e0c4a","system_id":"levelo_inurba_marseille","lat":43.304274,"lon":5.388873,"is_reserved":false,"is_disabled":false,"rental_uris":{"android":"levelo://app?vid=cba26192-5128-46fb-b1ba-04502c1e0c4a","ios":"levelo://app?vid=cba26192-5128-46fb-b1ba-04502c1e0c4a"},"vehicle_type_id":"4","last_reported":1710462829,"current_range_meters":10800,"station_id":"ce4bgk12rcd13ifvqbi0","pricing_plan_id":"cebpf4jnsgd1na2vs0mg"},{"bike_id":"cee2f113-fab9-4269-bedd-46790d88ecde","system_id":"levelo_inurba_marseille","lat":43.304278,"lon":5.388868,"is_reserved":false,"is_disabled":false,"rental_uris":{"android":"levelo://app?vid=cee2f113-fab9-4269-bedd-46790d88ecde","ios":"levelo://app?vid=cee2f113-fab9-4269-bedd-46790d88ecde"},"vehicle_type_id":"4","last_reported":1710462829,"current_range_meters":26400,"station_id":"ce4bgk12rcd13ifvqbi0","pricing_plan_id":"cebpf4jnsgd1na2vs0mg"},{"bike_id":"ceda8a53-853c-4a1e-ab7a-8ccbb61a6500","system_id":"levelo_inurba_marseille","lat":43.29572,"lon":5.37526,"is_reserved":false,"is_disabled":false,"rental_uris":{"android":"levelo://app?vid=ceda8a53-853c-4a1e-ab7a-8ccbb61a6500","ios":"levelo://app?vid=ceda8a53-853c-4a1e-ab7a-8ccbb61a6500"},"vehicle_type_id":"4","last_reported":1710462829,"current_range_meters":26800,"station_id":"ce4bgh92rcd13ifvqb50","pricing_plan_id":"cebpf4jnsgd1na2vs0mg"},{"bike_id":"75c2b158-2a17-48bd-a5a3-2d69697199be","system_id":"levelo_inurba_marseille","lat":43.304278,"lon":5.388868,"is_reserved":false,"is_disabled":false,"rental_uris":{"android":"levelo://app?vid=75c2b158-2a17-48bd-a5a3-2d69697199be","ios":"levelo://app?vid=75c2b158-2a17-48bd-a5a3-2d69697199be"},"vehicle_type_id":"4","last_reported":1710462829,"current_range_meters":15600,"station_id":"ce4bgk12rcd13ifvqbi0","pricing_plan_id":"cebpf4jnsgd1na2vs0mg"},{"bike_id":"18a072d0-dc65-49b0-9dd4-76f950944254","system_id":"levelo_inurba_marseille","lat":43.304274,"lon":5.388873,"is_reserved":false,"is_disabled":false,"rental_uris":{"android":"levelo://app?vid=18a072d0-dc65-49b0-9dd4-76f950944254","ios":"levelo://app?vid=18a072d0-dc65-49b0-9dd4-76f950944254"},"vehicle_type_id":"4","last_reported":1710462829,"current_range_meters":26000,"station_id":"ce4bgk12rcd13ifvqbi0","pricing_plan_id":"cebpf4jnsgd1na2vs0mg"},{"bike_id":"e9f342fd-000e-4119-bcf6-d3796442695b","system_id":"levelo_inurba_marseille","lat":43.304274,"lon":5.388873,"is_reserved":false,"is_disabled":false,"rental_uris":{"android":"levelo://app?vid=e9f342fd-000e-4119-bcf6-d3796442695b","ios":"levelo://app?vid=e9f342fd-000e-4119-bcf6-d3796442695b"},"vehicle_type_id":"4","last_reported":1710462829,"current_range_meters":11600,"station_id":"ce4bgk12rcd13ifvqbi0","pricing_plan_id":"cebpf4jnsgd1na2vs0mg"},{"bike_id":"f779a549-981a-4e98-96b7-135bb3ace06f","system_id":"levelo_inurba_marseille","lat":43.296277,"lon":5.377108,"is_reserved":false,"is_disabled":false,"rental_uris":{"android":"levelo://app?vid=f779a549-981a-4e98-96b7-135bb3ace06f","ios":"levelo://app?vid=f779a549-981a-4e98-96b7-135bb3ace06f"},"vehicle_type_id":"4","last_reported":1710462829,"current_range_meters":21600,"station_id":"ce4bgi92rcd13ifvqb90","pricing_plan_id":"cebpf4jnsgd1na2vs0mg"},{"bike_id":"32b5557f-ef1b-46af-97f2-6d1c4ce81171","system_id":"levelo_inurba_marseille","lat":43.29754,"lon":5.38094,"is_reserved":false,"is_disabled":false,"rental_uris":{"android":"levelo://app?vid=32b5557f-ef1b-46af-97f2-6d1c4ce81171","ios":"levelo://app?vid=32b5557f-ef1b-46af-97f2-6d1c4ce81171"},"vehicle_type_id":"4","last_reported":1710462829,"current_range_meters":8800,"station_id":"","pricing_plan_id":"cebpf4jnsgd1na2vs0mg"},{"bike_id":"309338d9-5eee-401d-b0a3-3228ea92faed","system_id":"levelo_inurba_marseille","lat":43.29965,"lon":5.38497,"is_reserved":false,"is_disabled":false,"rental_uris":{"android":"levelo://app?vid=309338d9-5eee-401d-b0a3-3228ea92faed","ios":"levelo://app?vid=309338d9-5eee-401d-b0a3-3228ea92faed"},"vehicle_type_id":"4","last_reported":1710462829,"current_range_meters":0,"station_id":"ce4bgj92rcd13ifvqbd0","pricing_plan_id":"cebpf4jnsgd1na2vs0mg"},{"bike_id":"5a78b80a-e628-4fd3-bc43-033c43764cc9","system_id":"levelo_inurba_marseille","lat":43.3236,"lon":5.38881,"is_reserved":false,"is_disabled":false,"rental_uris":{"android":"levelo://app?vid=5a78b80a-e628-4fd3-bc43-033c43764cc9","ios":"levelo://app?vid=5a78b80a-e628-4fd3-bc43-033c43764cc9"},"vehicle_type_id":"4","last_reported":1710462829,"current_range_meters":6800,"station_id":"ce4bhqp2rcd13ifvqhog","pricing_plan_id":"cebpf4jnsgd1na2vs0mg"},{"bike_id":"1fd8f59e-d423-40a9-8eb7-7edaa8993cd5","system_id":"levelo_inurba_marseille","lat":43.323582,"lon":5.388894,"is_reserved":false,"is_disabled":false,"rental_uris":{"android":"levelo://app?vid=1fd8f59e-d423-40a9-8eb7-7edaa8993cd5","ios":"levelo://app?vid=1fd8f59e-d423-40a9-8eb7-7edaa8993cd5"},"vehicle_type_id":"4","last_reported":1710462829,"current_range_meters":2000,"station_id":"ce4bhqp2rcd13ifvqhog","pricing_plan_id":"cebpf4jnsgd1na2vs0mg"},{"bike_id":"40e2eb8a-4357-46b9-90f8-84a1e303713d","system_id":"levelo_inurba_marseille","lat":43.323637,"lon":5.38885,"is_reserved":false,"is_disabled":false,"rental_uris":{"android":"levelo://app?vid=40e2eb8a-4357-46b9-90f8-84a1e303713d","ios":"levelo://app?vid=40e2eb8a-4357-46b9-90f8-84a1e303713d"},"vehicle_type_id":"4","last_reported":1710462829,"current_range_meters":10000,"station_id":"ce4bhqp2rcd13ifvqhog","pricing_plan_id":"cebpf4jnsgd1na2vs0mg"},{"bike_id":"000f77e5-4326-4d56-8799-1de5f65a506a","system_id":"levelo_inurba_marseille","lat":43.32363,"lon":5.38886,"is_reserved":false,"is_disabled":false,"rental_uris":{"android":"levelo://app?vid=000f77e5-4326-4d56-8799-1de5f65a506a","ios":"levelo://app?vid=000f77e5-4326-4d56-8799-1de5f65a506a"},"vehicle_type_id":"4","last_reported":1710462829,"current_range_meters":13600,"station_id":"ce4bhqp2rcd13ifvqhog","pricing_plan_id":"cebpf4jnsgd1na2vs0mg"},{"bike_id":"601549c9-17b6-4663-bb1f-1fc3c0514675","system_id":"levelo_inurba_marseille","lat":43.32369,"lon":5.38881,"is_reserved":false,"is_disabled":false,"rental_uris":{"android":"levelo://app?vid=601549c9-17b6-4663-bb1f-1fc3c0514675","ios":"levelo://app?vid=601549c9-17b6-4663-bb1f-1fc3c0514675"},"vehicle_type_id":"4","last_reported":1710462829,"current_range_meters":18800,"station_id":"ce4bhqp2rcd13ifvqhog","pricing_plan_id":"cebpf4jnsgd1na2vs0mg"},{"bike_id":"598fb1f3-a37f-4e7b-8fbd-0c96fece7550","system_id":"levelo_inurba_marseille","lat":43.32362,"lon":5.38888,"is_reserved":false,"is_disabled":false,"rental_uris":{"android":"levelo://app?vid=598fb1f3-a37f-4e7b-8fbd-0c96fece7550","ios":"levelo://app?vid=598fb1f3-a37f-4e7b-8fbd-0c96fece7550"},"vehicle_type_id":"4","last_reported":1710462829,"current_range_meters":2000,"station_id":"ce4bhqp2rcd13ifvqhog","pricing_plan_id":"cebpf4jnsgd1na2vs0mg"},{"bike_id":"b067381d-4a0e-4eb6-9712-95df1ab837a3","system_id":"levelo_inurba_marseille","lat":43.323695,"lon":5.388815,"is_reserved":false,"is_disabled":false,"rental_uris":{"android":"levelo://app?vid=b067381d-4a0e-4eb6-9712-95df1ab837a3","ios":"levelo://app?vid=b067381d-4a0e-4eb6-9712-95df1ab837a3"},"vehicle_type_id":"4","last_reported":1710462829,"current_range_meters":27600,"station_id":"ce4bhqp2rcd13ifvqhog","pricing_plan_id":"cebpf4jnsgd1na2vs0mg"},{"bike_id":"9821981f-4ba9-44df-971c-842532bfe183","system_id":"levelo_inurba_marseille","lat":43.32367,"lon":5.38885,"is_reserved":false,"is_disabled":false,"rental_uris":{"android":"levelo://app?vid=9821981f-4ba9-44df-971c-842532bfe183","ios":"levelo://app?vid=9821981f-4ba9-44df-971c-842532bfe183"},"vehicle_type_id":"4","last_reported":1710462829,"current_range_meters":9200,"station_id":"ce4bhqp2rcd13ifvqhog","pricing_plan_id":"cebpf4jnsgd1na2vs0mg"},{"bike_id":"e47eb325-88f0-46e0-ae13-de9ffb7f6cd1","system_id":"levelo_inurba_marseille","lat":43.32367,"lon":5.38886,"is_reserved":false,"is_disabled":false,"rental_uris":{"android":"levelo://app?vid=e47eb325-88f0-46e0-ae13-de9ffb7f6cd1","ios":"levelo://app?vid=e47eb325-88f0-46e0-ae13-de9ffb7f6cd1"},"vehicle_type_id":"4","last_reported":1710462829,"current_range_meters":23200,"station_id":"ce4bhqp2rcd13ifvqhog","pricing_plan_id":"cebpf4jnsgd1na2vs0mg"},{"bike_id":"cc81d865-bd9e-47ea-9dba-ee06420c17c4","system_id":"levelo_inurba_marseille","lat":43.32367,"lon":5.388836,"is_reserved":false,"is_disabled":false,"rental_uris":{"android":"levelo://app?vid=cc81d865-bd9e-47ea-9dba-ee06420c17c4","ios":"levelo://app?vid=cc81d865-bd9e-47ea-9dba-ee06420c17c4"},"vehicle_type_id":"4","last_reported":1710462829,"current_range_meters":3200,"station_id":"ce4bhqp2rcd13ifvqhog","pricing_plan_id":"cebpf4jnsgd1na2vs0mg"},{"bike_id":"1105ac8e-aeab-416e-8203-16be87ff4281","system_id":"levelo_inurba_marseille","lat":43.323626,"lon":5.388911,"is_reserved":false,"is_disabled":false,"rental_uris":{"android":"levelo://app?vid=1105ac8e-aeab-416e-8203-16be87ff4281","ios":"levelo://app?vid=1105ac8e-aeab-416e-8203-16be87ff4281"},"vehicle_type_id":"4","last_reported":1710462829,"current_range_meters":11200,"station_id":"ce4bhqp2rcd13ifvqhog","pricing_plan_id":"cebpf4jnsgd1na2vs0mg"},{"bike_id":"775cf867-e75b-4fd5-b02f-97c73260f4b7","system_id":"levelo_inurba_marseille","lat":43.32368,"lon":5.38888,"is_reserved":false,"is_disabled":false,"rental_uris":{"android":"levelo://app?vid=775cf867-e75b-4fd5-b02f-97c73260f4b7","ios":"levelo://app?vid=775cf867-e75b-4fd5-b02f-97c73260f4b7"},"vehicle_type_id":"4","last_reported":1710462829,"current_range_meters":10400,"station_id":"ce4bhqp2rcd13ifvqhog","pricing_plan_id":"cebpf4jnsgd1na2vs0mg"},{"bike_id":"f8410019-e0d6-4683-8286-8c04cc7bb847","system_id":"levelo_inurba_marseille","lat":43.32367,"lon":5.388836,"is_reserved":false,"is_disabled":false,"rental_uris":{"android":"levelo://app?vid=f8410019-e0d6-4683-8286-8c04cc7bb847","ios":"levelo://app?vid=f8410019-e0d6-4683-8286-8c04cc7bb847"},"vehicle_type_id":"4","last_reported":1710462829,"current_range_meters":0,"station_id":"ce4bhqp2rcd13ifvqhog","pricing_plan_id":"cebpf4jnsgd1na2vs0mg"},{"bike_id":"583e1de5-6454-4add-b2df-953be50d44fc","system_id":"levelo_inurba_marseille","lat":43.32367,"lon":5.388836,"is_reserved":false,"is_disabled":false,"rental_uris":{"android":"levelo://app?vid=583e1de5-6454-4add-b2df-953be50d44fc","ios":"levelo://app?vid=583e1de5-6454-4add-b2df-953be50d44fc"},"vehicle_type_id":"4","last_reported":1710462829,"current_range_meters":0,"station_id":"ce4bhqp2rcd13ifvqhog","pricing_plan_id":"cebpf4jnsgd1na2vs0mg"},{"bike_id":"98c893c2-7601-480f-b687-9b8b6030928a","system_id":"levelo_inurba_marseille","lat":43.32367,"lon":5.388836,"is_reserved":false,"is_disabled":false,"rental_uris":{"android":"levelo://app?vid=98c893c2-7601-480f-b687-9b8b6030928a","ios":"levelo://app?vid=98c893c2-7601-480f-b687-9b8b6030928a"},"vehicle_type_id":"4","last_reported":1710462829,"current_range_meters":8400,"station_id":"ce4bhqp2rcd13ifvqhog","pricing_plan_id":"cebpf4jnsgd1na2vs0mg"},{"bike_id":"9584f60a-0356-4941-9535-2eba276f33b0","system_id":"levelo_inurba_marseille","lat":43.29601,"lon":5.381084,"is_reserved":false,"is_disabled":false,"rental_uris":{"android":"levelo://app?vid=9584f60a-0356-4941-9535-2eba276f33b0","ios":"levelo://app?vid=9584f60a-0356-4941-9535-2eba276f33b0"},"vehicle_type_id":"4","last_reported":1710462829,"current_range_meters":29200,"station_id":"ce4bgl12rcd13ifvqbo0","pricing_plan_id":"cebpf4jnsgd1na2vs0mg"},{"bike_id":"ff64137a-6fa0-40f8-8128-e8105e14e5b3","system_id":"levelo_inurba_marseille","lat":43.29305,"lon":5.371852,"is_reserved":false,"is_disabled":false,"rental_uris":{"android":"levelo://app?vid=ff64137a-6fa0-40f8-8128-e8105e14e5b3","ios":"levelo://app?vid=ff64137a-6fa0-40f8-8128-e8105e14e5b3"},"vehicle_type_id":"4","last_reported":1710462829,"current_range_meters":25200,"station_id":"ce4bgh92rcd13ifvqb40","pricing_plan_id":"cebpf4jnsgd1na2vs0mg"},{"bike_id":"438e71c7-cadc-43aa-b833-78565e9c08fb","system_id":"levelo_inurba_marseille","lat":43.292749,"lon":5.368402,"is_reserved":false,"is_disabled":false,"rental_uris":{"android":"levelo://app?vid=438e71c7-cadc-43aa-b833-78565e9c08fb","ios":"levelo://app?vid=438e71c7-cadc-43aa-b833-78565e9c08fb"},"vehicle_type_id":"4","last_reported":1710462829,"current_range_meters":31200,"station_id":"ce4bhbp2rcd13ifvqesg","pricing_plan_id":"cebpf4jnsgd1na2vs0mg"},{"bike_id":"f32f23e3-f8c0-475f-b0d2-1e0bb59dee66","system_id":"levelo_inurba_marseille","lat":43.29303,"lon":5.37172,"is_reserved":false,"is_disabled":false,"rental_uris":{"android":"levelo://app?vid=f32f23e3-f8c0-475f-b0d2-1e0bb59dee66","ios":"levelo://app?vid=f32f23e3-f8c0-475f-b0d2-1e0bb59dee66"},"vehicle_type_id":"4","last_reported":1710462829,"current_range_meters":21600,"station_id":"ce4bgh92rcd13ifvqb40","pricing_plan_id":"cebpf4jnsgd1na2vs0mg"},{"bike_id":"76f0edbd-e600-4f3b-bd51-f3dac76ef93d","system_id":"levelo_inurba_marseille","lat":43.293024,"lon":5.371798,"is_reserved":false,"is_disabled":false,"rental_uris":{"android":"levelo://app?vid=76f0edbd-e600-4f3b-bd51-f3dac76ef93d","ios":"levelo://app?vid=76f0edbd-e600-4f3b-bd51-f3dac76ef93d"},"vehicle_type_id":"4","last_reported":1710462829,"current_range_meters":31200,"station_id":"ce4bgh92rcd13ifvqb40","pricing_plan_id":"cebpf4jnsgd1na2vs0mg"},{"bike_id":"986da8c9-34ea-46f9-b9ed-c48fe0bd8244","system_id":"levelo_inurba_marseille","lat":43.292749,"lon":5.368402,"is_reserved":false,"is_disabled":false,"rental_uris":{"android":"levelo://app?vid=986da8c9-34ea-46f9-b9ed-c48fe0bd8244","ios":"levelo://app?vid=986da8c9-34ea-46f9-b9ed-c48fe0bd8244"},"vehicle_type_id":"4","last_reported":1710462829,"current_range_meters":800,"station_id":"ce4bhbp2rcd13ifvqesg","pricing_plan_id":"cebpf4jnsgd1na2vs0mg"},{"bike_id":"ad803cdc-0e60-45ca-bcbb-f7bc783d7e6c","system_id":"levelo_inurba_marseille","lat":43.2927,"lon":5.36849,"is_reserved":false,"is_disabled":false,"rental_uris":{"android":"levelo://app?vid=ad803cdc-0e60-45ca-bcbb-f7bc783d7e6c","ios":"levelo://app?vid=ad803cdc-0e60-45ca-bcbb-f7bc783d7e6c"},"vehicle_type_id":"4","last_reported":1710462829,"current_range_meters":25600,"station_id":"ce4bhbp2rcd13ifvqesg","pricing_plan_id":"cebpf4jnsgd1na2vs0mg"},{"bike_id":"3c305993-ee28-47ee-bb48-97f3c36375f2","system_id":"levelo_inurba_marseille","lat":43.292749,"lon":5.368398,"is_reserved":false,"is_disabled":false,"rental_uris":{"android":"levelo://app?vid=3c305993-ee28-47ee-bb48-97f3c36375f2","ios":"levelo://app?vid=3c305993-ee28-47ee-bb48-97f3c36375f2"},"vehicle_type_id":"4","last_reported":1710462829,"current_range_meters":31200,"station_id":"ce4bhbp2rcd13ifvqesg","pricing_plan_id":"cebpf4jnsgd1na2vs0mg"},{"bike_id":"6decaff5-54a6-49e5-a2c4-512750269452","system_id":"levelo_inurba_marseille","lat":43.29264,"lon":5.36849,"is_reserved":false,"is_disabled":false,"rental_uris":{"android":"levelo://app?vid=6decaff5-54a6-49e5-a2c4-512750269452","ios":"levelo://app?vid=6decaff5-54a6-49e5-a2c4-512750269452"},"vehicle_type_id":"4","last_reported":1710462829,"current_range_meters":21600,"station_id":"ce4bhbp2rcd13ifvqesg","pricing_plan_id":"cebpf4jnsgd1na2vs0mg"},{"bike_id":"7de9eb01-e44b-418a-9652-8eb8f4905c55","system_id":"levelo_inurba_marseille","lat":43.292749,"lon":5.368398,"is_reserved":false,"is_disabled":false,"rental_uris":{"android":"levelo://app?vid=7de9eb01-e44b-418a-9652-8eb8f4905c55","ios":"levelo://app?vid=7de9eb01-e44b-418a-9652-8eb8f4905c55"},"vehicle_type_id":"4","last_reported":1710462829,"current_range_meters":30000,"station_id":"ce4bhbp2rcd13ifvqesg","pricing_plan_id":"cebpf4jnsgd1na2vs0mg"},{"bike_id":"e9c3ba89-581d-4283-be81-d638f1d60939","system_id":"levelo_inurba_marseille","lat":43.292749,"lon":5.368402,"is_reserved":false,"is_disabled":false,"rental_uris":{"android":"levelo://app?vid=e9c3ba89-581d-4283-be81-d638f1d60939","ios":"levelo://app?vid=e9c3ba89-581d-4283-be81-d638f1d60939"},"vehicle_type_id":"4","last_reported":1710462829,"current_range_meters":31200,"station_id":"ce4bhbp2rcd13ifvqesg","pricing_plan_id":"cebpf4jnsgd1na2vs0mg"},{"bike_id":"295680c5-9600-46ac-bc10-77063f33ad59","system_id":"levelo_inurba_marseille","lat":43.293009,"lon":5.374584,"is_reserved":false,"is_disabled":false,"rental_uris":{"android":"levelo://app?vid=295680c5-9600-46ac-bc10-77063f33ad59","ios":"levelo://app?vid=295680c5-9600-46ac-bc10-77063f33ad59"},"vehicle_type_id":"4","last_reported":1710462829,"current_range_meters":3600,"station_id":"ce4bgi12rcd13ifvqb70","pricing_plan_id":"cebpf4jnsgd1na2vs0mg"},{"bike_id":"72ab34f1-0131-490c-b419-5d1c33cffd49","system_id":"levelo_inurba_marseille","lat":43.29299,"lon":5.37449,"is_reserved":false,"is_disabled":false,"rental_uris":{"android":"levelo://app?vid=72ab34f1-0131-490c-b419-5d1c33cffd49","ios":"levelo://app?vid=72ab34f1-0131-490c-b419-5d1c33cffd49"},"vehicle_type_id":"4","last_reported":1710462829,"current_range_meters":0,"station_id":"ce4bgi12rcd13ifvqb70","pricing_plan_id":"cebpf4jnsgd1na2vs0mg"},{"bike_id":"f6a3a278-9c9b-4a9e-8cd4-97ebd08115eb","system_id":"levelo_inurba_marseille","lat":43.305994,"lon":5.393687,"is_reserved":false,"is_disabled":false,"rental_uris":{"android":"levelo://app?vid=f6a3a278-9c9b-4a9e-8cd4-97ebd08115eb","ios":"levelo://app?vid=f6a3a278-9c9b-4a9e-8cd4-97ebd08115eb"},"vehicle_type_id":"4","last_reported":1710462829,"current_range_meters":31600,"station_id":"ce4bh0p2rcd13ifvqd80","pricing_plan_id":"cebpf4jnsgd1na2vs0mg"},{"bike_id":"4cb932d9-f90d-451b-8fe6-1c3c9e301e7c","system_id":"levelo_inurba_marseille","lat":43.305994,"lon":5.393687,"is_reserved":false,"is_disabled":false,"rental_uris":{"android":"levelo://app?vid=4cb932d9-f90d-451b-8fe6-1c3c9e301e7c","ios":"levelo://app?vid=4cb932d9-f90d-451b-8fe6-1c3c9e301e7c"},"vehicle_type_id":"4","last_reported":1710462829,"current_range_meters":29600,"station_id":"ce4bh0p2rcd13ifvqd80","pricing_plan_id":"cebpf4jnsgd1na2vs0mg"},{"bike_id":"30524ae3-c1e5-4eb3-89ab-5889faf94bfa","system_id":"levelo_inurba_marseille","lat":43.305994,"lon":5.393687,"is_reserved":false,"is_disabled":false,"rental_uris":{"android":"levelo://app?vid=30524ae3-c1e5-4eb3-89ab-5889faf94bfa","ios":"levelo://app?vid=30524ae3-c1e5-4eb3-89ab-5889faf94bfa"},"vehicle_type_id":"4","last_reported":1710462829,"current_range_meters":26400,"station_id":"ce4bh0p2rcd13ifvqd80","pricing_plan_id":"cebpf4jnsgd1na2vs0mg"},{"bike_id":"c2b6df0e-0cb9-4cc1-b753-043455729eac","system_id":"levelo_inurba_marseille","lat":43.305994,"lon":5.393687,"is_reserved":false,"is_disabled":false,"rental_uris":{"android":"levelo://app?vid=c2b6df0e-0cb9-4cc1-b753-043455729eac","ios":"levelo://app?vid=c2b6df0e-0cb9-4cc1-b753-043455729eac"},"vehicle_type_id":"4","last_reported":1710462829,"current_range_meters":31600,"station_id":"ce4bh0p2rcd13ifvqd80","pricing_plan_id":"cebpf4jnsgd1na2vs0mg"},{"bike_id":"40d6b308-b787-4729-a056-68297cf9b49d","system_id":"levelo_inurba_marseille","lat":43.305994,"lon":5.393687,"is_reserved":false,"is_disabled":false,"rental_uris":{"android":"levelo://app?vid=40d6b308-b787-4729-a056-68297cf9b49d","ios":"levelo://app?vid=40d6b308-b787-4729-a056-68297cf9b49d"},"vehicle_type_id":"4","last_reported":1710462829,"current_range_meters":18800,"station_id":"ce4bh0p2rcd13ifvqd80","pricing_plan_id":"cebpf4jnsgd1na2vs0mg"},{"bike_id":"bb09233d-443c-41d1-a864-6fb94193881e","system_id":"levelo_inurba_marseille","lat":43.305994,"lon":5.393687,"is_reserved":false,"is_disabled":false,"rental_uris":{"android":"levelo://app?vid=bb09233d-443c-41d1-a864-6fb94193881e","ios":"levelo://app?vid=bb09233d-443c-41d1-a864-6fb94193881e"},"vehicle_type_id":"4","last_reported":1710462829,"current_range_meters":20800,"station_id":"ce4bh0p2rcd13ifvqd80","pricing_plan_id":"cebpf4jnsgd1na2vs0mg"},{"bike_id":"b6bf0b8e-5a4c-4d2d-a338-aa4275fd69f0","system_id":"levelo_inurba_marseille","lat":43.305994,"lon":5.393687,"is_reserved":false,"is_disabled":false,"rental_uris":{"android":"levelo://app?vid=b6bf0b8e-5a4c-4d2d-a338-aa4275fd69f0","ios":"levelo://app?vid=b6bf0b8e-5a4c-4d2d-a338-aa4275fd69f0"},"vehicle_type_id":"4","last_reported":1710462829,"current_range_meters":17600,"station_id":"ce4bh0p2rcd13ifvqd80","pricing_plan_id":"cebpf4jnsgd1na2vs0mg"},{"bike_id":"14c87d6c-002f-4608-b9f0-afb8e2e150cb","system_id":"levelo_inurba_marseille","lat":43.302992,"lon":5.392136,"is_reserved":false,"is_disabled":false,"rental_uris":{"android":"levelo://app?vid=14c87d6c-002f-4608-b9f0-afb8e2e150cb","ios":"levelo://app?vid=14c87d6c-002f-4608-b9f0-afb8e2e150cb"},"vehicle_type_id":"4","last_reported":1710462829,"current_range_meters":26400,"station_id":"ce4bgkh2rcd13ifvqbk0","pricing_plan_id":"cebpf4jnsgd1na2vs0mg"},{"bike_id":"39c2fc3f-2343-49ff-91b1-e017e2ff9bf5","system_id":"levelo_inurba_marseille","lat":43.303002,"lon":5.392142,"is_reserved":false,"is_disabled":false,"rental_uris":{"android":"levelo://app?vid=39c2fc3f-2343-49ff-91b1-e017e2ff9bf5","ios":"levelo://app?vid=39c2fc3f-2343-49ff-91b1-e017e2ff9bf5"},"vehicle_type_id":"4","last_reported":1710462829,"current_range_meters":24800,"station_id":"ce4bgkh2rcd13ifvqbk0","pricing_plan_id":"cebpf4jnsgd1na2vs0mg"},{"bike_id":"af35f48f-3ff7-441d-8f49-261fa071f3ee","system_id":"levelo_inurba_marseille","lat":43.302992,"lon":5.392136,"is_reserved":false,"is_disabled":false,"rental_uris":{"android":"levelo://app?vid=af35f48f-3ff7-441d-8f49-261fa071f3ee","ios":"levelo://app?vid=af35f48f-3ff7-441d-8f49-261fa071f3ee"},"vehicle_type_id":"4","last_reported":1710462829,"current_range_meters":14800,"station_id":"ce4bgkh2rcd13ifvqbk0","pricing_plan_id":"cebpf4jnsgd1na2vs0mg"},{"bike_id":"db7251ec-2241-40c6-869d-6b9162291614","system_id":"levelo_inurba_marseille","lat":43.302992,"lon":5.392136,"is_reserved":false,"is_disabled":false,"rental_uris":{"android":"levelo://app?vid=db7251ec-2241-40c6-869d-6b9162291614","ios":"levelo://app?vid=db7251ec-2241-40c6-869d-6b9162291614"},"vehicle_type_id":"4","last_reported":1710462829,"current_range_meters":25600,"station_id":"ce4bgkh2rcd13ifvqbk0","pricing_plan_id":"cebpf4jnsgd1na2vs0mg"},{"bike_id":"eba0ec8e-1208-428a-aa81-5941ff893f33","system_id":"levelo_inurba_marseille","lat":43.303002,"lon":5.392142,"is_reserved":false,"is_disabled":false,"rental_uris":{"android":"levelo://app?vid=eba0ec8e-1208-428a-aa81-5941ff893f33","ios":"levelo://app?vid=eba0ec8e-1208-428a-aa81-5941ff893f33"},"vehicle_type_id":"4","last_reported":1710462829,"current_range_meters":800,"station_id":"ce4bgkh2rcd13ifvqbk0","pricing_plan_id":"cebpf4jnsgd1na2vs0mg"},{"bike_id":"1c961793-730a-496d-97f9-2e84449cbb93","system_id":"levelo_inurba_marseille","lat":43.300852,"lon":5.390859,"is_reserved":false,"is_disabled":false,"rental_uris":{"android":"levelo://app?vid=1c961793-730a-496d-97f9-2e84449cbb93","ios":"levelo://app?vid=1c961793-730a-496d-97f9-2e84449cbb93"},"vehicle_type_id":"4","last_reported":1710462829,"current_range_meters":32000,"station_id":"ce4bh192rcd13ifvqdb0","pricing_plan_id":"cebpf4jnsgd1na2vs0mg"},{"bike_id":"4113573a-1380-4a06-871e-7ab1d0409a59","system_id":"levelo_inurba_marseille","lat":43.300852,"lon":5.390859,"is_reserved":false,"is_disabled":false,"rental_uris":{"android":"levelo://app?vid=4113573a-1380-4a06-871e-7ab1d0409a59","ios":"levelo://app?vid=4113573a-1380-4a06-871e-7ab1d0409a59"},"vehicle_type_id":"4","last_reported":1710462829,"current_range_meters":22400,"station_id":"ce4bh192rcd13ifvqdb0","pricing_plan_id":"cebpf4jnsgd1na2vs0mg"},{"bike_id":"4d3152a7-6e5c-47d8-9d15-c84affc1871b","system_id":"levelo_inurba_marseille","lat":43.292311,"lon":5.360731,"is_reserved":false,"is_disabled":false,"rental_uris":{"android":"levelo://app?vid=4d3152a7-6e5c-47d8-9d15-c84affc1871b","ios":"levelo://app?vid=4d3152a7-6e5c-47d8-9d15-c84affc1871b"},"vehicle_type_id":"4","last_reported":1710462829,"current_range_meters":24800,"station_id":"ce4bhbh2rcd13ifvqeqg","pricing_plan_id":"cebpf4jnsgd1na2vs0mg"},{"bike_id":"952358d1-ad5e-463b-81e2-2a2048e30150","system_id":"levelo_inurba_marseille","lat":43.292311,"lon":5.360731,"is_reserved":false,"is_disabled":false,"rental_uris":{"android":"levelo://app?vid=952358d1-ad5e-463b-81e2-2a2048e30150","ios":"levelo://app?vid=952358d1-ad5e-463b-81e2-2a2048e30150"},"vehicle_type_id":"4","last_reported":1710462829,"current_range_meters":0,"station_id":"ce4bhbh2rcd13ifvqeqg","pricing_plan_id":"cebpf4jnsgd1na2vs0mg"},{"bike_id":"b5710577-5733-4b59-adec-0535c21ec56c","system_id":"levelo_inurba_marseille","lat":43.300852,"lon":5.390859,"is_reserved":false,"is_disabled":false,"rental_uris":{"android":"levelo://app?vid=b5710577-5733-4b59-adec-0535c21ec56c","ios":"levelo://app?vid=b5710577-5733-4b59-adec-0535c21ec56c"},"vehicle_type_id":"4","last_reported":1710462829,"current_range_meters":1600,"station_id":"ce4bh192rcd13ifvqdb0","pricing_plan_id":"cebpf4jnsgd1na2vs0mg"},{"bike_id":"5b425cbb-97e4-44fc-a18f-ff5cf4314408","system_id":"levelo_inurba_marseille","lat":43.300904,"lon":5.390826,"is_reserved":false,"is_disabled":false,"rental_uris":{"android":"levelo://app?vid=5b425cbb-97e4-44fc-a18f-ff5cf4314408","ios":"levelo://app?vid=5b425cbb-97e4-44fc-a18f-ff5cf4314408"},"vehicle_type_id":"4","last_reported":1710462829,"current_range_meters":20800,"station_id":"ce4bh192rcd13ifvqdb0","pricing_plan_id":"cebpf4jnsgd1na2vs0mg"},{"bike_id":"ac98ed1e-9e41-440d-abe8-a8a2b34b19ae","system_id":"levelo_inurba_marseille","lat":43.293009,"lon":5.374584,"is_reserved":false,"is_disabled":false,"rental_uris":{"android":"levelo://app?vid=ac98ed1e-9e41-440d-abe8-a8a2b34b19ae","ios":"levelo://app?vid=ac98ed1e-9e41-440d-abe8-a8a2b34b19ae"},"vehicle_type_id":"4","last_reported":1710462829,"current_range_meters":21200,"station_id":"ce4bgi12rcd13ifvqb70","pricing_plan_id":"cebpf4jnsgd1na2vs0mg"},{"bike_id":"f6d5133e-7c4a-4a4e-9b36-f20776666401","system_id":"levelo_inurba_marseille","lat":43.293009,"lon":5.374584,"is_reserved":false,"is_disabled":false,"rental_uris":{"android":"levelo://app?vid=f6d5133e-7c4a-4a4e-9b36-f20776666401","ios":"levelo://app?vid=f6d5133e-7c4a-4a4e-9b36-f20776666401"},"vehicle_type_id":"4","last_reported":1710462829,"current_range_meters":17600,"station_id":"ce4bgi12rcd13ifvqb70","pricing_plan_id":"cebpf4jnsgd1na2vs0mg"},{"bike_id":"156a9f7a-7d19-4f50-8ea9-f1f215e49311","system_id":"levelo_inurba_marseille","lat":43.291671,"lon":5.371575,"is_reserved":false,"is_disabled":false,"rental_uris":{"android":"levelo://app?vid=156a9f7a-7d19-4f50-8ea9-f1f215e49311","ios":"levelo://app?vid=156a9f7a-7d19-4f50-8ea9-f1f215e49311"},"vehicle_type_id":"4","last_reported":1710462829,"current_range_meters":10000,"station_id":"ce4bha92rcd13ifvqeh0","pricing_plan_id":"cebpf4jnsgd1na2vs0mg"},{"bike_id":"9a595b4b-d973-4723-8eca-83a661539d1e","system_id":"levelo_inurba_marseille","lat":43.298764,"lon":5.388973,"is_reserved":false,"is_disabled":false,"rental_uris":{"android":"levelo://app?vid=9a595b4b-d973-4723-8eca-83a661539d1e","ios":"levelo://app?vid=9a595b4b-d973-4723-8eca-83a661539d1e"},"vehicle_type_id":"4","last_reported":1710462829,"current_range_meters":0,"station_id":"ce4bh392rcd13ifvqdl0","pricing_plan_id":"cebpf4jnsgd1na2vs0mg"},{"bike_id":"88badb49-9c78-41b1-b017-ff00324a3c9c","system_id":"levelo_inurba_marseille","lat":43.298764,"lon":5.388973,"is_reserved":false,"is_disabled":false,"rental_uris":{"android":"levelo://app?vid=88badb49-9c78-41b1-b017-ff00324a3c9c","ios":"levelo://app?vid=88badb49-9c78-41b1-b017-ff00324a3c9c"},"vehicle_type_id":"4","last_reported":1710462829,"current_range_meters":0,"station_id":"ce4bh392rcd13ifvqdl0","pricing_plan_id":"cebpf4jnsgd1na2vs0mg"},{"bike_id":"12cf56c5-a741-49da-ad65-b5755c6a6cf0","system_id":"levelo_inurba_marseille","lat":43.30888,"lon":5.39634,"is_reserved":false,"is_disabled":false,"rental_uris":{"android":"levelo://app?vid=12cf56c5-a741-49da-ad65-b5755c6a6cf0","ios":"levelo://app?vid=12cf56c5-a741-49da-ad65-b5755c6a6cf0"},"vehicle_type_id":"4","last_reported":1710462829,"current_range_meters":29600,"station_id":"ce4bh012rcd13ifvqcv0","pricing_plan_id":"cebpf4jnsgd1na2vs0mg"},{"bike_id":"ad1d608f-303f-471a-a4b6-a2740df3622d","system_id":"levelo_inurba_marseille","lat":43.30883,"lon":5.39633,"is_reserved":false,"is_disabled":false,"rental_uris":{"android":"levelo://app?vid=ad1d608f-303f-471a-a4b6-a2740df3622d","ios":"levelo://app?vid=ad1d608f-303f-471a-a4b6-a2740df3622d"},"vehicle_type_id":"4","last_reported":1710462829,"current_range_meters":800,"station_id":"ce4bh012rcd13ifvqcv0","pricing_plan_id":"cebpf4jnsgd1na2vs0mg"},{"bike_id":"f78ed6a7-37ae-4ee8-b6f0-d2e28376b095","system_id":"levelo_inurba_marseille","lat":43.309038,"lon":5.396546,"is_reserved":false,"is_disabled":false,"rental_uris":{"android":"levelo://app?vid=f78ed6a7-37ae-4ee8-b6f0-d2e28376b095","ios":"levelo://app?vid=f78ed6a7-37ae-4ee8-b6f0-d2e28376b095"},"vehicle_type_id":"4","last_reported":1710462829,"current_range_meters":8800,"station_id":"ce4bh012rcd13ifvqcv0","pricing_plan_id":"cebpf4jnsgd1na2vs0mg"},{"bike_id":"adcba412-7584-41cf-9972-3136e26df5e9","system_id":"levelo_inurba_marseille","lat":43.309047,"lon":5.396551,"is_reserved":false,"is_disabled":false,"rental_uris":{"android":"levelo://app?vid=adcba412-7584-41cf-9972-3136e26df5e9","ios":"levelo://app?vid=adcba412-7584-41cf-9972-3136e26df5e9"},"vehicle_type_id":"4","last_reported":1710462829,"current_range_meters":23600,"station_id":"ce4bh012rcd13ifvqcv0","pricing_plan_id":"cebpf4jnsgd1na2vs0mg"},{"bike_id":"bacf3d81-7720-444c-b164-740d21c8ba41","system_id":"levelo_inurba_marseille","lat":43.309038,"lon":5.396546,"is_reserved":false,"is_disabled":false,"rental_uris":{"android":"levelo://app?vid=bacf3d81-7720-444c-b164-740d21c8ba41","ios":"levelo://app?vid=bacf3d81-7720-444c-b164-740d21c8ba41"},"vehicle_type_id":"4","last_reported":1710462829,"current_range_meters":9200,"station_id":"ce4bh012rcd13ifvqcv0","pricing_plan_id":"cebpf4jnsgd1na2vs0mg"},{"bike_id":"8592e26f-2fca-413f-80c0-00cb6f52e36c","system_id":"levelo_inurba_marseille","lat":43.309047,"lon":5.396551,"is_reserved":false,"is_disabled":false,"rental_uris":{"android":"levelo://app?vid=8592e26f-2fca-413f-80c0-00cb6f52e36c","ios":"levelo://app?vid=8592e26f-2fca-413f-80c0-00cb6f52e36c"},