{"last_updated":1732864181,"ttl":60,"version":"2.2","data":{"bikes":[{"bike_id":"1cea8d01-d8da-444c-9553-9394adb46ae5","system_id":"levelo_inurba_marseille","lat":43.323402,"lon":5.406371,"is_reserved":false,"is_disabled":false,"rental_uris":{"android":"levelo://app?vid=1cea8d01-d8da-444c-9553-9394adb46ae5","ios":"levelo://app?vid=1cea8d01-d8da-444c-9553-9394adb46ae5"},"vehicle_type_id":"4","last_reported":1732864182,"current_range_meters":37600,"station_id":"ce4bgk12rcd13ifvqbi0","pricing_plan_id":"cebpf4jnsgd1na2vs0mg"},{"bike_id":"9134a727-36b2-47e0-8869-da580f1ea09c","system_id":"levelo_inurba_marseille","lat":43.28354,"lon":5.38105,"is_reserved":false,"is_disabled":false,"rental_uris":{"android":"levelo://app?vid=9134a727-36b2-47e0-8869-da580f1ea09c","ios":"levelo://app?vid=9134a727-36b2-47e0-8869-da580f1ea09c"},"vehicle_type_id":"4","last_reported":1732864182,"current_range_meters":36400,"station_id":"ce4bh412rcd13ifvqdr0","pricing_plan_id":"cebpf4jnsgd1na2vs0mg"},{"bike_id":"c4a1fcdf-12f7-4113-888b-c49766903db9","system_id":"levelo_inurba_marseille","lat":43.28275,"lon":5.35075,"is_reserved":false,"is_disabled":false,"rental_uris":{"android":"levelo://app?vid=c4a1fcdf-12f7-4113-888b-c49766903db9","ios":"levelo://app?vid=c4a1fcdf-12f7-4113-888b-c49766903db9"},"vehicle_type_id":"4","last_reported":1732864182,"current_range_meters":37600,"station_id":"ce4bhbp2rcd13ifvqerg","pricing_plan_id":"cebpf4jnsgd1na2vs0mg"},{"bike_id":"b856c8b4-412d-4c25-bdd4-e6b29aed04cb","system_id":"levelo_inurba_marseille","lat":43.22932,"lon":5.35378,"is_reserved":false,"is_disabled":false,"rental_uris":{"android":"levelo://app?vid=b856c8b4-412d-4c25-bdd4-e6b29aed04cb","ios":"levelo://app?vid=b856c8b4-412d-4c25-bdd4-e6b29aed04cb"},"vehicle_type_id":"4","last_reported":1732864182,"current_range_meters":38800,"station_id":"cpo3532slgdg3j2ikp40","pricing_plan_id":"cebpf4jnsgd1na2vs0mg"},{"bike_id":"7ec19552-0eb1-46cf-a760-ff2f36294b30","system_id":"levelo_inurba_marseille","lat":43.30592,"lon":5.39343,"is_reserved":false,"is_disabled":false,"rental_uris":{"android":"levelo://app?vid=7ec19552-0eb1-46cf-a760-ff2f36294b30","ios":"levelo://app?vid=7ec19552-0eb1-46cf-a760-ff2f36294b30"},"vehicle_type_id":"4","last_reported":1732864182,"current_range_meters":7200,"station_id":"ce4bh0p2rcd13ifvqd80","pricing_plan_id":"cebpf4jnsgd1na2vs0mg"},{"bike_id":"abfff256-2185-492d-bd9b-f993dd63fa72","system_id":"levelo_inurba_marseille","lat":43.28351,"lon":5.38099,"is_reserved":false,"is_disabled":false,"rental_uris":{"android":"levelo://app?vid=abfff256-2185-492d-bd9b-f993dd63fa72","ios":"levelo://app?vid=abfff256-2185-492d-bd9b-f993dd63fa72"},"vehicle_type_id":"4","last_reported":1732864182,"current_range_meters":37600,"station_id":"ce4bh412rcd13ifvqdr0","pricing_plan_id":"cebpf4jnsgd1na2vs0mg"},{"bike_id":"8d406c1a-f24c-4769-a560-66f9c6249ad5","system_id":"levelo_inurba_marseille","lat":43.31711,"lon":5.43713,"is_reserved":false,"is_disabled":false,"rental_uris":{"android":"levelo://app?vid=8d406c1a-f24c-4769-a560-66f9c6249ad5","ios":"levelo://app?vid=8d406c1a-f24c-4769-a560-66f9c6249ad5"},"vehicle_type_id":"4","last_reported":1732864182,"current_range_meters":16400,"station_id":"ce4bhp92rcd13ifvqhcg","pricing_plan_id":"cebpf4jnsgd1na2vs0mg"},{"bike_id":"742641cb-ede7-44c9-9eca-ae4b65bf9ac5","system_id":"levelo_inurba_marseille","lat":43.25597,"lon":5.38227,"is_reserved":false,"is_disabled":false,"rental_uris":{"android":"levelo://app?vid=742641cb-ede7-44c9-9eca-ae4b65bf9ac5","ios":"levelo://app?vid=742641cb-ede7-44c9-9eca-ae4b65bf9ac5"},"vehicle_type_id":"4","last_reported":1732864182,"current_range_meters":21600,"station_id":"ce4bhih2rcd13ifvqfs0","pricing_plan_id":"cebpf4jnsgd1na2vs0mg"},{"bike_id":"fac63031-3de9-41dc-941a-a395646bc4e4","system_id":"levelo_inurba_marseille","lat":43.25573,"lon":5.38234,"is_reserved":false,"is_disabled":false,"rental_uris":{"android":"levelo://app?vid=fac63031-3de9-41dc-941a-a395646bc4e4","ios":"levelo://app?vid=fac63031-3de9-41dc-941a-a395646bc4e4"},"vehicle_type_id":"4","last_reported":1732864182,"current_range_meters":7200,"station_id":"ce4bhih2rcd13ifvqfs0","pricing_plan_id":"cebpf4jnsgd1na2vs0mg"},{"bike_id":"78228560-6fbf-4122-9d03-128a049c2bf9","system_id":"levelo_inurba_marseille","lat":43.23188,"lon":5.3999,"is_reserved":false,"is_disabled":false,"rental_uris":{"android":"levelo://app?vid=78228560-6fbf-4122-9d03-128a049c2bf9","ios":"levelo://app?vid=78228560-6fbf-4122-9d03-128a049c2bf9"},"vehicle_type_id":"4","last_reported":1732864182,"current_range_meters":38000,"station_id":"ce4bhn12rcd13ifvqgqg","pricing_plan_id":"cebpf4jnsgd1na2vs0mg"},{"bike_id":"c4fbaeb3-8553-46de-a365-37ff5d9f95f9","system_id":"levelo_inurba_marseille","lat":43.25936,"lon":5.40909,"is_reserved":false,"is_disabled":false,"rental_uris":{"android":"levelo://app?vid=c4fbaeb3-8553-46de-a365-37ff5d9f95f9","ios":"levelo://app?vid=c4fbaeb3-8553-46de-a365-37ff5d9f95f9"},"vehicle_type_id":"4","last_reported":1732864182,"current_range_meters":19600,"station_id":"ce4bhm92rcd13ifvqglg","pricing_plan_id":"cebpf4jnsgd1na2vs0mg"},{"bike_id":"0bb615d3-a859-46b8-8041-b46f9b3edbf9","system_id":"levelo_inurba_marseille","lat":43.30473,"lon":5.3791,"is_reserved":false,"is_disabled":false,"rental_uris":{"android":"levelo://app?vid=0bb615d3-a859-46b8-8041-b46f9b3edbf9","ios":"levelo://app?vid=0bb615d3-a859-46b8-8041-b46f9b3edbf9"},"vehicle_type_id":"4","last_reported":1732864182,"current_range_meters":38800,"station_id":"ce4bgup2rcd13ifvqcn0","pricing_plan_id":"cebpf4jnsgd1na2vs0mg"},{"bike_id":"68a7b0bd-9e9a-49bf-955b-3225848899c1","system_id":"levelo_inurba_marseille","lat":43.29794,"lon":5.38107,"is_reserved":false,"is_disabled":false,"rental_uris":{"android":"levelo://app?vid=68a7b0bd-9e9a-49bf-955b-3225848899c1","ios":"levelo://app?vid=68a7b0bd-9e9a-49bf-955b-3225848899c1"},"vehicle_type_id":"4","last_reported":1732864182,"current_range_meters":30400,"station_id":"ce4bgip2rcd13ifvqbb0","pricing_plan_id":"cebpf4jnsgd1na2vs0mg"},{"bike_id":"d42e128e-48fb-47a8-bcaa-caad8001c068","system_id":"levelo_inurba_marseille","lat":43.28945,"lon":5.36422,"is_reserved":false,"is_disabled":false,"rental_uris":{"android":"levelo://app?vid=d42e128e-48fb-47a8-bcaa-caad8001c068","ios":"levelo://app?vid=d42e128e-48fb-47a8-bcaa-caad8001c068"},"vehicle_type_id":"4","last_reported":1732864182,"current_range_meters":28800,"station_id":"ce4bhc92rcd13ifvqetg","pricing_plan_id":"cebpf4jnsgd1na2vs0mg"},{"bike_id":"247caaec-966c-4c99-9156-317327c27d5f","system_id":"levelo_inurba_marseille","lat":43.31529,"lon":5.38036,"is_reserved":false,"is_disabled":false,"rental_uris":{"android":"levelo://app?vid=247caaec-966c-4c99-9156-317327c27d5f","ios":"levelo://app?vid=247caaec-966c-4c99-9156-317327c27d5f"},"vehicle_type_id":"4","last_reported":1732864182,"current_range_meters":39200,"station_id":"ce4bhsp2rcd13ifvqi50","pricing_plan_id":"cebpf4jnsgd1na2vs0mg"},{"bike_id":"65b7a694-612f-4c4b-8623-b7530078c2ae","system_id":"levelo_inurba_marseille","lat":43.29052,"lon":5.35881,"is_reserved":false,"is_disabled":false,"rental_uris":{"android":"levelo://app?vid=65b7a694-612f-4c4b-8623-b7530078c2ae","ios":"levelo://app?vid=65b7a694-612f-4c4b-8623-b7530078c2ae"},"vehicle_type_id":"4","last_reported":1732864182,"current_range_meters":38800,"station_id":"ce4bha92rcd13ifvqeg0","pricing_plan_id":"cebpf4jnsgd1na2vs0mg"},{"bike_id":"613f69a0-ba4f-4ba8-a88b-1c41d1f94dc6","system_id":"levelo_inurba_marseille","lat":43.29805,"lon":5.3809,"is_reserved":false,"is_disabled":false,"rental_uris":{"android":"levelo://app?vid=613f69a0-ba4f-4ba8-a88b-1c41d1f94dc6","ios":"levelo://app?vid=613f69a0-ba4f-4ba8-a88b-1c41d1f94dc6"},"vehicle_type_id":"4","last_reported":1732864182,"current_range_meters":38000,"station_id":"ce4bgip2rcd13ifvqbb0","pricing_plan_id":"cebpf4jnsgd1na2vs0mg"},{"bike_id":"ce15a521-8a1d-47b7-92c8-091ca367d00e","system_id":"levelo_inurba_marseille","lat":43.33749,"lon":5.37439,"is_reserved":false,"is_disabled":false,"rental_uris":{"android":"levelo://app?vid=ce15a521-8a1d-47b7-92c8-091ca367d00e","ios":"levelo://app?vid=ce15a521-8a1d-47b7-92c8-091ca367d00e"},"vehicle_type_id":"4","last_reported":1732864182,"current_range_meters":34800,"station_id":"","pricing_plan_id":"cebpf4jnsgd1na2vs0mg"},{"bike_id":"6413531c-01cc-41f1-a5f0-ebcd1db10fcc","system_id":"levelo_inurba_marseille","lat":43.265,"lon":5.39538,"is_reserved":false,"is_disabled":false,"rental_uris":{"android":"levelo://app?vid=6413531c-01cc-41f1-a5f0-ebcd1db10fcc","ios":"levelo://app?vid=6413531c-01cc-41f1-a5f0-ebcd1db10fcc"},"vehicle_type_id":"4","last_reported":1732864182,"current_range_meters":5600,"station_id":"ce4bhi12rcd13ifvqfq0","pricing_plan_id":"cebpf4jnsgd1na2vs0mg"},{"bike_id":"a8cfb7c5-59c0-4772-a793-b840317f8234","system_id":"levelo_inurba_marseille","lat":43.2925,"lon":5.40899,"is_reserved":false,"is_disabled":true,"rental_uris":{"android":"levelo://app?vid=a8cfb7c5-59c0-4772-a793-b840317f8234","ios":"levelo://app?vid=a8cfb7c5-59c0-4772-a793-b840317f8234"},"vehicle_type_id":"4","last_reported":1732864182,"current_range_meters":38800,"station_id":"ce4bh192rcd13ifvqdc0","pricing_plan_id":"cebpf4jnsgd1na2vs0mg"},{"bike_id":"ba2d1a62-e632-4169-9a28-b83f6acba689","system_id":"levelo_inurba_marseille","lat":43.26328,"lon":5.40471,"is_reserved":false,"is_disabled":true,"rental_uris":{"android":"levelo://app?vid=ba2d1a62-e632-4169-9a28-b83f6acba689","ios":"levelo://app?vid=ba2d1a62-e632-4169-9a28-b83f6acba689"},"vehicle_type_id":"4","last_reported":1732864182,"current_range_meters":0,"station_id":"","pricing_plan_id":"cebpf4jnsgd1na2vs0mg"},{"bike_id":"689aaf52-35d8-4238-985b-79edfc4b82f6","system_id":"levelo_inurba_marseille","lat":43.27917,"lon":5.38003,"is_reserved":false,"is_disabled":false,"rental_uris":{"android":"levelo://app?vid=689aaf52-35d8-4238-985b-79edfc4b82f6","ios":"levelo://app?vid=689aaf52-35d8-4238-985b-79edfc4b82f6"},"vehicle_type_id":"4","last_reported":1732864182,"current_range_meters":37600,"station_id":"ce4bhf92rcd13ifvqf50","pricing_plan_id":"cebpf4jnsgd1na2vs0mg"},{"bike_id":"58267a27-a2bf-40fd-a0c3-5a18872c69fe","system_id":"levelo_inurba_marseille","lat":43.27912,"lon":5.38009,"is_reserved":false,"is_disabled":false,"rental_uris":{"android":"levelo://app?vid=58267a27-a2bf-40fd-a0c3-5a18872c69fe","ios":"levelo://app?vid=58267a27-a2bf-40fd-a0c3-5a18872c69fe"},"vehicle_type_id":"4","last_reported":1732864182,"current_range_meters":40000,"station_id":"ce4bhf92rcd13ifvqf50","pricing_plan_id":"cebpf4jnsgd1na2vs0mg"},{"bike_id":"281c75cd-45e8-4164-982f-b83cd650e222","system_id":"levelo_inurba_marseille","lat":43.31688,"lon":5.40475,"is_reserved":false,"is_disabled":false,"rental_uris":{"android":"levelo://app?vid=281c75cd-45e8-4164-982f-b83cd650e222","ios":"levelo://app?vid=281c75cd-45e8-4164-982f-b83cd650e222"},"vehicle_type_id":"4","last_reported":1732864182,"current_range_meters":11600,"station_id":"ce4bh012rcd13ifvqd00","pricing_plan_id":"cebpf4jnsgd1na2vs0mg"},{"bike_id":"ff9a1ec5-be80-43ec-9b6e-d2bb637a4f30","system_id":"levelo_inurba_marseille","lat":43.28714,"lon":5.39998,"is_reserved":false,"is_disabled":true,"rental_uris":{"android":"levelo://app?vid=ff9a1ec5-be80-43ec-9b6e-d2bb637a4f30","ios":"levelo://app?vid=ff9a1ec5-be80-43ec-9b6e-d2bb637a4f30"},"vehicle_type_id":"4","last_reported":1732864182,"current_range_meters":1600,"station_id":"ce4bho92rcd13ifvqh3g","pricing_plan_id":"cebpf4jnsgd1na2vs0mg"},{"bike_id":"41fdb599-4c70-4acd-afad-f5d4d0c95582","system_id":"levelo_inurba_marseille","lat":43.301342,"lon":5.374434,"is_reserved":false,"is_disabled":false,"rental_uris":{"android":"levelo://app?vid=41fdb599-4c70-4acd-afad-f5d4d0c95582","ios":"levelo://app?vid=41fdb599-4c70-4acd-afad-f5d4d0c95582"},"vehicle_type_id":"4","last_reported":1732864182,"current_range_meters":30400,"station_id":"ce4bgs92rcd13ifvqcc0","pricing_plan_id":"cebpf4jnsgd1na2vs0mg"},{"bike_id":"6f7949e1-de87-4a49-8620-fec27e04447f","system_id":"levelo_inurba_marseille","lat":43.33734,"lon":5.39188,"is_reserved":false,"is_disabled":false,"rental_uris":{"android":"levelo://app?vid=6f7949e1-de87-4a49-8620-fec27e04447f","ios":"levelo://app?vid=6f7949e1-de87-4a49-8620-fec27e04447f"},"vehicle_type_id":"4","last_reported":1732864182,"current_range_meters":32000,"station_id":"ce4bhr92rcd13ifvqhsg","pricing_plan_id":"cebpf4jnsgd1na2vs0mg"},{"bike_id":"090f7ffe-2968-4f15-8c8b-e91672620cee","system_id":"levelo_inurba_marseille","lat":43.26496,"lon":5.39539,"is_reserved":false,"is_disabled":false,"rental_uris":{"android":"levelo://app?vid=090f7ffe-2968-4f15-8c8b-e91672620cee","ios":"levelo://app?vid=090f7ffe-2968-4f15-8c8b-e91672620cee"},"vehicle_type_id":"4","last_reported":1732864182,"current_range_meters":24800,"station_id":"ce4bhi12rcd13ifvqfq0","pricing_plan_id":"cebpf4jnsgd1na2vs0mg"},{"bike_id":"d6af473c-317d-44a4-ba58-092abf84584f","system_id":"levelo_inurba_marseille","lat":43.22933,"lon":5.3538,"is_reserved":false,"is_disabled":false,"rental_uris":{"android":"levelo://app?vid=d6af473c-317d-44a4-ba58-092abf84584f","ios":"levelo://app?vid=d6af473c-317d-44a4-ba58-092abf84584f"},"vehicle_type_id":"4","last_reported":1732864182,"current_range_meters":38800,"station_id":"cpo3532slgdg3j2ikp40","pricing_plan_id":"cebpf4jnsgd1na2vs0mg"},{"bike_id":"2aa3eeb0-144d-43de-91b5-edf07e9cb90a","system_id":"levelo_inurba_marseille","lat":43.289407,"lon":5.396359,"is_reserved":false,"is_disabled":true,"rental_uris":{"android":"levelo://app?vid=2aa3eeb0-144d-43de-91b5-edf07e9cb90a","ios":"levelo://app?vid=2aa3eeb0-144d-43de-91b5-edf07e9cb90a"},"vehicle_type_id":"4","last_reported":1732864182,"current_range_meters":30400,"station_id":"ce4bh3h2rcd13ifvqdn0","pricing_plan_id":"cebpf4jnsgd1na2vs0mg"},{"bike_id":"d873b31d-bfeb-45ba-95cb-ddd4b051333e","system_id":"levelo_inurba_marseille","lat":43.30139,"lon":5.38133,"is_reserved":false,"is_disabled":true,"rental_uris":{"android":"levelo://app?vid=d873b31d-bfeb-45ba-95cb-ddd4b051333e","ios":"levelo://app?vid=d873b31d-bfeb-45ba-95cb-ddd4b051333e"},"vehicle_type_id":"4","last_reported":1732864182,"current_range_meters":36400,"station_id":"ce4bgjp2rcd13ifvqbh0","pricing_plan_id":"cebpf4jnsgd1na2vs0mg"},{"bike_id":"0dce51df-dda1-4b82-a09f-af3670b57517","system_id":"levelo_inurba_marseille","lat":43.24076,"lon":5.37758,"is_reserved":false,"is_disabled":false,"rental_uris":{"android":"levelo://app?vid=0dce51df-dda1-4b82-a09f-af3670b57517","ios":"levelo://app?vid=0dce51df-dda1-4b82-a09f-af3670b57517"},"vehicle_type_id":"4","last_reported":1732864182,"current_range_meters":36400,"station_id":"ce4bhnp2rcd13ifvqgvg","pricing_plan_id":"cebpf4jnsgd1na2vs0mg"},{"bike_id":"92bc9594-f8bb-42a0-912e-7479596f6cb4","system_id":"levelo_inurba_marseille","lat":43.30594,"lon":5.39359,"is_reserved":false,"is_disabled":false,"rental_uris":{"android":"levelo://app?vid=92bc9594-f8bb-42a0-912e-7479596f6cb4","ios":"levelo://app?vid=92bc9594-f8bb-42a0-912e-7479596f6cb4"},"vehicle_type_id":"4","last_reported":1732864182,"current_range_meters":32000,"station_id":"ce4bh0p2rcd13ifvqd80","pricing_plan_id":"cebpf4jnsgd1na2vs0mg"},{"bike_id":"698d8235-243a-42fe-a642-45e8bd12a3e0","system_id":"levelo_inurba_marseille","lat":43.3107,"lon":5.38342,"is_reserved":false,"is_disabled":false,"rental_uris":{"android":"levelo://app?vid=698d8235-243a-42fe-a642-45e8bd12a3e0","ios":"levelo://app?vid=698d8235-243a-42fe-a642-45e8bd12a3e0"},"vehicle_type_id":"4","last_reported":1732864182,"current_range_meters":26800,"station_id":"ce4bgv92rcd13ifvqcr0","pricing_plan_id":"cebpf4jnsgd1na2vs0mg"},{"bike_id":"95bce0c8-7aac-4804-81c7-e4d0b22cb60c","system_id":"levelo_inurba_marseille","lat":43.23941,"lon":5.36675,"is_reserved":false,"is_disabled":false,"rental_uris":{"android":"levelo://app?vid=95bce0c8-7aac-4804-81c7-e4d0b22cb60c","ios":"levelo://app?vid=95bce0c8-7aac-4804-81c7-e4d0b22cb60c"},"vehicle_type_id":"4","last_reported":1732864182,"current_range_meters":38400,"station_id":"ce4bhi12rcd13ifvqfp0","pricing_plan_id":"cebpf4jnsgd1na2vs0mg"},{"bike_id":"9244b89b-f36c-48db-97f3-7bec24ee66d4","system_id":"levelo_inurba_marseille","lat":43.31362,"lon":5.38491,"is_reserved":false,"is_disabled":true,"rental_uris":{"android":"levelo://app?vid=9244b89b-f36c-48db-97f3-7bec24ee66d4","ios":"levelo://app?vid=9244b89b-f36c-48db-97f3-7bec24ee66d4"},"vehicle_type_id":"4","last_reported":1732864182,"current_range_meters":0,"station_id":"ce4bgt92rcd13ifvqcf0","pricing_plan_id":"cebpf4jnsgd1na2vs0mg"},{"bike_id":"ed4237d4-30fc-4f62-8af6-4b4a55da31fc","system_id":"levelo_inurba_marseille","lat":43.27612,"lon":5.36114,"is_reserved":false,"is_disabled":false,"rental_uris":{"android":"levelo://app?vid=ed4237d4-30fc-4f62-8af6-4b4a55da31fc","ios":"levelo://app?vid=ed4237d4-30fc-4f62-8af6-4b4a55da31fc"},"vehicle_type_id":"4","last_reported":1732864182,"current_range_meters":36800,"station_id":"ce4bgj92rcd13ifvqbe0","pricing_plan_id":"cebpf4jnsgd1na2vs0mg"},{"bike_id":"d18e2523-52ea-42a8-90cc-fea9d3aa6f76","system_id":"levelo_inurba_marseille","lat":43.28342,"lon":5.38116,"is_reserved":false,"is_disabled":false,"rental_uris":{"android":"levelo://app?vid=d18e2523-52ea-42a8-90cc-fea9d3aa6f76","ios":"levelo://app?vid=d18e2523-52ea-42a8-90cc-fea9d3aa6f76"},"vehicle_type_id":"4","last_reported":1732864182,"current_range_meters":26000,"station_id":"ce4bh412rcd13ifvqdr0","pricing_plan_id":"cebpf4jnsgd1na2vs0mg"},{"bike_id":"26e4b19e-f41d-4cd7-8a2f-105102ed5e09","system_id":"levelo_inurba_marseille","lat":43.31493,"lon":5.37315,"is_reserved":false,"is_disabled":false,"rental_uris":{"android":"levelo://app?vid=26e4b19e-f41d-4cd7-8a2f-105102ed5e09","ios":"levelo://app?vid=26e4b19e-f41d-4cd7-8a2f-105102ed5e09"},"vehicle_type_id":"4","last_reported":1732864182,"current_range_meters":38800,"station_id":"ce4bgt12rcd13ifvqcd0","pricing_plan_id":"cebpf4jnsgd1na2vs0mg"},{"bike_id":"4709c438-f4af-415a-a919-d27302b75dca","system_id":"levelo_inurba_marseille","lat":43.23194,"lon":5.35553,"is_reserved":false,"is_disabled":false,"rental_uris":{"android":"levelo://app?vid=4709c438-f4af-415a-a919-d27302b75dca","ios":"levelo://app?vid=4709c438-f4af-415a-a919-d27302b75dca"},"vehicle_type_id":"4","last_reported":1732864182,"current_range_meters":38800,"station_id":"ce4bhu92rcd13ifvqi70","pricing_plan_id":"cebpf4jnsgd1na2vs0mg"},{"bike_id":"24fbed4a-ccdf-495e-9862-dade3be413cd","system_id":"levelo_inurba_marseille","lat":43.2961,"lon":5.37715,"is_reserved":false,"is_disabled":true,"rental_uris":{"android":"levelo://app?vid=24fbed4a-ccdf-495e-9862-dade3be413cd","ios":"levelo://app?vid=24fbed4a-ccdf-495e-9862-dade3be413cd"},"vehicle_type_id":"4","last_reported":1732864182,"current_range_meters":38400,"station_id":"ce4bgi92rcd13ifvqb90","pricing_plan_id":"cebpf4jnsgd1na2vs0mg"},{"bike_id":"a6dc4e35-fd04-42cd-b5e5-6111ed261c10","system_id":"levelo_inurba_marseille","lat":43.27384,"lon":5.36253,"is_reserved":false,"is_disabled":false,"rental_uris":{"android":"levelo://app?vid=a6dc4e35-fd04-42cd-b5e5-6111ed261c10","ios":"levelo://app?vid=a6dc4e35-fd04-42cd-b5e5-6111ed261c10"},"vehicle_type_id":"4","last_reported":1732864182,"current_range_meters":6000,"station_id":"ce4bhbh2rcd13ifvqeo0","pricing_plan_id":"cebpf4jnsgd1na2vs0mg"},{"bike_id":"9c52d97c-8608-4fd6-9ccf-8dee20c804dc","system_id":"levelo_inurba_marseille","lat":43.28969,"lon":5.37815,"is_reserved":false,"is_disabled":false,"rental_uris":{"android":"levelo://app?vid=9c52d97c-8608-4fd6-9ccf-8dee20c804dc","ios":"levelo://app?vid=9c52d97c-8608-4fd6-9ccf-8dee20c804dc"},"vehicle_type_id":"4","last_reported":1732864182,"current_range_meters":12400,"station_id":"ce4bh9p2rcd13ifvqed0","pricing_plan_id":"cebpf4jnsgd1na2vs0mg"},{"bike_id":"b1ffcc77-1925-4e8e-84f2-18b7af90c571","system_id":"levelo_inurba_marseille","lat":43.29575,"lon":5.3998,"is_reserved":false,"is_disabled":true,"rental_uris":{"android":"levelo://app?vid=b1ffcc77-1925-4e8e-84f2-18b7af90c571","ios":"levelo://app?vid=b1ffcc77-1925-4e8e-84f2-18b7af90c571"},"vehicle_type_id":"4","last_reported":1732864182,"current_range_meters":0,"station_id":"ce4bh312rcd13ifvqdj0","pricing_plan_id":"cebpf4jnsgd1na2vs0mg"},{"bike_id":"421a12fb-dd4d-49f0-9db9-07c3584a2042","system_id":"levelo_inurba_marseille","lat":43.30309,"lon":5.36882,"is_reserved":false,"is_disabled":false,"rental_uris":{"android":"levelo://app?vid=421a12fb-dd4d-49f0-9db9-07c3584a2042","ios":"levelo://app?vid=421a12fb-dd4d-49f0-9db9-07c3584a2042"},"vehicle_type_id":"4","last_reported":1732864182,"current_range_meters":28000,"station_id":"ce4bgqh2rcd13ifvqc5g","pricing_plan_id":"cebpf4jnsgd1na2vs0mg"},{"bike_id":"2c2dbeed-d8b9-4443-8bc1-facb2c0b2be9","system_id":"levelo_inurba_marseille","lat":43.30443,"lon":5.36866,"is_reserved":false,"is_disabled":false,"rental_uris":{"android":"levelo://app?vid=2c2dbeed-d8b9-4443-8bc1-facb2c0b2be9","ios":"levelo://app?vid=2c2dbeed-d8b9-4443-8bc1-facb2c0b2be9"},"vehicle_type_id":"4","last_reported":1732864182,"current_range_meters":8800,"station_id":"","pricing_plan_id":"cebpf4jnsgd1na2vs0mg"},{"bike_id":"9270cc79-8dd8-4870-9e9f-8a3175a92a84","system_id":"levelo_inurba_marseille","lat":43.26562,"lon":5.39022,"is_reserved":false,"is_disabled":false,"rental_uris":{"android":"levelo://app?vid=9270cc79-8dd8-4870-9e9f-8a3175a92a84","ios":"levelo://app?vid=9270cc79-8dd8-4870-9e9f-8a3175a92a84"},"vehicle_type_id":"4","last_reported":1732864182,"current_range_meters":35600,"station_id":"ce4bhe12rcd13ifvqf30","pricing_plan_id":"cebpf4jnsgd1na2vs0mg"},{"bike_id":"b053b308-df93-40ed-81b7-cc6347a6608e","system_id":"levelo_inurba_marseille","lat":43.286663,"lon":5.363546,"is_reserved":false,"is_disabled":true,"rental_uris":{"android":"levelo://app?vid=b053b308-df93-40ed-81b7-cc6347a6608e","ios":"levelo://app?vid=b053b308-df93-40ed-81b7-cc6347a6608e"},"vehicle_type_id":"4","last_reported":1732864182,"current_range_meters":38800,"station_id":"ce4bhah2rcd13ifvqej0","pricing_plan_id":"cebpf4jnsgd1na2vs0mg"},{"bike_id":"c85878bc-693a-4ab5-85ae-8e05735ed7c8","system_id":"levelo_inurba_marseille","lat":43.26956,"lon":5.38636,"is_reserved":false,"is_disabled":false,"rental_uris":{"android":"levelo://app?vid=c85878bc-693a-4ab5-85ae-8e05735ed7c8","ios":"levelo://app?vid=c85878bc-693a-4ab5-85ae-8e05735ed7c8"},"vehicle_type_id":"4","last_reported":1732864182,"current_range_meters":29600,"station_id":"ce4bhh92rcd13ifvqfh0","pricing_plan_id":"cebpf4jnsgd1na2vs0mg"},{"bike_id":"d43bcf0d-16aa-4132-bee9-932c9bcef8f2","system_id":"levelo_inurba_marseille","lat":43.32366,"lon":5.38882,"is_reserved":false,"is_disabled":false,"rental_uris":{"android":"levelo://app?vid=d43bcf0d-16aa-4132-bee9-932c9bcef8f2","ios":"levelo://app?vid=d43bcf0d-16aa-4132-bee9-932c9bcef8f2"},"vehicle_type_id":"4","last_reported":1732864182,"current_range_meters":38400,"station_id":"ce4bhqp2rcd13ifvqhog","pricing_plan_id":"cebpf4jnsgd1na2vs0mg"},{"bike_id":"94c3fc17-4e2f-4a0a-b7df-8ad71336008b","system_id":"levelo_inurba_marseille","lat":43.24072,"lon":5.37765,"is_reserved":false,"is_disabled":false,"rental_uris":{"android":"levelo://app?vid=94c3fc17-4e2f-4a0a-b7df-8ad71336008b","ios":"levelo://app?vid=94c3fc17-4e2f-4a0a-b7df-8ad71336008b"},"vehicle_type_id":"4","last_reported":1732864182,"current_range_meters":4400,"station_id":"ce4bhnp2rcd13ifvqgvg","pricing_plan_id":"cebpf4jnsgd1na2vs0mg"},{"bike_id":"db40ca1f-b7d1-44e8-9b75-dd8786aa97db","system_id":"levelo_inurba_marseille","lat":43.28156,"lon":5.42633,"is_reserved":false,"is_disabled":false,"rental_uris":{"android":"levelo://app?vid=db40ca1f-b7d1-44e8-9b75-dd8786aa97db","ios":"levelo://app?vid=db40ca1f-b7d1-44e8-9b75-dd8786aa97db"},"vehicle_type_id":"4","last_reported":1732864182,"current_range_meters":27600,"station_id":"ce4bhnh2rcd13ifvqgug","pricing_plan_id":"cebpf4jnsgd1na2vs0mg"},{"bike_id":"a2f55e61-c857-45c2-b0a3-e646cd7988e4","system_id":"levelo_inurba_marseille","lat":43.304627,"lon":5.37919,"is_reserved":false,"is_disabled":false,"rental_uris":{"android":"levelo://app?vid=a2f55e61-c857-45c2-b0a3-e646cd7988e4","ios":"levelo://app?vid=a2f55e61-c857-45c2-b0a3-e646cd7988e4"},"vehicle_type_id":"4","last_reported":1732864182,"current_range_meters":36800,"station_id":"ce4bgup2rcd13ifvqcn0","pricing_plan_id":"cebpf4jnsgd1na2vs0mg"},{"bike_id":"8e2041ad-6bf5-4186-becc-025de1939b87","system_id":"levelo_inurba_marseille","lat":43.28459,"lon":5.35893,"is_reserved":false,"is_disabled":true,"rental_uris":{"android":"levelo://app?vid=8e2041ad-6bf5-4186-becc-025de1939b87","ios":"levelo://app?vid=8e2041ad-6bf5-4186-becc-025de1939b87"},"vehicle_type_id":"4","last_reported":1732864182,"current_range_meters":10800,"station_id":"ce4bhah2rcd13ifvqei0","pricing_plan_id":"cebpf4jnsgd1na2vs0mg"},{"bike_id":"bc749360-3ce4-4dd6-a0ac-83aa82c323a7","system_id":"levelo_inurba_marseille","lat":43.28154,"lon":5.4264,"is_reserved":false,"is_disabled":false,"rental_uris":{"android":"levelo://app?vid=bc749360-3ce4-4dd6-a0ac-83aa82c323a7","ios":"levelo://app?vid=bc749360-3ce4-4dd6-a0ac-83aa82c323a7"},"vehicle_type_id":"4","last_reported":1732864182,"current_range_meters":11600,"station_id":"ce4bhnh2rcd13ifvqgug","pricing_plan_id":"cebpf4jnsgd1na2vs0mg"},{"bike_id":"422d452f-17cc-4565-afd8-833a3bc96a0e","system_id":"levelo_inurba_marseille","lat":43.301361,"lon":5.398751,"is_reserved":false,"is_disabled":true,"rental_uris":{"android":"levelo://app?vid=422d452f-17cc-4565-afd8-833a3bc96a0e","ios":"levelo://app?vid=422d452f-17cc-4565-afd8-833a3bc96a0e"},"vehicle_type_id":"4","last_reported":1732864182,"current_range_meters":24000,"station_id":"ce4bh0h2rcd13ifvqd40","pricing_plan_id":"cebpf4jnsgd1na2vs0mg"},{"bike_id":"dcee47ea-c950-4870-9c89-79b44232ba85","system_id":"levelo_inurba_marseille","lat":43.31713,"lon":5.42401,"is_reserved":false,"is_disabled":false,"rental_uris":{"android":"levelo://app?vid=dcee47ea-c950-4870-9c89-79b44232ba85","ios":"levelo://app?vid=dcee47ea-c950-4870-9c89-79b44232ba85"},"vehicle_type_id":"4","last_reported":1732864182,"current_range_meters":38800,"station_id":"ce4bhp92rcd13ifvqhbg","pricing_plan_id":"cebpf4jnsgd1na2vs0mg"},{"bike_id":"4d4c884f-6933-49c0-8899-f9856d90f44d","system_id":"levelo_inurba_marseille","lat":43.29748,"lon":5.37971,"is_reserved":false,"is_disabled":true,"rental_uris":{"android":"levelo://app?vid=4d4c884f-6933-49c0-8899-f9856d90f44d","ios":"levelo://app?vid=4d4c884f-6933-49c0-8899-f9856d90f44d"},"vehicle_type_id":"4","last_reported":1732864182,"current_range_meters":0,"station_id":"","pricing_plan_id":"cebpf4jnsgd1na2vs0mg"},{"bike_id":"0a6a01b8-ebc9-4549-9bc8-25449ed3a98c","system_id":"levelo_inurba_marseille","lat":43.31999,"lon":5.38151,"is_reserved":false,"is_disabled":false,"rental_uris":{"android":"levelo://app?vid=0a6a01b8-ebc9-4549-9bc8-25449ed3a98c","ios":"levelo://app?vid=0a6a01b8-ebc9-4549-9bc8-25449ed3a98c"},"vehicle_type_id":"4","last_reported":1732864182,"current_range_meters":24400,"station_id":"ce4bhr12rcd13ifvqhpg","pricing_plan_id":"cebpf4jnsgd1na2vs0mg"},{"bike_id":"b6e48330-8212-4476-b4d2-8a1e3bec5ff6","system_id":"levelo_inurba_marseille","lat":43.286564,"lon":5.363505,"is_reserved":false,"is_disabled":true,"rental_uris":{"android":"levelo://app?vid=b6e48330-8212-4476-b4d2-8a1e3bec5ff6","ios":"levelo://app?vid=b6e48330-8212-4476-b4d2-8a1e3bec5ff6"},"vehicle_type_id":"4","last_reported":1732864182,"current_range_meters":9200,"station_id":"ce4bhah2rcd13ifvqej0","pricing_plan_id":"cebpf4jnsgd1na2vs0mg"},{"bike_id":"8b789e31-f0c8-4191-982a-92a2c7d53cde","system_id":"levelo_inurba_marseille","lat":43.27048,"lon":5.4028,"is_reserved":false,"is_disabled":false,"rental_uris":{"android":"levelo://app?vid=8b789e31-f0c8-4191-982a-92a2c7d53cde","ios":"levelo://app?vid=8b789e31-f0c8-4191-982a-92a2c7d53cde"},"vehicle_type_id":"4","last_reported":1732864182,"current_range_meters":27600,"station_id":"ce4bhk92rcd13ifvqgc0","pricing_plan_id":"cebpf4jnsgd1na2vs0mg"},{"bike_id":"98cc7ee0-6e61-4c0f-b7f9-d26bce6034ad","system_id":"levelo_inurba_marseille","lat":43.25933,"lon":5.40915,"is_reserved":false,"is_disabled":false,"rental_uris":{"android":"levelo://app?vid=98cc7ee0-6e61-4c0f-b7f9-d26bce6034ad","ios":"levelo://app?vid=98cc7ee0-6e61-4c0f-b7f9-d26bce6034ad"},"vehicle_type_id":"4","last_reported":1732864182,"current_range_meters":18000,"station_id":"ce4bhm92rcd13ifvqglg","pricing_plan_id":"cebpf4jnsgd1na2vs0mg"},{"bike_id":"9009be37-c6b1-406b-b0a8-fbab355f715e","system_id":"levelo_inurba_marseille","lat":43.33767,"lon":5.37492,"is_reserved":false,"is_disabled":false,"rental_uris":{"android":"levelo://app?vid=9009be37-c6b1-406b-b0a8-fbab355f715e","ios":"levelo://app?vid=9009be37-c6b1-406b-b0a8-fbab355f715e"},"vehicle_type_id":"4","last_reported":1732864182,"current_range_meters":38000,"station_id":"","pricing_plan_id":"cebpf4jnsgd1na2vs0mg"},{"bike_id":"41b5e72e-6b19-45dc-a9ad-51ccbc0f0a20","system_id":"levelo_inurba_marseille","lat":43.26558,"lon":5.39013,"is_reserved":false,"is_disabled":false,"rental_uris":{"android":"levelo://app?vid=41b5e72e-6b19-45dc-a9ad-51ccbc0f0a20","ios":"levelo://app?vid=41b5e72e-6b19-45dc-a9ad-51ccbc0f0a20"},"vehicle_type_id":"4","last_reported":1732864182,"current_range_meters":29600,"station_id":"ce4bhe12rcd13ifvqf30","pricing_plan_id":"cebpf4jnsgd1na2vs0mg"},{"bike_id":"eec6b63c-40df-4287-b3cf-9a6588de5eb1","system_id":"levelo_inurba_marseille","lat":43.29741,"lon":5.37649,"is_reserved":false,"is_disabled":true,"rental_uris":{"android":"levelo://app?vid=eec6b63c-40df-4287-b3cf-9a6588de5eb1","ios":"levelo://app?vid=eec6b63c-40df-4287-b3cf-9a6588de5eb1"},"vehicle_type_id":"4","last_reported":1732864182,"current_range_meters":27600,"station_id":"ce4bgkh2rcd13ifvqbl0","pricing_plan_id":"cebpf4jnsgd1na2vs0mg"},{"bike_id":"ad448571-bebb-4a8d-8d20-19092292da85","system_id":"levelo_inurba_marseille","lat":43.29167,"lon":5.37142,"is_reserved":false,"is_disabled":true,"rental_uris":{"android":"levelo://app?vid=ad448571-bebb-4a8d-8d20-19092292da85","ios":"levelo://app?vid=ad448571-bebb-4a8d-8d20-19092292da85"},"vehicle_type_id":"4","last_reported":1732864182,"current_range_meters":24800,"station_id":"ce4bha92rcd13ifvqeh0","pricing_plan_id":"cebpf4jnsgd1na2vs0mg"},{"bike_id":"5f433b1c-0e0f-43b4-a0b0-55b89bfd72f5","system_id":"levelo_inurba_marseille","lat":43.33605,"lon":5.41031,"is_reserved":false,"is_disabled":false,"rental_uris":{"android":"levelo://app?vid=5f433b1c-0e0f-43b4-a0b0-55b89bfd72f5","ios":"levelo://app?vid=5f433b1c-0e0f-43b4-a0b0-55b89bfd72f5"},"vehicle_type_id":"4","last_reported":1732864182,"current_range_meters":18800,"station_id":"ce4bhqh2rcd13ifvqhmg","pricing_plan_id":"cebpf4jnsgd1na2vs0mg"},{"bike_id":"30c67c45-7f58-484b-9db9-3056bcdc8ec9","system_id":"levelo_inurba_marseille","lat":43.309194,"lon":5.368486,"is_reserved":false,"is_disabled":false,"rental_uris":{"android":"levelo://app?vid=30c67c45-7f58-484b-9db9-3056bcdc8ec9","ios":"levelo://app?vid=30c67c45-7f58-484b-9db9-3056bcdc8ec9"},"vehicle_type_id":"4","last_reported":1732864182,"current_range_meters":36400,"station_id":"ce4bgn92rcd13ifvqbvg","pricing_plan_id":"cebpf4jnsgd1na2vs0mg"},{"bike_id":"9589002c-1bab-46c5-9d09-a7efb8d9d194","system_id":"levelo_inurba_marseille","lat":43.28478,"lon":5.34984,"is_reserved":false,"is_disabled":false,"rental_uris":{"android":"levelo://app?vid=9589002c-1bab-46c5-9d09-a7efb8d9d194","ios":"levelo://app?vid=9589002c-1bab-46c5-9d09-a7efb8d9d194"},"vehicle_type_id":"4","last_reported":1732864182,"current_range_meters":27200,"station_id":"","pricing_plan_id":"cebpf4jnsgd1na2vs0mg"},{"bike_id":"278b8151-5d46-4ade-9b8d-b35620e30295","system_id":"levelo_inurba_marseille","lat":43.28096,"lon":5.39668,"is_reserved":false,"is_disabled":true,"rental_uris":{"android":"levelo://app?vid=278b8151-5d46-4ade-9b8d-b35620e30295","ios":"levelo://app?vid=278b8151-5d46-4ade-9b8d-b35620e30295"},"vehicle_type_id":"4","last_reported":1732864182,"current_range_meters":400,"station_id":"ce4bho12rcd13ifvqh2g","pricing_plan_id":"cebpf4jnsgd1na2vs0mg"},{"bike_id":"5d84ab37-b887-4cbc-90d8-c3fbc6154e0e","system_id":"levelo_inurba_marseille","lat":43.31695,"lon":5.40466,"is_reserved":false,"is_disabled":false,"rental_uris":{"android":"levelo://app?vid=5d84ab37-b887-4cbc-90d8-c3fbc6154e0e","ios":"levelo://app?vid=5d84ab37-b887-4cbc-90d8-c3fbc6154e0e"},"vehicle_type_id":"4","last_reported":1732864182,"current_range_meters":38000,"station_id":"ce4bh012rcd13ifvqd00","pricing_plan_id":"cebpf4jnsgd1na2vs0mg"},{"bike_id":"840c2084-3872-4bb0-aad2-5ab80f87c1f6","system_id":"levelo_inurba_marseille","lat":43.30655,"lon":5.40077,"is_reserved":false,"is_disabled":true,"rental_uris":{"android":"levelo://app?vid=840c2084-3872-4bb0-aad2-5ab80f87c1f6","ios":"levelo://app?vid=840c2084-3872-4bb0-aad2-5ab80f87c1f6"},"vehicle_type_id":"4","last_reported":1732864182,"current_range_meters":38800,"station_id":"ce4bh112rcd13ifvqda0","pricing_plan_id":"cebpf4jnsgd1na2vs0mg"},{"bike_id":"c0e8c0c5-8cf0-4bea-b3b2-c88efdc8014a","system_id":"levelo_inurba_marseille","lat":43.323638,"lon":5.388831,"is_reserved":false,"is_disabled":false,"rental_uris":{"android":"levelo://app?vid=c0e8c0c5-8cf0-4bea-b3b2-c88efdc8014a","ios":"levelo://app?vid=c0e8c0c5-8cf0-4bea-b3b2-c88efdc8014a"},"vehicle_type_id":"4","last_reported":1732864182,"current_range_meters":25600,"station_id":"ce4bhqp2rcd13ifvqhog","pricing_plan_id":"cebpf4jnsgd1na2vs0mg"},{"bike_id":"f803e80d-fb0f-4141-8766-a894408093d9","system_id":"levelo_inurba_marseille","lat":43.24081,"lon":5.37747,"is_reserved":false,"is_disabled":false,"rental_uris":{"android":"levelo://app?vid=f803e80d-fb0f-4141-8766-a894408093d9","ios":"levelo://app?vid=f803e80d-fb0f-4141-8766-a894408093d9"},"vehicle_type_id":"4","last_reported":1732864182,"current_range_meters":13600,"station_id":"ce4bhnp2rcd13ifvqgvg","pricing_plan_id":"cebpf4jnsgd1na2vs0mg"},{"bike_id":"4cd79fb1-29e9-4453-8446-eea81ab019c0","system_id":"levelo_inurba_marseille","lat":43.33766,"lon":5.37483,"is_reserved":false,"is_disabled":false,"rental_uris":{"android":"levelo://app?vid=4cd79fb1-29e9-4453-8446-eea81ab019c0","ios":"levelo://app?vid=4cd79fb1-29e9-4453-8446-eea81ab019c0"},"vehicle_type_id":"4","last_reported":1732864182,"current_range_meters":16800,"station_id":"","pricing_plan_id":"cebpf4jnsgd1na2vs0mg"},{"bike_id":"06ced72e-8030-4361-8f37-4df96f189761","system_id":"levelo_inurba_marseille","lat":43.28349,"lon":5.38112,"is_reserved":false,"is_disabled":false,"rental_uris":{"android":"levelo://app?vid=06ced72e-8030-4361-8f37-4df96f189761","ios":"levelo://app?vid=06ced72e-8030-4361-8f37-4df96f189761"},"vehicle_type_id":"4","last_reported":1732864182,"current_range_meters":24800,"station_id":"ce4bh412rcd13ifvqdr0","pricing_plan_id":"cebpf4jnsgd1na2vs0mg"},{"bike_id":"aa226446-391e-4936-ad4e-4dca6c8cbb57","system_id":"levelo_inurba_marseille","lat":43.27627,"lon":5.36116,"is_reserved":false,"is_disabled":false,"rental_uris":{"android":"levelo://app?vid=aa226446-391e-4936-ad4e-4dca6c8cbb57","ios":"levelo://app?vid=aa226446-391e-4936-ad4e-4dca6c8cbb57"},"vehicle_type_id":"4","last_reported":1732864182,"current_range_meters":32400,"station_id":"ce4bgj92rcd13ifvqbe0","pricing_plan_id":"cebpf4jnsgd1na2vs0mg"},{"bike_id":"1936c595-32cf-4097-a6cb-753cf309a951","system_id":"levelo_inurba_marseille","lat":43.31721,"lon":5.424,"is_reserved":false,"is_disabled":false,"rental_uris":{"android":"levelo://app?vid=1936c595-32cf-4097-a6cb-753cf309a951","ios":"levelo://app?vid=1936c595-32cf-4097-a6cb-753cf309a951"},"vehicle_type_id":"4","last_reported":1732864182,"current_range_meters":38800,"station_id":"ce4bhp92rcd13ifvqhbg","pricing_plan_id":"cebpf4jnsgd1na2vs0mg"},{"bike_id":"f62a5fa2-9173-4ac1-b63a-4a63811fbef9","system_id":"levelo_inurba_marseille","lat":43.2593,"lon":5.40914,"is_reserved":false,"is_disabled":false,"rental_uris":{"android":"levelo://app?vid=f62a5fa2-9173-4ac1-b63a-4a63811fbef9","ios":"levelo://app?vid=f62a5fa2-9173-4ac1-b63a-4a63811fbef9"},"vehicle_type_id":"4","last_reported":1732864182,"current_range_meters":20400,"station_id":"ce4bhm92rcd13ifvqglg","pricing_plan_id":"cebpf4jnsgd1na2vs0mg"},{"bike_id":"4f66e51c-f6ac-4a7f-9153-3a246f910342","system_id":"levelo_inurba_marseille","lat":43.29519,"lon":5.39042,"is_reserved":false,"is_disabled":false,"rental_uris":{"android":"levelo://app?vid=4f66e51c-f6ac-4a7f-9153-3a246f910342","ios":"levelo://app?vid=4f66e51c-f6ac-4a7f-9153-3a246f910342"},"vehicle_type_id":"4","last_reported":1732864182,"current_range_meters":3600,"station_id":"ce4bh3p2rcd13ifvqdp0","pricing_plan_id":"cebpf4jnsgd1na2vs0mg"},{"bike_id":"e8fa7be1-2407-41a7-b843-e7c70f1917ef","system_id":"levelo_inurba_marseille","lat":43.2761,"lon":5.36109,"is_reserved":false,"is_disabled":true,"rental_uris":{"android":"levelo://app?vid=e8fa7be1-2407-41a7-b843-e7c70f1917ef","ios":"levelo://app?vid=e8fa7be1-2407-41a7-b843-e7c70f1917ef"},"vehicle_type_id":"4","last_reported":1732864182,"current_range_meters":0,"station_id":"ce4bgj92rcd13ifvqbe0","pricing_plan_id":"cebpf4jnsgd1na2vs0mg"},{"bike_id":"86945aad-0699-4d2f-ae95-c91c21febf8c","system_id":"levelo_inurba_marseille","lat":43.29097,"lon":5.38119,"is_reserved":false,"is_disabled":true,"rental_uris":{"android":"levelo://app?vid=86945aad-0699-4d2f-ae95-c91c21febf8c","ios":"levelo://app?vid=86945aad-0699-4d2f-ae95-c91c21febf8c"},"vehicle_type_id":"4","last_reported":1732864182,"current_range_meters":0,"station_id":"ce4bh512rcd13ifvqe2g","pricing_plan_id":"cebpf4jnsgd1na2vs0mg"},{"bike_id":"289614bb-31f0-4f7a-a4f9-71dc95ecf9e2","system_id":"levelo_inurba_marseille","lat":43.296133,"lon":5.377099,"is_reserved":false,"is_disabled":true,"rental_uris":{"android":"levelo://app?vid=289614bb-31f0-4f7a-a4f9-71dc95ecf9e2","ios":"levelo://app?vid=289614bb-31f0-4f7a-a4f9-71dc95ecf9e2"},"vehicle_type_id":"4","last_reported":1732864182,"current_range_meters":0,"station_id":"ce4bgi92rcd13ifvqb90","pricing_plan_id":"cebpf4jnsgd1na2vs0mg"},{"bike_id":"322ec04a-c98c-4b4e-b298-69412eba7415","system_id":"levelo_inurba_marseille","lat":43.24076,"lon":5.3776,"is_reserved":false,"is_disabled":false,"rental_uris":{"android":"levelo://app?vid=322ec04a-c98c-4b4e-b298-69412eba7415","ios":"levelo://app?vid=322ec04a-c98c-4b4e-b298-69412eba7415"},"vehicle_type_id":"4","last_reported":1732864182,"current_range_meters":38000,"station_id":"ce4bhnp2rcd13ifvqgvg","pricing_plan_id":"cebpf4jnsgd1na2vs0mg"},{"bike_id":"04151390-4806-4e4e-8288-4bb06cadcb10","system_id":"levelo_inurba_marseille","lat":43.29804,"lon":5.38091,"is_reserved":false,"is_disabled":true,"rental_uris":{"android":"levelo://app?vid=04151390-4806-4e4e-8288-4bb06cadcb10","ios":"levelo://app?vid=04151390-4806-4e4e-8288-4bb06cadcb10"},"vehicle_type_id":"4","last_reported":1732864182,"current_range_meters":38800,"station_id":"ce4bgip2rcd13ifvqbb0","pricing_plan_id":"cebpf4jnsgd1na2vs0mg"},{"bike_id":"e63455c5-5f55-4960-8084-8cbaf9be1b50","system_id":"levelo_inurba_marseille","lat":43.25582,"lon":5.38233,"is_reserved":false,"is_disabled":false,"rental_uris":{"android":"levelo://app?vid=e63455c5-5f55-4960-8084-8cbaf9be1b50","ios":"levelo://app?vid=e63455c5-5f55-4960-8084-8cbaf9be1b50"},"vehicle_type_id":"4","last_reported":1732864182,"current_range_meters":34000,"station_id":"ce4bhih2rcd13ifvqfs0","pricing_plan_id":"cebpf4jnsgd1na2vs0mg"},{"bike_id":"1dee5398-ece1-4217-b5b9-984f22c2ff59","system_id":"levelo_inurba_marseille","lat":43.292568,"lon":5.384352,"is_reserved":false,"is_disabled":true,"rental_uris":{"android":"levelo://app?vid=1dee5398-ece1-4217-b5b9-984f22c2ff59","ios":"levelo://app?vid=1dee5398-ece1-4217-b5b9-984f22c2ff59"},"vehicle_type_id":"4","last_reported":1732864182,"current_range_meters":0,"station_id":"ce4bh692rcd13ifvqea0","pricing_plan_id":"cebpf4jnsgd1na2vs0mg"},{"bike_id":"35cde48b-e232-4392-95d8-1d6118a2707a","system_id":"levelo_inurba_marseille","lat":43.28266,"lon":5.35069,"is_reserved":false,"is_disabled":true,"rental_uris":{"android":"levelo://app?vid=35cde48b-e232-4392-95d8-1d6118a2707a","ios":"levelo://app?vid=35cde48b-e232-4392-95d8-1d6118a2707a"},"vehicle_type_id":"4","last_reported":1732864182,"current_range_meters":8400,"station_id":"ce4bhbp2rcd13ifvqerg","pricing_plan_id":"cebpf4jnsgd1na2vs0mg"},{"bike_id":"1a1ad613-e33a-4722-b183-07da1e0aa14f","system_id":"levelo_inurba_marseille","lat":43.32285,"lon":5.38263,"is_reserved":false,"is_disabled":false,"rental_uris":{"android":"levelo://app?vid=1a1ad613-e33a-4722-b183-07da1e0aa14f","ios":"levelo://app?vid=1a1ad613-e33a-4722-b183-07da1e0aa14f"},"vehicle_type_id":"4","last_reported":1732864182,"current_range_meters":39200,"station_id":"ce4bhr12rcd13ifvqhqg","pricing_plan_id":"cebpf4jnsgd1na2vs0mg"},{"bike_id":"a4a09f77-02e5-4784-8aa5-39e2e511e685","system_id":"levelo_inurba_marseille","lat":43.26952,"lon":5.3863,"is_reserved":false,"is_disabled":false,"rental_uris":{"android":"levelo://app?vid=a4a09f77-02e5-4784-8aa5-39e2e511e685","ios":"levelo://app?vid=a4a09f77-02e5-4784-8aa5-39e2e511e685"},"vehicle_type_id":"4","last_reported":1732864182,"current_range_meters":30400,"station_id":"ce4bhh92rcd13ifvqfh0","pricing_plan_id":"cebpf4jnsgd1na2vs0mg"},{"bike_id":"3ca8d527-6c31-4160-8bc9-0dbae13780f9","system_id":"levelo_inurba_marseille","lat":43.28461,"lon":5.35896,"is_reserved":false,"is_disabled":true,"rental_uris":{"android":"levelo://app?vid=3ca8d527-6c31-4160-8bc9-0dbae13780f9","ios":"levelo://app?vid=3ca8d527-6c31-4160-8bc9-0dbae13780f9"},"vehicle_type_id":"4","last_reported":1732864182,"current_range_meters":24400,"station_id":"ce4bhah2rcd13ifvqei0","pricing_plan_id":"cebpf4jnsgd1na2vs0mg"},{"bike_id":"f790fe4e-68f3-45cf-b184-d74ee8388636","system_id":"levelo_inurba_marseille","lat":43.27499,"lon":5.42458,"is_reserved":false,"is_disabled":true,"rental_uris":{"android":"levelo://app?vid=f790fe4e-68f3-45cf-b184-d74ee8388636","ios":"levelo://app?vid=f790fe4e-68f3-45cf-b184-d74ee8388636"},"vehicle_type_id":"4","last_reported":1732864182,"current_range_meters":800,"station_id":"ce4bhn92rcd13ifvqgrg","pricing_plan_id":"cebpf4jnsgd1na2vs0mg"},{"bike_id":"d50b39e6-c323-414d-a840-edfb2d4a8be4","system_id":"levelo_inurba_marseille","lat":43.24074,"lon":5.37762,"is_reserved":false,"is_disabled":false,"rental_uris":{"android":"levelo://app?vid=d50b39e6-c323-414d-a840-edfb2d4a8be4","ios":"levelo://app?vid=d50b39e6-c323-414d-a840-edfb2d4a8be4"},"vehicle_type_id":"4","last_reported":1732864182,"current_range_meters":8400,"station_id":"ce4bhnp2rcd13ifvqgvg","pricing_plan_id":"cebpf4jnsgd1na2vs0mg"},{"bike_id":"911494e4-b32c-4f6e-87b5-d5553dce828b","system_id":"levelo_inurba_marseille","lat":43.3059,"lon":5.39357,"is_reserved":false,"is_disabled":false,"rental_uris":{"android":"levelo://app?vid=911494e4-b32c-4f6e-87b5-d5553dce828b","ios":"levelo://app?vid=911494e4-b32c-4f6e-87b5-d5553dce828b"},"vehicle_type_id":"4","last_reported":1732864182,"current_range_meters":28000,"station_id":"ce4bh0p2rcd13ifvqd80","pricing_plan_id":"cebpf4jnsgd1na2vs0mg"},{"bike_id":"411ae276-68f8-48e9-b38e-74e0c44fc22a","system_id":"levelo_inurba_marseille","lat":43.30275,"lon":5.37723,"is_reserved":false,"is_disabled":false,"rental_uris":{"android":"levelo://app?vid=411ae276-68f8-48e9-b38e-74e0c44fc22a","ios":"levelo://app?vid=411ae276-68f8-48e9-b38e-74e0c44fc22a"},"vehicle_type_id":"4","last_reported":1732864182,"current_range_meters":30000,"station_id":"ce4bguh2rcd13ifvqcj0","pricing_plan_id":"cebpf4jnsgd1na2vs0mg"},{"bike_id":"16fb8e17-b179-4d5a-add7-fbd05efe76fb","system_id":"levelo_inurba_marseille","lat":43.259309,"lon":5.409167,"is_reserved":false,"is_disabled":true,"rental_uris":{"android":"levelo://app?vid=16fb8e17-b179-4d5a-add7-fbd05efe76fb","ios":"levelo://app?vid=16fb8e17-b179-4d5a-add7-fbd05efe76fb"},"vehicle_type_id":"4","last_reported":1732864182,"current_range_meters":22800,"station_id":"ce4bhm92rcd13ifvqglg","pricing_plan_id":"cebpf4jnsgd1na2vs0mg"},{"bike_id":"39b04c21-6a6a-40a7-a489-741c2b67c9bd","system_id":"levelo_inurba_marseille","lat":43.337283,"lon":5.391931,"is_reserved":false,"is_disabled":false,"rental_uris":{"android":"levelo://app?vid=39b04c21-6a6a-40a7-a489-741c2b67c9bd","ios":"levelo://app?vid=39b04c21-6a6a-40a7-a489-741c2b67c9bd"},"vehicle_type_id":"4","last_reported":1732864182,"current_range_meters":36800,"station_id":"ce4bhr92rcd13ifvqhsg","pricing_plan_id":"cebpf4jnsgd1na2vs0mg"},{"bike_id":"3d5142ca-a4d3-40bb-9a73-fd2dc82a4125","system_id":"levelo_inurba_marseille","lat":43.28741,"lon":5.36088,"is_reserved":false,"is_disabled":false,"rental_uris":{"android":"levelo://app?vid=3d5142ca-a4d3-40bb-9a73-fd2dc82a4125","ios":"levelo://app?vid=3d5142ca-a4d3-40bb-9a73-fd2dc82a4125"},"vehicle_type_id":"4","last_reported":1732864182,"current_range_meters":6800,"station_id":"cki0cbj6b192h4jlfktg","pricing_plan_id":"cebpf4jnsgd1na2vs0mg"},{"bike_id":"40d60829-649c-4b73-bdbf-719a8c155df3","system_id":"levelo_inurba_marseille","lat":43.27494,"lon":5.42454,"is_reserved":false,"is_disabled":false,"rental_uris":{"android":"levelo://app?vid=40d60829-649c-4b73-bdbf-719a8c155df3","ios":"levelo://app?vid=40d60829-649c-4b73-bdbf-719a8c155df3"},"vehicle_type_id":"4","last_reported":1732864182,"current_range_meters":15200,"station_id":"ce4bhn92rcd13ifvqgrg","pricing_plan_id":"cebpf4jnsgd1na2vs0mg"},{"bike_id":"f9f279cc-03ce-4144-bdc3-10e6ec0b5486","system_id":"levelo_inurba_marseille","lat":43.24666,"lon":5.38173,"is_reserved":false,"is_disabled":true,"rental_uris":{"android":"levelo://app?vid=f9f279cc-03ce-4144-bdc3-10e6ec0b5486","ios":"levelo://app?vid=f9f279cc-03ce-4144-bdc3-10e6ec0b5486"},"vehicle_type_id":"4","last_reported":1732864182,"current_range_meters":8400,"station_id":"ce4bhih2rcd13ifvqfr0","pricing_plan_id":"cebpf4jnsgd1na2vs0mg"},{"bike_id":"99a99ce8-8d9b-4fcc-ac39-e7ddfcdc8d35","system_id":"levelo_inurba_marseille","lat":43.27492,"lon":5.42452,"is_reserved":false,"is_disabled":false,"rental_uris":{"android":"levelo://app?vid=99a99ce8-8d9b-4fcc-ac39-e7ddfcdc8d35","ios":"levelo://app?vid=99a99ce8-8d9b-4fcc-ac39-e7ddfcdc8d35"},"vehicle_type_id":"4","last_reported":1732864182,"current_range_meters":24400,"station_id":"ce4bhn92rcd13ifvqgrg","pricing_plan_id":"cebpf4jnsgd1na2vs0mg"},{"bike_id":"87a20c3c-65d4-407c-8eaf-fd2e0980a57a","system_id":"levelo_inurba_marseille","lat":43.3311,"lon":5.38227,"is_reserved":false,"is_disabled":false,"rental_uris":{"android":"levelo://app?vid=87a20c3c-65d4-407c-8eaf-fd2e0980a57a","ios":"levelo://app?vid=87a20c3c-65d4-407c-8eaf-fd2e0980a57a"},"vehicle_type_id":"4","last_reported":1732864182,"current_range_meters":16800,"station_id":"","pricing_plan_id":"cebpf4jnsgd1na2vs0mg"},{"bike_id":"3518904e-5f24-45db-8ed2-01707f81e9e8","system_id":"levelo_inurba_marseille","lat":43.27494,"lon":5.42455,"is_reserved":false,"is_disabled":false,"rental_uris":{"android":"levelo://app?vid=3518904e-5f24-45db-8ed2-01707f81e9e8","ios":"levelo://app?vid=3518904e-5f24-45db-8ed2-01707f81e9e8"},"vehicle_type_id":"4","last_reported":1732864182,"current_range_meters":17200,"station_id":"ce4bhn92rcd13ifvqgrg","pricing_plan_id":"cebpf4jnsgd1na2vs0mg"},{"bike_id":"dd8abf73-0f11-4528-81c0-f7dfced5b75d","system_id":"levelo_inurba_marseille","lat":43.2803,"lon":5.36937,"is_reserved":false,"is_disabled":false,"rental_uris":{"android":"levelo://app?vid=dd8abf73-0f11-4528-81c0-f7dfced5b75d","ios":"levelo://app?vid=dd8abf73-0f11-4528-81c0-f7dfced5b75d"},"vehicle_type_id":"4","last_reported":1732864182,"current_range_meters":25200,"station_id":"ce4bha12rcd13ifvqef0","pricing_plan_id":"cebpf4jnsgd1na2vs0mg"},{"bike_id":"b03386a7-851f-4d46-893d-b76a4e79cd7b","system_id":"levelo_inurba_marseille","lat":43.28663,"lon":5.36346,"is_reserved":false,"is_disabled":false,"rental_uris":{"android":"levelo://app?vid=b03386a7-851f-4d46-893d-b76a4e79cd7b","ios":"levelo://app?vid=b03386a7-851f-4d46-893d-b76a4e79cd7b"},"vehicle_type_id":"4","last_reported":1732864182,"current_range_meters":24400,"station_id":"ce4bhah2rcd13ifvqej0","pricing_plan_id":"cebpf4jnsgd1na2vs0mg"},{"bike_id":"9546b9ed-f25c-41cd-b46b-5a3741046894","system_id":"levelo_inurba_marseille","lat":43.34139,"lon":5.40908,"is_reserved":false,"is_disabled":false,"rental_uris":{"android":"levelo://app?vid=9546b9ed-f25c-41cd-b46b-5a3741046894","ios":"levelo://app?vid=9546b9ed-f25c-41cd-b46b-5a3741046894"},"vehicle_type_id":"4","last_reported":1732864182,"current_range_meters":4000,"station_id":"ce4bhqh2rcd13ifvqhlg","pricing_plan_id":"cebpf4jnsgd1na2vs0mg"},{"bike_id":"37e6b652-b990-4fd3-859f-2eb3ce6c15be","system_id":"levelo_inurba_marseille","lat":43.26956,"lon":5.38637,"is_reserved":false,"is_disabled":false,"rental_uris":{"android":"levelo://app?vid=37e6b652-b990-4fd3-859f-2eb3ce6c15be","ios":"levelo://app?vid=37e6b652-b990-4fd3-859f-2eb3ce6c15be"},"vehicle_type_id":"4","last_reported":1732864182,"current_range_meters":17600,"station_id":"ce4bhh92rcd13ifvqfh0","pricing_plan_id":"cebpf4jnsgd1na2vs0mg"},{"bike_id":"b28150e4-18cc-4d56-b749-abddac5e0ca1","system_id":"levelo_inurba_marseille","lat":43.24672,"lon":5.38155,"is_reserved":false,"is_disabled":false,"rental_uris":{"android":"levelo://app?vid=b28150e4-18cc-4d56-b749-abddac5e0ca1","ios":"levelo://app?vid=b28150e4-18cc-4d56-b749-abddac5e0ca1"},"vehicle_type_id":"4","last_reported":1732864182,"current_range_meters":38800,"station_id":"ce4bhih2rcd13ifvqfr0","pricing_plan_id":"cebpf4jnsgd1na2vs0mg"},{"bike_id":"81d9f7be-c3c6-4233-bf11-948e6f22debc","system_id":"levelo_inurba_marseille","lat":43.32359,"lon":5.38887,"is_reserved":false,"is_disabled":false,"rental_uris":{"android":"levelo://app?vid=81d9f7be-c3c6-4233-bf11-948e6f22debc","ios":"levelo://app?vid=81d9f7be-c3c6-4233-bf11-948e6f22debc"},"vehicle_type_id":"4","last_reported":1732864182,"current_range_meters":37600,"station_id":"ce4bhqp2rcd13ifvqhog","pricing_plan_id":"cebpf4jnsgd1na2vs0mg"},{"bike_id":"7fe8aae4-e2fd-45e8-ad84-418c66f3914f","system_id":"levelo_inurba_marseille","lat":43.28847,"lon":5.35844,"is_reserved":false,"is_disabled":true,"rental_uris":{"android":"levelo://app?vid=7fe8aae4-e2fd-45e8-ad84-418c66f3914f","ios":"levelo://app?vid=7fe8aae4-e2fd-45e8-ad84-418c66f3914f"},"vehicle_type_id":"4","last_reported":1732864182,"current_range_meters":8400,"station_id":"ce4bhb12rcd13ifvqem0","pricing_plan_id":"cebpf4jnsgd1na2vs0mg"},{"bike_id":"b9d8713c-f2a5-4d41-bf76-561bf8d1f090","system_id":"levelo_inurba_marseille","lat":43.30595,"lon":5.39367,"is_reserved":false,"is_disabled":false,"rental_uris":{"android":"levelo://app?vid=b9d8713c-f2a5-4d41-bf76-561bf8d1f090","ios":"levelo://app?vid=b9d8713c-f2a5-4d41-bf76-561bf8d1f090"},"vehicle_type_id":"4","last_reported":1732864182,"current_range_meters":3600,"station_id":"ce4bh0p2rcd13ifvqd80","pricing_plan_id":"cebpf4jnsgd1na2vs0mg"},{"bike_id":"ef164ade-6b46-4c0e-a4ed-3dd1c690c646","system_id":"levelo_inurba_marseille","lat":43.29023,"lon":5.38649,"is_reserved":false,"is_disabled":false,"rental_uris":{"android":"levelo://app?vid=ef164ade-6b46-4c0e-a4ed-3dd1c690c646","ios":"levelo://app?vid=ef164ade-6b46-4c0e-a4ed-3dd1c690c646"},"vehicle_type_id":"4","last_reported":1732864182,"current_range_meters":30400,"station_id":"ce4bh4p2rcd13ifvqe0g","pricing_plan_id":"cebpf4jnsgd1na2vs0mg"},{"bike_id":"7ed6d0e7-18ed-4e66-8343-2d325643825b","system_id":"levelo_inurba_marseille","lat":43.31483,"lon":5.37306,"is_reserved":false,"is_disabled":false,"rental_uris":{"android":"levelo://app?vid=7ed6d0e7-18ed-4e66-8343-2d325643825b","ios":"levelo://app?vid=7ed6d0e7-18ed-4e66-8343-2d325643825b"},"vehicle_type_id":"4","last_reported":1732864182,"current_range_meters":36800,"station_id":"ce4bgt12rcd13ifvqcd0","pricing_plan_id":"cebpf4jnsgd1na2vs0mg"},{"bike_id":"29a80c71-9648-4a26-b6c9-5f69092eaa01","system_id":"levelo_inurba_marseille","lat":43.280891,"lon":5.396391,"is_reserved":false,"is_disabled":true,"rental_uris":{"android":"levelo://app?vid=29a80c71-9648-4a26-b6c9-5f69092eaa01","ios":"levelo://app?vid=29a80c71-9648-4a26-b6c9-5f69092eaa01"},"vehicle_type_id":"4","last_reported":1732864182,"current_range_meters":0,"station_id":"ce4bho12rcd13ifvqh2g","pricing_plan_id":"cebpf4jnsgd1na2vs0mg"},{"bike_id":"4d089ae2-8d3d-4ba1-9519-c59633c846c6","system_id":"levelo_inurba_marseille","lat":43.282636,"lon":5.350781,"is_reserved":false,"is_disabled":false,"rental_uris":{"android":"levelo://app?vid=4d089ae2-8d3d-4ba1-9519-c59633c846c6","ios":"levelo://app?vid=4d089ae2-8d3d-4ba1-9519-c59633c846c6"},"vehicle_type_id":"4","last_reported":1732864182,"current_range_meters":38400,"station_id":"ce4bhbp2rcd13ifvqerg","pricing_plan_id":"cebpf4jnsgd1na2vs0mg"},{"bike_id":"2a60fd72-9cfa-415f-937e-d89edec4f374","system_id":"levelo_inurba_marseille","lat":43.25005,"lon":5.38914,"is_reserved":false,"is_disabled":false,"rental_uris":{"android":"levelo://app?vid=2a60fd72-9cfa-415f-937e-d89edec4f374","ios":"levelo://app?vid=2a60fd72-9cfa-415f-937e-d89edec4f374"},"vehicle_type_id":"4","last_reported":1732864182,"current_range_meters":29600,"station_id":"ce4bhgp2rcd13ifvqfd0","pricing_plan_id":"cebpf4jnsgd1na2vs0mg"},{"bike_id":"0995621e-0e5a-482e-8b5a-efe4989f97eb","system_id":"levelo_inurba_marseille","lat":43.313564,"lon":5.385031,"is_reserved":false,"is_disabled":false,"rental_uris":{"android":"levelo://app?vid=0995621e-0e5a-482e-8b5a-efe4989f97eb","ios":"levelo://app?vid=0995621e-0e5a-482e-8b5a-efe4989f97eb"},"vehicle_type_id":"4","last_reported":1732864182,"current_range_meters":7200,"station_id":"ce4bgt92rcd13ifvqcf0","pricing_plan_id":"cebpf4jnsgd1na2vs0mg"},{"bike_id":"5b6140a7-7f65-4ca3-a3f2-419ab04c93da","system_id":"levelo_inurba_marseille","lat":43.22925,"lon":5.35373,"is_reserved":false,"is_disabled":true,"rental_uris":{"android":"levelo://app?vid=5b6140a7-7f65-4ca3-a3f2-419ab04c93da","ios":"levelo://app?vid=5b6140a7-7f65-4ca3-a3f2-419ab04c93da"},"vehicle_type_id":"4","last_reported":1732864182,"current_range_meters":28400,"station_id":"cpo3532slgdg3j2ikp40","pricing_plan_id":"cebpf4jnsgd1na2vs0mg"},{"bike_id":"2c96d4a1-1680-4542-b2e1-65b934888442","system_id":"levelo_inurba_marseille","lat":43.32535,"lon":5.4143,"is_reserved":false,"is_disabled":false,"rental_uris":{"android":"levelo://app?vid=2c96d4a1-1680-4542-b2e1-65b934888442","ios":"levelo://app?vid=2c96d4a1-1680-4542-b2e1-65b934888442"},"vehicle_type_id":"4","last_reported":1732864182,"current_range_meters":36800,"station_id":"ce4bhq12rcd13ifvqhhg","pricing_plan_id":"cebpf4jnsgd1na2vs0mg"},{"bike_id":"f794b8fa-1f88-483b-a054-16f24b00c834","system_id":"levelo_inurba_marseille","lat":43.28271,"lon":5.350701,"is_reserved":false,"is_disabled":true,"rental_uris":{"android":"levelo://app?vid=f794b8fa-1f88-483b-a054-16f24b00c834","ios":"levelo://app?vid=f794b8fa-1f88-483b-a054-16f24b00c834"},"vehicle_type_id":"4","last_reported":1732864182,"current_range_meters":9200,"station_id":"ce4bhbp2rcd13ifvqerg","pricing_plan_id":"cebpf4jnsgd1na2vs0mg"},{"bike_id":"7cc8a767-6e01-4283-96cc-9fd26ec0d311","system_id":"levelo_inurba_marseille","lat":43.29784,"lon":5.38111,"is_reserved":false,"is_disabled":false,"rental_uris":{"android":"levelo://app?vid=7cc8a767-6e01-4283-96cc-9fd26ec0d311","ios":"levelo://app?vid=7cc8a767-6e01-4283-96cc-9fd26ec0d311"},"vehicle_type_id":"4","last_reported":1732864182,"current_range_meters":22800,"station_id":"ce4bgip2rcd13ifvqbb0","pricing_plan_id":"cebpf4jnsgd1na2vs0mg"},{"bike_id":"3fc27dc1-e484-41b1-8595-849742206ae2","system_id":"levelo_inurba_marseille","lat":43.32342,"lon":5.40623,"is_reserved":false,"is_disabled":false,"rental_uris":{"android":"levelo://app?vid=3fc27dc1-e484-41b1-8595-849742206ae2","ios":"levelo://app?vid=3fc27dc1-e484-41b1-8595-849742206ae2"},"vehicle_type_id":"4","last_reported":1732864182,"current_range_meters":11200,"station_id":"ce4bhq92rcd13ifvqhjg","pricing_plan_id":"cebpf4jnsgd1na2vs0mg"},{"bike_id":"de3fa110-9268-48bb-8c90-0e177616d2e3","system_id":"levelo_inurba_marseille","lat":43.31277,"lon":5.40176,"is_reserved":false,"is_disabled":false,"rental_uris":{"android":"levelo://app?vid=de3fa110-9268-48bb-8c90-0e177616d2e3","ios":"levelo://app?vid=de3fa110-9268-48bb-8c90-0e177616d2e3"},"vehicle_type_id":"4","last_reported":1732864182,"current_range_meters":36000,"station_id":"ce4bh092rcd13ifvqd30","pricing_plan_id":"cebpf4jnsgd1na2vs0mg"},{"bike_id":"969f8d15-92a4-4c5c-9b7f-8e499035236c","system_id":"levelo_inurba_marseille","lat":43.31269,"lon":5.40194,"is_reserved":false,"is_disabled":false,"rental_uris":{"android":"levelo://app?vid=969f8d15-92a4-4c5c-9b7f-8e499035236c","ios":"levelo://app?vid=969f8d15-92a4-4c5c-9b7f-8e499035236c"},"vehicle_type_id":"4","last_reported":1732864182,"current_range_meters":38800,"station_id":"ce4bh092rcd13ifvqd30","pricing_plan_id":"cebpf4jnsgd1na2vs0mg"},{"bike_id":"2b5fa18c-7202-4e5d-b392-56d7bf7de53d","system_id":"levelo_inurba_marseille","lat":43.25937,"lon":5.40909,"is_reserved":false,"is_disabled":false,"rental_uris":{"android":"levelo://app?vid=2b5fa18c-7202-4e5d-b392-56d7bf7de53d","ios":"levelo://app?vid=2b5fa18c-7202-4e5d-b392-56d7bf7de53d"},"vehicle_type_id":"4","last_reported":1732864182,"current_range_meters":37600,"station_id":"ce4bhm92rcd13ifvqglg","pricing_plan_id":"cebpf4jnsgd1na2vs0mg"},{"bike_id":"89cea94c-1e0d-4b98-bc1c-a80a7c7ce272","system_id":"levelo_inurba_marseille","lat":43.29705,"lon":5.37689,"is_reserved":false,"is_disabled":false,"rental_uris":{"android":"levelo://app?vid=89cea94c-1e0d-4b98-bc1c-a80a7c7ce272","ios":"levelo://app?vid=89cea94c-1e0d-4b98-bc1c-a80a7c7ce272"},"vehicle_type_id":"4","last_reported":1732864182,"current_range_meters":9600,"station_id":"ce4bgkh2rcd13ifvqbl0","pricing_plan_id":"cebpf4jnsgd1na2vs0mg"},{"bike_id":"960e0ce8-4af8-4a7b-a1d9-99f150008994","system_id":"levelo_inurba_marseille","lat":43.33023,"lon":5.39046,"is_reserved":false,"is_disabled":false,"rental_uris":{"android":"levelo://app?vid=960e0ce8-4af8-4a7b-a1d9-99f150008994","ios":"levelo://app?vid=960e0ce8-4af8-4a7b-a1d9-99f150008994"},"vehicle_type_id":"4","last_reported":1732864182,"current_range_meters":38000,"station_id":"ce4bhr92rcd13ifvqhrg","pricing_plan_id":"cebpf4jnsgd1na2vs0mg"},{"bike_id":"17345abe-be21-4a32-8494-2e2d3f0a3907","system_id":"levelo_inurba_marseille","lat":43.31535,"lon":5.38025,"is_reserved":false,"is_disabled":false,"rental_uris":{"android":"levelo://app?vid=17345abe-be21-4a32-8494-2e2d3f0a3907","ios":"levelo://app?vid=17345abe-be21-4a32-8494-2e2d3f0a3907"},"vehicle_type_id":"4","last_reported":1732864182,"current_range_meters":38000,"station_id":"ce4bhsp2rcd13ifvqi50","pricing_plan_id":"cebpf4jnsgd1na2vs0mg"},{"bike_id":"41ba15b4-7d85-47df-a68f-93ceaf4e6e45","system_id":"levelo_inurba_marseille","lat":43.28099,"lon":5.37852,"is_reserved":false,"is_disabled":false,"rental_uris":{"android":"levelo://app?vid=41ba15b4-7d85-47df-a68f-93ceaf4e6e45","ios":"levelo://app?vid=41ba15b4-7d85-47df-a68f-93ceaf4e6e45"},"vehicle_type_id":"4","last_reported":1732864182,"current_range_meters":15200,"station_id":"ce4bha12rcd13ifvqee0","pricing_plan_id":"cebpf4jnsgd1na2vs0mg"},{"bike_id":"6aa7d263-c9db-4fc0-b9ea-e1517b0dfa32","system_id":"levelo_inurba_marseille","lat":43.28147,"lon":5.42646,"is_reserved":false,"is_disabled":false,"rental_uris":{"android":"levelo://app?vid=6aa7d263-c9db-4fc0-b9ea-e1517b0dfa32","ios":"levelo://app?vid=6aa7d263-c9db-4fc0-b9ea-e1517b0dfa32"},"vehicle_type_id":"4","last_reported":1732864182,"current_range_meters":38800,"station_id":"ce4bhnh2rcd13ifvqgug","pricing_plan_id":"cebpf4jnsgd1na2vs0mg"},{"bike_id":"45ee1737-cd22-42fb-a8ff-9c819e5c2a31","system_id":"levelo_inurba_marseille","lat":43.30913,"lon":5.36849,"is_reserved":false,"is_disabled":false,"rental_uris":{"android":"levelo://app?vid=45ee1737-cd22-42fb-a8ff-9c819e5c2a31","ios":"levelo://app?vid=45ee1737-cd22-42fb-a8ff-9c819e5c2a31"},"vehicle_type_id":"4","last_reported":1732864182,"current_range_meters":38800,"station_id":"ce4bgn92rcd13ifvqbvg","pricing_plan_id":"cebpf4jnsgd1na2vs0mg"},{"bike_id":"80db52a5-9396-4fe5-a4bb-22e3e9dd12b7","system_id":"levelo_inurba_marseille","lat":43.314853,"lon":5.373108,"is_reserved":false,"is_disabled":false,"rental_uris":{"android":"levelo://app?vid=80db52a5-9396-4fe5-a4bb-22e3e9dd12b7","ios":"levelo://app?vid=80db52a5-9396-4fe5-a4bb-22e3e9dd12b7"},"vehicle_type_id":"4","last_reported":1732864182,"current_range_meters":39200,"station_id":"ce4bgt12rcd13ifvqcd0","pricing_plan_id":"cebpf4jnsgd1na2vs0mg"},{"bike_id":"2e95a691-d7d8-426b-8dba-47b6b56c6a41","system_id":"levelo_inurba_marseille","lat":43.28155,"lon":5.42639,"is_reserved":false,"is_disabled":true,"rental_uris":{"android":"levelo://app?vid=2e95a691-d7d8-426b-8dba-47b6b56c6a41","ios":"levelo://app?vid=2e95a691-d7d8-426b-8dba-47b6b56c6a41"},"vehicle_type_id":"4","last_reported":1732864182,"current_range_meters":2800,"station_id":"ce4bhnh2rcd13ifvqgug","pricing_plan_id":"cebpf4jnsgd1na2vs0mg"},{"bike_id":"2278c589-a3e3-4678-a431-058ef37a5b54","system_id":"levelo_inurba_marseille","lat":43.26959,"lon":5.3864,"is_reserved":false,"is_disabled":false,"rental_uris":{"android":"levelo://app?vid=2278c589-a3e3-4678-a431-058ef37a5b54","ios":"levelo://app?vid=2278c589-a3e3-4678-a431-058ef37a5b54"},"vehicle_type_id":"4","last_reported":1732864182,"current_range_meters":38800,"station_id":"ce4bhh92rcd13ifvqfh0","pricing_plan_id":"cebpf4jnsgd1na2vs0mg"},{"bike_id":"b036063e-a5f2-4d26-b4d4-1ff11e0df402","system_id":"levelo_inurba_marseille","lat":43.33605,"lon":5.41031,"is_reserved":false,"is_disabled":false,"rental_uris":{"android":"levelo://app?vid=b036063e-a5f2-4d26-b4d4-1ff11e0df402","ios":"levelo://app?vid=b036063e-a5f2-4d26-b4d4-1ff11e0df402"},"vehicle_type_id":"4","last_reported":1732864182,"current_range_meters":22800,"station_id":"ce4bhqh2rcd13ifvqhmg","pricing_plan_id":"cebpf4jnsgd1na2vs0mg"},{"bike_id":"8815e788-de2f-49ed-a0b8-1b84be41ea72","system_id":"levelo_inurba_marseille","lat":43.30595,"lon":5.39366,"is_reserved":false,"is_disabled":false,"rental_uris":{"android":"levelo://app?vid=8815e788-de2f-49ed-a0b8-1b84be41ea72","ios":"levelo://app?vid=8815e788-de2f-49ed-a0b8-1b84be41ea72"},"vehicle_type_id":"4","last_reported":1732864182,"current_range_meters":37600,"station_id":"ce4bh0p2rcd13ifvqd80","pricing_plan_id":"cebpf4jnsgd1na2vs0mg"},{"bike_id":"64387663-838f-4663-99a3-cd0bae9d60c9","system_id":"levelo_inurba_marseille","lat":43.27909,"lon":5.3802,"is_reserved":false,"is_disabled":false,"rental_uris":{"android":"levelo://app?vid=64387663-838f-4663-99a3-cd0bae9d60c9","ios":"levelo://app?vid=64387663-838f-4663-99a3-cd0bae9d60c9"},"vehicle_type_id":"4","last_reported":1732864182,"current_range_meters":30800,"station_id":"ce4bhf92rcd13ifvqf50","pricing_plan_id":"cebpf4jnsgd1na2vs0mg"},{"bike_id":"e51b2acb-d883-446b-9ce9-347608453ece","system_id":"levelo_inurba_marseille","lat":43.22924,"lon":5.35386,"is_reserved":false,"is_disabled":false,"rental_uris":{"android":"levelo://app?vid=e51b2acb-d883-446b-9ce9-347608453ece","ios":"levelo://app?vid=e51b2acb-d883-446b-9ce9-347608453ece"},"vehicle_type_id":"4","last_reported":1732864182,"current_range_meters":38800,"station_id":"cpo3532slgdg3j2ikp40","pricing_plan_id":"cebpf4jnsgd1na2vs0mg"},{"bike_id":"0551ec67-94ad-4fcc-a139-50dc5d1a4e00","system_id":"levelo_inurba_marseille","lat":43.31349,"lon":5.36709,"is_reserved":false,"is_disabled":false,"rental_uris":{"android":"levelo://app?vid=0551ec67-94ad-4fcc-a139-50dc5d1a4e00","ios":"levelo://app?vid=0551ec67-94ad-4fcc-a139-50dc5d1a4e00"},"vehicle_type_id":"4","last_reported":1732864182,"current_range_meters":8000,"station_id":"ce4bgr92rcd13ifvqc6g","pricing_plan_id":"cebpf4jnsgd1na2vs0mg"},{"bike_id":"7789e245-92df-43c2-8166-d6f7ccbd033b","system_id":"levelo_inurba_marseille","lat":43.29162,"lon":5.37926,"is_reserved":false,"is_disabled":false,"rental_uris":{"android":"levelo://app?vid=7789e245-92df-43c2-8166-d6f7ccbd033b","ios":"levelo://app?vid=7789e245-92df-43c2-8166-d6f7ccbd033b"},"vehicle_type_id":"4","last_reported":1732864182,"current_range_meters":6800,"station_id":"","pricing_plan_id":"cebpf4jnsgd1na2vs0mg"},{"bike_id":"93bf632f-9c2c-453f-931e-3a26e12fd5f1","system_id":"levelo_inurba_marseille","lat":43.3014,"lon":5.39879,"is_reserved":false,"is_disabled":true,"rental_uris":{"android":"levelo://app?vid=93bf632f-9c2c-453f-931e-3a26e12fd5f1","ios":"levelo://app?vid=93bf632f-9c2c-453f-931e-3a26e12fd5f1"},"vehicle_type_id":"4","last_reported":1732864182,"current_range_meters":35200,"station_id":"ce4bh0h2rcd13ifvqd40","pricing_plan_id":"cebpf4jnsgd1na2vs0mg"},{"bike_id":"90b3e3d4-d40d-4cdc-b4b7-06dfdb033f58","system_id":"levelo_inurba_marseille","lat":43.27495,"lon":5.42455,"is_reserved":false,"is_disabled":false,"rental_uris":{"android":"levelo://app?vid=90b3e3d4-d40d-4cdc-b4b7-06dfdb033f58","ios":"levelo://app?vid=90b3e3d4-d40d-4cdc-b4b7-06dfdb033f58"},"vehicle_type_id":"4","last_reported":1732864182,"current_range_meters":23200,"station_id":"ce4bhn92rcd13ifvqgrg","pricing_plan_id":"cebpf4jnsgd1na2vs0mg"},{"bike_id":"fe1c6c60-0f4f-4b5c-a7ea-9f2ff8347245","system_id":"levelo_inurba_marseille","lat":43.27613,"lon":5.36113,"is_reserved":false,"is_disabled":true,"rental_uris":{"android":"levelo://app?vid=fe1c6c60-0f4f-4b5c-a7ea-9f2ff8347245","ios":"levelo://app?vid=fe1c6c60-0f4f-4b5c-a7ea-9f2ff8347245"},"vehicle_type_id":"4","last_reported":1732864182,"current_range_meters":0,"station_id":"ce4bgj92rcd13ifvqbe0","pricing_plan_id":"cebpf4jnsgd1na2vs0mg"},{"bike_id":"6eaf7beb-66f0-4bbc-8627-abc545417d88","system_id":"levelo_inurba_marseille","lat":43.30404,"lon":5.3777,"is_reserved":false,"is_disabled":false,"rental_uris":{"android":"levelo://app?vid=6eaf7beb-66f0-4bbc-8627-abc545417d88","ios":"levelo://app?vid=6eaf7beb-66f0-4bbc-8627-abc545417d88"},"vehicle_type_id":"4","last_reported":1732864182,"current_range_meters":22400,"station_id":"ce4bh392rcd13ifvqdm0","pricing_plan_id":"cebpf4jnsgd1na2vs0mg"},{"bike_id":"371abac0-5dd0-42bb-a641-ca0cac7a118a","system_id":"levelo_inurba_marseille","lat":43.276736,"lon":5.389231,"is_reserved":false,"is_disabled":true,"rental_uris":{"android":"levelo://app?vid=371abac0-5dd0-42bb-a641-ca0cac7a118a","ios":"levelo://app?vid=371abac0-5dd0-42bb-a641-ca0cac7a118a"},"vehicle_type_id":"4","last_reported":1732864182,"current_range_meters":0,"station_id":"ce4bhi12rcd13ifvqfo0","pricing_plan_id":"cebpf4jnsgd1na2vs0mg"},{"bike_id":"6caab2ef-296b-4851-b42a-ce078934a40e","system_id":"levelo_inurba_marseille","lat":43.32662,"lon":5.40994,"is_reserved":false,"is_disabled":false,"rental_uris":{"android":"levelo://app?vid=6caab2ef-296b-4851-b42a-ce078934a40e","ios":"levelo://app?vid=6caab2ef-296b-4851-b42a-ce078934a40e"},"vehicle_type_id":"4","last_reported":1732864182,"current_range_meters":36400,"station_id":"ce4bhpp2rcd13ifvqhgg","pricing_plan_id":"cebpf4jnsgd1na2vs0mg"},{"bike_id":"44692518-f307-4d34-bde3-20456f8e1767","system_id":"levelo_inurba_marseille","lat":43.274359,"lon":5.39017,"is_reserved":false,"is_disabled":false,"rental_uris":{"android":"levelo://app?vid=44692518-f307-4d34-bde3-20456f8e1767","ios":"levelo://app?vid=44692518-f307-4d34-bde3-20456f8e1767"},"vehicle_type_id":"4","last_reported":1732864182,"current_range_meters":25600,"station_id":"","pricing_plan_id":"cebpf4jnsgd1na2vs0mg"},{"bike_id":"c3e13d9c-8e78-4bec-971e-66c22292e1ff","system_id":"levelo_inurba_marseille","lat":43.27808,"lon":5.4072,"is_reserved":false,"is_disabled":false,"rental_uris":{"android":"levelo://app?vid=c3e13d9c-8e78-4bec-971e-66c22292e1ff","ios":"levelo://app?vid=c3e13d9c-8e78-4bec-971e-66c22292e1ff"},"vehicle_type_id":"4","last_reported":1732864182,"current_range_meters":24400,"station_id":"ce4bhnh2rcd13ifvqgtg","pricing_plan_id":"cebpf4jnsgd1na2vs0mg"},{"bike_id":"b97167aa-a565-44c5-bef6-fd9a2e9accad","system_id":"levelo_inurba_marseille","lat":43.30488,"lon":5.37904,"is_reserved":false,"is_disabled":false,"rental_uris":{"android":"levelo://app?vid=b97167aa-a565-44c5-bef6-fd9a2e9accad","ios":"levelo://app?vid=b97167aa-a565-44c5-bef6-fd9a2e9accad"},"vehicle_type_id":"4","last_reported":1732864182,"current_range_meters":36000,"station_id":"ce4bgup2rcd13ifvqcn0","pricing_plan_id":"cebpf4jnsgd1na2vs0mg"},{"bike_id":"179b5b97-0a72-4abe-998c-b37c239cc4f9","system_id":"levelo_inurba_marseille","lat":43.24077,"lon":5.37759,"is_reserved":false,"is_disabled":false,"rental_uris":{"android":"levelo://app?vid=179b5b97-0a72-4abe-998c-b37c239cc4f9","ios":"levelo://app?vid=179b5b97-0a72-4abe-998c-b37c239cc4f9"},"vehicle_type_id":"4","last_reported":1732864182,"current_range_meters":8400,"station_id":"ce4bhnp2rcd13ifvqgvg","pricing_plan_id":"cebpf4jnsgd1na2vs0mg"},{"bike_id":"ac95584f-9567-4c03-97d0-87c52871b9b7","system_id":"levelo_inurba_marseille","lat":43.24167,"lon":5.364,"is_reserved":false,"is_disabled":false,"rental_uris":{"android":"levelo://app?vid=ac95584f-9567-4c03-97d0-87c52871b9b7","ios":"levelo://app?vid=ac95584f-9567-4c03-97d0-87c52871b9b7"},"vehicle_type_id":"4","last_reported":1732864182,"current_range_meters":25600,"station_id":"cpo36qri1sfpv3e86is0","pricing_plan_id":"cebpf4jnsgd1na2vs0mg"},{"bike_id":"1ae63078-76a0-41a9-8e38-1cdbf7c4ed14","system_id":"levelo_inurba_marseille","lat":43.30422,"lon":5.39738,"is_reserved":false,"is_disabled":false,"rental_uris":{"android":"levelo://app?vid=1ae63078-76a0-41a9-8e38-1cdbf7c4ed14","ios":"levelo://app?vid=1ae63078-76a0-41a9-8e38-1cdbf7c4ed14"},"vehicle_type_id":"4","last_reported":1732864182,"current_range_meters":28800,"station_id":"ce4bh092rcd13ifvqd20","pricing_plan_id":"cebpf4jnsgd1na2vs0mg"},{"bike_id":"e42c3730-6b48-4ecf-b483-e2c2e24c4f25","system_id":"levelo_inurba_marseille","lat":43.27816,"lon":5.40712,"is_reserved":false,"is_disabled":false,"rental_uris":{"android":"levelo://app?vid=e42c3730-6b48-4ecf-b483-e2c2e24c4f25","ios":"levelo://app?vid=e42c3730-6b48-4ecf-b483-e2c2e24c4f25"},"vehicle_type_id":"4","last_reported":1732864182,"current_range_meters":36800,"station_id":"ce4bhnh2rcd13ifvqgtg","pricing_plan_id":"cebpf4jnsgd1na2vs0mg"},{"bike_id":"a11c87cd-c5ed-4a29-ba8a-78abe7a5d984","system_id":"levelo_inurba_marseille","lat":43.278273,"lon":5.391991,"is_reserved":false,"is_disabled":true,"rental_uris":{"android":"levelo://app?vid=a11c87cd-c5ed-4a29-ba8a-78abe7a5d984","ios":"levelo://app?vid=a11c87cd-c5ed-4a29-ba8a-78abe7a5d984"},"vehicle_type_id":"4","last_reported":1732864182,"current_range_meters":28400,"station_id":"ce4bhjp2rcd13ifvqga0","pricing_plan_id":"cebpf4jnsgd1na2vs0mg"},{"bike_id":"3e5a2e41-79f4-4430-a7cc-8ebc5970d02f","system_id":"levelo_inurba_marseille","lat":43.29024,"lon":5.38141,"is_reserved":false,"is_disabled":true,"rental_uris":{"android":"levelo://app?vid=3e5a2e41-79f4-4430-a7cc-8ebc5970d02f","ios":"levelo://app?vid=3e5a2e41-79f4-4430-a7cc-8ebc5970d02f"},"vehicle_type_id":"4","last_reported":1732864182,"current_range_meters":11200,"station_id":"ce4bh4p2rcd13ifvqe1g","pricing_plan_id":"cebpf4jnsgd1na2vs0mg"},{"bike_id":"75486131-8e85-4448-87a1-67a7e3096de4","system_id":"levelo_inurba_marseille","lat":43.309316,"lon":5.379043,"is_reserved":false,"is_disabled":true,"rental_uris":{"android":"levelo://app?vid=75486131-8e85-4448-87a1-67a7e3096de4","ios":"levelo://app?vid=75486131-8e85-4448-87a1-67a7e3096de4"},"vehicle_type_id":"4","last_reported":1732864182,"current_range_meters":0,"station_id":"","pricing_plan_id":"cebpf4jnsgd1na2vs0mg"},{"bike_id":"a5909545-3e09-4859-9fda-9ffe4e6e4883","system_id":"levelo_inurba_marseille","lat":43.23066,"lon":5.35491,"is_reserved":false,"is_disabled":false,"rental_uris":{"android":"levelo://app?vid=a5909545-3e09-4859-9fda-9ffe4e6e4883","ios":"levelo://app?vid=a5909545-3e09-4859-9fda-9ffe4e6e4883"},"vehicle_type_id":"4","last_reported":1732864182,"current_range_meters":18800,"station_id":"cpo3342slgdg3j2ifvpg","pricing_plan_id":"cebpf4jnsgd1na2vs0mg"},{"bike_id":"087f3e89-8175-4e4b-b3ca-d4be39468bf9","system_id":"levelo_inurba_marseille","lat":43.27055,"lon":5.40266,"is_reserved":false,"is_disabled":false,"rental_uris":{"android":"levelo://app?vid=087f3e89-8175-4e4b-b3ca-d4be39468bf9","ios":"levelo://app?vid=087f3e89-8175-4e4b-b3ca-d4be39468bf9"},"vehicle_type_id":"4","last_reported":1732864182,"current_range_meters":28400,"station_id":"ce4bhk92rcd13ifvqgc0","pricing_plan_id":"cebpf4jnsgd1na2vs0mg"},{"bike_id":"05412edd-4f98-4b7b-8f3b-a793b3add8af","system_id":"levelo_inurba_marseille","lat":43.304654,"lon":5.379198,"is_reserved":false,"is_disabled":false,"rental_uris":{"android":"levelo://app?vid=05412edd-4f98-4b7b-8f3b-a793b3add8af","ios":"levelo://app?vid=05412edd-4f98-4b7b-8f3b-a793b3add8af"},"vehicle_type_id":"4","last_reported":1732864182,"current_range_meters":28800,"station_id":"ce4bgup2rcd13ifvqcn0","pricing_plan_id":"cebpf4jnsgd1na2vs0mg"},{"bike_id":"b6b1f691-f5d4-4437-a273-f7c9759cc4c1","system_id":"levelo_inurba_marseille","lat":43.291931,"lon":5.393161,"is_reserved":false,"is_disabled":true,"rental_uris":{"android":"levelo://app?vid=b6b1f691-f5d4-4437-a273-f7c9759cc4c1","ios":"levelo://app?vid=b6b1f691-f5d4-4437-a273-f7c9759cc4c1"},"vehicle_type_id":"4","last_reported":1732864182,"current_range_meters":38000,"station_id":"ce4bh192rcd13ifvqdd0","pricing_plan_id":"cebpf4jnsgd1na2vs0mg"},{"bike_id":"1f3be82a-39fb-49be-9f70-2df7092d6f3c","system_id":"levelo_inurba_marseille","lat":43.3244,"lon":5.36572,"is_reserved":false,"is_disabled":false,"rental_uris":{"android":"levelo://app?vid=1f3be82a-39fb-49be-9f70-2df7092d6f3c","ios":"levelo://app?vid=1f3be82a-39fb-49be-9f70-2df7092d6f3c"},"vehicle_type_id":"4","last_reported":1732864182,"current_range_meters":14000,"station_id":"ce4bhs12rcd13ifvqhvg","pricing_plan_id":"cebpf4jnsgd1na2vs0mg"},{"bike_id":"5329edfd-3f80-481f-b22a-9053213b3f4f","system_id":"levelo_inurba_marseille","lat":43.336044,"lon":5.410243,"is_reserved":false,"is_disabled":false,"rental_uris":{"android":"levelo://app?vid=5329edfd-3f80-481f-b22a-9053213b3f4f","ios":"levelo://app?vid=5329edfd-3f80-481f-b22a-9053213b3f4f"},"vehicle_type_id":"4","last_reported":1732864182,"current_range_meters":24800,"station_id":"ce4bhqh2rcd13ifvqhmg","pricing_plan_id":"cebpf4jnsgd1na2vs0mg"},{"bike_id":"9030a65e-92b5-4035-a6e3-149d39d0b304","system_id":"levelo_inurba_marseille","lat":43.32104,"lon":5.36771,"is_reserved":false,"is_disabled":false,"rental_uris":{"android":"levelo://app?vid=9030a65e-92b5-4035-a6e3-149d39d0b304","ios":"levelo://app?vid=9030a65e-92b5-4035-a6e3-149d39d0b304"},"vehicle_type_id":"4","last_reported":1732864182,"current_range_meters":17200,"station_id":"ce4bhrh2rcd13ifvqhug","pricing_plan_id":"cebpf4jnsgd1na2vs0mg"},{"bike_id":"3386ced5-0306-44cd-8554-861a220df651","system_id":"levelo_inurba_marseille","lat":43.27066,"lon":5.42277,"is_reserved":false,"is_disabled":false,"rental_uris":{"android":"levelo://app?vid=3386ced5-0306-44cd-8554-861a220df651","ios":"levelo://app?vid=3386ced5-0306-44cd-8554-861a220df651"},"vehicle_type_id":"4","last_reported":1732864182,"current_range_meters":38800,"station_id":"ce4bhk92rcd13ifvqgb0","pricing_plan_id":"cebpf4jnsgd1na2vs0mg"},{"bike_id":"e5951ee3-4a5a-4ebb-b469-096c5188dfa3","system_id":"levelo_inurba_marseille","lat":43.23177,"lon":5.35556,"is_reserved":false,"is_disabled":false,"rental_uris":{"android":"levelo://app?vid=e5951ee3-4a5a-4ebb-b469-096c5188dfa3","ios":"levelo://app?vid=e5951ee3-4a5a-4ebb-b469-096c5188dfa3"},"vehicle_type_id":"4","last_reported":1732864182,"current_range_meters":24800,"station_id":"ce4bhu92rcd13ifvqi70","pricing_plan_id":"cebpf4jnsgd1na2vs0mg"},{"bike_id":"f9a63393-5401-4f98-ae5a-dfbb8291ab6d","system_id":"levelo_inurba_marseille","lat":43.30041,"lon":5.37537,"is_reserved":false,"is_disabled":true,"rental_uris":{"android":"levelo://app?vid=f9a63393-5401-4f98-ae5a-dfbb8291ab6d","ios":"levelo://app?vid=f9a63393-5401-4f98-ae5a-dfbb8291ab6d"},"vehicle_type_id":"4","last_reported":1732864182,"current_range_meters":800,"station_id":"","pricing_plan_id":"cebpf4jnsgd1na2vs0mg"},{"bike_id":"c1b6dc68-5cc9-4aec-a688-6bdca006de56","system_id":"levelo_inurba_marseille","lat":43.27177,"lon":5.40999,"is_reserved":false,"is_disabled":false,"rental_uris":{"android":"levelo://app?vid=c1b6dc68-5cc9-4aec-a688-6bdca006de56","ios":"levelo://app?vid=c1b6dc68-5cc9-4aec-a688-6bdca006de56"},"vehicle_type_id":"4","last_reported":1732864182,"current_range_meters":38000,"station_id":"ce4bhl12rcd13ifvqgf0","pricing_plan_id":"cebpf4jnsgd1na2vs0mg"},{"bike_id":"2ce71e39-b533-47d6-9447-5a3d4ab4f5b3","system_id":"levelo_inurba_marseille","lat":43.31689,"lon":5.40477,"is_reserved":false,"is_disabled":false,"rental_uris":{"android":"levelo://app?vid=2ce71e39-b533-47d6-9447-5a3d4ab4f5b3","ios":"levelo://app?vid=2ce71e39-b533-47d6-9447-5a3d4ab4f5b3"},"vehicle_type_id":"4","last_reported":1732864182,"current_range_meters":22400,"station_id":"ce4bh012rcd13ifvqd00","pricing_plan_id":"cebpf4jnsgd1na2vs0mg"},{"bike_id":"beecf29b-0bf3-4cee-a03e-0dd6251d4d12","system_id":"levelo_inurba_marseille","lat":43.31666,"lon":5.37733,"is_reserved":false,"is_disabled":false,"rental_uris":{"android":"levelo://app?vid=beecf29b-0bf3-4cee-a03e-0dd6251d4d12","ios":"levelo://app?vid=beecf29b-0bf3-4cee-a03e-0dd6251d4d12"},"vehicle_type_id":"4","last_reported":1732864182,"current_range_meters":38800,"station_id":"ce4bgth2rcd13ifvqch0","pricing_plan_id":"cebpf4jnsgd1na2vs0mg"},{"bike_id":"f9030e76-b987-42ca-8d68-e694d5adb96f","system_id":"levelo_inurba_marseille","lat":43.27498,"lon":5.42457,"is_reserved":false,"is_disabled":false,"rental_uris":{"android":"levelo://app?vid=f9030e76-b987-42ca-8d68-e694d5adb96f","ios":"levelo://app?vid=f9030e76-b987-42ca-8d68-e694d5adb96f"},"vehicle_type_id":"4","last_reported":1732864182,"current_range_meters":23200,"station_id":"ce4bhn92rcd13ifvqgrg","pricing_plan_id":"cebpf4jnsgd1na2vs0mg"},{"bike_id":"6af8456e-bf83-48d8-8c46-e2069ed79b1b","system_id":"levelo_inurba_marseille","lat":43.27182,"lon":5.40991,"is_reserved":false,"is_disabled":false,"rental_uris":{"android":"levelo://app?vid=6af8456e-bf83-48d8-8c46-e2069ed79b1b","ios":"levelo://app?vid=6af8456e-bf83-48d8-8c46-e2069ed79b1b"},"vehicle_type_id":"4","last_reported":1732864182,"current_range_meters":35200,"station_id":"ce4bhl12rcd13ifvqgf0","pricing_plan_id":"cebpf4jnsgd1na2vs0mg"},{"bike_id":"af2efd3e-4613-4d94-ac00-dfe9a42689c5","system_id":"levelo_inurba_marseille","lat":43.24544,"lon":5.39528,"is_reserved":false,"is_disabled":false,"rental_uris":{"android":"levelo://app?vid=af2efd3e-4613-4d94-ac00-dfe9a42689c5","ios":"levelo://app?vid=af2efd3e-4613-4d94-ac00-dfe9a42689c5"},"vehicle_type_id":"4","last_reported":1732864182,"current_range_meters":38400,"station_id":"ce4bhlp2rcd13ifvqgjg","pricing_plan_id":"cebpf4jnsgd1na2vs0mg"},{"bike_id":"88b3397b-b680-40d4-8443-127782358fb4","system_id":"levelo_inurba_marseille","lat":43.24083,"lon":5.37754,"is_reserved":false,"is_disabled":false,"rental_uris":{"android":"levelo://app?vid=88b3397b-b680-40d4-8443-127782358fb4","ios":"levelo://app?vid=88b3397b-b680-40d4-8443-127782358fb4"},"vehicle_type_id":"4","last_reported":1732864182,"current_range_meters":22000,"station_id":"ce4bhnp2rcd13ifvqgvg","pricing_plan_id":"cebpf4jnsgd1na2vs0mg"},{"bike_id":"a89e13f9-1fe4-4bd8-a895-0a49a6ba790c","system_id":"levelo_inurba_marseille","lat":43.30416,"lon":5.41291,"is_reserved":false,"is_disabled":true,"rental_uris":{"android":"levelo://app?vid=a89e13f9-1fe4-4bd8-a895-0a49a6ba790c","ios":"levelo://app?vid=a89e13f9-1fe4-4bd8-a895-0a49a6ba790c"},"vehicle_type_id":"4","last_reported":1732864182,"current_range_meters":0,"station_id":"ce4bhop2rcd13ifvqh8g","pricing_plan_id":"cebpf4jnsgd1na2vs0mg"},{"bike_id":"de8dedfd-c65e-4ce5-b8ec-b5ab34a22a6e","system_id":"levelo_inurba_marseille","lat":43.27068,"lon":5.42275,"is_reserved":false,"is_disabled":true,"rental_uris":{"android":"levelo://app?vid=de8dedfd-c65e-4ce5-b8ec-b5ab34a22a6e","ios":"levelo://app?vid=de8dedfd-c65e-4ce5-b8ec-b5ab34a22a6e"},"vehicle_type_id":"4","last_reported":1732864182,"current_range_meters":38800,"station_id":"ce4bhk92rcd13ifvqgb0","pricing_plan_id":"cebpf4jnsgd1na2vs0mg"},{"bike_id":"88017654-35c5-46a0-bf88-dad2fc7092a1","system_id":"levelo_inurba_marseille","lat":43.31536,"lon":5.38032,"is_reserved":false,"is_disabled":false,"rental_uris":{"android":"levelo://app?vid=88017654-35c5-46a0-bf88-dad2fc7092a1","ios":"levelo://app?vid=88017654-35c5-46a0-bf88-dad2fc7092a1"},"vehicle_type_id":"4","last_reported":1732864182,"current_range_meters":38400,"station_id":"ce4bhsp2rcd13ifvqi50","pricing_plan_id":"cebpf4jnsgd1na2vs0mg"},{"bike_id":"92bc2410-b5d8-4a2b-b7f1-f9c906c54ab1","system_id":"levelo_inurba_marseille","lat":43.29197,"lon":5.35812,"is_reserved":false,"is_disabled":false,"rental_uris":{"android":"levelo://app?vid=92bc2410-b5d8-4a2b-b7f1-f9c906c54ab1","ios":"levelo://app?vid=92bc2410-b5d8-4a2b-b7f1-f9c906c54ab1"},"vehicle_type_id":"4","last_reported":1732864182,"current_range_meters":14800,"station_id":"ce4bhb12rcd13ifvqel0","pricing_plan_id":"cebpf4jnsgd1na2vs0mg"},{"bike_id":"1ee837f4-724e-4019-9bef-9512fc69e3a4","system_id":"levelo_inurba_marseille","lat":43.30475,"lon":5.37897,"is_reserved":false,"is_disabled":false,"rental_uris":{"android":"levelo://app?vid=1ee837f4-724e-4019-9bef-9512fc69e3a4","ios":"levelo://app?vid=1ee837f4-724e-4019-9bef-9512fc69e3a4"},"vehicle_type_id":"4","last_reported":1732864182,"current_range_meters":39200,"station_id":"ce4bgup2rcd13ifvqcn0","pricing_plan_id":"cebpf4jnsgd1na2vs0mg"},{"bike_id":"6fc223c7-5ccb-4bbf-b122-e543dd0cde6c","system_id":"levelo_inurba_marseille","lat":43.31274,"lon":5.40167,"is_reserved":false,"is_disabled":false,"rental_uris":{"android":"levelo://app?vid=6fc223c7-5ccb-4bbf-b122-e543dd0cde6c","ios":"levelo://app?vid=6fc223c7-5ccb-4bbf-b122-e543dd0cde6c"},"vehicle_type_id":"4","last_reported":1732864182,"current_range_meters":38800,"station_id":"ce4bh092rcd13ifvqd30","pricing_plan_id":"cebpf4jnsgd1na2vs0mg"},{"bike_id":"f576f1ac-9441-4aaf-9239-99d550cb7b55","system_id":"levelo_inurba_marseille","lat":43.31702,"lon":5.37758,"is_reserved":false,"is_disabled":false,"rental_uris":{"android":"levelo://app?vid=f576f1ac-9441-4aaf-9239-99d550cb7b55","ios":"levelo://app?vid=f576f1ac-9441-4aaf-9239-99d550cb7b55"},"vehicle_type_id":"4","last_reported":1732864182,"current_range_meters":28800,"station_id":"ce4bgth2rcd13ifvqch0","pricing_plan_id":"cebpf4jnsgd1na2vs0mg"},{"bike_id":"1a4713ea-b07f-4de1-927d-13275df0a123","system_id":"levelo_inurba_marseille","lat":43.28939,"lon":5.39641,"is_reserved":false,"is_disabled":false,"rental_uris":{"android":"levelo://app?vid=1a4713ea-b07f-4de1-927d-13275df0a123","ios":"levelo://app?vid=1a4713ea-b07f-4de1-927d-13275df0a123"},"vehicle_type_id":"4","last_reported":1732864182,"current_range_meters":20400,"station_id":"ce4bh3h2rcd13ifvqdn0","pricing_plan_id":"cebpf4jnsgd1na2vs0mg"},{"bike_id":"a2bfa675-9b93-4fe4-b8f0-81485a308a3f","system_id":"levelo_inurba_marseille","lat":43.30487,"lon":5.37914,"is_reserved":false,"is_disabled":false,"rental_uris":{"android":"levelo://app?vid=a2bfa675-9b93-4fe4-b8f0-81485a308a3f","ios":"levelo://app?vid=a2bfa675-9b93-4fe4-b8f0-81485a308a3f"},"vehicle_type_id":"4","last_reported":1732864182,"current_range_meters":16800,"station_id":"ce4bgup2rcd13ifvqcn0","pricing_plan_id":"cebpf4jnsgd1na2vs0mg"},{"bike_id":"3a3b1b2b-9521-4bba-ba92-f3603821bdb4","system_id":"levelo_inurba_marseille","lat":43.255794,"lon":5.382341,"is_reserved":false,"is_disabled":false,"rental_uris":{"android":"levelo://app?vid=3a3b1b2b-9521-4bba-ba92-f3603821bdb4","ios":"levelo://app?vid=3a3b1b2b-9521-4bba-ba92-f3603821bdb4"},"vehicle_type_id":"4","last_reported":1732864182,"current_range_meters":25600,"station_id":"ce4bhih2rcd13ifvqfs0","pricing_plan_id":"cebpf4jnsgd1na2vs0mg"},{"bike_id":"2710700a-a9f8-4671-b241-6a78d75d8daa","system_id":"levelo_inurba_marseille","lat":43.2657,"lon":5.39009,"is_reserved":false,"is_disabled":false,"rental_uris":{"android":"levelo://app?vid=2710700a-a9f8-4671-b241-6a78d75d8daa","ios":"levelo://app?vid=2710700a-a9f8-4671-b241-6a78d75d8daa"},"vehicle_type_id":"4","last_reported":1732864182,"current_range_meters":25200,"station_id":"ce4bhe12rcd13ifvqf30","pricing_plan_id":"cebpf4jnsgd1na2vs0mg"},{"bike_id":"63c3b7c5-a0a5-4303-943a-5512cff1f3b4","system_id":"levelo_inurba_marseille","lat":43.32365,"lon":5.38876,"is_reserved":false,"is_disabled":false,"rental_uris":{"android":"levelo://app?vid=63c3b7c5-a0a5-4303-943a-5512cff1f3b4","ios":"levelo://app?vid=63c3b7c5-a0a5-4303-943a-5512cff1f3b4"},"vehicle_type_id":"4","last_reported":1732864182,"current_range_meters":24000,"station_id":"ce4bhqp2rcd13ifvqhog","pricing_plan_id":"cebpf4jnsgd1na2vs0mg"},{"bike_id":"03a82266-a28d-436c-96f8-d138f1276b21","system_id":"levelo_inurba_marseille","lat":43.31883,"lon":5.40741,"is_reserved":false,"is_disabled":false,"rental_uris":{"android":"levelo://app?vid=03a82266-a28d-436c-96f8-d138f1276b21","ios":"levelo://app?vid=03a82266-a28d-436c-96f8-d138f1276b21"},"vehicle_type_id":"4","last_reported":1732864182,"current_range_meters":30400,"station_id":"ce4bhq12rcd13ifvqhig","pricing_plan_id":"cebpf4jnsgd1na2vs0mg"},{"bike_id":"91b0dce9-e962-4913-9ea8-a1e6bfd2a851","system_id":"levelo_inurba_marseille","lat":43.26058,"lon":5.39399,"is_reserved":false,"is_disabled":false,"rental_uris":{"android":"levelo://app?vid=91b0dce9-e962-4913-9ea8-a1e6bfd2a851","ios":"levelo://app?vid=91b0dce9-e962-4913-9ea8-a1e6bfd2a851"},"vehicle_type_id":"4","last_reported":1732864182,"current_range_meters":28000,"station_id":"ce4bhh92rcd13ifvqfj0","pricing_plan_id":"cebpf4jnsgd1na2vs0mg"},{"bike_id":"e6282b68-3be8-481e-81bc-561c0b21112f","system_id":"levelo_inurba_marseille","lat":43.28938,"lon":5.39626,"is_reserved":false,"is_disabled":false,"rental_uris":{"android":"levelo://app?vid=e6282b68-3be8-481e-81bc-561c0b21112f","ios":"levelo://app?vid=e6282b68-3be8-481e-81bc-561c0b21112f"},"vehicle_type_id":"4","last_reported":1732864182,"current_range_meters":37600,"station_id":"ce4bh3h2rcd13ifvqdn0","pricing_plan_id":"cebpf4jnsgd1na2vs0mg"},{"bike_id":"cc9e77b2-1586-4032-a36d-abc7184c9753","system_id":"levelo_inurba_marseille","lat":43.24546,"lon":5.39524,"is_reserved":false,"is_disabled":false,"rental_uris":{"android":"levelo://app?vid=cc9e77b2-1586-4032-a36d-abc7184c9753","ios":"levelo://app?vid=cc9e77b2-1586-4032-a36d-abc7184c9753"},"vehicle_type_id":"4","last_reported":1732864182,"current_range_meters":31200,"station_id":"ce4bhlp2rcd13ifvqgjg","pricing_plan_id":"cebpf4jnsgd1na2vs0mg"},{"bike_id":"43746d86-8a13-4845-9faf-ae69b548d714","system_id":"levelo_inurba_marseille","lat":43.29459,"lon":5.37917,"is_reserved":false,"is_disabled":true,"rental_uris":{"android":"levelo://app?vid=43746d86-8a13-4845-9faf-ae69b548d714","ios":"levelo://app?vid=43746d86-8a13-4845-9faf-ae69b548d714"},"vehicle_type_id":"4","last_reported":1732864182,"current_range_meters":0,"station_id":"","pricing_plan_id":"cebpf4jnsgd1na2vs0mg"},{"bike_id":"7c9101ae-13cf-41cf-b845-9c8f8940015c","system_id":"levelo_inurba_marseille","lat":43.30463,"lon":5.37909,"is_reserved":false,"is_disabled":false,"rental_uris":{"android":"levelo://app?vid=7c9101ae-13cf-41cf-b845-9c8f8940015c","ios":"levelo://app?vid=7c9101ae-13cf-41cf-b845-9c8f8940015c"},"vehicle_type_id":"4","last_reported":1732864182,"current_range_meters":28400,"station_id":"ce4bgup2rcd13ifvqcn0","pricing_plan_id":"cebpf4jnsgd1na2vs0mg"},{"bike_id":"09845e09-65ac-47d3-9db8-562837ee37a4","system_id":"levelo_inurba_marseille","lat":43.2594,"lon":5.40904,"is_reserved":false,"is_disabled":false,"rental_uris":{"android":"levelo://app?vid=09845e09-65ac-47d3-9db8-562837ee37a4","ios":"levelo://app?vid=09845e09-65ac-47d3-9db8-562837ee37a4"},"vehicle_type_id":"4","last_reported":1732864182,"current_range_meters":28400,"station_id":"ce4bhm92rcd13ifvqglg","pricing_plan_id":"cebpf4jnsgd1na2vs0mg"},{"bike_id":"24475bbe-d591-422d-886b-4e03bfa37464","system_id":"levelo_inurba_marseille","lat":43.23184,"lon":5.39985,"is_reserved":false,"is_disabled":false,"rental_uris":{"android":"levelo://app?vid=24475bbe-d591-422d-886b-4e03bfa37464","ios":"levelo://app?vid=24475bbe-d591-422d-886b-4e03bfa37464"},"vehicle_type_id":"4","last_reported":1732864182,"current_range_meters":38400,"station_id":"ce4bhn12rcd13ifvqgqg","pricing_plan_id":"cebpf4jnsgd1na2vs0mg"},{"bike_id":"d8404ab4-ce67-47f0-be35-3f1fcff4b0b2","system_id":"levelo_inurba_marseille","lat":43.27497,"lon":5.42459,"is_reserved":false,"is_disabled":false,"rental_uris":{"android":"levelo://app?vid=d8404ab4-ce67-47f0-be35-3f1fcff4b0b2","ios":"levelo://app?vid=d8404ab4-ce67-47f0-be35-3f1fcff4b0b2"},"vehicle_type_id":"4","last_reported":1732864182,"current_range_meters":34800,"station_id":"ce4bhn92rcd13ifvqgrg","pricing_plan_id":"cebpf4jnsgd1na2vs0mg"},{"bike_id":"48b5ff29-f272-4faf-a81d-daa5ce069c5c","system_id":"levelo_inurba_marseille","lat":43.31281,"lon":5.38877,"is_reserved":false,"is_disabled":false,"rental_uris":{"android":"levelo://app?vid=48b5ff29-f272-4faf-a81d-daa5ce069c5c","ios":"levelo://app?vid=48b5ff29-f272-4faf-a81d-daa5ce069c5c"},"vehicle_type_id":"4","last_reported":1732864182,"current_range_meters":8800,"station_id":"","pricing_plan_id":"cebpf4jnsgd1na2vs0mg"},{"bike_id":"a8501ea6-a763-45d4-aaf0-acba8a3ce982","system_id":"levelo_inurba_marseille","lat":43.337444,"lon":5.374475,"is_reserved":false,"is_disabled":false,"rental_uris":{"android":"levelo://app?vid=a8501ea6-a763-45d4-aaf0-acba8a3ce982","ios":"levelo://app?vid=a8501ea6-a763-45d4-aaf0-acba8a3ce982"},"vehicle_type_id":"4","last_reported":1732864182,"current_range_meters":38800,"station_id":"","pricing_plan_id":"cebpf4jnsgd1na2vs0mg"},{"bike_id":"bb2d75fd-eb1e-47e2-8da6-ca4e05134df5","system_id":"levelo_inurba_marseille","lat":43.24671,"lon":5.38163,"is_reserved":false,"is_disabled":false,"rental_uris":{"android":"levelo://app?vid=bb2d75fd-eb1e-47e2-8da6-ca4e05134df5","ios":"levelo://app?vid=bb2d75fd-eb1e-47e2-8da6-ca4e05134df5"},"vehicle_type_id":"4","last_reported":1732864182,"current_range_meters":38800,"station_id":"ce4bhih2rcd13ifvqfr0","pricing_plan_id":"cebpf4jnsgd1na2vs0mg"},{"bike_id":"f56fb7e3-c722-421f-956f-65aa7ba72e68","system_id":"levelo_inurba_marseille","lat":43.31501,"lon":5.37298,"is_reserved":false,"is_disabled":false,"rental_uris":{"android":"levelo://app?vid=f56fb7e3-c722-421f-956f-65aa7ba72e68","ios":"levelo://app?vid=f56fb7e3-c722-421f-956f-65aa7ba72e68"},"vehicle_type_id":"4","last_reported":1732864182,"current_range_meters":27200,"station_id":"ce4bgt12rcd13ifvqcd0","pricing_plan_id":"cebpf4jnsgd1na2vs0mg"},{"bike_id":"f5c7a4f5-118b-42d0-b430-d42b812876f4","system_id":"levelo_inurba_marseille","lat":43.28426,"lon":5.34995,"is_reserved":false,"is_disabled":false,"rental_uris":{"android":"levelo://app?vid=f5c7a4f5-118b-42d0-b430-d42b812876f4","ios":"levelo://app?vid=f5c7a4f5-118b-42d0-b430-d42b812876f4"},"vehicle_type_id":"4","last_reported":1732864182,"current_range_meters":27600,"station_id":"ce4bhbh2rcd13ifvqepg","pricing_plan_id":"cebpf4jnsgd1na2vs0mg"},{"bike_id":"e1a441bb-ffc3-4b30-950e-b8eb47f0e1ee","system_id":"levelo_inurba_marseille","lat":43.26954,"lon":5.3863,"is_reserved":false,"is_disabled":false,"rental_uris":{"android":"levelo://app?vid=e1a441bb-ffc3-4b30-950e-b8eb47f0e1ee","ios":"levelo://app?vid=e1a441bb-ffc3-4b30-950e-b8eb47f0e1ee"},"vehicle_type_id":"4","last_reported":1732864182,"current_range_meters":28400,"station_id":"ce4bhh92rcd13ifvqfh0","pricing_plan_id":"cebpf4jnsgd1na2vs0mg"},{"bike_id":"9783b55c-a85e-4c32-9342-ae4463038363","system_id":"levelo_inurba_marseille","lat":43.27063,"lon":5.42276,"is_reserved":false,"is_disabled":false,"rental_uris":{"android":"levelo://app?vid=9783b55c-a85e-4c32-9342-ae4463038363","ios":"levelo://app?vid=9783b55c-a85e-4c32-9342-ae4463038363"},"vehicle_type_id":"4","last_reported":1732864182,"current_range_meters":38800,"station_id":"ce4bhk92rcd13ifvqgb0","pricing_plan_id":"cebpf4jnsgd1na2vs0mg"},{"bike_id":"73237246-d3c1-43bc-bad7-8e44028b6f2d","system_id":"levelo_inurba_marseille","lat":43.23187,"lon":5.399785,"is_reserved":false,"is_disabled":false,"rental_uris":{"android":"levelo://app?vid=73237246-d3c1-43bc-bad7-8e44028b6f2d","ios":"levelo://app?vid=73237246-d3c1-43bc-bad7-8e44028b6f2d"},"vehicle_type_id":"4","last_reported":1732864182,"current_range_meters":27600,"station_id":"ce4bhn12rcd13ifvqgqg","pricing_plan_id":"cebpf4jnsgd1na2vs0mg"},{"bike_id":"0d7b7afe-128e-489a-b735-bf731cf314e5","system_id":"levelo_inurba_marseille","lat":43.29572,"lon":5.39971,"is_reserved":false,"is_disabled":false,"rental_uris":{"android":"levelo://app?vid=0d7b7afe-128e-489a-b735-bf731cf314e5","ios":"levelo://app?vid=0d7b7afe-128e-489a-b735-bf731cf314e5"},"vehicle_type_id":"4","last_reported":1732864182,"current_range_meters":14400,"station_id":"ce4bh312rcd13ifvqdj0","pricing_plan_id":"cebpf4jnsgd1na2vs0mg"},{"bike_id":"fc4d15f5-6256-45a3-90d6-77bb4c676955","system_id":"levelo_inurba_marseille","lat":43.296284,"lon":5.377877,"is_reserved":false,"is_disabled":true,"rental_uris":{"android":"levelo://app?vid=fc4d15f5-6256-45a3-90d6-77bb4c676955","ios":"levelo://app?vid=fc4d15f5-6256-45a3-90d6-77bb4c676955"},"vehicle_type_id":"4","last_reported":1732864182,"current_range_meters":30400,"station_id":"","pricing_plan_id":"cebpf4jnsgd1na2vs0mg"},{"bike_id":"c277fab0-9e54-4071-874a-e68f4566481f","system_id":"levelo_inurba_marseille","lat":43.31403,"lon":5.38703,"is_reserved":false,"is_disabled":false,"rental_uris":{"android":"levelo://app?vid=c277fab0-9e54-4071-874a-e68f4566481f","ios":"levelo://app?vid=c277fab0-9e54-4071-874a-e68f4566481f"},"vehicle_type_id":"4","last_reported":1732864182,"current_range_meters":33200,"station_id":"ce4bhqp2rcd13ifvqhng","pricing_plan_id":"cebpf4jnsgd1na2vs0mg"},{"bike_id":"c88f8730-1176-4717-97e2-17c27b15274f","system_id":"levelo_inurba_marseille","lat":43.231986,"lon":5.355458,"is_reserved":false,"is_disabled":false,"rental_uris":{"android":"levelo://app?vid=c88f8730-1176-4717-97e2-17c27b15274f","ios":"levelo://app?vid=c88f8730-1176-4717-97e2-17c27b15274f"},"vehicle_type_id":"4","last_reported":1732864182,"current_range_meters":38800,"station_id":"ce4bhu92rcd13ifvqi70","pricing_plan_id":"cebpf4jnsgd1na2vs0mg"},{"bike_id":"71b32be8-003f-4159-80f3-dab93b9db48c","system_id":"levelo_inurba_marseille","lat":43.298,"lon":5.38094,"is_reserved":false,"is_disabled":false,"rental_uris":{"android":"levelo://app?vid=71b32be8-003f-4159-80f3-dab93b9db48c","ios":"levelo://app?vid=71b32be8-003f-4159-80f3-dab93b9db48c"},"vehicle_type_id":"4","last_reported":1732864182,"current_range_meters":28400,"station_id":"ce4bgip2rcd13ifvqbb0","pricing_plan_id":"cebpf4jnsgd1na2vs0mg"},{"bike_id":"16512b8d-4fb1-4cf8-891e-b29461d255e2","system_id":"levelo_inurba_marseille","lat":43.29789,"lon":5.38115,"is_reserved":false,"is_disabled":true,"rental_uris":{"android":"levelo://app?vid=16512b8d-4fb1-4cf8-891e-b29461d255e2","ios":"levelo://app?vid=16512b8d-4fb1-4cf8-891e-b29461d255e2"},"vehicle_type_id":"4","last_reported":1732864182,"current_range_meters":35600,"station_id":"ce4bgip2rcd13ifvqbb0","pricing_plan_id":"cebpf4jnsgd1na2vs0mg"},{"bike_id":"c20afd6c-d414-44df-9450-cc27e4ad9839","system_id":"levelo_inurba_marseille","lat":43.3216,"lon":5.38489,"is_reserved":false,"is_disabled":true,"rental_uris":{"android":"levelo://app?vid=c20afd6c-d414-44df-9450-cc27e4ad9839","ios":"levelo://app?vid=c20afd6c-d414-44df-9450-cc27e4ad9839"},"vehicle_type_id":"4","last_reported":1732864182,"current_range_meters":0,"station_id":"","pricing_plan_id":"cebpf4jnsgd1na2vs0mg"},{"bike_id":"b6ed1910-de57-401d-8b1d-af35755f9004","system_id":"levelo_inurba_marseille","lat":43.27955,"lon":5.4105,"is_reserved":false,"is_disabled":true,"rental_uris":{"android":"levelo://app?vid=b6ed1910-de57-401d-8b1d-af35755f9004","ios":"levelo://app?vid=b6ed1910-de57-401d-8b1d-af35755f9004"},"vehicle_type_id":"4","last_reported":1732864182,"current_range_meters":26800,"station_id":"ce4bhnp2rcd13ifvqh0g","pricing_plan_id":"cebpf4jnsgd1na2vs0mg"},{"bike_id":"cd682ef8-2903-41f1-b065-2150dbeb65f0","system_id":"levelo_inurba_marseille","lat":43.28353,"lon":5.38101,"is_reserved":false,"is_disabled":false,"rental_uris":{"android":"levelo://app?vid=cd682ef8-2903-41f1-b065-2150dbeb65f0","ios":"levelo://app?vid=cd682ef8-2903-41f1-b065-2150dbeb65f0"},"vehicle_type_id":"4","last_reported":1732864182,"current_range_meters":16800,"station_id":"ce4bh412rcd13ifvqdr0","pricing_plan_id":"cebpf4jnsgd1na2vs0mg"},{"bike_id":"b944efa8-8bfd-4cf3-9742-93239c780cac","system_id":"levelo_inurba_marseille","lat":43.28998,"lon":5.35622,"is_reserved":false,"is_disabled":true,"rental_uris":{"android":"levelo://app?vid=b944efa8-8bfd-4cf3-9742-93239c780cac","ios":"levelo://app?vid=b944efa8-8bfd-4cf3-9742-93239c780cac"},"vehicle_type_id":"4","last_reported":1732864182,"current_range_meters":30800,"station_id":"ce4bhb92rcd13ifvqen0","pricing_plan_id":"cebpf4jnsgd1na2vs0mg"},{"bike_id":"a62a0f42-9376-4be7-9075-1f7cd63bf4a3","system_id":"levelo_inurba_marseille","lat":43.25002,"lon":5.38934,"is_reserved":false,"is_disabled":false,"rental_uris":{"android":"levelo://app?vid=a62a0f42-9376-4be7-9075-1f7cd63bf4a3","ios":"levelo://app?vid=a62a0f42-9376-4be7-9075-1f7cd63bf4a3"},"vehicle_type_id":"4","last_reported":1732864182,"current_range_meters":25600,"station_id":"ce4bhgp2rcd13ifvqfd0","pricing_plan_id":"cebpf4jnsgd1na2vs0mg"},{"bike_id":"4b262992-5694-423d-ae6a-926833988b3b","system_id":"levelo_inurba_marseille","lat":43.30482,"lon":5.37908,"is_reserved":false,"is_disabled":false,"rental_uris":{"android":"levelo://app?vid=4b262992-5694-423d-ae6a-926833988b3b","ios":"levelo://app?vid=4b262992-5694-423d-ae6a-926833988b3b"},"vehicle_type_id":"4","last_reported":1732864182,"current_range_meters":33200,"station_id":"ce4bgup2rcd13ifvqcn0","pricing_plan_id":"cebpf4jnsgd1na2vs0mg"},{"bike_id":"31365e05-95c8-4c69-bec9-7ce7f183eb57","system_id":"levelo_inurba_marseille","lat":43.30265,"lon":5.40077,"is_reserved":false,"is_disabled":false,"rental_uris":{"android":"levelo://app?vid=31365e05-95c8-4c69-bec9-7ce7f183eb57","ios":"levelo://app?vid=31365e05-95c8-4c69-bec9-7ce7f183eb57"},"vehicle_type_id":"4","last_reported":1732864182,"current_range_meters":23200,"station_id":"ce4bgvh2rcd13ifvqcs0","pricing_plan_id":"cebpf4jnsgd1na2vs0mg"},{"bike_id":"fd52e257-6121-4a27-b7c3-37b1660c1602","system_id":"levelo_inurba_marseille","lat":43.24078,"lon":5.37761,"is_reserved":false,"is_disabled":false,"rental_uris":{"android":"levelo://app?vid=fd52e257-6121-4a27-b7c3-37b1660c1602","ios":"levelo://app?vid=fd52e257-6121-4a27-b7c3-37b1660c1602"},"vehicle_type_id":"4","last_reported":1732864182,"current_range_meters":33600,"station_id":"ce4bhnp2rcd13ifvqgvg","pricing_plan_id":"cebpf4jnsgd1na2vs0mg"},{"bike_id":"53832248-7ea6-4cc6-856c-2b60c3f17998","system_id":"levelo_inurba_marseille","lat":43.29557,"lon":5.42286,"is_reserved":false,"is_disabled":true,"rental_uris":{"android":"levelo://app?vid=53832248-7ea6-4cc6-856c-2b60c3f17998","ios":"levelo://app?vid=53832248-7ea6-4cc6-856c-2b60c3f17998"},"vehicle_type_id":"4","last_reported":1732864182,"current_range_meters":38800,"station_id":"ce4bhph2rcd13ifvqhdg","pricing_plan_id":"cebpf4jnsgd1na2vs0mg"},{"bike_id":"61f919f4-7d6d-41ef-800f-5100786730a3","system_id":"levelo_inurba_marseille","lat":43.33611,"lon":5.41021,"is_reserved":false,"is_disabled":false,"rental_uris":{"android":"levelo://app?vid=61f919f4-7d6d-41ef-800f-5100786730a3","ios":"levelo://app?vid=61f919f4-7d6d-41ef-800f-5100786730a3"},"vehicle_type_id":"4","last_reported":1732864182,"current_range_meters":8400,"station_id":"ce4bhqh2rcd13ifvqhmg","pricing_plan_id":"cebpf4jnsgd1na2vs0mg"},{"bike_id":"ed4dfe3b-c342-4528-90f6-e552938f730a","system_id":"levelo_inurba_marseille","lat":43.23186,"lon":5.39997,"is_reserved":false,"is_disabled":false,"rental_uris":{"android":"levelo://app?vid=ed4dfe3b-c342-4528-90f6-e552938f730a","ios":"levelo://app?vid=ed4dfe3b-c342-4528-90f6-e552938f730a"},"vehicle_type_id":"4","last_reported":1732864182,"current_range_meters":20800,"station_id":"ce4bhn12rcd13ifvqgqg","pricing_plan_id":"cebpf4jnsgd1na2vs0mg"},{"bike_id":"2b2c8d8d-ba75-4bf3-8b88-09800f648aa8","system_id":"levelo_inurba_marseille","lat":43.27212,"lon":5.39188,"is_reserved":false,"is_disabled":false,"rental_uris":{"android":"levelo://app?vid=2b2c8d8d-ba75-4bf3-8b88-09800f648aa8","ios":"levelo://app?vid=2b2c8d8d-ba75-4bf3-8b88-09800f648aa8"},