{"last_updated":1751130489,"ttl":60,"version":"2.2","data":{"bikes":[{"bike_id":"3da29fb8-fc97-44c6-b9ac-31dd456b2fd4","system_id":"levelo_inurba_marseille","lat":43.33771,"lon":5.37424,"is_reserved":false,"is_disabled":true,"rental_uris":{"android":"levelo://app?vid=3da29fb8-fc97-44c6-b9ac-31dd456b2fd4","ios":"levelo://app?vid=3da29fb8-fc97-44c6-b9ac-31dd456b2fd4"},"vehicle_type_id":"4","last_reported":1751130490,"current_range_meters":0,"station_id":"","pricing_plan_id":"cebpf4jnsgd1na2vs0mg"},{"bike_id":"01861ad8-a8d7-4be6-816e-651927c87584","system_id":"levelo_inurba_marseille","lat":43.33751,"lon":5.37456,"is_reserved":false,"is_disabled":true,"rental_uris":{"android":"levelo://app?vid=01861ad8-a8d7-4be6-816e-651927c87584","ios":"levelo://app?vid=01861ad8-a8d7-4be6-816e-651927c87584"},"vehicle_type_id":"4","last_reported":1751130490,"current_range_meters":0,"station_id":"","pricing_plan_id":"cebpf4jnsgd1na2vs0mg"},{"bike_id":"7aac647a-260b-423f-ae41-874b82472ad9","system_id":"levelo_inurba_marseille","lat":43.23208,"lon":5.35168,"is_reserved":false,"is_disabled":true,"rental_uris":{"android":"levelo://app?vid=7aac647a-260b-423f-ae41-874b82472ad9","ios":"levelo://app?vid=7aac647a-260b-423f-ae41-874b82472ad9"},"vehicle_type_id":"4","last_reported":1751130490,"current_range_meters":0,"station_id":"","pricing_plan_id":"cebpf4jnsgd1na2vs0mg"},{"bike_id":"e9a7f2ce-f5b2-41e5-b572-5533013492a4","system_id":"levelo_inurba_marseille","lat":43.337444,"lon":5.374475,"is_reserved":false,"is_disabled":true,"rental_uris":{"android":"levelo://app?vid=e9a7f2ce-f5b2-41e5-b572-5533013492a4","ios":"levelo://app?vid=e9a7f2ce-f5b2-41e5-b572-5533013492a4"},"vehicle_type_id":"4","last_reported":1751130490,"current_range_meters":0,"station_id":"","pricing_plan_id":"cebpf4jnsgd1na2vs0mg"},{"bike_id":"666ef40e-8142-4330-a1bf-355f72ca0910","system_id":"levelo_inurba_marseille","lat":43.26342,"lon":5.40118,"is_reserved":false,"is_disabled":true,"rental_uris":{"android":"levelo://app?vid=666ef40e-8142-4330-a1bf-355f72ca0910","ios":"levelo://app?vid=666ef40e-8142-4330-a1bf-355f72ca0910"},"vehicle_type_id":"4","last_reported":1751130490,"current_range_meters":0,"station_id":"","pricing_plan_id":"cebpf4jnsgd1na2vs0mg"},{"bike_id":"201f3fee-88c7-45a9-94bc-1c3e24f20ba4","system_id":"levelo_inurba_marseille","lat":43.29315,"lon":5.37455,"is_reserved":false,"is_disabled":true,"rental_uris":{"android":"levelo://app?vid=201f3fee-88c7-45a9-94bc-1c3e24f20ba4","ios":"levelo://app?vid=201f3fee-88c7-45a9-94bc-1c3e24f20ba4"},"vehicle_type_id":"4","last_reported":1751130490,"current_range_meters":0,"station_id":"ce4bgi12rcd13ifvqb70","pricing_plan_id":"cebpf4jnsgd1na2vs0mg"},{"bike_id":"2e32eba8-bfcd-4a4c-91ef-ab115e2560ff","system_id":"levelo_inurba_marseille","lat":43.29258,"lon":5.409,"is_reserved":false,"is_disabled":true,"rental_uris":{"android":"levelo://app?vid=2e32eba8-bfcd-4a4c-91ef-ab115e2560ff","ios":"levelo://app?vid=2e32eba8-bfcd-4a4c-91ef-ab115e2560ff"},"vehicle_type_id":"4","last_reported":1751130490,"current_range_meters":0,"station_id":"ce4bh192rcd13ifvqdc0","pricing_plan_id":"cebpf4jnsgd1na2vs0mg"},{"bike_id":"d4b020fd-d4b6-4bf5-aaba-a9540b85a0fd","system_id":"levelo_inurba_marseille","lat":43.28663,"lon":5.38665,"is_reserved":false,"is_disabled":true,"rental_uris":{"android":"levelo://app?vid=d4b020fd-d4b6-4bf5-aaba-a9540b85a0fd","ios":"levelo://app?vid=d4b020fd-d4b6-4bf5-aaba-a9540b85a0fd"},"vehicle_type_id":"4","last_reported":1751130490,"current_range_meters":0,"station_id":"ce4bh492rcd13ifvqdug","pricing_plan_id":"cebpf4jnsgd1na2vs0mg"},{"bike_id":"383240f9-0104-4986-8ab9-7970c243cc55","system_id":"levelo_inurba_marseille","lat":43.255015,"lon":5.376555,"is_reserved":false,"is_disabled":true,"rental_uris":{"android":"levelo://app?vid=383240f9-0104-4986-8ab9-7970c243cc55","ios":"levelo://app?vid=383240f9-0104-4986-8ab9-7970c243cc55"},"vehicle_type_id":"4","last_reported":1751130490,"current_range_meters":0,"station_id":"ce4bhh12rcd13ifvqff0","pricing_plan_id":"cebpf4jnsgd1na2vs0mg"},{"bike_id":"8c4b3c67-e9d7-4d8a-b315-9126aa106943","system_id":"levelo_inurba_marseille","lat":43.27211,"lon":5.39175,"is_reserved":false,"is_disabled":true,"rental_uris":{"android":"levelo://app?vid=8c4b3c67-e9d7-4d8a-b315-9126aa106943","ios":"levelo://app?vid=8c4b3c67-e9d7-4d8a-b315-9126aa106943"},"vehicle_type_id":"4","last_reported":1751130490,"current_range_meters":0,"station_id":"ce4bhhp2rcd13ifvqfm0","pricing_plan_id":"cebpf4jnsgd1na2vs0mg"},{"bike_id":"f5ffe731-dfed-4b47-961f-3542a3339f9c","system_id":"levelo_inurba_marseille","lat":43.276717,"lon":5.388942,"is_reserved":false,"is_disabled":true,"rental_uris":{"android":"levelo://app?vid=f5ffe731-dfed-4b47-961f-3542a3339f9c","ios":"levelo://app?vid=f5ffe731-dfed-4b47-961f-3542a3339f9c"},"vehicle_type_id":"4","last_reported":1751130490,"current_range_meters":0,"station_id":"ce4bhi12rcd13ifvqfp0","pricing_plan_id":"cebpf4jnsgd1na2vs0mg"},{"bike_id":"74471248-c506-4fbe-8f24-5336cac6c986","system_id":"levelo_inurba_marseille","lat":43.25119,"lon":5.40315,"is_reserved":false,"is_disabled":true,"rental_uris":{"android":"levelo://app?vid=74471248-c506-4fbe-8f24-5336cac6c986","ios":"levelo://app?vid=74471248-c506-4fbe-8f24-5336cac6c986"},"vehicle_type_id":"4","last_reported":1751130490,"current_range_meters":0,"station_id":"ce4bhlh2rcd13ifvqgig","pricing_plan_id":"cebpf4jnsgd1na2vs0mg"},{"bike_id":"92d3bb11-4cf3-47e6-bc0f-ff80eea58ad1","system_id":"levelo_inurba_marseille","lat":43.30372,"lon":5.42491,"is_reserved":false,"is_disabled":true,"rental_uris":{"android":"levelo://app?vid=92d3bb11-4cf3-47e6-bc0f-ff80eea58ad1","ios":"levelo://app?vid=92d3bb11-4cf3-47e6-bc0f-ff80eea58ad1"},"vehicle_type_id":"4","last_reported":1751130490,"current_range_meters":0,"station_id":"ce4bhoh2rcd13ifvqh6g","pricing_plan_id":"cebpf4jnsgd1na2vs0mg"},{"bike_id":"c8ce0351-fe68-40b1-beb5-45d8ee0eed11","system_id":"levelo_inurba_marseille","lat":43.30378,"lon":5.42485,"is_reserved":false,"is_disabled":true,"rental_uris":{"android":"levelo://app?vid=c8ce0351-fe68-40b1-beb5-45d8ee0eed11","ios":"levelo://app?vid=c8ce0351-fe68-40b1-beb5-45d8ee0eed11"},"vehicle_type_id":"4","last_reported":1751130490,"current_range_meters":0,"station_id":"ce4bhoh2rcd13ifvqh6g","pricing_plan_id":"cebpf4jnsgd1na2vs0mg"},{"bike_id":"df54afe3-5a09-4bf0-97c8-46c46f0e6f13","system_id":"levelo_inurba_marseille","lat":43.286103,"lon":5.370722,"is_reserved":false,"is_disabled":true,"rental_uris":{"android":"levelo://app?vid=df54afe3-5a09-4bf0-97c8-46c46f0e6f13","ios":"levelo://app?vid=df54afe3-5a09-4bf0-97c8-46c46f0e6f13"},"vehicle_type_id":"4","last_reported":1751130490,"current_range_meters":0,"station_id":"ce4bht12rcd13ifvqi60","pricing_plan_id":"cebpf4jnsgd1na2vs0mg"},{"bike_id":"38d01765-5414-4f3d-b96c-a482eae367ca","system_id":"levelo_inurba_marseille","lat":43.21755,"lon":5.34604,"is_reserved":false,"is_disabled":true,"rental_uris":{"android":"levelo://app?vid=38d01765-5414-4f3d-b96c-a482eae367ca","ios":"levelo://app?vid=38d01765-5414-4f3d-b96c-a482eae367ca"},"vehicle_type_id":"4","last_reported":1751130490,"current_range_meters":0,"station_id":"st_cvj6r9ubvosntc0bgbag","pricing_plan_id":"cebpf4jnsgd1na2vs0mg"},{"bike_id":"070a5204-3e73-4cf5-9fda-520c8795969f","system_id":"levelo_inurba_marseille","lat":43.21752,"lon":5.34605,"is_reserved":false,"is_disabled":true,"rental_uris":{"android":"levelo://app?vid=070a5204-3e73-4cf5-9fda-520c8795969f","ios":"levelo://app?vid=070a5204-3e73-4cf5-9fda-520c8795969f"},"vehicle_type_id":"4","last_reported":1751130490,"current_range_meters":0,"station_id":"st_cvj6r9ubvosntc0bgbag","pricing_plan_id":"cebpf4jnsgd1na2vs0mg"},{"bike_id":"a5518948-1869-4cb2-bab4-fe2685345c30","system_id":"levelo_inurba_marseille","lat":43.28265,"lon":5.3507,"is_reserved":false,"is_disabled":true,"rental_uris":{"android":"levelo://app?vid=a5518948-1869-4cb2-bab4-fe2685345c30","ios":"levelo://app?vid=a5518948-1869-4cb2-bab4-fe2685345c30"},"vehicle_type_id":"4","last_reported":1751130490,"current_range_meters":400,"station_id":"ce4bhbp2rcd13ifvqerg","pricing_plan_id":"cebpf4jnsgd1na2vs0mg"},{"bike_id":"d450f935-6ec9-43f3-aef3-9a0627bc6664","system_id":"levelo_inurba_marseille","lat":43.2827,"lon":5.35089,"is_reserved":false,"is_disabled":true,"rental_uris":{"android":"levelo://app?vid=d450f935-6ec9-43f3-aef3-9a0627bc6664","ios":"levelo://app?vid=d450f935-6ec9-43f3-aef3-9a0627bc6664"},"vehicle_type_id":"4","last_reported":1751130490,"current_range_meters":400,"station_id":"ce4bhbp2rcd13ifvqerg","pricing_plan_id":"cebpf4jnsgd1na2vs0mg"},{"bike_id":"f3abd1f4-ad79-4b8f-b625-3a6e1955bae8","system_id":"levelo_inurba_marseille","lat":43.26684,"lon":5.38283,"is_reserved":false,"is_disabled":true,"rental_uris":{"android":"levelo://app?vid=f3abd1f4-ad79-4b8f-b625-3a6e1955bae8","ios":"levelo://app?vid=f3abd1f4-ad79-4b8f-b625-3a6e1955bae8"},"vehicle_type_id":"4","last_reported":1751130490,"current_range_meters":800,"station_id":"ce4bhg92rcd13ifvqf90","pricing_plan_id":"cebpf4jnsgd1na2vs0mg"},{"bike_id":"2e4b3190-9cc9-47cf-87ca-5dc482ba5b0d","system_id":"levelo_inurba_marseille","lat":43.231604,"lon":5.437075,"is_reserved":false,"is_disabled":true,"rental_uris":{"android":"levelo://app?vid=2e4b3190-9cc9-47cf-87ca-5dc482ba5b0d","ios":"levelo://app?vid=2e4b3190-9cc9-47cf-87ca-5dc482ba5b0d"},"vehicle_type_id":"4","last_reported":1751130490,"current_range_meters":800,"station_id":"ce4bhmp2rcd13ifvqgog","pricing_plan_id":"cebpf4jnsgd1na2vs0mg"},{"bike_id":"53f760d9-2926-4c0b-9078-ae8706c81b5c","system_id":"levelo_inurba_marseille","lat":43.21743,"lon":5.34604,"is_reserved":false,"is_disabled":true,"rental_uris":{"android":"levelo://app?vid=53f760d9-2926-4c0b-9078-ae8706c81b5c","ios":"levelo://app?vid=53f760d9-2926-4c0b-9078-ae8706c81b5c"},"vehicle_type_id":"4","last_reported":1751130490,"current_range_meters":800,"station_id":"st_cvj6r9ubvosntc0bgbag","pricing_plan_id":"cebpf4jnsgd1na2vs0mg"},{"bike_id":"3ed97791-4fd1-4beb-9e6b-4998740d59d9","system_id":"levelo_inurba_marseille","lat":43.271719,"lon":5.410008,"is_reserved":false,"is_disabled":true,"rental_uris":{"android":"levelo://app?vid=3ed97791-4fd1-4beb-9e6b-4998740d59d9","ios":"levelo://app?vid=3ed97791-4fd1-4beb-9e6b-4998740d59d9"},"vehicle_type_id":"4","last_reported":1751130490,"current_range_meters":1200,"station_id":"","pricing_plan_id":"cebpf4jnsgd1na2vs0mg"},{"bike_id":"ee26e436-1d80-47d5-b59d-80ca01656da3","system_id":"levelo_inurba_marseille","lat":43.2971,"lon":5.36611,"is_reserved":false,"is_disabled":true,"rental_uris":{"android":"levelo://app?vid=ee26e436-1d80-47d5-b59d-80ca01656da3","ios":"levelo://app?vid=ee26e436-1d80-47d5-b59d-80ca01656da3"},"vehicle_type_id":"4","last_reported":1751130490,"current_range_meters":1200,"station_id":"ce4bgn12rcd13ifvqbt0","pricing_plan_id":"cebpf4jnsgd1na2vs0mg"},{"bike_id":"a3373016-edec-4c19-bfaf-5e6c8c9940d1","system_id":"levelo_inurba_marseille","lat":43.25477,"lon":5.37686,"is_reserved":false,"is_disabled":true,"rental_uris":{"android":"levelo://app?vid=a3373016-edec-4c19-bfaf-5e6c8c9940d1","ios":"levelo://app?vid=a3373016-edec-4c19-bfaf-5e6c8c9940d1"},"vehicle_type_id":"4","last_reported":1751130490,"current_range_meters":1200,"station_id":"ce4bhh12rcd13ifvqff0","pricing_plan_id":"cebpf4jnsgd1na2vs0mg"},{"bike_id":"c8ac8490-17b2-4093-a672-d44d563b1703","system_id":"levelo_inurba_marseille","lat":43.27174,"lon":5.40991,"is_reserved":false,"is_disabled":true,"rental_uris":{"android":"levelo://app?vid=c8ac8490-17b2-4093-a672-d44d563b1703","ios":"levelo://app?vid=c8ac8490-17b2-4093-a672-d44d563b1703"},"vehicle_type_id":"4","last_reported":1751130490,"current_range_meters":1200,"station_id":"ce4bhl12rcd13ifvqgf0","pricing_plan_id":"cebpf4jnsgd1na2vs0mg"},{"bike_id":"7e54cfca-e236-452c-80bb-b944da28e618","system_id":"levelo_inurba_marseille","lat":43.31701,"lon":5.43703,"is_reserved":false,"is_disabled":true,"rental_uris":{"android":"levelo://app?vid=7e54cfca-e236-452c-80bb-b944da28e618","ios":"levelo://app?vid=7e54cfca-e236-452c-80bb-b944da28e618"},"vehicle_type_id":"4","last_reported":1751130490,"current_range_meters":1200,"station_id":"ce4bhp92rcd13ifvqhcg","pricing_plan_id":"cebpf4jnsgd1na2vs0mg"},{"bike_id":"f7ec9498-e03c-4cbb-9412-d4772fcbd8d9","system_id":"levelo_inurba_marseille","lat":43.28458,"lon":5.35886,"is_reserved":false,"is_disabled":true,"rental_uris":{"android":"levelo://app?vid=f7ec9498-e03c-4cbb-9412-d4772fcbd8d9","ios":"levelo://app?vid=f7ec9498-e03c-4cbb-9412-d4772fcbd8d9"},"vehicle_type_id":"4","last_reported":1751130490,"current_range_meters":2000,"station_id":"ce4bhah2rcd13ifvqei0","pricing_plan_id":"cebpf4jnsgd1na2vs0mg"},{"bike_id":"dabe6fdb-65e2-4ebf-83c4-6609303e3be0","system_id":"levelo_inurba_marseille","lat":43.27343,"lon":5.3911,"is_reserved":false,"is_disabled":true,"rental_uris":{"android":"levelo://app?vid=dabe6fdb-65e2-4ebf-83c4-6609303e3be0","ios":"levelo://app?vid=dabe6fdb-65e2-4ebf-83c4-6609303e3be0"},"vehicle_type_id":"4","last_reported":1751130490,"current_range_meters":2000,"station_id":"ce4bhgp2rcd13ifvqfe0","pricing_plan_id":"cebpf4jnsgd1na2vs0mg"},{"bike_id":"d6ab6ec1-502a-448a-97ca-b2627b36e7b9","system_id":"levelo_inurba_marseille","lat":43.27997,"lon":5.41666,"is_reserved":false,"is_disabled":true,"rental_uris":{"android":"levelo://app?vid=d6ab6ec1-502a-448a-97ca-b2627b36e7b9","ios":"levelo://app?vid=d6ab6ec1-502a-448a-97ca-b2627b36e7b9"},"vehicle_type_id":"4","last_reported":1751130490,"current_range_meters":2000,"station_id":"ce4bho12rcd13ifvqh1g","pricing_plan_id":"cebpf4jnsgd1na2vs0mg"},{"bike_id":"1545d045-10cb-4971-a6ac-eaea1a6e5a63","system_id":"levelo_inurba_marseille","lat":43.31686,"lon":5.40476,"is_reserved":false,"is_disabled":false,"rental_uris":{"android":"levelo://app?vid=1545d045-10cb-4971-a6ac-eaea1a6e5a63","ios":"levelo://app?vid=1545d045-10cb-4971-a6ac-eaea1a6e5a63"},"vehicle_type_id":"4","last_reported":1751130490,"current_range_meters":2800,"station_id":"ce4bh012rcd13ifvqd00","pricing_plan_id":"cebpf4jnsgd1na2vs0mg"},{"bike_id":"3a1defd5-2db2-4ce8-8719-77ff79c8686e","system_id":"levelo_inurba_marseille","lat":43.29259,"lon":5.38454,"is_reserved":false,"is_disabled":false,"rental_uris":{"android":"levelo://app?vid=3a1defd5-2db2-4ce8-8719-77ff79c8686e","ios":"levelo://app?vid=3a1defd5-2db2-4ce8-8719-77ff79c8686e"},"vehicle_type_id":"4","last_reported":1751130490,"current_range_meters":2800,"station_id":"ce4bh692rcd13ifvqea0","pricing_plan_id":"cebpf4jnsgd1na2vs0mg"},{"bike_id":"7d19eb08-99aa-485a-8e7e-1cf8684aa651","system_id":"levelo_inurba_marseille","lat":43.31326,"lon":5.39696,"is_reserved":false,"is_disabled":false,"rental_uris":{"android":"levelo://app?vid=7d19eb08-99aa-485a-8e7e-1cf8684aa651","ios":"levelo://app?vid=7d19eb08-99aa-485a-8e7e-1cf8684aa651"},"vehicle_type_id":"4","last_reported":1751130490,"current_range_meters":3200,"station_id":"ce4bgvp2rcd13ifvqcu0","pricing_plan_id":"cebpf4jnsgd1na2vs0mg"},{"bike_id":"56deb3a2-78c2-4002-8a9f-216c0cedc31f","system_id":"levelo_inurba_marseille","lat":43.23188,"lon":5.39984,"is_reserved":false,"is_disabled":false,"rental_uris":{"android":"levelo://app?vid=56deb3a2-78c2-4002-8a9f-216c0cedc31f","ios":"levelo://app?vid=56deb3a2-78c2-4002-8a9f-216c0cedc31f"},"vehicle_type_id":"4","last_reported":1751130490,"current_range_meters":3200,"station_id":"ce4bhn12rcd13ifvqgqg","pricing_plan_id":"cebpf4jnsgd1na2vs0mg"},{"bike_id":"1ccd58a5-26ce-4103-85c5-0b2ea5f384a3","system_id":"levelo_inurba_marseille","lat":43.266853,"lon":5.382763,"is_reserved":false,"is_disabled":false,"rental_uris":{"android":"levelo://app?vid=1ccd58a5-26ce-4103-85c5-0b2ea5f384a3","ios":"levelo://app?vid=1ccd58a5-26ce-4103-85c5-0b2ea5f384a3"},"vehicle_type_id":"4","last_reported":1751130490,"current_range_meters":3600,"station_id":"","pricing_plan_id":"cebpf4jnsgd1na2vs0mg"},{"bike_id":"2b4e24ba-ca31-4a4d-a551-a6b70d99111b","system_id":"levelo_inurba_marseille","lat":43.25004,"lon":5.38921,"is_reserved":false,"is_disabled":false,"rental_uris":{"android":"levelo://app?vid=2b4e24ba-ca31-4a4d-a551-a6b70d99111b","ios":"levelo://app?vid=2b4e24ba-ca31-4a4d-a551-a6b70d99111b"},"vehicle_type_id":"4","last_reported":1751130490,"current_range_meters":3600,"station_id":"ce4bhgp2rcd13ifvqfd0","pricing_plan_id":"cebpf4jnsgd1na2vs0mg"},{"bike_id":"0a034962-a078-4cd8-ab5c-29a2f15ac163","system_id":"levelo_inurba_marseille","lat":43.29898,"lon":5.43684,"is_reserved":false,"is_disabled":false,"rental_uris":{"android":"levelo://app?vid=0a034962-a078-4cd8-ab5c-29a2f15ac163","ios":"levelo://app?vid=0a034962-a078-4cd8-ab5c-29a2f15ac163"},"vehicle_type_id":"4","last_reported":1751130490,"current_range_meters":3600,"station_id":"ce4bhpp2rcd13ifvqhfg","pricing_plan_id":"cebpf4jnsgd1na2vs0mg"},{"bike_id":"7ff6cb5c-3a90-41b7-a1f2-0af950ee0733","system_id":"levelo_inurba_marseille","lat":43.32361,"lon":5.36748,"is_reserved":false,"is_disabled":false,"rental_uris":{"android":"levelo://app?vid=7ff6cb5c-3a90-41b7-a1f2-0af950ee0733","ios":"levelo://app?vid=7ff6cb5c-3a90-41b7-a1f2-0af950ee0733"},"vehicle_type_id":"4","last_reported":1751130490,"current_range_meters":3600,"station_id":"ce4bhsh2rcd13ifvqi2g","pricing_plan_id":"cebpf4jnsgd1na2vs0mg"},{"bike_id":"0c94a198-99cb-4297-a7d4-5babd173ae9e","system_id":"levelo_inurba_marseille","lat":43.27323,"lon":5.39085,"is_reserved":false,"is_disabled":false,"rental_uris":{"android":"levelo://app?vid=0c94a198-99cb-4297-a7d4-5babd173ae9e","ios":"levelo://app?vid=0c94a198-99cb-4297-a7d4-5babd173ae9e"},"vehicle_type_id":"4","last_reported":1751130490,"current_range_meters":4000,"station_id":"ce4bhgp2rcd13ifvqfe0","pricing_plan_id":"cebpf4jnsgd1na2vs0mg"},{"bike_id":"21d64c6a-1ddd-433a-b729-8cc93d9b56f8","system_id":"levelo_inurba_marseille","lat":43.30944,"lon":5.40143,"is_reserved":false,"is_disabled":false,"rental_uris":{"android":"levelo://app?vid=21d64c6a-1ddd-433a-b729-8cc93d9b56f8","ios":"levelo://app?vid=21d64c6a-1ddd-433a-b729-8cc93d9b56f8"},"vehicle_type_id":"4","last_reported":1751130490,"current_range_meters":4400,"station_id":"ce4bgvp2rcd13ifvqct0","pricing_plan_id":"cebpf4jnsgd1na2vs0mg"},{"bike_id":"f91defd3-9e87-4a0e-9e0b-f6537737f1b5","system_id":"levelo_inurba_marseille","lat":43.282684,"lon":5.350649,"is_reserved":false,"is_disabled":false,"rental_uris":{"android":"levelo://app?vid=f91defd3-9e87-4a0e-9e0b-f6537737f1b5","ios":"levelo://app?vid=f91defd3-9e87-4a0e-9e0b-f6537737f1b5"},"vehicle_type_id":"4","last_reported":1751130490,"current_range_meters":4400,"station_id":"ce4bhbp2rcd13ifvqerg","pricing_plan_id":"cebpf4jnsgd1na2vs0mg"},{"bike_id":"d51279c7-180b-451d-b27c-4ab6621ee41d","system_id":"levelo_inurba_marseille","lat":43.30937,"lon":5.37251,"is_reserved":false,"is_disabled":false,"rental_uris":{"android":"levelo://app?vid=d51279c7-180b-451d-b27c-4ab6621ee41d","ios":"levelo://app?vid=d51279c7-180b-451d-b27c-4ab6621ee41d"},"vehicle_type_id":"4","last_reported":1751130490,"current_range_meters":4800,"station_id":"","pricing_plan_id":"cebpf4jnsgd1na2vs0mg"},{"bike_id":"2d70bacd-c920-42f3-a778-f9df95e6ddf9","system_id":"levelo_inurba_marseille","lat":43.28849,"lon":5.35848,"is_reserved":false,"is_disabled":false,"rental_uris":{"android":"levelo://app?vid=2d70bacd-c920-42f3-a778-f9df95e6ddf9","ios":"levelo://app?vid=2d70bacd-c920-42f3-a778-f9df95e6ddf9"},"vehicle_type_id":"4","last_reported":1751130490,"current_range_meters":4800,"station_id":"ce4bhb12rcd13ifvqem0","pricing_plan_id":"cebpf4jnsgd1na2vs0mg"},{"bike_id":"0aed2c5b-629b-47e2-a996-35a1507986e9","system_id":"levelo_inurba_marseille","lat":43.27951,"lon":5.38698,"is_reserved":false,"is_disabled":false,"rental_uris":{"android":"levelo://app?vid=0aed2c5b-629b-47e2-a996-35a1507986e9","ios":"levelo://app?vid=0aed2c5b-629b-47e2-a996-35a1507986e9"},"vehicle_type_id":"4","last_reported":1751130490,"current_range_meters":4800,"station_id":"ce4bhg12rcd13ifvqf80","pricing_plan_id":"cebpf4jnsgd1na2vs0mg"},{"bike_id":"70205a45-1149-40e8-9604-b17eaf9f42ab","system_id":"levelo_inurba_marseille","lat":43.27206,"lon":5.39178,"is_reserved":false,"is_disabled":false,"rental_uris":{"android":"levelo://app?vid=70205a45-1149-40e8-9604-b17eaf9f42ab","ios":"levelo://app?vid=70205a45-1149-40e8-9604-b17eaf9f42ab"},"vehicle_type_id":"4","last_reported":1751130490,"current_range_meters":4800,"station_id":"ce4bhhp2rcd13ifvqfm0","pricing_plan_id":"cebpf4jnsgd1na2vs0mg"},{"bike_id":"93f766fc-4fd2-4f40-87d5-8d1c0af114dd","system_id":"levelo_inurba_marseille","lat":43.2512,"lon":5.40314,"is_reserved":false,"is_disabled":false,"rental_uris":{"android":"levelo://app?vid=93f766fc-4fd2-4f40-87d5-8d1c0af114dd","ios":"levelo://app?vid=93f766fc-4fd2-4f40-87d5-8d1c0af114dd"},"vehicle_type_id":"4","last_reported":1751130490,"current_range_meters":4800,"station_id":"ce4bhlh2rcd13ifvqgig","pricing_plan_id":"cebpf4jnsgd1na2vs0mg"},{"bike_id":"48c60c85-4f46-4198-abe4-9a08874d2674","system_id":"levelo_inurba_marseille","lat":43.32363,"lon":5.36763,"is_reserved":false,"is_disabled":false,"rental_uris":{"android":"levelo://app?vid=48c60c85-4f46-4198-abe4-9a08874d2674","ios":"levelo://app?vid=48c60c85-4f46-4198-abe4-9a08874d2674"},"vehicle_type_id":"4","last_reported":1751130490,"current_range_meters":4800,"station_id":"ce4bhsh2rcd13ifvqi2g","pricing_plan_id":"cebpf4jnsgd1na2vs0mg"},{"bike_id":"73a03650-973e-42b0-bad4-545481e15f73","system_id":"levelo_inurba_marseille","lat":43.31231,"lon":5.39064,"is_reserved":false,"is_disabled":false,"rental_uris":{"android":"levelo://app?vid=73a03650-973e-42b0-bad4-545481e15f73","ios":"levelo://app?vid=73a03650-973e-42b0-bad4-545481e15f73"},"vehicle_type_id":"4","last_reported":1751130490,"current_range_meters":5600,"station_id":"","pricing_plan_id":"cebpf4jnsgd1na2vs0mg"},{"bike_id":"89da4245-cca7-4b98-bfc0-199cce3026ab","system_id":"levelo_inurba_marseille","lat":43.217425,"lon":5.346034,"is_reserved":false,"is_disabled":false,"rental_uris":{"android":"levelo://app?vid=89da4245-cca7-4b98-bfc0-199cce3026ab","ios":"levelo://app?vid=89da4245-cca7-4b98-bfc0-199cce3026ab"},"vehicle_type_id":"4","last_reported":1751130490,"current_range_meters":5600,"station_id":"","pricing_plan_id":"cebpf4jnsgd1na2vs0mg"},{"bike_id":"ed0713de-1e8a-43d1-b4eb-c36ffb856355","system_id":"levelo_inurba_marseille","lat":43.29621,"lon":5.37165,"is_reserved":false,"is_disabled":false,"rental_uris":{"android":"levelo://app?vid=ed0713de-1e8a-43d1-b4eb-c36ffb856355","ios":"levelo://app?vid=ed0713de-1e8a-43d1-b4eb-c36ffb856355"},"vehicle_type_id":"4","last_reported":1751130490,"current_range_meters":5600,"station_id":"ce4bgnh2rcd13ifvqc0g","pricing_plan_id":"cebpf4jnsgd1na2vs0mg"},{"bike_id":"5c5d4372-6ca1-49b5-a828-7e08a7ec658d","system_id":"levelo_inurba_marseille","lat":43.28276,"lon":5.35064,"is_reserved":false,"is_disabled":false,"rental_uris":{"android":"levelo://app?vid=5c5d4372-6ca1-49b5-a828-7e08a7ec658d","ios":"levelo://app?vid=5c5d4372-6ca1-49b5-a828-7e08a7ec658d"},"vehicle_type_id":"4","last_reported":1751130490,"current_range_meters":5600,"station_id":"ce4bhbp2rcd13ifvqerg","pricing_plan_id":"cebpf4jnsgd1na2vs0mg"},{"bike_id":"1eeb844b-f31f-44f9-8d6c-2a5bafcbdeb5","system_id":"levelo_inurba_marseille","lat":43.28673,"lon":5.38675,"is_reserved":false,"is_disabled":false,"rental_uris":{"android":"levelo://app?vid=1eeb844b-f31f-44f9-8d6c-2a5bafcbdeb5","ios":"levelo://app?vid=1eeb844b-f31f-44f9-8d6c-2a5bafcbdeb5"},"vehicle_type_id":"4","last_reported":1751130490,"current_range_meters":6000,"station_id":"ce4bh492rcd13ifvqdug","pricing_plan_id":"cebpf4jnsgd1na2vs0mg"},{"bike_id":"91c17b96-88aa-4f7e-a58b-8b50f08fdd18","system_id":"levelo_inurba_marseille","lat":43.272064,"lon":5.39183,"is_reserved":false,"is_disabled":false,"rental_uris":{"android":"levelo://app?vid=91c17b96-88aa-4f7e-a58b-8b50f08fdd18","ios":"levelo://app?vid=91c17b96-88aa-4f7e-a58b-8b50f08fdd18"},"vehicle_type_id":"4","last_reported":1751130490,"current_range_meters":6400,"station_id":"ce4bhhp2rcd13ifvqfm0","pricing_plan_id":"cebpf4jnsgd1na2vs0mg"},{"bike_id":"aa3a79a9-4a4a-41c3-bcff-5c5fe577f525","system_id":"levelo_inurba_marseille","lat":43.251068,"lon":5.403273,"is_reserved":false,"is_disabled":false,"rental_uris":{"android":"levelo://app?vid=aa3a79a9-4a4a-41c3-bcff-5c5fe577f525","ios":"levelo://app?vid=aa3a79a9-4a4a-41c3-bcff-5c5fe577f525"},"vehicle_type_id":"4","last_reported":1751130490,"current_range_meters":6400,"station_id":"ce4bhlh2rcd13ifvqgig","pricing_plan_id":"cebpf4jnsgd1na2vs0mg"},{"bike_id":"a440f2f6-8cf8-4348-9ba1-e21002a18a07","system_id":"levelo_inurba_marseille","lat":43.32124,"lon":5.3675,"is_reserved":false,"is_disabled":false,"rental_uris":{"android":"levelo://app?vid=a440f2f6-8cf8-4348-9ba1-e21002a18a07","ios":"levelo://app?vid=a440f2f6-8cf8-4348-9ba1-e21002a18a07"},"vehicle_type_id":"4","last_reported":1751130490,"current_range_meters":6400,"station_id":"ce4bhrh2rcd13ifvqhug","pricing_plan_id":"cebpf4jnsgd1na2vs0mg"},{"bike_id":"70b2698d-874f-4053-93c4-7a729f639a58","system_id":"levelo_inurba_marseille","lat":43.28276,"lon":5.35061,"is_reserved":false,"is_disabled":false,"rental_uris":{"android":"levelo://app?vid=70b2698d-874f-4053-93c4-7a729f639a58","ios":"levelo://app?vid=70b2698d-874f-4053-93c4-7a729f639a58"},"vehicle_type_id":"4","last_reported":1751130490,"current_range_meters":6800,"station_id":"ce4bhbp2rcd13ifvqerg","pricing_plan_id":"cebpf4jnsgd1na2vs0mg"},{"bike_id":"72ed7b58-9f5c-4d8a-a829-455e0efd3761","system_id":"levelo_inurba_marseille","lat":43.26506,"lon":5.395341,"is_reserved":false,"is_disabled":false,"rental_uris":{"android":"levelo://app?vid=72ed7b58-9f5c-4d8a-a829-455e0efd3761","ios":"levelo://app?vid=72ed7b58-9f5c-4d8a-a829-455e0efd3761"},"vehicle_type_id":"4","last_reported":1751130490,"current_range_meters":6800,"station_id":"ce4bhi12rcd13ifvqfq0","pricing_plan_id":"cebpf4jnsgd1na2vs0mg"},{"bike_id":"d93518a7-acea-49d1-8b1d-66917831e25a","system_id":"levelo_inurba_marseille","lat":43.283574,"lon":5.395649,"is_reserved":false,"is_disabled":false,"rental_uris":{"android":"levelo://app?vid=d93518a7-acea-49d1-8b1d-66917831e25a","ios":"levelo://app?vid=d93518a7-acea-49d1-8b1d-66917831e25a"},"vehicle_type_id":"4","last_reported":1751130490,"current_range_meters":7200,"station_id":"","pricing_plan_id":"cebpf4jnsgd1na2vs0mg"},{"bike_id":"2988d106-e078-43d8-9963-8efe70741bc9","system_id":"levelo_inurba_marseille","lat":43.29576,"lon":5.37522,"is_reserved":false,"is_disabled":false,"rental_uris":{"android":"levelo://app?vid=2988d106-e078-43d8-9963-8efe70741bc9","ios":"levelo://app?vid=2988d106-e078-43d8-9963-8efe70741bc9"},"vehicle_type_id":"4","last_reported":1751130490,"current_range_meters":7200,"station_id":"ce4bgh92rcd13ifvqb50","pricing_plan_id":"cebpf4jnsgd1na2vs0mg"},{"bike_id":"3b30627a-771e-4b5c-a864-a9d87a36b7f8","system_id":"levelo_inurba_marseille","lat":43.28421,"lon":5.3498,"is_reserved":false,"is_disabled":false,"rental_uris":{"android":"levelo://app?vid=3b30627a-771e-4b5c-a864-a9d87a36b7f8","ios":"levelo://app?vid=3b30627a-771e-4b5c-a864-a9d87a36b7f8"},"vehicle_type_id":"4","last_reported":1751130490,"current_range_meters":7200,"station_id":"ce4bhbh2rcd13ifvqepg","pricing_plan_id":"cebpf4jnsgd1na2vs0mg"},{"bike_id":"55a864d2-da2b-4887-be95-278b903dfe4b","system_id":"levelo_inurba_marseille","lat":43.25504,"lon":5.3765,"is_reserved":false,"is_disabled":false,"rental_uris":{"android":"levelo://app?vid=55a864d2-da2b-4887-be95-278b903dfe4b","ios":"levelo://app?vid=55a864d2-da2b-4887-be95-278b903dfe4b"},"vehicle_type_id":"4","last_reported":1751130490,"current_range_meters":7200,"station_id":"ce4bhh12rcd13ifvqff0","pricing_plan_id":"cebpf4jnsgd1na2vs0mg"},{"bike_id":"f3ff531a-5f36-4ce3-b6a2-9a166728c09f","system_id":"levelo_inurba_marseille","lat":43.21746,"lon":5.34606,"is_reserved":false,"is_disabled":false,"rental_uris":{"android":"levelo://app?vid=f3ff531a-5f36-4ce3-b6a2-9a166728c09f","ios":"levelo://app?vid=f3ff531a-5f36-4ce3-b6a2-9a166728c09f"},"vehicle_type_id":"4","last_reported":1751130490,"current_range_meters":7200,"station_id":"st_cvj6r9ubvosntc0bgbag","pricing_plan_id":"cebpf4jnsgd1na2vs0mg"},{"bike_id":"211b0727-8d8c-42a3-b75a-1f8d1380df8e","system_id":"levelo_inurba_marseille","lat":43.30544,"lon":5.38421,"is_reserved":false,"is_disabled":false,"rental_uris":{"android":"levelo://app?vid=211b0727-8d8c-42a3-b75a-1f8d1380df8e","ios":"levelo://app?vid=211b0727-8d8c-42a3-b75a-1f8d1380df8e"},"vehicle_type_id":"4","last_reported":1751130490,"current_range_meters":8000,"station_id":"ce4bgg92rcd13ifvqb30","pricing_plan_id":"cebpf4jnsgd1na2vs0mg"},{"bike_id":"1c8ab180-05fd-405f-9922-b2b2c2d5142f","system_id":"levelo_inurba_marseille","lat":43.32098,"lon":5.36793,"is_reserved":false,"is_disabled":false,"rental_uris":{"android":"levelo://app?vid=1c8ab180-05fd-405f-9922-b2b2c2d5142f","ios":"levelo://app?vid=1c8ab180-05fd-405f-9922-b2b2c2d5142f"},"vehicle_type_id":"4","last_reported":1751130490,"current_range_meters":8000,"station_id":"ce4bhrh2rcd13ifvqhug","pricing_plan_id":"cebpf4jnsgd1na2vs0mg"},{"bike_id":"eeb2c111-4de9-4f13-a3d9-3391c07fc8b4","system_id":"levelo_inurba_marseille","lat":43.29273,"lon":5.38434,"is_reserved":false,"is_disabled":false,"rental_uris":{"android":"levelo://app?vid=eeb2c111-4de9-4f13-a3d9-3391c07fc8b4","ios":"levelo://app?vid=eeb2c111-4de9-4f13-a3d9-3391c07fc8b4"},"vehicle_type_id":"4","last_reported":1751130490,"current_range_meters":8400,"station_id":"ce4bh692rcd13ifvqea0","pricing_plan_id":"cebpf4jnsgd1na2vs0mg"},{"bike_id":"46a9cff9-da49-46a1-be26-97a74d4a59b7","system_id":"levelo_inurba_marseille","lat":43.28423,"lon":5.34989,"is_reserved":false,"is_disabled":false,"rental_uris":{"android":"levelo://app?vid=46a9cff9-da49-46a1-be26-97a74d4a59b7","ios":"levelo://app?vid=46a9cff9-da49-46a1-be26-97a74d4a59b7"},"vehicle_type_id":"4","last_reported":1751130490,"current_range_meters":8400,"station_id":"ce4bhbh2rcd13ifvqepg","pricing_plan_id":"cebpf4jnsgd1na2vs0mg"},{"bike_id":"90617317-3832-412d-8fb9-f0f9d9d5ed37","system_id":"levelo_inurba_marseille","lat":43.27211,"lon":5.39184,"is_reserved":false,"is_disabled":false,"rental_uris":{"android":"levelo://app?vid=90617317-3832-412d-8fb9-f0f9d9d5ed37","ios":"levelo://app?vid=90617317-3832-412d-8fb9-f0f9d9d5ed37"},"vehicle_type_id":"4","last_reported":1751130490,"current_range_meters":8400,"station_id":"ce4bhhp2rcd13ifvqfm0","pricing_plan_id":"cebpf4jnsgd1na2vs0mg"},{"bike_id":"03047c0b-d3f2-4299-b292-04c7da92b080","system_id":"levelo_inurba_marseille","lat":43.21201,"lon":5.35063,"is_reserved":false,"is_disabled":false,"rental_uris":{"android":"levelo://app?vid=03047c0b-d3f2-4299-b292-04c7da92b080","ios":"levelo://app?vid=03047c0b-d3f2-4299-b292-04c7da92b080"},"vehicle_type_id":"4","last_reported":1751130490,"current_range_meters":8800,"station_id":"","pricing_plan_id":"cebpf4jnsgd1na2vs0mg"},{"bike_id":"e283eccf-a5d6-47f6-8859-92f12eb0ae24","system_id":"levelo_inurba_marseille","lat":43.27204,"lon":5.39177,"is_reserved":false,"is_disabled":false,"rental_uris":{"android":"levelo://app?vid=e283eccf-a5d6-47f6-8859-92f12eb0ae24","ios":"levelo://app?vid=e283eccf-a5d6-47f6-8859-92f12eb0ae24"},"vehicle_type_id":"4","last_reported":1751130490,"current_range_meters":8800,"station_id":"ce4bhhp2rcd13ifvqfm0","pricing_plan_id":"cebpf4jnsgd1na2vs0mg"},{"bike_id":"cfcb5674-a0cb-4d7d-a53b-2a9d30bc7510","system_id":"levelo_inurba_marseille","lat":43.25134,"lon":5.40307,"is_reserved":false,"is_disabled":false,"rental_uris":{"android":"levelo://app?vid=cfcb5674-a0cb-4d7d-a53b-2a9d30bc7510","ios":"levelo://app?vid=cfcb5674-a0cb-4d7d-a53b-2a9d30bc7510"},"vehicle_type_id":"4","last_reported":1751130490,"current_range_meters":8800,"station_id":"ce4bhlh2rcd13ifvqgig","pricing_plan_id":"cebpf4jnsgd1na2vs0mg"},{"bike_id":"a6b8dee1-fa21-496b-918d-908eb6a95ebe","system_id":"levelo_inurba_marseille","lat":43.32674,"lon":5.4099,"is_reserved":false,"is_disabled":false,"rental_uris":{"android":"levelo://app?vid=a6b8dee1-fa21-496b-918d-908eb6a95ebe","ios":"levelo://app?vid=a6b8dee1-fa21-496b-918d-908eb6a95ebe"},"vehicle_type_id":"4","last_reported":1751130490,"current_range_meters":8800,"station_id":"ce4bhpp2rcd13ifvqhgg","pricing_plan_id":"cebpf4jnsgd1na2vs0mg"},{"bike_id":"a2d7f686-5624-4043-994a-a60c4a36291d","system_id":"levelo_inurba_marseille","lat":43.29034,"lon":5.35914,"is_reserved":false,"is_disabled":false,"rental_uris":{"android":"levelo://app?vid=a2d7f686-5624-4043-994a-a60c4a36291d","ios":"levelo://app?vid=a2d7f686-5624-4043-994a-a60c4a36291d"},"vehicle_type_id":"4","last_reported":1751130490,"current_range_meters":9200,"station_id":"ce4bha92rcd13ifvqeg0","pricing_plan_id":"cebpf4jnsgd1na2vs0mg"},{"bike_id":"0b12c13e-8251-421b-abbc-8d9f77ebc7fd","system_id":"levelo_inurba_marseille","lat":43.26058,"lon":5.39384,"is_reserved":false,"is_disabled":false,"rental_uris":{"android":"levelo://app?vid=0b12c13e-8251-421b-abbc-8d9f77ebc7fd","ios":"levelo://app?vid=0b12c13e-8251-421b-abbc-8d9f77ebc7fd"},"vehicle_type_id":"4","last_reported":1751130490,"current_range_meters":9200,"station_id":"ce4bhh92rcd13ifvqfj0","pricing_plan_id":"cebpf4jnsgd1na2vs0mg"},{"bike_id":"f48fdea1-2a26-4196-80fe-6c19cdd467cf","system_id":"levelo_inurba_marseille","lat":43.310841,"lon":5.424427,"is_reserved":false,"is_disabled":false,"rental_uris":{"android":"levelo://app?vid=f48fdea1-2a26-4196-80fe-6c19cdd467cf","ios":"levelo://app?vid=f48fdea1-2a26-4196-80fe-6c19cdd467cf"},"vehicle_type_id":"4","last_reported":1751130490,"current_range_meters":9200,"station_id":"ce4bhp92rcd13ifvqhag","pricing_plan_id":"cebpf4jnsgd1na2vs0mg"},{"bike_id":"4ff42df1-9dbe-444f-b0b5-3bf40a08bcdf","system_id":"levelo_inurba_marseille","lat":43.2695,"lon":5.40222,"is_reserved":false,"is_disabled":false,"rental_uris":{"android":"levelo://app?vid=4ff42df1-9dbe-444f-b0b5-3bf40a08bcdf","ios":"levelo://app?vid=4ff42df1-9dbe-444f-b0b5-3bf40a08bcdf"},"vehicle_type_id":"4","last_reported":1751130490,"current_range_meters":9200,"station_id":"cjm6bp8fraef2m0cb0m0","pricing_plan_id":"cebpf4jnsgd1na2vs0mg"},{"bike_id":"b4121008-3b28-491e-8c98-c9326f7003f6","system_id":"levelo_inurba_marseille","lat":43.284178,"lon":5.349865,"is_reserved":false,"is_disabled":false,"rental_uris":{"android":"levelo://app?vid=b4121008-3b28-491e-8c98-c9326f7003f6","ios":"levelo://app?vid=b4121008-3b28-491e-8c98-c9326f7003f6"},"vehicle_type_id":"4","last_reported":1751130490,"current_range_meters":9600,"station_id":"ce4bhbh2rcd13ifvqepg","pricing_plan_id":"cebpf4jnsgd1na2vs0mg"},{"bike_id":"ad552941-a428-4b62-9855-7c55de3a5d4b","system_id":"levelo_inurba_marseille","lat":43.28414,"lon":5.34977,"is_reserved":false,"is_disabled":false,"rental_uris":{"android":"levelo://app?vid=ad552941-a428-4b62-9855-7c55de3a5d4b","ios":"levelo://app?vid=ad552941-a428-4b62-9855-7c55de3a5d4b"},"vehicle_type_id":"4","last_reported":1751130490,"current_range_meters":9600,"station_id":"ce4bhbh2rcd13ifvqepg","pricing_plan_id":"cebpf4jnsgd1na2vs0mg"},{"bike_id":"d5e70777-ad97-4594-91b6-43ede9611b14","system_id":"levelo_inurba_marseille","lat":43.3213,"lon":5.36791,"is_reserved":false,"is_disabled":false,"rental_uris":{"android":"levelo://app?vid=d5e70777-ad97-4594-91b6-43ede9611b14","ios":"levelo://app?vid=d5e70777-ad97-4594-91b6-43ede9611b14"},"vehicle_type_id":"4","last_reported":1751130490,"current_range_meters":9600,"station_id":"ce4bhrh2rcd13ifvqhug","pricing_plan_id":"cebpf4jnsgd1na2vs0mg"},{"bike_id":"0ea9a5fa-dfe3-4435-8521-628911f3c041","system_id":"levelo_inurba_marseille","lat":43.232051,"lon":5.355578,"is_reserved":false,"is_disabled":false,"rental_uris":{"android":"levelo://app?vid=0ea9a5fa-dfe3-4435-8521-628911f3c041","ios":"levelo://app?vid=0ea9a5fa-dfe3-4435-8521-628911f3c041"},"vehicle_type_id":"4","last_reported":1751130490,"current_range_meters":10000,"station_id":"","pricing_plan_id":"cebpf4jnsgd1na2vs0mg"},{"bike_id":"2e7e462e-727b-41af-9c32-d76a8c103ce5","system_id":"levelo_inurba_marseille","lat":43.24826,"lon":5.37437,"is_reserved":false,"is_disabled":false,"rental_uris":{"android":"levelo://app?vid=2e7e462e-727b-41af-9c32-d76a8c103ce5","ios":"levelo://app?vid=2e7e462e-727b-41af-9c32-d76a8c103ce5"},"vehicle_type_id":"4","last_reported":1751130490,"current_range_meters":10000,"station_id":"ce4bhgh2rcd13ifvqfb0","pricing_plan_id":"cebpf4jnsgd1na2vs0mg"},{"bike_id":"e6ce70f7-9138-485c-a4db-2c9174614cff","system_id":"levelo_inurba_marseille","lat":43.31795,"lon":5.36869,"is_reserved":false,"is_disabled":false,"rental_uris":{"android":"levelo://app?vid=e6ce70f7-9138-485c-a4db-2c9174614cff","ios":"levelo://app?vid=e6ce70f7-9138-485c-a4db-2c9174614cff"},"vehicle_type_id":"4","last_reported":1751130490,"current_range_meters":10800,"station_id":"","pricing_plan_id":"cebpf4jnsgd1na2vs0mg"},{"bike_id":"23e3ca70-c5ee-44c7-b2a4-9a53b12cd703","system_id":"levelo_inurba_marseille","lat":43.23178,"lon":5.39984,"is_reserved":false,"is_disabled":false,"rental_uris":{"android":"levelo://app?vid=23e3ca70-c5ee-44c7-b2a4-9a53b12cd703","ios":"levelo://app?vid=23e3ca70-c5ee-44c7-b2a4-9a53b12cd703"},"vehicle_type_id":"4","last_reported":1751130490,"current_range_meters":10800,"station_id":"ce4bhn12rcd13ifvqgqg","pricing_plan_id":"cebpf4jnsgd1na2vs0mg"},{"bike_id":"13726ea4-91b3-4b24-87ce-db653217d50c","system_id":"levelo_inurba_marseille","lat":43.32134,"lon":5.36747,"is_reserved":false,"is_disabled":false,"rental_uris":{"android":"levelo://app?vid=13726ea4-91b3-4b24-87ce-db653217d50c","ios":"levelo://app?vid=13726ea4-91b3-4b24-87ce-db653217d50c"},"vehicle_type_id":"4","last_reported":1751130490,"current_range_meters":10800,"station_id":"ce4bhrh2rcd13ifvqhug","pricing_plan_id":"cebpf4jnsgd1na2vs0mg"},{"bike_id":"bbc4a376-bee7-4ad5-a49a-1022d27c1489","system_id":"levelo_inurba_marseille","lat":43.32079,"lon":5.36758,"is_reserved":false,"is_disabled":false,"rental_uris":{"android":"levelo://app?vid=bbc4a376-bee7-4ad5-a49a-1022d27c1489","ios":"levelo://app?vid=bbc4a376-bee7-4ad5-a49a-1022d27c1489"},"vehicle_type_id":"4","last_reported":1751130490,"current_range_meters":10800,"station_id":"ce4bhrh2rcd13ifvqhug","pricing_plan_id":"cebpf4jnsgd1na2vs0mg"},{"bike_id":"b266b36d-c328-4691-8298-fd36d6e08d51","system_id":"levelo_inurba_marseille","lat":43.22958,"lon":5.35378,"is_reserved":false,"is_disabled":false,"rental_uris":{"android":"levelo://app?vid=b266b36d-c328-4691-8298-fd36d6e08d51","ios":"levelo://app?vid=b266b36d-c328-4691-8298-fd36d6e08d51"},"vehicle_type_id":"4","last_reported":1751130490,"current_range_meters":10800,"station_id":"cpo3532slgdg3j2ikp40","pricing_plan_id":"cebpf4jnsgd1na2vs0mg"},{"bike_id":"bcaa9098-7ccb-4489-97d4-07fd819d9451","system_id":"levelo_inurba_marseille","lat":43.28411,"lon":5.34971,"is_reserved":false,"is_disabled":false,"rental_uris":{"android":"levelo://app?vid=bcaa9098-7ccb-4489-97d4-07fd819d9451","ios":"levelo://app?vid=bcaa9098-7ccb-4489-97d4-07fd819d9451"},"vehicle_type_id":"4","last_reported":1751130490,"current_range_meters":11200,"station_id":"","pricing_plan_id":"cebpf4jnsgd1na2vs0mg"},{"bike_id":"44b677c8-76ed-4eac-8888-58151f9d5d6e","system_id":"levelo_inurba_marseille","lat":43.319609,"lon":5.367528,"is_reserved":false,"is_disabled":false,"rental_uris":{"android":"levelo://app?vid=44b677c8-76ed-4eac-8888-58151f9d5d6e","ios":"levelo://app?vid=44b677c8-76ed-4eac-8888-58151f9d5d6e"},"vehicle_type_id":"4","last_reported":1751130490,"current_range_meters":11200,"station_id":"","pricing_plan_id":"cebpf4jnsgd1na2vs0mg"},{"bike_id":"386cec94-0e03-4ff1-840d-08a8f89899fa","system_id":"levelo_inurba_marseille","lat":43.29201,"lon":5.39316,"is_reserved":false,"is_disabled":false,"rental_uris":{"android":"levelo://app?vid=386cec94-0e03-4ff1-840d-08a8f89899fa","ios":"levelo://app?vid=386cec94-0e03-4ff1-840d-08a8f89899fa"},"vehicle_type_id":"4","last_reported":1751130490,"current_range_meters":11200,"station_id":"ce4bh192rcd13ifvqdd0","pricing_plan_id":"cebpf4jnsgd1na2vs0mg"},{"bike_id":"bb7f91ae-2949-4cc5-821b-99f4d2b71992","system_id":"levelo_inurba_marseille","lat":43.27209,"lon":5.39179,"is_reserved":false,"is_disabled":false,"rental_uris":{"android":"levelo://app?vid=bb7f91ae-2949-4cc5-821b-99f4d2b71992","ios":"levelo://app?vid=bb7f91ae-2949-4cc5-821b-99f4d2b71992"},"vehicle_type_id":"4","last_reported":1751130490,"current_range_meters":11200,"station_id":"ce4bhhp2rcd13ifvqfm0","pricing_plan_id":"cebpf4jnsgd1na2vs0mg"},{"bike_id":"0615798b-a96a-4e4d-a7f4-3d17143c317d","system_id":"levelo_inurba_marseille","lat":43.23184,"lon":5.3999,"is_reserved":false,"is_disabled":false,"rental_uris":{"android":"levelo://app?vid=0615798b-a96a-4e4d-a7f4-3d17143c317d","ios":"levelo://app?vid=0615798b-a96a-4e4d-a7f4-3d17143c317d"},"vehicle_type_id":"4","last_reported":1751130490,"current_range_meters":11200,"station_id":"ce4bhn12rcd13ifvqgqg","pricing_plan_id":"cebpf4jnsgd1na2vs0mg"},{"bike_id":"d5d9a82d-ed52-4557-aa02-dc5f5c21eadb","system_id":"levelo_inurba_marseille","lat":43.31493,"lon":5.37309,"is_reserved":false,"is_disabled":false,"rental_uris":{"android":"levelo://app?vid=d5d9a82d-ed52-4557-aa02-dc5f5c21eadb","ios":"levelo://app?vid=d5d9a82d-ed52-4557-aa02-dc5f5c21eadb"},"vehicle_type_id":"4","last_reported":1751130490,"current_range_meters":11600,"station_id":"ce4bgt12rcd13ifvqcd0","pricing_plan_id":"cebpf4jnsgd1na2vs0mg"},{"bike_id":"2cbd26d7-8ccb-4bca-b892-7ed090bc3322","system_id":"levelo_inurba_marseille","lat":43.23191,"lon":5.35544,"is_reserved":false,"is_disabled":false,"rental_uris":{"android":"levelo://app?vid=2cbd26d7-8ccb-4bca-b892-7ed090bc3322","ios":"levelo://app?vid=2cbd26d7-8ccb-4bca-b892-7ed090bc3322"},"vehicle_type_id":"4","last_reported":1751130490,"current_range_meters":11600,"station_id":"ce4bhu92rcd13ifvqi70","pricing_plan_id":"cebpf4jnsgd1na2vs0mg"},{"bike_id":"89ba5266-f330-45f3-beb6-98b60accef31","system_id":"levelo_inurba_marseille","lat":43.26214,"lon":5.37435,"is_reserved":false,"is_disabled":false,"rental_uris":{"android":"levelo://app?vid=89ba5266-f330-45f3-beb6-98b60accef31","ios":"levelo://app?vid=89ba5266-f330-45f3-beb6-98b60accef31"},"vehicle_type_id":"4","last_reported":1751130490,"current_range_meters":12000,"station_id":"ce4bhgp2rcd13ifvqfc0","pricing_plan_id":"cebpf4jnsgd1na2vs0mg"},{"bike_id":"721165c1-ef6f-40cc-8d33-af3a7999864b","system_id":"levelo_inurba_marseille","lat":43.325997,"lon":5.378773,"is_reserved":false,"is_disabled":false,"rental_uris":{"android":"levelo://app?vid=721165c1-ef6f-40cc-8d33-af3a7999864b","ios":"levelo://app?vid=721165c1-ef6f-40cc-8d33-af3a7999864b"},"vehicle_type_id":"4","last_reported":1751130490,"current_range_meters":12400,"station_id":"","pricing_plan_id":"cebpf4jnsgd1na2vs0mg"},{"bike_id":"65b6326b-e878-4d62-b5c7-f2af8a49d83e","system_id":"levelo_inurba_marseille","lat":43.29899,"lon":5.37479,"is_reserved":false,"is_disabled":false,"rental_uris":{"android":"levelo://app?vid=65b6326b-e878-4d62-b5c7-f2af8a49d83e","ios":"levelo://app?vid=65b6326b-e878-4d62-b5c7-f2af8a49d83e"},"vehicle_type_id":"4","last_reported":1751130490,"current_range_meters":12400,"station_id":"ce4bgjh2rcd13ifvqbg0","pricing_plan_id":"cebpf4jnsgd1na2vs0mg"},{"bike_id":"29863181-0e6d-4e41-9955-e7b44bd45ae4","system_id":"levelo_inurba_marseille","lat":43.29928,"lon":5.37445,"is_reserved":false,"is_disabled":false,"rental_uris":{"android":"levelo://app?vid=29863181-0e6d-4e41-9955-e7b44bd45ae4","ios":"levelo://app?vid=29863181-0e6d-4e41-9955-e7b44bd45ae4"},"vehicle_type_id":"4","last_reported":1751130490,"current_range_meters":12400,"station_id":"ce4bgjh2rcd13ifvqbg0","pricing_plan_id":"cebpf4jnsgd1na2vs0mg"},{"bike_id":"706791be-79ff-4961-85f9-10b00214ce8a","system_id":"levelo_inurba_marseille","lat":43.33026,"lon":5.39042,"is_reserved":false,"is_disabled":false,"rental_uris":{"android":"levelo://app?vid=706791be-79ff-4961-85f9-10b00214ce8a","ios":"levelo://app?vid=706791be-79ff-4961-85f9-10b00214ce8a"},"vehicle_type_id":"4","last_reported":1751130490,"current_range_meters":12400,"station_id":"ce4bhr92rcd13ifvqhrg","pricing_plan_id":"cebpf4jnsgd1na2vs0mg"},{"bike_id":"873ce198-d36d-4815-8778-b72bd2ca0116","system_id":"levelo_inurba_marseille","lat":43.32105,"lon":5.36774,"is_reserved":false,"is_disabled":false,"rental_uris":{"android":"levelo://app?vid=873ce198-d36d-4815-8778-b72bd2ca0116","ios":"levelo://app?vid=873ce198-d36d-4815-8778-b72bd2ca0116"},"vehicle_type_id":"4","last_reported":1751130490,"current_range_meters":12400,"station_id":"ce4bhrh2rcd13ifvqhug","pricing_plan_id":"cebpf4jnsgd1na2vs0mg"},{"bike_id":"8c103616-6f6a-406a-ac2d-83806dae0520","system_id":"levelo_inurba_marseille","lat":43.26921,"lon":5.40259,"is_reserved":false,"is_disabled":false,"rental_uris":{"android":"levelo://app?vid=8c103616-6f6a-406a-ac2d-83806dae0520","ios":"levelo://app?vid=8c103616-6f6a-406a-ac2d-83806dae0520"},"vehicle_type_id":"4","last_reported":1751130490,"current_range_meters":12400,"station_id":"cjm6bp8fraef2m0cb0m0","pricing_plan_id":"cebpf4jnsgd1na2vs0mg"},{"bike_id":"962af267-d53f-46b3-80f5-26c7fbd343ce","system_id":"levelo_inurba_marseille","lat":43.22528,"lon":5.34747,"is_reserved":false,"is_disabled":false,"rental_uris":{"android":"levelo://app?vid=962af267-d53f-46b3-80f5-26c7fbd343ce","ios":"levelo://app?vid=962af267-d53f-46b3-80f5-26c7fbd343ce"},"vehicle_type_id":"4","last_reported":1751130490,"current_range_meters":12400,"station_id":"st_cvj5dfep6f1abm77gieg","pricing_plan_id":"cebpf4jnsgd1na2vs0mg"},{"bike_id":"13fabc0f-5bfd-4dc8-9136-84b1659cd66b","system_id":"levelo_inurba_marseille","lat":43.21192,"lon":5.35077,"is_reserved":false,"is_disabled":false,"rental_uris":{"android":"levelo://app?vid=13fabc0f-5bfd-4dc8-9136-84b1659cd66b","ios":"levelo://app?vid=13fabc0f-5bfd-4dc8-9136-84b1659cd66b"},"vehicle_type_id":"4","last_reported":1751130490,"current_range_meters":12400,"station_id":"st_cvj6sg6p6f1abm77japg","pricing_plan_id":"cebpf4jnsgd1na2vs0mg"},{"bike_id":"65228c5b-9533-4fdc-82e0-7a762abda25b","system_id":"levelo_inurba_marseille","lat":43.30303,"lon":5.39215,"is_reserved":false,"is_disabled":false,"rental_uris":{"android":"levelo://app?vid=65228c5b-9533-4fdc-82e0-7a762abda25b","ios":"levelo://app?vid=65228c5b-9533-4fdc-82e0-7a762abda25b"},"vehicle_type_id":"4","last_reported":1751130490,"current_range_meters":12800,"station_id":"ce4bgkh2rcd13ifvqbk0","pricing_plan_id":"cebpf4jnsgd1na2vs0mg"},{"bike_id":"465d715d-c466-435a-83c2-03d320454a0a","system_id":"levelo_inurba_marseille","lat":43.28425,"lon":5.34992,"is_reserved":false,"is_disabled":false,"rental_uris":{"android":"levelo://app?vid=465d715d-c466-435a-83c2-03d320454a0a","ios":"levelo://app?vid=465d715d-c466-435a-83c2-03d320454a0a"},"vehicle_type_id":"4","last_reported":1751130490,"current_range_meters":12800,"station_id":"ce4bhbh2rcd13ifvqepg","pricing_plan_id":"cebpf4jnsgd1na2vs0mg"},{"bike_id":"12c7fc9f-7c7b-4185-9b2f-badd0c17e36b","system_id":"levelo_inurba_marseille","lat":43.24754,"lon":5.37447,"is_reserved":false,"is_disabled":false,"rental_uris":{"android":"levelo://app?vid=12c7fc9f-7c7b-4185-9b2f-badd0c17e36b","ios":"levelo://app?vid=12c7fc9f-7c7b-4185-9b2f-badd0c17e36b"},"vehicle_type_id":"4","last_reported":1751130490,"current_range_meters":12800,"station_id":"ce4bhgh2rcd13ifvqfb0","pricing_plan_id":"cebpf4jnsgd1na2vs0mg"},{"bike_id":"a7883090-0e10-4075-944b-a3cca54bc544","system_id":"levelo_inurba_marseille","lat":43.225066,"lon":5.347826,"is_reserved":false,"is_disabled":false,"rental_uris":{"android":"levelo://app?vid=a7883090-0e10-4075-944b-a3cca54bc544","ios":"levelo://app?vid=a7883090-0e10-4075-944b-a3cca54bc544"},"vehicle_type_id":"4","last_reported":1751130490,"current_range_meters":12800,"station_id":"st_cvj5dfep6f1abm77gieg","pricing_plan_id":"cebpf4jnsgd1na2vs0mg"},{"bike_id":"14e8ef37-e834-4d76-9946-e98f7a083a2f","system_id":"levelo_inurba_marseille","lat":43.21193,"lon":5.35069,"is_reserved":false,"is_disabled":false,"rental_uris":{"android":"levelo://app?vid=14e8ef37-e834-4d76-9946-e98f7a083a2f","ios":"levelo://app?vid=14e8ef37-e834-4d76-9946-e98f7a083a2f"},"vehicle_type_id":"4","last_reported":1751130490,"current_range_meters":12800,"station_id":"st_cvj6sg6p6f1abm77japg","pricing_plan_id":"cebpf4jnsgd1na2vs0mg"},{"bike_id":"c7067ed1-f9ee-40ab-a529-1c223a6eea73","system_id":"levelo_inurba_marseille","lat":43.2842,"lon":5.34999,"is_reserved":false,"is_disabled":false,"rental_uris":{"android":"levelo://app?vid=c7067ed1-f9ee-40ab-a529-1c223a6eea73","ios":"levelo://app?vid=c7067ed1-f9ee-40ab-a529-1c223a6eea73"},"vehicle_type_id":"4","last_reported":1751130490,"current_range_meters":13600,"station_id":"ce4bhbh2rcd13ifvqepg","pricing_plan_id":"cebpf4jnsgd1na2vs0mg"},{"bike_id":"4b63b368-99ca-4e4c-9550-5b7be8829069","system_id":"levelo_inurba_marseille","lat":43.25721,"lon":5.41115,"is_reserved":false,"is_disabled":false,"rental_uris":{"android":"levelo://app?vid=4b63b368-99ca-4e4c-9550-5b7be8829069","ios":"levelo://app?vid=4b63b368-99ca-4e4c-9550-5b7be8829069"},"vehicle_type_id":"4","last_reported":1751130490,"current_range_meters":13600,"station_id":"ce4bhkp2rcd13ifvqgd0","pricing_plan_id":"cebpf4jnsgd1na2vs0mg"},{"bike_id":"8cdac9e7-ac3a-4ee6-a4a7-173408cf59ef","system_id":"levelo_inurba_marseille","lat":43.29262,"lon":5.38437,"is_reserved":false,"is_disabled":false,"rental_uris":{"android":"levelo://app?vid=8cdac9e7-ac3a-4ee6-a4a7-173408cf59ef","ios":"levelo://app?vid=8cdac9e7-ac3a-4ee6-a4a7-173408cf59ef"},"vehicle_type_id":"4","last_reported":1751130490,"current_range_meters":14000,"station_id":"ce4bh692rcd13ifvqea0","pricing_plan_id":"cebpf4jnsgd1na2vs0mg"},{"bike_id":"762acdc5-9b99-47a0-bda1-ee8060271245","system_id":"levelo_inurba_marseille","lat":43.21214,"lon":5.35082,"is_reserved":false,"is_disabled":false,"rental_uris":{"android":"levelo://app?vid=762acdc5-9b99-47a0-bda1-ee8060271245","ios":"levelo://app?vid=762acdc5-9b99-47a0-bda1-ee8060271245"},"vehicle_type_id":"4","last_reported":1751130490,"current_range_meters":14000,"station_id":"st_cvj6sg6p6f1abm77japg","pricing_plan_id":"cebpf4jnsgd1na2vs0mg"},{"bike_id":"f0057ca2-de2d-4464-8902-068dc3677e00","system_id":"levelo_inurba_marseille","lat":43.21173,"lon":5.35056,"is_reserved":false,"is_disabled":false,"rental_uris":{"android":"levelo://app?vid=f0057ca2-de2d-4464-8902-068dc3677e00","ios":"levelo://app?vid=f0057ca2-de2d-4464-8902-068dc3677e00"},"vehicle_type_id":"4","last_reported":1751130490,"current_range_meters":14000,"station_id":"st_cvj6sg6p6f1abm77japg","pricing_plan_id":"cebpf4jnsgd1na2vs0mg"},{"bike_id":"73eef338-f838-4237-9a70-650be0c70685","system_id":"levelo_inurba_marseille","lat":43.29285,"lon":5.37416,"is_reserved":false,"is_disabled":false,"rental_uris":{"android":"levelo://app?vid=73eef338-f838-4237-9a70-650be0c70685","ios":"levelo://app?vid=73eef338-f838-4237-9a70-650be0c70685"},"vehicle_type_id":"4","last_reported":1751130490,"current_range_meters":14400,"station_id":"ce4bgi12rcd13ifvqb70","pricing_plan_id":"cebpf4jnsgd1na2vs0mg"},{"bike_id":"802b2630-8376-4119-a81f-42e77fef6b85","system_id":"levelo_inurba_marseille","lat":43.28431,"lon":5.34993,"is_reserved":false,"is_disabled":false,"rental_uris":{"android":"levelo://app?vid=802b2630-8376-4119-a81f-42e77fef6b85","ios":"levelo://app?vid=802b2630-8376-4119-a81f-42e77fef6b85"},"vehicle_type_id":"4","last_reported":1751130490,"current_range_meters":14400,"station_id":"ce4bhbh2rcd13ifvqepg","pricing_plan_id":"cebpf4jnsgd1na2vs0mg"},{"bike_id":"c4e23027-fb76-4e12-a17a-e866f2d0c4a5","system_id":"levelo_inurba_marseille","lat":43.26077,"lon":5.37513,"is_reserved":false,"is_disabled":false,"rental_uris":{"android":"levelo://app?vid=c4e23027-fb76-4e12-a17a-e866f2d0c4a5","ios":"levelo://app?vid=c4e23027-fb76-4e12-a17a-e866f2d0c4a5"},"vehicle_type_id":"4","last_reported":1751130490,"current_range_meters":14800,"station_id":"","pricing_plan_id":"cebpf4jnsgd1na2vs0mg"},{"bike_id":"6af79a00-84aa-4908-a347-34425e08c383","system_id":"levelo_inurba_marseille","lat":43.30269,"lon":5.37575,"is_reserved":false,"is_disabled":false,"rental_uris":{"android":"levelo://app?vid=6af79a00-84aa-4908-a347-34425e08c383","ios":"levelo://app?vid=6af79a00-84aa-4908-a347-34425e08c383"},"vehicle_type_id":"4","last_reported":1751130490,"current_range_meters":14800,"station_id":"","pricing_plan_id":"cebpf4jnsgd1na2vs0mg"},{"bike_id":"a12fe640-e5df-4342-b7d7-754a0bd8aa41","system_id":"levelo_inurba_marseille","lat":43.31071,"lon":5.38355,"is_reserved":false,"is_disabled":false,"rental_uris":{"android":"levelo://app?vid=a12fe640-e5df-4342-b7d7-754a0bd8aa41","ios":"levelo://app?vid=a12fe640-e5df-4342-b7d7-754a0bd8aa41"},"vehicle_type_id":"4","last_reported":1751130490,"current_range_meters":14800,"station_id":"","pricing_plan_id":"cebpf4jnsgd1na2vs0mg"},{"bike_id":"37c82cc0-f226-49e7-a35f-b8ffe8acdedf","system_id":"levelo_inurba_marseille","lat":43.28406,"lon":5.34995,"is_reserved":false,"is_disabled":false,"rental_uris":{"android":"levelo://app?vid=37c82cc0-f226-49e7-a35f-b8ffe8acdedf","ios":"levelo://app?vid=37c82cc0-f226-49e7-a35f-b8ffe8acdedf"},"vehicle_type_id":"4","last_reported":1751130490,"current_range_meters":14800,"station_id":"ce4bhbh2rcd13ifvqepg","pricing_plan_id":"cebpf4jnsgd1na2vs0mg"},{"bike_id":"96ae4828-8cfd-4292-bac5-e1470ca7cf8c","system_id":"levelo_inurba_marseille","lat":43.26561,"lon":5.39015,"is_reserved":false,"is_disabled":false,"rental_uris":{"android":"levelo://app?vid=96ae4828-8cfd-4292-bac5-e1470ca7cf8c","ios":"levelo://app?vid=96ae4828-8cfd-4292-bac5-e1470ca7cf8c"},"vehicle_type_id":"4","last_reported":1751130490,"current_range_meters":14800,"station_id":"ce4bhe12rcd13ifvqf30","pricing_plan_id":"cebpf4jnsgd1na2vs0mg"},{"bike_id":"7f2d8ced-0dcc-48e9-813b-66b1eba063c2","system_id":"levelo_inurba_marseille","lat":43.27681,"lon":5.38869,"is_reserved":false,"is_disabled":false,"rental_uris":{"android":"levelo://app?vid=7f2d8ced-0dcc-48e9-813b-66b1eba063c2","ios":"levelo://app?vid=7f2d8ced-0dcc-48e9-813b-66b1eba063c2"},"vehicle_type_id":"4","last_reported":1751130490,"current_range_meters":14800,"station_id":"ce4bhi12rcd13ifvqfo0","pricing_plan_id":"cebpf4jnsgd1na2vs0mg"},{"bike_id":"91b65e10-0e4e-418a-bcf7-105b8872a5de","system_id":"levelo_inurba_marseille","lat":43.23078,"lon":5.35482,"is_reserved":false,"is_disabled":false,"rental_uris":{"android":"levelo://app?vid=91b65e10-0e4e-418a-bcf7-105b8872a5de","ios":"levelo://app?vid=91b65e10-0e4e-418a-bcf7-105b8872a5de"},"vehicle_type_id":"4","last_reported":1751130490,"current_range_meters":14800,"station_id":"cpo3342slgdg3j2ifvpg","pricing_plan_id":"cebpf4jnsgd1na2vs0mg"},{"bike_id":"c009ab75-32e4-4483-8a95-e640f769e847","system_id":"levelo_inurba_marseille","lat":43.21746,"lon":5.34605,"is_reserved":false,"is_disabled":false,"rental_uris":{"android":"levelo://app?vid=c009ab75-32e4-4483-8a95-e640f769e847","ios":"levelo://app?vid=c009ab75-32e4-4483-8a95-e640f769e847"},"vehicle_type_id":"4","last_reported":1751130490,"current_range_meters":14800,"station_id":"st_cvj6r9ubvosntc0bgbag","pricing_plan_id":"cebpf4jnsgd1na2vs0mg"},{"bike_id":"3be1d820-36b0-4199-8224-baec356065e9","system_id":"levelo_inurba_marseille","lat":43.305303,"lon":5.384222,"is_reserved":false,"is_disabled":false,"rental_uris":{"android":"levelo://app?vid=3be1d820-36b0-4199-8224-baec356065e9","ios":"levelo://app?vid=3be1d820-36b0-4199-8224-baec356065e9"},"vehicle_type_id":"4","last_reported":1751130490,"current_range_meters":15200,"station_id":"ce4bgg92rcd13ifvqb30","pricing_plan_id":"cebpf4jnsgd1na2vs0mg"},{"bike_id":"2019b276-ba20-47d2-81be-9b3a7c19e50b","system_id":"levelo_inurba_marseille","lat":43.29048,"lon":5.35919,"is_reserved":false,"is_disabled":false,"rental_uris":{"android":"levelo://app?vid=2019b276-ba20-47d2-81be-9b3a7c19e50b","ios":"levelo://app?vid=2019b276-ba20-47d2-81be-9b3a7c19e50b"},"vehicle_type_id":"4","last_reported":1751130490,"current_range_meters":15200,"station_id":"ce4bha92rcd13ifvqeg0","pricing_plan_id":"cebpf4jnsgd1na2vs0mg"},{"bike_id":"7025df18-330e-42a4-bc8d-a4cf9b4b300e","system_id":"levelo_inurba_marseille","lat":43.248106,"lon":5.374488,"is_reserved":false,"is_disabled":false,"rental_uris":{"android":"levelo://app?vid=7025df18-330e-42a4-bc8d-a4cf9b4b300e","ios":"levelo://app?vid=7025df18-330e-42a4-bc8d-a4cf9b4b300e"},"vehicle_type_id":"4","last_reported":1751130490,"current_range_meters":15200,"station_id":"ce4bhgh2rcd13ifvqfb0","pricing_plan_id":"cebpf4jnsgd1na2vs0mg"},{"bike_id":"38d92265-0757-47ae-8f32-ed3a15823fd0","system_id":"levelo_inurba_marseille","lat":43.27316,"lon":5.39074,"is_reserved":false,"is_disabled":false,"rental_uris":{"android":"levelo://app?vid=38d92265-0757-47ae-8f32-ed3a15823fd0","ios":"levelo://app?vid=38d92265-0757-47ae-8f32-ed3a15823fd0"},"vehicle_type_id":"4","last_reported":1751130490,"current_range_meters":15200,"station_id":"ce4bhgp2rcd13ifvqfe0","pricing_plan_id":"cebpf4jnsgd1na2vs0mg"},{"bike_id":"a0bce46a-2e31-4565-af37-3bdcad94cb05","system_id":"levelo_inurba_marseille","lat":43.26066,"lon":5.394,"is_reserved":false,"is_disabled":false,"rental_uris":{"android":"levelo://app?vid=a0bce46a-2e31-4565-af37-3bdcad94cb05","ios":"levelo://app?vid=a0bce46a-2e31-4565-af37-3bdcad94cb05"},"vehicle_type_id":"4","last_reported":1751130490,"current_range_meters":15200,"station_id":"ce4bhh92rcd13ifvqfj0","pricing_plan_id":"cebpf4jnsgd1na2vs0mg"},{"bike_id":"2a9a5366-8dad-42f1-bee6-ffb042c54776","system_id":"levelo_inurba_marseille","lat":43.211941,"lon":5.350819,"is_reserved":false,"is_disabled":false,"rental_uris":{"android":"levelo://app?vid=2a9a5366-8dad-42f1-bee6-ffb042c54776","ios":"levelo://app?vid=2a9a5366-8dad-42f1-bee6-ffb042c54776"},"vehicle_type_id":"4","last_reported":1751130490,"current_range_meters":15200,"station_id":"st_cvj6sg6p6f1abm77japg","pricing_plan_id":"cebpf4jnsgd1na2vs0mg"},{"bike_id":"4f7da216-f811-4c57-9e64-cdee7467bddd","system_id":"levelo_inurba_marseille","lat":43.22507,"lon":5.34777,"is_reserved":false,"is_disabled":false,"rental_uris":{"android":"levelo://app?vid=4f7da216-f811-4c57-9e64-cdee7467bddd","ios":"levelo://app?vid=4f7da216-f811-4c57-9e64-cdee7467bddd"},"vehicle_type_id":"4","last_reported":1751130490,"current_range_meters":16000,"station_id":"","pricing_plan_id":"cebpf4jnsgd1na2vs0mg"},{"bike_id":"1ea92b70-ee60-4c48-932b-3d39ce60ae8f","system_id":"levelo_inurba_marseille","lat":43.2842,"lon":5.34977,"is_reserved":false,"is_disabled":false,"rental_uris":{"android":"levelo://app?vid=1ea92b70-ee60-4c48-932b-3d39ce60ae8f","ios":"levelo://app?vid=1ea92b70-ee60-4c48-932b-3d39ce60ae8f"},"vehicle_type_id":"4","last_reported":1751130490,"current_range_meters":16000,"station_id":"ce4bhbh2rcd13ifvqepg","pricing_plan_id":"cebpf4jnsgd1na2vs0mg"},{"bike_id":"4fbca59d-df32-4179-ba25-70ecf4ef2219","system_id":"levelo_inurba_marseille","lat":43.24183,"lon":5.39729,"is_reserved":false,"is_disabled":false,"rental_uris":{"android":"levelo://app?vid=4fbca59d-df32-4179-ba25-70ecf4ef2219","ios":"levelo://app?vid=4fbca59d-df32-4179-ba25-70ecf4ef2219"},"vehicle_type_id":"4","last_reported":1751130490,"current_range_meters":16000,"station_id":"ce4bhn12rcd13ifvqgpg","pricing_plan_id":"cebpf4jnsgd1na2vs0mg"},{"bike_id":"f810be2a-3c00-446f-9ba1-1f3840ce349d","system_id":"levelo_inurba_marseille","lat":43.3211,"lon":5.36768,"is_reserved":false,"is_disabled":false,"rental_uris":{"android":"levelo://app?vid=f810be2a-3c00-446f-9ba1-1f3840ce349d","ios":"levelo://app?vid=f810be2a-3c00-446f-9ba1-1f3840ce349d"},"vehicle_type_id":"4","last_reported":1751130490,"current_range_meters":16000,"station_id":"ce4bhrh2rcd13ifvqhug","pricing_plan_id":"cebpf4jnsgd1na2vs0mg"},{"bike_id":"9660d42f-62ac-4258-8a45-8063dd7e7505","system_id":"levelo_inurba_marseille","lat":43.22535,"lon":5.34765,"is_reserved":false,"is_disabled":false,"rental_uris":{"android":"levelo://app?vid=9660d42f-62ac-4258-8a45-8063dd7e7505","ios":"levelo://app?vid=9660d42f-62ac-4258-8a45-8063dd7e7505"},"vehicle_type_id":"4","last_reported":1751130490,"current_range_meters":16000,"station_id":"st_cvj5dfep6f1abm77gieg","pricing_plan_id":"cebpf4jnsgd1na2vs0mg"},{"bike_id":"c0a2de0a-20e3-4e62-848e-f0dbd6b2e588","system_id":"levelo_inurba_marseille","lat":43.22503,"lon":5.34786,"is_reserved":false,"is_disabled":false,"rental_uris":{"android":"levelo://app?vid=c0a2de0a-20e3-4e62-848e-f0dbd6b2e588","ios":"levelo://app?vid=c0a2de0a-20e3-4e62-848e-f0dbd6b2e588"},"vehicle_type_id":"4","last_reported":1751130490,"current_range_meters":16000,"station_id":"st_cvj5dfep6f1abm77gieg","pricing_plan_id":"cebpf4jnsgd1na2vs0mg"},{"bike_id":"e5e9e78b-4730-43b1-8651-5c571c638bbb","system_id":"levelo_inurba_marseille","lat":43.21193,"lon":5.35071,"is_reserved":false,"is_disabled":false,"rental_uris":{"android":"levelo://app?vid=e5e9e78b-4730-43b1-8651-5c571c638bbb","ios":"levelo://app?vid=e5e9e78b-4730-43b1-8651-5c571c638bbb"},"vehicle_type_id":"4","last_reported":1751130490,"current_range_meters":16000,"station_id":"st_cvj6sg6p6f1abm77japg","pricing_plan_id":"cebpf4jnsgd1na2vs0mg"},{"bike_id":"6373c2fc-2dfb-401f-b5ad-fb2ba7cbc983","system_id":"levelo_inurba_marseille","lat":43.29049,"lon":5.35922,"is_reserved":false,"is_disabled":false,"rental_uris":{"android":"levelo://app?vid=6373c2fc-2dfb-401f-b5ad-fb2ba7cbc983","ios":"levelo://app?vid=6373c2fc-2dfb-401f-b5ad-fb2ba7cbc983"},"vehicle_type_id":"4","last_reported":1751130490,"current_range_meters":16400,"station_id":"ce4bha92rcd13ifvqeg0","pricing_plan_id":"cebpf4jnsgd1na2vs0mg"},{"bike_id":"910652eb-a9d3-4ea9-95a8-4aadc7afb032","system_id":"levelo_inurba_marseille","lat":43.284266,"lon":5.350031,"is_reserved":false,"is_disabled":false,"rental_uris":{"android":"levelo://app?vid=910652eb-a9d3-4ea9-95a8-4aadc7afb032","ios":"levelo://app?vid=910652eb-a9d3-4ea9-95a8-4aadc7afb032"},"vehicle_type_id":"4","last_reported":1751130490,"current_range_meters":16400,"station_id":"ce4bhbh2rcd13ifvqepg","pricing_plan_id":"cebpf4jnsgd1na2vs0mg"},{"bike_id":"f0b118dd-fe38-4b4b-8f8e-ce09a88720af","system_id":"levelo_inurba_marseille","lat":43.28278,"lon":5.35074,"is_reserved":false,"is_disabled":false,"rental_uris":{"android":"levelo://app?vid=f0b118dd-fe38-4b4b-8f8e-ce09a88720af","ios":"levelo://app?vid=f0b118dd-fe38-4b4b-8f8e-ce09a88720af"},"vehicle_type_id":"4","last_reported":1751130490,"current_range_meters":16400,"station_id":"ce4bhbp2rcd13ifvqerg","pricing_plan_id":"cebpf4jnsgd1na2vs0mg"},{"bike_id":"d083892a-ed6b-42fb-a0ee-6101a83fae60","system_id":"levelo_inurba_marseille","lat":43.28727,"lon":5.36089,"is_reserved":false,"is_disabled":false,"rental_uris":{"android":"levelo://app?vid=d083892a-ed6b-42fb-a0ee-6101a83fae60","ios":"levelo://app?vid=d083892a-ed6b-42fb-a0ee-6101a83fae60"},"vehicle_type_id":"4","last_reported":1751130490,"current_range_meters":16400,"station_id":"cki0cbj6b192h4jlfktg","pricing_plan_id":"cebpf4jnsgd1na2vs0mg"},{"bike_id":"8d1e10f3-20fd-463c-a408-0a21083b0c6f","system_id":"levelo_inurba_marseille","lat":43.21195,"lon":5.35071,"is_reserved":false,"is_disabled":false,"rental_uris":{"android":"levelo://app?vid=8d1e10f3-20fd-463c-a408-0a21083b0c6f","ios":"levelo://app?vid=8d1e10f3-20fd-463c-a408-0a21083b0c6f"},"vehicle_type_id":"4","last_reported":1751130490,"current_range_meters":16400,"station_id":"st_cvj6sg6p6f1abm77japg","pricing_plan_id":"cebpf4jnsgd1na2vs0mg"},{"bike_id":"b13877a6-4825-4d82-b46b-67fa8ad66c5d","system_id":"levelo_inurba_marseille","lat":43.21194,"lon":5.35071,"is_reserved":false,"is_disabled":false,"rental_uris":{"android":"levelo://app?vid=b13877a6-4825-4d82-b46b-67fa8ad66c5d","ios":"levelo://app?vid=b13877a6-4825-4d82-b46b-67fa8ad66c5d"},"vehicle_type_id":"4","last_reported":1751130490,"current_range_meters":16400,"station_id":"st_cvj6sg6p6f1abm77japg","pricing_plan_id":"cebpf4jnsgd1na2vs0mg"},{"bike_id":"9063a283-04e6-416a-b7fe-b3ed16db32dd","system_id":"levelo_inurba_marseille","lat":43.2123,"lon":5.35077,"is_reserved":false,"is_disabled":false,"rental_uris":{"android":"levelo://app?vid=9063a283-04e6-416a-b7fe-b3ed16db32dd","ios":"levelo://app?vid=9063a283-04e6-416a-b7fe-b3ed16db32dd"},"vehicle_type_id":"4","last_reported":1751130490,"current_range_meters":16800,"station_id":"","pricing_plan_id":"cebpf4jnsgd1na2vs0mg"},{"bike_id":"735fb3ec-51d3-42a0-b0e0-35a6ef148211","system_id":"levelo_inurba_marseille","lat":43.31291,"lon":5.37315,"is_reserved":false,"is_disabled":false,"rental_uris":{"android":"levelo://app?vid=735fb3ec-51d3-42a0-b0e0-35a6ef148211","ios":"levelo://app?vid=735fb3ec-51d3-42a0-b0e0-35a6ef148211"},"vehicle_type_id":"4","last_reported":1751130490,"current_range_meters":16800,"station_id":"","pricing_plan_id":"cebpf4jnsgd1na2vs0mg"},{"bike_id":"d308c658-b19c-49c0-8014-5506ff26f69a","system_id":"levelo_inurba_marseille","lat":43.23076,"lon":5.40477,"is_reserved":false,"is_disabled":false,"rental_uris":{"android":"levelo://app?vid=d308c658-b19c-49c0-8014-5506ff26f69a","ios":"levelo://app?vid=d308c658-b19c-49c0-8014-5506ff26f69a"},"vehicle_type_id":"4","last_reported":1751130490,"current_range_meters":16800,"station_id":"","pricing_plan_id":"cebpf4jnsgd1na2vs0mg"},{"bike_id":"b265a4de-46af-4733-aad2-56046e555ba7","system_id":"levelo_inurba_marseille","lat":43.24808,"lon":5.37457,"is_reserved":false,"is_disabled":false,"rental_uris":{"android":"levelo://app?vid=b265a4de-46af-4733-aad2-56046e555ba7","ios":"levelo://app?vid=b265a4de-46af-4733-aad2-56046e555ba7"},"vehicle_type_id":"4","last_reported":1751130490,"current_range_meters":16800,"station_id":"ce4bhgh2rcd13ifvqfb0","pricing_plan_id":"cebpf4jnsgd1na2vs0mg"},{"bike_id":"908cd11d-d19a-40a4-a488-254614ce5263","system_id":"levelo_inurba_marseille","lat":43.23067,"lon":5.35501,"is_reserved":false,"is_disabled":false,"rental_uris":{"android":"levelo://app?vid=908cd11d-d19a-40a4-a488-254614ce5263","ios":"levelo://app?vid=908cd11d-d19a-40a4-a488-254614ce5263"},"vehicle_type_id":"4","last_reported":1751130490,"current_range_meters":16800,"station_id":"cpo3342slgdg3j2ifvpg","pricing_plan_id":"cebpf4jnsgd1na2vs0mg"},{"bike_id":"e5e3cd02-05df-4eb6-ae19-0375beaace7c","system_id":"levelo_inurba_marseille","lat":43.241612,"lon":5.364197,"is_reserved":false,"is_disabled":false,"rental_uris":{"android":"levelo://app?vid=e5e3cd02-05df-4eb6-ae19-0375beaace7c","ios":"levelo://app?vid=e5e3cd02-05df-4eb6-ae19-0375beaace7c"},"vehicle_type_id":"4","last_reported":1751130490,"current_range_meters":16800,"station_id":"cpo36qri1sfpv3e86is0","pricing_plan_id":"cebpf4jnsgd1na2vs0mg"},{"bike_id":"aff4423e-c2af-4b70-b9bd-2bdc17fafffc","system_id":"levelo_inurba_marseille","lat":43.24165,"lon":5.36405,"is_reserved":false,"is_disabled":false,"rental_uris":{"android":"levelo://app?vid=aff4423e-c2af-4b70-b9bd-2bdc17fafffc","ios":"levelo://app?vid=aff4423e-c2af-4b70-b9bd-2bdc17fafffc"},"vehicle_type_id":"4","last_reported":1751130490,"current_range_meters":16800,"station_id":"cpo36qri1sfpv3e86is0","pricing_plan_id":"cebpf4jnsgd1na2vs0mg"},{"bike_id":"5d5e13a4-10cc-485c-a362-06d02242e666","system_id":"levelo_inurba_marseille","lat":43.21194,"lon":5.35079,"is_reserved":false,"is_disabled":false,"rental_uris":{"android":"levelo://app?vid=5d5e13a4-10cc-485c-a362-06d02242e666","ios":"levelo://app?vid=5d5e13a4-10cc-485c-a362-06d02242e666"},"vehicle_type_id":"4","last_reported":1751130490,"current_range_meters":16800,"station_id":"st_cvj6sg6p6f1abm77japg","pricing_plan_id":"cebpf4jnsgd1na2vs0mg"},{"bike_id":"66abb35b-0e37-4ddd-bf66-70dc62e8f63c","system_id":"levelo_inurba_marseille","lat":43.22852,"lon":5.35117,"is_reserved":false,"is_disabled":false,"rental_uris":{"android":"levelo://app?vid=66abb35b-0e37-4ddd-bf66-70dc62e8f63c","ios":"levelo://app?vid=66abb35b-0e37-4ddd-bf66-70dc62e8f63c"},"vehicle_type_id":"4","last_reported":1751130490,"current_range_meters":17200,"station_id":"","pricing_plan_id":"cebpf4jnsgd1na2vs0mg"},{"bike_id":"07ca4d32-f8d4-4205-8a35-c7ff63def9dc","system_id":"levelo_inurba_marseille","lat":43.225078,"lon":5.347877,"is_reserved":false,"is_disabled":false,"rental_uris":{"android":"levelo://app?vid=07ca4d32-f8d4-4205-8a35-c7ff63def9dc","ios":"levelo://app?vid=07ca4d32-f8d4-4205-8a35-c7ff63def9dc"},"vehicle_type_id":"4","last_reported":1751130490,"current_range_meters":17200,"station_id":"","pricing_plan_id":"cebpf4jnsgd1na2vs0mg"},{"bike_id":"db50f6d1-a6bb-46a5-afc9-c9524002cf82","system_id":"levelo_inurba_marseille","lat":43.29267,"lon":5.38432,"is_reserved":false,"is_disabled":false,"rental_uris":{"android":"levelo://app?vid=db50f6d1-a6bb-46a5-afc9-c9524002cf82","ios":"levelo://app?vid=db50f6d1-a6bb-46a5-afc9-c9524002cf82"},"vehicle_type_id":"4","last_reported":1751130490,"current_range_meters":17200,"station_id":"ce4bh692rcd13ifvqea0","pricing_plan_id":"cebpf4jnsgd1na2vs0mg"},{"bike_id":"0db14670-7096-476e-b1cf-51dcc5e1a2d6","system_id":"levelo_inurba_marseille","lat":43.26684,"lon":5.38264,"is_reserved":false,"is_disabled":false,"rental_uris":{"android":"levelo://app?vid=0db14670-7096-476e-b1cf-51dcc5e1a2d6","ios":"levelo://app?vid=0db14670-7096-476e-b1cf-51dcc5e1a2d6"},"vehicle_type_id":"4","last_reported":1751130490,"current_range_meters":17200,"station_id":"ce4bhg92rcd13ifvqf90","pricing_plan_id":"cebpf4jnsgd1na2vs0mg"},{"bike_id":"c595d0e1-c778-4abe-9c79-a9dd74f54e27","system_id":"levelo_inurba_marseille","lat":43.244693,"lon":5.372329,"is_reserved":false,"is_disabled":false,"rental_uris":{"android":"levelo://app?vid=c595d0e1-c778-4abe-9c79-a9dd74f54e27","ios":"levelo://app?vid=c595d0e1-c778-4abe-9c79-a9dd74f54e27"},"vehicle_type_id":"4","last_reported":1751130490,"current_range_meters":17600,"station_id":"","pricing_plan_id":"cebpf4jnsgd1na2vs0mg"},{"bike_id":"edab9f60-a108-4247-9b65-b568a547e84c","system_id":"levelo_inurba_marseille","lat":43.29307,"lon":5.37453,"is_reserved":false,"is_disabled":false,"rental_uris":{"android":"levelo://app?vid=edab9f60-a108-4247-9b65-b568a547e84c","ios":"levelo://app?vid=edab9f60-a108-4247-9b65-b568a547e84c"},"vehicle_type_id":"4","last_reported":1751130490,"current_range_meters":17600,"station_id":"ce4bgi12rcd13ifvqb70","pricing_plan_id":"cebpf4jnsgd1na2vs0mg"},{"bike_id":"6cdfd638-7b93-4bca-b247-d69b8d653078","system_id":"levelo_inurba_marseille","lat":43.2621,"lon":5.37445,"is_reserved":false,"is_disabled":false,"rental_uris":{"android":"levelo://app?vid=6cdfd638-7b93-4bca-b247-d69b8d653078","ios":"levelo://app?vid=6cdfd638-7b93-4bca-b247-d69b8d653078"},"vehicle_type_id":"4","last_reported":1751130490,"current_range_meters":17600,"station_id":"ce4bhgp2rcd13ifvqfc0","pricing_plan_id":"cebpf4jnsgd1na2vs0mg"},{"bike_id":"e0d25799-cb17-4211-bfde-68ae2503bf1f","system_id":"levelo_inurba_marseille","lat":43.23068,"lon":5.3546,"is_reserved":false,"is_disabled":false,"rental_uris":{"android":"levelo://app?vid=e0d25799-cb17-4211-bfde-68ae2503bf1f","ios":"levelo://app?vid=e0d25799-cb17-4211-bfde-68ae2503bf1f"},"vehicle_type_id":"4","last_reported":1751130490,"current_range_meters":17600,"station_id":"cpo3342slgdg3j2ifvpg","pricing_plan_id":"cebpf4jnsgd1na2vs0mg"},{"bike_id":"72df8c60-f190-4633-b0af-a27bfeb7314d","system_id":"levelo_inurba_marseille","lat":43.24132,"lon":5.36409,"is_reserved":false,"is_disabled":false,"rental_uris":{"android":"levelo://app?vid=72df8c60-f190-4633-b0af-a27bfeb7314d","ios":"levelo://app?vid=72df8c60-f190-4633-b0af-a27bfeb7314d"},"vehicle_type_id":"4","last_reported":1751130490,"current_range_meters":17600,"station_id":"cpo36qri1sfpv3e86is0","pricing_plan_id":"cebpf4jnsgd1na2vs0mg"},{"bike_id":"8e41df63-5922-4cd3-94e1-83a309f71dc9","system_id":"levelo_inurba_marseille","lat":43.21196,"lon":5.35066,"is_reserved":false,"is_disabled":false,"rental_uris":{"android":"levelo://app?vid=8e41df63-5922-4cd3-94e1-83a309f71dc9","ios":"levelo://app?vid=8e41df63-5922-4cd3-94e1-83a309f71dc9"},"vehicle_type_id":"4","last_reported":1751130490,"current_range_meters":17600,"station_id":"st_cvj6sg6p6f1abm77japg","pricing_plan_id":"cebpf4jnsgd1na2vs0mg"},{"bike_id":"3ba4bbb8-34eb-409b-aded-fc8026499ce6","system_id":"levelo_inurba_marseille","lat":43.28613,"lon":5.370651,"is_reserved":false,"is_disabled":false,"rental_uris":{"android":"levelo://app?vid=3ba4bbb8-34eb-409b-aded-fc8026499ce6","ios":"levelo://app?vid=3ba4bbb8-34eb-409b-aded-fc8026499ce6"},"vehicle_type_id":"4","last_reported":1751130490,"current_range_meters":18000,"station_id":"","pricing_plan_id":"cebpf4jnsgd1na2vs0mg"},{"bike_id":"95ed7335-8ee3-4631-880f-dceda9e0b3e1","system_id":"levelo_inurba_marseille","lat":43.267922,"lon":5.393558,"is_reserved":false,"is_disabled":false,"rental_uris":{"android":"levelo://app?vid=95ed7335-8ee3-4631-880f-dceda9e0b3e1","ios":"levelo://app?vid=95ed7335-8ee3-4631-880f-dceda9e0b3e1"},"vehicle_type_id":"4","last_reported":1751130490,"current_range_meters":18000,"station_id":"ce4bhh12rcd13ifvqfg0","pricing_plan_id":"cebpf4jnsgd1na2vs0mg"},{"bike_id":"365aecec-12a0-4bcc-ae33-e4b96d7d4ddf","system_id":"levelo_inurba_marseille","lat":43.2721,"lon":5.39177,"is_reserved":false,"is_disabled":false,"rental_uris":{"android":"levelo://app?vid=365aecec-12a0-4bcc-ae33-e4b96d7d4ddf","ios":"levelo://app?vid=365aecec-12a0-4bcc-ae33-e4b96d7d4ddf"},"vehicle_type_id":"4","last_reported":1751130490,"current_range_meters":18000,"station_id":"ce4bhhp2rcd13ifvqfm0","pricing_plan_id":"cebpf4jnsgd1na2vs0mg"},{"bike_id":"4ed24a62-2a63-4871-a6ef-8c5460ecedcd","system_id":"levelo_inurba_marseille","lat":43.28002,"lon":5.40013,"is_reserved":false,"is_disabled":false,"rental_uris":{"android":"levelo://app?vid=4ed24a62-2a63-4871-a6ef-8c5460ecedcd","ios":"levelo://app?vid=4ed24a62-2a63-4871-a6ef-8c5460ecedcd"},"vehicle_type_id":"4","last_reported":1751130490,"current_range_meters":18000,"station_id":"ce4bho92rcd13ifvqh4g","pricing_plan_id":"cebpf4jnsgd1na2vs0mg"},{"bike_id":"e8ea605e-e138-4e5e-ba06-7b44d8d7c125","system_id":"levelo_inurba_marseille","lat":43.21217,"lon":5.35087,"is_reserved":false,"is_disabled":false,"rental_uris":{"android":"levelo://app?vid=e8ea605e-e138-4e5e-ba06-7b44d8d7c125","ios":"levelo://app?vid=e8ea605e-e138-4e5e-ba06-7b44d8d7c125"},"vehicle_type_id":"4","last_reported":1751130490,"current_range_meters":18000,"station_id":"st_cvj6sg6p6f1abm77japg","pricing_plan_id":"cebpf4jnsgd1na2vs0mg"},{"bike_id":"5c4a063b-d66a-4a46-bae3-19c99075b893","system_id":"levelo_inurba_marseille","lat":43.28656,"lon":5.38671,"is_reserved":false,"is_disabled":false,"rental_uris":{"android":"levelo://app?vid=5c4a063b-d66a-4a46-bae3-19c99075b893","ios":"levelo://app?vid=5c4a063b-d66a-4a46-bae3-19c99075b893"},"vehicle_type_id":"4","last_reported":1751130490,"current_range_meters":18800,"station_id":"ce4bh492rcd13ifvqdug","pricing_plan_id":"cebpf4jnsgd1na2vs0mg"},{"bike_id":"fede116f-fe8f-4996-bd86-bef08c43bb15","system_id":"levelo_inurba_marseille","lat":43.2842,"lon":5.34982,"is_reserved":false,"is_disabled":false,"rental_uris":{"android":"levelo://app?vid=fede116f-fe8f-4996-bd86-bef08c43bb15","ios":"levelo://app?vid=fede116f-fe8f-4996-bd86-bef08c43bb15"},"vehicle_type_id":"4","last_reported":1751130490,"current_range_meters":18800,"station_id":"ce4bhbh2rcd13ifvqepg","pricing_plan_id":"cebpf4jnsgd1na2vs0mg"},{"bike_id":"6e53ad1f-d4f5-4de6-9418-67b290ec993f","system_id":"levelo_inurba_marseille","lat":43.30941,"lon":5.4103,"is_reserved":false,"is_disabled":false,"rental_uris":{"android":"levelo://app?vid=6e53ad1f-d4f5-4de6-9418-67b290ec993f","ios":"levelo://app?vid=6e53ad1f-d4f5-4de6-9418-67b290ec993f"},"vehicle_type_id":"4","last_reported":1751130490,"current_range_meters":19200,"station_id":"","pricing_plan_id":"cebpf4jnsgd1na2vs0mg"},{"bike_id":"32d2acfd-f836-4470-a7af-275bd64ad313","system_id":"levelo_inurba_marseille","lat":43.31074,"lon":5.38353,"is_reserved":false,"is_disabled":false,"rental_uris":{"android":"levelo://app?vid=32d2acfd-f836-4470-a7af-275bd64ad313","ios":"levelo://app?vid=32d2acfd-f836-4470-a7af-275bd64ad313"},"vehicle_type_id":"4","last_reported":1751130490,"current_range_meters":19200,"station_id":"ce4bgv92rcd13ifvqcr0","pricing_plan_id":"cebpf4jnsgd1na2vs0mg"},{"bike_id":"26ee729d-d770-4988-9438-14db85d734c0","system_id":"levelo_inurba_marseille","lat":43.28843,"lon":5.35853,"is_reserved":false,"is_disabled":false,"rental_uris":{"android":"levelo://app?vid=26ee729d-d770-4988-9438-14db85d734c0","ios":"levelo://app?vid=26ee729d-d770-4988-9438-14db85d734c0"},"vehicle_type_id":"4","last_reported":1751130490,"current_range_meters":19200,"station_id":"ce4bhb12rcd13ifvqem0","pricing_plan_id":"cebpf4jnsgd1na2vs0mg"},{"bike_id":"4f9b9a6a-38b9-4051-88b6-b3b377cf62e7","system_id":"levelo_inurba_marseille","lat":43.29006,"lon":5.35607,"is_reserved":false,"is_disabled":false,"rental_uris":{"android":"levelo://app?vid=4f9b9a6a-38b9-4051-88b6-b3b377cf62e7","ios":"levelo://app?vid=4f9b9a6a-38b9-4051-88b6-b3b377cf62e7"},"vehicle_type_id":"4","last_reported":1751130490,"current_range_meters":19200,"station_id":"ce4bhb92rcd13ifvqen0","pricing_plan_id":"cebpf4jnsgd1na2vs0mg"},{"bike_id":"78c0c55d-77e6-4428-91cc-a99b6b3e2d1c","system_id":"levelo_inurba_marseille","lat":43.284273,"lon":5.349754,"is_reserved":false,"is_disabled":false,"rental_uris":{"android":"levelo://app?vid=78c0c55d-77e6-4428-91cc-a99b6b3e2d1c","ios":"levelo://app?vid=78c0c55d-77e6-4428-91cc-a99b6b3e2d1c"},"vehicle_type_id":"4","last_reported":1751130490,"current_range_meters":19200,"station_id":"ce4bhbh2rcd13ifvqepg","pricing_plan_id":"cebpf4jnsgd1na2vs0mg"},{"bike_id":"8a73d86a-7065-40d5-98d3-35d606225561","system_id":"levelo_inurba_marseille","lat":43.26212,"lon":5.37444,"is_reserved":false,"is_disabled":false,"rental_uris":{"android":"levelo://app?vid=8a73d86a-7065-40d5-98d3-35d606225561","ios":"levelo://app?vid=8a73d86a-7065-40d5-98d3-35d606225561"},"vehicle_type_id":"4","last_reported":1751130490,"current_range_meters":19200,"station_id":"ce4bhgp2rcd13ifvqfc0","pricing_plan_id":"cebpf4jnsgd1na2vs0mg"},{"bike_id":"76304d74-5bae-4983-9634-d9b985b6ed78","system_id":"levelo_inurba_marseille","lat":43.27317,"lon":5.39078,"is_reserved":false,"is_disabled":false,"rental_uris":{"android":"levelo://app?vid=76304d74-5bae-4983-9634-d9b985b6ed78","ios":"levelo://app?vid=76304d74-5bae-4983-9634-d9b985b6ed78"},"vehicle_type_id":"4","last_reported":1751130490,"current_range_meters":19200,"station_id":"ce4bhgp2rcd13ifvqfe0","pricing_plan_id":"cebpf4jnsgd1na2vs0mg"},{"bike_id":"1f752ded-b8ec-4bc6-8178-64fe3a965820","system_id":"levelo_inurba_marseille","lat":43.24399,"lon":5.37061,"is_reserved":false,"is_disabled":false,"rental_uris":{"android":"levelo://app?vid=1f752ded-b8ec-4bc6-8178-64fe3a965820","ios":"levelo://app?vid=1f752ded-b8ec-4bc6-8178-64fe3a965820"},"vehicle_type_id":"4","last_reported":1751130490,"current_range_meters":19200,"station_id":"ce4bhhh2rcd13ifvqfk0","pricing_plan_id":"cebpf4jnsgd1na2vs0mg"},{"bike_id":"28c6b563-6714-455f-b78a-4201e54510f4","system_id":"levelo_inurba_marseille","lat":43.27939,"lon":5.4105,"is_reserved":false,"is_disabled":false,"rental_uris":{"android":"levelo://app?vid=28c6b563-6714-455f-b78a-4201e54510f4","ios":"levelo://app?vid=28c6b563-6714-455f-b78a-4201e54510f4"},"vehicle_type_id":"4","last_reported":1751130490,"current_range_meters":19200,"station_id":"ce4bhnp2rcd13ifvqh0g","pricing_plan_id":"cebpf4jnsgd1na2vs0mg"},{"bike_id":"b101ca3c-0945-4c03-aecd-cb61c372ddb7","system_id":"levelo_inurba_marseille","lat":43.32665,"lon":5.40941,"is_reserved":false,"is_disabled":false,"rental_uris":{"android":"levelo://app?vid=b101ca3c-0945-4c03-aecd-cb61c372ddb7","ios":"levelo://app?vid=b101ca3c-0945-4c03-aecd-cb61c372ddb7"},"vehicle_type_id":"4","last_reported":1751130490,"current_range_meters":19200,"station_id":"ce4bhpp2rcd13ifvqhgg","pricing_plan_id":"cebpf4jnsgd1na2vs0mg"},{"bike_id":"b7521461-0f25-4139-b897-45f954e1b793","system_id":"levelo_inurba_marseille","lat":43.268079,"lon":5.402691,"is_reserved":false,"is_disabled":false,"rental_uris":{"android":"levelo://app?vid=b7521461-0f25-4139-b897-45f954e1b793","ios":"levelo://app?vid=b7521461-0f25-4139-b897-45f954e1b793"},"vehicle_type_id":"4","last_reported":1751130490,"current_range_meters":19200,"station_id":"ce501612rcd8frsf0b60","pricing_plan_id":"cebpf4jnsgd1na2vs0mg"},{"bike_id":"3e82f598-9d1d-4257-8afa-a4dc7305de09","system_id":"levelo_inurba_marseille","lat":43.212154,"lon":5.350812,"is_reserved":false,"is_disabled":false,"rental_uris":{"android":"levelo://app?vid=3e82f598-9d1d-4257-8afa-a4dc7305de09","ios":"levelo://app?vid=3e82f598-9d1d-4257-8afa-a4dc7305de09"},"vehicle_type_id":"4","last_reported":1751130490,"current_range_meters":19200,"station_id":"st_cvj6sg6p6f1abm77japg","pricing_plan_id":"cebpf4jnsgd1na2vs0mg"},{"bike_id":"bf24b26e-7f51-4120-9a48-54c87edaa2f7","system_id":"levelo_inurba_marseille","lat":43.21194,"lon":5.35076,"is_reserved":false,"is_disabled":false,"rental_uris":{"android":"levelo://app?vid=bf24b26e-7f51-4120-9a48-54c87edaa2f7","ios":"levelo://app?vid=bf24b26e-7f51-4120-9a48-54c87edaa2f7"},"vehicle_type_id":"4","last_reported":1751130490,"current_range_meters":19200,"station_id":"st_cvj6sg6p6f1abm77japg","pricing_plan_id":"cebpf4jnsgd1na2vs0mg"},{"bike_id":"7cd73daf-6410-4b72-a872-e5224e9d29ff","system_id":"levelo_inurba_marseille","lat":43.274111,"lon":5.412088,"is_reserved":false,"is_disabled":false,"rental_uris":{"android":"levelo://app?vid=7cd73daf-6410-4b72-a872-e5224e9d29ff","ios":"levelo://app?vid=7cd73daf-6410-4b72-a872-e5224e9d29ff"},"vehicle_type_id":"4","last_reported":1751130490,"current_range_meters":19600,"station_id":"","pricing_plan_id":"cebpf4jnsgd1na2vs0mg"},{"bike_id":"4f85ab16-778f-4d3d-a319-8805f144906a","system_id":"levelo_inurba_marseille","lat":43.28356,"lon":5.38102,"is_reserved":false,"is_disabled":false,"rental_uris":{"android":"levelo://app?vid=4f85ab16-778f-4d3d-a319-8805f144906a","ios":"levelo://app?vid=4f85ab16-778f-4d3d-a319-8805f144906a"},"vehicle_type_id":"4","last_reported":1751130490,"current_range_meters":19600,"station_id":"ce4bh412rcd13ifvqdr0","pricing_plan_id":"cebpf4jnsgd1na2vs0mg"},{"bike_id":"d0cf40c6-50cf-4028-9f5e-ef13a899521d","system_id":"levelo_inurba_marseille","lat":43.28609,"lon":5.35107,"is_reserved":false,"is_disabled":false,"rental_uris":{"android":"levelo://app?vid=d0cf40c6-50cf-4028-9f5e-ef13a899521d","ios":"levelo://app?vid=d0cf40c6-50cf-4028-9f5e-ef13a899521d"},"vehicle_type_id":"4","last_reported":1751130490,"current_range_meters":19600,"station_id":"ce4bhch2rcd13ifvqeug","pricing_plan_id":"cebpf4jnsgd1na2vs0mg"},{"bike_id":"0347224d-7efb-4c4a-ac30-88f550a3bbc1","system_id":"levelo_inurba_marseille","lat":43.26796,"lon":5.3941,"is_reserved":false,"is_disabled":false,"rental_uris":{"android":"levelo://app?vid=0347224d-7efb-4c4a-ac30-88f550a3bbc1","ios":"levelo://app?vid=0347224d-7efb-4c4a-ac30-88f550a3bbc1"},"vehicle_type_id":"4","last_reported":1751130490,"current_range_meters":19600,"station_id":"ce4bhh12rcd13ifvqfg0","pricing_plan_id":"cebpf4jnsgd1na2vs0mg"},{"bike_id":"ed92a9c0-fb64-496e-9fee-b9638536839a","system_id":"levelo_inurba_marseille","lat":43.23191,"lon":5.35561,"is_reserved":false,"is_disabled":false,"rental_uris":{"android":"levelo://app?vid=ed92a9c0-fb64-496e-9fee-b9638536839a","ios":"levelo://app?vid=ed92a9c0-fb64-496e-9fee-b9638536839a"},"vehicle_type_id":"4","last_reported":1751130490,"current_range_meters":19600,"station_id":"ce4bhu92rcd13ifvqi70","pricing_plan_id":"cebpf4jnsgd1na2vs0mg"},{"bike_id":"7f212f1e-9b22-4ad3-88bb-18d999719345","system_id":"levelo_inurba_marseille","lat":43.21214,"lon":5.35078,"is_reserved":false,"is_disabled":false,"rental_uris":{"android":"levelo://app?vid=7f212f1e-9b22-4ad3-88bb-18d999719345","ios":"levelo://app?vid=7f212f1e-9b22-4ad3-88bb-18d999719345"},"vehicle_type_id":"4","last_reported":1751130490,"current_range_meters":19600,"station_id":"st_cvj6sg6p6f1abm77japg","pricing_plan_id":"cebpf4jnsgd1na2vs0mg"},{"bike_id":"694c7c4b-e51a-4ab7-99c2-d3428516e98b","system_id":"levelo_inurba_marseille","lat":43.26789,"lon":5.3818,"is_reserved":false,"is_disabled":false,"rental_uris":{"android":"levelo://app?vid=694c7c4b-e51a-4ab7-99c2-d3428516e98b","ios":"levelo://app?vid=694c7c4b-e51a-4ab7-99c2-d3428516e98b"},"vehicle_type_id":"4","last_reported":1751130490,"current_range_meters":20000,"station_id":"","pricing_plan_id":"cebpf4jnsgd1na2vs0mg"},{"bike_id":"cb28e51e-5472-4fba-8a2c-787bdcd9f861","system_id":"levelo_inurba_marseille","lat":43.292139,"lon":5.359538,"is_reserved":false,"is_disabled":false,"rental_uris":{"android":"levelo://app?vid=cb28e51e-5472-4fba-8a2c-787bdcd9f861","ios":"levelo://app?vid=cb28e51e-5472-4fba-8a2c-787bdcd9f861"},"vehicle_type_id":"4","last_reported":1751130490,"current_range_meters":20000,"station_id":"ce4bhb12rcd13ifvqel0","pricing_plan_id":"cebpf4jnsgd1na2vs0mg"},{"bike_id":"786dd9f1-9a9e-449e-aa02-caef6266c938","system_id":"levelo_inurba_marseille","lat":43.27568,"lon":5.3842,"is_reserved":false,"is_disabled":false,"rental_uris":{"android":"levelo://app?vid=786dd9f1-9a9e-449e-aa02-caef6266c938","ios":"levelo://app?vid=786dd9f1-9a9e-449e-aa02-caef6266c938"},"vehicle_type_id":"4","last_reported":1751130490,"current_range_meters":20000,"station_id":"ce4bhh92rcd13ifvqfi0","pricing_plan_id":"cebpf4jnsgd1na2vs0mg"},{"bike_id":"7f8218ac-4241-47de-9356-9b0fe91827b8","system_id":"levelo_inurba_marseille","lat":43.243868,"lon":5.370487,"is_reserved":false,"is_disabled":false,"rental_uris":{"android":"levelo://app?vid=7f8218ac-4241-47de-9356-9b0fe91827b8","ios":"levelo://app?vid=7f8218ac-4241-47de-9356-9b0fe91827b8"},"vehicle_type_id":"4","last_reported":1751130490,"current_range_meters":20000,"station_id":"ce4bhhh2rcd13ifvqfk0","pricing_plan_id":"cebpf4jnsgd1na2vs0mg"},{"bike_id":"e52739ec-985e-44ec-8578-16d67a880233","system_id":"levelo_inurba_marseille","lat":43.26487,"lon":5.39546,"is_reserved":false,"is_disabled":false,"rental_uris":{"android":"levelo://app?vid=e52739ec-985e-44ec-8578-16d67a880233","ios":"levelo://app?vid=e52739ec-985e-44ec-8578-16d67a880233"},"vehicle_type_id":"4","last_reported":1751130490,"current_range_meters":20000,"station_id":"ce4bhi12rcd13ifvqfq0","pricing_plan_id":"cebpf4jnsgd1na2vs0mg"},{"bike_id":"0392c517-8b77-414f-b7e0-01fb5f175094","system_id":"levelo_inurba_marseille","lat":43.28065,"lon":5.39625,"is_reserved":false,"is_disabled":false,"rental_uris":{"android":"levelo://app?vid=0392c517-8b77-414f-b7e0-01fb5f175094","ios":"levelo://app?vid=0392c517-8b77-414f-b7e0-01fb5f175094"},"vehicle_type_id":"4","last_reported":1751130490,"current_range_meters":20000,"station_id":"ce4bho12rcd13ifvqh2g","pricing_plan_id":"cebpf4jnsgd1na2vs0mg"},{"bike_id":"0ede0ff5-75a7-44ee-9dd9-7e542ec59b9e","system_id":"levelo_inurba_marseille","lat":43.308313,"lon":5.436017,"is_reserved":false,"is_disabled":false,"rental_uris":{"android":"levelo://app?vid=0ede0ff5-75a7-44ee-9dd9-7e542ec59b9e","ios":"levelo://app?vid=0ede0ff5-75a7-44ee-9dd9-7e542ec59b9e"},"vehicle_type_id":"4","last_reported":1751130490,"current_range_meters":20000,"station_id":"ce4bhph2rcd13ifvqheg","pricing_plan_id":"cebpf4jnsgd1na2vs0mg"},{"bike_id":"6c7acf8b-2671-4491-9c3c-fa99910f0446","system_id":"levelo_inurba_marseille","lat":43.32368,"lon":5.38888,"is_reserved":false,"is_disabled":false,"rental_uris":{"android":"levelo://app?vid=6c7acf8b-2671-4491-9c3c-fa99910f0446","ios":"levelo://app?vid=6c7acf8b-2671-4491-9c3c-fa99910f0446"},"vehicle_type_id":"4","last_reported":1751130490,"current_range_meters":20000,"station_id":"ce4bhqp2rcd13ifvqhog","pricing_plan_id":"cebpf4jnsgd1na2vs0mg"},{"bike_id":"622b2287-a04e-43e3-ac9d-7dbbacabec95","system_id":"levelo_inurba_marseille","lat":43.284241,"lon":5.349955,"is_reserved":false,"is_disabled":false,"rental_uris":{"android":"levelo://app?vid=622b2287-a04e-43e3-ac9d-7dbbacabec95","ios":"levelo://app?vid=622b2287-a04e-43e3-ac9d-7dbbacabec95"},"vehicle_type_id":"4","last_reported":1751130490,"current_range_meters":20400,"station_id":"ce4bhbh2rcd13ifvqepg","pricing_plan_id":"cebpf4jnsgd1na2vs0mg"},{"bike_id":"83952881-dcb3-4618-aa07-327405a3cfe1","system_id":"levelo_inurba_marseille","lat":43.28939,"lon":5.36396,"is_reserved":false,"is_disabled":false,"rental_uris":{"android":"levelo://app?vid=83952881-dcb3-4618-aa07-327405a3cfe1","ios":"levelo://app?vid=83952881-dcb3-4618-aa07-327405a3cfe1"},"vehicle_type_id":"4","last_reported":1751130490,"current_range_meters":20400,"station_id":"ce4bhc92rcd13ifvqetg","pricing_plan_id":"cebpf4jnsgd1na2vs0mg"},{"bike_id":"02495245-8f57-48c0-9c49-816b38dd562f","system_id":"levelo_inurba_marseille","lat":43.27207,"lon":5.39183,"is_reserved":false,"is_disabled":false,"rental_uris":{"android":"levelo://app?vid=02495245-8f57-48c0-9c49-816b38dd562f","ios":"levelo://app?vid=02495245-8f57-48c0-9c49-816b38dd562f"},"vehicle_type_id":"4","last_reported":1751130490,"current_range_meters":20400,"station_id":"ce4bhhp2rcd13ifvqfm0","pricing_plan_id":"cebpf4jnsgd1na2vs0mg"},{"bike_id":"28953e40-accf-4ca6-a130-b65d547ad6bf","system_id":"levelo_inurba_marseille","lat":43.240732,"lon":5.377603,"is_reserved":false,"is_disabled":false,"rental_uris":{"android":"levelo://app?vid=28953e40-accf-4ca6-a130-b65d547ad6bf","ios":"levelo://app?vid=28953e40-accf-4ca6-a130-b65d547ad6bf"},"vehicle_type_id":"4","last_reported":1751130490,"current_range_meters":20400,"station_id":"ce4bhnp2rcd13ifvqgvg","pricing_plan_id":"cebpf4jnsgd1na2vs0mg"},{"bike_id":"e7641e58-176f-485d-9342-129003cdc52b","system_id":"levelo_inurba_marseille","lat":43.32072,"lon":5.36774,"is_reserved":false,"is_disabled":false,"rental_uris":{"android":"levelo://app?vid=e7641e58-176f-485d-9342-129003cdc52b","ios":"levelo://app?vid=e7641e58-176f-485d-9342-129003cdc52b"},"vehicle_type_id":"4","last_reported":1751130490,"current_range_meters":20400,"station_id":"ce4bhrh2rcd13ifvqhug","pricing_plan_id":"cebpf4jnsgd1na2vs0mg"},{"bike_id":"4792a642-f8ff-4c6d-8472-c9d8e796ff3f","system_id":"levelo_inurba_marseille","lat":43.26941,"lon":5.40264,"is_reserved":false,"is_disabled":false,"rental_uris":{"android":"levelo://app?vid=4792a642-f8ff-4c6d-8472-c9d8e796ff3f","ios":"levelo://app?vid=4792a642-f8ff-4c6d-8472-c9d8e796ff3f"},"vehicle_type_id":"4","last_reported":1751130490,"current_range_meters":20400,"station_id":"cjm6bp8fraef2m0cb0m0","pricing_plan_id":"cebpf4jnsgd1na2vs0mg"},{"bike_id":"0530d8ac-0114-461d-a8ba-09ea5add6fae","system_id":"levelo_inurba_marseille","lat":43.2418,"lon":5.36394,"is_reserved":false,"is_disabled":false,"rental_uris":{"android":"levelo://app?vid=0530d8ac-0114-461d-a8ba-09ea5add6fae","ios":"levelo://app?vid=0530d8ac-0114-461d-a8ba-09ea5add6fae"},"vehicle_type_id":"4","last_reported":1751130490,"current_range_meters":20400,"station_id":"cpo36qri1sfpv3e86is0","pricing_plan_id":"cebpf4jnsgd1na2vs0mg"},{"bike_id":"c399bdf3-8432-4c76-9858-62769eaeec6b","system_id":"levelo_inurba_marseille","lat":43.30891,"lon":5.37193,"is_reserved":false,"is_disabled":false,"rental_uris":{"android":"levelo://app?vid=c399bdf3-8432-4c76-9858-62769eaeec6b","ios":"levelo://app?vid=c399bdf3-8432-4c76-9858-62769eaeec6b"},"vehicle_type_id":"4","last_reported":1751130490,"current_range_meters":20800,"station_id":"ce4bguh2rcd13ifvqckg","pricing_plan_id":"cebpf4jnsgd1na2vs0mg"},{"bike_id":"108380d7-0c6f-4f4b-a7f1-0b1b5aef0f6e","system_id":"levelo_inurba_marseille","lat":43.26559,"lon":5.37286,"is_reserved":false,"is_disabled":false,"rental_uris":{"android":"levelo://app?vid=108380d7-0c6f-4f4b-a7f1-0b1b5aef0f6e","ios":"levelo://app?vid=108380d7-0c6f-4f4b-a7f1-0b1b5aef0f6e"},"vehicle_type_id":"4","last_reported":1751130490,"current_range_meters":20800,"station_id":"ce4bhg12rcd13ifvqf70","pricing_plan_id":"cebpf4jnsgd1na2vs0mg"},{"bike_id":"9a110421-0c4d-48bf-960f-cb3069cf7de5","system_id":"levelo_inurba_marseille","lat":43.27836,"lon":5.3921,"is_reserved":false,"is_disabled":false,"rental_uris":{"android":"levelo://app?vid=9a110421-0c4d-48bf-960f-cb3069cf7de5","ios":"levelo://app?vid=9a110421-0c4d-48bf-960f-cb3069cf7de5"},"vehicle_type_id":"4","last_reported":1751130490,"current_range_meters":20800,"station_id":"ce4bhjp2rcd13ifvqga0","pricing_plan_id":"cebpf4jnsgd1na2vs0mg"},{"bike_id":"54e6c144-89e2-4352-bee4-0bc5a4da8819","system_id":"levelo_inurba_marseille","lat":43.32667,"lon":5.40977,"is_reserved":false,"is_disabled":false,"rental_uris":{"android":"levelo://app?vid=54e6c144-89e2-4352-bee4-0bc5a4da8819","ios":"levelo://app?vid=54e6c144-89e2-4352-bee4-0bc5a4da8819"},"vehicle_type_id":"4","last_reported":1751130490,"current_range_meters":20800,"station_id":"ce4bhpp2rcd13ifvqhgg","pricing_plan_id":"cebpf4jnsgd1na2vs0mg"},{"bike_id":"ff359b06-e82b-4518-b602-f9c62162a27d","system_id":"levelo_inurba_marseille","lat":43.21197,"lon":5.35076,"is_reserved":false,"is_disabled":false,"rental_uris":{"android":"levelo://app?vid=ff359b06-e82b-4518-b602-f9c62162a27d","ios":"levelo://app?vid=ff359b06-e82b-4518-b602-f9c62162a27d"},"vehicle_type_id":"4","last_reported":1751130490,"current_range_meters":20800,"station_id":"st_cvj6sg6p6f1abm77japg","pricing_plan_id":"cebpf4jnsgd1na2vs0mg"},{"bike_id":"baf8283d-da3b-4ed0-bc66-8c0af8b88a2a","system_id":"levelo_inurba_marseille","lat":43.2842,"lon":5.34997,"is_reserved":false,"is_disabled":false,"rental_uris":{"android":"levelo://app?vid=baf8283d-da3b-4ed0-bc66-8c0af8b88a2a","ios":"levelo://app?vid=baf8283d-da3b-4ed0-bc66-8c0af8b88a2a"},"vehicle_type_id":"4","last_reported":1751130490,"current_range_meters":21600,"station_id":"ce4bhbh2rcd13ifvqepg","pricing_plan_id":"cebpf4jnsgd1na2vs0mg"},{"bike_id":"f71b38d0-68f4-4abb-bd99-650fc81bbff3","system_id":"levelo_inurba_marseille","lat":43.26687,"lon":5.38268,"is_reserved":false,"is_disabled":false,"rental_uris":{"android":"levelo://app?vid=f71b38d0-68f4-4abb-bd99-650fc81bbff3","ios":"levelo://app?vid=f71b38d0-68f4-4abb-bd99-650fc81bbff3"},"vehicle_type_id":"4","last_reported":1751130490,"current_range_meters":21600,"station_id":"ce4bhg92rcd13ifvqf90","pricing_plan_id":"cebpf4jnsgd1na2vs0mg"},{"bike_id":"74d50173-9bd7-4164-94d2-61faab5e0e2e","system_id":"levelo_inurba_marseille","lat":43.27838,"lon":5.39203,"is_reserved":false,"is_disabled":false,"rental_uris":{"android":"levelo://app?vid=74d50173-9bd7-4164-94d2-61faab5e0e2e","ios":"levelo://app?vid=74d50173-9bd7-4164-94d2-61faab5e0e2e"},"vehicle_type_id":"4","last_reported":1751130490,"current_range_meters":21600,"station_id":"ce4bhjp2rcd13ifvqga0","pricing_plan_id":"cebpf4jnsgd1na2vs0mg"},{"bike_id":"9b21541a-edfa-4c28-a626-87d8c52e11d9","system_id":"levelo_inurba_marseille","lat":43.31764,"lon":5.374454,"is_reserved":false,"is_disabled":false,"rental_uris":{"android":"levelo://app?vid=9b21541a-edfa-4c28-a626-87d8c52e11d9","ios":"levelo://app?vid=9b21541a-edfa-4c28-a626-87d8c52e11d9"},"vehicle_type_id":"4","last_reported":1751130490,"current_range_meters":22000,"station_id":"","pricing_plan_id":"cebpf4jnsgd1na2vs0mg"},{"bike_id":"d4ac4454-39ce-49f5-9c8a-e5845093676f","system_id":"levelo_inurba_marseille","lat":43.28412,"lon":5.34982,"is_reserved":false,"is_disabled":false,"rental_uris":{"android":"levelo://app?vid=d4ac4454-39ce-49f5-9c8a-e5845093676f","ios":"levelo://app?vid=d4ac4454-39ce-49f5-9c8a-e5845093676f"},"vehicle_type_id":"4","last_reported":1751130490,"current_range_meters":22000,"station_id":"ce4bhbh2rcd13ifvqepg","pricing_plan_id":"cebpf4jnsgd1na2vs0mg"},{"bike_id":"9e1e900c-cea4-4b09-a151-d194cc61880d","system_id":"levelo_inurba_marseille","lat":43.26685,"lon":5.38253,"is_reserved":false,"is_disabled":false,"rental_uris":{"android":"levelo://app?vid=9e1e900c-cea4-4b09-a151-d194cc61880d","ios":"levelo://app?vid=9e1e900c-cea4-4b09-a151-d194cc61880d"},"vehicle_type_id":"4","last_reported":1751130490,"current_range_meters":22000,"station_id":"ce4bhg92rcd13ifvqf90","pricing_plan_id":"cebpf4jnsgd1na2vs0mg"},{"bike_id":"0a4a86ea-1ba8-4dd8-8b87-70308b5fc867","system_id":"levelo_inurba_marseille","lat":43.32488,"lon":5.3657,"is_reserved":false,"is_disabled":false,"rental_uris":{"android":"levelo://app?vid=0a4a86ea-1ba8-4dd8-8b87-70308b5fc867","ios":"levelo://app?vid=0a4a86ea-1ba8-4dd8-8b87-70308b5fc867"},"vehicle_type_id":"4","last_reported":1751130490,"current_range_meters":22000,"station_id":"ce4bhs12rcd13ifvqhvg","pricing_plan_id":"cebpf4jnsgd1na2vs0mg"},{"bike_id":"3eabe1e2-f9f5-41cb-a4ed-73ca7f909c5c","system_id":"levelo_inurba_marseille","lat":43.21193,"lon":5.35068,"is_reserved":false,"is_disabled":false,"rental_uris":{"android":"levelo://app?vid=3eabe1e2-f9f5-41cb-a4ed-73ca7f909c5c","ios":"levelo://app?vid=3eabe1e2-f9f5-41cb-a4ed-73ca7f909c5c"},"vehicle_type_id":"4","last_reported":1751130490,"current_range_meters":22000,"station_id":"st_cvj6sg6p6f1abm77japg","pricing_plan_id":"cebpf4jnsgd1na2vs0mg"},{"bike_id":"ba926bfc-9632-4680-b0ed-32a040d6fb83","system_id":"levelo_inurba_marseille","lat":43.21186,"lon":5.35084,"is_reserved":false,"is_disabled":false,"rental_uris":{"android":"levelo://app?vid=ba926bfc-9632-4680-b0ed-32a040d6fb83","ios":"levelo://app?vid=ba926bfc-9632-4680-b0ed-32a040d6fb83"},"vehicle_type_id":"4","last_reported":1751130490,"current_range_meters":22000,"station_id":"st_cvj6sg6p6f1abm77japg","pricing_plan_id":"cebpf4jnsgd1na2vs0mg"},{"bike_id":"2a7d4522-b0dd-48c1-8653-7a6d0e58cc43","system_id":"levelo_inurba_marseille","lat":43.32081,"lon":5.40116,"is_reserved":false,"is_disabled":false,"rental_uris":{"android":"levelo://app?vid=2a7d4522-b0dd-48c1-8653-7a6d0e58cc43","ios":"levelo://app?vid=2a7d4522-b0dd-48c1-8653-7a6d0e58cc43"},"vehicle_type_id":"4","last_reported":1751130490,"current_range_meters":22400,"station_id":"","pricing_plan_id":"cebpf4jnsgd1na2vs0mg"},{"bike_id":"1ac664aa-f2a4-4b75-879f-dcb93272d133","system_id":"levelo_inurba_marseille","lat":43.32036,"lon":5.40957,"is_reserved":false,"is_disabled":false,"rental_uris":{"android":"levelo://app?vid=1ac664aa-f2a4-4b75-879f-dcb93272d133","ios":"levelo://app?vid=1ac664aa-f2a4-4b75-879f-dcb93272d133"},"vehicle_type_id":"4","last_reported":1751130490,"current_range_meters":22400,"station_id":"","pricing_plan_id":"cebpf4jnsgd1na2vs0mg"},{"bike_id":"02921252-6ccf-4053-a544-097f5ecf4ac5","system_id":"levelo_inurba_marseille","lat":43.30929,"lon":5.40146,"is_reserved":false,"is_disabled":false,"rental_uris":{"android":"levelo://app?vid=02921252-6ccf-4053-a544-097f5ecf4ac5","ios":"levelo://app?vid=02921252-6ccf-4053-a544-097f5ecf4ac5"},"vehicle_type_id":"4","last_reported":1751130490,"current_range_meters":22400,"station_id":"ce4bgvp2rcd13ifvqct0","pricing_plan_id":"cebpf4jnsgd1na2vs0mg"},{"bike_id":"15132cdd-0b10-4485-85ec-af008cafdbf4","system_id":"levelo_inurba_marseille","lat":43.28431,"lon":5.34983,"is_reserved":false,"is_disabled":false,"rental_uris":{"android":"levelo://app?vid=15132cdd-0b10-4485-85ec-af008cafdbf4","ios":"levelo://app?vid=15132cdd-0b10-4485-85ec-af008cafdbf4"},"vehicle_type_id":"4","last_reported":1751130490,"current_range_meters":22400,"station_id":"ce4bhbh2rcd13ifvqepg","pricing_plan_id":"cebpf4jnsgd1na2vs0mg"},{"bike_id":"51800340-b39c-4537-957e-e8abaa28deea","system_id":"levelo_inurba_marseille","lat":43.25111,"lon":5.40319,"is_reserved":false,"is_disabled":false,"rental_uris":{"android":"levelo://app?vid=51800340-b39c-4537-957e-e8abaa28deea","ios":"levelo://app?vid=51800340-b39c-4537-957e-e8abaa28deea"},"vehicle_type_id":"4","last_reported":1751130490,"current_range_meters":22400,"station_id":"ce4bhlh2rcd13ifvqgig","pricing_plan_id":"cebpf4jnsgd1na2vs0mg"},{"bike_id":"354b2d36-03e0-4c8d-9022-8d1420e579cc","system_id":"levelo_inurba_marseille","lat":43.27998,"lon":5.40015,"is_reserved":false,"is_disabled":false,"rental_uris":{"android":"levelo://app?vid=354b2d36-03e0-4c8d-9022-8d1420e579cc","ios":"levelo://app?vid=354b2d36-03e0-4c8d-9022-8d1420e579cc"},"vehicle_type_id":"4","last_reported":1751130490,"current_range_meters":22400,"station_id":"ce4bho92rcd13ifvqh4g","pricing_plan_id":"cebpf4jnsgd1na2vs0mg"},{"bike_id":"452e8211-4f44-45d0-814a-3e9e25b8c44e","system_id":"levelo_inurba_marseille","lat":43.21199,"lon":5.35065,"is_reserved":false,"is_disabled":false,"rental_uris":{"android":"levelo://app?vid=452e8211-4f44-45d0-814a-3e9e25b8c44e","ios":"levelo://app?vid=452e8211-4f44-45d0-814a-3e9e25b8c44e"},"vehicle_type_id":"4","last_reported":1751130490,"current_range_meters":22400,"station_id":"st_cvj6sg6p6f1abm77japg","pricing_plan_id":"cebpf4jnsgd1na2vs0mg"},