{"last_updated":1703146166,"ttl":30,"version":"2.2","data":{"bikes":[{"bike_id":"0f4cc70e-ce1e-4e82-a66e-5588a43de74a","system_id":"levelo_inurba_marseille","lat":43.313391,"lon":5.36706,"is_reserved":false,"is_disabled":false,"rental_uris":{"android":"levelo://app?vid=0f4cc70e-ce1e-4e82-a66e-5588a43de74a","ios":"levelo://app?vid=0f4cc70e-ce1e-4e82-a66e-5588a43de74a"},"vehicle_type_id":"4","last_reported":1703146166,"current_range_meters":30400,"station_id":"ce4bgr92rcd13ifvqc6g","pricing_plan_id":"free"},{"bike_id":"9e8522a6-8d12-4a90-a6fc-5f975dcf5153","system_id":"levelo_inurba_marseille","lat":43.313391,"lon":5.36706,"is_reserved":false,"is_disabled":false,"rental_uris":{"android":"levelo://app?vid=9e8522a6-8d12-4a90-a6fc-5f975dcf5153","ios":"levelo://app?vid=9e8522a6-8d12-4a90-a6fc-5f975dcf5153"},"vehicle_type_id":"4","last_reported":1703146166,"current_range_meters":20800,"station_id":"ce4bgr92rcd13ifvqc6g","pricing_plan_id":"free"},{"bike_id":"a10e181f-a198-45a5-b95a-2c762cb5e61a","system_id":"levelo_inurba_marseille","lat":43.31341,"lon":5.367098,"is_reserved":false,"is_disabled":false,"rental_uris":{"android":"levelo://app?vid=a10e181f-a198-45a5-b95a-2c762cb5e61a","ios":"levelo://app?vid=a10e181f-a198-45a5-b95a-2c762cb5e61a"},"vehicle_type_id":"4","last_reported":1703146166,"current_range_meters":15600,"station_id":"ce4bgr92rcd13ifvqc6g","pricing_plan_id":"free"},{"bike_id":"c32e3021-2d39-45a9-8f5c-43c0f9699d07","system_id":"levelo_inurba_marseille","lat":43.313391,"lon":5.36706,"is_reserved":false,"is_disabled":false,"rental_uris":{"android":"levelo://app?vid=c32e3021-2d39-45a9-8f5c-43c0f9699d07","ios":"levelo://app?vid=c32e3021-2d39-45a9-8f5c-43c0f9699d07"},"vehicle_type_id":"4","last_reported":1703146166,"current_range_meters":21600,"station_id":"ce4bgr92rcd13ifvqc6g","pricing_plan_id":"free"},{"bike_id":"863d1d39-2b2c-4c20-9587-ed3879c48410","system_id":"levelo_inurba_marseille","lat":43.313391,"lon":5.36706,"is_reserved":false,"is_disabled":false,"rental_uris":{"android":"levelo://app?vid=863d1d39-2b2c-4c20-9587-ed3879c48410","ios":"levelo://app?vid=863d1d39-2b2c-4c20-9587-ed3879c48410"},"vehicle_type_id":"4","last_reported":1703146166,"current_range_meters":20800,"station_id":"ce4bgr92rcd13ifvqc6g","pricing_plan_id":"free"},{"bike_id":"6cbd72cd-31ae-4016-a8ae-21818b385590","system_id":"levelo_inurba_marseille","lat":43.31341,"lon":5.367098,"is_reserved":false,"is_disabled":false,"rental_uris":{"android":"levelo://app?vid=6cbd72cd-31ae-4016-a8ae-21818b385590","ios":"levelo://app?vid=6cbd72cd-31ae-4016-a8ae-21818b385590"},"vehicle_type_id":"4","last_reported":1703146166,"current_range_meters":12400,"station_id":"ce4bgr92rcd13ifvqc6g","pricing_plan_id":"free"},{"bike_id":"01e8188e-a813-4a19-b955-6b9bcc876833","system_id":"levelo_inurba_marseille","lat":43.313391,"lon":5.36706,"is_reserved":false,"is_disabled":false,"rental_uris":{"android":"levelo://app?vid=01e8188e-a813-4a19-b955-6b9bcc876833","ios":"levelo://app?vid=01e8188e-a813-4a19-b955-6b9bcc876833"},"vehicle_type_id":"4","last_reported":1703146166,"current_range_meters":6800,"station_id":"ce4bgr92rcd13ifvqc6g","pricing_plan_id":"free"},{"bike_id":"04f960ff-1922-4714-9fe3-d73ca6248c27","system_id":"levelo_inurba_marseille","lat":43.312239,"lon":5.368562,"is_reserved":false,"is_disabled":false,"rental_uris":{"android":"levelo://app?vid=04f960ff-1922-4714-9fe3-d73ca6248c27","ios":"levelo://app?vid=04f960ff-1922-4714-9fe3-d73ca6248c27"},"vehicle_type_id":"4","last_reported":1703146166,"current_range_meters":24000,"station_id":"ce4bgl92rcd13ifvqbq0","pricing_plan_id":"free"},{"bike_id":"9610fd63-0e45-4cc8-85a9-ff3c4789afda","system_id":"levelo_inurba_marseille","lat":43.309076,"lon":5.368465,"is_reserved":false,"is_disabled":false,"rental_uris":{"android":"levelo://app?vid=9610fd63-0e45-4cc8-85a9-ff3c4789afda","ios":"levelo://app?vid=9610fd63-0e45-4cc8-85a9-ff3c4789afda"},"vehicle_type_id":"4","last_reported":1703146166,"current_range_meters":20400,"station_id":"ce4bgn92rcd13ifvqbvg","pricing_plan_id":"free"},{"bike_id":"31aee46f-19db-43c3-a8d6-02632999384d","system_id":"levelo_inurba_marseille","lat":43.309076,"lon":5.368465,"is_reserved":false,"is_disabled":false,"rental_uris":{"android":"levelo://app?vid=31aee46f-19db-43c3-a8d6-02632999384d","ios":"levelo://app?vid=31aee46f-19db-43c3-a8d6-02632999384d"},"vehicle_type_id":"4","last_reported":1703146166,"current_range_meters":25600,"station_id":"ce4bgn92rcd13ifvqbvg","pricing_plan_id":"free"},{"bike_id":"7c1e0ffe-4a77-45ec-b1b3-923cbe47cd68","system_id":"levelo_inurba_marseille","lat":43.309076,"lon":5.368465,"is_reserved":false,"is_disabled":false,"rental_uris":{"android":"levelo://app?vid=7c1e0ffe-4a77-45ec-b1b3-923cbe47cd68","ios":"levelo://app?vid=7c1e0ffe-4a77-45ec-b1b3-923cbe47cd68"},"vehicle_type_id":"4","last_reported":1703146166,"current_range_meters":29200,"station_id":"ce4bgn92rcd13ifvqbvg","pricing_plan_id":"free"},{"bike_id":"6af4a1d2-c218-4b41-b48f-e5f6af338f1a","system_id":"levelo_inurba_marseille","lat":43.309076,"lon":5.368465,"is_reserved":false,"is_disabled":false,"rental_uris":{"android":"levelo://app?vid=6af4a1d2-c218-4b41-b48f-e5f6af338f1a","ios":"levelo://app?vid=6af4a1d2-c218-4b41-b48f-e5f6af338f1a"},"vehicle_type_id":"4","last_reported":1703146166,"current_range_meters":10800,"station_id":"ce4bgn92rcd13ifvqbvg","pricing_plan_id":"free"},{"bike_id":"58d3b9e0-6402-4a47-b126-d305d66a04b8","system_id":"levelo_inurba_marseille","lat":43.313391,"lon":5.36706,"is_reserved":false,"is_disabled":false,"rental_uris":{"android":"levelo://app?vid=58d3b9e0-6402-4a47-b126-d305d66a04b8","ios":"levelo://app?vid=58d3b9e0-6402-4a47-b126-d305d66a04b8"},"vehicle_type_id":"4","last_reported":1703146166,"current_range_meters":11200,"station_id":"ce4bgr92rcd13ifvqc6g","pricing_plan_id":"free"},{"bike_id":"1b5649e3-7852-4147-b5ea-041770351b7c","system_id":"levelo_inurba_marseille","lat":43.31198,"lon":5.37252,"is_reserved":false,"is_disabled":false,"rental_uris":{"android":"levelo://app?vid=1b5649e3-7852-4147-b5ea-041770351b7c","ios":"levelo://app?vid=1b5649e3-7852-4147-b5ea-041770351b7c"},"vehicle_type_id":"4","last_reported":1703146166,"current_range_meters":16800,"station_id":"ce4bguh2rcd13ifvqckg","pricing_plan_id":"free"},{"bike_id":"3cf12d02-5c13-435d-8950-6f18202f760d","system_id":"levelo_inurba_marseille","lat":43.309039,"lon":5.371797,"is_reserved":false,"is_disabled":false,"rental_uris":{"android":"levelo://app?vid=3cf12d02-5c13-435d-8950-6f18202f760d","ios":"levelo://app?vid=3cf12d02-5c13-435d-8950-6f18202f760d"},"vehicle_type_id":"4","last_reported":1703146166,"current_range_meters":31200,"station_id":"ce4bguh2rcd13ifvqckg","pricing_plan_id":"free"},{"bike_id":"71908d56-9d07-4477-b1c4-28e0e4b64874","system_id":"levelo_inurba_marseille","lat":43.314811,"lon":5.373104,"is_reserved":false,"is_disabled":false,"rental_uris":{"android":"levelo://app?vid=71908d56-9d07-4477-b1c4-28e0e4b64874","ios":"levelo://app?vid=71908d56-9d07-4477-b1c4-28e0e4b64874"},"vehicle_type_id":"4","last_reported":1703146166,"current_range_meters":12000,"station_id":"ce4bgt12rcd13ifvqcd0","pricing_plan_id":"free"},{"bike_id":"755fbb25-677e-474e-8deb-7d00a36c70ca","system_id":"levelo_inurba_marseille","lat":43.2968,"lon":5.37291,"is_reserved":false,"is_disabled":false,"rental_uris":{"android":"levelo://app?vid=755fbb25-677e-474e-8deb-7d00a36c70ca","ios":"levelo://app?vid=755fbb25-677e-474e-8deb-7d00a36c70ca"},"vehicle_type_id":"4","last_reported":1703146166,"current_range_meters":18400,"station_id":"ce4bgk12rcd13ifvqbj0","pricing_plan_id":"free"},{"bike_id":"52a98006-4d2a-4dde-8525-b5f89dcc2730","system_id":"levelo_inurba_marseille","lat":43.305714,"lon":5.365633,"is_reserved":false,"is_disabled":false,"rental_uris":{"android":"levelo://app?vid=52a98006-4d2a-4dde-8525-b5f89dcc2730","ios":"levelo://app?vid=52a98006-4d2a-4dde-8525-b5f89dcc2730"},"vehicle_type_id":"4","last_reported":1703146166,"current_range_meters":26800,"station_id":"ce4bgs12rcd13ifvqcag","pricing_plan_id":"free"},{"bike_id":"0b3af587-27bd-4724-8217-94091ea90cd0","system_id":"levelo_inurba_marseille","lat":43.305368,"lon":5.367343,"is_reserved":false,"is_disabled":false,"rental_uris":{"android":"levelo://app?vid=0b3af587-27bd-4724-8217-94091ea90cd0","ios":"levelo://app?vid=0b3af587-27bd-4724-8217-94091ea90cd0"},"vehicle_type_id":"4","last_reported":1703146166,"current_range_meters":14800,"station_id":"ce4bgrp2rcd13ifvqc9g","pricing_plan_id":"free"},{"bike_id":"a70a89dd-b8bf-4888-9b25-af4f2896cb63","system_id":"levelo_inurba_marseille","lat":43.305706,"lon":5.365654,"is_reserved":false,"is_disabled":false,"rental_uris":{"android":"levelo://app?vid=a70a89dd-b8bf-4888-9b25-af4f2896cb63","ios":"levelo://app?vid=a70a89dd-b8bf-4888-9b25-af4f2896cb63"},"vehicle_type_id":"4","last_reported":1703146166,"current_range_meters":5200,"station_id":"ce4bgs12rcd13ifvqcag","pricing_plan_id":"free"},{"bike_id":"c9d0122a-6b42-40f5-97c4-0904d724d9ec","system_id":"levelo_inurba_marseille","lat":43.305706,"lon":5.365654,"is_reserved":false,"is_disabled":false,"rental_uris":{"android":"levelo://app?vid=c9d0122a-6b42-40f5-97c4-0904d724d9ec","ios":"levelo://app?vid=c9d0122a-6b42-40f5-97c4-0904d724d9ec"},"vehicle_type_id":"4","last_reported":1703146166,"current_range_meters":26400,"station_id":"ce4bgs12rcd13ifvqcag","pricing_plan_id":"free"},{"bike_id":"2bd707cd-b871-4078-a3bf-6e5d985e7b45","system_id":"levelo_inurba_marseille","lat":43.305706,"lon":5.365654,"is_reserved":false,"is_disabled":false,"rental_uris":{"android":"levelo://app?vid=2bd707cd-b871-4078-a3bf-6e5d985e7b45","ios":"levelo://app?vid=2bd707cd-b871-4078-a3bf-6e5d985e7b45"},"vehicle_type_id":"4","last_reported":1703146166,"current_range_meters":31200,"station_id":"ce4bgs12rcd13ifvqcag","pricing_plan_id":"free"},{"bike_id":"3b889af7-a29d-437b-9dae-21d150b3c58a","system_id":"levelo_inurba_marseille","lat":43.305714,"lon":5.365633,"is_reserved":false,"is_disabled":false,"rental_uris":{"android":"levelo://app?vid=3b889af7-a29d-437b-9dae-21d150b3c58a","ios":"levelo://app?vid=3b889af7-a29d-437b-9dae-21d150b3c58a"},"vehicle_type_id":"4","last_reported":1703146166,"current_range_meters":25600,"station_id":"ce4bgs12rcd13ifvqcag","pricing_plan_id":"free"},{"bike_id":"dae571e3-c946-40a6-8a1a-93d1dcdc2ca0","system_id":"levelo_inurba_marseille","lat":43.305706,"lon":5.365654,"is_reserved":false,"is_disabled":false,"rental_uris":{"android":"levelo://app?vid=dae571e3-c946-40a6-8a1a-93d1dcdc2ca0","ios":"levelo://app?vid=dae571e3-c946-40a6-8a1a-93d1dcdc2ca0"},"vehicle_type_id":"4","last_reported":1703146166,"current_range_meters":27200,"station_id":"ce4bgs12rcd13ifvqcag","pricing_plan_id":"free"},{"bike_id":"18171d1a-eaa0-403c-8f6e-6cd57e374d11","system_id":"levelo_inurba_marseille","lat":43.305706,"lon":5.365654,"is_reserved":false,"is_disabled":false,"rental_uris":{"android":"levelo://app?vid=18171d1a-eaa0-403c-8f6e-6cd57e374d11","ios":"levelo://app?vid=18171d1a-eaa0-403c-8f6e-6cd57e374d11"},"vehicle_type_id":"4","last_reported":1703146166,"current_range_meters":25600,"station_id":"ce4bgs12rcd13ifvqcag","pricing_plan_id":"free"},{"bike_id":"00025df9-d908-4484-89e5-3b00ebffb2ad","system_id":"levelo_inurba_marseille","lat":43.305706,"lon":5.365654,"is_reserved":false,"is_disabled":false,"rental_uris":{"android":"levelo://app?vid=00025df9-d908-4484-89e5-3b00ebffb2ad","ios":"levelo://app?vid=00025df9-d908-4484-89e5-3b00ebffb2ad"},"vehicle_type_id":"4","last_reported":1703146166,"current_range_meters":10000,"station_id":"ce4bgs12rcd13ifvqcag","pricing_plan_id":"free"},{"bike_id":"41642a25-5483-4478-af04-ab682b087663","system_id":"levelo_inurba_marseille","lat":43.305368,"lon":5.367343,"is_reserved":false,"is_disabled":false,"rental_uris":{"android":"levelo://app?vid=41642a25-5483-4478-af04-ab682b087663","ios":"levelo://app?vid=41642a25-5483-4478-af04-ab682b087663"},"vehicle_type_id":"4","last_reported":1703146166,"current_range_meters":0,"station_id":"ce4bgrp2rcd13ifvqc9g","pricing_plan_id":"free"},{"bike_id":"dbed54b7-24b8-410f-96e1-acc1e1eb8e42","system_id":"levelo_inurba_marseille","lat":43.305706,"lon":5.365654,"is_reserved":false,"is_disabled":false,"rental_uris":{"android":"levelo://app?vid=dbed54b7-24b8-410f-96e1-acc1e1eb8e42","ios":"levelo://app?vid=dbed54b7-24b8-410f-96e1-acc1e1eb8e42"},"vehicle_type_id":"4","last_reported":1703146166,"current_range_meters":31600,"station_id":"ce4bgs12rcd13ifvqcag","pricing_plan_id":"free"},{"bike_id":"9d46b7a0-b3f2-4495-a8a2-61cf6a2662f1","system_id":"levelo_inurba_marseille","lat":43.305706,"lon":5.365654,"is_reserved":false,"is_disabled":false,"rental_uris":{"android":"levelo://app?vid=9d46b7a0-b3f2-4495-a8a2-61cf6a2662f1","ios":"levelo://app?vid=9d46b7a0-b3f2-4495-a8a2-61cf6a2662f1"},"vehicle_type_id":"4","last_reported":1703146166,"current_range_meters":29200,"station_id":"ce4bgs12rcd13ifvqcag","pricing_plan_id":"free"},{"bike_id":"1c7eeff8-86ec-4de3-a0bd-bf5e0783b386","system_id":"levelo_inurba_marseille","lat":43.305368,"lon":5.367343,"is_reserved":false,"is_disabled":false,"rental_uris":{"android":"levelo://app?vid=1c7eeff8-86ec-4de3-a0bd-bf5e0783b386","ios":"levelo://app?vid=1c7eeff8-86ec-4de3-a0bd-bf5e0783b386"},"vehicle_type_id":"4","last_reported":1703146166,"current_range_meters":27200,"station_id":"ce4bgrp2rcd13ifvqc9g","pricing_plan_id":"free"},{"bike_id":"2997b21c-9b2e-49d9-a039-f963218b7b45","system_id":"levelo_inurba_marseille","lat":43.30609,"lon":5.37216,"is_reserved":false,"is_disabled":false,"rental_uris":{"android":"levelo://app?vid=2997b21c-9b2e-49d9-a039-f963218b7b45","ios":"levelo://app?vid=2997b21c-9b2e-49d9-a039-f963218b7b45"},"vehicle_type_id":"4","last_reported":1703146166,"current_range_meters":31200,"station_id":"ce4bgqh2rcd13ifvqc4g","pricing_plan_id":"free"},{"bike_id":"9cd1eeb5-fe78-419b-a64f-d8a14a0cd38f","system_id":"levelo_inurba_marseille","lat":43.3061,"lon":5.37233,"is_reserved":false,"is_disabled":false,"rental_uris":{"android":"levelo://app?vid=9cd1eeb5-fe78-419b-a64f-d8a14a0cd38f","ios":"levelo://app?vid=9cd1eeb5-fe78-419b-a64f-d8a14a0cd38f"},"vehicle_type_id":"4","last_reported":1703146166,"current_range_meters":19200,"station_id":"ce4bgqh2rcd13ifvqc4g","pricing_plan_id":"free"},{"bike_id":"d10cdc04-ec64-44e4-8296-d50b38c2f0fb","system_id":"levelo_inurba_marseille","lat":43.30601,"lon":5.37222,"is_reserved":false,"is_disabled":false,"rental_uris":{"android":"levelo://app?vid=d10cdc04-ec64-44e4-8296-d50b38c2f0fb","ios":"levelo://app?vid=d10cdc04-ec64-44e4-8296-d50b38c2f0fb"},"vehicle_type_id":"4","last_reported":1703146166,"current_range_meters":29600,"station_id":"ce4bgqh2rcd13ifvqc4g","pricing_plan_id":"free"},{"bike_id":"3ef0e40a-eccd-4756-a095-e0118df5a9c7","system_id":"levelo_inurba_marseille","lat":43.305989,"lon":5.37225,"is_reserved":false,"is_disabled":false,"rental_uris":{"android":"levelo://app?vid=3ef0e40a-eccd-4756-a095-e0118df5a9c7","ios":"levelo://app?vid=3ef0e40a-eccd-4756-a095-e0118df5a9c7"},"vehicle_type_id":"4","last_reported":1703146166,"current_range_meters":0,"station_id":"ce4bgqh2rcd13ifvqc4g","pricing_plan_id":"free"},{"bike_id":"890ce53d-d1d0-4a8a-9a9b-79cb1865aadd","system_id":"levelo_inurba_marseille","lat":43.305989,"lon":5.37225,"is_reserved":false,"is_disabled":false,"rental_uris":{"android":"levelo://app?vid=890ce53d-d1d0-4a8a-9a9b-79cb1865aadd","ios":"levelo://app?vid=890ce53d-d1d0-4a8a-9a9b-79cb1865aadd"},"vehicle_type_id":"4","last_reported":1703146166,"current_range_meters":24800,"station_id":"ce4bgqh2rcd13ifvqc4g","pricing_plan_id":"free"},{"bike_id":"390652b0-9429-4a84-8dc0-486275ae3e7b","system_id":"levelo_inurba_marseille","lat":43.311131,"lon":5.377651,"is_reserved":false,"is_disabled":false,"rental_uris":{"android":"levelo://app?vid=390652b0-9429-4a84-8dc0-486275ae3e7b","ios":"levelo://app?vid=390652b0-9429-4a84-8dc0-486275ae3e7b"},"vehicle_type_id":"4","last_reported":1703146166,"current_range_meters":14000,"station_id":"ce4bgt92rcd13ifvqcg0","pricing_plan_id":"free"},{"bike_id":"beffe9a6-5b0c-49cd-8453-11e5acfbc908","system_id":"levelo_inurba_marseille","lat":43.30304,"lon":5.368987,"is_reserved":false,"is_disabled":false,"rental_uris":{"android":"levelo://app?vid=beffe9a6-5b0c-49cd-8453-11e5acfbc908","ios":"levelo://app?vid=beffe9a6-5b0c-49cd-8453-11e5acfbc908"},"vehicle_type_id":"4","last_reported":1703146166,"current_range_meters":27200,"station_id":"ce4bgqh2rcd13ifvqc5g","pricing_plan_id":"free"},{"bike_id":"bc2c7bf7-22be-4f94-87bc-06a35545ca4f","system_id":"levelo_inurba_marseille","lat":43.303046,"lon":5.368981,"is_reserved":false,"is_disabled":false,"rental_uris":{"android":"levelo://app?vid=bc2c7bf7-22be-4f94-87bc-06a35545ca4f","ios":"levelo://app?vid=bc2c7bf7-22be-4f94-87bc-06a35545ca4f"},"vehicle_type_id":"4","last_reported":1703146166,"current_range_meters":6400,"station_id":"ce4bgqh2rcd13ifvqc5g","pricing_plan_id":"free"},{"bike_id":"fdbb2e69-f82b-4755-8789-630010dff82e","system_id":"levelo_inurba_marseille","lat":43.303046,"lon":5.368981,"is_reserved":false,"is_disabled":false,"rental_uris":{"android":"levelo://app?vid=fdbb2e69-f82b-4755-8789-630010dff82e","ios":"levelo://app?vid=fdbb2e69-f82b-4755-8789-630010dff82e"},"vehicle_type_id":"4","last_reported":1703146166,"current_range_meters":0,"station_id":"ce4bgqh2rcd13ifvqc5g","pricing_plan_id":"free"},{"bike_id":"37fb3470-47ad-4fdb-8969-5a6d77266d16","system_id":"levelo_inurba_marseille","lat":43.301939,"lon":5.366286,"is_reserved":false,"is_disabled":false,"rental_uris":{"android":"levelo://app?vid=37fb3470-47ad-4fdb-8969-5a6d77266d16","ios":"levelo://app?vid=37fb3470-47ad-4fdb-8969-5a6d77266d16"},"vehicle_type_id":"4","last_reported":1703146166,"current_range_meters":7200,"station_id":"ce4bgrh2rcd13ifvqc8g","pricing_plan_id":"free"},{"bike_id":"ec6b89dc-63db-44b2-b7bf-93be00a66f45","system_id":"levelo_inurba_marseille","lat":43.301939,"lon":5.366286,"is_reserved":false,"is_disabled":false,"rental_uris":{"android":"levelo://app?vid=ec6b89dc-63db-44b2-b7bf-93be00a66f45","ios":"levelo://app?vid=ec6b89dc-63db-44b2-b7bf-93be00a66f45"},"vehicle_type_id":"4","last_reported":1703146166,"current_range_meters":22000,"station_id":"ce4bgrh2rcd13ifvqc8g","pricing_plan_id":"free"},{"bike_id":"1347e130-cb82-4e6b-bac7-584a35357366","system_id":"levelo_inurba_marseille","lat":43.304606,"lon":5.379026,"is_reserved":false,"is_disabled":false,"rental_uris":{"android":"levelo://app?vid=1347e130-cb82-4e6b-bac7-584a35357366","ios":"levelo://app?vid=1347e130-cb82-4e6b-bac7-584a35357366"},"vehicle_type_id":"4","last_reported":1703146166,"current_range_meters":24800,"station_id":"ce4bgup2rcd13ifvqcn0","pricing_plan_id":"free"},{"bike_id":"66cf0e19-a4d1-4b74-9d4e-0ddc4ee84db1","system_id":"levelo_inurba_marseille","lat":43.304606,"lon":5.379026,"is_reserved":false,"is_disabled":false,"rental_uris":{"android":"levelo://app?vid=66cf0e19-a4d1-4b74-9d4e-0ddc4ee84db1","ios":"levelo://app?vid=66cf0e19-a4d1-4b74-9d4e-0ddc4ee84db1"},"vehicle_type_id":"4","last_reported":1703146166,"current_range_meters":30800,"station_id":"ce4bgup2rcd13ifvqcn0","pricing_plan_id":"free"},{"bike_id":"fddb250e-0347-44b1-91e1-32b0011041f7","system_id":"levelo_inurba_marseille","lat":43.30475,"lon":5.37912,"is_reserved":false,"is_disabled":false,"rental_uris":{"android":"levelo://app?vid=fddb250e-0347-44b1-91e1-32b0011041f7","ios":"levelo://app?vid=fddb250e-0347-44b1-91e1-32b0011041f7"},"vehicle_type_id":"4","last_reported":1703146166,"current_range_meters":28000,"station_id":"ce4bgup2rcd13ifvqcn0","pricing_plan_id":"free"},{"bike_id":"b68031fd-020c-4110-b79d-5440a4a490db","system_id":"levelo_inurba_marseille","lat":43.304606,"lon":5.379026,"is_reserved":false,"is_disabled":false,"rental_uris":{"android":"levelo://app?vid=b68031fd-020c-4110-b79d-5440a4a490db","ios":"levelo://app?vid=b68031fd-020c-4110-b79d-5440a4a490db"},"vehicle_type_id":"4","last_reported":1703146166,"current_range_meters":24800,"station_id":"ce4bgup2rcd13ifvqcn0","pricing_plan_id":"free"},{"bike_id":"0b6388de-2dfd-41c5-a1b5-f1b63feb7f8c","system_id":"levelo_inurba_marseille","lat":43.304606,"lon":5.379026,"is_reserved":false,"is_disabled":false,"rental_uris":{"android":"levelo://app?vid=0b6388de-2dfd-41c5-a1b5-f1b63feb7f8c","ios":"levelo://app?vid=0b6388de-2dfd-41c5-a1b5-f1b63feb7f8c"},"vehicle_type_id":"4","last_reported":1703146166,"current_range_meters":2000,"station_id":"ce4bgup2rcd13ifvqcn0","pricing_plan_id":"free"},{"bike_id":"80e89a3b-7c4a-45be-911e-2a19950104a8","system_id":"levelo_inurba_marseille","lat":43.301429,"lon":5.37413,"is_reserved":false,"is_disabled":false,"rental_uris":{"android":"levelo://app?vid=80e89a3b-7c4a-45be-911e-2a19950104a8","ios":"levelo://app?vid=80e89a3b-7c4a-45be-911e-2a19950104a8"},"vehicle_type_id":"4","last_reported":1703146166,"current_range_meters":16400,"station_id":"ce4bgs92rcd13ifvqcc0","pricing_plan_id":"free"},{"bike_id":"2d92389f-0aee-48b6-be44-86ef46a96901","system_id":"levelo_inurba_marseille","lat":43.302784,"lon":5.377158,"is_reserved":false,"is_disabled":false,"rental_uris":{"android":"levelo://app?vid=2d92389f-0aee-48b6-be44-86ef46a96901","ios":"levelo://app?vid=2d92389f-0aee-48b6-be44-86ef46a96901"},"vehicle_type_id":"4","last_reported":1703146166,"current_range_meters":15600,"station_id":"ce4bguh2rcd13ifvqcj0","pricing_plan_id":"free"},{"bike_id":"da4bd946-d43c-4496-8c60-f6751e920fa9","system_id":"levelo_inurba_marseille","lat":43.320005,"lon":5.381601,"is_reserved":false,"is_disabled":false,"rental_uris":{"android":"levelo://app?vid=da4bd946-d43c-4496-8c60-f6751e920fa9","ios":"levelo://app?vid=da4bd946-d43c-4496-8c60-f6751e920fa9"},"vehicle_type_id":"4","last_reported":1703146166,"current_range_meters":11200,"station_id":"ce4bhr12rcd13ifvqhpg","pricing_plan_id":"free"},{"bike_id":"938ed73c-eefd-41a3-b2e9-cb10e3da8e0b","system_id":"levelo_inurba_marseille","lat":43.31358,"lon":5.38487,"is_reserved":false,"is_disabled":false,"rental_uris":{"android":"levelo://app?vid=938ed73c-eefd-41a3-b2e9-cb10e3da8e0b","ios":"levelo://app?vid=938ed73c-eefd-41a3-b2e9-cb10e3da8e0b"},"vehicle_type_id":"4","last_reported":1703146166,"current_range_meters":0,"station_id":"ce4bgt92rcd13ifvqcf0","pricing_plan_id":"free"},{"bike_id":"49bcea24-37ba-498f-b910-524b632a9056","system_id":"levelo_inurba_marseille","lat":43.299724,"lon":5.371829,"is_reserved":false,"is_disabled":false,"rental_uris":{"android":"levelo://app?vid=49bcea24-37ba-498f-b910-524b632a9056","ios":"levelo://app?vid=49bcea24-37ba-498f-b910-524b632a9056"},"vehicle_type_id":"4","last_reported":1703146166,"current_range_meters":27600,"station_id":"ce4bgr92rcd13ifvqc7g","pricing_plan_id":"free"},{"bike_id":"ad67d4d3-9bac-406f-b4f1-9dd8de1f2b85","system_id":"levelo_inurba_marseille","lat":43.299222,"lon":5.365554,"is_reserved":false,"is_disabled":false,"rental_uris":{"android":"levelo://app?vid=ad67d4d3-9bac-406f-b4f1-9dd8de1f2b85","ios":"levelo://app?vid=ad67d4d3-9bac-406f-b4f1-9dd8de1f2b85"},"vehicle_type_id":"4","last_reported":1703146166,"current_range_meters":0,"station_id":"ce4bgm92rcd13ifvqbr0","pricing_plan_id":"free"},{"bike_id":"33c0fffa-a4b4-41bd-b4e6-b29fd2a4c0e3","system_id":"levelo_inurba_marseille","lat":43.299724,"lon":5.371829,"is_reserved":false,"is_disabled":false,"rental_uris":{"android":"levelo://app?vid=33c0fffa-a4b4-41bd-b4e6-b29fd2a4c0e3","ios":"levelo://app?vid=33c0fffa-a4b4-41bd-b4e6-b29fd2a4c0e3"},"vehicle_type_id":"4","last_reported":1703146166,"current_range_meters":22000,"station_id":"ce4bgr92rcd13ifvqc7g","pricing_plan_id":"free"},{"bike_id":"93974223-7192-4d78-b814-fc91e0cdb008","system_id":"levelo_inurba_marseille","lat":43.305364,"lon":5.384119,"is_reserved":false,"is_disabled":false,"rental_uris":{"android":"levelo://app?vid=93974223-7192-4d78-b814-fc91e0cdb008","ios":"levelo://app?vid=93974223-7192-4d78-b814-fc91e0cdb008"},"vehicle_type_id":"4","last_reported":1703146166,"current_range_meters":30400,"station_id":"ce4bgg92rcd13ifvqb30","pricing_plan_id":"free"},{"bike_id":"61fe64d6-24c8-437c-9018-bd95516545e7","system_id":"levelo_inurba_marseille","lat":43.298433,"lon":5.362774,"is_reserved":false,"is_disabled":false,"rental_uris":{"android":"levelo://app?vid=61fe64d6-24c8-437c-9018-bd95516545e7","ios":"levelo://app?vid=61fe64d6-24c8-437c-9018-bd95516545e7"},"vehicle_type_id":"4","last_reported":1703146166,"current_range_meters":27600,"station_id":"ce4bgpp2rcd13ifvqc3g","pricing_plan_id":"free"},{"bike_id":"aa5def88-d332-4b4a-8dfc-2c777d5d6e0c","system_id":"levelo_inurba_marseille","lat":43.299243,"lon":5.374807,"is_reserved":false,"is_disabled":false,"rental_uris":{"android":"levelo://app?vid=aa5def88-d332-4b4a-8dfc-2c777d5d6e0c","ios":"levelo://app?vid=aa5def88-d332-4b4a-8dfc-2c777d5d6e0c"},"vehicle_type_id":"4","last_reported":1703146166,"current_range_meters":14400,"station_id":"ce4bgjh2rcd13ifvqbg0","pricing_plan_id":"free"},{"bike_id":"db4fffcc-d7f7-42b8-8946-844d8963797e","system_id":"levelo_inurba_marseille","lat":43.298433,"lon":5.362774,"is_reserved":false,"is_disabled":false,"rental_uris":{"android":"levelo://app?vid=db4fffcc-d7f7-42b8-8946-844d8963797e","ios":"levelo://app?vid=db4fffcc-d7f7-42b8-8946-844d8963797e"},"vehicle_type_id":"4","last_reported":1703146166,"current_range_meters":16400,"station_id":"ce4bgpp2rcd13ifvqc3g","pricing_plan_id":"free"},{"bike_id":"e207cee2-a194-4483-99ba-93e7da541f5d","system_id":"levelo_inurba_marseille","lat":43.299243,"lon":5.374807,"is_reserved":false,"is_disabled":false,"rental_uris":{"android":"levelo://app?vid=e207cee2-a194-4483-99ba-93e7da541f5d","ios":"levelo://app?vid=e207cee2-a194-4483-99ba-93e7da541f5d"},"vehicle_type_id":"4","last_reported":1703146166,"current_range_meters":7600,"station_id":"ce4bgjh2rcd13ifvqbg0","pricing_plan_id":"free"},{"bike_id":"625dea41-9730-4640-9f7f-9f374e2da737","system_id":"levelo_inurba_marseille","lat":43.297794,"lon":5.370888,"is_reserved":false,"is_disabled":false,"rental_uris":{"android":"levelo://app?vid=625dea41-9730-4640-9f7f-9f374e2da737","ios":"levelo://app?vid=625dea41-9730-4640-9f7f-9f374e2da737"},"vehicle_type_id":"4","last_reported":1703146166,"current_range_meters":22400,"station_id":"ce4bgop2rcd13ifvqc1g","pricing_plan_id":"free"},{"bike_id":"c22e4b9f-ba20-4a7c-a7c8-fd0a73d903e0","system_id":"levelo_inurba_marseille","lat":43.32829,"lon":5.36684,"is_reserved":false,"is_disabled":false,"rental_uris":{"android":"levelo://app?vid=c22e4b9f-ba20-4a7c-a7c8-fd0a73d903e0","ios":"levelo://app?vid=c22e4b9f-ba20-4a7c-a7c8-fd0a73d903e0"},"vehicle_type_id":"4","last_reported":1703146166,"current_range_meters":20000,"station_id":"ce4bhs92rcd13ifvqi0g","pricing_plan_id":"free"},{"bike_id":"eb8ebe7d-6983-4780-997c-9447c3c0c6e2","system_id":"levelo_inurba_marseille","lat":43.3283,"lon":5.3668,"is_reserved":false,"is_disabled":false,"rental_uris":{"android":"levelo://app?vid=eb8ebe7d-6983-4780-997c-9447c3c0c6e2","ios":"levelo://app?vid=eb8ebe7d-6983-4780-997c-9447c3c0c6e2"},"vehicle_type_id":"4","last_reported":1703146166,"current_range_meters":25600,"station_id":"ce4bhs92rcd13ifvqi0g","pricing_plan_id":"free"},{"bike_id":"c12df297-168e-4ca3-95d9-a300ff1ffbd9","system_id":"levelo_inurba_marseille","lat":43.328371,"lon":5.366909,"is_reserved":false,"is_disabled":false,"rental_uris":{"android":"levelo://app?vid=c12df297-168e-4ca3-95d9-a300ff1ffbd9","ios":"levelo://app?vid=c12df297-168e-4ca3-95d9-a300ff1ffbd9"},"vehicle_type_id":"4","last_reported":1703146166,"current_range_meters":26400,"station_id":"ce4bhs92rcd13ifvqi0g","pricing_plan_id":"free"},{"bike_id":"2a8a59a2-86cc-48a9-8714-ae0edcb4d489","system_id":"levelo_inurba_marseille","lat":43.32833,"lon":5.36674,"is_reserved":false,"is_disabled":false,"rental_uris":{"android":"levelo://app?vid=2a8a59a2-86cc-48a9-8714-ae0edcb4d489","ios":"levelo://app?vid=2a8a59a2-86cc-48a9-8714-ae0edcb4d489"},"vehicle_type_id":"4","last_reported":1703146166,"current_range_meters":31200,"station_id":"ce4bhs92rcd13ifvqi0g","pricing_plan_id":"free"},{"bike_id":"7b61e578-eb09-4c42-8536-5cf1eb9d1ca6","system_id":"levelo_inurba_marseille","lat":43.328332,"lon":5.366782,"is_reserved":false,"is_disabled":false,"rental_uris":{"android":"levelo://app?vid=7b61e578-eb09-4c42-8536-5cf1eb9d1ca6","ios":"levelo://app?vid=7b61e578-eb09-4c42-8536-5cf1eb9d1ca6"},"vehicle_type_id":"4","last_reported":1703146166,"current_range_meters":30400,"station_id":"ce4bhs92rcd13ifvqi0g","pricing_plan_id":"free"},{"bike_id":"317a6e42-8752-42c9-93b5-5917404b2f36","system_id":"levelo_inurba_marseille","lat":43.296131,"lon":5.370791,"is_reserved":false,"is_disabled":false,"rental_uris":{"android":"levelo://app?vid=317a6e42-8752-42c9-93b5-5917404b2f36","ios":"levelo://app?vid=317a6e42-8752-42c9-93b5-5917404b2f36"},"vehicle_type_id":"4","last_reported":1703146166,"current_range_meters":23200,"station_id":"ce4bgnh2rcd13ifvqc0g","pricing_plan_id":"free"},{"bike_id":"b3fef8d4-a3f9-4fe7-a3c0-e227ded503a5","system_id":"levelo_inurba_marseille","lat":43.296131,"lon":5.370791,"is_reserved":false,"is_disabled":false,"rental_uris":{"android":"levelo://app?vid=b3fef8d4-a3f9-4fe7-a3c0-e227ded503a5","ios":"levelo://app?vid=b3fef8d4-a3f9-4fe7-a3c0-e227ded503a5"},"vehicle_type_id":"4","last_reported":1703146166,"current_range_meters":28400,"station_id":"ce4bgnh2rcd13ifvqc0g","pricing_plan_id":"free"},{"bike_id":"3da65374-016e-4f22-89a6-da198f598437","system_id":"levelo_inurba_marseille","lat":43.309589,"lon":5.390258,"is_reserved":false,"is_disabled":false,"rental_uris":{"android":"levelo://app?vid=3da65374-016e-4f22-89a6-da198f598437","ios":"levelo://app?vid=3da65374-016e-4f22-89a6-da198f598437"},"vehicle_type_id":"4","last_reported":1703146166,"current_range_meters":29600,"station_id":"ce4bgup2rcd13ifvqco0","pricing_plan_id":"free"},{"bike_id":"8df1d102-d89c-4b44-bfed-efea752b3f3d","system_id":"levelo_inurba_marseille","lat":43.309589,"lon":5.390258,"is_reserved":false,"is_disabled":false,"rental_uris":{"android":"levelo://app?vid=8df1d102-d89c-4b44-bfed-efea752b3f3d","ios":"levelo://app?vid=8df1d102-d89c-4b44-bfed-efea752b3f3d"},"vehicle_type_id":"4","last_reported":1703146166,"current_range_meters":22400,"station_id":"ce4bgup2rcd13ifvqco0","pricing_plan_id":"free"},{"bike_id":"86b781ce-cc84-4b9e-8d87-5a55c0d110fb","system_id":"levelo_inurba_marseille","lat":43.309589,"lon":5.390258,"is_reserved":false,"is_disabled":false,"rental_uris":{"android":"levelo://app?vid=86b781ce-cc84-4b9e-8d87-5a55c0d110fb","ios":"levelo://app?vid=86b781ce-cc84-4b9e-8d87-5a55c0d110fb"},"vehicle_type_id":"4","last_reported":1703146166,"current_range_meters":26400,"station_id":"ce4bgup2rcd13ifvqco0","pricing_plan_id":"free"},{"bike_id":"525bcf87-0f04-4168-b202-108d7d02c822","system_id":"levelo_inurba_marseille","lat":43.309589,"lon":5.390258,"is_reserved":false,"is_disabled":false,"rental_uris":{"android":"levelo://app?vid=525bcf87-0f04-4168-b202-108d7d02c822","ios":"levelo://app?vid=525bcf87-0f04-4168-b202-108d7d02c822"},"vehicle_type_id":"4","last_reported":1703146166,"current_range_meters":3600,"station_id":"ce4bgup2rcd13ifvqco0","pricing_plan_id":"free"},{"bike_id":"3c6f0b41-2a9d-4574-8c6a-12c46b47246d","system_id":"levelo_inurba_marseille","lat":43.309589,"lon":5.390258,"is_reserved":false,"is_disabled":false,"rental_uris":{"android":"levelo://app?vid=3c6f0b41-2a9d-4574-8c6a-12c46b47246d","ios":"levelo://app?vid=3c6f0b41-2a9d-4574-8c6a-12c46b47246d"},"vehicle_type_id":"4","last_reported":1703146166,"current_range_meters":31200,"station_id":"ce4bgup2rcd13ifvqco0","pricing_plan_id":"free"},{"bike_id":"f3d343af-5aa5-4f8a-8a31-70f7786b5670","system_id":"levelo_inurba_marseille","lat":43.309589,"lon":5.390258,"is_reserved":false,"is_disabled":false,"rental_uris":{"android":"levelo://app?vid=f3d343af-5aa5-4f8a-8a31-70f7786b5670","ios":"levelo://app?vid=f3d343af-5aa5-4f8a-8a31-70f7786b5670"},"vehicle_type_id":"4","last_reported":1703146166,"current_range_meters":20400,"station_id":"ce4bgup2rcd13ifvqco0","pricing_plan_id":"free"},{"bike_id":"b74f406f-9053-4731-8ab7-e33279d92dac","system_id":"levelo_inurba_marseille","lat":43.309589,"lon":5.390258,"is_reserved":false,"is_disabled":false,"rental_uris":{"android":"levelo://app?vid=b74f406f-9053-4731-8ab7-e33279d92dac","ios":"levelo://app?vid=b74f406f-9053-4731-8ab7-e33279d92dac"},"vehicle_type_id":"4","last_reported":1703146166,"current_range_meters":18000,"station_id":"ce4bgup2rcd13ifvqco0","pricing_plan_id":"free"},{"bike_id":"d0071e1e-6ca4-4f63-aef2-ed60b01988d4","system_id":"levelo_inurba_marseille","lat":43.309589,"lon":5.390258,"is_reserved":false,"is_disabled":false,"rental_uris":{"android":"levelo://app?vid=d0071e1e-6ca4-4f63-aef2-ed60b01988d4","ios":"levelo://app?vid=d0071e1e-6ca4-4f63-aef2-ed60b01988d4"},"vehicle_type_id":"4","last_reported":1703146166,"current_range_meters":17200,"station_id":"ce4bgup2rcd13ifvqco0","pricing_plan_id":"free"},{"bike_id":"0b302c3a-0edd-4d80-b6a2-0e41892114c5","system_id":"levelo_inurba_marseille","lat":43.317557,"lon":5.390173,"is_reserved":false,"is_disabled":false,"rental_uris":{"android":"levelo://app?vid=0b302c3a-0edd-4d80-b6a2-0e41892114c5","ios":"levelo://app?vid=0b302c3a-0edd-4d80-b6a2-0e41892114c5"},"vehicle_type_id":"4","last_reported":1703146166,"current_range_meters":6000,"station_id":"ce4bhqp2rcd13ifvqhng","pricing_plan_id":"free"},{"bike_id":"7726a8c0-54af-45ac-b42b-a6fac95b9b56","system_id":"levelo_inurba_marseille","lat":43.295748,"lon":5.37522,"is_reserved":false,"is_disabled":false,"rental_uris":{"android":"levelo://app?vid=7726a8c0-54af-45ac-b42b-a6fac95b9b56","ios":"levelo://app?vid=7726a8c0-54af-45ac-b42b-a6fac95b9b56"},"vehicle_type_id":"4","last_reported":1703146166,"current_range_meters":18400,"station_id":"ce4bgh92rcd13ifvqb50","pricing_plan_id":"free"},{"bike_id":"8643904d-47be-45be-a1a8-d5d344e36f90","system_id":"levelo_inurba_marseille","lat":43.298037,"lon":5.381066,"is_reserved":false,"is_disabled":false,"rental_uris":{"android":"levelo://app?vid=8643904d-47be-45be-a1a8-d5d344e36f90","ios":"levelo://app?vid=8643904d-47be-45be-a1a8-d5d344e36f90"},"vehicle_type_id":"4","last_reported":1703146166,"current_range_meters":28400,"station_id":"ce4bgip2rcd13ifvqbb0","pricing_plan_id":"free"},{"bike_id":"d9f4f5b5-612b-423b-a545-c406f24eebce","system_id":"levelo_inurba_marseille","lat":43.298037,"lon":5.381066,"is_reserved":false,"is_disabled":false,"rental_uris":{"android":"levelo://app?vid=d9f4f5b5-612b-423b-a545-c406f24eebce","ios":"levelo://app?vid=d9f4f5b5-612b-423b-a545-c406f24eebce"},"vehicle_type_id":"4","last_reported":1703146166,"current_range_meters":31200,"station_id":"ce4bgip2rcd13ifvqbb0","pricing_plan_id":"free"},{"bike_id":"5cefa421-9a80-484e-83e9-d58f4d37a93d","system_id":"levelo_inurba_marseille","lat":43.295279,"lon":5.375048,"is_reserved":false,"is_disabled":false,"rental_uris":{"android":"levelo://app?vid=5cefa421-9a80-484e-83e9-d58f4d37a93d","ios":"levelo://app?vid=5cefa421-9a80-484e-83e9-d58f4d37a93d"},"vehicle_type_id":"4","last_reported":1703146166,"current_range_meters":20400,"station_id":"ce4bgkp2rcd13ifvqbmg","pricing_plan_id":"free"},{"bike_id":"40c3afd4-e019-42f2-8a18-f78aa5012339","system_id":"levelo_inurba_marseille","lat":43.296263,"lon":5.377094,"is_reserved":false,"is_disabled":false,"rental_uris":{"android":"levelo://app?vid=40c3afd4-e019-42f2-8a18-f78aa5012339","ios":"levelo://app?vid=40c3afd4-e019-42f2-8a18-f78aa5012339"},"vehicle_type_id":"4","last_reported":1703146166,"current_range_meters":26000,"station_id":"ce4bgi92rcd13ifvqb90","pricing_plan_id":"free"},{"bike_id":"88e959fa-ae45-47e7-aeaa-95a5bb4dfb42","system_id":"levelo_inurba_marseille","lat":43.305989,"lon":5.37225,"is_reserved":false,"is_disabled":false,"rental_uris":{"android":"levelo://app?vid=88e959fa-ae45-47e7-aeaa-95a5bb4dfb42","ios":"levelo://app?vid=88e959fa-ae45-47e7-aeaa-95a5bb4dfb42"},"vehicle_type_id":"4","last_reported":1703146166,"current_range_meters":22400,"station_id":"ce4bgqh2rcd13ifvqc4g","pricing_plan_id":"free"},{"bike_id":"730b4b5b-6343-4295-a332-ffa0fa8030dd","system_id":"levelo_inurba_marseille","lat":43.295279,"lon":5.375048,"is_reserved":false,"is_disabled":false,"rental_uris":{"android":"levelo://app?vid=730b4b5b-6343-4295-a332-ffa0fa8030dd","ios":"levelo://app?vid=730b4b5b-6343-4295-a332-ffa0fa8030dd"},"vehicle_type_id":"4","last_reported":1703146166,"current_range_meters":24000,"station_id":"ce4bgkp2rcd13ifvqbmg","pricing_plan_id":"free"},{"bike_id":"c7f8205f-102a-4cf9-be53-43b1fa64333c","system_id":"levelo_inurba_marseille","lat":43.295279,"lon":5.375048,"is_reserved":false,"is_disabled":false,"rental_uris":{"android":"levelo://app?vid=c7f8205f-102a-4cf9-be53-43b1fa64333c","ios":"levelo://app?vid=c7f8205f-102a-4cf9-be53-43b1fa64333c"},"vehicle_type_id":"4","last_reported":1703146166,"current_range_meters":3600,"station_id":"ce4bgkp2rcd13ifvqbmg","pricing_plan_id":"free"},{"bike_id":"d864d65d-d16c-4221-9425-5307fa4c5f9f","system_id":"levelo_inurba_marseille","lat":43.294892,"lon":5.37517,"is_reserved":false,"is_disabled":false,"rental_uris":{"android":"levelo://app?vid=d864d65d-d16c-4221-9425-5307fa4c5f9f","ios":"levelo://app?vid=d864d65d-d16c-4221-9425-5307fa4c5f9f"},"vehicle_type_id":"4","last_reported":1703146166,"current_range_meters":1600,"station_id":"","pricing_plan_id":"free"},{"bike_id":"39a5a7f1-613e-4ce9-85dc-bf406e7675c4","system_id":"levelo_inurba_marseille","lat":43.32367,"lon":5.388836,"is_reserved":false,"is_disabled":false,"rental_uris":{"android":"levelo://app?vid=39a5a7f1-613e-4ce9-85dc-bf406e7675c4","ios":"levelo://app?vid=39a5a7f1-613e-4ce9-85dc-bf406e7675c4"},"vehicle_type_id":"4","last_reported":1703146166,"current_range_meters":400,"station_id":"ce4bhqp2rcd13ifvqhog","pricing_plan_id":"free"},{"bike_id":"68170004-38e5-4093-87ef-d1865be83be6","system_id":"levelo_inurba_marseille","lat":43.32367,"lon":5.388836,"is_reserved":false,"is_disabled":false,"rental_uris":{"android":"levelo://app?vid=68170004-38e5-4093-87ef-d1865be83be6","ios":"levelo://app?vid=68170004-38e5-4093-87ef-d1865be83be6"},"vehicle_type_id":"4","last_reported":1703146166,"current_range_meters":26000,"station_id":"ce4bhqp2rcd13ifvqhog","pricing_plan_id":"free"},{"bike_id":"00a346d6-42c8-4aa9-8b91-87c301d8ed70","system_id":"levelo_inurba_marseille","lat":43.293009,"lon":5.374584,"is_reserved":false,"is_disabled":false,"rental_uris":{"android":"levelo://app?vid=00a346d6-42c8-4aa9-8b91-87c301d8ed70","ios":"levelo://app?vid=00a346d6-42c8-4aa9-8b91-87c301d8ed70"},"vehicle_type_id":"4","last_reported":1703146166,"current_range_meters":28000,"station_id":"ce4bgi12rcd13ifvqb70","pricing_plan_id":"free"},{"bike_id":"5c57d638-952c-47dc-9566-9570ce08adfd","system_id":"levelo_inurba_marseille","lat":43.293009,"lon":5.374584,"is_reserved":false,"is_disabled":false,"rental_uris":{"android":"levelo://app?vid=5c57d638-952c-47dc-9566-9570ce08adfd","ios":"levelo://app?vid=5c57d638-952c-47dc-9566-9570ce08adfd"},"vehicle_type_id":"4","last_reported":1703146166,"current_range_meters":25200,"station_id":"ce4bgi12rcd13ifvqb70","pricing_plan_id":"free"},{"bike_id":"2e0ceb58-f4e4-4285-a3bb-b927c51676ca","system_id":"levelo_inurba_marseille","lat":43.30591,"lon":5.39351,"is_reserved":false,"is_disabled":false,"rental_uris":{"android":"levelo://app?vid=2e0ceb58-f4e4-4285-a3bb-b927c51676ca","ios":"levelo://app?vid=2e0ceb58-f4e4-4285-a3bb-b927c51676ca"},"vehicle_type_id":"4","last_reported":1703146166,"current_range_meters":19200,"station_id":"ce4bh0p2rcd13ifvqd80","pricing_plan_id":"free"},{"bike_id":"877b043a-5f5b-41a0-af55-938bf2ffedac","system_id":"levelo_inurba_marseille","lat":43.305994,"lon":5.393687,"is_reserved":false,"is_disabled":false,"rental_uris":{"android":"levelo://app?vid=877b043a-5f5b-41a0-af55-938bf2ffedac","ios":"levelo://app?vid=877b043a-5f5b-41a0-af55-938bf2ffedac"},"vehicle_type_id":"4","last_reported":1703146166,"current_range_meters":0,"station_id":"ce4bh0p2rcd13ifvqd80","pricing_plan_id":"free"},{"bike_id":"4b806076-1e0d-47bc-9393-f9c6e99f6dd2","system_id":"levelo_inurba_marseille","lat":43.2936,"lon":5.37835,"is_reserved":false,"is_disabled":false,"rental_uris":{"android":"levelo://app?vid=4b806076-1e0d-47bc-9393-f9c6e99f6dd2","ios":"levelo://app?vid=4b806076-1e0d-47bc-9393-f9c6e99f6dd2"},"vehicle_type_id":"4","last_reported":1703146166,"current_range_meters":22800,"station_id":"ce4bgjh2rcd13ifvqbf0","pricing_plan_id":"free"},{"bike_id":"8a50a0f7-af2a-4873-bcbc-6c756c549dc5","system_id":"levelo_inurba_marseille","lat":43.2936,"lon":5.37835,"is_reserved":false,"is_disabled":false,"rental_uris":{"android":"levelo://app?vid=8a50a0f7-af2a-4873-bcbc-6c756c549dc5","ios":"levelo://app?vid=8a50a0f7-af2a-4873-bcbc-6c756c549dc5"},"vehicle_type_id":"4","last_reported":1703146166,"current_range_meters":15200,"station_id":"ce4bgjh2rcd13ifvqbf0","pricing_plan_id":"free"},{"bike_id":"7b4659cc-76df-4c84-a223-48d4c52c7383","system_id":"levelo_inurba_marseille","lat":43.2936,"lon":5.37835,"is_reserved":false,"is_disabled":false,"rental_uris":{"android":"levelo://app?vid=7b4659cc-76df-4c84-a223-48d4c52c7383","ios":"levelo://app?vid=7b4659cc-76df-4c84-a223-48d4c52c7383"},"vehicle_type_id":"4","last_reported":1703146166,"current_range_meters":31200,"station_id":"ce4bgjh2rcd13ifvqbf0","pricing_plan_id":"free"},{"bike_id":"60607377-36ae-43c4-9b40-7d4fd9c2d058","system_id":"levelo_inurba_marseille","lat":43.29228,"lon":5.36066,"is_reserved":false,"is_disabled":false,"rental_uris":{"android":"levelo://app?vid=60607377-36ae-43c4-9b40-7d4fd9c2d058","ios":"levelo://app?vid=60607377-36ae-43c4-9b40-7d4fd9c2d058"},"vehicle_type_id":"4","last_reported":1703146166,"current_range_meters":26000,"station_id":"ce4bhbh2rcd13ifvqeqg","pricing_plan_id":"free"},{"bike_id":"6a9bb6fc-b9e4-484a-b775-a296d212fb53","system_id":"levelo_inurba_marseille","lat":43.292311,"lon":5.360731,"is_reserved":false,"is_disabled":false,"rental_uris":{"android":"levelo://app?vid=6a9bb6fc-b9e4-484a-b775-a296d212fb53","ios":"levelo://app?vid=6a9bb6fc-b9e4-484a-b775-a296d212fb53"},"vehicle_type_id":"4","last_reported":1703146166,"current_range_meters":13600,"station_id":"ce4bhbh2rcd13ifvqeqg","pricing_plan_id":"free"},{"bike_id":"73ed4ea5-1d31-4951-9834-fa43c2843751","system_id":"levelo_inurba_marseille","lat":43.29225,"lon":5.36066,"is_reserved":false,"is_disabled":false,"rental_uris":{"android":"levelo://app?vid=73ed4ea5-1d31-4951-9834-fa43c2843751","ios":"levelo://app?vid=73ed4ea5-1d31-4951-9834-fa43c2843751"},"vehicle_type_id":"4","last_reported":1703146166,"current_range_meters":28400,"station_id":"ce4bhbh2rcd13ifvqeqg","pricing_plan_id":"free"},{"bike_id":"b1824fd0-e9fb-46cb-b33b-ec2410b67d96","system_id":"levelo_inurba_marseille","lat":43.289743,"lon":5.378304,"is_reserved":false,"is_disabled":false,"rental_uris":{"android":"levelo://app?vid=b1824fd0-e9fb-46cb-b33b-ec2410b67d96","ios":"levelo://app?vid=b1824fd0-e9fb-46cb-b33b-ec2410b67d96"},"vehicle_type_id":"4","last_reported":1703146166,"current_range_meters":30400,"station_id":"ce4bh9p2rcd13ifvqed0","pricing_plan_id":"free"},{"bike_id":"7ae8876a-7548-44bd-8046-76d7b2b193a0","system_id":"levelo_inurba_marseille","lat":43.29223,"lon":5.36059,"is_reserved":false,"is_disabled":false,"rental_uris":{"android":"levelo://app?vid=7ae8876a-7548-44bd-8046-76d7b2b193a0","ios":"levelo://app?vid=7ae8876a-7548-44bd-8046-76d7b2b193a0"},"vehicle_type_id":"4","last_reported":1703146166,"current_range_meters":30800,"station_id":"ce4bhbh2rcd13ifvqeqg","pricing_plan_id":"free"},{"bike_id":"77c69571-5315-4af0-9c72-9514fe2f0f9c","system_id":"levelo_inurba_marseille","lat":43.291671,"lon":5.371575,"is_reserved":false,"is_disabled":false,"rental_uris":{"android":"levelo://app?vid=77c69571-5315-4af0-9c72-9514fe2f0f9c","ios":"levelo://app?vid=77c69571-5315-4af0-9c72-9514fe2f0f9c"},"vehicle_type_id":"4","last_reported":1703146166,"current_range_meters":13200,"station_id":"ce4bha92rcd13ifvqeh0","pricing_plan_id":"free"},{"bike_id":"48172a97-5925-4121-a1d6-9c9ec3c25a6b","system_id":"levelo_inurba_marseille","lat":43.309038,"lon":5.396546,"is_reserved":false,"is_disabled":false,"rental_uris":{"android":"levelo://app?vid=48172a97-5925-4121-a1d6-9c9ec3c25a6b","ios":"levelo://app?vid=48172a97-5925-4121-a1d6-9c9ec3c25a6b"},"vehicle_type_id":"4","last_reported":1703146166,"current_range_meters":0,"station_id":"ce4bh012rcd13ifvqcv0","pricing_plan_id":"free"},{"bike_id":"edf8e31f-7c18-44f2-8aa9-55a41a9b6510","system_id":"levelo_inurba_marseille","lat":43.29529,"lon":5.385581,"is_reserved":false,"is_disabled":false,"rental_uris":{"android":"levelo://app?vid=edf8e31f-7c18-44f2-8aa9-55a41a9b6510","ios":"levelo://app?vid=edf8e31f-7c18-44f2-8aa9-55a41a9b6510"},"vehicle_type_id":"4","last_reported":1703146166,"current_range_meters":12000,"station_id":"ce4bgih2rcd13ifvqba0","pricing_plan_id":"free"},{"bike_id":"e69b7621-8720-4846-845e-bf3414318593","system_id":"levelo_inurba_marseille","lat":43.302008,"lon":5.394694,"is_reserved":false,"is_disabled":false,"rental_uris":{"android":"levelo://app?vid=e69b7621-8720-4846-845e-bf3414318593","ios":"levelo://app?vid=e69b7621-8720-4846-845e-bf3414318593"},"vehicle_type_id":"4","last_reported":1703146166,"current_range_meters":31200,"station_id":"ce4bh0p2rcd13ifvqd70","pricing_plan_id":"free"},{"bike_id":"dc723a17-e049-4885-a4f7-0210efbcd13f","system_id":"levelo_inurba_marseille","lat":43.290631,"lon":5.359244,"is_reserved":false,"is_disabled":false,"rental_uris":{"android":"levelo://app?vid=dc723a17-e049-4885-a4f7-0210efbcd13f","ios":"levelo://app?vid=dc723a17-e049-4885-a4f7-0210efbcd13f"},"vehicle_type_id":"4","last_reported":1703146166,"current_range_meters":30400,"station_id":"ce4bha92rcd13ifvqeg0","pricing_plan_id":"free"},{"bike_id":"76ad0d28-e83d-41e4-b37e-933ddecca311","system_id":"levelo_inurba_marseille","lat":43.290327,"lon":5.375711,"is_reserved":false,"is_disabled":false,"rental_uris":{"android":"levelo://app?vid=76ad0d28-e83d-41e4-b37e-933ddecca311","ios":"levelo://app?vid=76ad0d28-e83d-41e4-b37e-933ddecca311"},"vehicle_type_id":"4","last_reported":1703146166,"current_range_meters":6000,"station_id":"ce4bh692rcd13ifvqe90","pricing_plan_id":"free"},{"bike_id":"2fdddbed-74be-4747-91b9-645f4bef026b","system_id":"levelo_inurba_marseille","lat":43.290327,"lon":5.375711,"is_reserved":false,"is_disabled":false,"rental_uris":{"android":"levelo://app?vid=2fdddbed-74be-4747-91b9-645f4bef026b","ios":"levelo://app?vid=2fdddbed-74be-4747-91b9-645f4bef026b"},"vehicle_type_id":"4","last_reported":1703146166,"current_range_meters":13600,"station_id":"ce4bh692rcd13ifvqe90","pricing_plan_id":"free"},{"bike_id":"bfa10044-9400-43cd-82fa-17510d4eef3d","system_id":"levelo_inurba_marseille","lat":43.289184,"lon":5.366408,"is_reserved":false,"is_disabled":false,"rental_uris":{"android":"levelo://app?vid=bfa10044-9400-43cd-82fa-17510d4eef3d","ios":"levelo://app?vid=bfa10044-9400-43cd-82fa-17510d4eef3d"},"vehicle_type_id":"4","last_reported":1703146166,"current_range_meters":1600,"station_id":"ce4bhap2rcd13ifvqek0","pricing_plan_id":"free"},{"bike_id":"a41b89b6-577f-44ca-8a4a-3394cdd79ea7","system_id":"levelo_inurba_marseille","lat":43.289468,"lon":5.363719,"is_reserved":false,"is_disabled":false,"rental_uris":{"android":"levelo://app?vid=a41b89b6-577f-44ca-8a4a-3394cdd79ea7","ios":"levelo://app?vid=a41b89b6-577f-44ca-8a4a-3394cdd79ea7"},"vehicle_type_id":"4","last_reported":1703146166,"current_range_meters":31200,"station_id":"ce4bhc92rcd13ifvqetg","pricing_plan_id":"free"},{"bike_id":"d0d77ee4-e4b1-4c3c-a9f9-483603f9b531","system_id":"levelo_inurba_marseille","lat":43.330442,"lon":5.389148,"is_reserved":false,"is_disabled":false,"rental_uris":{"android":"levelo://app?vid=d0d77ee4-e4b1-4c3c-a9f9-483603f9b531","ios":"levelo://app?vid=d0d77ee4-e4b1-4c3c-a9f9-483603f9b531"},"vehicle_type_id":"4","last_reported":1703146166,"current_range_meters":8800,"station_id":"ce4bhr92rcd13ifvqhrg","pricing_plan_id":"free"},{"bike_id":"5b274380-174f-46b3-bfad-fafdf1223372","system_id":"levelo_inurba_marseille","lat":43.330442,"lon":5.389148,"is_reserved":false,"is_disabled":false,"rental_uris":{"android":"levelo://app?vid=5b274380-174f-46b3-bfad-fafdf1223372","ios":"levelo://app?vid=5b274380-174f-46b3-bfad-fafdf1223372"},"vehicle_type_id":"4","last_reported":1703146166,"current_range_meters":23200,"station_id":"ce4bhr92rcd13ifvqhrg","pricing_plan_id":"free"},{"bike_id":"03792874-86d9-468e-be10-3c6851108053","system_id":"levelo_inurba_marseille","lat":43.33044,"lon":5.38921,"is_reserved":false,"is_disabled":false,"rental_uris":{"android":"levelo://app?vid=03792874-86d9-468e-be10-3c6851108053","ios":"levelo://app?vid=03792874-86d9-468e-be10-3c6851108053"},"vehicle_type_id":"4","last_reported":1703146166,"current_range_meters":14800,"station_id":"ce4bhr92rcd13ifvqhrg","pricing_plan_id":"free"},{"bike_id":"cfbb7d64-f310-4f06-a659-75ac69e3e6a8","system_id":"levelo_inurba_marseille","lat":43.289743,"lon":5.378304,"is_reserved":false,"is_disabled":false,"rental_uris":{"android":"levelo://app?vid=cfbb7d64-f310-4f06-a659-75ac69e3e6a8","ios":"levelo://app?vid=cfbb7d64-f310-4f06-a659-75ac69e3e6a8"},"vehicle_type_id":"4","last_reported":1703146166,"current_range_meters":22400,"station_id":"ce4bh9p2rcd13ifvqed0","pricing_plan_id":"free"},{"bike_id":"0f83ba50-264f-4cbd-b68b-7054125ac147","system_id":"levelo_inurba_marseille","lat":43.28987,"lon":5.37833,"is_reserved":false,"is_disabled":false,"rental_uris":{"android":"levelo://app?vid=0f83ba50-264f-4cbd-b68b-7054125ac147","ios":"levelo://app?vid=0f83ba50-264f-4cbd-b68b-7054125ac147"},"vehicle_type_id":"4","last_reported":1703146166,"current_range_meters":18000,"station_id":"ce4bh9p2rcd13ifvqed0","pricing_plan_id":"free"},{"bike_id":"e4782309-1efd-4501-a96c-7d301df1213b","system_id":"levelo_inurba_marseille","lat":43.289743,"lon":5.378304,"is_reserved":false,"is_disabled":false,"rental_uris":{"android":"levelo://app?vid=e4782309-1efd-4501-a96c-7d301df1213b","ios":"levelo://app?vid=e4782309-1efd-4501-a96c-7d301df1213b"},"vehicle_type_id":"4","last_reported":1703146166,"current_range_meters":8400,"station_id":"ce4bh9p2rcd13ifvqed0","pricing_plan_id":"free"},{"bike_id":"a0013865-301d-468d-ae3b-a9dddfa7e010","system_id":"levelo_inurba_marseille","lat":43.289743,"lon":5.378304,"is_reserved":false,"is_disabled":false,"rental_uris":{"android":"levelo://app?vid=a0013865-301d-468d-ae3b-a9dddfa7e010","ios":"levelo://app?vid=a0013865-301d-468d-ae3b-a9dddfa7e010"},"vehicle_type_id":"4","last_reported":1703146166,"current_range_meters":1200,"station_id":"ce4bh9p2rcd13ifvqed0","pricing_plan_id":"free"},{"bike_id":"eea25d51-e536-4a46-97db-4cbc12161c37","system_id":"levelo_inurba_marseille","lat":43.289697,"lon":5.37836,"is_reserved":false,"is_disabled":false,"rental_uris":{"android":"levelo://app?vid=eea25d51-e536-4a46-97db-4cbc12161c37","ios":"levelo://app?vid=eea25d51-e536-4a46-97db-4cbc12161c37"},"vehicle_type_id":"4","last_reported":1703146166,"current_range_meters":25600,"station_id":"ce4bh9p2rcd13ifvqed0","pricing_plan_id":"free"},{"bike_id":"68bc6b25-95ea-4dec-854d-a170f7847773","system_id":"levelo_inurba_marseille","lat":43.290094,"lon":5.381264,"is_reserved":false,"is_disabled":false,"rental_uris":{"android":"levelo://app?vid=68bc6b25-95ea-4dec-854d-a170f7847773","ios":"levelo://app?vid=68bc6b25-95ea-4dec-854d-a170f7847773"},"vehicle_type_id":"4","last_reported":1703146166,"current_range_meters":28400,"station_id":"ce4bh4p2rcd13ifvqe1g","pricing_plan_id":"free"},{"bike_id":"67efa333-d39d-4d4c-a70b-7f357edce25d","system_id":"levelo_inurba_marseille","lat":43.28845,"lon":5.358453,"is_reserved":false,"is_disabled":false,"rental_uris":{"android":"levelo://app?vid=67efa333-d39d-4d4c-a70b-7f357edce25d","ios":"levelo://app?vid=67efa333-d39d-4d4c-a70b-7f357edce25d"},"vehicle_type_id":"4","last_reported":1703146166,"current_range_meters":24400,"station_id":"ce4bhb12rcd13ifvqem0","pricing_plan_id":"free"},{"bike_id":"03a44e0b-4431-482f-a86b-2588f50dadb5","system_id":"levelo_inurba_marseille","lat":43.301117,"lon":5.398795,"is_reserved":false,"is_disabled":false,"rental_uris":{"android":"levelo://app?vid=03a44e0b-4431-482f-a86b-2588f50dadb5","ios":"levelo://app?vid=03a44e0b-4431-482f-a86b-2588f50dadb5"},"vehicle_type_id":"4","last_reported":1703146166,"current_range_meters":27200,"station_id":"ce4bh0h2rcd13ifvqd40","pricing_plan_id":"free"},{"bike_id":"8f64d522-7a38-45fb-b6e6-5b4d6337952b","system_id":"levelo_inurba_marseille","lat":43.290345,"lon":5.38646,"is_reserved":false,"is_disabled":false,"rental_uris":{"android":"levelo://app?vid=8f64d522-7a38-45fb-b6e6-5b4d6337952b","ios":"levelo://app?vid=8f64d522-7a38-45fb-b6e6-5b4d6337952b"},"vehicle_type_id":"4","last_reported":1703146166,"current_range_meters":0,"station_id":"ce4bh4p2rcd13ifvqe0g","pricing_plan_id":"free"},{"bike_id":"89fb99d7-b2b1-456e-9fb6-4cbda8003f2e","system_id":"levelo_inurba_marseille","lat":43.286961,"lon":5.373785,"is_reserved":false,"is_disabled":false,"rental_uris":{"android":"levelo://app?vid=89fb99d7-b2b1-456e-9fb6-4cbda8003f2e","ios":"levelo://app?vid=89fb99d7-b2b1-456e-9fb6-4cbda8003f2e"},"vehicle_type_id":"4","last_reported":1703146166,"current_range_meters":26400,"station_id":"ce4bh3p2rcd13ifvqdq0","pricing_plan_id":"free"},{"bike_id":"b2e04a8b-18a3-407e-a668-4d2d8d3e7fee","system_id":"levelo_inurba_marseille","lat":43.286961,"lon":5.373785,"is_reserved":false,"is_disabled":false,"rental_uris":{"android":"levelo://app?vid=b2e04a8b-18a3-407e-a668-4d2d8d3e7fee","ios":"levelo://app?vid=b2e04a8b-18a3-407e-a668-4d2d8d3e7fee"},"vehicle_type_id":"4","last_reported":1703146166,"current_range_meters":19600,"station_id":"ce4bh3p2rcd13ifvqdq0","pricing_plan_id":"free"},{"bike_id":"47f5d314-9c2b-409f-af92-a527fa4c2e2a","system_id":"levelo_inurba_marseille","lat":43.283998,"lon":5.375062,"is_reserved":false,"is_disabled":false,"rental_uris":{"android":"levelo://app?vid=47f5d314-9c2b-409f-af92-a527fa4c2e2a","ios":"levelo://app?vid=47f5d314-9c2b-409f-af92-a527fa4c2e2a"},"vehicle_type_id":"4","last_reported":1703146166,"current_range_meters":31200,"station_id":"ce4bh412rcd13ifvqds0","pricing_plan_id":"free"},{"bike_id":"781292c0-976c-4fa7-88d3-5ee2137d901b","system_id":"levelo_inurba_marseille","lat":43.287184,"lon":5.37937,"is_reserved":false,"is_disabled":false,"rental_uris":{"android":"levelo://app?vid=781292c0-976c-4fa7-88d3-5ee2137d901b","ios":"levelo://app?vid=781292c0-976c-4fa7-88d3-5ee2137d901b"},"vehicle_type_id":"4","last_reported":1703146166,"current_range_meters":20800,"station_id":"ce4bh9p2rcd13ifvqec0","pricing_plan_id":"free"},{"bike_id":"eeebfc89-14cb-49d5-a67e-a4a534bde0b3","system_id":"levelo_inurba_marseille","lat":43.287184,"lon":5.37937,"is_reserved":false,"is_disabled":false,"rental_uris":{"android":"levelo://app?vid=eeebfc89-14cb-49d5-a67e-a4a534bde0b3","ios":"levelo://app?vid=eeebfc89-14cb-49d5-a67e-a4a534bde0b3"},"vehicle_type_id":"4","last_reported":1703146166,"current_range_meters":25200,"station_id":"ce4bh9p2rcd13ifvqec0","pricing_plan_id":"free"},{"bike_id":"f2683f1e-f0d4-4a5a-adc9-b6e8d4d27583","system_id":"levelo_inurba_marseille","lat":43.287185,"lon":5.379373,"is_reserved":false,"is_disabled":false,"rental_uris":{"android":"levelo://app?vid=f2683f1e-f0d4-4a5a-adc9-b6e8d4d27583","ios":"levelo://app?vid=f2683f1e-f0d4-4a5a-adc9-b6e8d4d27583"},"vehicle_type_id":"4","last_reported":1703146166,"current_range_meters":0,"station_id":"ce4bh9p2rcd13ifvqec0","pricing_plan_id":"free"},{"bike_id":"4005d67c-e580-47a4-893b-53bd0a817d88","system_id":"levelo_inurba_marseille","lat":43.285856,"lon":5.350771,"is_reserved":false,"is_disabled":false,"rental_uris":{"android":"levelo://app?vid=4005d67c-e580-47a4-893b-53bd0a817d88","ios":"levelo://app?vid=4005d67c-e580-47a4-893b-53bd0a817d88"},"vehicle_type_id":"4","last_reported":1703146166,"current_range_meters":10800,"station_id":"ce4bhch2rcd13ifvqeug","pricing_plan_id":"free"},{"bike_id":"22ba446e-5015-4dd8-a801-20e622cb14a5","system_id":"levelo_inurba_marseille","lat":43.283998,"lon":5.375062,"is_reserved":false,"is_disabled":false,"rental_uris":{"android":"levelo://app?vid=22ba446e-5015-4dd8-a801-20e622cb14a5","ios":"levelo://app?vid=22ba446e-5015-4dd8-a801-20e622cb14a5"},"vehicle_type_id":"4","last_reported":1703146166,"current_range_meters":20000,"station_id":"ce4bh412rcd13ifvqds0","pricing_plan_id":"free"},{"bike_id":"7a23d446-3df0-438a-895a-598985f527f1","system_id":"levelo_inurba_marseille","lat":43.283998,"lon":5.375062,"is_reserved":false,"is_disabled":false,"rental_uris":{"android":"levelo://app?vid=7a23d446-3df0-438a-895a-598985f527f1","ios":"levelo://app?vid=7a23d446-3df0-438a-895a-598985f527f1"},"vehicle_type_id":"4","last_reported":1703146166,"current_range_meters":24400,"station_id":"ce4bh412rcd13ifvqds0","pricing_plan_id":"free"},{"bike_id":"8538e6dd-dbef-4a5a-a119-9a857fd021ad","system_id":"levelo_inurba_marseille","lat":43.33218,"lon":5.397067,"is_reserved":false,"is_disabled":false,"rental_uris":{"android":"levelo://app?vid=8538e6dd-dbef-4a5a-a119-9a857fd021ad","ios":"levelo://app?vid=8538e6dd-dbef-4a5a-a119-9a857fd021ad"},"vehicle_type_id":"4","last_reported":1703146166,"current_range_meters":0,"station_id":"","pricing_plan_id":"free"},{"bike_id":"18be6ae1-242d-4936-be05-b3b862d1c7fb","system_id":"levelo_inurba_marseille","lat":43.295713,"lon":5.399639,"is_reserved":false,"is_disabled":false,"rental_uris":{"android":"levelo://app?vid=18be6ae1-242d-4936-be05-b3b862d1c7fb","ios":"levelo://app?vid=18be6ae1-242d-4936-be05-b3b862d1c7fb"},"vehicle_type_id":"4","last_reported":1703146166,"current_range_meters":24000,"station_id":"ce4bh312rcd13ifvqdj0","pricing_plan_id":"free"},{"bike_id":"0e6bbc92-cec6-497f-ad89-d75d7e889db3","system_id":"levelo_inurba_marseille","lat":43.33717,"lon":5.391857,"is_reserved":false,"is_disabled":false,"rental_uris":{"android":"levelo://app?vid=0e6bbc92-cec6-497f-ad89-d75d7e889db3","ios":"levelo://app?vid=0e6bbc92-cec6-497f-ad89-d75d7e889db3"},"vehicle_type_id":"4","last_reported":1703146166,"current_range_meters":31600,"station_id":"ce4bhr92rcd13ifvqhsg","pricing_plan_id":"free"},{"bike_id":"0f42eedd-bd33-445f-91fc-4e7504a96eb4","system_id":"levelo_inurba_marseille","lat":43.32342,"lon":5.40628,"is_reserved":false,"is_disabled":false,"rental_uris":{"android":"levelo://app?vid=0f42eedd-bd33-445f-91fc-4e7504a96eb4","ios":"levelo://app?vid=0f42eedd-bd33-445f-91fc-4e7504a96eb4"},"vehicle_type_id":"4","last_reported":1703146166,"current_range_meters":18400,"station_id":"ce4bhq92rcd13ifvqhjg","pricing_plan_id":"free"},{"bike_id":"4ec85d6c-0508-4f45-a792-d09b4b3cdbb0","system_id":"levelo_inurba_marseille","lat":43.290327,"lon":5.375711,"is_reserved":false,"is_disabled":false,"rental_uris":{"android":"levelo://app?vid=4ec85d6c-0508-4f45-a792-d09b4b3cdbb0","ios":"levelo://app?vid=4ec85d6c-0508-4f45-a792-d09b4b3cdbb0"},"vehicle_type_id":"4","last_reported":1703146166,"current_range_meters":2400,"station_id":"ce4bh692rcd13ifvqe90","pricing_plan_id":"free"},{"bike_id":"d7bcb67b-a046-4970-859d-a03268d43737","system_id":"levelo_inurba_marseille","lat":43.284219,"lon":5.3497,"is_reserved":false,"is_disabled":false,"rental_uris":{"android":"levelo://app?vid=d7bcb67b-a046-4970-859d-a03268d43737","ios":"levelo://app?vid=d7bcb67b-a046-4970-859d-a03268d43737"},"vehicle_type_id":"4","last_reported":1703146166,"current_range_meters":28800,"station_id":"ce4bhbh2rcd13ifvqepg","pricing_plan_id":"free"},{"bike_id":"25acf729-0c15-45f0-8053-2c35b0919b50","system_id":"levelo_inurba_marseille","lat":43.284219,"lon":5.3497,"is_reserved":false,"is_disabled":false,"rental_uris":{"android":"levelo://app?vid=25acf729-0c15-45f0-8053-2c35b0919b50","ios":"levelo://app?vid=25acf729-0c15-45f0-8053-2c35b0919b50"},"vehicle_type_id":"4","last_reported":1703146166,"current_range_meters":28400,"station_id":"ce4bhbh2rcd13ifvqepg","pricing_plan_id":"free"},{"bike_id":"b20f92a2-3c96-49ba-89c0-763dc511f158","system_id":"levelo_inurba_marseille","lat":43.284219,"lon":5.3497,"is_reserved":false,"is_disabled":false,"rental_uris":{"android":"levelo://app?vid=b20f92a2-3c96-49ba-89c0-763dc511f158","ios":"levelo://app?vid=b20f92a2-3c96-49ba-89c0-763dc511f158"},"vehicle_type_id":"4","last_reported":1703146166,"current_range_meters":25600,"station_id":"ce4bhbh2rcd13ifvqepg","pricing_plan_id":"free"},{"bike_id":"e68ad7a3-9f73-42da-8e90-59adcc6ccfbd","system_id":"levelo_inurba_marseille","lat":43.284219,"lon":5.3497,"is_reserved":false,"is_disabled":false,"rental_uris":{"android":"levelo://app?vid=e68ad7a3-9f73-42da-8e90-59adcc6ccfbd","ios":"levelo://app?vid=e68ad7a3-9f73-42da-8e90-59adcc6ccfbd"},"vehicle_type_id":"4","last_reported":1703146166,"current_range_meters":30000,"station_id":"ce4bhbh2rcd13ifvqepg","pricing_plan_id":"free"},{"bike_id":"5e3666e1-86ec-4715-881e-97fbe8493bb9","system_id":"levelo_inurba_marseille","lat":43.284217,"lon":5.349697,"is_reserved":false,"is_disabled":false,"rental_uris":{"android":"levelo://app?vid=5e3666e1-86ec-4715-881e-97fbe8493bb9","ios":"levelo://app?vid=5e3666e1-86ec-4715-881e-97fbe8493bb9"},"vehicle_type_id":"4","last_reported":1703146166,"current_range_meters":31200,"station_id":"ce4bhbh2rcd13ifvqepg","pricing_plan_id":"free"},{"bike_id":"62baa9d2-068a-43ba-9dc2-b9c5b593c8a2","system_id":"levelo_inurba_marseille","lat":43.289363,"lon":5.396322,"is_reserved":false,"is_disabled":false,"rental_uris":{"android":"levelo://app?vid=62baa9d2-068a-43ba-9dc2-b9c5b593c8a2","ios":"levelo://app?vid=62baa9d2-068a-43ba-9dc2-b9c5b593c8a2"},"vehicle_type_id":"4","last_reported":1703146166,"current_range_meters":15200,"station_id":"ce4bh3h2rcd13ifvqdn0","pricing_plan_id":"free"},{"bike_id":"8e3a3470-26eb-4b53-9b8c-fabf17b15ec6","system_id":"levelo_inurba_marseille","lat":43.284105,"lon":5.38544,"is_reserved":false,"is_disabled":false,"rental_uris":{"android":"levelo://app?vid=8e3a3470-26eb-4b53-9b8c-fabf17b15ec6","ios":"levelo://app?vid=8e3a3470-26eb-4b53-9b8c-fabf17b15ec6"},"vehicle_type_id":"4","last_reported":1703146166,"current_range_meters":24800,"station_id":"","pricing_plan_id":"free"},{"bike_id":"d33d70d6-0a1e-4a44-bfc5-d3da5ecf10ca","system_id":"levelo_inurba_marseille","lat":43.289363,"lon":5.396322,"is_reserved":false,"is_disabled":false,"rental_uris":{"android":"levelo://app?vid=d33d70d6-0a1e-4a44-bfc5-d3da5ecf10ca","ios":"levelo://app?vid=d33d70d6-0a1e-4a44-bfc5-d3da5ecf10ca"},"vehicle_type_id":"4","last_reported":1703146166,"current_range_meters":22400,"station_id":"ce4bh3h2rcd13ifvqdn0","pricing_plan_id":"free"},{"bike_id":"1b0b0103-b027-4fea-8c72-9151d5babca5","system_id":"levelo_inurba_marseille","lat":43.282702,"lon":5.350748,"is_reserved":false,"is_disabled":false,"rental_uris":{"android":"levelo://app?vid=1b0b0103-b027-4fea-8c72-9151d5babca5","ios":"levelo://app?vid=1b0b0103-b027-4fea-8c72-9151d5babca5"},"vehicle_type_id":"4","last_reported":1703146166,"current_range_meters":16000,"station_id":"ce4bhbp2rcd13ifvqerg","pricing_plan_id":"free"},{"bike_id":"34796012-b5cd-4b48-bac8-15b1c9a70b33","system_id":"levelo_inurba_marseille","lat":43.282754,"lon":5.350519,"is_reserved":false,"is_disabled":false,"rental_uris":{"android":"levelo://app?vid=34796012-b5cd-4b48-bac8-15b1c9a70b33","ios":"levelo://app?vid=34796012-b5cd-4b48-bac8-15b1c9a70b33"},"vehicle_type_id":"4","last_reported":1703146166,"current_range_meters":31600,"station_id":"ce4bhbp2rcd13ifvqerg","pricing_plan_id":"free"},{"bike_id":"e437b52a-964a-4e71-b0ea-37bd080666a0","system_id":"levelo_inurba_marseille","lat":43.29041,"lon":5.399634,"is_reserved":false,"is_disabled":false,"rental_uris":{"android":"levelo://app?vid=e437b52a-964a-4e71-b0ea-37bd080666a0","ios":"levelo://app?vid=e437b52a-964a-4e71-b0ea-37bd080666a0"},"vehicle_type_id":"4","last_reported":1703146166,"current_range_meters":26000,"station_id":"ce4bh392rcd13ifvqdm0","pricing_plan_id":"free"},{"bike_id":"52487075-3872-4fcb-beb3-f2a721a87c4e","system_id":"levelo_inurba_marseille","lat":43.282303,"lon":5.38601,"is_reserved":false,"is_disabled":false,"rental_uris":{"android":"levelo://app?vid=52487075-3872-4fcb-beb3-f2a721a87c4e","ios":"levelo://app?vid=52487075-3872-4fcb-beb3-f2a721a87c4e"},"vehicle_type_id":"4","last_reported":1703146166,"current_range_meters":29600,"station_id":"","pricing_plan_id":"free"},{"bike_id":"43e5f732-0f3e-4e65-b171-c12232045b42","system_id":"levelo_inurba_marseille","lat":43.27813,"lon":5.37449,"is_reserved":false,"is_disabled":false,"rental_uris":{"android":"levelo://app?vid=43e5f732-0f3e-4e65-b171-c12232045b42","ios":"levelo://app?vid=43e5f732-0f3e-4e65-b171-c12232045b42"},"vehicle_type_id":"4","last_reported":1703146166,"current_range_meters":4400,"station_id":"","pricing_plan_id":"free"},{"bike_id":"cb0668d4-d46c-4efe-a7e0-185ebe495ab4","system_id":"levelo_inurba_marseille","lat":43.280536,"lon":5.389186,"is_reserved":false,"is_disabled":false,"rental_uris":{"android":"levelo://app?vid=cb0668d4-d46c-4efe-a7e0-185ebe495ab4","ios":"levelo://app?vid=cb0668d4-d46c-4efe-a7e0-185ebe495ab4"},"vehicle_type_id":"4","last_reported":1703146166,"current_range_meters":4000,"station_id":"","pricing_plan_id":"free"},{"bike_id":"b3cb56ea-d34d-4369-8302-8a48c6dd0b22","system_id":"levelo_inurba_marseille","lat":43.279742,"lon":5.38744,"is_reserved":false,"is_disabled":false,"rental_uris":{"android":"levelo://app?vid=b3cb56ea-d34d-4369-8302-8a48c6dd0b22","ios":"levelo://app?vid=b3cb56ea-d34d-4369-8302-8a48c6dd0b22"},"vehicle_type_id":"4","last_reported":1703146166,"current_range_meters":24000,"station_id":"ce4bhg12rcd13ifvqf80","pricing_plan_id":"free"},{"bike_id":"d0ea4a2d-d84b-4111-9e49-b2f00a1b5c11","system_id":"levelo_inurba_marseille","lat":43.279742,"lon":5.38744,"is_reserved":false,"is_disabled":false,"rental_uris":{"android":"levelo://app?vid=d0ea4a2d-d84b-4111-9e49-b2f00a1b5c11","ios":"levelo://app?vid=d0ea4a2d-d84b-4111-9e49-b2f00a1b5c11"},"vehicle_type_id":"4","last_reported":1703146166,"current_range_meters":28000,"station_id":"ce4bhg12rcd13ifvqf80","pricing_plan_id":"free"},{"bike_id":"e83e3de5-7773-4caf-a0bf-afdd13696851","system_id":"levelo_inurba_marseille","lat":43.27954,"lon":5.38709,"is_reserved":false,"is_disabled":false,"rental_uris":{"android":"levelo://app?vid=e83e3de5-7773-4caf-a0bf-afdd13696851","ios":"levelo://app?vid=e83e3de5-7773-4caf-a0bf-afdd13696851"},"vehicle_type_id":"4","last_reported":1703146166,"current_range_meters":29200,"station_id":"ce4bhg12rcd13ifvqf80","pricing_plan_id":"free"},{"bike_id":"e18133a5-9a3b-406a-a9d1-c9964e4a9e91","system_id":"levelo_inurba_marseille","lat":43.325233,"lon":5.414318,"is_reserved":false,"is_disabled":false,"rental_uris":{"android":"levelo://app?vid=e18133a5-9a3b-406a-a9d1-c9964e4a9e91","ios":"levelo://app?vid=e18133a5-9a3b-406a-a9d1-c9964e4a9e91"},"vehicle_type_id":"4","last_reported":1703146166,"current_range_meters":21600,"station_id":"ce4bhq12rcd13ifvqhhg","pricing_plan_id":"free"},{"bike_id":"dd3f7296-dcf2-486c-8d30-ce1834e50ab4","system_id":"levelo_inurba_marseille","lat":43.325243,"lon":5.414326,"is_reserved":false,"is_disabled":false,"rental_uris":{"android":"levelo://app?vid=dd3f7296-dcf2-486c-8d30-ce1834e50ab4","ios":"levelo://app?vid=dd3f7296-dcf2-486c-8d30-ce1834e50ab4"},"vehicle_type_id":"4","last_reported":1703146166,"current_range_meters":30400,"station_id":"ce4bhq12rcd13ifvqhhg","pricing_plan_id":"free"},{"bike_id":"49e0eab6-1053-4728-942f-0843a6f59721","system_id":"levelo_inurba_marseille","lat":43.325243,"lon":5.414326,"is_reserved":false,"is_disabled":false,"rental_uris":{"android":"levelo://app?vid=49e0eab6-1053-4728-942f-0843a6f59721","ios":"levelo://app?vid=49e0eab6-1053-4728-942f-0843a6f59721"},"vehicle_type_id":"4","last_reported":1703146166,"current_range_meters":23200,"station_id":"ce4bhq12rcd13ifvqhhg","pricing_plan_id":"free"},{"bike_id":"3b790341-8195-4677-92bf-bf82f3656bab","system_id":"levelo_inurba_marseille","lat":43.325243,"lon":5.414326,"is_reserved":false,"is_disabled":false,"rental_uris":{"android":"levelo://app?vid=3b790341-8195-4677-92bf-bf82f3656bab","ios":"levelo://app?vid=3b790341-8195-4677-92bf-bf82f3656bab"},"vehicle_type_id":"4","last_reported":1703146166,"current_range_meters":29600,"station_id":"ce4bhq12rcd13ifvqhhg","pricing_plan_id":"free"},{"bike_id":"236fc40e-4b9c-4f4b-8f1d-f410ad791086","system_id":"levelo_inurba_marseille","lat":43.303837,"lon":5.418724,"is_reserved":false,"is_disabled":false,"rental_uris":{"android":"levelo://app?vid=236fc40e-4b9c-4f4b-8f1d-f410ad791086","ios":"levelo://app?vid=236fc40e-4b9c-4f4b-8f1d-f410ad791086"},"vehicle_type_id":"4","last_reported":1703146166,"current_range_meters":9200,"station_id":"ce4bhop2rcd13ifvqh7g","pricing_plan_id":"free"},{"bike_id":"239d997d-2b47-4e56-9833-160a2d0863c4","system_id":"levelo_inurba_marseille","lat":43.275625,"lon":5.384392,"is_reserved":false,"is_disabled":false,"rental_uris":{"android":"levelo://app?vid=239d997d-2b47-4e56-9833-160a2d0863c4","ios":"levelo://app?vid=239d997d-2b47-4e56-9833-160a2d0863c4"},"vehicle_type_id":"4","last_reported":1703146166,"current_range_meters":25200,"station_id":"ce4bhh92rcd13ifvqfi0","pricing_plan_id":"free"},{"bike_id":"4a0911b4-ebce-4462-b949-8a4ad3514d45","system_id":"levelo_inurba_marseille","lat":43.336134,"lon":5.410341,"is_reserved":false,"is_disabled":false,"rental_uris":{"android":"levelo://app?vid=4a0911b4-ebce-4462-b949-8a4ad3514d45","ios":"levelo://app?vid=4a0911b4-ebce-4462-b949-8a4ad3514d45"},"vehicle_type_id":"4","last_reported":1703146166,"current_range_meters":31200,"station_id":"ce4bhqh2rcd13ifvqhmg","pricing_plan_id":"free"},{"bike_id":"d8265041-56be-4288-b078-b52a0334c37a","system_id":"levelo_inurba_marseille","lat":43.276769,"lon":5.388787,"is_reserved":false,"is_disabled":false,"rental_uris":{"android":"levelo://app?vid=d8265041-56be-4288-b078-b52a0334c37a","ios":"levelo://app?vid=d8265041-56be-4288-b078-b52a0334c37a"},"vehicle_type_id":"4","last_reported":1703146166,"current_range_meters":18400,"station_id":"ce4bhi12rcd13ifvqfo0","pricing_plan_id":"free"},{"bike_id":"1d5f52f5-64ec-4c95-844c-8cddc4bd072a","system_id":"levelo_inurba_marseille","lat":43.275625,"lon":5.384392,"is_reserved":false,"is_disabled":false,"rental_uris":{"android":"levelo://app?vid=1d5f52f5-64ec-4c95-844c-8cddc4bd072a","ios":"levelo://app?vid=1d5f52f5-64ec-4c95-844c-8cddc4bd072a"},"vehicle_type_id":"4","last_reported":1703146166,"current_range_meters":16400,"station_id":"ce4bhh92rcd13ifvqfi0","pricing_plan_id":"free"},{"bike_id":"fab4bbde-5225-44d0-a9be-afd525521f6a","system_id":"levelo_inurba_marseille","lat":43.276771,"lon":5.388799,"is_reserved":false,"is_disabled":false,"rental_uris":{"android":"levelo://app?vid=fab4bbde-5225-44d0-a9be-afd525521f6a","ios":"levelo://app?vid=fab4bbde-5225-44d0-a9be-afd525521f6a"},"vehicle_type_id":"4","last_reported":1703146166,"current_range_meters":16800,"station_id":"ce4bhi12rcd13ifvqfo0","pricing_plan_id":"free"},{"bike_id":"a2961cf9-de37-41a0-9b1a-96bfa4e4887c","system_id":"levelo_inurba_marseille","lat":43.27558,"lon":5.3843,"is_reserved":false,"is_disabled":false,"rental_uris":{"android":"levelo://app?vid=a2961cf9-de37-41a0-9b1a-96bfa4e4887c","ios":"levelo://app?vid=a2961cf9-de37-41a0-9b1a-96bfa4e4887c"},"vehicle_type_id":"4","last_reported":1703146166,"current_range_meters":23600,"station_id":"ce4bhh92rcd13ifvqfi0","pricing_plan_id":"free"},{"bike_id":"0d549e40-ade4-485a-b0a4-646d9a1d3fae","system_id":"levelo_inurba_marseille","lat":43.336148,"lon":5.410349,"is_reserved":false,"is_disabled":false,"rental_uris":{"android":"levelo://app?vid=0d549e40-ade4-485a-b0a4-646d9a1d3fae","ios":"levelo://app?vid=0d549e40-ade4-485a-b0a4-646d9a1d3fae"},"vehicle_type_id":"4","last_reported":1703146166,"current_range_meters":17200,"station_id":"ce4bhqh2rcd13ifvqhmg","pricing_plan_id":"free"},{"bike_id":"ee7a0418-04f7-4e7c-b558-70012784b566","system_id":"levelo_inurba_marseille","lat":43.336134,"lon":5.410341,"is_reserved":false,"is_disabled":false,"rental_uris":{"android":"levelo://app?vid=ee7a0418-04f7-4e7c-b558-70012784b566","ios":"levelo://app?vid=ee7a0418-04f7-4e7c-b558-70012784b566"},"vehicle_type_id":"4","last_reported":1703146166,"current_range_meters":10800,"station_id":"ce4bhqh2rcd13ifvqhmg","pricing_plan_id":"free"},{"bike_id":"e41ac5a2-9343-4c24-902f-1b8bfd0fa19e","system_id":"levelo_inurba_marseille","lat":43.276771,"lon":5.388799,"is_reserved":false,"is_disabled":false,"rental_uris":{"android":"levelo://app?vid=e41ac5a2-9343-4c24-902f-1b8bfd0fa19e","ios":"levelo://app?vid=e41ac5a2-9343-4c24-902f-1b8bfd0fa19e"},"vehicle_type_id":"4","last_reported":1703146166,"current_range_meters":9600,"station_id":"ce4bhi12rcd13ifvqfo0","pricing_plan_id":"free"},{"bike_id":"112de005-47e1-49b6-8567-f698e0406fb8","system_id":"levelo_inurba_marseille","lat":43.27683,"lon":5.38893,"is_reserved":false,"is_disabled":false,"rental_uris":{"android":"levelo://app?vid=112de005-47e1-49b6-8567-f698e0406fb8","ios":"levelo://app?vid=112de005-47e1-49b6-8567-f698e0406fb8"},"vehicle_type_id":"4","last_reported":1703146166,"current_range_meters":24800,"station_id":"ce4bhi12rcd13ifvqfo0","pricing_plan_id":"free"},{"bike_id":"08799bcd-b3b1-4fe8-81d9-fccb4b7428c4","system_id":"levelo_inurba_marseille","lat":43.276771,"lon":5.388799,"is_reserved":false,"is_disabled":false,"rental_uris":{"android":"levelo://app?vid=08799bcd-b3b1-4fe8-81d9-fccb4b7428c4","ios":"levelo://app?vid=08799bcd-b3b1-4fe8-81d9-fccb4b7428c4"},"vehicle_type_id":"4","last_reported":1703146166,"current_range_meters":27600,"station_id":"ce4bhi12rcd13ifvqfo0","pricing_plan_id":"free"},{"bike_id":"a7ebbe4e-e4b4-4b88-92ae-339f682a95cb","system_id":"levelo_inurba_marseille","lat":43.310785,"lon":5.424305,"is_reserved":false,"is_disabled":false,"rental_uris":{"android":"levelo://app?vid=a7ebbe4e-e4b4-4b88-92ae-339f682a95cb","ios":"levelo://app?vid=a7ebbe4e-e4b4-4b88-92ae-339f682a95cb"},"vehicle_type_id":"4","last_reported":1703146166,"current_range_meters":12000,"station_id":"ce4bhp92rcd13ifvqhag","pricing_plan_id":"free"},{"bike_id":"21f4a169-6e35-4a8e-94ba-dad1b033815c","system_id":"levelo_inurba_marseille","lat":43.310785,"lon":5.424305,"is_reserved":false,"is_disabled":false,"rental_uris":{"android":"levelo://app?vid=21f4a169-6e35-4a8e-94ba-dad1b033815c","ios":"levelo://app?vid=21f4a169-6e35-4a8e-94ba-dad1b033815c"},"vehicle_type_id":"4","last_reported":1703146166,"current_range_meters":2800,"station_id":"ce4bhp92rcd13ifvqhag","pricing_plan_id":"free"},{"bike_id":"974dc7db-ff3c-4554-8964-132f9db52d9b","system_id":"levelo_inurba_marseille","lat":43.276092,"lon":5.395289,"is_reserved":false,"is_disabled":false,"rental_uris":{"android":"levelo://app?vid=974dc7db-ff3c-4554-8964-132f9db52d9b","ios":"levelo://app?vid=974dc7db-ff3c-4554-8964-132f9db52d9b"},"vehicle_type_id":"4","last_reported":1703146166,"current_range_meters":0,"station_id":"","pricing_plan_id":"free"},{"bike_id":"9193890d-4a44-4a36-813c-ae5c545c1d62","system_id":"levelo_inurba_marseille","lat":43.273125,"lon":5.390731,"is_reserved":false,"is_disabled":false,"rental_uris":{"android":"levelo://app?vid=9193890d-4a44-4a36-813c-ae5c545c1d62","ios":"levelo://app?vid=9193890d-4a44-4a36-813c-ae5c545c1d62"},"vehicle_type_id":"4","last_reported":1703146166,"current_range_meters":22400,"station_id":"ce4bhgp2rcd13ifvqfe0","pricing_plan_id":"free"},{"bike_id":"be96d2d6-4c73-4d2e-bea5-3dc1bd8d085b","system_id":"levelo_inurba_marseille","lat":43.274103,"lon":5.394016,"is_reserved":false,"is_disabled":false,"rental_uris":{"android":"levelo://app?vid=be96d2d6-4c73-4d2e-bea5-3dc1bd8d085b","ios":"levelo://app?vid=be96d2d6-4c73-4d2e-bea5-3dc1bd8d085b"},"vehicle_type_id":"4","last_reported":1703146166,"current_range_meters":19600,"station_id":"ce4bhdp2rcd13ifvqf20","pricing_plan_id":"free"},{"bike_id":"e020b1e5-cfff-43ee-8c0b-e286723823a4","system_id":"levelo_inurba_marseille","lat":43.304096,"lon":5.425385,"is_reserved":false,"is_disabled":false,"rental_uris":{"android":"levelo://app?vid=e020b1e5-cfff-43ee-8c0b-e286723823a4","ios":"levelo://app?vid=e020b1e5-cfff-43ee-8c0b-e286723823a4"},"vehicle_type_id":"4","last_reported":1703146166,"current_range_meters":25600,"station_id":"ce4bhoh2rcd13ifvqh6g","pricing_plan_id":"free"},{"bike_id":"b820e38f-be0d-4e7b-9fb1-dfc16632fe0d","system_id":"levelo_inurba_marseille","lat":43.295511,"lon":5.422926,"is_reserved":false,"is_disabled":false,"rental_uris":{"android":"levelo://app?vid=b820e38f-be0d-4e7b-9fb1-dfc16632fe0d","ios":"levelo://app?vid=b820e38f-be0d-4e7b-9fb1-dfc16632fe0d"},"vehicle_type_id":"4","last_reported":1703146166,"current_range_meters":26000,"station_id":"ce4bhph2rcd13ifvqhdg","pricing_plan_id":"free"},{"bike_id":"b55db1a0-b820-479b-9929-7610c21584c5","system_id":"levelo_inurba_marseille","lat":43.295511,"lon":5.422926,"is_reserved":false,"is_disabled":false,"rental_uris":{"android":"levelo://app?vid=b55db1a0-b820-479b-9929-7610c21584c5","ios":"levelo://app?vid=b55db1a0-b820-479b-9929-7610c21584c5"},"vehicle_type_id":"4","last_reported":1703146166,"current_range_meters":24800,"station_id":"ce4bhph2rcd13ifvqhdg","pricing_plan_id":"free"},{"bike_id":"e1bf0a92-1001-45ad-b936-6f06e086a92c","system_id":"levelo_inurba_marseille","lat":43.295511,"lon":5.422926,"is_reserved":false,"is_disabled":false,"rental_uris":{"android":"levelo://app?vid=e1bf0a92-1001-45ad-b936-6f06e086a92c","ios":"levelo://app?vid=e1bf0a92-1001-45ad-b936-6f06e086a92c"},"vehicle_type_id":"4","last_reported":1703146166,"current_range_meters":4400,"station_id":"ce4bhph2rcd13ifvqhdg","pricing_plan_id":"free"},{"bike_id":"96484c65-8dd7-4167-a438-a7d837c6b7a7","system_id":"levelo_inurba_marseille","lat":43.295523,"lon":5.422926,"is_reserved":false,"is_disabled":false,"rental_uris":{"android":"levelo://app?vid=96484c65-8dd7-4167-a438-a7d837c6b7a7","ios":"levelo://app?vid=96484c65-8dd7-4167-a438-a7d837c6b7a7"},"vehicle_type_id":"4","last_reported":1703146166,"current_range_meters":28000,"station_id":"ce4bhph2rcd13ifvqhdg","pricing_plan_id":"free"},{"bike_id":"5b29fe46-f98b-40e4-8c4c-2a510e7be214","system_id":"levelo_inurba_marseille","lat":43.295511,"lon":5.422926,"is_reserved":false,"is_disabled":false,"rental_uris":{"android":"levelo://app?vid=5b29fe46-f98b-40e4-8c4c-2a510e7be214","ios":"levelo://app?vid=5b29fe46-f98b-40e4-8c4c-2a510e7be214"},"vehicle_type_id":"4","last_reported":1703146166,"current_range_meters":15600,"station_id":"ce4bhph2rcd13ifvqhdg","pricing_plan_id":"free"},{"bike_id":"1e5ff795-5342-4634-857f-a74dea5cd8e2","system_id":"levelo_inurba_marseille","lat":43.272124,"lon":5.391768,"is_reserved":false,"is_disabled":false,"rental_uris":{"android":"levelo://app?vid=1e5ff795-5342-4634-857f-a74dea5cd8e2","ios":"levelo://app?vid=1e5ff795-5342-4634-857f-a74dea5cd8e2"},"vehicle_type_id":"4","last_reported":1703146166,"current_range_meters":18400,"station_id":"ce4bhhp2rcd13ifvqfm0","pricing_plan_id":"free"},{"bike_id":"1cf29c8c-3aa7-45da-9151-6233028e2361","system_id":"levelo_inurba_marseille","lat":43.278128,"lon":5.407195,"is_reserved":false,"is_disabled":false,"rental_uris":{"android":"levelo://app?vid=1cf29c8c-3aa7-45da-9151-6233028e2361","ios":"levelo://app?vid=1cf29c8c-3aa7-45da-9151-6233028e2361"},"vehicle_type_id":"4","last_reported":1703146166,"current_range_meters":31200,"station_id":"ce4bhnh2rcd13ifvqgtg","pricing_plan_id":"free"},{"bike_id":"21a34569-8594-42a0-8533-00e3a5db301d","system_id":"levelo_inurba_marseille","lat":43.278128,"lon":5.407195,"is_reserved":false,"is_disabled":false,"rental_uris":{"android":"levelo://app?vid=21a34569-8594-42a0-8533-00e3a5db301d","ios":"levelo://app?vid=21a34569-8594-42a0-8533-00e3a5db301d"},"vehicle_type_id":"4","last_reported":1703146166,"current_range_meters":28000,"station_id":"ce4bhnh2rcd13ifvqgtg","pricing_plan_id":"free"},{"bike_id":"4552bb57-966d-4b61-af8d-c660c2aaf0eb","system_id":"levelo_inurba_marseille","lat":43.278128,"lon":5.407195,"is_reserved":false,"is_disabled":false,"rental_uris":{"android":"levelo://app?vid=4552bb57-966d-4b61-af8d-c660c2aaf0eb","ios":"levelo://app?vid=4552bb57-966d-4b61-af8d-c660c2aaf0eb"},"vehicle_type_id":"4","last_reported":1703146166,"current_range_meters":2800,"station_id":"ce4bhnh2rcd13ifvqgtg","pricing_plan_id":"free"},{"bike_id":"a2c7d738-9653-4438-a46a-8f1a6a13dcae","system_id":"levelo_inurba_marseille","lat":43.269467,"lon":5.386439,"is_reserved":false,"is_disabled":false,"rental_uris":{"android":"levelo://app?vid=a2c7d738-9653-4438-a46a-8f1a6a13dcae","ios":"levelo://app?vid=a2c7d738-9653-4438-a46a-8f1a6a13dcae"},"vehicle_type_id":"4","last_reported":1703146166,"current_range_meters":24000,"station_id":"ce4bhh92rcd13ifvqfh0","pricing_plan_id":"free"},{"bike_id":"e368d309-2938-4c86-99b1-71b0fef1e6a8","system_id":"levelo_inurba_marseille","lat":43.269467,"lon":5.386439,"is_reserved":false,"is_disabled":false,"rental_uris":{"android":"levelo://app?vid=e368d309-2938-4c86-99b1-71b0fef1e6a8","ios":"levelo://app?vid=e368d309-2938-4c86-99b1-71b0fef1e6a8"},"vehicle_type_id":"4","last_reported":1703146166,"current_range_meters":18800,"station_id":"ce4bhh92rcd13ifvqfh0","pricing_plan_id":"free"},{"bike_id":"9681aff0-da2a-4880-99ea-51fdd1f5202e","system_id":"levelo_inurba_marseille","lat":43.269467,"lon":5.386439,"is_reserved":false,"is_disabled":false,"rental_uris":{"android":"levelo://app?vid=9681aff0-da2a-4880-99ea-51fdd1f5202e","ios":"levelo://app?vid=9681aff0-da2a-4880-99ea-51fdd1f5202e"},"vehicle_type_id":"4","last_reported":1703146166,"current_range_meters":18400,"station_id":"ce4bhh92rcd13ifvqfh0","pricing_plan_id":"free"},{"bike_id":"598218ad-b5ca-4750-a4b2-e5e4a4428022","system_id":"levelo_inurba_marseille","lat":43.269467,"lon":5.386439,"is_reserved":false,"is_disabled":false,"rental_uris":{"android":"levelo://app?vid=598218ad-b5ca-4750-a4b2-e5e4a4428022","ios":"levelo://app?vid=598218ad-b5ca-4750-a4b2-e5e4a4428022"},"vehicle_type_id":"4","last_reported":1703146166,"current_range_meters":28000,"station_id":"ce4bhh92rcd13ifvqfh0","pricing_plan_id":"free"},{"bike_id":"86e873f8-a38e-4794-a872-b5b8802e3aeb","system_id":"levelo_inurba_marseille","lat":43.269467,"lon":5.386439,"is_reserved":false,"is_disabled":false,"rental_uris":{"android":"levelo://app?vid=86e873f8-a38e-4794-a872-b5b8802e3aeb","ios":"levelo://app?vid=86e873f8-a38e-4794-a872-b5b8802e3aeb"},"vehicle_type_id":"4","last_reported":1703146166,"current_range_meters":13600,"station_id":"ce4bhh92rcd13ifvqfh0","pricing_plan_id":"free"},{"bike_id":"54f2e7eb-ce57-4b70-ad6c-b3421601538b","system_id":"levelo_inurba_marseille","lat":43.26954,"lon":5.38635,"is_reserved":false,"is_disabled":false,"rental_uris":{"android":"levelo://app?vid=54f2e7eb-ce57-4b70-ad6c-b3421601538b","ios":"levelo://app?vid=54f2e7eb-ce57-4b70-ad6c-b3421601538b"},"vehicle_type_id":"4","last_reported":1703146166,"current_range_meters":26400,"station_id":"ce4bhh92rcd13ifvqfh0","pricing_plan_id":"free"},{"bike_id":"7e9c2d59-c8cd-4749-853a-de401ef5c64b","system_id":"levelo_inurba_marseille","lat":43.269467,"lon":5.386439,"is_reserved":false,"is_disabled":false,"rental_uris":{"android":"levelo://app?vid=7e9c2d59-c8cd-4749-853a-de401ef5c64b","ios":"levelo://app?vid=7e9c2d59-c8cd-4749-853a-de401ef5c64b"},"vehicle_type_id":"4","last_reported":1703146166,"current_range_meters":24400,"station_id":"ce4bhh92rcd13ifvqfh0","pricing_plan_id":"free"},{"bike_id":"213e632f-c9b3-4a50-b82d-687eaf5bde3b","system_id":"levelo_inurba_marseille","lat":43.269467,"lon":5.386439,"is_reserved":false,"is_disabled":false,"rental_uris":{"android":"levelo://app?vid=213e632f-c9b3-4a50-b82d-687eaf5bde3b","ios":"levelo://app?vid=213e632f-c9b3-4a50-b82d-687eaf5bde3b"},"vehicle_type_id":"4","last_reported":1703146166,"current_range_meters":25200,"station_id":"ce4bhh92rcd13ifvqfh0","pricing_plan_id":"free"},{"bike_id":"934e6eae-f346-4018-bb25-353c75a5712b","system_id":"levelo_inurba_marseille","lat":43.26953,"lon":5.38637,"is_reserved":false,"is_disabled":false,"rental_uris":{"android":"levelo://app?vid=934e6eae-f346-4018-bb25-353c75a5712b","ios":"levelo://app?vid=934e6eae-f346-4018-bb25-353c75a5712b"},"vehicle_type_id":"4","last_reported":1703146166,"current_range_meters":25200,"station_id":"ce4bhh92rcd13ifvqfh0","pricing_plan_id":"free"},{"bike_id":"919201fc-c2d1-4af5-9310-baef3d4928e1","system_id":"levelo_inurba_marseille","lat":43.269467,"lon":5.386439,"is_reserved":false,"is_disabled":false,"rental_uris":{"android":"levelo://app?vid=919201fc-c2d1-4af5-9310-baef3d4928e1","ios":"levelo://app?vid=919201fc-c2d1-4af5-9310-baef3d4928e1"},"vehicle_type_id":"4","last_reported":1703146166,"current_range_meters":26400,"station_id":"ce4bhh92rcd13ifvqfh0","pricing_plan_id":"free"},{"bike_id":"69422865-249b-4ba9-a8f2-9f12f17374f4","system_id":"levelo_inurba_marseille","lat":43.269467,"lon":5.386439,"is_reserved":false,"is_disabled":false,"rental_uris":{"android":"levelo://app?vid=69422865-249b-4ba9-a8f2-9f12f17374f4","ios":"levelo://app?vid=69422865-249b-4ba9-a8f2-9f12f17374f4"},"vehicle_type_id":"4","last_reported":1703146166,"current_range_meters":21200,"station_id":"ce4bhh92rcd13ifvqfh0","pricing_plan_id":"free"},{"bike_id":"62ff5928-391e-4c8a-b35f-7ef5683e115e","system_id":"levelo_inurba_marseille","lat":43.2795,"lon":5.41047,"is_reserved":false,"is_disabled":false,"rental_uris":{"android":"levelo://app?vid=62ff5928-391e-4c8a-b35f-7ef5683e115e","ios":"levelo://app?vid=62ff5928-391e-4c8a-b35f-7ef5683e115e"},"vehicle_type_id":"4","last_reported":1703146166,"current_range_meters":28400,"station_id":"ce4bhnp2rcd13ifvqh0g","pricing_plan_id":"free"},{"bike_id":"15e97754-3170-45f7-876f-aac75b656ea9","system_id":"levelo_inurba_marseille","lat":43.279465,"lon":5.410561,"is_reserved":false,"is_disabled":false,"rental_uris":{"android":"levelo://app?vid=15e97754-3170-45f7-876f-aac75b656ea9","ios":"levelo://app?vid=15e97754-3170-45f7-876f-aac75b656ea9"},"vehicle_type_id":"4","last_reported":1703146166,"current_range_meters":2800,"station_id":"ce4bhnp2rcd13ifvqh0g","pricing_plan_id":"free"},{"bike_id":"22d122b5-f660-47aa-9af5-32c09c4686c1","system_id":"levelo_inurba_marseille","lat":43.269319,"lon":5.389397,"is_reserved":false,"is_disabled":false,"rental_uris":{"android":"levelo://app?vid=22d122b5-f660-47aa-9af5-32c09c4686c1","ios":"levelo://app?vid=22d122b5-f660-47aa-9af5-32c09c4686c1"},"vehicle_type_id":"4","last_reported":1703146166,"current_range_meters":26000,"station_id":"ce4bhhh2rcd13ifvqfl0","pricing_plan_id":"free"},{"bike_id":"0aa1843e-67ca-41e1-80e4-b7cba621e9b6","system_id":"levelo_inurba_marseille","lat":43.26681,"lon":5.382694,"is_reserved":false,"is_disabled":false,"rental_uris":{"android":"levelo://app?vid=0aa1843e-67ca-41e1-80e4-b7cba621e9b6","ios":"levelo://app?vid=0aa1843e-67ca-41e1-80e4-b7cba621e9b6"},"vehicle_type_id":"4","last_reported":1703146166,"current_range_meters":18000,"station_id":"ce4bhg92rcd13ifvqf90","pricing_plan_id":"free"},{"bike_id":"177828f6-b3f8-467c-a5bc-6758ba6b1013","system_id":"levelo_inurba_marseille","lat":43.26684,"lon":5.38272,"is_reserved":false,"is_disabled":false,"rental_uris":{"android":"levelo://app?vid=177828f6-b3f8-467c-a5bc-6758ba6b1013","ios":"levelo://app?vid=177828f6-b3f8-467c-a5bc-6758ba6b1013"},"vehicle_type_id":"4","last_reported":1703146166,"current_range_meters":27600,"station_id":"ce4bhg92rcd13ifvqf90","pricing_plan_id":"free"},{"bike_id":"e4aead73-a308-47c2-997c-b375658ac6f2","system_id":"levelo_inurba_marseille","lat":43.26681,"lon":5.382694,"is_reserved":false,"is_disabled":false,"rental_uris":{"android":"levelo://app?vid=e4aead73-a308-47c2-997c-b375658ac6f2","ios":"levelo://app?vid=e4aead73-a308-47c2-997c-b375658ac6f2"},"vehicle_type_id":"4","last_reported":1703146166,"current_range_meters":16800,"station_id":"ce4bhg92rcd13ifvqf90","pricing_plan_id":"free"},{"bike_id":"0ed87846-2b7c-485f-8548-009efb7438a1","system_id":"levelo_inurba_marseille","lat":43.26681,"lon":5.382694,"is_reserved":false,"is_disabled":false,"rental_uris":{"android":"levelo://app?vid=0ed87846-2b7c-485f-8548-009efb7438a1","ios":"levelo://app?vid=0ed87846-2b7c-485f-8548-009efb7438a1"},"vehicle_type_id":"4","last_reported":1703146166,"current_range_meters":13600,"station_id":"ce4bhg92rcd13ifvqf90","pricing_plan_id":"free"},{"bike_id":"a9ba4e8b-8bde-4838-a4d5-b5a8c970b833","system_id":"levelo_inurba_marseille","lat":43.26681,"lon":5.382694,"is_reserved":false,"is_disabled":false,"rental_uris":{"android":"levelo://app?vid=a9ba4e8b-8bde-4838-a4d5-b5a8c970b833","ios":"levelo://app?vid=a9ba4e8b-8bde-4838-a4d5-b5a8c970b833"},"vehicle_type_id":"4","last_reported":1703146166,"current_range_meters":22800,"station_id":"ce4bhg92rcd13ifvqf90","pricing_plan_id":"free"},{"bike_id":"28409cfa-9604-442b-9a4d-7f70005b036e","system_id":"levelo_inurba_marseille","lat":43.26681,"lon":5.382694,"is_reserved":false,"is_disabled":false,"rental_uris":{"android":"levelo://app?vid=28409cfa-9604-442b-9a4d-7f70005b036e","ios":"levelo://app?vid=28409cfa-9604-442b-9a4d-7f70005b036e"},"vehicle_type_id":"4","last_reported":1703146166,"current_range_meters":28400,"station_id":"ce4bhg92rcd13ifvqf90","pricing_plan_id":"free"},{"bike_id":"9c630a4f-eeb3-43c0-bfc9-d290120134be","system_id":"levelo_inurba_marseille","lat":43.26681,"lon":5.382694,"is_reserved":false,"is_disabled":false,"rental_uris":{"android":"levelo://app?vid=9c630a4f-eeb3-43c0-bfc9-d290120134be","ios":"levelo://app?vid=9c630a4f-eeb3-43c0-bfc9-d290120134be"},"vehicle_type_id":"4","last_reported":1703146166,"current_range_meters":6400,"station_id":"ce4bhg92rcd13ifvqf90","pricing_plan_id":"free"},{"bike_id":"90200eee-154d-401e-bd79-3be1f6e255b0","system_id":"levelo_inurba_marseille","lat":43.265714,"lon":5.372891,"is_reserved":false,"is_disabled":false,"rental_uris":{"android":"levelo://app?vid=90200eee-154d-401e-bd79-3be1f6e255b0","ios":"levelo://app?vid=90200eee-154d-401e-bd79-3be1f6e255b0"},"vehicle_type_id":"4","last_reported":1703146166,"current_range_meters":30800,"station_id":"ce4bhg12rcd13ifvqf70","pricing_plan_id":"free"},{"bike_id":"e5eee720-81cd-4487-a969-6c8bb657cefd","system_id":"levelo_inurba_marseille","lat":43.2799,"lon":5.41657,"is_reserved":false,"is_disabled":false,"rental_uris":{"android":"levelo://app?vid=e5eee720-81cd-4487-a969-6c8bb657cefd","ios":"levelo://app?vid=e5eee720-81cd-4487-a969-6c8bb657cefd"},"vehicle_type_id":"4","last_reported":1703146166,"current_range_meters":0,"station_id":"ce4bho12rcd13ifvqh1g","pricing_plan_id":"free"},{"bike_id":"cdfb2c46-8267-4030-93b2-f10d6ad6f5ce","system_id":"levelo_inurba_marseille","lat":43.267966,"lon":5.393976,"is_reserved":false,"is_disabled":false,"rental_uris":{"android":"levelo://app?vid=cdfb2c46-8267-4030-93b2-f10d6ad6f5ce","ios":"levelo://app?vid=cdfb2c46-8267-4030-93b2-f10d6ad6f5ce"},"vehicle_type_id":"4","last_reported":1703146166,"current_range_meters":2400,"station_id":"ce4bhh12rcd13ifvqfg0","pricing_plan_id":"free"},{"bike_id":"f0734ffd-6350-4c03-86dc-84fc1142785b","system_id":"levelo_inurba_marseille","lat":43.26949,"lon":5.40262,"is_reserved":false,"is_disabled":false,"rental_uris":{"android":"levelo://app?vid=f0734ffd-6350-4c03-86dc-84fc1142785b","ios":"levelo://app?vid=f0734ffd-6350-4c03-86dc-84fc1142785b"},"vehicle_type_id":"4","last_reported":1703146166,"current_range_meters":18400,"station_id":"cjm6bp8fraef2m0cb0m0","pricing_plan_id":"free"},{"bike_id":"3e8209a5-f2ac-41b5-a4c3-19e00ecb278a","system_id":"levelo_inurba_marseille","lat":43.26949,"lon":5.40262,"is_reserved":false,"is_disabled":false,"rental_uris":{"android":"levelo://app?vid=3e8209a5-f2ac-41b5-a4c3-19e00ecb278a","ios":"levelo://app?vid=3e8209a5-f2ac-41b5-a4c3-19e00ecb278a"},"vehicle_type_id":"4","last_reported":1703146166,"current_range_meters":24400,"station_id":"cjm6bp8fraef2m0cb0m0","pricing_plan_id":"free"},{"bike_id":"e91d9e3f-c3de-410a-a4e0-b659ab14d5a5","system_id":"levelo_inurba_marseille","lat":43.261782,"lon":5.374515,"is_reserved":false,"is_disabled":false,"rental_uris":{"android":"levelo://app?vid=e91d9e3f-c3de-410a-a4e0-b659ab14d5a5","ios":"levelo://app?vid=e91d9e3f-c3de-410a-a4e0-b659ab14d5a5"},"vehicle_type_id":"4","last_reported":1703146166,"current_range_meters":24000,"station_id":"ce4bhgp2rcd13ifvqfc0","pricing_plan_id":"free"},{"bike_id":"db4e1738-1e0e-4f47-ab3c-085538918f03","system_id":"levelo_inurba_marseille","lat":43.261782,"lon":5.374515,"is_reserved":false,"is_disabled":false,"rental_uris":{"android":"levelo://app?vid=db4e1738-1e0e-4f47-ab3c-085538918f03","ios":"levelo://app?vid=db4e1738-1e0e-4f47-ab3c-085538918f03"},"vehicle_type_id":"4","last_reported":1703146166,"current_range_meters":24000,"station_id":"ce4bhgp2rcd13ifvqfc0","pricing_plan_id":"free"},{"bike_id":"8e2293a7-bdf2-4611-a30d-81a7bf4f0010","system_id":"levelo_inurba_marseille","lat":43.26202,"lon":5.379299,"is_reserved":false,"is_disabled":false,"rental_uris":{"android":"levelo://app?vid=8e2293a7-bdf2-4611-a30d-81a7bf4f0010","ios":"levelo://app?vid=8e2293a7-bdf2-4611-a30d-81a7bf4f0010"},"vehicle_type_id":"4","last_reported":1703146166,"current_range_meters":24000,"station_id":"ce4bhjp2rcd13ifvqg90","pricing_plan_id":"free"},{"bike_id":"74e87557-16fd-4015-9249-6ee3bb63732a","system_id":"levelo_inurba_marseille","lat":43.267959,"lon":5.402685,"is_reserved":false,"is_disabled":false,"rental_uris":{"android":"levelo://app?vid=74e87557-16fd-4015-9249-6ee3bb63732a","ios":"levelo://app?vid=74e87557-16fd-4015-9249-6ee3bb63732a"},"vehicle_type_id":"4","last_reported":1703146166,"current_range_meters":8800,"station_id":"ce501612rcd8frsf0b60","pricing_plan_id":"free"},{"bike_id":"8e25da37-639e-44c1-ae03-733a74a24eb2","system_id":"levelo_inurba_marseille","lat":43.267959,"lon":5.402687,"is_reserved":false,"is_disabled":false,"rental_uris":{"android":"levelo://app?vid=8e25da37-639e-44c1-ae03-733a74a24eb2","ios":"levelo://app?vid=8e25da37-639e-44c1-ae03-733a74a24eb2"},"vehicle_type_id":"4","last_reported":1703146166,"current_range_meters":28800,"station_id":"ce501612rcd8frsf0b60","pricing_plan_id":"free"},{"bike_id":"eb71bf5c-b6d6-4435-99d8-0b88dfb9ef2a","system_id":"levelo_inurba_marseille","lat":43.2651,"lon":5.39469,"is_reserved":false,"is_disabled":false,"rental_uris":{"android":"levelo://app?vid=eb71bf5c-b6d6-4435-99d8-0b88dfb9ef2a","ios":"levelo://app?vid=eb71bf5c-b6d6-4435-99d8-0b88dfb9ef2a"},"vehicle_type_id":"4","last_reported":1703146166,"current_range_meters":18800,"station_id":"ce4bhi12rcd13ifvqfq0","pricing_plan_id":"free"},{"bike_id":"d56886f4-ae2f-4339-bc92-5e1126584cd5","system_id":"levelo_inurba_marseille","lat":43.28157,"lon":5.42641,"is_reserved":false,"is_disabled":false,"rental_uris":{"android":"levelo://app?vid=d56886f4-ae2f-4339-bc92-5e1126584cd5","ios":"levelo://app?vid=d56886f4-ae2f-4339-bc92-5e1126584cd5"},"vehicle_type_id":"4","last_reported":1703146166,"current_range_meters":0,"station_id":"ce4bhnh2rcd13ifvqgug","pricing_plan_id":"free"},{"bike_id":"d88e0296-05e9-495d-813d-293f5acff705","system_id":"levelo_inurba_marseille","lat":43.281548,"lon":5.42643,"is_reserved":false,"is_disabled":false,"rental_uris":{"android":"levelo://app?vid=d88e0296-05e9-495d-813d-293f5acff705","ios":"levelo://app?vid=d88e0296-05e9-495d-813d-293f5acff705"},"vehicle_type_id":"4","last_reported":1703146166,"current_range_meters":20800,"station_id":"ce4bhnh2rcd13ifvqgug","pricing_plan_id":"free"},{"bike_id":"f1fc0061-6850-415d-a8e2-0a92e93b0059","system_id":"levelo_inurba_marseille","lat":43.281548,"lon":5.42643,"is_reserved":false,"is_disabled":false,"rental_uris":{"android":"levelo://app?vid=f1fc0061-6850-415d-a8e2-0a92e93b0059","ios":"levelo://app?vid=f1fc0061-6850-415d-a8e2-0a92e93b0059"},"vehicle_type_id":"4","last_reported":1703146166,"current_range_meters":7600,"station_id":"ce4bhnh2rcd13ifvqgug","pricing_plan_id":"free"},{"bike_id":"0b815215-1d02-46d7-a875-af7b39077361","system_id":"levelo_inurba_marseille","lat":43.281548,"lon":5.42643,"is_reserved":false,"is_disabled":false,"rental_uris":{"android":"levelo://app?vid=0b815215-1d02-46d7-a875-af7b39077361","ios":"levelo://app?vid=0b815215-1d02-46d7-a875-af7b39077361"},"vehicle_type_id":"4","last_reported":1703146166,"current_range_meters":28800,"station_id":"ce4bhnh2rcd13ifvqgug","pricing_plan_id":"free"},{"bike_id":"1ce21548-b1a2-4f98-9cad-34b8dd5d1afd","system_id":"levelo_inurba_marseille","lat":43.281548,"lon":5.42643,"is_reserved":false,"is_disabled":false,"rental_uris":{"android":"levelo://app?vid=1ce21548-b1a2-4f98-9cad-34b8dd5d1afd","ios":"levelo://app?vid=1ce21548-b1a2-4f98-9cad-34b8dd5d1afd"},"vehicle_type_id":"4","last_reported":1703146166,"current_range_meters":18800,"station_id":"ce4bhnh2rcd13ifvqgug","pricing_plan_id":"free"},{"bike_id":"fbba48a9-b43a-49fc-af17-dce7f1a34da6","system_id":"levelo_inurba_marseille","lat":43.281548,"lon":5.42643,"is_reserved":false,"is_disabled":false,"rental_uris":{"android":"levelo://app?vid=fbba48a9-b43a-49fc-af17-dce7f1a34da6","ios":"levelo://app?vid=fbba48a9-b43a-49fc-af17-dce7f1a34da6"},"vehicle_type_id":"4","last_reported":1703146166,"current_range_meters":29600,"station_id":"ce4bhnh2rcd13ifvqgug","pricing_plan_id":"free"},{"bike_id":"7942fcd2-247b-4f07-b81d-f3e0e5c73666","system_id":"levelo_inurba_marseille","lat":43.281548,"lon":5.42643,"is_reserved":false,"is_disabled":false,"rental_uris":{"android":"levelo://app?vid=7942fcd2-247b-4f07-b81d-f3e0e5c73666","ios":"levelo://app?vid=7942fcd2-247b-4f07-b81d-f3e0e5c73666"},"vehicle_type_id":"4","last_reported":1703146166,"current_range_meters":31200,"station_id":"ce4bhnh2rcd13ifvqgug","pricing_plan_id":"free"},{"bike_id":"26b48967-4823-4f06-a3b9-9ac79847c343","system_id":"levelo_inurba_marseille","lat":43.275028,"lon":5.424534,"is_reserved":false,"is_disabled":false,"rental_uris":{"android":"levelo://app?vid=26b48967-4823-4f06-a3b9-9ac79847c343","ios":"levelo://app?vid=26b48967-4823-4f06-a3b9-9ac79847c343"},"vehicle_type_id":"4","last_reported":1703146166,"current_range_meters":18800,"station_id":"ce4bhn92rcd13ifvqgrg","pricing_plan_id":"free"},{"bike_id":"d539178b-f717-44eb-9b50-206cfa7cb568","system_id":"levelo_inurba_marseille","lat":43.275028,"lon":5.424534,"is_reserved":false,"is_disabled":false,"rental_uris":{"android":"levelo://app?vid=d539178b-f717-44eb-9b50-206cfa7cb568","ios":"levelo://app?vid=d539178b-f717-44eb-9b50-206cfa7cb568"},"vehicle_type_id":"4","last_reported":1703146166,"current_range_meters":27600,"station_id":"ce4bhn92rcd13ifvqgrg","pricing_plan_id":"free"},{"bike_id":"fcb5238d-712c-489c-9cf0-d1833758fe50","system_id":"levelo_inurba_marseille","lat":43.275028,"lon":5.424534,"is_reserved":false,"is_disabled":false,"rental_uris":{"android":"levelo://app?vid=fcb5238d-712c-489c-9cf0-d1833758fe50","ios":"levelo://app?vid=fcb5238d-712c-489c-9cf0-d1833758fe50"},"vehicle_type_id":"4","last_reported":1703146166,"current_range_meters":19600,"station_id":"ce4bhn92rcd13ifvqgrg","pricing_plan_id":"free"},{"bike_id":"a687fde5-03d3-4ac0-8356-0d7b72aa0fe5","system_id":"levelo_inurba_marseille","lat":43.275028,"lon":5.424534,"is_reserved":false,"is_disabled":false,"rental_uris":{"android":"levelo://app?vid=a687fde5-03d3-4ac0-8356-0d7b72aa0fe5","ios":"levelo://app?vid=a687fde5-03d3-4ac0-8356-0d7b72aa0fe5"},"vehicle_type_id":"4","last_reported":1703146166,"current_range_meters":22400,"station_id":"ce4bhn92rcd13ifvqgrg","pricing_plan_id":"free"},{"bike_id":"8580f3b2-ddba-45f7-8f72-56a50467ebe7","system_id":"levelo_inurba_marseille","lat":43.275028,"lon":5.424534,"is_reserved":false,"is_disabled":false,"rental_uris":{"android":"levelo://app?vid=8580f3b2-ddba-45f7-8f72-56a50467ebe7","ios":"levelo://app?vid=8580f3b2-ddba-45f7-8f72-56a50467ebe7"},"vehicle_type_id":"4","last_reported":1703146166,"current_range_meters":29600,"station_id":"ce4bhn92rcd13ifvqgrg","pricing_plan_id":"free"},{"bike_id":"ffc8c699-7c74-4c53-91ca-960c8592e1d1","system_id":"levelo_inurba_marseille","lat":43.275028,"lon":5.424534,"is_reserved":false,"is_disabled":false,"rental_uris":{"android":"levelo://app?vid=ffc8c699-7c74-4c53-91ca-960c8592e1d1","ios":"levelo://app?vid=ffc8c699-7c74-4c53-91ca-960c8592e1d1"},"vehicle_type_id":"4","last_reported":1703146166,"current_range_meters":30400,"station_id":"ce4bhn92rcd13ifvqgrg","pricing_plan_id":"free"},