{"last_updated":1752858779,"ttl":60,"version":"2.2","data":{"bikes":[{"bike_id":"53b742a7-31ae-4272-9bba-7740339e2a2f","system_id":"levelo_inurba_marseille","lat":43.33747,"lon":5.37463,"is_reserved":false,"is_disabled":false,"rental_uris":{"android":"levelo://app?vid=53b742a7-31ae-4272-9bba-7740339e2a2f","ios":"levelo://app?vid=53b742a7-31ae-4272-9bba-7740339e2a2f"},"vehicle_type_id":"1","last_reported":1752858779,"current_range_meters":19200,"station_id":"","pricing_plan_id":"cebpf4jnsgd1na2vs0mg"},{"bike_id":"621d337c-16bc-433a-a002-93faa8607013","system_id":"levelo_inurba_marseille","lat":43.2944,"lon":5.397494,"is_reserved":false,"is_disabled":false,"rental_uris":{"android":"levelo://app?vid=621d337c-16bc-433a-a002-93faa8607013","ios":"levelo://app?vid=621d337c-16bc-433a-a002-93faa8607013"},"vehicle_type_id":"4","last_reported":1752858779,"current_range_meters":1600,"station_id":"ce4bh3h2rcd13ifvqdo0","pricing_plan_id":"cebpf4jnsgd1na2vs0mg"},{"bike_id":"6a56b37c-fee9-4589-b2bb-3bb71fdf4400","system_id":"levelo_inurba_marseille","lat":43.27376,"lon":5.3626,"is_reserved":false,"is_disabled":false,"rental_uris":{"android":"levelo://app?vid=6a56b37c-fee9-4589-b2bb-3bb71fdf4400","ios":"levelo://app?vid=6a56b37c-fee9-4589-b2bb-3bb71fdf4400"},"vehicle_type_id":"4","last_reported":1752858779,"current_range_meters":3200,"station_id":"ce4bhbh2rcd13ifvqeo0","pricing_plan_id":"cebpf4jnsgd1na2vs0mg"},{"bike_id":"28875811-f72d-4fd5-8566-34bf0fb7ce6c","system_id":"levelo_inurba_marseille","lat":43.29028,"lon":5.38668,"is_reserved":false,"is_disabled":false,"rental_uris":{"android":"levelo://app?vid=28875811-f72d-4fd5-8566-34bf0fb7ce6c","ios":"levelo://app?vid=28875811-f72d-4fd5-8566-34bf0fb7ce6c"},"vehicle_type_id":"4","last_reported":1752858779,"current_range_meters":5600,"station_id":"ce4bh4p2rcd13ifvqe0g","pricing_plan_id":"cebpf4jnsgd1na2vs0mg"},{"bike_id":"1b304f20-6808-43a7-844d-94ba17661c75","system_id":"levelo_inurba_marseille","lat":43.273743,"lon":5.362567,"is_reserved":false,"is_disabled":false,"rental_uris":{"android":"levelo://app?vid=1b304f20-6808-43a7-844d-94ba17661c75","ios":"levelo://app?vid=1b304f20-6808-43a7-844d-94ba17661c75"},"vehicle_type_id":"4","last_reported":1752858779,"current_range_meters":3600,"station_id":"ce4bhbh2rcd13ifvqeo0","pricing_plan_id":"cebpf4jnsgd1na2vs0mg"},{"bike_id":"ca67e2ac-b464-4712-9005-09954473f1f3","system_id":"levelo_inurba_marseille","lat":43.29362,"lon":5.37851,"is_reserved":false,"is_disabled":false,"rental_uris":{"android":"levelo://app?vid=ca67e2ac-b464-4712-9005-09954473f1f3","ios":"levelo://app?vid=ca67e2ac-b464-4712-9005-09954473f1f3"},"vehicle_type_id":"4","last_reported":1752858779,"current_range_meters":4000,"station_id":"ce4bgjh2rcd13ifvqbf0","pricing_plan_id":"cebpf4jnsgd1na2vs0mg"},{"bike_id":"3df47139-7fbe-438d-b34e-32f867c9b09d","system_id":"levelo_inurba_marseille","lat":43.28854,"lon":5.35842,"is_reserved":false,"is_disabled":false,"rental_uris":{"android":"levelo://app?vid=3df47139-7fbe-438d-b34e-32f867c9b09d","ios":"levelo://app?vid=3df47139-7fbe-438d-b34e-32f867c9b09d"},"vehicle_type_id":"4","last_reported":1752858779,"current_range_meters":4400,"station_id":"ce4bhb12rcd13ifvqem0","pricing_plan_id":"cebpf4jnsgd1na2vs0mg"},{"bike_id":"efcffd74-9dbe-4764-8c8d-54fb193cabb3","system_id":"levelo_inurba_marseille","lat":43.217518,"lon":5.346013,"is_reserved":false,"is_disabled":false,"rental_uris":{"android":"levelo://app?vid=efcffd74-9dbe-4764-8c8d-54fb193cabb3","ios":"levelo://app?vid=efcffd74-9dbe-4764-8c8d-54fb193cabb3"},"vehicle_type_id":"4","last_reported":1752858779,"current_range_meters":4400,"station_id":"st_cvj6r9ubvosntc0bgbag","pricing_plan_id":"cebpf4jnsgd1na2vs0mg"},{"bike_id":"7e3a270d-0a4b-455f-943f-313173dc8fa4","system_id":"levelo_inurba_marseille","lat":43.28272,"lon":5.35062,"is_reserved":false,"is_disabled":false,"rental_uris":{"android":"levelo://app?vid=7e3a270d-0a4b-455f-943f-313173dc8fa4","ios":"levelo://app?vid=7e3a270d-0a4b-455f-943f-313173dc8fa4"},"vehicle_type_id":"4","last_reported":1752858779,"current_range_meters":4800,"station_id":"ce4bhbp2rcd13ifvqerg","pricing_plan_id":"cebpf4jnsgd1na2vs0mg"},{"bike_id":"cf820c99-0b6e-4243-ae7c-3883abe25b31","system_id":"levelo_inurba_marseille","lat":43.28609,"lon":5.37066,"is_reserved":false,"is_disabled":false,"rental_uris":{"android":"levelo://app?vid=cf820c99-0b6e-4243-ae7c-3883abe25b31","ios":"levelo://app?vid=cf820c99-0b6e-4243-ae7c-3883abe25b31"},"vehicle_type_id":"4","last_reported":1752858779,"current_range_meters":4800,"station_id":"ce4bht12rcd13ifvqi60","pricing_plan_id":"cebpf4jnsgd1na2vs0mg"},{"bike_id":"ca830025-215f-414c-8edc-96487caf324e","system_id":"levelo_inurba_marseille","lat":43.32294,"lon":5.38271,"is_reserved":false,"is_disabled":false,"rental_uris":{"android":"levelo://app?vid=ca830025-215f-414c-8edc-96487caf324e","ios":"levelo://app?vid=ca830025-215f-414c-8edc-96487caf324e"},"vehicle_type_id":"4","last_reported":1752858779,"current_range_meters":4400,"station_id":"ce4bhr12rcd13ifvqhqg","pricing_plan_id":"cebpf4jnsgd1na2vs0mg"},{"bike_id":"e1388da6-cc93-427a-b49e-94eb1c32fe91","system_id":"levelo_inurba_marseille","lat":43.27385,"lon":5.36276,"is_reserved":false,"is_disabled":false,"rental_uris":{"android":"levelo://app?vid=e1388da6-cc93-427a-b49e-94eb1c32fe91","ios":"levelo://app?vid=e1388da6-cc93-427a-b49e-94eb1c32fe91"},"vehicle_type_id":"4","last_reported":1752858779,"current_range_meters":4800,"station_id":"ce4bhbh2rcd13ifvqeo0","pricing_plan_id":"cebpf4jnsgd1na2vs0mg"},{"bike_id":"12773b3e-e522-434e-be83-78ff55da8399","system_id":"levelo_inurba_marseille","lat":43.23063,"lon":5.35491,"is_reserved":false,"is_disabled":false,"rental_uris":{"android":"levelo://app?vid=12773b3e-e522-434e-be83-78ff55da8399","ios":"levelo://app?vid=12773b3e-e522-434e-be83-78ff55da8399"},"vehicle_type_id":"4","last_reported":1752858779,"current_range_meters":4800,"station_id":"cpo3342slgdg3j2ifvpg","pricing_plan_id":"cebpf4jnsgd1na2vs0mg"},{"bike_id":"d7c21938-e80d-4231-8255-ae477eef503b","system_id":"levelo_inurba_marseille","lat":43.243955,"lon":5.370628,"is_reserved":false,"is_disabled":false,"rental_uris":{"android":"levelo://app?vid=d7c21938-e80d-4231-8255-ae477eef503b","ios":"levelo://app?vid=d7c21938-e80d-4231-8255-ae477eef503b"},"vehicle_type_id":"4","last_reported":1752858779,"current_range_meters":5600,"station_id":"ce4bhhh2rcd13ifvqfk0","pricing_plan_id":"cebpf4jnsgd1na2vs0mg"},{"bike_id":"9ee2b021-bc47-4ada-a032-97d7b74ba526","system_id":"levelo_inurba_marseille","lat":43.2407,"lon":5.37771,"is_reserved":false,"is_disabled":false,"rental_uris":{"android":"levelo://app?vid=9ee2b021-bc47-4ada-a032-97d7b74ba526","ios":"levelo://app?vid=9ee2b021-bc47-4ada-a032-97d7b74ba526"},"vehicle_type_id":"4","last_reported":1752858779,"current_range_meters":4800,"station_id":"ce4bhnp2rcd13ifvqgvg","pricing_plan_id":"cebpf4jnsgd1na2vs0mg"},{"bike_id":"20e1cc30-ccbe-478e-bcb7-dc20e13576d1","system_id":"levelo_inurba_marseille","lat":43.28435,"lon":5.34976,"is_reserved":false,"is_disabled":true,"rental_uris":{"android":"levelo://app?vid=20e1cc30-ccbe-478e-bcb7-dc20e13576d1","ios":"levelo://app?vid=20e1cc30-ccbe-478e-bcb7-dc20e13576d1"},"vehicle_type_id":"4","last_reported":1752858779,"current_range_meters":6000,"station_id":"ce4bhbh2rcd13ifvqepg","pricing_plan_id":"cebpf4jnsgd1na2vs0mg"},{"bike_id":"81f88721-00d0-431c-83bf-446e11578408","system_id":"levelo_inurba_marseille","lat":43.225038,"lon":5.347854,"is_reserved":false,"is_disabled":false,"rental_uris":{"android":"levelo://app?vid=81f88721-00d0-431c-83bf-446e11578408","ios":"levelo://app?vid=81f88721-00d0-431c-83bf-446e11578408"},"vehicle_type_id":"4","last_reported":1752858779,"current_range_meters":6000,"station_id":"st_cvj5dfep6f1abm77gieg","pricing_plan_id":"cebpf4jnsgd1na2vs0mg"},{"bike_id":"9042c2e5-b70c-470c-b250-ab450dc4048e","system_id":"levelo_inurba_marseille","lat":43.33758,"lon":5.37462,"is_reserved":false,"is_disabled":false,"rental_uris":{"android":"levelo://app?vid=9042c2e5-b70c-470c-b250-ab450dc4048e","ios":"levelo://app?vid=9042c2e5-b70c-470c-b250-ab450dc4048e"},"vehicle_type_id":"4","last_reported":1752858779,"current_range_meters":6400,"station_id":"ce4bhbp2rcd13ifvqesg","pricing_plan_id":"cebpf4jnsgd1na2vs0mg"},{"bike_id":"e7a60ec7-0a37-4976-90f6-8edabc84d657","system_id":"levelo_inurba_marseille","lat":43.28853,"lon":5.35842,"is_reserved":false,"is_disabled":false,"rental_uris":{"android":"levelo://app?vid=e7a60ec7-0a37-4976-90f6-8edabc84d657","ios":"levelo://app?vid=e7a60ec7-0a37-4976-90f6-8edabc84d657"},"vehicle_type_id":"4","last_reported":1752858779,"current_range_meters":6400,"station_id":"ce4bhb12rcd13ifvqem0","pricing_plan_id":"cebpf4jnsgd1na2vs0mg"},{"bike_id":"8eac5718-80d2-457b-9720-f034d8de9435","system_id":"levelo_inurba_marseille","lat":43.27908,"lon":5.38017,"is_reserved":false,"is_disabled":false,"rental_uris":{"android":"levelo://app?vid=8eac5718-80d2-457b-9720-f034d8de9435","ios":"levelo://app?vid=8eac5718-80d2-457b-9720-f034d8de9435"},"vehicle_type_id":"4","last_reported":1752858779,"current_range_meters":6400,"station_id":"ce4bhf92rcd13ifvqf50","pricing_plan_id":"cebpf4jnsgd1na2vs0mg"},{"bike_id":"ae1f897e-7ff2-4601-92b5-59541d08c729","system_id":"levelo_inurba_marseille","lat":43.284061,"lon":5.349803,"is_reserved":false,"is_disabled":false,"rental_uris":{"android":"levelo://app?vid=ae1f897e-7ff2-4601-92b5-59541d08c729","ios":"levelo://app?vid=ae1f897e-7ff2-4601-92b5-59541d08c729"},"vehicle_type_id":"4","last_reported":1752858779,"current_range_meters":6800,"station_id":"ce4bhbh2rcd13ifvqepg","pricing_plan_id":"cebpf4jnsgd1na2vs0mg"},{"bike_id":"672e62be-08f7-4b44-a8c9-5f8d0b5b7450","system_id":"levelo_inurba_marseille","lat":43.22501,"lon":5.34786,"is_reserved":false,"is_disabled":false,"rental_uris":{"android":"levelo://app?vid=672e62be-08f7-4b44-a8c9-5f8d0b5b7450","ios":"levelo://app?vid=672e62be-08f7-4b44-a8c9-5f8d0b5b7450"},"vehicle_type_id":"4","last_reported":1752858779,"current_range_meters":6800,"station_id":"st_cvj5dfep6f1abm77gieg","pricing_plan_id":"cebpf4jnsgd1na2vs0mg"},{"bike_id":"04d15a50-cb94-495c-969c-c09473f1fcda","system_id":"levelo_inurba_marseille","lat":43.296196,"lon":5.377039,"is_reserved":false,"is_disabled":true,"rental_uris":{"android":"levelo://app?vid=04d15a50-cb94-495c-969c-c09473f1fcda","ios":"levelo://app?vid=04d15a50-cb94-495c-969c-c09473f1fcda"},"vehicle_type_id":"4","last_reported":1752858779,"current_range_meters":7200,"station_id":"","pricing_plan_id":"cebpf4jnsgd1na2vs0mg"},{"bike_id":"015e2317-6c66-4d52-9650-fc42e795f182","system_id":"levelo_inurba_marseille","lat":43.3061,"lon":5.39367,"is_reserved":false,"is_disabled":true,"rental_uris":{"android":"levelo://app?vid=015e2317-6c66-4d52-9650-fc42e795f182","ios":"levelo://app?vid=015e2317-6c66-4d52-9650-fc42e795f182"},"vehicle_type_id":"4","last_reported":1752858779,"current_range_meters":7200,"station_id":"ce4bh0p2rcd13ifvqd80","pricing_plan_id":"cebpf4jnsgd1na2vs0mg"},{"bike_id":"0d3baa37-ae3a-4d8f-9bb3-17f5c206f714","system_id":"levelo_inurba_marseille","lat":43.2901,"lon":5.3561,"is_reserved":false,"is_disabled":false,"rental_uris":{"android":"levelo://app?vid=0d3baa37-ae3a-4d8f-9bb3-17f5c206f714","ios":"levelo://app?vid=0d3baa37-ae3a-4d8f-9bb3-17f5c206f714"},"vehicle_type_id":"4","last_reported":1752858779,"current_range_meters":7200,"station_id":"ce4bhb92rcd13ifvqen0","pricing_plan_id":"cebpf4jnsgd1na2vs0mg"},{"bike_id":"cbd22dea-b06f-4b5b-a80d-95621927338d","system_id":"levelo_inurba_marseille","lat":43.28267,"lon":5.35065,"is_reserved":false,"is_disabled":false,"rental_uris":{"android":"levelo://app?vid=cbd22dea-b06f-4b5b-a80d-95621927338d","ios":"levelo://app?vid=cbd22dea-b06f-4b5b-a80d-95621927338d"},"vehicle_type_id":"4","last_reported":1752858779,"current_range_meters":7200,"station_id":"ce4bhbp2rcd13ifvqerg","pricing_plan_id":"cebpf4jnsgd1na2vs0mg"},{"bike_id":"e95b1477-33a1-48a7-a021-3878a6895222","system_id":"levelo_inurba_marseille","lat":43.217536,"lon":5.345958,"is_reserved":false,"is_disabled":false,"rental_uris":{"android":"levelo://app?vid=e95b1477-33a1-48a7-a021-3878a6895222","ios":"levelo://app?vid=e95b1477-33a1-48a7-a021-3878a6895222"},"vehicle_type_id":"4","last_reported":1752858779,"current_range_meters":7200,"station_id":"st_cvj6r9ubvosntc0bgbag","pricing_plan_id":"cebpf4jnsgd1na2vs0mg"},{"bike_id":"977b840f-6a43-46cd-8e21-1ff87c77fbc2","system_id":"levelo_inurba_marseille","lat":43.28279,"lon":5.3507,"is_reserved":false,"is_disabled":false,"rental_uris":{"android":"levelo://app?vid=977b840f-6a43-46cd-8e21-1ff87c77fbc2","ios":"levelo://app?vid=977b840f-6a43-46cd-8e21-1ff87c77fbc2"},"vehicle_type_id":"4","last_reported":1752858779,"current_range_meters":7200,"station_id":"ce4bhbp2rcd13ifvqerg","pricing_plan_id":"cebpf4jnsgd1na2vs0mg"},{"bike_id":"a8c7f3a5-a724-4f57-9f8c-595e0c420556","system_id":"levelo_inurba_marseille","lat":43.27373,"lon":5.36245,"is_reserved":false,"is_disabled":false,"rental_uris":{"android":"levelo://app?vid=a8c7f3a5-a724-4f57-9f8c-595e0c420556","ios":"levelo://app?vid=a8c7f3a5-a724-4f57-9f8c-595e0c420556"},"vehicle_type_id":"4","last_reported":1752858779,"current_range_meters":7200,"station_id":"ce4bhbh2rcd13ifvqeo0","pricing_plan_id":"cebpf4jnsgd1na2vs0mg"},{"bike_id":"53667fb2-2381-4886-9665-89e9a1877149","system_id":"levelo_inurba_marseille","lat":43.2795,"lon":5.41051,"is_reserved":false,"is_disabled":false,"rental_uris":{"android":"levelo://app?vid=53667fb2-2381-4886-9665-89e9a1877149","ios":"levelo://app?vid=53667fb2-2381-4886-9665-89e9a1877149"},"vehicle_type_id":"4","last_reported":1752858779,"current_range_meters":8000,"station_id":"ce4bhnp2rcd13ifvqh0g","pricing_plan_id":"cebpf4jnsgd1na2vs0mg"},{"bike_id":"3444bdc6-514a-4ba6-9650-f9073305e33d","system_id":"levelo_inurba_marseille","lat":43.29682,"lon":5.3698,"is_reserved":false,"is_disabled":false,"rental_uris":{"android":"levelo://app?vid=3444bdc6-514a-4ba6-9650-f9073305e33d","ios":"levelo://app?vid=3444bdc6-514a-4ba6-9650-f9073305e33d"},"vehicle_type_id":"4","last_reported":1752858779,"current_range_meters":8000,"station_id":"","pricing_plan_id":"cebpf4jnsgd1na2vs0mg"},{"bike_id":"fcb43646-13dd-4cea-b3e4-460cae3cbed7","system_id":"levelo_inurba_marseille","lat":43.22525,"lon":5.34767,"is_reserved":false,"is_disabled":false,"rental_uris":{"android":"levelo://app?vid=fcb43646-13dd-4cea-b3e4-460cae3cbed7","ios":"levelo://app?vid=fcb43646-13dd-4cea-b3e4-460cae3cbed7"},"vehicle_type_id":"4","last_reported":1752858779,"current_range_meters":8000,"station_id":"st_cvj5dfep6f1abm77gieg","pricing_plan_id":"cebpf4jnsgd1na2vs0mg"},{"bike_id":"7ad939e4-3617-4f34-b8af-9c5075d551c0","system_id":"levelo_inurba_marseille","lat":43.2679,"lon":5.39406,"is_reserved":false,"is_disabled":false,"rental_uris":{"android":"levelo://app?vid=7ad939e4-3617-4f34-b8af-9c5075d551c0","ios":"levelo://app?vid=7ad939e4-3617-4f34-b8af-9c5075d551c0"},"vehicle_type_id":"4","last_reported":1752858779,"current_range_meters":8000,"station_id":"ce4bhh12rcd13ifvqfg0","pricing_plan_id":"cebpf4jnsgd1na2vs0mg"},{"bike_id":"555bc53e-5286-4fb6-9154-af42b3fd9792","system_id":"levelo_inurba_marseille","lat":43.300592,"lon":5.372978,"is_reserved":false,"is_disabled":false,"rental_uris":{"android":"levelo://app?vid=555bc53e-5286-4fb6-9154-af42b3fd9792","ios":"levelo://app?vid=555bc53e-5286-4fb6-9154-af42b3fd9792"},"vehicle_type_id":"4","last_reported":1752858779,"current_range_meters":8000,"station_id":"","pricing_plan_id":"cebpf4jnsgd1na2vs0mg"},{"bike_id":"f23216d2-d51b-4f8b-91f2-65e6c4109933","system_id":"levelo_inurba_marseille","lat":43.28272,"lon":5.35062,"is_reserved":false,"is_disabled":false,"rental_uris":{"android":"levelo://app?vid=f23216d2-d51b-4f8b-91f2-65e6c4109933","ios":"levelo://app?vid=f23216d2-d51b-4f8b-91f2-65e6c4109933"},"vehicle_type_id":"4","last_reported":1752858779,"current_range_meters":8000,"station_id":"ce4bhbp2rcd13ifvqerg","pricing_plan_id":"cebpf4jnsgd1na2vs0mg"},{"bike_id":"666bba14-c0e5-48e2-8ecc-0121ece4d9cf","system_id":"levelo_inurba_marseille","lat":43.27833,"lon":5.39205,"is_reserved":false,"is_disabled":false,"rental_uris":{"android":"levelo://app?vid=666bba14-c0e5-48e2-8ecc-0121ece4d9cf","ios":"levelo://app?vid=666bba14-c0e5-48e2-8ecc-0121ece4d9cf"},"vehicle_type_id":"4","last_reported":1752858779,"current_range_meters":6400,"station_id":"ce4bhjp2rcd13ifvqga0","pricing_plan_id":"cebpf4jnsgd1na2vs0mg"},{"bike_id":"0596f94b-9486-4e44-9cc6-01705276eb4c","system_id":"levelo_inurba_marseille","lat":43.28272,"lon":5.35063,"is_reserved":false,"is_disabled":false,"rental_uris":{"android":"levelo://app?vid=0596f94b-9486-4e44-9cc6-01705276eb4c","ios":"levelo://app?vid=0596f94b-9486-4e44-9cc6-01705276eb4c"},"vehicle_type_id":"4","last_reported":1752858779,"current_range_meters":8000,"station_id":"ce4bhbp2rcd13ifvqerg","pricing_plan_id":"cebpf4jnsgd1na2vs0mg"},{"bike_id":"07c78484-1292-43c4-93e4-594982ac54a1","system_id":"levelo_inurba_marseille","lat":43.26932,"lon":5.40257,"is_reserved":false,"is_disabled":false,"rental_uris":{"android":"levelo://app?vid=07c78484-1292-43c4-93e4-594982ac54a1","ios":"levelo://app?vid=07c78484-1292-43c4-93e4-594982ac54a1"},"vehicle_type_id":"4","last_reported":1752858779,"current_range_meters":8000,"station_id":"cjm6bp8fraef2m0cb0m0","pricing_plan_id":"cebpf4jnsgd1na2vs0mg"},{"bike_id":"d61cf57d-3554-47b9-b3c7-e1696720518a","system_id":"levelo_inurba_marseille","lat":43.28716,"lon":5.36083,"is_reserved":false,"is_disabled":false,"rental_uris":{"android":"levelo://app?vid=d61cf57d-3554-47b9-b3c7-e1696720518a","ios":"levelo://app?vid=d61cf57d-3554-47b9-b3c7-e1696720518a"},"vehicle_type_id":"4","last_reported":1752858779,"current_range_meters":8000,"station_id":"cki0cbj6b192h4jlfktg","pricing_plan_id":"cebpf4jnsgd1na2vs0mg"},{"bike_id":"be2da928-ba25-43e5-b44b-5fe904b2cb58","system_id":"levelo_inurba_marseille","lat":43.29271,"lon":5.36844,"is_reserved":false,"is_disabled":false,"rental_uris":{"android":"levelo://app?vid=be2da928-ba25-43e5-b44b-5fe904b2cb58","ios":"levelo://app?vid=be2da928-ba25-43e5-b44b-5fe904b2cb58"},"vehicle_type_id":"4","last_reported":1752858779,"current_range_meters":8400,"station_id":"ce4bhbp2rcd13ifvqesg","pricing_plan_id":"cebpf4jnsgd1na2vs0mg"},{"bike_id":"be3047d9-73ae-472e-901b-0242b2b94920","system_id":"levelo_inurba_marseille","lat":43.2656,"lon":5.37282,"is_reserved":false,"is_disabled":false,"rental_uris":{"android":"levelo://app?vid=be3047d9-73ae-472e-901b-0242b2b94920","ios":"levelo://app?vid=be3047d9-73ae-472e-901b-0242b2b94920"},"vehicle_type_id":"4","last_reported":1752858779,"current_range_meters":8400,"station_id":"ce4bhg12rcd13ifvqf70","pricing_plan_id":"cebpf4jnsgd1na2vs0mg"},{"bike_id":"d1b1ae6f-562f-42f0-a958-cbc912a1619d","system_id":"levelo_inurba_marseille","lat":43.2764,"lon":5.36073,"is_reserved":false,"is_disabled":true,"rental_uris":{"android":"levelo://app?vid=d1b1ae6f-562f-42f0-a958-cbc912a1619d","ios":"levelo://app?vid=d1b1ae6f-562f-42f0-a958-cbc912a1619d"},"vehicle_type_id":"4","last_reported":1752858779,"current_range_meters":8400,"station_id":"ce4bgj92rcd13ifvqbe0","pricing_plan_id":"cebpf4jnsgd1na2vs0mg"},{"bike_id":"09c73347-5077-4395-8b92-ee94d41e0a24","system_id":"levelo_inurba_marseille","lat":43.2866,"lon":5.36348,"is_reserved":false,"is_disabled":true,"rental_uris":{"android":"levelo://app?vid=09c73347-5077-4395-8b92-ee94d41e0a24","ios":"levelo://app?vid=09c73347-5077-4395-8b92-ee94d41e0a24"},"vehicle_type_id":"4","last_reported":1752858779,"current_range_meters":8400,"station_id":"ce4bhah2rcd13ifvqej0","pricing_plan_id":"cebpf4jnsgd1na2vs0mg"},{"bike_id":"28d27c17-e6ca-4cec-aec9-f1f6696b8a12","system_id":"levelo_inurba_marseille","lat":43.29929,"lon":5.43665,"is_reserved":false,"is_disabled":true,"rental_uris":{"android":"levelo://app?vid=28d27c17-e6ca-4cec-aec9-f1f6696b8a12","ios":"levelo://app?vid=28d27c17-e6ca-4cec-aec9-f1f6696b8a12"},"vehicle_type_id":"4","last_reported":1752858779,"current_range_meters":8400,"station_id":"","pricing_plan_id":"cebpf4jnsgd1na2vs0mg"},{"bike_id":"2c16edf7-5ade-4450-b264-a118c0a60e8d","system_id":"levelo_inurba_marseille","lat":43.27382,"lon":5.36251,"is_reserved":false,"is_disabled":false,"rental_uris":{"android":"levelo://app?vid=2c16edf7-5ade-4450-b264-a118c0a60e8d","ios":"levelo://app?vid=2c16edf7-5ade-4450-b264-a118c0a60e8d"},"vehicle_type_id":"4","last_reported":1752858779,"current_range_meters":8800,"station_id":"ce4bhbh2rcd13ifvqeo0","pricing_plan_id":"cebpf4jnsgd1na2vs0mg"},{"bike_id":"8388e8dc-9ab1-4131-bc75-e5d14d7d732e","system_id":"levelo_inurba_marseille","lat":43.32114,"lon":5.36767,"is_reserved":false,"is_disabled":false,"rental_uris":{"android":"levelo://app?vid=8388e8dc-9ab1-4131-bc75-e5d14d7d732e","ios":"levelo://app?vid=8388e8dc-9ab1-4131-bc75-e5d14d7d732e"},"vehicle_type_id":"4","last_reported":1752858779,"current_range_meters":8800,"station_id":"ce4bhrh2rcd13ifvqhug","pricing_plan_id":"cebpf4jnsgd1na2vs0mg"},{"bike_id":"b315058f-ef7a-41a0-b37b-bd541cf7a96e","system_id":"levelo_inurba_marseille","lat":43.21761,"lon":5.34597,"is_reserved":false,"is_disabled":false,"rental_uris":{"android":"levelo://app?vid=b315058f-ef7a-41a0-b37b-bd541cf7a96e","ios":"levelo://app?vid=b315058f-ef7a-41a0-b37b-bd541cf7a96e"},"vehicle_type_id":"4","last_reported":1752858779,"current_range_meters":8800,"station_id":"st_cvj6r9ubvosntc0bgbag","pricing_plan_id":"cebpf4jnsgd1na2vs0mg"},{"bike_id":"d677da20-24af-4638-aa44-739ab2e243af","system_id":"levelo_inurba_marseille","lat":43.23084,"lon":5.35476,"is_reserved":false,"is_disabled":false,"rental_uris":{"android":"levelo://app?vid=d677da20-24af-4638-aa44-739ab2e243af","ios":"levelo://app?vid=d677da20-24af-4638-aa44-739ab2e243af"},"vehicle_type_id":"4","last_reported":1752858779,"current_range_meters":8800,"station_id":"cpo3342slgdg3j2ifvpg","pricing_plan_id":"cebpf4jnsgd1na2vs0mg"},{"bike_id":"79e00cba-979b-4370-b320-7e4857db9893","system_id":"levelo_inurba_marseille","lat":43.337444,"lon":5.374475,"is_reserved":false,"is_disabled":false,"rental_uris":{"android":"levelo://app?vid=79e00cba-979b-4370-b320-7e4857db9893","ios":"levelo://app?vid=79e00cba-979b-4370-b320-7e4857db9893"},"vehicle_type_id":"4","last_reported":1752858779,"current_range_meters":8800,"station_id":"","pricing_plan_id":"cebpf4jnsgd1na2vs0mg"},{"bike_id":"5a4e967b-0530-4685-9792-fdc61d201de4","system_id":"levelo_inurba_marseille","lat":43.284161,"lon":5.349791,"is_reserved":false,"is_disabled":false,"rental_uris":{"android":"levelo://app?vid=5a4e967b-0530-4685-9792-fdc61d201de4","ios":"levelo://app?vid=5a4e967b-0530-4685-9792-fdc61d201de4"},"vehicle_type_id":"4","last_reported":1752858779,"current_range_meters":8800,"station_id":"ce4bhbh2rcd13ifvqepg","pricing_plan_id":"cebpf4jnsgd1na2vs0mg"},{"bike_id":"c7fceae5-88e0-48de-904c-f7a08c312910","system_id":"levelo_inurba_marseille","lat":43.27839,"lon":5.39207,"is_reserved":false,"is_disabled":false,"rental_uris":{"android":"levelo://app?vid=c7fceae5-88e0-48de-904c-f7a08c312910","ios":"levelo://app?vid=c7fceae5-88e0-48de-904c-f7a08c312910"},"vehicle_type_id":"4","last_reported":1752858779,"current_range_meters":8800,"station_id":"ce4bhjp2rcd13ifvqga0","pricing_plan_id":"cebpf4jnsgd1na2vs0mg"},{"bike_id":"037e6cec-2e94-402e-9755-895ed2d7b56c","system_id":"levelo_inurba_marseille","lat":43.28612,"lon":5.35118,"is_reserved":false,"is_disabled":false,"rental_uris":{"android":"levelo://app?vid=037e6cec-2e94-402e-9755-895ed2d7b56c","ios":"levelo://app?vid=037e6cec-2e94-402e-9755-895ed2d7b56c"},"vehicle_type_id":"4","last_reported":1752858779,"current_range_meters":8800,"station_id":"ce4bhch2rcd13ifvqeug","pricing_plan_id":"cebpf4jnsgd1na2vs0mg"},{"bike_id":"c2495178-f557-4b30-b46f-0341c51cce8c","system_id":"levelo_inurba_marseille","lat":43.31333,"lon":5.36707,"is_reserved":false,"is_disabled":false,"rental_uris":{"android":"levelo://app?vid=c2495178-f557-4b30-b46f-0341c51cce8c","ios":"levelo://app?vid=c2495178-f557-4b30-b46f-0341c51cce8c"},"vehicle_type_id":"4","last_reported":1752858779,"current_range_meters":8800,"station_id":"ce4bgr92rcd13ifvqc6g","pricing_plan_id":"cebpf4jnsgd1na2vs0mg"},{"bike_id":"476cd778-5765-4bac-a275-9952b72d1181","system_id":"levelo_inurba_marseille","lat":43.28406,"lon":5.34986,"is_reserved":false,"is_disabled":false,"rental_uris":{"android":"levelo://app?vid=476cd778-5765-4bac-a275-9952b72d1181","ios":"levelo://app?vid=476cd778-5765-4bac-a275-9952b72d1181"},"vehicle_type_id":"4","last_reported":1752858779,"current_range_meters":8800,"station_id":"ce4bhbh2rcd13ifvqepg","pricing_plan_id":"cebpf4jnsgd1na2vs0mg"},{"bike_id":"b1cb82b5-a6d7-4683-a49b-16452093419e","system_id":"levelo_inurba_marseille","lat":43.29261,"lon":5.40898,"is_reserved":false,"is_disabled":false,"rental_uris":{"android":"levelo://app?vid=b1cb82b5-a6d7-4683-a49b-16452093419e","ios":"levelo://app?vid=b1cb82b5-a6d7-4683-a49b-16452093419e"},"vehicle_type_id":"4","last_reported":1752858779,"current_range_meters":8800,"station_id":"ce4bh192rcd13ifvqdc0","pricing_plan_id":"cebpf4jnsgd1na2vs0mg"},{"bike_id":"ba7c3182-60b5-49ba-b3c7-c047f105435d","system_id":"levelo_inurba_marseille","lat":43.278092,"lon":5.407131,"is_reserved":false,"is_disabled":false,"rental_uris":{"android":"levelo://app?vid=ba7c3182-60b5-49ba-b3c7-c047f105435d","ios":"levelo://app?vid=ba7c3182-60b5-49ba-b3c7-c047f105435d"},"vehicle_type_id":"4","last_reported":1752858779,"current_range_meters":27600,"station_id":"ce4bhnh2rcd13ifvqgtg","pricing_plan_id":"cebpf4jnsgd1na2vs0mg"},{"bike_id":"b052eb96-5c04-4bde-91e8-0648335b66a7","system_id":"levelo_inurba_marseille","lat":43.28466,"lon":5.35886,"is_reserved":false,"is_disabled":false,"rental_uris":{"android":"levelo://app?vid=b052eb96-5c04-4bde-91e8-0648335b66a7","ios":"levelo://app?vid=b052eb96-5c04-4bde-91e8-0648335b66a7"},"vehicle_type_id":"4","last_reported":1752858779,"current_range_meters":8800,"station_id":"ce4bhah2rcd13ifvqei0","pricing_plan_id":"cebpf4jnsgd1na2vs0mg"},{"bike_id":"07f5ae19-0925-43ef-aab4-48ec58bc62b9","system_id":"levelo_inurba_marseille","lat":43.31452,"lon":5.37443,"is_reserved":false,"is_disabled":false,"rental_uris":{"android":"levelo://app?vid=07f5ae19-0925-43ef-aab4-48ec58bc62b9","ios":"levelo://app?vid=07f5ae19-0925-43ef-aab4-48ec58bc62b9"},"vehicle_type_id":"4","last_reported":1752858779,"current_range_meters":8800,"station_id":"","pricing_plan_id":"cebpf4jnsgd1na2vs0mg"},{"bike_id":"022aee0a-21ed-485b-b305-2af36639dc15","system_id":"levelo_inurba_marseille","lat":43.2737,"lon":5.36261,"is_reserved":false,"is_disabled":false,"rental_uris":{"android":"levelo://app?vid=022aee0a-21ed-485b-b305-2af36639dc15","ios":"levelo://app?vid=022aee0a-21ed-485b-b305-2af36639dc15"},"vehicle_type_id":"4","last_reported":1752858779,"current_range_meters":8800,"station_id":"ce4bhbh2rcd13ifvqeo0","pricing_plan_id":"cebpf4jnsgd1na2vs0mg"},{"bike_id":"8aca9a22-f605-4b2e-952a-4ec0423ed2ca","system_id":"levelo_inurba_marseille","lat":43.29006,"lon":5.35623,"is_reserved":false,"is_disabled":false,"rental_uris":{"android":"levelo://app?vid=8aca9a22-f605-4b2e-952a-4ec0423ed2ca","ios":"levelo://app?vid=8aca9a22-f605-4b2e-952a-4ec0423ed2ca"},"vehicle_type_id":"4","last_reported":1752858779,"current_range_meters":9200,"station_id":"ce4bhb92rcd13ifvqen0","pricing_plan_id":"cebpf4jnsgd1na2vs0mg"},{"bike_id":"6a651715-5d26-43b5-8524-00cc23fa11e1","system_id":"levelo_inurba_marseille","lat":43.24805,"lon":5.37459,"is_reserved":false,"is_disabled":false,"rental_uris":{"android":"levelo://app?vid=6a651715-5d26-43b5-8524-00cc23fa11e1","ios":"levelo://app?vid=6a651715-5d26-43b5-8524-00cc23fa11e1"},"vehicle_type_id":"4","last_reported":1752858779,"current_range_meters":8400,"station_id":"ce4bhgh2rcd13ifvqfb0","pricing_plan_id":"cebpf4jnsgd1na2vs0mg"},{"bike_id":"eeb43f80-4452-43d0-ab14-32ac7c54d6e5","system_id":"levelo_inurba_marseille","lat":43.292768,"lon":5.368424,"is_reserved":false,"is_disabled":false,"rental_uris":{"android":"levelo://app?vid=eeb43f80-4452-43d0-ab14-32ac7c54d6e5","ios":"levelo://app?vid=eeb43f80-4452-43d0-ab14-32ac7c54d6e5"},"vehicle_type_id":"4","last_reported":1752858779,"current_range_meters":9200,"station_id":"ce4bhbp2rcd13ifvqesg","pricing_plan_id":"cebpf4jnsgd1na2vs0mg"},{"bike_id":"3ea62d47-5254-49b1-ae19-80961f4f9799","system_id":"levelo_inurba_marseille","lat":43.28864,"lon":5.35854,"is_reserved":false,"is_disabled":false,"rental_uris":{"android":"levelo://app?vid=3ea62d47-5254-49b1-ae19-80961f4f9799","ios":"levelo://app?vid=3ea62d47-5254-49b1-ae19-80961f4f9799"},"vehicle_type_id":"4","last_reported":1752858779,"current_range_meters":9600,"station_id":"ce4bhb12rcd13ifvqem0","pricing_plan_id":"cebpf4jnsgd1na2vs0mg"},{"bike_id":"df26d412-a554-4b06-bb42-f017e0441a26","system_id":"levelo_inurba_marseille","lat":43.282715,"lon":5.350555,"is_reserved":false,"is_disabled":false,"rental_uris":{"android":"levelo://app?vid=df26d412-a554-4b06-bb42-f017e0441a26","ios":"levelo://app?vid=df26d412-a554-4b06-bb42-f017e0441a26"},"vehicle_type_id":"4","last_reported":1752858779,"current_range_meters":9600,"station_id":"ce4bhbp2rcd13ifvqerg","pricing_plan_id":"cebpf4jnsgd1na2vs0mg"},{"bike_id":"2ac93549-5c94-4228-8eea-782a21384d10","system_id":"levelo_inurba_marseille","lat":43.29634,"lon":5.37793,"is_reserved":false,"is_disabled":false,"rental_uris":{"android":"levelo://app?vid=2ac93549-5c94-4228-8eea-782a21384d10","ios":"levelo://app?vid=2ac93549-5c94-4228-8eea-782a21384d10"},"vehicle_type_id":"4","last_reported":1752858779,"current_range_meters":9600,"station_id":"","pricing_plan_id":"cebpf4jnsgd1na2vs0mg"},{"bike_id":"2da4165c-1237-4099-9dbc-54dd268c6bff","system_id":"levelo_inurba_marseille","lat":43.282623,"lon":5.35062,"is_reserved":false,"is_disabled":false,"rental_uris":{"android":"levelo://app?vid=2da4165c-1237-4099-9dbc-54dd268c6bff","ios":"levelo://app?vid=2da4165c-1237-4099-9dbc-54dd268c6bff"},"vehicle_type_id":"4","last_reported":1752858779,"current_range_meters":10000,"station_id":"ce4bhbp2rcd13ifvqerg","pricing_plan_id":"cebpf4jnsgd1na2vs0mg"},{"bike_id":"5775941d-fd18-4bea-95d4-f7cdc23ecdc0","system_id":"levelo_inurba_marseille","lat":43.28842,"lon":5.3931,"is_reserved":false,"is_disabled":false,"rental_uris":{"android":"levelo://app?vid=5775941d-fd18-4bea-95d4-f7cdc23ecdc0","ios":"levelo://app?vid=5775941d-fd18-4bea-95d4-f7cdc23ecdc0"},"vehicle_type_id":"4","last_reported":1752858779,"current_range_meters":10000,"station_id":"ce4bh2p2rcd13ifvqdi0","pricing_plan_id":"cebpf4jnsgd1na2vs0mg"},{"bike_id":"6cfa602d-a9ee-4eae-9c22-e78ad663936e","system_id":"levelo_inurba_marseille","lat":43.29007,"lon":5.35606,"is_reserved":false,"is_disabled":false,"rental_uris":{"android":"levelo://app?vid=6cfa602d-a9ee-4eae-9c22-e78ad663936e","ios":"levelo://app?vid=6cfa602d-a9ee-4eae-9c22-e78ad663936e"},"vehicle_type_id":"4","last_reported":1752858779,"current_range_meters":10000,"station_id":"ce4bhb92rcd13ifvqen0","pricing_plan_id":"cebpf4jnsgd1na2vs0mg"},{"bike_id":"de4e8e0b-9ce9-4550-9cea-cab3cd40bc9d","system_id":"levelo_inurba_marseille","lat":43.268943,"lon":5.393587,"is_reserved":false,"is_disabled":false,"rental_uris":{"android":"levelo://app?vid=de4e8e0b-9ce9-4550-9cea-cab3cd40bc9d","ios":"levelo://app?vid=de4e8e0b-9ce9-4550-9cea-cab3cd40bc9d"},"vehicle_type_id":"4","last_reported":1752858779,"current_range_meters":10000,"station_id":"ce4bhh12rcd13ifvqfg0","pricing_plan_id":"cebpf4jnsgd1na2vs0mg"},{"bike_id":"255f63b3-d391-461e-9168-7b692342f2c5","system_id":"levelo_inurba_marseille","lat":43.21196,"lon":5.35058,"is_reserved":false,"is_disabled":false,"rental_uris":{"android":"levelo://app?vid=255f63b3-d391-461e-9168-7b692342f2c5","ios":"levelo://app?vid=255f63b3-d391-461e-9168-7b692342f2c5"},"vehicle_type_id":"4","last_reported":1752858779,"current_range_meters":10000,"station_id":"st_cvj6sg6p6f1abm77japg","pricing_plan_id":"cebpf4jnsgd1na2vs0mg"},{"bike_id":"db95e740-eceb-414d-aa10-4d4cb996e53f","system_id":"levelo_inurba_marseille","lat":43.30886,"lon":5.37195,"is_reserved":false,"is_disabled":false,"rental_uris":{"android":"levelo://app?vid=db95e740-eceb-414d-aa10-4d4cb996e53f","ios":"levelo://app?vid=db95e740-eceb-414d-aa10-4d4cb996e53f"},"vehicle_type_id":"4","last_reported":1752858779,"current_range_meters":9600,"station_id":"ce4bguh2rcd13ifvqckg","pricing_plan_id":"cebpf4jnsgd1na2vs0mg"},{"bike_id":"f4159938-d08d-4d83-aed8-5b07dae6971c","system_id":"levelo_inurba_marseille","lat":43.29222,"lon":5.36059,"is_reserved":false,"is_disabled":false,"rental_uris":{"android":"levelo://app?vid=f4159938-d08d-4d83-aed8-5b07dae6971c","ios":"levelo://app?vid=f4159938-d08d-4d83-aed8-5b07dae6971c"},"vehicle_type_id":"4","last_reported":1752858779,"current_range_meters":10000,"station_id":"ce4bhbh2rcd13ifvqeqg","pricing_plan_id":"cebpf4jnsgd1na2vs0mg"},{"bike_id":"e555b545-304c-4dce-8496-1643c0f2600e","system_id":"levelo_inurba_marseille","lat":43.337444,"lon":5.374475,"is_reserved":false,"is_disabled":false,"rental_uris":{"android":"levelo://app?vid=e555b545-304c-4dce-8496-1643c0f2600e","ios":"levelo://app?vid=e555b545-304c-4dce-8496-1643c0f2600e"},"vehicle_type_id":"4","last_reported":1752858779,"current_range_meters":10000,"station_id":"","pricing_plan_id":"cebpf4jnsgd1na2vs0mg"},{"bike_id":"9430a2ab-c757-4938-a63f-0682d6b03233","system_id":"levelo_inurba_marseille","lat":43.28963,"lon":5.36628,"is_reserved":false,"is_disabled":false,"rental_uris":{"android":"levelo://app?vid=9430a2ab-c757-4938-a63f-0682d6b03233","ios":"levelo://app?vid=9430a2ab-c757-4938-a63f-0682d6b03233"},"vehicle_type_id":"4","last_reported":1752858779,"current_range_meters":10000,"station_id":"ce4bhap2rcd13ifvqek0","pricing_plan_id":"cebpf4jnsgd1na2vs0mg"},{"bike_id":"0af88599-6653-4379-a21b-d902e6c6ea7c","system_id":"levelo_inurba_marseille","lat":43.284273,"lon":5.34978,"is_reserved":false,"is_disabled":false,"rental_uris":{"android":"levelo://app?vid=0af88599-6653-4379-a21b-d902e6c6ea7c","ios":"levelo://app?vid=0af88599-6653-4379-a21b-d902e6c6ea7c"},"vehicle_type_id":"4","last_reported":1752858779,"current_range_meters":10800,"station_id":"ce4bhbh2rcd13ifvqepg","pricing_plan_id":"cebpf4jnsgd1na2vs0mg"},{"bike_id":"d84e942b-5f3c-4596-9977-8553e1d3b861","system_id":"levelo_inurba_marseille","lat":43.28275,"lon":5.3507,"is_reserved":false,"is_disabled":false,"rental_uris":{"android":"levelo://app?vid=d84e942b-5f3c-4596-9977-8553e1d3b861","ios":"levelo://app?vid=d84e942b-5f3c-4596-9977-8553e1d3b861"},"vehicle_type_id":"4","last_reported":1752858779,"current_range_meters":10800,"station_id":"ce4bhbp2rcd13ifvqerg","pricing_plan_id":"cebpf4jnsgd1na2vs0mg"},{"bike_id":"da891840-0cec-4ccc-961c-48903736c6fa","system_id":"levelo_inurba_marseille","lat":43.31139,"lon":5.37692,"is_reserved":false,"is_disabled":false,"rental_uris":{"android":"levelo://app?vid=da891840-0cec-4ccc-961c-48903736c6fa","ios":"levelo://app?vid=da891840-0cec-4ccc-961c-48903736c6fa"},"vehicle_type_id":"4","last_reported":1752858779,"current_range_meters":10800,"station_id":"","pricing_plan_id":"cebpf4jnsgd1na2vs0mg"},{"bike_id":"501c62ad-efda-4074-a75a-47e04606411b","system_id":"levelo_inurba_marseille","lat":43.28409,"lon":5.34999,"is_reserved":false,"is_disabled":false,"rental_uris":{"android":"levelo://app?vid=501c62ad-efda-4074-a75a-47e04606411b","ios":"levelo://app?vid=501c62ad-efda-4074-a75a-47e04606411b"},"vehicle_type_id":"4","last_reported":1752858779,"current_range_meters":10800,"station_id":"ce4bhbh2rcd13ifvqepg","pricing_plan_id":"cebpf4jnsgd1na2vs0mg"},{"bike_id":"476de90a-32df-4754-92a4-40ad674d5a13","system_id":"levelo_inurba_marseille","lat":43.31069,"lon":5.38354,"is_reserved":false,"is_disabled":false,"rental_uris":{"android":"levelo://app?vid=476de90a-32df-4754-92a4-40ad674d5a13","ios":"levelo://app?vid=476de90a-32df-4754-92a4-40ad674d5a13"},"vehicle_type_id":"4","last_reported":1752858779,"current_range_meters":10800,"station_id":"","pricing_plan_id":"cebpf4jnsgd1na2vs0mg"},{"bike_id":"531dca68-8617-41b0-a6cd-abffc94e1d45","system_id":"levelo_inurba_marseille","lat":43.312019,"lon":5.373209,"is_reserved":false,"is_disabled":false,"rental_uris":{"android":"levelo://app?vid=531dca68-8617-41b0-a6cd-abffc94e1d45","ios":"levelo://app?vid=531dca68-8617-41b0-a6cd-abffc94e1d45"},"vehicle_type_id":"4","last_reported":1752858779,"current_range_meters":10800,"station_id":"","pricing_plan_id":"cebpf4jnsgd1na2vs0mg"},{"bike_id":"54e3972a-a5d5-40eb-a1ad-746722660001","system_id":"levelo_inurba_marseille","lat":43.28455,"lon":5.3589,"is_reserved":false,"is_disabled":false,"rental_uris":{"android":"levelo://app?vid=54e3972a-a5d5-40eb-a1ad-746722660001","ios":"levelo://app?vid=54e3972a-a5d5-40eb-a1ad-746722660001"},"vehicle_type_id":"4","last_reported":1752858779,"current_range_meters":11200,"station_id":"ce4bhah2rcd13ifvqei0","pricing_plan_id":"cebpf4jnsgd1na2vs0mg"},{"bike_id":"8849a529-b609-477b-9f36-09b672ce4fdd","system_id":"levelo_inurba_marseille","lat":43.29289,"lon":5.37598,"is_reserved":false,"is_disabled":true,"rental_uris":{"android":"levelo://app?vid=8849a529-b609-477b-9f36-09b672ce4fdd","ios":"levelo://app?vid=8849a529-b609-477b-9f36-09b672ce4fdd"},"vehicle_type_id":"4","last_reported":1752858779,"current_range_meters":11200,"station_id":"ce4bgi12rcd13ifvqb80","pricing_plan_id":"cebpf4jnsgd1na2vs0mg"},{"bike_id":"5c0132f9-4427-4648-b178-caf09d2eddca","system_id":"levelo_inurba_marseille","lat":43.29708,"lon":5.36615,"is_reserved":false,"is_disabled":false,"rental_uris":{"android":"levelo://app?vid=5c0132f9-4427-4648-b178-caf09d2eddca","ios":"levelo://app?vid=5c0132f9-4427-4648-b178-caf09d2eddca"},"vehicle_type_id":"4","last_reported":1752858779,"current_range_meters":11200,"station_id":"ce4bgn12rcd13ifvqbt0","pricing_plan_id":"cebpf4jnsgd1na2vs0mg"},{"bike_id":"36ad3ecb-4529-4a4b-9ec7-d6ed34e5398f","system_id":"levelo_inurba_marseille","lat":43.31112,"lon":5.37786,"is_reserved":false,"is_disabled":false,"rental_uris":{"android":"levelo://app?vid=36ad3ecb-4529-4a4b-9ec7-d6ed34e5398f","ios":"levelo://app?vid=36ad3ecb-4529-4a4b-9ec7-d6ed34e5398f"},"vehicle_type_id":"4","last_reported":1752858779,"current_range_meters":10800,"station_id":"ce4bgt92rcd13ifvqcg0","pricing_plan_id":"cebpf4jnsgd1na2vs0mg"},{"bike_id":"c657eca0-7786-4d09-a568-d94b65f566c7","system_id":"levelo_inurba_marseille","lat":43.239638,"lon":5.366196,"is_reserved":false,"is_disabled":false,"rental_uris":{"android":"levelo://app?vid=c657eca0-7786-4d09-a568-d94b65f566c7","ios":"levelo://app?vid=c657eca0-7786-4d09-a568-d94b65f566c7"},"vehicle_type_id":"4","last_reported":1752858779,"current_range_meters":11600,"station_id":"ce4bhi12rcd13ifvqfp0","pricing_plan_id":"cebpf4jnsgd1na2vs0mg"},{"bike_id":"64cf7cb7-1da3-4c45-af22-9696de25ef8a","system_id":"levelo_inurba_marseille","lat":43.273772,"lon":5.362579,"is_reserved":false,"is_disabled":false,"rental_uris":{"android":"levelo://app?vid=64cf7cb7-1da3-4c45-af22-9696de25ef8a","ios":"levelo://app?vid=64cf7cb7-1da3-4c45-af22-9696de25ef8a"},"vehicle_type_id":"4","last_reported":1752858779,"current_range_meters":11600,"station_id":"ce4bhbh2rcd13ifvqeo0","pricing_plan_id":"cebpf4jnsgd1na2vs0mg"},{"bike_id":"cb8681d4-6184-4167-8ace-65ec9bce7f34","system_id":"levelo_inurba_marseille","lat":43.29374,"lon":5.37845,"is_reserved":false,"is_disabled":false,"rental_uris":{"android":"levelo://app?vid=cb8681d4-6184-4167-8ace-65ec9bce7f34","ios":"levelo://app?vid=cb8681d4-6184-4167-8ace-65ec9bce7f34"},"vehicle_type_id":"4","last_reported":1752858779,"current_range_meters":11600,"station_id":"ce4bgjh2rcd13ifvqbf0","pricing_plan_id":"cebpf4jnsgd1na2vs0mg"},{"bike_id":"8cbf67ac-351a-483f-a8fe-dcc5448138a6","system_id":"levelo_inurba_marseille","lat":43.2728,"lon":5.39156,"is_reserved":false,"is_disabled":false,"rental_uris":{"android":"levelo://app?vid=8cbf67ac-351a-483f-a8fe-dcc5448138a6","ios":"levelo://app?vid=8cbf67ac-351a-483f-a8fe-dcc5448138a6"},"vehicle_type_id":"4","last_reported":1752858779,"current_range_meters":12000,"station_id":"","pricing_plan_id":"cebpf4jnsgd1na2vs0mg"},{"bike_id":"90dc81ed-fa01-4356-8f80-f63e6ef76904","system_id":"levelo_inurba_marseille","lat":43.30954,"lon":5.39037,"is_reserved":false,"is_disabled":false,"rental_uris":{"android":"levelo://app?vid=90dc81ed-fa01-4356-8f80-f63e6ef76904","ios":"levelo://app?vid=90dc81ed-fa01-4356-8f80-f63e6ef76904"},"vehicle_type_id":"4","last_reported":1752858779,"current_range_meters":12000,"station_id":"ce4bgup2rcd13ifvqco0","pricing_plan_id":"cebpf4jnsgd1na2vs0mg"},{"bike_id":"cd632b59-0e3a-4e0b-9999-f0250b7098b5","system_id":"levelo_inurba_marseille","lat":43.27087,"lon":5.42284,"is_reserved":false,"is_disabled":false,"rental_uris":{"android":"levelo://app?vid=cd632b59-0e3a-4e0b-9999-f0250b7098b5","ios":"levelo://app?vid=cd632b59-0e3a-4e0b-9999-f0250b7098b5"},"vehicle_type_id":"4","last_reported":1752858779,"current_range_meters":12000,"station_id":"ce4bhk92rcd13ifvqgb0","pricing_plan_id":"cebpf4jnsgd1na2vs0mg"},{"bike_id":"3fe83527-d3b9-4e83-97fb-d38d532658ae","system_id":"levelo_inurba_marseille","lat":43.26598,"lon":5.39014,"is_reserved":false,"is_disabled":false,"rental_uris":{"android":"levelo://app?vid=3fe83527-d3b9-4e83-97fb-d38d532658ae","ios":"levelo://app?vid=3fe83527-d3b9-4e83-97fb-d38d532658ae"},"vehicle_type_id":"4","last_reported":1752858779,"current_range_meters":12000,"station_id":"ce4bhe12rcd13ifvqf30","pricing_plan_id":"cebpf4jnsgd1na2vs0mg"},{"bike_id":"f49d312b-67e5-480a-aee1-c0c990c76302","system_id":"levelo_inurba_marseille","lat":43.28424,"lon":5.34986,"is_reserved":false,"is_disabled":false,"rental_uris":{"android":"levelo://app?vid=f49d312b-67e5-480a-aee1-c0c990c76302","ios":"levelo://app?vid=f49d312b-67e5-480a-aee1-c0c990c76302"},"vehicle_type_id":"4","last_reported":1752858779,"current_range_meters":12400,"station_id":"ce4bhbh2rcd13ifvqepg","pricing_plan_id":"cebpf4jnsgd1na2vs0mg"},{"bike_id":"4ac1f739-9e00-4e5c-8b08-7cd6a02bf2f6","system_id":"levelo_inurba_marseille","lat":43.303,"lon":5.36879,"is_reserved":false,"is_disabled":false,"rental_uris":{"android":"levelo://app?vid=4ac1f739-9e00-4e5c-8b08-7cd6a02bf2f6","ios":"levelo://app?vid=4ac1f739-9e00-4e5c-8b08-7cd6a02bf2f6"},"vehicle_type_id":"4","last_reported":1752858779,"current_range_meters":12000,"station_id":"ce4bgqh2rcd13ifvqc5g","pricing_plan_id":"cebpf4jnsgd1na2vs0mg"},{"bike_id":"537df271-1e3d-4ffc-ad70-ada379266803","system_id":"levelo_inurba_marseille","lat":43.21752,"lon":5.34577,"is_reserved":false,"is_disabled":false,"rental_uris":{"android":"levelo://app?vid=537df271-1e3d-4ffc-ad70-ada379266803","ios":"levelo://app?vid=537df271-1e3d-4ffc-ad70-ada379266803"},"vehicle_type_id":"4","last_reported":1752858779,"current_range_meters":12400,"station_id":"st_cvj6r9ubvosntc0bgbag","pricing_plan_id":"cebpf4jnsgd1na2vs0mg"},{"bike_id":"586af889-49f1-49ce-a499-329b81ad5c2f","system_id":"levelo_inurba_marseille","lat":43.28433,"lon":5.34979,"is_reserved":false,"is_disabled":false,"rental_uris":{"android":"levelo://app?vid=586af889-49f1-49ce-a499-329b81ad5c2f","ios":"levelo://app?vid=586af889-49f1-49ce-a499-329b81ad5c2f"},"vehicle_type_id":"4","last_reported":1752858779,"current_range_meters":12400,"station_id":"ce4bhbh2rcd13ifvqepg","pricing_plan_id":"cebpf4jnsgd1na2vs0mg"},{"bike_id":"b004baab-db70-453e-84a5-9312df4bd1d6","system_id":"levelo_inurba_marseille","lat":43.225,"lon":5.34776,"is_reserved":false,"is_disabled":false,"rental_uris":{"android":"levelo://app?vid=b004baab-db70-453e-84a5-9312df4bd1d6","ios":"levelo://app?vid=b004baab-db70-453e-84a5-9312df4bd1d6"},"vehicle_type_id":"4","last_reported":1752858779,"current_range_meters":12400,"station_id":"st_cvj5dfep6f1abm77gieg","pricing_plan_id":"cebpf4jnsgd1na2vs0mg"},{"bike_id":"d3491b37-70dd-474d-9de3-9041607dae06","system_id":"levelo_inurba_marseille","lat":43.29167,"lon":5.37167,"is_reserved":false,"is_disabled":false,"rental_uris":{"android":"levelo://app?vid=d3491b37-70dd-474d-9de3-9041607dae06","ios":"levelo://app?vid=d3491b37-70dd-474d-9de3-9041607dae06"},"vehicle_type_id":"4","last_reported":1752858779,"current_range_meters":12000,"station_id":"ce4bha92rcd13ifvqeh0","pricing_plan_id":"cebpf4jnsgd1na2vs0mg"},{"bike_id":"a223d523-7073-43bf-a9fa-350f8ebcbf9d","system_id":"levelo_inurba_marseille","lat":43.297117,"lon":5.366044,"is_reserved":false,"is_disabled":false,"rental_uris":{"android":"levelo://app?vid=a223d523-7073-43bf-a9fa-350f8ebcbf9d","ios":"levelo://app?vid=a223d523-7073-43bf-a9fa-350f8ebcbf9d"},"vehicle_type_id":"4","last_reported":1752858779,"current_range_meters":12400,"station_id":"ce4bgn12rcd13ifvqbt0","pricing_plan_id":"cebpf4jnsgd1na2vs0mg"},{"bike_id":"00ecada3-8577-4c51-98e2-f760bc2bb718","system_id":"levelo_inurba_marseille","lat":43.29436,"lon":5.43208,"is_reserved":false,"is_disabled":false,"rental_uris":{"android":"levelo://app?vid=00ecada3-8577-4c51-98e2-f760bc2bb718","ios":"levelo://app?vid=00ecada3-8577-4c51-98e2-f760bc2bb718"},"vehicle_type_id":"4","last_reported":1752858779,"current_range_meters":12400,"station_id":"","pricing_plan_id":"cebpf4jnsgd1na2vs0mg"},{"bike_id":"c6db0f6a-96fe-4e1d-8ded-c2ef38c9bab4","system_id":"levelo_inurba_marseille","lat":43.304183,"lon":5.412838,"is_reserved":false,"is_disabled":true,"rental_uris":{"android":"levelo://app?vid=c6db0f6a-96fe-4e1d-8ded-c2ef38c9bab4","ios":"levelo://app?vid=c6db0f6a-96fe-4e1d-8ded-c2ef38c9bab4"},"vehicle_type_id":"4","last_reported":1752858779,"current_range_meters":12800,"station_id":"ce4bhop2rcd13ifvqh8g","pricing_plan_id":"cebpf4jnsgd1na2vs0mg"},{"bike_id":"457edaae-4e4a-42bf-a7b3-22562f181983","system_id":"levelo_inurba_marseille","lat":43.31729,"lon":5.42399,"is_reserved":false,"is_disabled":false,"rental_uris":{"android":"levelo://app?vid=457edaae-4e4a-42bf-a7b3-22562f181983","ios":"levelo://app?vid=457edaae-4e4a-42bf-a7b3-22562f181983"},"vehicle_type_id":"4","last_reported":1752858779,"current_range_meters":12800,"station_id":"ce4bhp92rcd13ifvqhbg","pricing_plan_id":"cebpf4jnsgd1na2vs0mg"},{"bike_id":"28279007-0cad-4da0-95f8-c058a3457363","system_id":"levelo_inurba_marseille","lat":43.28425,"lon":5.34966,"is_reserved":false,"is_disabled":false,"rental_uris":{"android":"levelo://app?vid=28279007-0cad-4da0-95f8-c058a3457363","ios":"levelo://app?vid=28279007-0cad-4da0-95f8-c058a3457363"},"vehicle_type_id":"4","last_reported":1752858779,"current_range_meters":12800,"station_id":"ce4bhbh2rcd13ifvqepg","pricing_plan_id":"cebpf4jnsgd1na2vs0mg"},{"bike_id":"2d95b47d-d06f-40a4-bb6e-c13e954e3c8f","system_id":"levelo_inurba_marseille","lat":43.277203,"lon":5.414221,"is_reserved":false,"is_disabled":false,"rental_uris":{"android":"levelo://app?vid=2d95b47d-d06f-40a4-bb6e-c13e954e3c8f","ios":"levelo://app?vid=2d95b47d-d06f-40a4-bb6e-c13e954e3c8f"},"vehicle_type_id":"4","last_reported":1752858779,"current_range_meters":12800,"station_id":"","pricing_plan_id":"cebpf4jnsgd1na2vs0mg"},{"bike_id":"b4a98468-1c4d-48b7-8148-71efc67381e9","system_id":"levelo_inurba_marseille","lat":43.284058,"lon":5.349791,"is_reserved":false,"is_disabled":false,"rental_uris":{"android":"levelo://app?vid=b4a98468-1c4d-48b7-8148-71efc67381e9","ios":"levelo://app?vid=b4a98468-1c4d-48b7-8148-71efc67381e9"},"vehicle_type_id":"4","last_reported":1752858779,"current_range_meters":12800,"station_id":"","pricing_plan_id":"cebpf4jnsgd1na2vs0mg"},{"bike_id":"25faa4a1-8a56-4120-92c6-a8ba7ad14181","system_id":"levelo_inurba_marseille","lat":43.28429,"lon":5.34968,"is_reserved":false,"is_disabled":false,"rental_uris":{"android":"levelo://app?vid=25faa4a1-8a56-4120-92c6-a8ba7ad14181","ios":"levelo://app?vid=25faa4a1-8a56-4120-92c6-a8ba7ad14181"},"vehicle_type_id":"4","last_reported":1752858779,"current_range_meters":12800,"station_id":"ce4bhbh2rcd13ifvqepg","pricing_plan_id":"cebpf4jnsgd1na2vs0mg"},{"bike_id":"4607398c-5481-406b-ba58-548c4b76f331","system_id":"levelo_inurba_marseille","lat":43.271854,"lon":5.362776,"is_reserved":false,"is_disabled":false,"rental_uris":{"android":"levelo://app?vid=4607398c-5481-406b-ba58-548c4b76f331","ios":"levelo://app?vid=4607398c-5481-406b-ba58-548c4b76f331"},"vehicle_type_id":"4","last_reported":1752858779,"current_range_meters":12800,"station_id":"","pricing_plan_id":"cebpf4jnsgd1na2vs0mg"},{"bike_id":"f2484167-4c38-4146-abfd-ae6dfd486cbc","system_id":"levelo_inurba_marseille","lat":43.2843,"lon":5.34982,"is_reserved":false,"is_disabled":false,"rental_uris":{"android":"levelo://app?vid=f2484167-4c38-4146-abfd-ae6dfd486cbc","ios":"levelo://app?vid=f2484167-4c38-4146-abfd-ae6dfd486cbc"},"vehicle_type_id":"4","last_reported":1752858779,"current_range_meters":12800,"station_id":"ce4bhbh2rcd13ifvqepg","pricing_plan_id":"cebpf4jnsgd1na2vs0mg"},{"bike_id":"e5e68fc3-40c8-4064-926c-22623a86cbb0","system_id":"levelo_inurba_marseille","lat":43.28415,"lon":5.34993,"is_reserved":false,"is_disabled":false,"rental_uris":{"android":"levelo://app?vid=e5e68fc3-40c8-4064-926c-22623a86cbb0","ios":"levelo://app?vid=e5e68fc3-40c8-4064-926c-22623a86cbb0"},"vehicle_type_id":"4","last_reported":1752858779,"current_range_meters":12800,"station_id":"ce4bhbh2rcd13ifvqepg","pricing_plan_id":"cebpf4jnsgd1na2vs0mg"},{"bike_id":"ce7bd25b-5213-4881-a28b-f582e6a1d712","system_id":"levelo_inurba_marseille","lat":43.31337,"lon":5.36723,"is_reserved":false,"is_disabled":true,"rental_uris":{"android":"levelo://app?vid=ce7bd25b-5213-4881-a28b-f582e6a1d712","ios":"levelo://app?vid=ce7bd25b-5213-4881-a28b-f582e6a1d712"},"vehicle_type_id":"4","last_reported":1752858779,"current_range_meters":12800,"station_id":"ce4bgr92rcd13ifvqc6g","pricing_plan_id":"cebpf4jnsgd1na2vs0mg"},{"bike_id":"5ac93e7c-286a-4c1e-b6c0-4e9963e5a9f8","system_id":"levelo_inurba_marseille","lat":43.21192,"lon":5.35067,"is_reserved":false,"is_disabled":false,"rental_uris":{"android":"levelo://app?vid=5ac93e7c-286a-4c1e-b6c0-4e9963e5a9f8","ios":"levelo://app?vid=5ac93e7c-286a-4c1e-b6c0-4e9963e5a9f8"},"vehicle_type_id":"4","last_reported":1752858779,"current_range_meters":12800,"station_id":"st_cvj6sg6p6f1abm77japg","pricing_plan_id":"cebpf4jnsgd1na2vs0mg"},{"bike_id":"164bc626-5c1e-4349-a0cf-99e6c77a8355","system_id":"levelo_inurba_marseille","lat":43.27817,"lon":5.40708,"is_reserved":false,"is_disabled":false,"rental_uris":{"android":"levelo://app?vid=164bc626-5c1e-4349-a0cf-99e6c77a8355","ios":"levelo://app?vid=164bc626-5c1e-4349-a0cf-99e6c77a8355"},"vehicle_type_id":"4","last_reported":1752858779,"current_range_meters":13600,"station_id":"ce4bhnh2rcd13ifvqgtg","pricing_plan_id":"cebpf4jnsgd1na2vs0mg"},{"bike_id":"1eae3377-be7c-4895-b76f-e5369266ccc0","system_id":"levelo_inurba_marseille","lat":43.28271,"lon":5.35057,"is_reserved":false,"is_disabled":false,"rental_uris":{"android":"levelo://app?vid=1eae3377-be7c-4895-b76f-e5369266ccc0","ios":"levelo://app?vid=1eae3377-be7c-4895-b76f-e5369266ccc0"},"vehicle_type_id":"4","last_reported":1752858779,"current_range_meters":13600,"station_id":"ce4bhbp2rcd13ifvqerg","pricing_plan_id":"cebpf4jnsgd1na2vs0mg"},{"bike_id":"fbf0b7f2-f884-4bd3-a5fa-255e32e8eeed","system_id":"levelo_inurba_marseille","lat":43.24203,"lon":5.36362,"is_reserved":false,"is_disabled":false,"rental_uris":{"android":"levelo://app?vid=fbf0b7f2-f884-4bd3-a5fa-255e32e8eeed","ios":"levelo://app?vid=fbf0b7f2-f884-4bd3-a5fa-255e32e8eeed"},"vehicle_type_id":"4","last_reported":1752858779,"current_range_meters":13600,"station_id":"cpo36qri1sfpv3e86is0","pricing_plan_id":"cebpf4jnsgd1na2vs0mg"},{"bike_id":"378840fc-e2b4-4d7c-b570-d072ea1f35f1","system_id":"levelo_inurba_marseille","lat":43.29003,"lon":5.35613,"is_reserved":false,"is_disabled":false,"rental_uris":{"android":"levelo://app?vid=378840fc-e2b4-4d7c-b570-d072ea1f35f1","ios":"levelo://app?vid=378840fc-e2b4-4d7c-b570-d072ea1f35f1"},"vehicle_type_id":"4","last_reported":1752858779,"current_range_meters":13600,"station_id":"ce4bhb92rcd13ifvqen0","pricing_plan_id":"cebpf4jnsgd1na2vs0mg"},{"bike_id":"9e46aa88-7b19-47c3-b789-71b8902b53cb","system_id":"levelo_inurba_marseille","lat":43.281447,"lon":5.426371,"is_reserved":false,"is_disabled":false,"rental_uris":{"android":"levelo://app?vid=9e46aa88-7b19-47c3-b789-71b8902b53cb","ios":"levelo://app?vid=9e46aa88-7b19-47c3-b789-71b8902b53cb"},"vehicle_type_id":"4","last_reported":1752858779,"current_range_meters":13600,"station_id":"ce4bhnh2rcd13ifvqgug","pricing_plan_id":"cebpf4jnsgd1na2vs0mg"},{"bike_id":"be60c88c-1453-4626-be80-200258f79626","system_id":"levelo_inurba_marseille","lat":43.23192,"lon":5.3555,"is_reserved":false,"is_disabled":false,"rental_uris":{"android":"levelo://app?vid=be60c88c-1453-4626-be80-200258f79626","ios":"levelo://app?vid=be60c88c-1453-4626-be80-200258f79626"},"vehicle_type_id":"4","last_reported":1752858779,"current_range_meters":13600,"station_id":"ce4bhu92rcd13ifvqi70","pricing_plan_id":"cebpf4jnsgd1na2vs0mg"},{"bike_id":"09f90358-38d7-40fd-aafd-e75fcd1e7b3a","system_id":"levelo_inurba_marseille","lat":43.30927,"lon":5.40145,"is_reserved":false,"is_disabled":false,"rental_uris":{"android":"levelo://app?vid=09f90358-38d7-40fd-aafd-e75fcd1e7b3a","ios":"levelo://app?vid=09f90358-38d7-40fd-aafd-e75fcd1e7b3a"},"vehicle_type_id":"4","last_reported":1752858779,"current_range_meters":14000,"station_id":"ce4bgvp2rcd13ifvqct0","pricing_plan_id":"cebpf4jnsgd1na2vs0mg"},{"bike_id":"5340329c-8bc5-4f60-a63c-3f485b4630ab","system_id":"levelo_inurba_marseille","lat":43.2844,"lon":5.34983,"is_reserved":false,"is_disabled":false,"rental_uris":{"android":"levelo://app?vid=5340329c-8bc5-4f60-a63c-3f485b4630ab","ios":"levelo://app?vid=5340329c-8bc5-4f60-a63c-3f485b4630ab"},"vehicle_type_id":"4","last_reported":1752858779,"current_range_meters":13600,"station_id":"ce4bhbh2rcd13ifvqepg","pricing_plan_id":"cebpf4jnsgd1na2vs0mg"},{"bike_id":"c29285a7-60fc-4050-b257-92865b617618","system_id":"levelo_inurba_marseille","lat":43.24383,"lon":5.37065,"is_reserved":false,"is_disabled":false,"rental_uris":{"android":"levelo://app?vid=c29285a7-60fc-4050-b257-92865b617618","ios":"levelo://app?vid=c29285a7-60fc-4050-b257-92865b617618"},"vehicle_type_id":"4","last_reported":1752858779,"current_range_meters":13600,"station_id":"ce4bhhh2rcd13ifvqfk0","pricing_plan_id":"cebpf4jnsgd1na2vs0mg"},{"bike_id":"57c466cf-81f8-412f-8543-66312902f678","system_id":"levelo_inurba_marseille","lat":43.3175,"lon":5.39026,"is_reserved":false,"is_disabled":false,"rental_uris":{"android":"levelo://app?vid=57c466cf-81f8-412f-8543-66312902f678","ios":"levelo://app?vid=57c466cf-81f8-412f-8543-66312902f678"},"vehicle_type_id":"4","last_reported":1752858779,"current_range_meters":14000,"station_id":"ce4bhqp2rcd13ifvqhng","pricing_plan_id":"cebpf4jnsgd1na2vs0mg"},{"bike_id":"d3ac0dac-633e-4e8e-b62b-b50b5e350c97","system_id":"levelo_inurba_marseille","lat":43.31759,"lon":5.39015,"is_reserved":false,"is_disabled":false,"rental_uris":{"android":"levelo://app?vid=d3ac0dac-633e-4e8e-b62b-b50b5e350c97","ios":"levelo://app?vid=d3ac0dac-633e-4e8e-b62b-b50b5e350c97"},"vehicle_type_id":"4","last_reported":1752858779,"current_range_meters":14000,"station_id":"ce4bhqp2rcd13ifvqhng","pricing_plan_id":"cebpf4jnsgd1na2vs0mg"},{"bike_id":"1f73a264-e9a4-4266-b999-174ffe638ece","system_id":"levelo_inurba_marseille","lat":43.261896,"lon":5.374496,"is_reserved":false,"is_disabled":false,"rental_uris":{"android":"levelo://app?vid=1f73a264-e9a4-4266-b999-174ffe638ece","ios":"levelo://app?vid=1f73a264-e9a4-4266-b999-174ffe638ece"},"vehicle_type_id":"4","last_reported":1752858779,"current_range_meters":14000,"station_id":"ce4bhgp2rcd13ifvqfc0","pricing_plan_id":"cebpf4jnsgd1na2vs0mg"},{"bike_id":"a9486409-4cc1-4270-a974-70a74b31ce4c","system_id":"levelo_inurba_marseille","lat":43.27616,"lon":5.36112,"is_reserved":false,"is_disabled":false,"rental_uris":{"android":"levelo://app?vid=a9486409-4cc1-4270-a974-70a74b31ce4c","ios":"levelo://app?vid=a9486409-4cc1-4270-a974-70a74b31ce4c"},"vehicle_type_id":"4","last_reported":1752858779,"current_range_meters":14000,"station_id":"ce4bgj92rcd13ifvqbe0","pricing_plan_id":"cebpf4jnsgd1na2vs0mg"},{"bike_id":"9ffb9a4e-9204-4c02-845b-b7934f9ddae9","system_id":"levelo_inurba_marseille","lat":43.28416,"lon":5.34994,"is_reserved":false,"is_disabled":false,"rental_uris":{"android":"levelo://app?vid=9ffb9a4e-9204-4c02-845b-b7934f9ddae9","ios":"levelo://app?vid=9ffb9a4e-9204-4c02-845b-b7934f9ddae9"},"vehicle_type_id":"4","last_reported":1752858779,"current_range_meters":14000,"station_id":"ce4bhbh2rcd13ifvqepg","pricing_plan_id":"cebpf4jnsgd1na2vs0mg"},{"bike_id":"35965273-4af4-457c-87a3-4f7523a4ce80","system_id":"levelo_inurba_marseille","lat":43.29002,"lon":5.35614,"is_reserved":false,"is_disabled":true,"rental_uris":{"android":"levelo://app?vid=35965273-4af4-457c-87a3-4f7523a4ce80","ios":"levelo://app?vid=35965273-4af4-457c-87a3-4f7523a4ce80"},"vehicle_type_id":"4","last_reported":1752858779,"current_range_meters":14000,"station_id":"ce4bhb92rcd13ifvqen0","pricing_plan_id":"cebpf4jnsgd1na2vs0mg"},{"bike_id":"cfb52d04-9134-4c86-8269-771716b20f27","system_id":"levelo_inurba_marseille","lat":43.21197,"lon":5.35069,"is_reserved":false,"is_disabled":false,"rental_uris":{"android":"levelo://app?vid=cfb52d04-9134-4c86-8269-771716b20f27","ios":"levelo://app?vid=cfb52d04-9134-4c86-8269-771716b20f27"},"vehicle_type_id":"4","last_reported":1752858779,"current_range_meters":14000,"station_id":"st_cvj6sg6p6f1abm77japg","pricing_plan_id":"cebpf4jnsgd1na2vs0mg"},{"bike_id":"59bc946a-59a3-4db4-b142-0d4c90f87d19","system_id":"levelo_inurba_marseille","lat":43.29014,"lon":5.37188,"is_reserved":false,"is_disabled":false,"rental_uris":{"android":"levelo://app?vid=59bc946a-59a3-4db4-b142-0d4c90f87d19","ios":"levelo://app?vid=59bc946a-59a3-4db4-b142-0d4c90f87d19"},"vehicle_type_id":"4","last_reported":1752858779,"current_range_meters":14400,"station_id":"","pricing_plan_id":"cebpf4jnsgd1na2vs0mg"},{"bike_id":"b32a9586-edc9-4433-b504-4d0df2f46be1","system_id":"levelo_inurba_marseille","lat":43.27915,"lon":5.39587,"is_reserved":false,"is_disabled":false,"rental_uris":{"android":"levelo://app?vid=b32a9586-edc9-4433-b504-4d0df2f46be1","ios":"levelo://app?vid=b32a9586-edc9-4433-b504-4d0df2f46be1"},"vehicle_type_id":"4","last_reported":1752858779,"current_range_meters":14400,"station_id":"ce4bhf92rcd13ifvqf40","pricing_plan_id":"cebpf4jnsgd1na2vs0mg"},{"bike_id":"797e03c8-9856-46a2-bf76-6e379de6361f","system_id":"levelo_inurba_marseille","lat":43.24812,"lon":5.37459,"is_reserved":false,"is_disabled":true,"rental_uris":{"android":"levelo://app?vid=797e03c8-9856-46a2-bf76-6e379de6361f","ios":"levelo://app?vid=797e03c8-9856-46a2-bf76-6e379de6361f"},"vehicle_type_id":"4","last_reported":1752858779,"current_range_meters":14400,"station_id":"ce4bhgh2rcd13ifvqfb0","pricing_plan_id":"cebpf4jnsgd1na2vs0mg"},{"bike_id":"cd6f3896-4a69-4910-826e-0094d19e9fb2","system_id":"levelo_inurba_marseille","lat":43.29978,"lon":5.38487,"is_reserved":false,"is_disabled":false,"rental_uris":{"android":"levelo://app?vid=cd6f3896-4a69-4910-826e-0094d19e9fb2","ios":"levelo://app?vid=cd6f3896-4a69-4910-826e-0094d19e9fb2"},"vehicle_type_id":"4","last_reported":1752858779,"current_range_meters":14400,"station_id":"ce4bgj92rcd13ifvqbd0","pricing_plan_id":"cebpf4jnsgd1na2vs0mg"},{"bike_id":"2a7a98a9-267b-4553-b0e0-13837c4af786","system_id":"levelo_inurba_marseille","lat":43.23069,"lon":5.35487,"is_reserved":false,"is_disabled":false,"rental_uris":{"android":"levelo://app?vid=2a7a98a9-267b-4553-b0e0-13837c4af786","ios":"levelo://app?vid=2a7a98a9-267b-4553-b0e0-13837c4af786"},"vehicle_type_id":"4","last_reported":1752858779,"current_range_meters":14400,"station_id":"cpo3342slgdg3j2ifvpg","pricing_plan_id":"cebpf4jnsgd1na2vs0mg"},{"bike_id":"45c34bd9-1033-4622-84f7-fd435c86e1e3","system_id":"levelo_inurba_marseille","lat":43.24385,"lon":5.37062,"is_reserved":false,"is_disabled":false,"rental_uris":{"android":"levelo://app?vid=45c34bd9-1033-4622-84f7-fd435c86e1e3","ios":"levelo://app?vid=45c34bd9-1033-4622-84f7-fd435c86e1e3"},"vehicle_type_id":"4","last_reported":1752858779,"current_range_meters":14400,"station_id":"ce4bhhh2rcd13ifvqfk0","pricing_plan_id":"cebpf4jnsgd1na2vs0mg"},{"bike_id":"c3ac509c-e93b-452a-bc2a-82079aaa6a85","system_id":"levelo_inurba_marseille","lat":43.30595,"lon":5.40448,"is_reserved":false,"is_disabled":false,"rental_uris":{"android":"levelo://app?vid=c3ac509c-e93b-452a-bc2a-82079aaa6a85","ios":"levelo://app?vid=c3ac509c-e93b-452a-bc2a-82079aaa6a85"},"vehicle_type_id":"4","last_reported":1752858779,"current_range_meters":14800,"station_id":"","pricing_plan_id":"cebpf4jnsgd1na2vs0mg"},{"bike_id":"4a29af38-cfd0-40ba-b5e0-aff748166324","system_id":"levelo_inurba_marseille","lat":43.28458,"lon":5.35887,"is_reserved":false,"is_disabled":false,"rental_uris":{"android":"levelo://app?vid=4a29af38-cfd0-40ba-b5e0-aff748166324","ios":"levelo://app?vid=4a29af38-cfd0-40ba-b5e0-aff748166324"},"vehicle_type_id":"4","last_reported":1752858779,"current_range_meters":14800,"station_id":"ce4bhah2rcd13ifvqei0","pricing_plan_id":"cebpf4jnsgd1na2vs0mg"},{"bike_id":"adfc65ed-b381-4efd-9995-ede6a2b551fc","system_id":"levelo_inurba_marseille","lat":43.30321,"lon":5.40442,"is_reserved":false,"is_disabled":false,"rental_uris":{"android":"levelo://app?vid=adfc65ed-b381-4efd-9995-ede6a2b551fc","ios":"levelo://app?vid=adfc65ed-b381-4efd-9995-ede6a2b551fc"},"vehicle_type_id":"4","last_reported":1752858779,"current_range_meters":14400,"station_id":"ce4bh012rcd13ifvqd10","pricing_plan_id":"cebpf4jnsgd1na2vs0mg"},{"bike_id":"a67156ae-789e-45f5-ab3f-ed7d95b24540","system_id":"levelo_inurba_marseille","lat":43.21233,"lon":5.35022,"is_reserved":false,"is_disabled":false,"rental_uris":{"android":"levelo://app?vid=a67156ae-789e-45f5-ab3f-ed7d95b24540","ios":"levelo://app?vid=a67156ae-789e-45f5-ab3f-ed7d95b24540"},"vehicle_type_id":"4","last_reported":1752858779,"current_range_meters":14800,"station_id":"","pricing_plan_id":"cebpf4jnsgd1na2vs0mg"},{"bike_id":"b7fe52dd-f025-4212-9e78-19e7f6f09593","system_id":"levelo_inurba_marseille","lat":43.21213,"lon":5.35055,"is_reserved":false,"is_disabled":false,"rental_uris":{"android":"levelo://app?vid=b7fe52dd-f025-4212-9e78-19e7f6f09593","ios":"levelo://app?vid=b7fe52dd-f025-4212-9e78-19e7f6f09593"},"vehicle_type_id":"4","last_reported":1752858779,"current_range_meters":14800,"station_id":"st_cvj6sg6p6f1abm77japg","pricing_plan_id":"cebpf4jnsgd1na2vs0mg"},{"bike_id":"32f5afb1-15c9-4431-a998-25b3b86db8d1","system_id":"levelo_inurba_marseille","lat":43.27375,"lon":5.36259,"is_reserved":false,"is_disabled":false,"rental_uris":{"android":"levelo://app?vid=32f5afb1-15c9-4431-a998-25b3b86db8d1","ios":"levelo://app?vid=32f5afb1-15c9-4431-a998-25b3b86db8d1"},"vehicle_type_id":"4","last_reported":1752858779,"current_range_meters":14800,"station_id":"ce4bhbh2rcd13ifvqeo0","pricing_plan_id":"cebpf4jnsgd1na2vs0mg"},{"bike_id":"70a3940c-c40a-4ef4-8e48-8b68d4968bc7","system_id":"levelo_inurba_marseille","lat":43.23972,"lon":5.36614,"is_reserved":false,"is_disabled":true,"rental_uris":{"android":"levelo://app?vid=70a3940c-c40a-4ef4-8e48-8b68d4968bc7","ios":"levelo://app?vid=70a3940c-c40a-4ef4-8e48-8b68d4968bc7"},"vehicle_type_id":"4","last_reported":1752858779,"current_range_meters":15200,"station_id":"ce4bhi12rcd13ifvqfp0","pricing_plan_id":"cebpf4jnsgd1na2vs0mg"},{"bike_id":"57a74328-38fc-45f3-9ee4-7df1a29920f1","system_id":"levelo_inurba_marseille","lat":43.28622,"lon":5.35101,"is_reserved":false,"is_disabled":false,"rental_uris":{"android":"levelo://app?vid=57a74328-38fc-45f3-9ee4-7df1a29920f1","ios":"levelo://app?vid=57a74328-38fc-45f3-9ee4-7df1a29920f1"},"vehicle_type_id":"4","last_reported":1752858779,"current_range_meters":15200,"station_id":"","pricing_plan_id":"cebpf4jnsgd1na2vs0mg"},{"bike_id":"ac0ed4be-466c-4caa-b855-3c6bbe5a11b5","system_id":"levelo_inurba_marseille","lat":43.26757,"lon":5.37191,"is_reserved":false,"is_disabled":false,"rental_uris":{"android":"levelo://app?vid=ac0ed4be-466c-4caa-b855-3c6bbe5a11b5","ios":"levelo://app?vid=ac0ed4be-466c-4caa-b855-3c6bbe5a11b5"},"vehicle_type_id":"4","last_reported":1752858779,"current_range_meters":15200,"station_id":"","pricing_plan_id":"cebpf4jnsgd1na2vs0mg"},{"bike_id":"d2e18001-a19e-4b1e-b71c-89718b95f05f","system_id":"levelo_inurba_marseille","lat":43.29004,"lon":5.35607,"is_reserved":false,"is_disabled":false,"rental_uris":{"android":"levelo://app?vid=d2e18001-a19e-4b1e-b71c-89718b95f05f","ios":"levelo://app?vid=d2e18001-a19e-4b1e-b71c-89718b95f05f"},"vehicle_type_id":"4","last_reported":1752858779,"current_range_meters":15200,"station_id":"ce4bhb92rcd13ifvqen0","pricing_plan_id":"cebpf4jnsgd1na2vs0mg"},{"bike_id":"8ce9b80c-19c6-4985-81c6-50f285c26740","system_id":"levelo_inurba_marseille","lat":43.23963,"lon":5.36618,"is_reserved":false,"is_disabled":false,"rental_uris":{"android":"levelo://app?vid=8ce9b80c-19c6-4985-81c6-50f285c26740","ios":"levelo://app?vid=8ce9b80c-19c6-4985-81c6-50f285c26740"},"vehicle_type_id":"4","last_reported":1752858779,"current_range_meters":15200,"station_id":"ce4bhi12rcd13ifvqfp0","pricing_plan_id":"cebpf4jnsgd1na2vs0mg"},{"bike_id":"0841b9d7-e37e-4b03-bb1d-884722fed655","system_id":"levelo_inurba_marseille","lat":43.27375,"lon":5.36256,"is_reserved":false,"is_disabled":false,"rental_uris":{"android":"levelo://app?vid=0841b9d7-e37e-4b03-bb1d-884722fed655","ios":"levelo://app?vid=0841b9d7-e37e-4b03-bb1d-884722fed655"},"vehicle_type_id":"4","last_reported":1752858779,"current_range_meters":15200,"station_id":"ce4bhbh2rcd13ifvqeo0","pricing_plan_id":"cebpf4jnsgd1na2vs0mg"},{"bike_id":"edd0079d-996b-4ae3-9a31-d781f3a059ec","system_id":"levelo_inurba_marseille","lat":43.33786,"lon":5.37426,"is_reserved":false,"is_disabled":false,"rental_uris":{"android":"levelo://app?vid=edd0079d-996b-4ae3-9a31-d781f3a059ec","ios":"levelo://app?vid=edd0079d-996b-4ae3-9a31-d781f3a059ec"},"vehicle_type_id":"4","last_reported":1752858779,"current_range_meters":15200,"station_id":"","pricing_plan_id":"cebpf4jnsgd1na2vs0mg"},{"bike_id":"8cd29ea2-1bd2-4e7d-b526-84ef848d0978","system_id":"levelo_inurba_marseille","lat":43.288426,"lon":5.358574,"is_reserved":false,"is_disabled":false,"rental_uris":{"android":"levelo://app?vid=8cd29ea2-1bd2-4e7d-b526-84ef848d0978","ios":"levelo://app?vid=8cd29ea2-1bd2-4e7d-b526-84ef848d0978"},"vehicle_type_id":"4","last_reported":1752858779,"current_range_meters":14800,"station_id":"ce4bhb12rcd13ifvqem0","pricing_plan_id":"cebpf4jnsgd1na2vs0mg"},{"bike_id":"1ec5a8b9-6c71-4d1e-95be-e71a3adc55d2","system_id":"levelo_inurba_marseille","lat":43.21768,"lon":5.3458,"is_reserved":false,"is_disabled":false,"rental_uris":{"android":"levelo://app?vid=1ec5a8b9-6c71-4d1e-95be-e71a3adc55d2","ios":"levelo://app?vid=1ec5a8b9-6c71-4d1e-95be-e71a3adc55d2"},"vehicle_type_id":"4","last_reported":1752858779,"current_range_meters":16000,"station_id":"st_cvj6r9ubvosntc0bgbag","pricing_plan_id":"cebpf4jnsgd1na2vs0mg"},{"bike_id":"562b3f33-c49d-45c0-9e85-f443c9bc5ab0","system_id":"levelo_inurba_marseille","lat":43.24805,"lon":5.37453,"is_reserved":false,"is_disabled":false,"rental_uris":{"android":"levelo://app?vid=562b3f33-c49d-45c0-9e85-f443c9bc5ab0","ios":"levelo://app?vid=562b3f33-c49d-45c0-9e85-f443c9bc5ab0"},"vehicle_type_id":"4","last_reported":1752858779,"current_range_meters":16000,"station_id":"ce4bhgh2rcd13ifvqfb0","pricing_plan_id":"cebpf4jnsgd1na2vs0mg"},{"bike_id":"b4c63550-3947-41e1-ab2c-4df7865624ff","system_id":"levelo_inurba_marseille","lat":43.284179,"lon":5.349874,"is_reserved":false,"is_disabled":false,"rental_uris":{"android":"levelo://app?vid=b4c63550-3947-41e1-ab2c-4df7865624ff","ios":"levelo://app?vid=b4c63550-3947-41e1-ab2c-4df7865624ff"},"vehicle_type_id":"4","last_reported":1752858779,"current_range_meters":16000,"station_id":"ce4bhbh2rcd13ifvqepg","pricing_plan_id":"cebpf4jnsgd1na2vs0mg"},{"bike_id":"d1c4f566-91e4-4930-acbc-f4136fff2496","system_id":"levelo_inurba_marseille","lat":43.29178,"lon":5.35812,"is_reserved":false,"is_disabled":false,"rental_uris":{"android":"levelo://app?vid=d1c4f566-91e4-4930-acbc-f4136fff2496","ios":"levelo://app?vid=d1c4f566-91e4-4930-acbc-f4136fff2496"},"vehicle_type_id":"4","last_reported":1752858779,"current_range_meters":16000,"station_id":"ce4bhb12rcd13ifvqel0","pricing_plan_id":"cebpf4jnsgd1na2vs0mg"},{"bike_id":"0ffec689-ea73-4886-a8a8-e9075fc0366f","system_id":"levelo_inurba_marseille","lat":43.307275,"lon":5.424479,"is_reserved":false,"is_disabled":true,"rental_uris":{"android":"levelo://app?vid=0ffec689-ea73-4886-a8a8-e9075fc0366f","ios":"levelo://app?vid=0ffec689-ea73-4886-a8a8-e9075fc0366f"},"vehicle_type_id":"4","last_reported":1752858779,"current_range_meters":16000,"station_id":"st_cvj6ca6bvosntc0bfgr0","pricing_plan_id":"cebpf4jnsgd1na2vs0mg"},{"bike_id":"8373b49b-6c54-40af-b33b-93b03bb6abdc","system_id":"levelo_inurba_marseille","lat":43.24078,"lon":5.37756,"is_reserved":false,"is_disabled":false,"rental_uris":{"android":"levelo://app?vid=8373b49b-6c54-40af-b33b-93b03bb6abdc","ios":"levelo://app?vid=8373b49b-6c54-40af-b33b-93b03bb6abdc"},"vehicle_type_id":"4","last_reported":1752858779,"current_range_meters":16000,"station_id":"ce4bhnp2rcd13ifvqgvg","pricing_plan_id":"cebpf4jnsgd1na2vs0mg"},{"bike_id":"8e79a85b-71cd-44e2-9769-4ad285ff7c49","system_id":"levelo_inurba_marseille","lat":43.2178,"lon":5.3458,"is_reserved":false,"is_disabled":false,"rental_uris":{"android":"levelo://app?vid=8e79a85b-71cd-44e2-9769-4ad285ff7c49","ios":"levelo://app?vid=8e79a85b-71cd-44e2-9769-4ad285ff7c49"},"vehicle_type_id":"4","last_reported":1752858779,"current_range_meters":16000,"station_id":"","pricing_plan_id":"cebpf4jnsgd1na2vs0mg"},{"bike_id":"1417ce74-accc-485b-ac2a-bbef2a6f212a","system_id":"levelo_inurba_marseille","lat":43.28425,"lon":5.34982,"is_reserved":false,"is_disabled":false,"rental_uris":{"android":"levelo://app?vid=1417ce74-accc-485b-ac2a-bbef2a6f212a","ios":"levelo://app?vid=1417ce74-accc-485b-ac2a-bbef2a6f212a"},"vehicle_type_id":"4","last_reported":1752858779,"current_range_meters":16000,"station_id":"ce4bhbh2rcd13ifvqepg","pricing_plan_id":"cebpf4jnsgd1na2vs0mg"},{"bike_id":"bc868b7a-08b1-449f-9653-baab44edd271","system_id":"levelo_inurba_marseille","lat":43.26951,"lon":5.40231,"is_reserved":false,"is_disabled":false,"rental_uris":{"android":"levelo://app?vid=bc868b7a-08b1-449f-9653-baab44edd271","ios":"levelo://app?vid=bc868b7a-08b1-449f-9653-baab44edd271"},"vehicle_type_id":"4","last_reported":1752858779,"current_range_meters":16000,"station_id":"cjm6bp8fraef2m0cb0m0","pricing_plan_id":"cebpf4jnsgd1na2vs0mg"},{"bike_id":"8ec5cf2b-b33f-48eb-b99e-b6178df97e15","system_id":"levelo_inurba_marseille","lat":43.29607,"lon":5.38104,"is_reserved":false,"is_disabled":false,"rental_uris":{"android":"levelo://app?vid=8ec5cf2b-b33f-48eb-b99e-b6178df97e15","ios":"levelo://app?vid=8ec5cf2b-b33f-48eb-b99e-b6178df97e15"},"vehicle_type_id":"4","last_reported":1752858779,"current_range_meters":16000,"station_id":"ce4bgl12rcd13ifvqbo0","pricing_plan_id":"cebpf4jnsgd1na2vs0mg"},{"bike_id":"cd3021e3-25db-4132-923f-728310b04325","system_id":"levelo_inurba_marseille","lat":43.287506,"lon":5.400319,"is_reserved":false,"is_disabled":false,"rental_uris":{"android":"levelo://app?vid=cd3021e3-25db-4132-923f-728310b04325","ios":"levelo://app?vid=cd3021e3-25db-4132-923f-728310b04325"},"vehicle_type_id":"4","last_reported":1752858779,"current_range_meters":16400,"station_id":"ce4bho92rcd13ifvqh3g","pricing_plan_id":"cebpf4jnsgd1na2vs0mg"},{"bike_id":"076a7b82-4934-4b2d-a63c-ec47e05fa63e","system_id":"levelo_inurba_marseille","lat":43.28421,"lon":5.34982,"is_reserved":false,"is_disabled":false,"rental_uris":{"android":"levelo://app?vid=076a7b82-4934-4b2d-a63c-ec47e05fa63e","ios":"levelo://app?vid=076a7b82-4934-4b2d-a63c-ec47e05fa63e"},"vehicle_type_id":"4","last_reported":1752858779,"current_range_meters":16400,"station_id":"ce4bhbh2rcd13ifvqepg","pricing_plan_id":"cebpf4jnsgd1na2vs0mg"},{"bike_id":"5ed7e33c-75eb-4f80-9ced-f5eee5190af4","system_id":"levelo_inurba_marseille","lat":43.295599,"lon":5.422872,"is_reserved":false,"is_disabled":false,"rental_uris":{"android":"levelo://app?vid=5ed7e33c-75eb-4f80-9ced-f5eee5190af4","ios":"levelo://app?vid=5ed7e33c-75eb-4f80-9ced-f5eee5190af4"},"vehicle_type_id":"4","last_reported":1752858779,"current_range_meters":16400,"station_id":"ce4bhph2rcd13ifvqhdg","pricing_plan_id":"cebpf4jnsgd1na2vs0mg"},{"bike_id":"bdca4ffd-0f1d-40e4-8a31-0ad734ca5384","system_id":"levelo_inurba_marseille","lat":43.28273,"lon":5.3507,"is_reserved":false,"is_disabled":false,"rental_uris":{"android":"levelo://app?vid=bdca4ffd-0f1d-40e4-8a31-0ad734ca5384","ios":"levelo://app?vid=bdca4ffd-0f1d-40e4-8a31-0ad734ca5384"},"vehicle_type_id":"4","last_reported":1752858779,"current_range_meters":16400,"station_id":"ce4bhbp2rcd13ifvqerg","pricing_plan_id":"cebpf4jnsgd1na2vs0mg"},{"bike_id":"dadd6356-567d-4390-b685-2bef0f59e600","system_id":"levelo_inurba_marseille","lat":43.30374,"lon":5.42464,"is_reserved":false,"is_disabled":false,"rental_uris":{"android":"levelo://app?vid=dadd6356-567d-4390-b685-2bef0f59e600","ios":"levelo://app?vid=dadd6356-567d-4390-b685-2bef0f59e600"},"vehicle_type_id":"4","last_reported":1752858779,"current_range_meters":16400,"station_id":"ce4bhoh2rcd13ifvqh6g","pricing_plan_id":"cebpf4jnsgd1na2vs0mg"},{"bike_id":"c76c4f19-c97c-462a-a847-2dc2266e5ed6","system_id":"levelo_inurba_marseille","lat":43.30629,"lon":5.37219,"is_reserved":false,"is_disabled":false,"rental_uris":{"android":"levelo://app?vid=c76c4f19-c97c-462a-a847-2dc2266e5ed6","ios":"levelo://app?vid=c76c4f19-c97c-462a-a847-2dc2266e5ed6"},"vehicle_type_id":"4","last_reported":1752858779,"current_range_meters":16400,"station_id":"ce4bgqh2rcd13ifvqc4g","pricing_plan_id":"cebpf4jnsgd1na2vs0mg"},{"bike_id":"0add35c0-5546-484e-acce-579bec830548","system_id":"levelo_inurba_marseille","lat":43.29306,"lon":5.37466,"is_reserved":false,"is_disabled":false,"rental_uris":{"android":"levelo://app?vid=0add35c0-5546-484e-acce-579bec830548","ios":"levelo://app?vid=0add35c0-5546-484e-acce-579bec830548"},"vehicle_type_id":"4","last_reported":1752858779,"current_range_meters":16400,"station_id":"ce4bgi12rcd13ifvqb70","pricing_plan_id":"cebpf4jnsgd1na2vs0mg"},{"bike_id":"4d8eab37-05ff-499e-8566-5091e1c469b9","system_id":"levelo_inurba_marseille","lat":43.28004,"lon":5.40005,"is_reserved":false,"is_disabled":false,"rental_uris":{"android":"levelo://app?vid=4d8eab37-05ff-499e-8566-5091e1c469b9","ios":"levelo://app?vid=4d8eab37-05ff-499e-8566-5091e1c469b9"},"vehicle_type_id":"4","last_reported":1752858779,"current_range_meters":16400,"station_id":"ce4bho92rcd13ifvqh4g","pricing_plan_id":"cebpf4jnsgd1na2vs0mg"},{"bike_id":"e95945e9-e0e8-42d2-babc-3e4c3373619c","system_id":"levelo_inurba_marseille","lat":43.290062,"lon":5.35613,"is_reserved":false,"is_disabled":false,"rental_uris":{"android":"levelo://app?vid=e95945e9-e0e8-42d2-babc-3e4c3373619c","ios":"levelo://app?vid=e95945e9-e0e8-42d2-babc-3e4c3373619c"},"vehicle_type_id":"4","last_reported":1752858779,"current_range_meters":16400,"station_id":"ce4bhb92rcd13ifvqen0","pricing_plan_id":"cebpf4jnsgd1na2vs0mg"},{"bike_id":"308064af-f344-4c5d-a8d6-386918a2c781","system_id":"levelo_inurba_marseille","lat":43.29005,"lon":5.35617,"is_reserved":false,"is_disabled":false,"rental_uris":{"android":"levelo://app?vid=308064af-f344-4c5d-a8d6-386918a2c781","ios":"levelo://app?vid=308064af-f344-4c5d-a8d6-386918a2c781"},"vehicle_type_id":"4","last_reported":1752858779,"current_range_meters":16400,"station_id":"ce4bhb92rcd13ifvqen0","pricing_plan_id":"cebpf4jnsgd1na2vs0mg"},{"bike_id":"81b8982e-0de9-4985-b907-712e742b4afd","system_id":"levelo_inurba_marseille","lat":43.28176,"lon":5.40432,"is_reserved":false,"is_disabled":false,"rental_uris":{"android":"levelo://app?vid=81b8982e-0de9-4985-b907-712e742b4afd","ios":"levelo://app?vid=81b8982e-0de9-4985-b907-712e742b4afd"},"vehicle_type_id":"4","last_reported":1752858779,"current_range_meters":16400,"station_id":"","pricing_plan_id":"cebpf4jnsgd1na2vs0mg"},{"bike_id":"262bba80-9a85-4074-97aa-225c3aedc3b7","system_id":"levelo_inurba_marseille","lat":43.30655,"lon":5.40077,"is_reserved":false,"is_disabled":true,"rental_uris":{"android":"levelo://app?vid=262bba80-9a85-4074-97aa-225c3aedc3b7","ios":"levelo://app?vid=262bba80-9a85-4074-97aa-225c3aedc3b7"},"vehicle_type_id":"4","last_reported":1752858779,"current_range_meters":16400,"station_id":"ce4bh112rcd13ifvqda0","pricing_plan_id":"cebpf4jnsgd1na2vs0mg"},{"bike_id":"1a794689-0399-4bd8-871c-778f85fe0438","system_id":"levelo_inurba_marseille","lat":43.27517,"lon":5.42438,"is_reserved":false,"is_disabled":false,"rental_uris":{"android":"levelo://app?vid=1a794689-0399-4bd8-871c-778f85fe0438","ios":"levelo://app?vid=1a794689-0399-4bd8-871c-778f85fe0438"},"vehicle_type_id":"4","last_reported":1752858779,"current_range_meters":16400,"station_id":"ce4bhn92rcd13ifvqgrg","pricing_plan_id":"cebpf4jnsgd1na2vs0mg"},{"bike_id":"5e2a14e1-6dee-4baf-b82a-db4bd86ca624","system_id":"levelo_inurba_marseille","lat":43.26215,"lon":5.37442,"is_reserved":false,"is_disabled":false,"rental_uris":{"android":"levelo://app?vid=5e2a14e1-6dee-4baf-b82a-db4bd86ca624","ios":"levelo://app?vid=5e2a14e1-6dee-4baf-b82a-db4bd86ca624"},"vehicle_type_id":"4","last_reported":1752858779,"current_range_meters":16400,"station_id":"ce4bhgp2rcd13ifvqfc0","pricing_plan_id":"cebpf4jnsgd1na2vs0mg"},{"bike_id":"e2eda19f-8fc4-4737-a59d-fe2850b70580","system_id":"levelo_inurba_marseille","lat":43.26573,"lon":5.39019,"is_reserved":false,"is_disabled":false,"rental_uris":{"android":"levelo://app?vid=e2eda19f-8fc4-4737-a59d-fe2850b70580","ios":"levelo://app?vid=e2eda19f-8fc4-4737-a59d-fe2850b70580"},"vehicle_type_id":"4","last_reported":1752858779,"current_range_meters":16400,"station_id":"ce4bhe12rcd13ifvqf30","pricing_plan_id":"cebpf4jnsgd1na2vs0mg"},{"bike_id":"a3095add-91a2-4de7-b2c1-6083a3a8cac6","system_id":"levelo_inurba_marseille","lat":43.29852,"lon":5.36287,"is_reserved":false,"is_disabled":false,"rental_uris":{"android":"levelo://app?vid=a3095add-91a2-4de7-b2c1-6083a3a8cac6","ios":"levelo://app?vid=a3095add-91a2-4de7-b2c1-6083a3a8cac6"},"vehicle_type_id":"4","last_reported":1752858779,"current_range_meters":16400,"station_id":"ce4bgpp2rcd13ifvqc3g","pricing_plan_id":"cebpf4jnsgd1na2vs0mg"},{"bike_id":"f955df85-83e2-4e97-8c76-10cdc5c2a9fe","system_id":"levelo_inurba_marseille","lat":43.31561,"lon":5.38028,"is_reserved":false,"is_disabled":false,"rental_uris":{"android":"levelo://app?vid=f955df85-83e2-4e97-8c76-10cdc5c2a9fe","ios":"levelo://app?vid=f955df85-83e2-4e97-8c76-10cdc5c2a9fe"},"vehicle_type_id":"4","last_reported":1752858779,"current_range_meters":16800,"station_id":"ce4bhsp2rcd13ifvqi50","pricing_plan_id":"cebpf4jnsgd1na2vs0mg"},{"bike_id":"42525367-a877-4c70-a7a3-fe01fcc356af","system_id":"levelo_inurba_marseille","lat":43.30736,"lon":5.4244,"is_reserved":false,"is_disabled":false,"rental_uris":{"android":"levelo://app?vid=42525367-a877-4c70-a7a3-fe01fcc356af","ios":"levelo://app?vid=42525367-a877-4c70-a7a3-fe01fcc356af"},"vehicle_type_id":"4","last_reported":1752858779,"current_range_meters":16800,"station_id":"st_cvj6ca6bvosntc0bfgr0","pricing_plan_id":"cebpf4jnsgd1na2vs0mg"},{"bike_id":"badd91b4-6cd2-4ad9-94ee-e6dc3c2bffc2","system_id":"levelo_inurba_marseille","lat":43.26806,"lon":5.40271,"is_reserved":false,"is_disabled":false,"rental_uris":{"android":"levelo://app?vid=badd91b4-6cd2-4ad9-94ee-e6dc3c2bffc2","ios":"levelo://app?vid=badd91b4-6cd2-4ad9-94ee-e6dc3c2bffc2"},"vehicle_type_id":"4","last_reported":1752858779,"current_range_meters":16800,"station_id":"ce501612rcd8frsf0b60","pricing_plan_id":"cebpf4jnsgd1na2vs0mg"},{"bike_id":"0916292f-c60f-4ec2-a3c5-bb862cec8507","system_id":"levelo_inurba_marseille","lat":43.2319,"lon":5.35555,"is_reserved":false,"is_disabled":false,"rental_uris":{"android":"levelo://app?vid=0916292f-c60f-4ec2-a3c5-bb862cec8507","ios":"levelo://app?vid=0916292f-c60f-4ec2-a3c5-bb862cec8507"},"vehicle_type_id":"4","last_reported":1752858779,"current_range_meters":16800,"station_id":"ce4bhu92rcd13ifvqi70","pricing_plan_id":"cebpf4jnsgd1na2vs0mg"},{"bike_id":"5722a078-64aa-4789-9f72-f571755e92fd","system_id":"levelo_inurba_marseille","lat":43.28428,"lon":5.34994,"is_reserved":false,"is_disabled":false,"rental_uris":{"android":"levelo://app?vid=5722a078-64aa-4789-9f72-f571755e92fd","ios":"levelo://app?vid=5722a078-64aa-4789-9f72-f571755e92fd"},"vehicle_type_id":"4","last_reported":1752858779,"current_range_meters":16800,"station_id":"ce4bhbh2rcd13ifvqepg","pricing_plan_id":"cebpf4jnsgd1na2vs0mg"},{"bike_id":"bc1fa6bc-fd3f-43dd-82cf-1c7858fa8950","system_id":"levelo_inurba_marseille","lat":43.297,"lon":5.37951,"is_reserved":false,"is_disabled":false,"rental_uris":{"android":"levelo://app?vid=bc1fa6bc-fd3f-43dd-82cf-1c7858fa8950","ios":"levelo://app?vid=bc1fa6bc-fd3f-43dd-82cf-1c7858fa8950"},"vehicle_type_id":"4","last_reported":1752858779,"current_range_meters":17200,"station_id":"","pricing_plan_id":"cebpf4jnsgd1na2vs0mg"},{"bike_id":"761632cd-b51a-4d85-b597-17b25506b503","system_id":"levelo_inurba_marseille","lat":43.30325,"lon":5.40435,"is_reserved":false,"is_disabled":false,"rental_uris":{"android":"levelo://app?vid=761632cd-b51a-4d85-b597-17b25506b503","ios":"levelo://app?vid=761632cd-b51a-4d85-b597-17b25506b503"},"vehicle_type_id":"4","last_reported":1752858779,"current_range_meters":17200,"station_id":"ce4bh012rcd13ifvqd10","pricing_plan_id":"cebpf4jnsgd1na2vs0mg"},{"bike_id":"264b0ada-5b85-4d90-9e34-bb440cec00ce","system_id":"levelo_inurba_marseille","lat":43.28415,"lon":5.34982,"is_reserved":false,"is_disabled":false,"rental_uris":{"android":"levelo://app?vid=264b0ada-5b85-4d90-9e34-bb440cec00ce","ios":"levelo://app?vid=264b0ada-5b85-4d90-9e34-bb440cec00ce"},"vehicle_type_id":"4","last_reported":1752858779,"current_range_meters":17200,"station_id":"ce4bhbh2rcd13ifvqepg","pricing_plan_id":"cebpf4jnsgd1na2vs0mg"},{"bike_id":"afc91c81-7042-4270-a28e-07e325ae83c9","system_id":"levelo_inurba_marseille","lat":43.211924,"lon":5.350706,"is_reserved":false,"is_disabled":false,"rental_uris":{"android":"levelo://app?vid=afc91c81-7042-4270-a28e-07e325ae83c9","ios":"levelo://app?vid=afc91c81-7042-4270-a28e-07e325ae83c9"},"vehicle_type_id":"4","last_reported":1752858779,"current_range_meters":17200,"station_id":"st_cvj6sg6p6f1abm77japg","pricing_plan_id":"cebpf4jnsgd1na2vs0mg"},{"bike_id":"7cdbdc4c-b89d-4059-8dd3-82886d9ba55a","system_id":"levelo_inurba_marseille","lat":43.292259,"lon":5.360481,"is_reserved":false,"is_disabled":false,"rental_uris":{"android":"levelo://app?vid=7cdbdc4c-b89d-4059-8dd3-82886d9ba55a","ios":"levelo://app?vid=7cdbdc4c-b89d-4059-8dd3-82886d9ba55a"},"vehicle_type_id":"4","last_reported":1752858779,"current_range_meters":17200,"station_id":"ce4bhbh2rcd13ifvqeqg","pricing_plan_id":"cebpf4jnsgd1na2vs0mg"},{"bike_id":"9346da80-d0b8-43fb-a02c-d547533828d3","system_id":"levelo_inurba_marseille","lat":43.284205,"lon":5.349785,"is_reserved":false,"is_disabled":false,"rental_uris":{"android":"levelo://app?vid=9346da80-d0b8-43fb-a02c-d547533828d3","ios":"levelo://app?vid=9346da80-d0b8-43fb-a02c-d547533828d3"},"vehicle_type_id":"4","last_reported":1752858779,"current_range_meters":17200,"station_id":"ce4bhbh2rcd13ifvqepg","pricing_plan_id":"cebpf4jnsgd1na2vs0mg"},{"bike_id":"06b46bd1-38ed-44f7-9ba1-67361d8158e7","system_id":"levelo_inurba_marseille","lat":43.28428,"lon":5.34979,"is_reserved":false,"is_disabled":false,"rental_uris":{"android":"levelo://app?vid=06b46bd1-38ed-44f7-9ba1-67361d8158e7","ios":"levelo://app?vid=06b46bd1-38ed-44f7-9ba1-67361d8158e7"},"vehicle_type_id":"4","last_reported":1752858779,"current_range_meters":17200,"station_id":"ce4bhbh2rcd13ifvqepg","pricing_plan_id":"cebpf4jnsgd1na2vs0mg"},{"bike_id":"70932949-0810-4f53-a300-723f5bcb3ae5","system_id":"levelo_inurba_marseille","lat":43.22522,"lon":5.34767,"is_reserved":false,"is_disabled":false,"rental_uris":{"android":"levelo://app?vid=70932949-0810-4f53-a300-723f5bcb3ae5","ios":"levelo://app?vid=70932949-0810-4f53-a300-723f5bcb3ae5"},"vehicle_type_id":"4","last_reported":1752858779,"current_range_meters":17200,"station_id":"st_cvj5dfep6f1abm77gieg","pricing_plan_id":"cebpf4jnsgd1na2vs0mg"},{"bike_id":"b7afee91-4e34-455a-afd3-44b6075af4eb","system_id":"levelo_inurba_marseille","lat":43.26213,"lon":5.37441,"is_reserved":false,"is_disabled":false,"rental_uris":{"android":"levelo://app?vid=b7afee91-4e34-455a-afd3-44b6075af4eb","ios":"levelo://app?vid=b7afee91-4e34-455a-afd3-44b6075af4eb"},"vehicle_type_id":"4","last_reported":1752858779,"current_range_meters":17200,"station_id":"ce4bhgp2rcd13ifvqfc0","pricing_plan_id":"cebpf4jnsgd1na2vs0mg"},{"bike_id":"f6c97062-23b3-48e2-a347-34f6f8f3d30c","system_id":"levelo_inurba_marseille","lat":43.30418,"lon":5.41291,"is_reserved":false,"is_disabled":false,"rental_uris":{"android":"levelo://app?vid=f6c97062-23b3-48e2-a347-34f6f8f3d30c","ios":"levelo://app?vid=f6c97062-23b3-48e2-a347-34f6f8f3d30c"},"vehicle_type_id":"4","last_reported":1752858779,"current_range_meters":17200,"station_id":"ce4bhop2rcd13ifvqh8g","pricing_plan_id":"cebpf4jnsgd1na2vs0mg"},{"bike_id":"94c07cb2-0943-4d24-99f2-97bdab47aa3f","system_id":"levelo_inurba_marseille","lat":43.337444,"lon":5.374475,"is_reserved":false,"is_disabled":false,"rental_uris":{"android":"levelo://app?vid=94c07cb2-0943-4d24-99f2-97bdab47aa3f","ios":"levelo://app?vid=94c07cb2-0943-4d24-99f2-97bdab47aa3f"},"vehicle_type_id":"4","last_reported":1752858779,"current_range_meters":17200,"station_id":"","pricing_plan_id":"cebpf4jnsgd1na2vs0mg"},{"bike_id":"221a8f03-67cb-485b-8573-9abcf816d5d5","system_id":"levelo_inurba_marseille","lat":43.29868,"lon":5.39734,"is_reserved":false,"is_disabled":false,"rental_uris":{"android":"levelo://app?vid=221a8f03-67cb-485b-8573-9abcf816d5d5","ios":"levelo://app?vid=221a8f03-67cb-485b-8573-9abcf816d5d5"},"vehicle_type_id":"4","last_reported":1752858779,"current_range_meters":17600,"station_id":"","pricing_plan_id":"cebpf4jnsgd1na2vs0mg"},{"bike_id":"8b152cad-bd76-4c25-beb5-67fca3b5d14b","system_id":"levelo_inurba_marseille","lat":43.26214,"lon":5.37441,"is_reserved":false,"is_disabled":false,"rental_uris":{"android":"levelo://app?vid=8b152cad-bd76-4c25-beb5-67fca3b5d14b","ios":"levelo://app?vid=8b152cad-bd76-4c25-beb5-67fca3b5d14b"},"vehicle_type_id":"4","last_reported":1752858779,"current_range_meters":17600,"station_id":"ce4bhgp2rcd13ifvqfc0","pricing_plan_id":"cebpf4jnsgd1na2vs0mg"},{"bike_id":"cd5a9591-6e46-4776-8003-ff3824872e9f","system_id":"levelo_inurba_marseille","lat":43.28995,"lon":5.35625,"is_reserved":false,"is_disabled":true,"rental_uris":{"android":"levelo://app?vid=cd5a9591-6e46-4776-8003-ff3824872e9f","ios":"levelo://app?vid=cd5a9591-6e46-4776-8003-ff3824872e9f"},"vehicle_type_id":"4","last_reported":1752858779,"current_range_meters":17600,"station_id":"ce4bhb92rcd13ifvqen0","pricing_plan_id":"cebpf4jnsgd1na2vs0mg"},{"bike_id":"7360b2c1-827d-4a45-ba07-948ef7d2fc35","system_id":"levelo_inurba_marseille","lat":43.229295,"lon":5.353761,"is_reserved":false,"is_disabled":false,"rental_uris":{"android":"levelo://app?vid=7360b2c1-827d-4a45-ba07-948ef7d2fc35","ios":"levelo://app?vid=7360b2c1-827d-4a45-ba07-948ef7d2fc35"},"vehicle_type_id":"4","last_reported":1752858779,"current_range_meters":17600,"station_id":"","pricing_plan_id":"cebpf4jnsgd1na2vs0mg"},{"bike_id":"d5cf0ddb-4301-4e01-9253-a4393d968d0a","system_id":"levelo_inurba_marseille","lat":43.22526,"lon":5.34771,"is_reserved":false,"is_disabled":false,"rental_uris":{"android":"levelo://app?vid=d5cf0ddb-4301-4e01-9253-a4393d968d0a","ios":"levelo://app?vid=d5cf0ddb-4301-4e01-9253-a4393d968d0a"},"vehicle_type_id":"4","last_reported":1752858779,"current_range_meters":18000,"station_id":"st_cvj5dfep6f1abm77gieg","pricing_plan_id":"cebpf4jnsgd1na2vs0mg"},{"bike_id":"b4019c8b-c4be-4f1c-9c93-0a0d918b9790","system_id":"levelo_inurba_marseille","lat":43.28166,"lon":5.42475,"is_reserved":false,"is_disabled":false,"rental_uris":{"android":"levelo://app?vid=b4019c8b-c4be-4f1c-9c93-0a0d918b9790","ios":"levelo://app?vid=b4019c8b-c4be-4f1c-9c93-0a0d918b9790"},"vehicle_type_id":"4","last_reported":1752858779,"current_range_meters":18000,"station_id":"ce4bhnh2rcd13ifvqgug","pricing_plan_id":"cebpf4jnsgd1na2vs0mg"},{"bike_id":"cb7b541b-4aa0-476b-ac1b-c83b6acaa65d","system_id":"levelo_inurba_marseille","lat":43.2418,"lon":5.36392,"is_reserved":false,"is_disabled":false,"rental_uris":{"android":"levelo://app?vid=cb7b541b-4aa0-476b-ac1b-c83b6acaa65d","ios":"levelo://app?vid=cb7b541b-4aa0-476b-ac1b-c83b6acaa65d"},"vehicle_type_id":"4","last_reported":1752858779,"current_range_meters":18000,"station_id":"cpo36qri1sfpv3e86is0","pricing_plan_id":"cebpf4jnsgd1na2vs0mg"},{"bike_id":"f3281340-c0fa-463b-a532-8fe6d54ce761","system_id":"levelo_inurba_marseille","lat":43.2985,"lon":5.36287,"is_reserved":false,"is_disabled":false,"rental_uris":{"android":"levelo://app?vid=f3281340-c0fa-463b-a532-8fe6d54ce761","ios":"levelo://app?vid=f3281340-c0fa-463b-a532-8fe6d54ce761"},"vehicle_type_id":"4","last_reported":1752858779,"current_range_meters":18000,"station_id":"ce4bgpp2rcd13ifvqc3g","pricing_plan_id":"cebpf4jnsgd1na2vs0mg"},{"bike_id":"06528764-6334-43fa-8d58-2f6f6d61c8d9","system_id":"levelo_inurba_marseille","lat":43.28644,"lon":5.35145,"is_reserved":false,"is_disabled":false,"rental_uris":{"android":"levelo://app?vid=06528764-6334-43fa-8d58-2f6f6d61c8d9","ios":"levelo://app?vid=06528764-6334-43fa-8d58-2f6f6d61c8d9"},"vehicle_type_id":"4","last_reported":1752858779,"current_range_meters":18000,"station_id":"","pricing_plan_id":"cebpf4jnsgd1na2vs0mg"},{"bike_id":"96579d04-b9e9-484c-9b9a-af500e5e8552","system_id":"levelo_inurba_marseille","lat":43.326755,"lon":5.364014,"is_reserved":false,"is_disabled":false,"rental_uris":{"android":"levelo://app?vid=96579d04-b9e9-484c-9b9a-af500e5e8552","ios":"levelo://app?vid=96579d04-b9e9-484c-9b9a-af500e5e8552"},"vehicle_type_id":"4","last_reported":1752858779,"current_range_meters":18000,"station_id":"","pricing_plan_id":"cebpf4jnsgd1na2vs0mg"},{"bike_id":"af3956d0-70a8-44f4-aca7-32f000b8e721","system_id":"levelo_inurba_marseille","lat":43.24675,"lon":5.38914,"is_reserved":false,"is_disabled":false,"rental_uris":{"android":"levelo://app?vid=af3956d0-70a8-44f4-aca7-32f000b8e721","ios":"levelo://app?vid=af3956d0-70a8-44f4-aca7-32f000b8e721"},"vehicle_type_id":"4","last_reported":1752858779,"current_range_meters":18800,"station_id":"ce4bhg12rcd13ifvqf60","pricing_plan_id":"cebpf4jnsgd1na2vs0mg"},{"bike_id":"c51f4791-1b20-4bcc-963b-c54a586cf4cb","system_id":"levelo_inurba_marseille","lat":43.28282,"lon":5.35074,"is_reserved":false,"is_disabled":false,"rental_uris":{"android":"levelo://app?vid=c51f4791-1b20-4bcc-963b-c54a586cf4cb","ios":"levelo://app?vid=c51f4791-1b20-4bcc-963b-c54a586cf4cb"},"vehicle_type_id":"4","last_reported":1752858779,"current_range_meters":18800,"station_id":"ce4bhbp2rcd13ifvqerg","pricing_plan_id":"cebpf4jnsgd1na2vs0mg"},{"bike_id":"ed05027f-27de-4746-b9d5-8e5d85856d38","system_id":"levelo_inurba_marseille","lat":43.26779,"lon":5.39417,"is_reserved":false,"is_disabled":false,"rental_uris":{"android":"levelo://app?vid=ed05027f-27de-4746-b9d5-8e5d85856d38","ios":"levelo://app?vid=ed05027f-27de-4746-b9d5-8e5d85856d38"},"vehicle_type_id":"4","last_reported":1752858779,"current_range_meters":18000,"station_id":"ce4bhh12rcd13ifvqfg0","pricing_plan_id":"cebpf4jnsgd1na2vs0mg"},{"bike_id":"1e1c0f76-e695-4264-b624-464284416459","system_id":"levelo_inurba_marseille","lat":43.28148,"lon":5.42626,"is_reserved":false,"is_disabled":false,"rental_uris":{"android":"levelo://app?vid=1e1c0f76-e695-4264-b624-464284416459","ios":"levelo://app?vid=1e1c0f76-e695-4264-b624-464284416459"},"vehicle_type_id":"4","last_reported":1752858779,"current_range_meters":18800,"station_id":"ce4bhnh2rcd13ifvqgug","pricing_plan_id":"cebpf4jnsgd1na2vs0mg"},{"bike_id":"873bb7d3-e8f0-4a03-a66d-d6b14bd0f71c","system_id":"levelo_inurba_marseille","lat":43.30927,"lon":5.40141,"is_reserved":false,"is_disabled":false,"rental_uris":{"android":"levelo://app?vid=873bb7d3-e8f0-4a03-a66d-d6b14bd0f71c","ios":"levelo://app?vid=873bb7d3-e8f0-4a03-a66d-d6b14bd0f71c"},"vehicle_type_id":"4","last_reported":1752858779,"current_range_meters":19200,"station_id":"ce4bgvp2rcd13ifvqct0","pricing_plan_id":"cebpf4jnsgd1na2vs0mg"},{"bike_id":"d26921fd-4bdd-464e-9d11-776a5055fe23","system_id":"levelo_inurba_marseille","lat":43.28284,"lon":5.35073,"is_reserved":false,"is_disabled":false,"rental_uris":{"android":"levelo://app?vid=d26921fd-4bdd-464e-9d11-776a5055fe23","ios":"levelo://app?vid=d26921fd-4bdd-464e-9d11-776a5055fe23"},"vehicle_type_id":"4","last_reported":1752858779,"current_range_meters":18800,"station_id":"ce4bhbp2rcd13ifvqerg","pricing_plan_id":"cebpf4jnsgd1na2vs0mg"},{"bike_id":"42facc31-30c4-4e06-b220-35c381cca2a5","system_id":"levelo_inurba_marseille","lat":43.28285,"lon":5.35062,"is_reserved":false,"is_disabled":false,"rental_uris":{"android":"levelo://app?vid=42facc31-30c4-4e06-b220-35c381cca2a5","ios":"levelo://app?vid=42facc31-30c4-4e06-b220-35c381cca2a5"},"vehicle_type_id":"4","last_reported":1752858779,"current_range_meters":18800,"station_id":"ce4bhbp2rcd13ifvqerg","pricing_plan_id":"cebpf4jnsgd1na2vs0mg"},{"bike_id":"e109cd89-db7d-4327-b7bc-15b1bd0a9d04","system_id":"levelo_inurba_marseille","lat":43.28858,"lon":5.3585,"is_reserved":false,"is_disabled":false,"rental_uris":{"android":"levelo://app?vid=e109cd89-db7d-4327-b7bc-15b1bd0a9d04","ios":"levelo://app?vid=e109cd89-db7d-4327-b7bc-15b1bd0a9d04"},"vehicle_type_id":"4","last_reported":1752858779,"current_range_meters":18800,"station_id":"ce4bhb12rcd13ifvqem0","pricing_plan_id":"cebpf4jnsgd1na2vs0mg"},{"bike_id":"070514fe-927a-4fb0-9ca7-d8af1cc39ae0","system_id":"levelo_inurba_marseille","lat":43.28273,"lon":5.35077,"is_reserved":false,"is_disabled":false,"rental_uris":{"android":"levelo://app?vid=070514fe-927a-4fb0-9ca7-d8af1cc39ae0","ios":"levelo://app?vid=070514fe-927a-4fb0-9ca7-d8af1cc39ae0"},"vehicle_type_id":"4","last_reported":1752858779,"current_range_meters":18800,"station_id":"ce4bhbp2rcd13ifvqerg","pricing_plan_id":"cebpf4jnsgd1na2vs0mg"},{"bike_id":"27abd838-9c03-43a4-b664-2c47696691ee","system_id":"levelo_inurba_marseille","lat":43.28005,"lon":5.40015,"is_reserved":false,"is_disabled":false,"rental_uris":{"android":"levelo://app?vid=27abd838-9c03-43a4-b664-2c47696691ee","ios":"levelo://app?vid=27abd838-9c03-43a4-b664-2c47696691ee"},"vehicle_type_id":"4","last_reported":1752858779,"current_range_meters":18800,"station_id":"ce4bho92rcd13ifvqh4g","pricing_plan_id":"cebpf4jnsgd1na2vs0mg"},{"bike_id":"a7b92e07-0d22-4b45-8ef1-b763127c437f","system_id":"levelo_inurba_marseille","lat":43.32513,"lon":5.37487,"is_reserved":false,"is_disabled":false,"rental_uris":{"android":"levelo://app?vid=a7b92e07-0d22-4b45-8ef1-b763127c437f","ios":"levelo://app?vid=a7b92e07-0d22-4b45-8ef1-b763127c437f"},"vehicle_type_id":"4","last_reported":1752858779,"current_range_meters":18800,"station_id":"","pricing_plan_id":"cebpf4jnsgd1na2vs0mg"},{"bike_id":"9edb66cc-1272-4b9c-8898-b231c52c6b12","system_id":"levelo_inurba_marseille","lat":43.284832,"lon":5.385577,"is_reserved":false,"is_disabled":false,"rental_uris":{"android":"levelo://app?vid=9edb66cc-1272-4b9c-8898-b231c52c6b12","ios":"levelo://app?vid=9edb66cc-1272-4b9c-8898-b231c52c6b12"},"vehicle_type_id":"4","last_reported":1752858779,"current_range_meters":18800,"station_id":"ce4bh8p2rcd13ifvqeb0","pricing_plan_id":"cebpf4jnsgd1na2vs0mg"},{"bike_id":"1e6749c9-1e5c-45ca-9879-f9f325fbd63e","system_id":"levelo_inurba_marseille","lat":43.28287,"lon":5.35045,"is_reserved":false,"is_disabled":false,"rental_uris":{"android":"levelo://app?vid=1e6749c9-1e5c-45ca-9879-f9f325fbd63e","ios":"levelo://app?vid=1e6749c9-1e5c-45ca-9879-f9f325fbd63e"},"vehicle_type_id":"4","last_reported":1752858779,"current_range_meters":18800,"station_id":"ce4bhbp2rcd13ifvqerg","pricing_plan_id":"cebpf4jnsgd1na2vs0mg"},{"bike_id":"10d391b5-c179-4f9b-944d-e8c56b01a775","system_id":"levelo_inurba_marseille","lat":43.21756,"lon":5.34583,"is_reserved":false,"is_disabled":false,"rental_uris":{"android":"levelo://app?vid=10d391b5-c179-4f9b-944d-e8c56b01a775","ios":"levelo://app?vid=10d391b5-c179-4f9b-944d-e8c56b01a775"},"vehicle_type_id":"4","last_reported":1752858779,"current_range_meters":18800,"station_id":"st_cvj6r9ubvosntc0bgbag","pricing_plan_id":"cebpf4jnsgd1na2vs0mg"},{"bike_id":"6f18ab1b-0c74-47b1-bed8-837677176207","system_id":"levelo_inurba_marseille","lat":43.32054,"lon":5.40938,"is_reserved":false,"is_disabled":false,"rental_uris":{"android":"levelo://app?vid=6f18ab1b-0c74-47b1-bed8-837677176207","ios":"levelo://app?vid=6f18ab1b-0c74-47b1-bed8-837677176207"},"vehicle_type_id":"4","last_reported":1752858779,"current_range_meters":18800,"station_id":"","pricing_plan_id":"cebpf4jnsgd1na2vs0mg"},{"bike_id":"96c26efd-acf2-4a21-b7b0-74d08cebd61a","system_id":"levelo_inurba_marseille","lat":43.29602,"lon":5.38108,"is_reserved":false,"is_disabled":false,"rental_uris":{"android":"levelo://app?vid=96c26efd-acf2-4a21-b7b0-74d08cebd61a","ios":"levelo://app?vid=96c26efd-acf2-4a21-b7b0-74d08cebd61a"},"vehicle_type_id":"4","last_reported":1752858779,"current_range_meters":19200,"station_id":"ce4bgl12rcd13ifvqbo0","pricing_plan_id":"cebpf4jnsgd1na2vs0mg"},{"bike_id":"9eee562f-c74b-4c1a-8fa0-1792764207de","system_id":"levelo_inurba_marseille","lat":43.25505,"lon":5.37627,"is_reserved":false,"is_disabled":true,"rental_uris":{"android":"levelo://app?vid=9eee562f-c74b-4c1a-8fa0-1792764207de","ios":"levelo://app?vid=9eee562f-c74b-4c1a-8fa0-1792764207de"},"vehicle_type_id":"4","last_reported":1752858779,"current_range_meters":19200,"station_id":"ce4bhh12rcd13ifvqff0","pricing_plan_id":"cebpf4jnsgd1na2vs0mg"},{"bike_id":"45dea0eb-918d-49f1-8341-001e35c226f0","system_id":"levelo_inurba_marseille","lat":43.21198,"lon":5.35059,"is_reserved":false,"is_disabled":false,"rental_uris":{"android":"levelo://app?vid=45dea0eb-918d-49f1-8341-001e35c226f0","ios":"levelo://app?vid=45dea0eb-918d-49f1-8341-001e35c226f0"},"vehicle_type_id":"4","last_reported":1752858779,"current_range_meters":19600,"station_id":"st_cvj6sg6p6f1abm77japg","pricing_plan_id":"cebpf4jnsgd1na2vs0mg"},{"bike_id":"b4fef1be-e5a8-4dd5-b41b-545e293f0570","system_id":"levelo_inurba_marseille","lat":43.24388,"lon":5.3706,"is_reserved":false,"is_disabled":false,"rental_uris":{"android":"levelo://app?vid=b4fef1be-e5a8-4dd5-b41b-545e293f0570","ios":"levelo://app?vid=b4fef1be-e5a8-4dd5-b41b-545e293f0570"},"vehicle_type_id":"4","last_reported":1752858779,"current_range_meters":19200,"station_id":"ce4bhhh2rcd13ifvqfk0","pricing_plan_id":"cebpf4jnsgd1na2vs0mg"},{"bike_id":"81958b60-69b9-4ee8-a975-23ff5b6d8a65","system_id":"levelo_inurba_marseille","lat":43.28426,"lon":5.3498,"is_reserved":false,"is_disabled":false,"rental_uris":{"android":"levelo://app?vid=81958b60-69b9-4ee8-a975-23ff5b6d8a65","ios":"levelo://app?vid=81958b60-69b9-4ee8-a975-23ff5b6d8a65"},"vehicle_type_id":"4","last_reported":1752858779,"current_range_meters":19200,"station_id":"ce4bhbh2rcd13ifvqepg","pricing_plan_id":"cebpf4jnsgd1na2vs0mg"},{"bike_id":"53adf772-e559-4105-9924-292b35e64b0e","system_id":"levelo_inurba_marseille","lat":43.28281,"lon":5.35063,"is_reserved":false,"is_disabled":false,"rental_uris":{"android":"levelo://app?vid=53adf772-e559-4105-9924-292b35e64b0e","ios":"levelo://app?vid=53adf772-e559-4105-9924-292b35e64b0e"},"vehicle_type_id":"4","last_reported":1752858779,"current_range_meters":19200,"station_id":"ce4bhbp2rcd13ifvqerg","pricing_plan_id":"cebpf4jnsgd1na2vs0mg"},{"bike_id":"edc4b0c9-fab4-419c-a6b9-8cf24b51f4e2","system_id":"levelo_inurba_marseille","lat":43.22508,"lon":5.34786,"is_reserved":false,"is_disabled":false,"rental_uris":{"android":"levelo://app?vid=edc4b0c9-fab4-419c-a6b9-8cf24b51f4e2","ios":"levelo://app?vid=edc4b0c9-fab4-419c-a6b9-8cf24b51f4e2"},"vehicle_type_id":"4","last_reported":1752858779,"current_range_meters":19200,"station_id":"st_cvj5dfep6f1abm77gieg","pricing_plan_id":"cebpf4jnsgd1na2vs0mg"},