{"last_updated":1769411978,"ttl":60,"version":"2.2","data":{"bikes":[{"bike_id":"3a394631-0a40-43d9-bdf4-fd27d3a04df3","system_id":"levelo_inurba_marseille","lat":43.28783,"lon":5.43851,"is_reserved":false,"is_disabled":false,"rental_uris":{"android":"levelo://app?vid=3a394631-0a40-43d9-bdf4-fd27d3a04df3","ios":"levelo://app?vid=3a394631-0a40-43d9-bdf4-fd27d3a04df3"},"vehicle_type_id":"4","last_reported":1769411978,"current_range_meters":2800,"station_id":"","pricing_plan_id":"cebpf4jnsgd1na2vs0mg"},{"bike_id":"78d0833c-00f3-4da5-b926-a39f1e6d1de1","system_id":"levelo_inurba_marseille","lat":43.2763,"lon":5.36078,"is_reserved":false,"is_disabled":false,"rental_uris":{"android":"levelo://app?vid=78d0833c-00f3-4da5-b926-a39f1e6d1de1","ios":"levelo://app?vid=78d0833c-00f3-4da5-b926-a39f1e6d1de1"},"vehicle_type_id":"4","last_reported":1769411978,"current_range_meters":2800,"station_id":"ce4bgj92rcd13ifvqbe0","pricing_plan_id":"cebpf4jnsgd1na2vs0mg"},{"bike_id":"7fbd08ac-4873-40ce-8348-00e50d4fd738","system_id":"levelo_inurba_marseille","lat":43.27168,"lon":5.4098,"is_reserved":false,"is_disabled":false,"rental_uris":{"android":"levelo://app?vid=7fbd08ac-4873-40ce-8348-00e50d4fd738","ios":"levelo://app?vid=7fbd08ac-4873-40ce-8348-00e50d4fd738"},"vehicle_type_id":"4","last_reported":1769411978,"current_range_meters":2800,"station_id":"ce4bhl12rcd13ifvqgf0","pricing_plan_id":"cebpf4jnsgd1na2vs0mg"},{"bike_id":"3280b8e4-10d6-4ed2-b323-4ba5cc066069","system_id":"levelo_inurba_marseille","lat":43.26212,"lon":5.37427,"is_reserved":false,"is_disabled":false,"rental_uris":{"android":"levelo://app?vid=3280b8e4-10d6-4ed2-b323-4ba5cc066069","ios":"levelo://app?vid=3280b8e4-10d6-4ed2-b323-4ba5cc066069"},"vehicle_type_id":"4","last_reported":1769411978,"current_range_meters":2800,"station_id":"ce4bhgp2rcd13ifvqfc0","pricing_plan_id":"cebpf4jnsgd1na2vs0mg"},{"bike_id":"875e4077-5f8f-414d-8e4e-1d309239e541","system_id":"levelo_inurba_marseille","lat":43.23055,"lon":5.35506,"is_reserved":false,"is_disabled":false,"rental_uris":{"android":"levelo://app?vid=875e4077-5f8f-414d-8e4e-1d309239e541","ios":"levelo://app?vid=875e4077-5f8f-414d-8e4e-1d309239e541"},"vehicle_type_id":"4","last_reported":1769411978,"current_range_meters":2800,"station_id":"cpo3342slgdg3j2ifvpg","pricing_plan_id":"cebpf4jnsgd1na2vs0mg"},{"bike_id":"8699ae3a-7442-4675-8555-218a669f9b83","system_id":"levelo_inurba_marseille","lat":43.26948,"lon":5.38631,"is_reserved":false,"is_disabled":false,"rental_uris":{"android":"levelo://app?vid=8699ae3a-7442-4675-8555-218a669f9b83","ios":"levelo://app?vid=8699ae3a-7442-4675-8555-218a669f9b83"},"vehicle_type_id":"4","last_reported":1769411978,"current_range_meters":2800,"station_id":"ce4bhh92rcd13ifvqfh0","pricing_plan_id":"cebpf4jnsgd1na2vs0mg"},{"bike_id":"df4a0462-e4e4-4ed8-b26b-50628d43d8dd","system_id":"levelo_inurba_marseille","lat":43.31022,"lon":5.37162,"is_reserved":false,"is_disabled":false,"rental_uris":{"android":"levelo://app?vid=df4a0462-e4e4-4ed8-b26b-50628d43d8dd","ios":"levelo://app?vid=df4a0462-e4e4-4ed8-b26b-50628d43d8dd"},"vehicle_type_id":"4","last_reported":1769411978,"current_range_meters":2800,"station_id":"st_d4kl2rp97mjs73e7tdfg","pricing_plan_id":"cebpf4jnsgd1na2vs0mg"},{"bike_id":"d4e5a8bc-56ca-4b1e-9368-1c6ba53f48cb","system_id":"levelo_inurba_marseille","lat":43.28556,"lon":5.39497,"is_reserved":false,"is_disabled":true,"rental_uris":{"android":"levelo://app?vid=d4e5a8bc-56ca-4b1e-9368-1c6ba53f48cb","ios":"levelo://app?vid=d4e5a8bc-56ca-4b1e-9368-1c6ba53f48cb"},"vehicle_type_id":"4","last_reported":1769411978,"current_range_meters":3200,"station_id":"ce4bh292rcd13ifvqdg0","pricing_plan_id":"cebpf4jnsgd1na2vs0mg"},{"bike_id":"476fffc4-e48d-4c5f-b8d8-f007a167adcb","system_id":"levelo_inurba_marseille","lat":43.26219,"lon":5.38815,"is_reserved":false,"is_disabled":false,"rental_uris":{"android":"levelo://app?vid=476fffc4-e48d-4c5f-b8d8-f007a167adcb","ios":"levelo://app?vid=476fffc4-e48d-4c5f-b8d8-f007a167adcb"},"vehicle_type_id":"4","last_reported":1769411978,"current_range_meters":3200,"station_id":"","pricing_plan_id":"cebpf4jnsgd1na2vs0mg"},{"bike_id":"f8d6a6e0-1d68-4650-a94d-f633bf8c4370","system_id":"levelo_inurba_marseille","lat":43.23791,"lon":5.36629,"is_reserved":false,"is_disabled":false,"rental_uris":{"android":"levelo://app?vid=f8d6a6e0-1d68-4650-a94d-f633bf8c4370","ios":"levelo://app?vid=f8d6a6e0-1d68-4650-a94d-f633bf8c4370"},"vehicle_type_id":"4","last_reported":1769411978,"current_range_meters":3200,"station_id":"st_d3nk18o9ro0c73en2l3g","pricing_plan_id":"cebpf4jnsgd1na2vs0mg"},{"bike_id":"61165f3e-209e-47fa-857a-de8b3622f669","system_id":"levelo_inurba_marseille","lat":43.29638,"lon":5.37742,"is_reserved":false,"is_disabled":false,"rental_uris":{"android":"levelo://app?vid=61165f3e-209e-47fa-857a-de8b3622f669","ios":"levelo://app?vid=61165f3e-209e-47fa-857a-de8b3622f669"},"vehicle_type_id":"4","last_reported":1769411978,"current_range_meters":3200,"station_id":"ce4bgi92rcd13ifvqb90","pricing_plan_id":"cebpf4jnsgd1na2vs0mg"},{"bike_id":"0554af7b-4d97-4b09-bc8a-ccbbde3b5abf","system_id":"levelo_inurba_marseille","lat":43.24082,"lon":5.37756,"is_reserved":false,"is_disabled":false,"rental_uris":{"android":"levelo://app?vid=0554af7b-4d97-4b09-bc8a-ccbbde3b5abf","ios":"levelo://app?vid=0554af7b-4d97-4b09-bc8a-ccbbde3b5abf"},"vehicle_type_id":"4","last_reported":1769411978,"current_range_meters":3200,"station_id":"ce4bhnp2rcd13ifvqgvg","pricing_plan_id":"cebpf4jnsgd1na2vs0mg"},{"bike_id":"5fa896a8-aba8-4143-b23e-82d35adec35e","system_id":"levelo_inurba_marseille","lat":43.265549,"lon":5.372792,"is_reserved":false,"is_disabled":false,"rental_uris":{"android":"levelo://app?vid=5fa896a8-aba8-4143-b23e-82d35adec35e","ios":"levelo://app?vid=5fa896a8-aba8-4143-b23e-82d35adec35e"},"vehicle_type_id":"4","last_reported":1769411978,"current_range_meters":3200,"station_id":"ce4bhg12rcd13ifvqf70","pricing_plan_id":"cebpf4jnsgd1na2vs0mg"},{"bike_id":"0aba917e-b9b2-4f74-9fb1-714bdb801c89","system_id":"levelo_inurba_marseille","lat":43.27968,"lon":5.38733,"is_reserved":false,"is_disabled":false,"rental_uris":{"android":"levelo://app?vid=0aba917e-b9b2-4f74-9fb1-714bdb801c89","ios":"levelo://app?vid=0aba917e-b9b2-4f74-9fb1-714bdb801c89"},"vehicle_type_id":"4","last_reported":1769411978,"current_range_meters":3200,"station_id":"ce4bhg12rcd13ifvqf80","pricing_plan_id":"cebpf4jnsgd1na2vs0mg"},{"bike_id":"db618c29-4051-4521-a454-d046fcb41351","system_id":"levelo_inurba_marseille","lat":43.2848,"lon":5.35905,"is_reserved":false,"is_disabled":false,"rental_uris":{"android":"levelo://app?vid=db618c29-4051-4521-a454-d046fcb41351","ios":"levelo://app?vid=db618c29-4051-4521-a454-d046fcb41351"},"vehicle_type_id":"4","last_reported":1769411978,"current_range_meters":3200,"station_id":"ce4bhah2rcd13ifvqei0","pricing_plan_id":"cebpf4jnsgd1na2vs0mg"},{"bike_id":"a31d4b1b-7a61-4655-ae18-d5254ed9b3a3","system_id":"levelo_inurba_marseille","lat":43.2854,"lon":5.441,"is_reserved":false,"is_disabled":false,"rental_uris":{"android":"levelo://app?vid=a31d4b1b-7a61-4655-ae18-d5254ed9b3a3","ios":"levelo://app?vid=a31d4b1b-7a61-4655-ae18-d5254ed9b3a3"},"vehicle_type_id":"4","last_reported":1769411978,"current_range_meters":3600,"station_id":"st_d3j3df2ikq2c7380ej80","pricing_plan_id":"cebpf4jnsgd1na2vs0mg"},{"bike_id":"677ec20b-f7d8-44df-8a04-d7f0a2daa65b","system_id":"levelo_inurba_marseille","lat":43.28852,"lon":5.42509,"is_reserved":false,"is_disabled":false,"rental_uris":{"android":"levelo://app?vid=677ec20b-f7d8-44df-8a04-d7f0a2daa65b","ios":"levelo://app?vid=677ec20b-f7d8-44df-8a04-d7f0a2daa65b"},"vehicle_type_id":"4","last_reported":1769411978,"current_range_meters":3600,"station_id":"st_d3b462108ojc7389ooeg","pricing_plan_id":"cebpf4jnsgd1na2vs0mg"},{"bike_id":"500a807b-2dab-4995-a78d-d98aedb6eb89","system_id":"levelo_inurba_marseille","lat":43.27189,"lon":5.41025,"is_reserved":false,"is_disabled":false,"rental_uris":{"android":"levelo://app?vid=500a807b-2dab-4995-a78d-d98aedb6eb89","ios":"levelo://app?vid=500a807b-2dab-4995-a78d-d98aedb6eb89"},"vehicle_type_id":"4","last_reported":1769411978,"current_range_meters":3600,"station_id":"ce4bhl12rcd13ifvqgf0","pricing_plan_id":"cebpf4jnsgd1na2vs0mg"},{"bike_id":"0a787608-01d0-494b-b75a-ee1aaeefe053","system_id":"levelo_inurba_marseille","lat":43.29701,"lon":5.36629,"is_reserved":false,"is_disabled":false,"rental_uris":{"android":"levelo://app?vid=0a787608-01d0-494b-b75a-ee1aaeefe053","ios":"levelo://app?vid=0a787608-01d0-494b-b75a-ee1aaeefe053"},"vehicle_type_id":"4","last_reported":1769411978,"current_range_meters":3600,"station_id":"ce4bgn12rcd13ifvqbt0","pricing_plan_id":"cebpf4jnsgd1na2vs0mg"},{"bike_id":"87a6bc9b-e007-445e-ba91-175df47290fe","system_id":"levelo_inurba_marseille","lat":43.270558,"lon":5.402557,"is_reserved":false,"is_disabled":false,"rental_uris":{"android":"levelo://app?vid=87a6bc9b-e007-445e-ba91-175df47290fe","ios":"levelo://app?vid=87a6bc9b-e007-445e-ba91-175df47290fe"},"vehicle_type_id":"4","last_reported":1769411978,"current_range_meters":3600,"station_id":"ce4bhl12rcd13ifvqgf0","pricing_plan_id":"cebpf4jnsgd1na2vs0mg"},{"bike_id":"4e8fb272-4881-4fd0-9f58-3796236a95e4","system_id":"levelo_inurba_marseille","lat":43.29569,"lon":5.37503,"is_reserved":false,"is_disabled":false,"rental_uris":{"android":"levelo://app?vid=4e8fb272-4881-4fd0-9f58-3796236a95e4","ios":"levelo://app?vid=4e8fb272-4881-4fd0-9f58-3796236a95e4"},"vehicle_type_id":"4","last_reported":1769411978,"current_range_meters":3600,"station_id":"ce4bgh92rcd13ifvqb50","pricing_plan_id":"cebpf4jnsgd1na2vs0mg"},{"bike_id":"9c93149d-b500-48e4-b40e-4ba87cc7adef","system_id":"levelo_inurba_marseille","lat":43.24065,"lon":5.37762,"is_reserved":false,"is_disabled":false,"rental_uris":{"android":"levelo://app?vid=9c93149d-b500-48e4-b40e-4ba87cc7adef","ios":"levelo://app?vid=9c93149d-b500-48e4-b40e-4ba87cc7adef"},"vehicle_type_id":"4","last_reported":1769411978,"current_range_meters":3600,"station_id":"ce4bhnp2rcd13ifvqgvg","pricing_plan_id":"cebpf4jnsgd1na2vs0mg"},{"bike_id":"d7503130-10c8-43b2-8297-d9e107b1270f","system_id":"levelo_inurba_marseille","lat":43.30531,"lon":5.36657,"is_reserved":false,"is_disabled":false,"rental_uris":{"android":"levelo://app?vid=d7503130-10c8-43b2-8297-d9e107b1270f","ios":"levelo://app?vid=d7503130-10c8-43b2-8297-d9e107b1270f"},"vehicle_type_id":"4","last_reported":1769411978,"current_range_meters":3600,"station_id":"ce4bgrp2rcd13ifvqc9g","pricing_plan_id":"cebpf4jnsgd1na2vs0mg"},{"bike_id":"e40c7cca-9b46-456c-a02c-d2fd1fbf516a","system_id":"levelo_inurba_marseille","lat":43.29516,"lon":5.39408,"is_reserved":false,"is_disabled":true,"rental_uris":{"android":"levelo://app?vid=e40c7cca-9b46-456c-a02c-d2fd1fbf516a","ios":"levelo://app?vid=e40c7cca-9b46-456c-a02c-d2fd1fbf516a"},"vehicle_type_id":"4","last_reported":1769411978,"current_range_meters":3600,"station_id":"ce4bh292rcd13ifvqdf0","pricing_plan_id":"cebpf4jnsgd1na2vs0mg"},{"bike_id":"43ace758-19e2-45f5-81d3-4d0e67cb2c4e","system_id":"levelo_inurba_marseille","lat":43.23784,"lon":5.36633,"is_reserved":false,"is_disabled":false,"rental_uris":{"android":"levelo://app?vid=43ace758-19e2-45f5-81d3-4d0e67cb2c4e","ios":"levelo://app?vid=43ace758-19e2-45f5-81d3-4d0e67cb2c4e"},"vehicle_type_id":"4","last_reported":1769411978,"current_range_meters":3600,"station_id":"st_d3nk18o9ro0c73en2l3g","pricing_plan_id":"cebpf4jnsgd1na2vs0mg"},{"bike_id":"f4d5846c-646c-4d8e-923f-075604db61e5","system_id":"levelo_inurba_marseille","lat":43.246707,"lon":5.381649,"is_reserved":false,"is_disabled":false,"rental_uris":{"android":"levelo://app?vid=f4d5846c-646c-4d8e-923f-075604db61e5","ios":"levelo://app?vid=f4d5846c-646c-4d8e-923f-075604db61e5"},"vehicle_type_id":"4","last_reported":1769411978,"current_range_meters":3600,"station_id":"ce4bhih2rcd13ifvqfr0","pricing_plan_id":"cebpf4jnsgd1na2vs0mg"},{"bike_id":"2e46861b-c9e2-4124-8fb2-9f2e778640d7","system_id":"levelo_inurba_marseille","lat":43.21743,"lon":5.34608,"is_reserved":false,"is_disabled":false,"rental_uris":{"android":"levelo://app?vid=2e46861b-c9e2-4124-8fb2-9f2e778640d7","ios":"levelo://app?vid=2e46861b-c9e2-4124-8fb2-9f2e778640d7"},"vehicle_type_id":"4","last_reported":1769411978,"current_range_meters":4000,"station_id":"st_cvj6r9ubvosntc0bgbag","pricing_plan_id":"cebpf4jnsgd1na2vs0mg"},{"bike_id":"993c6494-f17c-4ae2-b2c9-33e36265140e","system_id":"levelo_inurba_marseille","lat":43.24386,"lon":5.37071,"is_reserved":false,"is_disabled":false,"rental_uris":{"android":"levelo://app?vid=993c6494-f17c-4ae2-b2c9-33e36265140e","ios":"levelo://app?vid=993c6494-f17c-4ae2-b2c9-33e36265140e"},"vehicle_type_id":"4","last_reported":1769411978,"current_range_meters":4000,"station_id":"ce4bhhh2rcd13ifvqfk0","pricing_plan_id":"cebpf4jnsgd1na2vs0mg"},{"bike_id":"d3fa972b-bd15-40b8-ae76-57840f2c0065","system_id":"levelo_inurba_marseille","lat":43.26991,"lon":5.40375,"is_reserved":false,"is_disabled":false,"rental_uris":{"android":"levelo://app?vid=d3fa972b-bd15-40b8-ae76-57840f2c0065","ios":"levelo://app?vid=d3fa972b-bd15-40b8-ae76-57840f2c0065"},"vehicle_type_id":"4","last_reported":1769411978,"current_range_meters":4000,"station_id":"","pricing_plan_id":"cebpf4jnsgd1na2vs0mg"},{"bike_id":"c1aeaa10-dc7f-4501-b461-bb241314d426","system_id":"levelo_inurba_marseille","lat":43.23196,"lon":5.35551,"is_reserved":false,"is_disabled":false,"rental_uris":{"android":"levelo://app?vid=c1aeaa10-dc7f-4501-b461-bb241314d426","ios":"levelo://app?vid=c1aeaa10-dc7f-4501-b461-bb241314d426"},"vehicle_type_id":"4","last_reported":1769411978,"current_range_meters":4000,"station_id":"ce4bhu92rcd13ifvqi70","pricing_plan_id":"cebpf4jnsgd1na2vs0mg"},{"bike_id":"deee5351-4723-42ee-bd80-9af191803937","system_id":"levelo_inurba_marseille","lat":43.291454,"lon":5.407913,"is_reserved":false,"is_disabled":false,"rental_uris":{"android":"levelo://app?vid=deee5351-4723-42ee-bd80-9af191803937","ios":"levelo://app?vid=deee5351-4723-42ee-bd80-9af191803937"},"vehicle_type_id":"4","last_reported":1769411978,"current_range_meters":4000,"station_id":"","pricing_plan_id":"cebpf4jnsgd1na2vs0mg"},{"bike_id":"0c16fd9f-27e4-4df5-a3f5-66328c64053c","system_id":"levelo_inurba_marseille","lat":43.29893,"lon":5.37446,"is_reserved":false,"is_disabled":false,"rental_uris":{"android":"levelo://app?vid=0c16fd9f-27e4-4df5-a3f5-66328c64053c","ios":"levelo://app?vid=0c16fd9f-27e4-4df5-a3f5-66328c64053c"},"vehicle_type_id":"4","last_reported":1769411978,"current_range_meters":4000,"station_id":"ce4bgjh2rcd13ifvqbg0","pricing_plan_id":"cebpf4jnsgd1na2vs0mg"},{"bike_id":"59493570-ce62-4c60-bd04-b81fd40449c1","system_id":"levelo_inurba_marseille","lat":43.31055,"lon":5.37169,"is_reserved":false,"is_disabled":false,"rental_uris":{"android":"levelo://app?vid=59493570-ce62-4c60-bd04-b81fd40449c1","ios":"levelo://app?vid=59493570-ce62-4c60-bd04-b81fd40449c1"},"vehicle_type_id":"4","last_reported":1769411978,"current_range_meters":4000,"station_id":"st_d4kl2rp97mjs73e7tdfg","pricing_plan_id":"cebpf4jnsgd1na2vs0mg"},{"bike_id":"9596f630-a277-4b6a-a9aa-2677d5cc298d","system_id":"levelo_inurba_marseille","lat":43.24173,"lon":5.39726,"is_reserved":false,"is_disabled":false,"rental_uris":{"android":"levelo://app?vid=9596f630-a277-4b6a-a9aa-2677d5cc298d","ios":"levelo://app?vid=9596f630-a277-4b6a-a9aa-2677d5cc298d"},"vehicle_type_id":"4","last_reported":1769411978,"current_range_meters":4000,"station_id":"ce4bhn12rcd13ifvqgpg","pricing_plan_id":"cebpf4jnsgd1na2vs0mg"},{"bike_id":"abc3a781-f3d6-481a-9f61-a5b4b605dfec","system_id":"levelo_inurba_marseille","lat":43.32363,"lon":5.36765,"is_reserved":false,"is_disabled":false,"rental_uris":{"android":"levelo://app?vid=abc3a781-f3d6-481a-9f61-a5b4b605dfec","ios":"levelo://app?vid=abc3a781-f3d6-481a-9f61-a5b4b605dfec"},"vehicle_type_id":"4","last_reported":1769411978,"current_range_meters":4000,"station_id":"ce4bhsh2rcd13ifvqi2g","pricing_plan_id":"cebpf4jnsgd1na2vs0mg"},{"bike_id":"d0688f56-c76a-4857-9b53-3a9213d89651","system_id":"levelo_inurba_marseille","lat":43.29034,"lon":5.39959,"is_reserved":false,"is_disabled":false,"rental_uris":{"android":"levelo://app?vid=d0688f56-c76a-4857-9b53-3a9213d89651","ios":"levelo://app?vid=d0688f56-c76a-4857-9b53-3a9213d89651"},"vehicle_type_id":"4","last_reported":1769411978,"current_range_meters":4000,"station_id":"ce4bh392rcd13ifvqdm0","pricing_plan_id":"cebpf4jnsgd1na2vs0mg"},{"bike_id":"141d28f0-443f-4ad7-b0c3-a9ecb4a2f679","system_id":"levelo_inurba_marseille","lat":43.28351,"lon":5.38105,"is_reserved":false,"is_disabled":false,"rental_uris":{"android":"levelo://app?vid=141d28f0-443f-4ad7-b0c3-a9ecb4a2f679","ios":"levelo://app?vid=141d28f0-443f-4ad7-b0c3-a9ecb4a2f679"},"vehicle_type_id":"4","last_reported":1769411978,"current_range_meters":4000,"station_id":"ce4bh412rcd13ifvqdr0","pricing_plan_id":"cebpf4jnsgd1na2vs0mg"},{"bike_id":"ba76e5c4-a7e9-42f3-b906-39834ce38819","system_id":"levelo_inurba_marseille","lat":43.23961,"lon":5.36635,"is_reserved":false,"is_disabled":false,"rental_uris":{"android":"levelo://app?vid=ba76e5c4-a7e9-42f3-b906-39834ce38819","ios":"levelo://app?vid=ba76e5c4-a7e9-42f3-b906-39834ce38819"},"vehicle_type_id":"4","last_reported":1769411978,"current_range_meters":4000,"station_id":"ce4bhi12rcd13ifvqfp0","pricing_plan_id":"cebpf4jnsgd1na2vs0mg"},{"bike_id":"b7b68940-6e50-4a74-9685-2e0e8b628270","system_id":"levelo_inurba_marseille","lat":43.306115,"lon":5.365557,"is_reserved":false,"is_disabled":false,"rental_uris":{"android":"levelo://app?vid=b7b68940-6e50-4a74-9685-2e0e8b628270","ios":"levelo://app?vid=b7b68940-6e50-4a74-9685-2e0e8b628270"},"vehicle_type_id":"4","last_reported":1769411978,"current_range_meters":4000,"station_id":"","pricing_plan_id":"cebpf4jnsgd1na2vs0mg"},{"bike_id":"414937c3-22ca-4ac8-a6d1-0b2223c3f608","system_id":"levelo_inurba_marseille","lat":43.25816,"lon":5.39441,"is_reserved":false,"is_disabled":false,"rental_uris":{"android":"levelo://app?vid=414937c3-22ca-4ac8-a6d1-0b2223c3f608","ios":"levelo://app?vid=414937c3-22ca-4ac8-a6d1-0b2223c3f608"},"vehicle_type_id":"4","last_reported":1769411978,"current_range_meters":4400,"station_id":"ce4bhip2rcd13ifvqft0","pricing_plan_id":"cebpf4jnsgd1na2vs0mg"},{"bike_id":"77a8d6f7-8520-4e5a-a0e7-89573d4a6a77","system_id":"levelo_inurba_marseille","lat":43.23763,"lon":5.36652,"is_reserved":false,"is_disabled":false,"rental_uris":{"android":"levelo://app?vid=77a8d6f7-8520-4e5a-a0e7-89573d4a6a77","ios":"levelo://app?vid=77a8d6f7-8520-4e5a-a0e7-89573d4a6a77"},"vehicle_type_id":"4","last_reported":1769411978,"current_range_meters":4400,"station_id":"st_d3nk18o9ro0c73en2l3g","pricing_plan_id":"cebpf4jnsgd1na2vs0mg"},{"bike_id":"b075d711-d93d-4120-85f9-64fa0a4a9a99","system_id":"levelo_inurba_marseille","lat":43.22548,"lon":5.41643,"is_reserved":false,"is_disabled":false,"rental_uris":{"android":"levelo://app?vid=b075d711-d93d-4120-85f9-64fa0a4a9a99","ios":"levelo://app?vid=b075d711-d93d-4120-85f9-64fa0a4a9a99"},"vehicle_type_id":"4","last_reported":1769411978,"current_range_meters":4400,"station_id":"st_d2o4gvlbi1j2169b742g","pricing_plan_id":"cebpf4jnsgd1na2vs0mg"},{"bike_id":"b9a85f81-db86-411f-bbb7-33e92cde08f2","system_id":"levelo_inurba_marseille","lat":43.309,"lon":5.40329,"is_reserved":false,"is_disabled":false,"rental_uris":{"android":"levelo://app?vid=b9a85f81-db86-411f-bbb7-33e92cde08f2","ios":"levelo://app?vid=b9a85f81-db86-411f-bbb7-33e92cde08f2"},"vehicle_type_id":"4","last_reported":1769411978,"current_range_meters":4400,"station_id":"ce4bgvp2rcd13ifvqct0","pricing_plan_id":"cebpf4jnsgd1na2vs0mg"},{"bike_id":"50006eb5-7e2d-4eec-b7db-04ba6e598980","system_id":"levelo_inurba_marseille","lat":43.329437,"lon":5.375837,"is_reserved":false,"is_disabled":false,"rental_uris":{"android":"levelo://app?vid=50006eb5-7e2d-4eec-b7db-04ba6e598980","ios":"levelo://app?vid=50006eb5-7e2d-4eec-b7db-04ba6e598980"},"vehicle_type_id":"4","last_reported":1769411978,"current_range_meters":4400,"station_id":"ce4bgt92rcd13ifvqcf0","pricing_plan_id":"cebpf4jnsgd1na2vs0mg"},{"bike_id":"cefc0408-08b4-45e0-8592-a44786197f49","system_id":"levelo_inurba_marseille","lat":43.2257,"lon":5.41633,"is_reserved":false,"is_disabled":false,"rental_uris":{"android":"levelo://app?vid=cefc0408-08b4-45e0-8592-a44786197f49","ios":"levelo://app?vid=cefc0408-08b4-45e0-8592-a44786197f49"},"vehicle_type_id":"4","last_reported":1769411978,"current_range_meters":4400,"station_id":"st_d2o4gvlbi1j2169b742g","pricing_plan_id":"cebpf4jnsgd1na2vs0mg"},{"bike_id":"241471d4-ea22-4707-b9cb-9d7a28477cee","system_id":"levelo_inurba_marseille","lat":43.30545,"lon":5.36529,"is_reserved":false,"is_disabled":false,"rental_uris":{"android":"levelo://app?vid=241471d4-ea22-4707-b9cb-9d7a28477cee","ios":"levelo://app?vid=241471d4-ea22-4707-b9cb-9d7a28477cee"},"vehicle_type_id":"4","last_reported":1769411978,"current_range_meters":4400,"station_id":"ce4bgs12rcd13ifvqcag","pricing_plan_id":"cebpf4jnsgd1na2vs0mg"},{"bike_id":"4241e7c1-162d-4ace-a947-4a0587651fef","system_id":"levelo_inurba_marseille","lat":43.31241,"lon":5.3687,"is_reserved":false,"is_disabled":false,"rental_uris":{"android":"levelo://app?vid=4241e7c1-162d-4ace-a947-4a0587651fef","ios":"levelo://app?vid=4241e7c1-162d-4ace-a947-4a0587651fef"},"vehicle_type_id":"4","last_reported":1769411978,"current_range_meters":4400,"station_id":"ce4bgl92rcd13ifvqbq0","pricing_plan_id":"cebpf4jnsgd1na2vs0mg"},{"bike_id":"bf2a852e-94c7-4343-a565-df061d1e5156","system_id":"levelo_inurba_marseille","lat":43.30152,"lon":5.38076,"is_reserved":false,"is_disabled":false,"rental_uris":{"android":"levelo://app?vid=bf2a852e-94c7-4343-a565-df061d1e5156","ios":"levelo://app?vid=bf2a852e-94c7-4343-a565-df061d1e5156"},"vehicle_type_id":"4","last_reported":1769411978,"current_range_meters":4400,"station_id":"ce4bgjp2rcd13ifvqbh0","pricing_plan_id":"cebpf4jnsgd1na2vs0mg"},{"bike_id":"ad575e34-9700-47fe-85fd-58d08c795ba9","system_id":"levelo_inurba_marseille","lat":43.24646,"lon":5.38891,"is_reserved":false,"is_disabled":false,"rental_uris":{"android":"levelo://app?vid=ad575e34-9700-47fe-85fd-58d08c795ba9","ios":"levelo://app?vid=ad575e34-9700-47fe-85fd-58d08c795ba9"},"vehicle_type_id":"4","last_reported":1769411978,"current_range_meters":4400,"station_id":"ce4bhg12rcd13ifvqf60","pricing_plan_id":"cebpf4jnsgd1na2vs0mg"},{"bike_id":"876ac817-c1de-4d59-a160-e12114ae46c0","system_id":"levelo_inurba_marseille","lat":43.31534,"lon":5.36659,"is_reserved":false,"is_disabled":false,"rental_uris":{"android":"levelo://app?vid=876ac817-c1de-4d59-a160-e12114ae46c0","ios":"levelo://app?vid=876ac817-c1de-4d59-a160-e12114ae46c0"},"vehicle_type_id":"4","last_reported":1769411978,"current_range_meters":4400,"station_id":"","pricing_plan_id":"cebpf4jnsgd1na2vs0mg"},{"bike_id":"e19418ad-aa76-4b1d-a53d-977a549e82e9","system_id":"levelo_inurba_marseille","lat":43.23195,"lon":5.35535,"is_reserved":false,"is_disabled":false,"rental_uris":{"android":"levelo://app?vid=e19418ad-aa76-4b1d-a53d-977a549e82e9","ios":"levelo://app?vid=e19418ad-aa76-4b1d-a53d-977a549e82e9"},"vehicle_type_id":"4","last_reported":1769411978,"current_range_meters":4400,"station_id":"ce4bhu92rcd13ifvqi70","pricing_plan_id":"cebpf4jnsgd1na2vs0mg"},{"bike_id":"3505f8b1-8fc5-4e81-ad99-9adf10bd1de1","system_id":"levelo_inurba_marseille","lat":43.246317,"lon":5.431451,"is_reserved":false,"is_disabled":false,"rental_uris":{"android":"levelo://app?vid=3505f8b1-8fc5-4e81-ad99-9adf10bd1de1","ios":"levelo://app?vid=3505f8b1-8fc5-4e81-ad99-9adf10bd1de1"},"vehicle_type_id":"4","last_reported":1769411978,"current_range_meters":4400,"station_id":"st_d2m6c4gdas8pm72e190g","pricing_plan_id":"cebpf4jnsgd1na2vs0mg"},{"bike_id":"b9917ecd-02a8-40e9-a0d0-4758759eb040","system_id":"levelo_inurba_marseille","lat":43.24571,"lon":5.37342,"is_reserved":false,"is_disabled":false,"rental_uris":{"android":"levelo://app?vid=b9917ecd-02a8-40e9-a0d0-4758759eb040","ios":"levelo://app?vid=b9917ecd-02a8-40e9-a0d0-4758759eb040"},"vehicle_type_id":"4","last_reported":1769411978,"current_range_meters":4400,"station_id":"","pricing_plan_id":"cebpf4jnsgd1na2vs0mg"},{"bike_id":"5fc0beb5-4f31-4401-80db-196c9af2213a","system_id":"levelo_inurba_marseille","lat":43.26752,"lon":5.39412,"is_reserved":false,"is_disabled":true,"rental_uris":{"android":"levelo://app?vid=5fc0beb5-4f31-4401-80db-196c9af2213a","ios":"levelo://app?vid=5fc0beb5-4f31-4401-80db-196c9af2213a"},"vehicle_type_id":"4","last_reported":1769411978,"current_range_meters":4400,"station_id":"","pricing_plan_id":"cebpf4jnsgd1na2vs0mg"},{"bike_id":"ffb6a194-260f-4933-8da9-320ddd27531e","system_id":"levelo_inurba_marseille","lat":43.25094,"lon":5.39542,"is_reserved":false,"is_disabled":false,"rental_uris":{"android":"levelo://app?vid=ffb6a194-260f-4933-8da9-320ddd27531e","ios":"levelo://app?vid=ffb6a194-260f-4933-8da9-320ddd27531e"},"vehicle_type_id":"4","last_reported":1769411978,"current_range_meters":4400,"station_id":"ce4bhm12rcd13ifvqgkg","pricing_plan_id":"cebpf4jnsgd1na2vs0mg"},{"bike_id":"8be2a01c-b49b-4acd-a1f4-625748495f68","system_id":"levelo_inurba_marseille","lat":43.24941,"lon":5.40491,"is_reserved":false,"is_disabled":false,"rental_uris":{"android":"levelo://app?vid=8be2a01c-b49b-4acd-a1f4-625748495f68","ios":"levelo://app?vid=8be2a01c-b49b-4acd-a1f4-625748495f68"},"vehicle_type_id":"4","last_reported":1769411978,"current_range_meters":4400,"station_id":"st_d2ngiaodas8pm72gd1h0","pricing_plan_id":"cebpf4jnsgd1na2vs0mg"},{"bike_id":"9a8f25c2-5367-40cc-b9ef-b306d9e5c20c","system_id":"levelo_inurba_marseille","lat":43.27913,"lon":5.38024,"is_reserved":false,"is_disabled":false,"rental_uris":{"android":"levelo://app?vid=9a8f25c2-5367-40cc-b9ef-b306d9e5c20c","ios":"levelo://app?vid=9a8f25c2-5367-40cc-b9ef-b306d9e5c20c"},"vehicle_type_id":"4","last_reported":1769411978,"current_range_meters":4400,"station_id":"ce4bhf92rcd13ifvqf50","pricing_plan_id":"cebpf4jnsgd1na2vs0mg"},{"bike_id":"965df6b7-673a-4e5d-9ee5-eda9741e28cb","system_id":"levelo_inurba_marseille","lat":43.30311,"lon":5.36895,"is_reserved":false,"is_disabled":false,"rental_uris":{"android":"levelo://app?vid=965df6b7-673a-4e5d-9ee5-eda9741e28cb","ios":"levelo://app?vid=965df6b7-673a-4e5d-9ee5-eda9741e28cb"},"vehicle_type_id":"4","last_reported":1769411978,"current_range_meters":4800,"station_id":"ce4bgqh2rcd13ifvqc5g","pricing_plan_id":"cebpf4jnsgd1na2vs0mg"},{"bike_id":"b1d59cca-e28a-4678-b838-1155b378cd48","system_id":"levelo_inurba_marseille","lat":43.33552,"lon":5.3747,"is_reserved":false,"is_disabled":false,"rental_uris":{"android":"levelo://app?vid=b1d59cca-e28a-4678-b838-1155b378cd48","ios":"levelo://app?vid=b1d59cca-e28a-4678-b838-1155b378cd48"},"vehicle_type_id":"4","last_reported":1769411978,"current_range_meters":4800,"station_id":"st_d46tts09ee8s73dlu43g","pricing_plan_id":"cebpf4jnsgd1na2vs0mg"},{"bike_id":"794f3834-b6bc-46c9-bd13-1903dc63add3","system_id":"levelo_inurba_marseille","lat":43.29224,"lon":5.36068,"is_reserved":false,"is_disabled":false,"rental_uris":{"android":"levelo://app?vid=794f3834-b6bc-46c9-bd13-1903dc63add3","ios":"levelo://app?vid=794f3834-b6bc-46c9-bd13-1903dc63add3"},"vehicle_type_id":"4","last_reported":1769411978,"current_range_meters":4800,"station_id":"ce4bhbh2rcd13ifvqeqg","pricing_plan_id":"cebpf4jnsgd1na2vs0mg"},{"bike_id":"760fba55-bff9-4a6f-82fd-8945891103a0","system_id":"levelo_inurba_marseille","lat":43.21763,"lon":5.34605,"is_reserved":false,"is_disabled":false,"rental_uris":{"android":"levelo://app?vid=760fba55-bff9-4a6f-82fd-8945891103a0","ios":"levelo://app?vid=760fba55-bff9-4a6f-82fd-8945891103a0"},"vehicle_type_id":"4","last_reported":1769411978,"current_range_meters":4800,"station_id":"st_cvj6r9ubvosntc0bgbag","pricing_plan_id":"cebpf4jnsgd1na2vs0mg"},{"bike_id":"7b13e501-03e9-4f24-a092-fac010457275","system_id":"levelo_inurba_marseille","lat":43.30802,"lon":5.38141,"is_reserved":false,"is_disabled":false,"rental_uris":{"android":"levelo://app?vid=7b13e501-03e9-4f24-a092-fac010457275","ios":"levelo://app?vid=7b13e501-03e9-4f24-a092-fac010457275"},"vehicle_type_id":"4","last_reported":1769411978,"current_range_meters":4800,"station_id":"ce4bgt12rcd13ifvqce0","pricing_plan_id":"cebpf4jnsgd1na2vs0mg"},{"bike_id":"ca006b1c-64f2-4772-acb4-e94321165aec","system_id":"levelo_inurba_marseille","lat":43.305489,"lon":5.367403,"is_reserved":false,"is_disabled":false,"rental_uris":{"android":"levelo://app?vid=ca006b1c-64f2-4772-acb4-e94321165aec","ios":"levelo://app?vid=ca006b1c-64f2-4772-acb4-e94321165aec"},"vehicle_type_id":"4","last_reported":1769411978,"current_range_meters":4800,"station_id":"ce4bgn92rcd13ifvqbvg","pricing_plan_id":"cebpf4jnsgd1na2vs0mg"},{"bike_id":"97179a2c-f4b8-410f-bb42-eefa50cda6f8","system_id":"levelo_inurba_marseille","lat":43.26946,"lon":5.3863,"is_reserved":false,"is_disabled":false,"rental_uris":{"android":"levelo://app?vid=97179a2c-f4b8-410f-bb42-eefa50cda6f8","ios":"levelo://app?vid=97179a2c-f4b8-410f-bb42-eefa50cda6f8"},"vehicle_type_id":"4","last_reported":1769411978,"current_range_meters":4800,"station_id":"ce4bhh92rcd13ifvqfh0","pricing_plan_id":"cebpf4jnsgd1na2vs0mg"},{"bike_id":"7e036456-a386-4efb-94df-0183fba99584","system_id":"levelo_inurba_marseille","lat":43.24662,"lon":5.38152,"is_reserved":false,"is_disabled":false,"rental_uris":{"android":"levelo://app?vid=7e036456-a386-4efb-94df-0183fba99584","ios":"levelo://app?vid=7e036456-a386-4efb-94df-0183fba99584"},"vehicle_type_id":"4","last_reported":1769411978,"current_range_meters":4800,"station_id":"ce4bhih2rcd13ifvqfr0","pricing_plan_id":"cebpf4jnsgd1na2vs0mg"},{"bike_id":"47c84634-2571-4f2b-89e1-eda481dedb9c","system_id":"levelo_inurba_marseille","lat":43.30536,"lon":5.36492,"is_reserved":false,"is_disabled":false,"rental_uris":{"android":"levelo://app?vid=47c84634-2571-4f2b-89e1-eda481dedb9c","ios":"levelo://app?vid=47c84634-2571-4f2b-89e1-eda481dedb9c"},"vehicle_type_id":"4","last_reported":1769411978,"current_range_meters":4800,"station_id":"","pricing_plan_id":"cebpf4jnsgd1na2vs0mg"},{"bike_id":"c101c5e7-a92c-4262-9de4-730cf3520d3e","system_id":"levelo_inurba_marseille","lat":43.24366,"lon":5.37127,"is_reserved":false,"is_disabled":false,"rental_uris":{"android":"levelo://app?vid=c101c5e7-a92c-4262-9de4-730cf3520d3e","ios":"levelo://app?vid=c101c5e7-a92c-4262-9de4-730cf3520d3e"},"vehicle_type_id":"4","last_reported":1769411978,"current_range_meters":5600,"station_id":"ce4bhhh2rcd13ifvqfk0","pricing_plan_id":"cebpf4jnsgd1na2vs0mg"},{"bike_id":"0de5032e-148a-468e-969e-fb644458ceae","system_id":"levelo_inurba_marseille","lat":43.25096,"lon":5.40486,"is_reserved":false,"is_disabled":false,"rental_uris":{"android":"levelo://app?vid=0de5032e-148a-468e-969e-fb644458ceae","ios":"levelo://app?vid=0de5032e-148a-468e-969e-fb644458ceae"},"vehicle_type_id":"4","last_reported":1769411978,"current_range_meters":5600,"station_id":"","pricing_plan_id":"cebpf4jnsgd1na2vs0mg"},{"bike_id":"4ecf6c12-33e8-4135-b4a4-e6c4ddb448fc","system_id":"levelo_inurba_marseille","lat":43.24072,"lon":5.37781,"is_reserved":false,"is_disabled":false,"rental_uris":{"android":"levelo://app?vid=4ecf6c12-33e8-4135-b4a4-e6c4ddb448fc","ios":"levelo://app?vid=4ecf6c12-33e8-4135-b4a4-e6c4ddb448fc"},"vehicle_type_id":"4","last_reported":1769411978,"current_range_meters":5600,"station_id":"ce4bhnp2rcd13ifvqgvg","pricing_plan_id":"cebpf4jnsgd1na2vs0mg"},{"bike_id":"5cfd7260-21a3-4346-b554-3744fc7c6072","system_id":"levelo_inurba_marseille","lat":43.2953,"lon":5.42283,"is_reserved":false,"is_disabled":false,"rental_uris":{"android":"levelo://app?vid=5cfd7260-21a3-4346-b554-3744fc7c6072","ios":"levelo://app?vid=5cfd7260-21a3-4346-b554-3744fc7c6072"},"vehicle_type_id":"4","last_reported":1769411978,"current_range_meters":5600,"station_id":"ce4bhph2rcd13ifvqhdg","pricing_plan_id":"cebpf4jnsgd1na2vs0mg"},{"bike_id":"6252b5bc-7f21-4a5c-90b2-fb54de33b122","system_id":"levelo_inurba_marseille","lat":43.2431,"lon":5.37017,"is_reserved":false,"is_disabled":false,"rental_uris":{"android":"levelo://app?vid=6252b5bc-7f21-4a5c-90b2-fb54de33b122","ios":"levelo://app?vid=6252b5bc-7f21-4a5c-90b2-fb54de33b122"},"vehicle_type_id":"4","last_reported":1769411978,"current_range_meters":5600,"station_id":"ce4bhhh2rcd13ifvqfk0","pricing_plan_id":"cebpf4jnsgd1na2vs0mg"},{"bike_id":"0a9315ef-49dd-4e1c-90ba-9ac1028ca5d9","system_id":"levelo_inurba_marseille","lat":43.321092,"lon":5.36766,"is_reserved":false,"is_disabled":false,"rental_uris":{"android":"levelo://app?vid=0a9315ef-49dd-4e1c-90ba-9ac1028ca5d9","ios":"levelo://app?vid=0a9315ef-49dd-4e1c-90ba-9ac1028ca5d9"},"vehicle_type_id":"4","last_reported":1769411978,"current_range_meters":5600,"station_id":"ce4bhrh2rcd13ifvqhug","pricing_plan_id":"cebpf4jnsgd1na2vs0mg"},{"bike_id":"a4aafa8d-a01c-4642-9e94-a5564c7bcce4","system_id":"levelo_inurba_marseille","lat":43.31118,"lon":5.37777,"is_reserved":false,"is_disabled":false,"rental_uris":{"android":"levelo://app?vid=a4aafa8d-a01c-4642-9e94-a5564c7bcce4","ios":"levelo://app?vid=a4aafa8d-a01c-4642-9e94-a5564c7bcce4"},"vehicle_type_id":"4","last_reported":1769411978,"current_range_meters":5600,"station_id":"ce4bgt92rcd13ifvqcg0","pricing_plan_id":"cebpf4jnsgd1na2vs0mg"},{"bike_id":"5d411b85-7b12-4358-9445-6cfeeebcda1f","system_id":"levelo_inurba_marseille","lat":43.2762,"lon":5.36104,"is_reserved":false,"is_disabled":false,"rental_uris":{"android":"levelo://app?vid=5d411b85-7b12-4358-9445-6cfeeebcda1f","ios":"levelo://app?vid=5d411b85-7b12-4358-9445-6cfeeebcda1f"},"vehicle_type_id":"4","last_reported":1769411978,"current_range_meters":5600,"station_id":"ce4bgj92rcd13ifvqbe0","pricing_plan_id":"cebpf4jnsgd1na2vs0mg"},{"bike_id":"10387f82-2301-4057-96f6-08df2a5bdb3c","system_id":"levelo_inurba_marseille","lat":43.268,"lon":5.40267,"is_reserved":false,"is_disabled":false,"rental_uris":{"android":"levelo://app?vid=10387f82-2301-4057-96f6-08df2a5bdb3c","ios":"levelo://app?vid=10387f82-2301-4057-96f6-08df2a5bdb3c"},"vehicle_type_id":"4","last_reported":1769411978,"current_range_meters":5600,"station_id":"ce501612rcd8frsf0b60","pricing_plan_id":"cebpf4jnsgd1na2vs0mg"},{"bike_id":"ea53cb96-b018-4a32-8207-3b5118a7a50d","system_id":"levelo_inurba_marseille","lat":43.32109,"lon":5.36802,"is_reserved":false,"is_disabled":false,"rental_uris":{"android":"levelo://app?vid=ea53cb96-b018-4a32-8207-3b5118a7a50d","ios":"levelo://app?vid=ea53cb96-b018-4a32-8207-3b5118a7a50d"},"vehicle_type_id":"4","last_reported":1769411978,"current_range_meters":5600,"station_id":"ce4bhrh2rcd13ifvqhug","pricing_plan_id":"cebpf4jnsgd1na2vs0mg"},{"bike_id":"94f0e610-db77-4234-9107-d4f7aa303985","system_id":"levelo_inurba_marseille","lat":43.29853,"lon":5.36285,"is_reserved":false,"is_disabled":false,"rental_uris":{"android":"levelo://app?vid=94f0e610-db77-4234-9107-d4f7aa303985","ios":"levelo://app?vid=94f0e610-db77-4234-9107-d4f7aa303985"},"vehicle_type_id":"4","last_reported":1769411978,"current_range_meters":5600,"station_id":"ce4bgpp2rcd13ifvqc3g","pricing_plan_id":"cebpf4jnsgd1na2vs0mg"},{"bike_id":"8d7dca46-a053-4327-8ea5-4953f6d7b78b","system_id":"levelo_inurba_marseille","lat":43.27813,"lon":5.40701,"is_reserved":false,"is_disabled":false,"rental_uris":{"android":"levelo://app?vid=8d7dca46-a053-4327-8ea5-4953f6d7b78b","ios":"levelo://app?vid=8d7dca46-a053-4327-8ea5-4953f6d7b78b"},"vehicle_type_id":"4","last_reported":1769411978,"current_range_meters":5600,"station_id":"ce4bhnh2rcd13ifvqgtg","pricing_plan_id":"cebpf4jnsgd1na2vs0mg"},{"bike_id":"685afed2-a1a7-451a-bbd1-1d039c6c7d84","system_id":"levelo_inurba_marseille","lat":43.30461,"lon":5.37908,"is_reserved":false,"is_disabled":false,"rental_uris":{"android":"levelo://app?vid=685afed2-a1a7-451a-bbd1-1d039c6c7d84","ios":"levelo://app?vid=685afed2-a1a7-451a-bbd1-1d039c6c7d84"},"vehicle_type_id":"4","last_reported":1769411978,"current_range_meters":5600,"station_id":"ce4bgup2rcd13ifvqcn0","pricing_plan_id":"cebpf4jnsgd1na2vs0mg"},{"bike_id":"0c11bc30-1254-4e35-b530-31f7fd6a4b39","system_id":"levelo_inurba_marseille","lat":43.30005,"lon":5.37364,"is_reserved":false,"is_disabled":false,"rental_uris":{"android":"levelo://app?vid=0c11bc30-1254-4e35-b530-31f7fd6a4b39","ios":"levelo://app?vid=0c11bc30-1254-4e35-b530-31f7fd6a4b39"},"vehicle_type_id":"4","last_reported":1769411978,"current_range_meters":5600,"station_id":"","pricing_plan_id":"cebpf4jnsgd1na2vs0mg"},{"bike_id":"4320c55d-ce46-429d-b0b8-d294aef9b24f","system_id":"levelo_inurba_marseille","lat":43.24072,"lon":5.37781,"is_reserved":false,"is_disabled":false,"rental_uris":{"android":"levelo://app?vid=4320c55d-ce46-429d-b0b8-d294aef9b24f","ios":"levelo://app?vid=4320c55d-ce46-429d-b0b8-d294aef9b24f"},"vehicle_type_id":"4","last_reported":1769411978,"current_range_meters":5600,"station_id":"ce4bhnp2rcd13ifvqgvg","pricing_plan_id":"cebpf4jnsgd1na2vs0mg"},{"bike_id":"79b4d61b-7593-4b54-857a-d10719e6ae1e","system_id":"levelo_inurba_marseille","lat":43.2594,"lon":5.40915,"is_reserved":false,"is_disabled":false,"rental_uris":{"android":"levelo://app?vid=79b4d61b-7593-4b54-857a-d10719e6ae1e","ios":"levelo://app?vid=79b4d61b-7593-4b54-857a-d10719e6ae1e"},"vehicle_type_id":"4","last_reported":1769411978,"current_range_meters":5600,"station_id":"ce4bhm92rcd13ifvqglg","pricing_plan_id":"cebpf4jnsgd1na2vs0mg"},{"bike_id":"dbf02342-dd3c-4a35-a4ad-2560cfa2e190","system_id":"levelo_inurba_marseille","lat":43.217406,"lon":5.346052,"is_reserved":false,"is_disabled":false,"rental_uris":{"android":"levelo://app?vid=dbf02342-dd3c-4a35-a4ad-2560cfa2e190","ios":"levelo://app?vid=dbf02342-dd3c-4a35-a4ad-2560cfa2e190"},"vehicle_type_id":"4","last_reported":1769411978,"current_range_meters":5600,"station_id":"st_cvj6r9ubvosntc0bgbag","pricing_plan_id":"cebpf4jnsgd1na2vs0mg"},{"bike_id":"e25d31ae-303a-4d7e-bbc3-3161852721cd","system_id":"levelo_inurba_marseille","lat":43.28475,"lon":5.38409,"is_reserved":false,"is_disabled":false,"rental_uris":{"android":"levelo://app?vid=e25d31ae-303a-4d7e-bbc3-3161852721cd","ios":"levelo://app?vid=e25d31ae-303a-4d7e-bbc3-3161852721cd"},"vehicle_type_id":"4","last_reported":1769411978,"current_range_meters":5600,"station_id":"ce4bh512rcd13ifvqe3g","pricing_plan_id":"cebpf4jnsgd1na2vs0mg"},{"bike_id":"ccb0e297-77ea-4bfa-8cea-f03ba80274c6","system_id":"levelo_inurba_marseille","lat":43.25584,"lon":5.38248,"is_reserved":false,"is_disabled":false,"rental_uris":{"android":"levelo://app?vid=ccb0e297-77ea-4bfa-8cea-f03ba80274c6","ios":"levelo://app?vid=ccb0e297-77ea-4bfa-8cea-f03ba80274c6"},"vehicle_type_id":"4","last_reported":1769411978,"current_range_meters":5600,"station_id":"ce4bhih2rcd13ifvqfs0","pricing_plan_id":"cebpf4jnsgd1na2vs0mg"},{"bike_id":"9501205b-32a8-4e92-8497-d189e68d1aab","system_id":"levelo_inurba_marseille","lat":43.28463,"lon":5.38549,"is_reserved":false,"is_disabled":false,"rental_uris":{"android":"levelo://app?vid=9501205b-32a8-4e92-8497-d189e68d1aab","ios":"levelo://app?vid=9501205b-32a8-4e92-8497-d189e68d1aab"},"vehicle_type_id":"4","last_reported":1769411978,"current_range_meters":6000,"station_id":"ce4bh8p2rcd13ifvqeb0","pricing_plan_id":"cebpf4jnsgd1na2vs0mg"},{"bike_id":"fe8f16c0-7c2c-4db5-9830-9c506d68052e","system_id":"levelo_inurba_marseille","lat":43.25116,"lon":5.40356,"is_reserved":false,"is_disabled":false,"rental_uris":{"android":"levelo://app?vid=fe8f16c0-7c2c-4db5-9830-9c506d68052e","ios":"levelo://app?vid=fe8f16c0-7c2c-4db5-9830-9c506d68052e"},"vehicle_type_id":"4","last_reported":1769411978,"current_range_meters":6000,"station_id":"ce4bhlh2rcd13ifvqgig","pricing_plan_id":"cebpf4jnsgd1na2vs0mg"},{"bike_id":"91d94f8f-bf04-4f53-b0a2-ffd68db2b3e5","system_id":"levelo_inurba_marseille","lat":43.29614,"lon":5.37177,"is_reserved":false,"is_disabled":false,"rental_uris":{"android":"levelo://app?vid=91d94f8f-bf04-4f53-b0a2-ffd68db2b3e5","ios":"levelo://app?vid=91d94f8f-bf04-4f53-b0a2-ffd68db2b3e5"},"vehicle_type_id":"4","last_reported":1769411978,"current_range_meters":6000,"station_id":"ce4bgnh2rcd13ifvqc0g","pricing_plan_id":"cebpf4jnsgd1na2vs0mg"},{"bike_id":"d7504a6d-9595-4dc3-a2ba-509c3d293f59","system_id":"levelo_inurba_marseille","lat":43.29677,"lon":5.37289,"is_reserved":false,"is_disabled":false,"rental_uris":{"android":"levelo://app?vid=d7504a6d-9595-4dc3-a2ba-509c3d293f59","ios":"levelo://app?vid=d7504a6d-9595-4dc3-a2ba-509c3d293f59"},"vehicle_type_id":"4","last_reported":1769411978,"current_range_meters":6000,"station_id":"ce4bgk12rcd13ifvqbj0","pricing_plan_id":"cebpf4jnsgd1na2vs0mg"},{"bike_id":"a7d2959e-278b-41d6-9192-a644114b55de","system_id":"levelo_inurba_marseille","lat":43.23791,"lon":5.3664,"is_reserved":false,"is_disabled":false,"rental_uris":{"android":"levelo://app?vid=a7d2959e-278b-41d6-9192-a644114b55de","ios":"levelo://app?vid=a7d2959e-278b-41d6-9192-a644114b55de"},"vehicle_type_id":"4","last_reported":1769411978,"current_range_meters":6000,"station_id":"st_d3nk18o9ro0c73en2l3g","pricing_plan_id":"cebpf4jnsgd1na2vs0mg"},{"bike_id":"5e529a5d-b2ca-40f2-848b-027e979b3e6d","system_id":"levelo_inurba_marseille","lat":43.31891,"lon":5.43516,"is_reserved":false,"is_disabled":false,"rental_uris":{"android":"levelo://app?vid=5e529a5d-b2ca-40f2-848b-027e979b3e6d","ios":"levelo://app?vid=5e529a5d-b2ca-40f2-848b-027e979b3e6d"},"vehicle_type_id":"4","last_reported":1769411978,"current_range_meters":6000,"station_id":"","pricing_plan_id":"cebpf4jnsgd1na2vs0mg"},{"bike_id":"4655293e-1e40-4eeb-a9e9-46bd44b618a4","system_id":"levelo_inurba_marseille","lat":43.2899,"lon":5.38116,"is_reserved":false,"is_disabled":false,"rental_uris":{"android":"levelo://app?vid=4655293e-1e40-4eeb-a9e9-46bd44b618a4","ios":"levelo://app?vid=4655293e-1e40-4eeb-a9e9-46bd44b618a4"},"vehicle_type_id":"4","last_reported":1769411978,"current_range_meters":6000,"station_id":"ce4bh4p2rcd13ifvqe1g","pricing_plan_id":"cebpf4jnsgd1na2vs0mg"},{"bike_id":"76242551-1b05-40ac-a7fd-938c60f142d2","system_id":"levelo_inurba_marseille","lat":43.29924,"lon":5.36561,"is_reserved":false,"is_disabled":true,"rental_uris":{"android":"levelo://app?vid=76242551-1b05-40ac-a7fd-938c60f142d2","ios":"levelo://app?vid=76242551-1b05-40ac-a7fd-938c60f142d2"},"vehicle_type_id":"4","last_reported":1769411978,"current_range_meters":6000,"station_id":"ce4bgm92rcd13ifvqbr0","pricing_plan_id":"cebpf4jnsgd1na2vs0mg"},{"bike_id":"5620fd0b-568e-406e-8104-b0555da61e8a","system_id":"levelo_inurba_marseille","lat":43.28479,"lon":5.48415,"is_reserved":false,"is_disabled":false,"rental_uris":{"android":"levelo://app?vid=5620fd0b-568e-406e-8104-b0555da61e8a","ios":"levelo://app?vid=5620fd0b-568e-406e-8104-b0555da61e8a"},"vehicle_type_id":"4","last_reported":1769411978,"current_range_meters":6000,"station_id":"","pricing_plan_id":"cebpf4jnsgd1na2vs0mg"},{"bike_id":"6b03ada9-beb1-4397-aab8-27781ac0b0d3","system_id":"levelo_inurba_marseille","lat":43.25113,"lon":5.40321,"is_reserved":false,"is_disabled":false,"rental_uris":{"android":"levelo://app?vid=6b03ada9-beb1-4397-aab8-27781ac0b0d3","ios":"levelo://app?vid=6b03ada9-beb1-4397-aab8-27781ac0b0d3"},"vehicle_type_id":"4","last_reported":1769411978,"current_range_meters":6000,"station_id":"ce4bhlh2rcd13ifvqgig","pricing_plan_id":"cebpf4jnsgd1na2vs0mg"},{"bike_id":"f086983b-6b78-4c73-bb98-288be450b483","system_id":"levelo_inurba_marseille","lat":43.29041,"lon":5.38645,"is_reserved":false,"is_disabled":false,"rental_uris":{"android":"levelo://app?vid=f086983b-6b78-4c73-bb98-288be450b483","ios":"levelo://app?vid=f086983b-6b78-4c73-bb98-288be450b483"},"vehicle_type_id":"4","last_reported":1769411978,"current_range_meters":6000,"station_id":"ce4bh4p2rcd13ifvqe0g","pricing_plan_id":"cebpf4jnsgd1na2vs0mg"},{"bike_id":"23e8e2b5-e425-472a-bc08-b0b79ef75ac3","system_id":"levelo_inurba_marseille","lat":43.285348,"lon":5.44095,"is_reserved":false,"is_disabled":false,"rental_uris":{"android":"levelo://app?vid=23e8e2b5-e425-472a-bc08-b0b79ef75ac3","ios":"levelo://app?vid=23e8e2b5-e425-472a-bc08-b0b79ef75ac3"},"vehicle_type_id":"4","last_reported":1769411978,"current_range_meters":6000,"station_id":"st_d3j3df2ikq2c7380ej80","pricing_plan_id":"cebpf4jnsgd1na2vs0mg"},{"bike_id":"e583aa8c-b22b-4d80-84b4-4fd298208578","system_id":"levelo_inurba_marseille","lat":43.30961,"lon":5.39013,"is_reserved":false,"is_disabled":false,"rental_uris":{"android":"levelo://app?vid=e583aa8c-b22b-4d80-84b4-4fd298208578","ios":"levelo://app?vid=e583aa8c-b22b-4d80-84b4-4fd298208578"},"vehicle_type_id":"4","last_reported":1769411978,"current_range_meters":6000,"station_id":"ce4bgup2rcd13ifvqco0","pricing_plan_id":"cebpf4jnsgd1na2vs0mg"},{"bike_id":"1f42ead9-558b-488e-9a30-95f563011506","system_id":"levelo_inurba_marseille","lat":43.28613,"lon":5.37075,"is_reserved":false,"is_disabled":false,"rental_uris":{"android":"levelo://app?vid=1f42ead9-558b-488e-9a30-95f563011506","ios":"levelo://app?vid=1f42ead9-558b-488e-9a30-95f563011506"},"vehicle_type_id":"4","last_reported":1769411978,"current_range_meters":6000,"station_id":"ce4bht12rcd13ifvqi60","pricing_plan_id":"cebpf4jnsgd1na2vs0mg"},{"bike_id":"99bc9e46-2a2d-4354-b606-97e38b1b91d7","system_id":"levelo_inurba_marseille","lat":43.23925,"lon":5.37585,"is_reserved":false,"is_disabled":false,"rental_uris":{"android":"levelo://app?vid=99bc9e46-2a2d-4354-b606-97e38b1b91d7","ios":"levelo://app?vid=99bc9e46-2a2d-4354-b606-97e38b1b91d7"},"vehicle_type_id":"4","last_reported":1769411978,"current_range_meters":6000,"station_id":"","pricing_plan_id":"cebpf4jnsgd1na2vs0mg"},{"bike_id":"b48ee151-3ed1-4e10-984a-1bdd1de5d934","system_id":"levelo_inurba_marseille","lat":43.26703,"lon":5.39007,"is_reserved":false,"is_disabled":false,"rental_uris":{"android":"levelo://app?vid=b48ee151-3ed1-4e10-984a-1bdd1de5d934","ios":"levelo://app?vid=b48ee151-3ed1-4e10-984a-1bdd1de5d934"},"vehicle_type_id":"4","last_reported":1769411978,"current_range_meters":6000,"station_id":"","pricing_plan_id":"cebpf4jnsgd1na2vs0mg"},{"bike_id":"76a1dac6-4b91-4c24-98e2-a51653f759db","system_id":"levelo_inurba_marseille","lat":43.23785,"lon":5.36614,"is_reserved":false,"is_disabled":false,"rental_uris":{"android":"levelo://app?vid=76a1dac6-4b91-4c24-98e2-a51653f759db","ios":"levelo://app?vid=76a1dac6-4b91-4c24-98e2-a51653f759db"},"vehicle_type_id":"4","last_reported":1769411978,"current_range_meters":6400,"station_id":"st_d3nk18o9ro0c73en2l3g","pricing_plan_id":"cebpf4jnsgd1na2vs0mg"},{"bike_id":"367a6bfa-022d-4ac7-9a7a-fafdb9ad5966","system_id":"levelo_inurba_marseille","lat":43.23165,"lon":5.39994,"is_reserved":false,"is_disabled":true,"rental_uris":{"android":"levelo://app?vid=367a6bfa-022d-4ac7-9a7a-fafdb9ad5966","ios":"levelo://app?vid=367a6bfa-022d-4ac7-9a7a-fafdb9ad5966"},"vehicle_type_id":"4","last_reported":1769411978,"current_range_meters":6400,"station_id":"ce4bhn12rcd13ifvqgqg","pricing_plan_id":"cebpf4jnsgd1na2vs0mg"},{"bike_id":"220c418b-28b6-4540-8ffd-c0aa175c1092","system_id":"levelo_inurba_marseille","lat":43.27968,"lon":5.41675,"is_reserved":false,"is_disabled":false,"rental_uris":{"android":"levelo://app?vid=220c418b-28b6-4540-8ffd-c0aa175c1092","ios":"levelo://app?vid=220c418b-28b6-4540-8ffd-c0aa175c1092"},"vehicle_type_id":"4","last_reported":1769411978,"current_range_meters":6400,"station_id":"ce4bho12rcd13ifvqh1g","pricing_plan_id":"cebpf4jnsgd1na2vs0mg"},{"bike_id":"b41ba2a0-1343-49eb-803d-f14eb8b0ccdf","system_id":"levelo_inurba_marseille","lat":43.26701,"lon":5.39242,"is_reserved":false,"is_disabled":false,"rental_uris":{"android":"levelo://app?vid=b41ba2a0-1343-49eb-803d-f14eb8b0ccdf","ios":"levelo://app?vid=b41ba2a0-1343-49eb-803d-f14eb8b0ccdf"},"vehicle_type_id":"4","last_reported":1769411978,"current_range_meters":6400,"station_id":"","pricing_plan_id":"cebpf4jnsgd1na2vs0mg"},{"bike_id":"70b373ec-c3e9-4acd-ad55-8386d0981035","system_id":"levelo_inurba_marseille","lat":43.23157,"lon":5.43727,"is_reserved":false,"is_disabled":false,"rental_uris":{"android":"levelo://app?vid=70b373ec-c3e9-4acd-ad55-8386d0981035","ios":"levelo://app?vid=70b373ec-c3e9-4acd-ad55-8386d0981035"},"vehicle_type_id":"4","last_reported":1769411978,"current_range_meters":6400,"station_id":"ce4bhmp2rcd13ifvqgog","pricing_plan_id":"cebpf4jnsgd1na2vs0mg"},{"bike_id":"dea969c0-1e1e-4f04-aa1c-2420f6f01cf2","system_id":"levelo_inurba_marseille","lat":43.21754,"lon":5.34604,"is_reserved":false,"is_disabled":false,"rental_uris":{"android":"levelo://app?vid=dea969c0-1e1e-4f04-aa1c-2420f6f01cf2","ios":"levelo://app?vid=dea969c0-1e1e-4f04-aa1c-2420f6f01cf2"},"vehicle_type_id":"4","last_reported":1769411978,"current_range_meters":6400,"station_id":"st_cvj6r9ubvosntc0bgbag","pricing_plan_id":"cebpf4jnsgd1na2vs0mg"},{"bike_id":"d9f9e2b2-54af-40ae-afc9-4710e408f281","system_id":"levelo_inurba_marseille","lat":43.294898,"lon":5.432978,"is_reserved":false,"is_disabled":false,"rental_uris":{"android":"levelo://app?vid=d9f9e2b2-54af-40ae-afc9-4710e408f281","ios":"levelo://app?vid=d9f9e2b2-54af-40ae-afc9-4710e408f281"},"vehicle_type_id":"4","last_reported":1769411978,"current_range_meters":6400,"station_id":"st_d3j5ugp08ojc73fj9d10","pricing_plan_id":"cebpf4jnsgd1na2vs0mg"},{"bike_id":"c0313abf-12fb-419d-943d-7cc5fd78e7ca","system_id":"levelo_inurba_marseille","lat":43.31248,"lon":5.36674,"is_reserved":false,"is_disabled":false,"rental_uris":{"android":"levelo://app?vid=c0313abf-12fb-419d-943d-7cc5fd78e7ca","ios":"levelo://app?vid=c0313abf-12fb-419d-943d-7cc5fd78e7ca"},"vehicle_type_id":"4","last_reported":1769411978,"current_range_meters":6400,"station_id":"","pricing_plan_id":"cebpf4jnsgd1na2vs0mg"},{"bike_id":"2c3aca49-eec2-4aa1-8600-8b4c60855852","system_id":"levelo_inurba_marseille","lat":43.24948,"lon":5.40478,"is_reserved":false,"is_disabled":false,"rental_uris":{"android":"levelo://app?vid=2c3aca49-eec2-4aa1-8600-8b4c60855852","ios":"levelo://app?vid=2c3aca49-eec2-4aa1-8600-8b4c60855852"},"vehicle_type_id":"4","last_reported":1769411978,"current_range_meters":6400,"station_id":"st_d2ngiaodas8pm72gd1h0","pricing_plan_id":"cebpf4jnsgd1na2vs0mg"},{"bike_id":"9536a92a-01ab-4017-8488-26a8fa6880af","system_id":"levelo_inurba_marseille","lat":43.25929,"lon":5.40929,"is_reserved":false,"is_disabled":false,"rental_uris":{"android":"levelo://app?vid=9536a92a-01ab-4017-8488-26a8fa6880af","ios":"levelo://app?vid=9536a92a-01ab-4017-8488-26a8fa6880af"},"vehicle_type_id":"4","last_reported":1769411978,"current_range_meters":6400,"station_id":"ce4bhm92rcd13ifvqglg","pricing_plan_id":"cebpf4jnsgd1na2vs0mg"},{"bike_id":"82f5d7cf-2c6e-4174-ab24-1fb4015f0fcf","system_id":"levelo_inurba_marseille","lat":43.23142,"lon":5.4373,"is_reserved":false,"is_disabled":false,"rental_uris":{"android":"levelo://app?vid=82f5d7cf-2c6e-4174-ab24-1fb4015f0fcf","ios":"levelo://app?vid=82f5d7cf-2c6e-4174-ab24-1fb4015f0fcf"},"vehicle_type_id":"4","last_reported":1769411978,"current_range_meters":6400,"station_id":"ce4bhmp2rcd13ifvqgog","pricing_plan_id":"cebpf4jnsgd1na2vs0mg"},{"bike_id":"76f15ad4-d2a1-4e04-beac-26f7234bdc21","system_id":"levelo_inurba_marseille","lat":43.302958,"lon":5.367497,"is_reserved":false,"is_disabled":false,"rental_uris":{"android":"levelo://app?vid=76f15ad4-d2a1-4e04-beac-26f7234bdc21","ios":"levelo://app?vid=76f15ad4-d2a1-4e04-beac-26f7234bdc21"},"vehicle_type_id":"4","last_reported":1769411978,"current_range_meters":6400,"station_id":"","pricing_plan_id":"cebpf4jnsgd1na2vs0mg"},{"bike_id":"89b0b06b-96cd-422e-8d52-1b3e92697b17","system_id":"levelo_inurba_marseille","lat":43.265564,"lon":5.403225,"is_reserved":false,"is_disabled":false,"rental_uris":{"android":"levelo://app?vid=89b0b06b-96cd-422e-8d52-1b3e92697b17","ios":"levelo://app?vid=89b0b06b-96cd-422e-8d52-1b3e92697b17"},"vehicle_type_id":"4","last_reported":1769411978,"current_range_meters":6400,"station_id":"ce4bhmp2rcd13ifvqgng","pricing_plan_id":"cebpf4jnsgd1na2vs0mg"},{"bike_id":"281c13db-7575-4f01-8cb4-ab2b2ff0bb6c","system_id":"levelo_inurba_marseille","lat":43.23053,"lon":5.35497,"is_reserved":false,"is_disabled":false,"rental_uris":{"android":"levelo://app?vid=281c13db-7575-4f01-8cb4-ab2b2ff0bb6c","ios":"levelo://app?vid=281c13db-7575-4f01-8cb4-ab2b2ff0bb6c"},"vehicle_type_id":"4","last_reported":1769411978,"current_range_meters":6400,"station_id":"cpo3342slgdg3j2ifvpg","pricing_plan_id":"cebpf4jnsgd1na2vs0mg"},{"bike_id":"872ca787-ea41-43ac-9081-3181ff9b1e3b","system_id":"levelo_inurba_marseille","lat":43.27367,"lon":5.36257,"is_reserved":false,"is_disabled":false,"rental_uris":{"android":"levelo://app?vid=872ca787-ea41-43ac-9081-3181ff9b1e3b","ios":"levelo://app?vid=872ca787-ea41-43ac-9081-3181ff9b1e3b"},"vehicle_type_id":"4","last_reported":1769411978,"current_range_meters":6400,"station_id":"ce4bhbh2rcd13ifvqeo0","pricing_plan_id":"cebpf4jnsgd1na2vs0mg"},{"bike_id":"dde8922d-6a09-4764-9a20-72b82f86b44c","system_id":"levelo_inurba_marseille","lat":43.297549,"lon":5.427793,"is_reserved":false,"is_disabled":false,"rental_uris":{"android":"levelo://app?vid=dde8922d-6a09-4764-9a20-72b82f86b44c","ios":"levelo://app?vid=dde8922d-6a09-4764-9a20-72b82f86b44c"},"vehicle_type_id":"4","last_reported":1769411978,"current_range_meters":6800,"station_id":"st_d3md5207bmas73dh9klg","pricing_plan_id":"cebpf4jnsgd1na2vs0mg"},{"bike_id":"5a924aa5-a60a-459f-9ce9-4aee6291d40d","system_id":"levelo_inurba_marseille","lat":43.24161,"lon":5.36392,"is_reserved":false,"is_disabled":false,"rental_uris":{"android":"levelo://app?vid=5a924aa5-a60a-459f-9ce9-4aee6291d40d","ios":"levelo://app?vid=5a924aa5-a60a-459f-9ce9-4aee6291d40d"},"vehicle_type_id":"4","last_reported":1769411978,"current_range_meters":6800,"station_id":"cpo36qri1sfpv3e86is0","pricing_plan_id":"cebpf4jnsgd1na2vs0mg"},{"bike_id":"af1a3621-d057-4ad0-b71e-c2bbcd71736a","system_id":"levelo_inurba_marseille","lat":43.30182,"lon":5.36605,"is_reserved":false,"is_disabled":true,"rental_uris":{"android":"levelo://app?vid=af1a3621-d057-4ad0-b71e-c2bbcd71736a","ios":"levelo://app?vid=af1a3621-d057-4ad0-b71e-c2bbcd71736a"},"vehicle_type_id":"4","last_reported":1769411978,"current_range_meters":6800,"station_id":"ce4bgrh2rcd13ifvqc8g","pricing_plan_id":"cebpf4jnsgd1na2vs0mg"},{"bike_id":"47492743-489d-45ae-8cd5-a690ce98ece0","system_id":"levelo_inurba_marseille","lat":43.25551,"lon":5.38245,"is_reserved":false,"is_disabled":false,"rental_uris":{"android":"levelo://app?vid=47492743-489d-45ae-8cd5-a690ce98ece0","ios":"levelo://app?vid=47492743-489d-45ae-8cd5-a690ce98ece0"},"vehicle_type_id":"4","last_reported":1769411978,"current_range_meters":6800,"station_id":"ce4bhih2rcd13ifvqfs0","pricing_plan_id":"cebpf4jnsgd1na2vs0mg"},{"bike_id":"bb6bbf44-2d20-4d66-acf9-a244f73a09c0","system_id":"levelo_inurba_marseille","lat":43.31336,"lon":5.36721,"is_reserved":false,"is_disabled":false,"rental_uris":{"android":"levelo://app?vid=bb6bbf44-2d20-4d66-acf9-a244f73a09c0","ios":"levelo://app?vid=bb6bbf44-2d20-4d66-acf9-a244f73a09c0"},"vehicle_type_id":"4","last_reported":1769411978,"current_range_meters":6800,"station_id":"ce4bgr92rcd13ifvqc6g","pricing_plan_id":"cebpf4jnsgd1na2vs0mg"},{"bike_id":"35de4117-1885-471d-ae81-ebbd7b148d3a","system_id":"levelo_inurba_marseille","lat":43.28157,"lon":5.42628,"is_reserved":false,"is_disabled":false,"rental_uris":{"android":"levelo://app?vid=35de4117-1885-471d-ae81-ebbd7b148d3a","ios":"levelo://app?vid=35de4117-1885-471d-ae81-ebbd7b148d3a"},"vehicle_type_id":"4","last_reported":1769411978,"current_range_meters":6800,"station_id":"ce4bhnh2rcd13ifvqgug","pricing_plan_id":"cebpf4jnsgd1na2vs0mg"},{"bike_id":"a15856db-9ac7-49b1-8876-30be7c45105f","system_id":"levelo_inurba_marseille","lat":43.24987,"lon":5.38952,"is_reserved":false,"is_disabled":false,"rental_uris":{"android":"levelo://app?vid=a15856db-9ac7-49b1-8876-30be7c45105f","ios":"levelo://app?vid=a15856db-9ac7-49b1-8876-30be7c45105f"},"vehicle_type_id":"4","last_reported":1769411978,"current_range_meters":6800,"station_id":"ce4bhgp2rcd13ifvqfd0","pricing_plan_id":"cebpf4jnsgd1na2vs0mg"},{"bike_id":"fdd9efc7-53e9-441d-b99b-586302834715","system_id":"levelo_inurba_marseille","lat":43.29703,"lon":5.37278,"is_reserved":false,"is_disabled":false,"rental_uris":{"android":"levelo://app?vid=fdd9efc7-53e9-441d-b99b-586302834715","ios":"levelo://app?vid=fdd9efc7-53e9-441d-b99b-586302834715"},"vehicle_type_id":"4","last_reported":1769411978,"current_range_meters":6800,"station_id":"ce4bgk12rcd13ifvqbj0","pricing_plan_id":"cebpf4jnsgd1na2vs0mg"},{"bike_id":"22635917-4405-4c39-8dba-6b0293801e2e","system_id":"levelo_inurba_marseille","lat":43.25336,"lon":5.42181,"is_reserved":false,"is_disabled":false,"rental_uris":{"android":"levelo://app?vid=22635917-4405-4c39-8dba-6b0293801e2e","ios":"levelo://app?vid=22635917-4405-4c39-8dba-6b0293801e2e"},"vehicle_type_id":"4","last_reported":1769411978,"current_range_meters":6800,"station_id":"st_d2m65c5bi1j21697t3ng","pricing_plan_id":"cebpf4jnsgd1na2vs0mg"},{"bike_id":"df7990c8-d4ac-49fd-a90f-8aeecf6062ee","system_id":"levelo_inurba_marseille","lat":43.33599,"lon":5.4104,"is_reserved":false,"is_disabled":false,"rental_uris":{"android":"levelo://app?vid=df7990c8-d4ac-49fd-a90f-8aeecf6062ee","ios":"levelo://app?vid=df7990c8-d4ac-49fd-a90f-8aeecf6062ee"},"vehicle_type_id":"4","last_reported":1769411978,"current_range_meters":6800,"station_id":"ce4bhqh2rcd13ifvqhmg","pricing_plan_id":"cebpf4jnsgd1na2vs0mg"},{"bike_id":"c8c1b411-fa04-4c2f-8d0a-463da57eee7b","system_id":"levelo_inurba_marseille","lat":43.28157,"lon":5.42664,"is_reserved":false,"is_disabled":false,"rental_uris":{"android":"levelo://app?vid=c8c1b411-fa04-4c2f-8d0a-463da57eee7b","ios":"levelo://app?vid=c8c1b411-fa04-4c2f-8d0a-463da57eee7b"},"vehicle_type_id":"4","last_reported":1769411978,"current_range_meters":6800,"station_id":"ce4bhnh2rcd13ifvqgug","pricing_plan_id":"cebpf4jnsgd1na2vs0mg"},{"bike_id":"b8b10137-8c02-488c-ac38-a06db031ad26","system_id":"levelo_inurba_marseille","lat":43.28537,"lon":5.44111,"is_reserved":false,"is_disabled":false,"rental_uris":{"android":"levelo://app?vid=b8b10137-8c02-488c-ac38-a06db031ad26","ios":"levelo://app?vid=b8b10137-8c02-488c-ac38-a06db031ad26"},"vehicle_type_id":"4","last_reported":1769411978,"current_range_meters":6800,"station_id":"st_d3j3df2ikq2c7380ej80","pricing_plan_id":"cebpf4jnsgd1na2vs0mg"},{"bike_id":"be414584-74db-4b77-a30b-17877bb2ae05","system_id":"levelo_inurba_marseille","lat":43.24076,"lon":5.3776,"is_reserved":false,"is_disabled":false,"rental_uris":{"android":"levelo://app?vid=be414584-74db-4b77-a30b-17877bb2ae05","ios":"levelo://app?vid=be414584-74db-4b77-a30b-17877bb2ae05"},"vehicle_type_id":"4","last_reported":1769411978,"current_range_meters":6800,"station_id":"ce4bhnp2rcd13ifvqgvg","pricing_plan_id":"cebpf4jnsgd1na2vs0mg"},{"bike_id":"6ca833bc-eb2d-4968-a64f-dee268a3783e","system_id":"levelo_inurba_marseille","lat":43.2314,"lon":5.43741,"is_reserved":false,"is_disabled":false,"rental_uris":{"android":"levelo://app?vid=6ca833bc-eb2d-4968-a64f-dee268a3783e","ios":"levelo://app?vid=6ca833bc-eb2d-4968-a64f-dee268a3783e"},"vehicle_type_id":"4","last_reported":1769411978,"current_range_meters":6800,"station_id":"ce4bhmp2rcd13ifvqgog","pricing_plan_id":"cebpf4jnsgd1na2vs0mg"},{"bike_id":"85e2d763-a451-4954-9de0-7bebd96f38df","system_id":"levelo_inurba_marseille","lat":43.337444,"lon":5.374475,"is_reserved":false,"is_disabled":false,"rental_uris":{"android":"levelo://app?vid=85e2d763-a451-4954-9de0-7bebd96f38df","ios":"levelo://app?vid=85e2d763-a451-4954-9de0-7bebd96f38df"},"vehicle_type_id":"4","last_reported":1769411978,"current_range_meters":6800,"station_id":"ce4bhl92rcd13ifvqghg","pricing_plan_id":"cebpf4jnsgd1na2vs0mg"},{"bike_id":"b3068d89-6006-49fd-8f19-f1ab3b5f066c","system_id":"levelo_inurba_marseille","lat":43.33574,"lon":5.40997,"is_reserved":false,"is_disabled":false,"rental_uris":{"android":"levelo://app?vid=b3068d89-6006-49fd-8f19-f1ab3b5f066c","ios":"levelo://app?vid=b3068d89-6006-49fd-8f19-f1ab3b5f066c"},"vehicle_type_id":"4","last_reported":1769411978,"current_range_meters":6800,"station_id":"","pricing_plan_id":"cebpf4jnsgd1na2vs0mg"},{"bike_id":"2a90b32b-f550-4685-9b26-0ed6251ae886","system_id":"levelo_inurba_marseille","lat":43.26216,"lon":5.40456,"is_reserved":false,"is_disabled":false,"rental_uris":{"android":"levelo://app?vid=2a90b32b-f550-4685-9b26-0ed6251ae886","ios":"levelo://app?vid=2a90b32b-f550-4685-9b26-0ed6251ae886"},"vehicle_type_id":"4","last_reported":1769411978,"current_range_meters":7200,"station_id":"ce4bhmh2rcd13ifvqgmg","pricing_plan_id":"cebpf4jnsgd1na2vs0mg"},{"bike_id":"dcc795f5-34a5-4b33-89a8-38509adc68cb","system_id":"levelo_inurba_marseille","lat":43.3133,"lon":5.36749,"is_reserved":false,"is_disabled":false,"rental_uris":{"android":"levelo://app?vid=dcc795f5-34a5-4b33-89a8-38509adc68cb","ios":"levelo://app?vid=dcc795f5-34a5-4b33-89a8-38509adc68cb"},"vehicle_type_id":"4","last_reported":1769411978,"current_range_meters":7200,"station_id":"ce4bgr92rcd13ifvqc6g","pricing_plan_id":"cebpf4jnsgd1na2vs0mg"},{"bike_id":"59a32110-ff6b-4156-94b4-62186bc46249","system_id":"levelo_inurba_marseille","lat":43.23132,"lon":5.43713,"is_reserved":false,"is_disabled":false,"rental_uris":{"android":"levelo://app?vid=59a32110-ff6b-4156-94b4-62186bc46249","ios":"levelo://app?vid=59a32110-ff6b-4156-94b4-62186bc46249"},"vehicle_type_id":"4","last_reported":1769411978,"current_range_meters":7200,"station_id":"ce4bhmp2rcd13ifvqgog","pricing_plan_id":"cebpf4jnsgd1na2vs0mg"},{"bike_id":"43fe3bc6-8793-41a7-a6a2-cec6d1cfdc81","system_id":"levelo_inurba_marseille","lat":43.31031,"lon":5.37208,"is_reserved":false,"is_disabled":false,"rental_uris":{"android":"levelo://app?vid=43fe3bc6-8793-41a7-a6a2-cec6d1cfdc81","ios":"levelo://app?vid=43fe3bc6-8793-41a7-a6a2-cec6d1cfdc81"},"vehicle_type_id":"4","last_reported":1769411978,"current_range_meters":7200,"station_id":"","pricing_plan_id":"cebpf4jnsgd1na2vs0mg"},{"bike_id":"09a5d1ab-035a-4dc3-bfa2-fcc95b884751","system_id":"levelo_inurba_marseille","lat":43.26947,"lon":5.38917,"is_reserved":false,"is_disabled":false,"rental_uris":{"android":"levelo://app?vid=09a5d1ab-035a-4dc3-bfa2-fcc95b884751","ios":"levelo://app?vid=09a5d1ab-035a-4dc3-bfa2-fcc95b884751"},"vehicle_type_id":"4","last_reported":1769411978,"current_range_meters":7200,"station_id":"ce4bhhh2rcd13ifvqfl0","pricing_plan_id":"cebpf4jnsgd1na2vs0mg"},{"bike_id":"8566dbdc-c2e6-4d54-8e15-9cf8e2df6988","system_id":"levelo_inurba_marseille","lat":43.282663,"lon":5.350556,"is_reserved":false,"is_disabled":false,"rental_uris":{"android":"levelo://app?vid=8566dbdc-c2e6-4d54-8e15-9cf8e2df6988","ios":"levelo://app?vid=8566dbdc-c2e6-4d54-8e15-9cf8e2df6988"},"vehicle_type_id":"4","last_reported":1769411978,"current_range_meters":7200,"station_id":"ce4bhbp2rcd13ifvqerg","pricing_plan_id":"cebpf4jnsgd1na2vs0mg"},{"bike_id":"1365c07a-5084-4a71-9038-9a5ac45e16d4","system_id":"levelo_inurba_marseille","lat":43.30459,"lon":5.37913,"is_reserved":false,"is_disabled":false,"rental_uris":{"android":"levelo://app?vid=1365c07a-5084-4a71-9038-9a5ac45e16d4","ios":"levelo://app?vid=1365c07a-5084-4a71-9038-9a5ac45e16d4"},"vehicle_type_id":"4","last_reported":1769411978,"current_range_meters":7200,"station_id":"ce4bgup2rcd13ifvqcn0","pricing_plan_id":"cebpf4jnsgd1na2vs0mg"},{"bike_id":"6e26fc8c-448e-43cd-b37f-f4be03989230","system_id":"levelo_inurba_marseille","lat":43.32357,"lon":5.36741,"is_reserved":false,"is_disabled":false,"rental_uris":{"android":"levelo://app?vid=6e26fc8c-448e-43cd-b37f-f4be03989230","ios":"levelo://app?vid=6e26fc8c-448e-43cd-b37f-f4be03989230"},"vehicle_type_id":"4","last_reported":1769411978,"current_range_meters":7200,"station_id":"ce4bhsh2rcd13ifvqi2g","pricing_plan_id":"cebpf4jnsgd1na2vs0mg"},{"bike_id":"b0d2c80e-ed15-4930-af0a-5bfc09a11396","system_id":"levelo_inurba_marseille","lat":43.22927,"lon":5.35385,"is_reserved":false,"is_disabled":false,"rental_uris":{"android":"levelo://app?vid=b0d2c80e-ed15-4930-af0a-5bfc09a11396","ios":"levelo://app?vid=b0d2c80e-ed15-4930-af0a-5bfc09a11396"},"vehicle_type_id":"4","last_reported":1769411978,"current_range_meters":7200,"station_id":"cpo3532slgdg3j2ikp40","pricing_plan_id":"cebpf4jnsgd1na2vs0mg"},{"bike_id":"399ac81d-4eef-4dd6-9d3c-75f658e814f0","system_id":"levelo_inurba_marseille","lat":43.23186,"lon":5.35556,"is_reserved":false,"is_disabled":false,"rental_uris":{"android":"levelo://app?vid=399ac81d-4eef-4dd6-9d3c-75f658e814f0","ios":"levelo://app?vid=399ac81d-4eef-4dd6-9d3c-75f658e814f0"},"vehicle_type_id":"4","last_reported":1769411978,"current_range_meters":7200,"station_id":"ce4bhu92rcd13ifvqi70","pricing_plan_id":"cebpf4jnsgd1na2vs0mg"},{"bike_id":"3b5a4c25-8fd0-4c8d-9794-315ef613a5a9","system_id":"levelo_inurba_marseille","lat":43.30312,"lon":5.36919,"is_reserved":false,"is_disabled":false,"rental_uris":{"android":"levelo://app?vid=3b5a4c25-8fd0-4c8d-9794-315ef613a5a9","ios":"levelo://app?vid=3b5a4c25-8fd0-4c8d-9794-315ef613a5a9"},"vehicle_type_id":"4","last_reported":1769411978,"current_range_meters":7200,"station_id":"ce4bgqh2rcd13ifvqc5g","pricing_plan_id":"cebpf4jnsgd1na2vs0mg"},{"bike_id":"f2aeba42-4813-4d62-a8bd-cf75da90e4bd","system_id":"levelo_inurba_marseille","lat":43.21195,"lon":5.35081,"is_reserved":false,"is_disabled":false,"rental_uris":{"android":"levelo://app?vid=f2aeba42-4813-4d62-a8bd-cf75da90e4bd","ios":"levelo://app?vid=f2aeba42-4813-4d62-a8bd-cf75da90e4bd"},"vehicle_type_id":"4","last_reported":1769411978,"current_range_meters":7200,"station_id":"","pricing_plan_id":"cebpf4jnsgd1na2vs0mg"},{"bike_id":"673b7328-d637-4a0e-85ef-2c2c28db2b3b","system_id":"levelo_inurba_marseille","lat":43.217539,"lon":5.346075,"is_reserved":false,"is_disabled":false,"rental_uris":{"android":"levelo://app?vid=673b7328-d637-4a0e-85ef-2c2c28db2b3b","ios":"levelo://app?vid=673b7328-d637-4a0e-85ef-2c2c28db2b3b"},"vehicle_type_id":"4","last_reported":1769411978,"current_range_meters":7200,"station_id":"st_cvj6r9ubvosntc0bgbag","pricing_plan_id":"cebpf4jnsgd1na2vs0mg"},{"bike_id":"37c3f561-4ae3-4405-b9d1-0c2e91fbee87","system_id":"levelo_inurba_marseille","lat":43.28477,"lon":5.48401,"is_reserved":false,"is_disabled":false,"rental_uris":{"android":"levelo://app?vid=37c3f561-4ae3-4405-b9d1-0c2e91fbee87","ios":"levelo://app?vid=37c3f561-4ae3-4405-b9d1-0c2e91fbee87"},"vehicle_type_id":"4","last_reported":1769411978,"current_range_meters":7200,"station_id":"st_d3svhcjqgbts73a3dn0g","pricing_plan_id":"cebpf4jnsgd1na2vs0mg"},{"bike_id":"c6509c90-b726-41db-a08c-6004244cdf86","system_id":"levelo_inurba_marseille","lat":43.30556,"lon":5.36556,"is_reserved":false,"is_disabled":false,"rental_uris":{"android":"levelo://app?vid=c6509c90-b726-41db-a08c-6004244cdf86","ios":"levelo://app?vid=c6509c90-b726-41db-a08c-6004244cdf86"},"vehicle_type_id":"4","last_reported":1769411978,"current_range_meters":7200,"station_id":"ce4bgs12rcd13ifvqcag","pricing_plan_id":"cebpf4jnsgd1na2vs0mg"},{"bike_id":"cdc9682b-4029-4c8f-8fd6-490c87d327bf","system_id":"levelo_inurba_marseille","lat":43.30535,"lon":5.36539,"is_reserved":false,"is_disabled":false,"rental_uris":{"android":"levelo://app?vid=cdc9682b-4029-4c8f-8fd6-490c87d327bf","ios":"levelo://app?vid=cdc9682b-4029-4c8f-8fd6-490c87d327bf"},"vehicle_type_id":"4","last_reported":1769411978,"current_range_meters":7200,"station_id":"ce4bgs12rcd13ifvqcag","pricing_plan_id":"cebpf4jnsgd1na2vs0mg"},{"bike_id":"301d4ab9-8be3-4faf-b233-9ff02a5162d0","system_id":"levelo_inurba_marseille","lat":43.298,"lon":5.38084,"is_reserved":false,"is_disabled":false,"rental_uris":{"android":"levelo://app?vid=301d4ab9-8be3-4faf-b233-9ff02a5162d0","ios":"levelo://app?vid=301d4ab9-8be3-4faf-b233-9ff02a5162d0"},"vehicle_type_id":"4","last_reported":1769411978,"current_range_meters":7200,"station_id":"ce4bgip2rcd13ifvqbb0","pricing_plan_id":"cebpf4jnsgd1na2vs0mg"},{"bike_id":"1d64597d-9aab-4864-8716-3d19fa5cdb9d","system_id":"levelo_inurba_marseille","lat":43.298084,"lon":5.440581,"is_reserved":false,"is_disabled":false,"rental_uris":{"android":"levelo://app?vid=1d64597d-9aab-4864-8716-3d19fa5cdb9d","ios":"levelo://app?vid=1d64597d-9aab-4864-8716-3d19fa5cdb9d"},"vehicle_type_id":"4","last_reported":1769411978,"current_range_meters":7200,"station_id":"st_d3jp68qikq2c7381ktn0","pricing_plan_id":"cebpf4jnsgd1na2vs0mg"},{"bike_id":"d49ed176-3bf8-4c35-b155-194dd87f7f2a","system_id":"levelo_inurba_marseille","lat":43.30299,"lon":5.36911,"is_reserved":false,"is_disabled":false,"rental_uris":{"android":"levelo://app?vid=d49ed176-3bf8-4c35-b155-194dd87f7f2a","ios":"levelo://app?vid=d49ed176-3bf8-4c35-b155-194dd87f7f2a"},"vehicle_type_id":"4","last_reported":1769411978,"current_range_meters":7200,"station_id":"ce4bgqh2rcd13ifvqc5g","pricing_plan_id":"cebpf4jnsgd1na2vs0mg"},{"bike_id":"4493373c-f94e-4639-b5cd-651171ec2379","system_id":"levelo_inurba_marseille","lat":43.243867,"lon":5.370508,"is_reserved":false,"is_disabled":false,"rental_uris":{"android":"levelo://app?vid=4493373c-f94e-4639-b5cd-651171ec2379","ios":"levelo://app?vid=4493373c-f94e-4639-b5cd-651171ec2379"},"vehicle_type_id":"4","last_reported":1769411978,"current_range_meters":7200,"station_id":"ce4bhhh2rcd13ifvqfk0","pricing_plan_id":"cebpf4jnsgd1na2vs0mg"},{"bike_id":"7f3e5c0b-c06f-4356-b8cb-68c8424b7076","system_id":"levelo_inurba_marseille","lat":43.3321,"lon":5.41255,"is_reserved":false,"is_disabled":false,"rental_uris":{"android":"levelo://app?vid=7f3e5c0b-c06f-4356-b8cb-68c8424b7076","ios":"levelo://app?vid=7f3e5c0b-c06f-4356-b8cb-68c8424b7076"},"vehicle_type_id":"4","last_reported":1769411978,"current_range_meters":7200,"station_id":"","pricing_plan_id":"cebpf4jnsgd1na2vs0mg"},{"bike_id":"6067e81b-5ea8-457a-ba5d-fb5d13b4c907","system_id":"levelo_inurba_marseille","lat":43.32355,"lon":5.36712,"is_reserved":false,"is_disabled":false,"rental_uris":{"android":"levelo://app?vid=6067e81b-5ea8-457a-ba5d-fb5d13b4c907","ios":"levelo://app?vid=6067e81b-5ea8-457a-ba5d-fb5d13b4c907"},"vehicle_type_id":"4","last_reported":1769411978,"current_range_meters":7200,"station_id":"ce4bhsh2rcd13ifvqi2g","pricing_plan_id":"cebpf4jnsgd1na2vs0mg"},{"bike_id":"16ac6a98-72f5-44f8-b1d4-83d2f7e68694","system_id":"levelo_inurba_marseille","lat":43.24078,"lon":5.37776,"is_reserved":false,"is_disabled":false,"rental_uris":{"android":"levelo://app?vid=16ac6a98-72f5-44f8-b1d4-83d2f7e68694","ios":"levelo://app?vid=16ac6a98-72f5-44f8-b1d4-83d2f7e68694"},"vehicle_type_id":"4","last_reported":1769411978,"current_range_meters":8000,"station_id":"ce4bhnp2rcd13ifvqgvg","pricing_plan_id":"cebpf4jnsgd1na2vs0mg"},{"bike_id":"9713f383-b08e-4426-b8eb-983d4865231f","system_id":"levelo_inurba_marseille","lat":43.2439,"lon":5.3706,"is_reserved":false,"is_disabled":false,"rental_uris":{"android":"levelo://app?vid=9713f383-b08e-4426-b8eb-983d4865231f","ios":"levelo://app?vid=9713f383-b08e-4426-b8eb-983d4865231f"},"vehicle_type_id":"4","last_reported":1769411978,"current_range_meters":8000,"station_id":"ce4bhhh2rcd13ifvqfk0","pricing_plan_id":"cebpf4jnsgd1na2vs0mg"},{"bike_id":"b633e966-5653-4f4f-933b-143a8d470829","system_id":"levelo_inurba_marseille","lat":43.260709,"lon":5.373006,"is_reserved":false,"is_disabled":false,"rental_uris":{"android":"levelo://app?vid=b633e966-5653-4f4f-933b-143a8d470829","ios":"levelo://app?vid=b633e966-5653-4f4f-933b-143a8d470829"},"vehicle_type_id":"4","last_reported":1769411978,"current_range_meters":8000,"station_id":"","pricing_plan_id":"cebpf4jnsgd1na2vs0mg"},{"bike_id":"a412b551-de48-49a2-a43e-b0193ba01773","system_id":"levelo_inurba_marseille","lat":43.29199,"lon":5.39311,"is_reserved":false,"is_disabled":true,"rental_uris":{"android":"levelo://app?vid=a412b551-de48-49a2-a43e-b0193ba01773","ios":"levelo://app?vid=a412b551-de48-49a2-a43e-b0193ba01773"},"vehicle_type_id":"4","last_reported":1769411978,"current_range_meters":8000,"station_id":"ce4bh192rcd13ifvqdd0","pricing_plan_id":"cebpf4jnsgd1na2vs0mg"},{"bike_id":"fd001706-12fa-4e7c-83bf-349bf2fcad2c","system_id":"levelo_inurba_marseille","lat":43.29219,"lon":5.36078,"is_reserved":false,"is_disabled":false,"rental_uris":{"android":"levelo://app?vid=fd001706-12fa-4e7c-83bf-349bf2fcad2c","ios":"levelo://app?vid=fd001706-12fa-4e7c-83bf-349bf2fcad2c"},"vehicle_type_id":"4","last_reported":1769411978,"current_range_meters":8000,"station_id":"ce4bhbh2rcd13ifvqeqg","pricing_plan_id":"cebpf4jnsgd1na2vs0mg"},{"bike_id":"4f9646d0-e890-4075-9fb7-8871574ea59d","system_id":"levelo_inurba_marseille","lat":43.25013,"lon":5.38926,"is_reserved":false,"is_disabled":false,"rental_uris":{"android":"levelo://app?vid=4f9646d0-e890-4075-9fb7-8871574ea59d","ios":"levelo://app?vid=4f9646d0-e890-4075-9fb7-8871574ea59d"},"vehicle_type_id":"4","last_reported":1769411978,"current_range_meters":8000,"station_id":"ce4bhgp2rcd13ifvqfd0","pricing_plan_id":"cebpf4jnsgd1na2vs0mg"},{"bike_id":"0cb11f49-fd12-4588-8331-049df29e4932","system_id":"levelo_inurba_marseille","lat":43.2378,"lon":5.36648,"is_reserved":false,"is_disabled":false,"rental_uris":{"android":"levelo://app?vid=0cb11f49-fd12-4588-8331-049df29e4932","ios":"levelo://app?vid=0cb11f49-fd12-4588-8331-049df29e4932"},"vehicle_type_id":"4","last_reported":1769411978,"current_range_meters":8000,"station_id":"st_d3nk18o9ro0c73en2l3g","pricing_plan_id":"cebpf4jnsgd1na2vs0mg"},{"bike_id":"1d825dae-dae9-4109-8795-05229a129ed7","system_id":"levelo_inurba_marseille","lat":43.28159,"lon":5.426351,"is_reserved":false,"is_disabled":false,"rental_uris":{"android":"levelo://app?vid=1d825dae-dae9-4109-8795-05229a129ed7","ios":"levelo://app?vid=1d825dae-dae9-4109-8795-05229a129ed7"},"vehicle_type_id":"4","last_reported":1769411978,"current_range_meters":8000,"station_id":"ce4bhnh2rcd13ifvqgug","pricing_plan_id":"cebpf4jnsgd1na2vs0mg"},{"bike_id":"3ea061e6-3522-4acc-948f-9e8a2f88b026","system_id":"levelo_inurba_marseille","lat":43.231628,"lon":5.436923,"is_reserved":false,"is_disabled":false,"rental_uris":{"android":"levelo://app?vid=3ea061e6-3522-4acc-948f-9e8a2f88b026","ios":"levelo://app?vid=3ea061e6-3522-4acc-948f-9e8a2f88b026"},"vehicle_type_id":"4","last_reported":1769411978,"current_range_meters":8000,"station_id":"ce4bhmp2rcd13ifvqgog","pricing_plan_id":"cebpf4jnsgd1na2vs0mg"},{"bike_id":"b08818eb-680c-4311-a8af-2cb6fd29700d","system_id":"levelo_inurba_marseille","lat":43.30854,"lon":5.38293,"is_reserved":false,"is_disabled":false,"rental_uris":{"android":"levelo://app?vid=b08818eb-680c-4311-a8af-2cb6fd29700d","ios":"levelo://app?vid=b08818eb-680c-4311-a8af-2cb6fd29700d"},"vehicle_type_id":"4","last_reported":1769411978,"current_range_meters":8000,"station_id":"","pricing_plan_id":"cebpf4jnsgd1na2vs0mg"},{"bike_id":"898169fa-29c0-4349-a185-41ab96475b8a","system_id":"levelo_inurba_marseille","lat":43.25005,"lon":5.38916,"is_reserved":false,"is_disabled":false,"rental_uris":{"android":"levelo://app?vid=898169fa-29c0-4349-a185-41ab96475b8a","ios":"levelo://app?vid=898169fa-29c0-4349-a185-41ab96475b8a"},"vehicle_type_id":"4","last_reported":1769411978,"current_range_meters":8000,"station_id":"ce4bhgp2rcd13ifvqfd0","pricing_plan_id":"cebpf4jnsgd1na2vs0mg"},{"bike_id":"6d02928e-9c37-4bb8-a13c-38992b4c0f3e","system_id":"levelo_inurba_marseille","lat":43.29038,"lon":5.39957,"is_reserved":false,"is_disabled":false,"rental_uris":{"android":"levelo://app?vid=6d02928e-9c37-4bb8-a13c-38992b4c0f3e","ios":"levelo://app?vid=6d02928e-9c37-4bb8-a13c-38992b4c0f3e"},"vehicle_type_id":"4","last_reported":1769411978,"current_range_meters":8000,"station_id":"ce4bh392rcd13ifvqdm0","pricing_plan_id":"cebpf4jnsgd1na2vs0mg"},{"bike_id":"2d78c52a-e821-423c-8912-3c0fcf451046","system_id":"levelo_inurba_marseille","lat":43.241568,"lon":5.364023,"is_reserved":false,"is_disabled":false,"rental_uris":{"android":"levelo://app?vid=2d78c52a-e821-423c-8912-3c0fcf451046","ios":"levelo://app?vid=2d78c52a-e821-423c-8912-3c0fcf451046"},"vehicle_type_id":"4","last_reported":1769411978,"current_range_meters":8000,"station_id":"cpo36qri1sfpv3e86is0","pricing_plan_id":"cebpf4jnsgd1na2vs0mg"},{"bike_id":"736929a0-d6a8-4f12-8769-fcb0d31195b2","system_id":"levelo_inurba_marseille","lat":43.278483,"lon":5.403806,"is_reserved":false,"is_disabled":false,"rental_uris":{"android":"levelo://app?vid=736929a0-d6a8-4f12-8769-fcb0d31195b2","ios":"levelo://app?vid=736929a0-d6a8-4f12-8769-fcb0d31195b2"},"vehicle_type_id":"4","last_reported":1769411978,"current_range_meters":8000,"station_id":"","pricing_plan_id":"cebpf4jnsgd1na2vs0mg"},{"bike_id":"d63ed78d-eca7-4700-aaa5-48377a2e3e4e","system_id":"levelo_inurba_marseille","lat":43.26382,"lon":5.41076,"is_reserved":false,"is_disabled":true,"rental_uris":{"android":"levelo://app?vid=d63ed78d-eca7-4700-aaa5-48377a2e3e4e","ios":"levelo://app?vid=d63ed78d-eca7-4700-aaa5-48377a2e3e4e"},"vehicle_type_id":"4","last_reported":1769411978,"current_range_meters":8000,"station_id":"st_d4e5ca6na9uc73bfl5fg","pricing_plan_id":"cebpf4jnsgd1na2vs0mg"},{"bike_id":"e73f1781-62f4-4a23-b153-6815bc29f05e","system_id":"levelo_inurba_marseille","lat":43.29292,"lon":5.41191,"is_reserved":false,"is_disabled":false,"rental_uris":{"android":"levelo://app?vid=e73f1781-62f4-4a23-b153-6815bc29f05e","ios":"levelo://app?vid=e73f1781-62f4-4a23-b153-6815bc29f05e"},"vehicle_type_id":"4","last_reported":1769411978,"current_range_meters":8000,"station_id":"","pricing_plan_id":"cebpf4jnsgd1na2vs0mg"},{"bike_id":"3decdd7d-e100-43e3-a4c4-8a0aea572cf6","system_id":"levelo_inurba_marseille","lat":43.21745,"lon":5.34613,"is_reserved":false,"is_disabled":false,"rental_uris":{"android":"levelo://app?vid=3decdd7d-e100-43e3-a4c4-8a0aea572cf6","ios":"levelo://app?vid=3decdd7d-e100-43e3-a4c4-8a0aea572cf6"},"vehicle_type_id":"4","last_reported":1769411978,"current_range_meters":8400,"station_id":"st_cvj6r9ubvosntc0bgbag","pricing_plan_id":"cebpf4jnsgd1na2vs0mg"},{"bike_id":"5e4893e0-7e86-482d-a767-2dc95c5fbe1a","system_id":"levelo_inurba_marseille","lat":43.28111,"lon":5.41077,"is_reserved":false,"is_disabled":false,"rental_uris":{"android":"levelo://app?vid=5e4893e0-7e86-482d-a767-2dc95c5fbe1a","ios":"levelo://app?vid=5e4893e0-7e86-482d-a767-2dc95c5fbe1a"},"vehicle_type_id":"4","last_reported":1769411978,"current_range_meters":8400,"station_id":"","pricing_plan_id":"cebpf4jnsgd1na2vs0mg"},{"bike_id":"5e0fce29-b7fb-4133-9a44-512e9b818a9f","system_id":"levelo_inurba_marseille","lat":43.28264,"lon":5.35082,"is_reserved":false,"is_disabled":false,"rental_uris":{"android":"levelo://app?vid=5e0fce29-b7fb-4133-9a44-512e9b818a9f","ios":"levelo://app?vid=5e0fce29-b7fb-4133-9a44-512e9b818a9f"},"vehicle_type_id":"4","last_reported":1769411978,"current_range_meters":8400,"station_id":"ce4bhbp2rcd13ifvqerg","pricing_plan_id":"cebpf4jnsgd1na2vs0mg"},{"bike_id":"79b6158d-49ea-4914-8da1-643529c2d44f","system_id":"levelo_inurba_marseille","lat":43.24657,"lon":5.38896,"is_reserved":false,"is_disabled":false,"rental_uris":{"android":"levelo://app?vid=79b6158d-49ea-4914-8da1-643529c2d44f","ios":"levelo://app?vid=79b6158d-49ea-4914-8da1-643529c2d44f"},"vehicle_type_id":"4","last_reported":1769411978,"current_range_meters":8400,"station_id":"ce4bhg12rcd13ifvqf60","pricing_plan_id":"cebpf4jnsgd1na2vs0mg"},{"bike_id":"8fcc7dfb-9afa-4b40-8aed-c00c1dd819d8","system_id":"levelo_inurba_marseille","lat":43.31108,"lon":5.37826,"is_reserved":false,"is_disabled":false,"rental_uris":{"android":"levelo://app?vid=8fcc7dfb-9afa-4b40-8aed-c00c1dd819d8","ios":"levelo://app?vid=8fcc7dfb-9afa-4b40-8aed-c00c1dd819d8"},"vehicle_type_id":"4","last_reported":1769411978,"current_range_meters":8400,"station_id":"ce4bgt92rcd13ifvqcg0","pricing_plan_id":"cebpf4jnsgd1na2vs0mg"},{"bike_id":"c8b2d423-ddf5-4337-93dd-01f5fa0404f3","system_id":"levelo_inurba_marseille","lat":43.289171,"lon":5.383825,"is_reserved":false,"is_disabled":false,"rental_uris":{"android":"levelo://app?vid=c8b2d423-ddf5-4337-93dd-01f5fa0404f3","ios":"levelo://app?vid=c8b2d423-ddf5-4337-93dd-01f5fa0404f3"},"vehicle_type_id":"4","last_reported":1769411978,"current_range_meters":8400,"station_id":"ce4bh612rcd13ifvqe6g","pricing_plan_id":"cebpf4jnsgd1na2vs0mg"},{"bike_id":"67ff9a75-4fe8-45e7-914d-fc416a457597","system_id":"levelo_inurba_marseille","lat":43.32119,"lon":5.36797,"is_reserved":false,"is_disabled":false,"rental_uris":{"android":"levelo://app?vid=67ff9a75-4fe8-45e7-914d-fc416a457597","ios":"levelo://app?vid=67ff9a75-4fe8-45e7-914d-fc416a457597"},"vehicle_type_id":"4","last_reported":1769411978,"current_range_meters":8400,"station_id":"ce4bhrh2rcd13ifvqhug","pricing_plan_id":"cebpf4jnsgd1na2vs0mg"},{"bike_id":"35a7406f-c3d7-4ad8-baa5-77e0b1066dfe","system_id":"levelo_inurba_marseille","lat":43.28144,"lon":5.4264,"is_reserved":false,"is_disabled":true,"rental_uris":{"android":"levelo://app?vid=35a7406f-c3d7-4ad8-baa5-77e0b1066dfe","ios":"levelo://app?vid=35a7406f-c3d7-4ad8-baa5-77e0b1066dfe"},"vehicle_type_id":"4","last_reported":1769411978,"current_range_meters":8400,"station_id":"ce4bhnh2rcd13ifvqgug","pricing_plan_id":"cebpf4jnsgd1na2vs0mg"},{"bike_id":"860d4648-96bb-41c6-990b-e19b394bde4c","system_id":"levelo_inurba_marseille","lat":43.29504,"lon":5.43291,"is_reserved":false,"is_disabled":false,"rental_uris":{"android":"levelo://app?vid=860d4648-96bb-41c6-990b-e19b394bde4c","ios":"levelo://app?vid=860d4648-96bb-41c6-990b-e19b394bde4c"},"vehicle_type_id":"4","last_reported":1769411978,"current_range_meters":8400,"station_id":"st_d3j5ugp08ojc73fj9d10","pricing_plan_id":"cebpf4jnsgd1na2vs0mg"},{"bike_id":"aeb4cc61-129c-4f69-a2a4-8c1cdbb3353c","system_id":"levelo_inurba_marseille","lat":43.24074,"lon":5.37748,"is_reserved":false,"is_disabled":false,"rental_uris":{"android":"levelo://app?vid=aeb4cc61-129c-4f69-a2a4-8c1cdbb3353c","ios":"levelo://app?vid=aeb4cc61-129c-4f69-a2a4-8c1cdbb3353c"},"vehicle_type_id":"4","last_reported":1769411978,"current_range_meters":8400,"station_id":"ce4bhnp2rcd13ifvqgvg","pricing_plan_id":"cebpf4jnsgd1na2vs0mg"},{"bike_id":"a2d67c8b-2a4c-4e47-9a54-2ccad2eaa282","system_id":"levelo_inurba_marseille","lat":43.29973,"lon":5.38498,"is_reserved":false,"is_disabled":false,"rental_uris":{"android":"levelo://app?vid=a2d67c8b-2a4c-4e47-9a54-2ccad2eaa282","ios":"levelo://app?vid=a2d67c8b-2a4c-4e47-9a54-2ccad2eaa282"},"vehicle_type_id":"4","last_reported":1769411978,"current_range_meters":8400,"station_id":"ce4bgj92rcd13ifvqbd0","pricing_plan_id":"cebpf4jnsgd1na2vs0mg"},{"bike_id":"589eebb0-c0cf-4d19-afe3-eff9c648d5c0","system_id":"levelo_inurba_marseille","lat":43.262192,"lon":5.404373,"is_reserved":false,"is_disabled":false,"rental_uris":{"android":"levelo://app?vid=589eebb0-c0cf-4d19-afe3-eff9c648d5c0","ios":"levelo://app?vid=589eebb0-c0cf-4d19-afe3-eff9c648d5c0"},"vehicle_type_id":"4","last_reported":1769411978,"current_range_meters":8400,"station_id":"ce4bhmh2rcd13ifvqgmg","pricing_plan_id":"cebpf4jnsgd1na2vs0mg"},{"bike_id":"0ba9fad2-7953-453a-b4aa-f91d87eb1e22","system_id":"levelo_inurba_marseille","lat":43.212038,"lon":5.350733,"is_reserved":false,"is_disabled":false,"rental_uris":{"android":"levelo://app?vid=0ba9fad2-7953-453a-b4aa-f91d87eb1e22","ios":"levelo://app?vid=0ba9fad2-7953-453a-b4aa-f91d87eb1e22"},"vehicle_type_id":"4","last_reported":1769411978,"current_range_meters":8400,"station_id":"st_cvj6sg6p6f1abm77japg","pricing_plan_id":"cebpf4jnsgd1na2vs0mg"},{"bike_id":"6b308c61-5e5e-462c-9cc6-ac85136c25d9","system_id":"levelo_inurba_marseille","lat":43.29096,"lon":5.38095,"is_reserved":false,"is_disabled":false,"rental_uris":{"android":"levelo://app?vid=6b308c61-5e5e-462c-9cc6-ac85136c25d9","ios":"levelo://app?vid=6b308c61-5e5e-462c-9cc6-ac85136c25d9"},"vehicle_type_id":"4","last_reported":1769411978,"current_range_meters":8400,"station_id":"ce4bh512rcd13ifvqe2g","pricing_plan_id":"cebpf4jnsgd1na2vs0mg"},{"bike_id":"03628ce2-f90f-4215-9e8f-4d1a2c153b49","system_id":"levelo_inurba_marseille","lat":43.24547,"lon":5.37341,"is_reserved":false,"is_disabled":false,"rental_uris":{"android":"levelo://app?vid=03628ce2-f90f-4215-9e8f-4d1a2c153b49","ios":"levelo://app?vid=03628ce2-f90f-4215-9e8f-4d1a2c153b49"},"vehicle_type_id":"4","last_reported":1769411978,"current_range_meters":8400,"station_id":"","pricing_plan_id":"cebpf4jnsgd1na2vs0mg"},{"bike_id":"395372c3-f2a5-4863-a62f-a427082eaa4c","system_id":"levelo_inurba_marseille","lat":43.31347,"lon":5.36688,"is_reserved":false,"is_disabled":false,"rental_uris":{"android":"levelo://app?vid=395372c3-f2a5-4863-a62f-a427082eaa4c","ios":"levelo://app?vid=395372c3-f2a5-4863-a62f-a427082eaa4c"},"vehicle_type_id":"4","last_reported":1769411978,"current_range_meters":8400,"station_id":"ce4bgr92rcd13ifvqc6g","pricing_plan_id":"cebpf4jnsgd1na2vs0mg"},{"bike_id":"61f9b512-dfe2-4c6f-b9eb-0a539aacc6ab","system_id":"levelo_inurba_marseille","lat":43.29901,"lon":5.43661,"is_reserved":false,"is_disabled":false,"rental_uris":{"android":"levelo://app?vid=61f9b512-dfe2-4c6f-b9eb-0a539aacc6ab","ios":"levelo://app?vid=61f9b512-dfe2-4c6f-b9eb-0a539aacc6ab"},"vehicle_type_id":"4","last_reported":1769411978,"current_range_meters":8400,"station_id":"ce4bhpp2rcd13ifvqhfg","pricing_plan_id":"cebpf4jnsgd1na2vs0mg"},{"bike_id":"78e326c8-dc8c-42c9-84ea-d490b68071ed","system_id":"levelo_inurba_marseille","lat":43.23708,"lon":5.36649,"is_reserved":false,"is_disabled":false,"rental_uris":{"android":"levelo://app?vid=78e326c8-dc8c-42c9-84ea-d490b68071ed","ios":"levelo://app?vid=78e326c8-dc8c-42c9-84ea-d490b68071ed"},"vehicle_type_id":"4","last_reported":1769411978,"current_range_meters":8400,"station_id":"","pricing_plan_id":"cebpf4jnsgd1na2vs0mg"},{"bike_id":"2216b3e2-f83c-4d51-9ae8-74c435a0653f","system_id":"levelo_inurba_marseille","lat":43.26205,"lon":5.37899,"is_reserved":false,"is_disabled":false,"rental_uris":{"android":"levelo://app?vid=2216b3e2-f83c-4d51-9ae8-74c435a0653f","ios":"levelo://app?vid=2216b3e2-f83c-4d51-9ae8-74c435a0653f"},"vehicle_type_id":"4","last_reported":1769411978,"current_range_meters":8400,"station_id":"ce4bhjp2rcd13ifvqg90","pricing_plan_id":"cebpf4jnsgd1na2vs0mg"},{"bike_id":"92592a06-0990-4c2f-82f0-42b005d09c8b","system_id":"levelo_inurba_marseille","lat":43.29477,"lon":5.433,"is_reserved":false,"is_disabled":false,"rental_uris":{"android":"levelo://app?vid=92592a06-0990-4c2f-82f0-42b005d09c8b","ios":"levelo://app?vid=92592a06-0990-4c2f-82f0-42b005d09c8b"},"vehicle_type_id":"4","last_reported":1769411978,"current_range_meters":8400,"station_id":"st_d3j5ugp08ojc73fj9d10","pricing_plan_id":"cebpf4jnsgd1na2vs0mg"},{"bike_id":"ccf326ac-ae0a-4ffb-a071-520b4c6f402c","system_id":"levelo_inurba_marseille","lat":43.3315,"lon":5.37682,"is_reserved":false,"is_disabled":false,"rental_uris":{"android":"levelo://app?vid=ccf326ac-ae0a-4ffb-a071-520b4c6f402c","ios":"levelo://app?vid=ccf326ac-ae0a-4ffb-a071-520b4c6f402c"},"vehicle_type_id":"4","last_reported":1769411978,"current_range_meters":8400,"station_id":"st_d46cu089ee8s73dldbu0","pricing_plan_id":"cebpf4jnsgd1na2vs0mg"},{"bike_id":"2ea93c3a-0d0a-472b-b231-85dc213d24b7","system_id":"levelo_inurba_marseille","lat":43.250026,"lon":5.389257,"is_reserved":false,"is_disabled":false,"rental_uris":{"android":"levelo://app?vid=2ea93c3a-0d0a-472b-b231-85dc213d24b7","ios":"levelo://app?vid=2ea93c3a-0d0a-472b-b231-85dc213d24b7"},"vehicle_type_id":"4","last_reported":1769411978,"current_range_meters":8400,"station_id":"ce4bhgp2rcd13ifvqfd0","pricing_plan_id":"cebpf4jnsgd1na2vs0mg"},{"bike_id":"824e48f9-4323-4fb0-bb91-58a5b75b7c5f","system_id":"levelo_inurba_marseille","lat":43.2823,"lon":5.37246,"is_reserved":false,"is_disabled":false,"rental_uris":{"android":"levelo://app?vid=824e48f9-4323-4fb0-bb91-58a5b75b7c5f","ios":"levelo://app?vid=824e48f9-4323-4fb0-bb91-58a5b75b7c5f"},"vehicle_type_id":"4","last_reported":1769411978,"current_range_meters":8400,"station_id":"","pricing_plan_id":"cebpf4jnsgd1na2vs0mg"},{"bike_id":"5777293f-b66a-4a6f-8081-966890dd397a","system_id":"levelo_inurba_marseille","lat":43.32092,"lon":5.36793,"is_reserved":false,"is_disabled":false,"rental_uris":{"android":"levelo://app?vid=5777293f-b66a-4a6f-8081-966890dd397a","ios":"levelo://app?vid=5777293f-b66a-4a6f-8081-966890dd397a"},"vehicle_type_id":"4","last_reported":1769411978,"current_range_meters":8400,"station_id":"ce4bhrh2rcd13ifvqhug","pricing_plan_id":"cebpf4jnsgd1na2vs0mg"},{"bike_id":"58287c8f-a0fc-4092-b914-92a84c7259d5","system_id":"levelo_inurba_marseille","lat":43.24656,"lon":5.38901,"is_reserved":false,"is_disabled":false,"rental_uris":{"android":"levelo://app?vid=58287c8f-a0fc-4092-b914-92a84c7259d5","ios":"levelo://app?vid=58287c8f-a0fc-4092-b914-92a84c7259d5"},"vehicle_type_id":"4","last_reported":1769411978,"current_range_meters":8400,"station_id":"ce4bhg12rcd13ifvqf60","pricing_plan_id":"cebpf4jnsgd1na2vs0mg"},{"bike_id":"f09c06aa-a05d-4b00-b228-d8bee2b62b4f","system_id":"levelo_inurba_marseille","lat":43.32364,"lon":5.36779,"is_reserved":false,"is_disabled":false,"rental_uris":{"android":"levelo://app?vid=f09c06aa-a05d-4b00-b228-d8bee2b62b4f","ios":"levelo://app?vid=f09c06aa-a05d-4b00-b228-d8bee2b62b4f"},"vehicle_type_id":"4","last_reported":1769411978,"current_range_meters":8800,"station_id":"ce4bhsh2rcd13ifvqi2g","pricing_plan_id":"cebpf4jnsgd1na2vs0mg"},{"bike_id":"a31c88fe-eab3-4a9e-bb85-de943818a780","system_id":"levelo_inurba_marseille","lat":43.23782,"lon":5.36654,"is_reserved":false,"is_disabled":false,"rental_uris":{"android":"levelo://app?vid=a31c88fe-eab3-4a9e-bb85-de943818a780","ios":"levelo://app?vid=a31c88fe-eab3-4a9e-bb85-de943818a780"},"vehicle_type_id":"4","last_reported":1769411978,"current_range_meters":8800,"station_id":"st_d3nk18o9ro0c73en2l3g","pricing_plan_id":"cebpf4jnsgd1na2vs0mg"},{"bike_id":"93c7ca3c-2e02-4311-a0d1-b461f66e2ced","system_id":"levelo_inurba_marseille","lat":43.314982,"lon":5.373115,"is_reserved":false,"is_disabled":false,"rental_uris":{"android":"levelo://app?vid=93c7ca3c-2e02-4311-a0d1-b461f66e2ced","ios":"levelo://app?vid=93c7ca3c-2e02-4311-a0d1-b461f66e2ced"},"vehicle_type_id":"4","last_reported":1769411978,"current_range_meters":8800,"station_id":"","pricing_plan_id":"cebpf4jnsgd1na2vs0mg"},{"bike_id":"156c8bce-3281-45dc-a6f2-9d1a25826506","system_id":"levelo_inurba_marseille","lat":43.23151,"lon":5.4375,"is_reserved":false,"is_disabled":false,"rental_uris":{"android":"levelo://app?vid=156c8bce-3281-45dc-a6f2-9d1a25826506","ios":"levelo://app?vid=156c8bce-3281-45dc-a6f2-9d1a25826506"},"vehicle_type_id":"4","last_reported":1769411978,"current_range_meters":8800,"station_id":"ce4bhmp2rcd13ifvqgog","pricing_plan_id":"cebpf4jnsgd1na2vs0mg"},{"bike_id":"4300228c-a74d-4d37-940c-46e3542698e2","system_id":"levelo_inurba_marseille","lat":43.27423,"lon":5.39406,"is_reserved":false,"is_disabled":false,"rental_uris":{"android":"levelo://app?vid=4300228c-a74d-4d37-940c-46e3542698e2","ios":"levelo://app?vid=4300228c-a74d-4d37-940c-46e3542698e2"},"vehicle_type_id":"4","last_reported":1769411978,"current_range_meters":8800,"station_id":"ce4bhdp2rcd13ifvqf20","pricing_plan_id":"cebpf4jnsgd1na2vs0mg"},{"bike_id":"5b91b93d-b3ae-4751-8498-b1dabc506a1f","system_id":"levelo_inurba_marseille","lat":43.24481,"lon":5.42572,"is_reserved":false,"is_disabled":false,"rental_uris":{"android":"levelo://app?vid=5b91b93d-b3ae-4751-8498-b1dabc506a1f","ios":"levelo://app?vid=5b91b93d-b3ae-4751-8498-b1dabc506a1f"},"vehicle_type_id":"4","last_reported":1769411978,"current_range_meters":8800,"station_id":"st_d4a3vfp97mjs738cd8kg","pricing_plan_id":"cebpf4jnsgd1na2vs0mg"},{"bike_id":"59f2447d-337f-47f4-a888-d7e046e04cee","system_id":"levelo_inurba_marseille","lat":43.30513,"lon":5.38408,"is_reserved":false,"is_disabled":true,"rental_uris":{"android":"levelo://app?vid=59f2447d-337f-47f4-a888-d7e046e04cee","ios":"levelo://app?vid=59f2447d-337f-47f4-a888-d7e046e04cee"},"vehicle_type_id":"4","last_reported":1769411978,"current_range_meters":8800,"station_id":"ce4bgg92rcd13ifvqb30","pricing_plan_id":"cebpf4jnsgd1na2vs0mg"},{"bike_id":"4c5e84a3-878b-4e80-a848-d4891b4199bc","system_id":"levelo_inurba_marseille","lat":43.32361,"lon":5.3677,"is_reserved":false,"is_disabled":false,"rental_uris":{"android":"levelo://app?vid=4c5e84a3-878b-4e80-a848-d4891b4199bc","ios":"levelo://app?vid=4c5e84a3-878b-4e80-a848-d4891b4199bc"},"vehicle_type_id":"4","last_reported":1769411978,"current_range_meters":8800,"station_id":"ce4bhsh2rcd13ifvqi2g","pricing_plan_id":"cebpf4jnsgd1na2vs0mg"},{"bike_id":"d71141cf-6b2b-4705-95de-e5efad96fdab","system_id":"levelo_inurba_marseille","lat":43.24646,"lon":5.43126,"is_reserved":false,"is_disabled":false,"rental_uris":{"android":"levelo://app?vid=d71141cf-6b2b-4705-95de-e5efad96fdab","ios":"levelo://app?vid=d71141cf-6b2b-4705-95de-e5efad96fdab"},"vehicle_type_id":"4","last_reported":1769411978,"current_range_meters":8800,"station_id":"st_d2m6c4gdas8pm72e190g","pricing_plan_id":"cebpf4jnsgd1na2vs0mg"},{"bike_id":"8ef65309-2687-4adb-b26a-e3e17653f9d6","system_id":"levelo_inurba_marseille","lat":43.29521,"lon":5.39402,"is_reserved":false,"is_disabled":true,"rental_uris":{"android":"levelo://app?vid=8ef65309-2687-4adb-b26a-e3e17653f9d6","ios":"levelo://app?vid=8ef65309-2687-4adb-b26a-e3e17653f9d6"},"vehicle_type_id":"4","last_reported":1769411978,"current_range_meters":8800,"station_id":"ce4bh292rcd13ifvqdf0","pricing_plan_id":"cebpf4jnsgd1na2vs0mg"},{"bike_id":"c060f6fe-9c22-4601-a3d6-b324dc7e883d","system_id":"levelo_inurba_marseille","lat":43.22933,"lon":5.35376,"is_reserved":false,"is_disabled":false,"rental_uris":{"android":"levelo://app?vid=c060f6fe-9c22-4601-a3d6-b324dc7e883d","ios":"levelo://app?vid=c060f6fe-9c22-4601-a3d6-b324dc7e883d"},"vehicle_type_id":"4","last_reported":1769411978,"current_range_meters":8800,"station_id":"cpo3532slgdg3j2ikp40","pricing_plan_id":"cebpf4jnsgd1na2vs0mg"},{"bike_id":"5be68105-477a-4926-9923-7b5ffbb88956","system_id":"levelo_inurba_marseille","lat":43.28523,"lon":5.44116,"is_reserved":false,"is_disabled":false,"rental_uris":{"android":"levelo://app?vid=5be68105-477a-4926-9923-7b5ffbb88956","ios":"levelo://app?vid=5be68105-477a-4926-9923-7b5ffbb88956"},"vehicle_type_id":"4","last_reported":1769411978,"current_range_meters":8800,"station_id":"st_d3j3df2ikq2c7380ej80","pricing_plan_id":"cebpf4jnsgd1na2vs0mg"},{"bike_id":"942cf772-799e-4446-93c7-7868c7549133","system_id":"levelo_inurba_marseille","lat":43.29615,"lon":5.37714,"is_reserved":false,"is_disabled":false,"rental_uris":{"android":"levelo://app?vid=942cf772-799e-4446-93c7-7868c7549133","ios":"levelo://app?vid=942cf772-799e-4446-93c7-7868c7549133"},"vehicle_type_id":"4","last_reported":1769411978,"current_range_meters":8800,"station_id":"ce4bgi92rcd13ifvqb90","pricing_plan_id":"cebpf4jnsgd1na2vs0mg"},{"bike_id":"69e9be80-5472-4770-8dae-13b502bc8494","system_id":"levelo_inurba_marseille","lat":43.30798,"lon":5.38805,"is_reserved":false,"is_disabled":false,"rental_uris":{"android":"levelo://app?vid=69e9be80-5472-4770-8dae-13b502bc8494","ios":"levelo://app?vid=69e9be80-5472-4770-8dae-13b502bc8494"},"vehicle_type_id":"4","last_reported":1769411978,"current_range_meters":8800,"station_id":"","pricing_plan_id":"cebpf4jnsgd1na2vs0mg"},{"bike_id":"5c42aeaa-4c86-4251-b19f-acc5fca3daa5","system_id":"levelo_inurba_marseille","lat":43.2989,"lon":5.36549,"is_reserved":false,"is_disabled":false,"rental_uris":{"android":"levelo://app?vid=5c42aeaa-4c86-4251-b19f-acc5fca3daa5","ios":"levelo://app?vid=5c42aeaa-4c86-4251-b19f-acc5fca3daa5"},"vehicle_type_id":"4","last_reported":1769411978,"current_range_meters":8800,"station_id":"ce4bgm92rcd13ifvqbr0","pricing_plan_id":"cebpf4jnsgd1na2vs0mg"},{"bike_id":"49c67be8-68c4-45d0-9c76-e4bf40f78348","system_id":"levelo_inurba_marseille","lat":43.21186,"lon":5.351,"is_reserved":false,"is_disabled":true,"rental_uris":{"android":"levelo://app?vid=49c67be8-68c4-45d0-9c76-e4bf40f78348","ios":"levelo://app?vid=49c67be8-68c4-45d0-9c76-e4bf40f78348"},"vehicle_type_id":"4","last_reported":1769411978,"current_range_meters":8800,"station_id":"st_cvj6sg6p6f1abm77japg","pricing_plan_id":"cebpf4jnsgd1na2vs0mg"},{"bike_id":"e84bb2e9-6cc1-4418-aff4-d2873592111e","system_id":"levelo_inurba_marseille","lat":43.304108,"lon":5.412701,"is_reserved":false,"is_disabled":true,"rental_uris":{"android":"levelo://app?vid=e84bb2e9-6cc1-4418-aff4-d2873592111e","ios":"levelo://app?vid=e84bb2e9-6cc1-4418-aff4-d2873592111e"},"vehicle_type_id":"4","last_reported":1769411978,"current_range_meters":8800,"station_id":"ce4bhop2rcd13ifvqh8g","pricing_plan_id":"cebpf4jnsgd1na2vs0mg"},{"bike_id":"5c18bca9-46cd-42a4-bd07-ba7493ce75f5","system_id":"levelo_inurba_marseille","lat":43.246359,"lon":5.431393,"is_reserved":false,"is_disabled":false,"rental_uris":{"android":"levelo://app?vid=5c18bca9-46cd-42a4-bd07-ba7493ce75f5","ios":"levelo://app?vid=5c18bca9-46cd-42a4-bd07-ba7493ce75f5"},"vehicle_type_id":"4","last_reported":1769411978,"current_range_meters":8800,"station_id":"st_d2m6c4gdas8pm72e190g","pricing_plan_id":"cebpf4jnsgd1na2vs0mg"},{"bike_id":"ac5add71-2765-40e5-8faa-ea1f70141290","system_id":"levelo_inurba_marseille","lat":43.2293,"lon":5.35402,"is_reserved":false,"is_disabled":false,"rental_uris":{"android":"levelo://app?vid=ac5add71-2765-40e5-8faa-ea1f70141290","ios":"levelo://app?vid=ac5add71-2765-40e5-8faa-ea1f70141290"},"vehicle_type_id":"4","last_reported":1769411978,"current_range_meters":8800,"station_id":"cpo3532slgdg3j2ikp40","pricing_plan_id":"cebpf4jnsgd1na2vs0mg"},{"bike_id":"1f2413b4-31b8-4918-b116-c584da2d43ac","system_id":"levelo_inurba_marseille","lat":43.299,"lon":5.37485,"is_reserved":false,"is_disabled":false,"rental_uris":{"android":"levelo://app?vid=1f2413b4-31b8-4918-b116-c584da2d43ac","ios":"levelo://app?vid=1f2413b4-31b8-4918-b116-c584da2d43ac"},"vehicle_type_id":"4","last_reported":1769411978,"current_range_meters":8800,"station_id":"ce4bgjh2rcd13ifvqbg0","pricing_plan_id":"cebpf4jnsgd1na2vs0mg"},{"bike_id":"11d0999a-057e-4452-95f5-52552831e28f","system_id":"levelo_inurba_marseille","lat":43.29658,"lon":5.37297,"is_reserved":false,"is_disabled":false,"rental_uris":{"android":"levelo://app?vid=11d0999a-057e-4452-95f5-52552831e28f","ios":"levelo://app?vid=11d0999a-057e-4452-95f5-52552831e28f"},"vehicle_type_id":"4","last_reported":1769411978,"current_range_meters":9200,"station_id":"ce4bgk12rcd13ifvqbj0","pricing_plan_id":"cebpf4jnsgd1na2vs0mg"},{"bike_id":"99fa7ca8-c886-4af1-894d-63178f653f53","system_id":"levelo_inurba_marseille","lat":43.29016,"lon":5.38624,"is_reserved":false,"is_disabled":true,"rental_uris":{"android":"levelo://app?vid=99fa7ca8-c886-4af1-894d-63178f653f53","ios":"levelo://app?vid=99fa7ca8-c886-4af1-894d-63178f653f53"},"vehicle_type_id":"4","last_reported":1769411978,"current_range_meters":9200,"station_id":"ce4bh4p2rcd13ifvqe0g","pricing_plan_id":"cebpf4jnsgd1na2vs0mg"},{"bike_id":"908b886e-cc4b-4226-b372-446a0d3f1b77","system_id":"levelo_inurba_marseille","lat":43.23167,"lon":5.35582,"is_reserved":false,"is_disabled":false,"rental_uris":{"android":"levelo://app?vid=908b886e-cc4b-4226-b372-446a0d3f1b77","ios":"levelo://app?vid=908b886e-cc4b-4226-b372-446a0d3f1b77"},"vehicle_type_id":"4","last_reported":1769411978,"current_range_meters":9200,"station_id":"ce4bhu92rcd13ifvqi70","pricing_plan_id":"cebpf4jnsgd1na2vs0mg"},{"bike_id":"3e389aed-165f-48d1-aaf7-3a5699e9b8b2","system_id":"levelo_inurba_marseille","lat":43.28489,"lon":5.38419,"is_reserved":false,"is_disabled":false,"rental_uris":{"android":"levelo://app?vid=3e389aed-165f-48d1-aaf7-3a5699e9b8b2","ios":"levelo://app?vid=3e389aed-165f-48d1-aaf7-3a5699e9b8b2"},"vehicle_type_id":"4","last_reported":1769411978,"current_range_meters":9200,"station_id":"ce4bh512rcd13ifvqe3g","pricing_plan_id":"cebpf4jnsgd1na2vs0mg"},{"bike_id":"c33116af-6475-4731-8424-4d7e5005cbf0","system_id":"levelo_inurba_marseille","lat":43.30535,"lon":5.36704,"is_reserved":false,"is_disabled":false,"rental_uris":{"android":"levelo://app?vid=c33116af-6475-4731-8424-4d7e5005cbf0","ios":"levelo://app?vid=c33116af-6475-4731-8424-4d7e5005cbf0"},"vehicle_type_id":"4","last_reported":1769411978,"current_range_meters":9200,"station_id":"ce4bgrp2rcd13ifvqc9g","pricing_plan_id":"cebpf4jnsgd1na2vs0mg"},