{"last_updated":1770498928,"ttl":60,"version":"2.2","data":{"bikes":[{"bike_id":"ee177ce5-5688-4f88-95a6-0e06eb4c248f","system_id":"levelo_inurba_marseille","lat":43.24388,"lon":5.37074,"is_reserved":false,"is_disabled":false,"rental_uris":{"android":"levelo://app?vid=ee177ce5-5688-4f88-95a6-0e06eb4c248f","ios":"levelo://app?vid=ee177ce5-5688-4f88-95a6-0e06eb4c248f"},"vehicle_type_id":"4","last_reported":1770498929,"current_range_meters":2800,"station_id":"ce4bhhh2rcd13ifvqfk0","pricing_plan_id":"cebpf4jnsgd1na2vs0mg"},{"bike_id":"222003bc-a4d5-426c-9929-b263ad4b0210","system_id":"levelo_inurba_marseille","lat":43.28612,"lon":5.35057,"is_reserved":false,"is_disabled":false,"rental_uris":{"android":"levelo://app?vid=222003bc-a4d5-426c-9929-b263ad4b0210","ios":"levelo://app?vid=222003bc-a4d5-426c-9929-b263ad4b0210"},"vehicle_type_id":"4","last_reported":1770498929,"current_range_meters":2800,"station_id":"ce4bhch2rcd13ifvqeug","pricing_plan_id":"cebpf4jnsgd1na2vs0mg"},{"bike_id":"675ec433-caf3-4517-83f9-75769cd57605","system_id":"levelo_inurba_marseille","lat":43.32067,"lon":5.36849,"is_reserved":false,"is_disabled":false,"rental_uris":{"android":"levelo://app?vid=675ec433-caf3-4517-83f9-75769cd57605","ios":"levelo://app?vid=675ec433-caf3-4517-83f9-75769cd57605"},"vehicle_type_id":"4","last_reported":1770498929,"current_range_meters":2800,"station_id":"ce4bhrh2rcd13ifvqhug","pricing_plan_id":"cebpf4jnsgd1na2vs0mg"},{"bike_id":"eacbf986-f9c3-4f5e-bdf1-bed35f840adf","system_id":"levelo_inurba_marseille","lat":43.29928,"lon":5.36531,"is_reserved":false,"is_disabled":false,"rental_uris":{"android":"levelo://app?vid=eacbf986-f9c3-4f5e-bdf1-bed35f840adf","ios":"levelo://app?vid=eacbf986-f9c3-4f5e-bdf1-bed35f840adf"},"vehicle_type_id":"4","last_reported":1770498929,"current_range_meters":2800,"station_id":"ce4bgm92rcd13ifvqbr0","pricing_plan_id":"cebpf4jnsgd1na2vs0mg"},{"bike_id":"a5faf7a6-7f2f-419a-b628-e8f939b70083","system_id":"levelo_inurba_marseille","lat":43.28488,"lon":5.44011,"is_reserved":false,"is_disabled":false,"rental_uris":{"android":"levelo://app?vid=a5faf7a6-7f2f-419a-b628-e8f939b70083","ios":"levelo://app?vid=a5faf7a6-7f2f-419a-b628-e8f939b70083"},"vehicle_type_id":"4","last_reported":1770498929,"current_range_meters":2800,"station_id":"","pricing_plan_id":"cebpf4jnsgd1na2vs0mg"},{"bike_id":"c6782d87-e485-4a2c-b62b-9a52105fb0ef","system_id":"levelo_inurba_marseille","lat":43.250092,"lon":5.389156,"is_reserved":false,"is_disabled":false,"rental_uris":{"android":"levelo://app?vid=c6782d87-e485-4a2c-b62b-9a52105fb0ef","ios":"levelo://app?vid=c6782d87-e485-4a2c-b62b-9a52105fb0ef"},"vehicle_type_id":"4","last_reported":1770498929,"current_range_meters":2800,"station_id":"ce4bhgp2rcd13ifvqfd0","pricing_plan_id":"cebpf4jnsgd1na2vs0mg"},{"bike_id":"eca4eb25-122d-4ff5-b486-092a2dda59dc","system_id":"levelo_inurba_marseille","lat":43.27068,"lon":5.38316,"is_reserved":false,"is_disabled":false,"rental_uris":{"android":"levelo://app?vid=eca4eb25-122d-4ff5-b486-092a2dda59dc","ios":"levelo://app?vid=eca4eb25-122d-4ff5-b486-092a2dda59dc"},"vehicle_type_id":"4","last_reported":1770498929,"current_range_meters":2800,"station_id":"st_d3n2fo6cfp8s73cte1j0","pricing_plan_id":"cebpf4jnsgd1na2vs0mg"},{"bike_id":"28038112-793b-4a40-88c6-af51aa30dc6d","system_id":"levelo_inurba_marseille","lat":43.23223,"lon":5.35543,"is_reserved":false,"is_disabled":false,"rental_uris":{"android":"levelo://app?vid=28038112-793b-4a40-88c6-af51aa30dc6d","ios":"levelo://app?vid=28038112-793b-4a40-88c6-af51aa30dc6d"},"vehicle_type_id":"4","last_reported":1770498929,"current_range_meters":2800,"station_id":"ce4bhu92rcd13ifvqi70","pricing_plan_id":"cebpf4jnsgd1na2vs0mg"},{"bike_id":"49bc0ac4-ec4c-46b4-bcba-c5b87d948aa1","system_id":"levelo_inurba_marseille","lat":43.23947,"lon":5.36635,"is_reserved":false,"is_disabled":false,"rental_uris":{"android":"levelo://app?vid=49bc0ac4-ec4c-46b4-bcba-c5b87d948aa1","ios":"levelo://app?vid=49bc0ac4-ec4c-46b4-bcba-c5b87d948aa1"},"vehicle_type_id":"4","last_reported":1770498929,"current_range_meters":3200,"station_id":"ce4bhi12rcd13ifvqfp0","pricing_plan_id":"cebpf4jnsgd1na2vs0mg"},{"bike_id":"142a21c2-9a29-466a-92f6-5ab3ecc5b60d","system_id":"levelo_inurba_marseille","lat":43.23801,"lon":5.36641,"is_reserved":false,"is_disabled":false,"rental_uris":{"android":"levelo://app?vid=142a21c2-9a29-466a-92f6-5ab3ecc5b60d","ios":"levelo://app?vid=142a21c2-9a29-466a-92f6-5ab3ecc5b60d"},"vehicle_type_id":"4","last_reported":1770498929,"current_range_meters":3200,"station_id":"st_d3nk18o9ro0c73en2l3g","pricing_plan_id":"cebpf4jnsgd1na2vs0mg"},{"bike_id":"b2ea9182-ea82-4be8-bf18-57e238fcca07","system_id":"levelo_inurba_marseille","lat":43.26688,"lon":5.38279,"is_reserved":false,"is_disabled":false,"rental_uris":{"android":"levelo://app?vid=b2ea9182-ea82-4be8-bf18-57e238fcca07","ios":"levelo://app?vid=b2ea9182-ea82-4be8-bf18-57e238fcca07"},"vehicle_type_id":"4","last_reported":1770498929,"current_range_meters":3200,"station_id":"ce4bhg92rcd13ifvqf90","pricing_plan_id":"cebpf4jnsgd1na2vs0mg"},{"bike_id":"7403105f-4bee-4529-9ff8-66d807eb18b2","system_id":"levelo_inurba_marseille","lat":43.31939,"lon":5.38064,"is_reserved":false,"is_disabled":false,"rental_uris":{"android":"levelo://app?vid=7403105f-4bee-4529-9ff8-66d807eb18b2","ios":"levelo://app?vid=7403105f-4bee-4529-9ff8-66d807eb18b2"},"vehicle_type_id":"4","last_reported":1770498929,"current_range_meters":3200,"station_id":"","pricing_plan_id":"cebpf4jnsgd1na2vs0mg"},{"bike_id":"664c63b1-2534-4a56-a629-4c0dacb8efe4","system_id":"levelo_inurba_marseille","lat":43.29766,"lon":5.42789,"is_reserved":false,"is_disabled":false,"rental_uris":{"android":"levelo://app?vid=664c63b1-2534-4a56-a629-4c0dacb8efe4","ios":"levelo://app?vid=664c63b1-2534-4a56-a629-4c0dacb8efe4"},"vehicle_type_id":"4","last_reported":1770498929,"current_range_meters":3200,"station_id":"st_d3md5207bmas73dh9klg","pricing_plan_id":"cebpf4jnsgd1na2vs0mg"},{"bike_id":"66ac484a-7a0c-4d64-bcea-4a863811aeba","system_id":"levelo_inurba_marseille","lat":43.2993,"lon":5.43691,"is_reserved":false,"is_disabled":true,"rental_uris":{"android":"levelo://app?vid=66ac484a-7a0c-4d64-bcea-4a863811aeba","ios":"levelo://app?vid=66ac484a-7a0c-4d64-bcea-4a863811aeba"},"vehicle_type_id":"4","last_reported":1770498929,"current_range_meters":3200,"station_id":"","pricing_plan_id":"cebpf4jnsgd1na2vs0mg"},{"bike_id":"6b9ad2f0-0d88-40ff-a88f-7ddf87de7fb0","system_id":"levelo_inurba_marseille","lat":43.298891,"lon":5.436745,"is_reserved":false,"is_disabled":false,"rental_uris":{"android":"levelo://app?vid=6b9ad2f0-0d88-40ff-a88f-7ddf87de7fb0","ios":"levelo://app?vid=6b9ad2f0-0d88-40ff-a88f-7ddf87de7fb0"},"vehicle_type_id":"4","last_reported":1770498929,"current_range_meters":3600,"station_id":"ce4bhpp2rcd13ifvqhfg","pricing_plan_id":"cebpf4jnsgd1na2vs0mg"},{"bike_id":"b5cc0555-054c-43ad-802e-3ba0f62058e9","system_id":"levelo_inurba_marseille","lat":43.29914,"lon":5.38141,"is_reserved":false,"is_disabled":false,"rental_uris":{"android":"levelo://app?vid=b5cc0555-054c-43ad-802e-3ba0f62058e9","ios":"levelo://app?vid=b5cc0555-054c-43ad-802e-3ba0f62058e9"},"vehicle_type_id":"4","last_reported":1770498929,"current_range_meters":3600,"station_id":"ce4bgj12rcd13ifvqbc0","pricing_plan_id":"cebpf4jnsgd1na2vs0mg"},{"bike_id":"5bbff642-0168-44b6-a018-2f4e649b181a","system_id":"levelo_inurba_marseille","lat":43.2904,"lon":5.3687,"is_reserved":false,"is_disabled":false,"rental_uris":{"android":"levelo://app?vid=5bbff642-0168-44b6-a018-2f4e649b181a","ios":"levelo://app?vid=5bbff642-0168-44b6-a018-2f4e649b181a"},"vehicle_type_id":"4","last_reported":1770498929,"current_range_meters":3600,"station_id":"ce4bhah2rcd13ifvqej0","pricing_plan_id":"cebpf4jnsgd1na2vs0mg"},{"bike_id":"9d9ada7e-8bfb-4948-82e1-5314689a8b39","system_id":"levelo_inurba_marseille","lat":43.33519,"lon":5.37541,"is_reserved":false,"is_disabled":false,"rental_uris":{"android":"levelo://app?vid=9d9ada7e-8bfb-4948-82e1-5314689a8b39","ios":"levelo://app?vid=9d9ada7e-8bfb-4948-82e1-5314689a8b39"},"vehicle_type_id":"4","last_reported":1770498929,"current_range_meters":3600,"station_id":"","pricing_plan_id":"cebpf4jnsgd1na2vs0mg"},{"bike_id":"5f301d7b-1ae6-4d33-ad5d-5e997e01d59c","system_id":"levelo_inurba_marseille","lat":43.24166,"lon":5.364,"is_reserved":false,"is_disabled":false,"rental_uris":{"android":"levelo://app?vid=5f301d7b-1ae6-4d33-ad5d-5e997e01d59c","ios":"levelo://app?vid=5f301d7b-1ae6-4d33-ad5d-5e997e01d59c"},"vehicle_type_id":"4","last_reported":1770498929,"current_range_meters":3600,"station_id":"cpo36qri1sfpv3e86is0","pricing_plan_id":"cebpf4jnsgd1na2vs0mg"},{"bike_id":"8f0bc1eb-8c74-4136-bf32-58c43239dfb6","system_id":"levelo_inurba_marseille","lat":43.24184,"lon":5.39731,"is_reserved":false,"is_disabled":false,"rental_uris":{"android":"levelo://app?vid=8f0bc1eb-8c74-4136-bf32-58c43239dfb6","ios":"levelo://app?vid=8f0bc1eb-8c74-4136-bf32-58c43239dfb6"},"vehicle_type_id":"4","last_reported":1770498929,"current_range_meters":3600,"station_id":"ce4bhn12rcd13ifvqgpg","pricing_plan_id":"cebpf4jnsgd1na2vs0mg"},{"bike_id":"44df0d6d-61a2-46ab-9bf9-ae3cec90cb8f","system_id":"levelo_inurba_marseille","lat":43.25005,"lon":5.38904,"is_reserved":false,"is_disabled":true,"rental_uris":{"android":"levelo://app?vid=44df0d6d-61a2-46ab-9bf9-ae3cec90cb8f","ios":"levelo://app?vid=44df0d6d-61a2-46ab-9bf9-ae3cec90cb8f"},"vehicle_type_id":"4","last_reported":1770498929,"current_range_meters":3600,"station_id":"ce4bhgp2rcd13ifvqfd0","pricing_plan_id":"cebpf4jnsgd1na2vs0mg"},{"bike_id":"445447f4-f940-4f85-9727-f1026b8dfb6b","system_id":"levelo_inurba_marseille","lat":43.26396,"lon":5.41073,"is_reserved":false,"is_disabled":false,"rental_uris":{"android":"levelo://app?vid=445447f4-f940-4f85-9727-f1026b8dfb6b","ios":"levelo://app?vid=445447f4-f940-4f85-9727-f1026b8dfb6b"},"vehicle_type_id":"4","last_reported":1770498929,"current_range_meters":4000,"station_id":"st_d4e5ca6na9uc73bfl5fg","pricing_plan_id":"cebpf4jnsgd1na2vs0mg"},{"bike_id":"e7cec6d5-3564-4fc7-88b7-3c02667ae578","system_id":"levelo_inurba_marseille","lat":43.25715,"lon":5.41114,"is_reserved":false,"is_disabled":false,"rental_uris":{"android":"levelo://app?vid=e7cec6d5-3564-4fc7-88b7-3c02667ae578","ios":"levelo://app?vid=e7cec6d5-3564-4fc7-88b7-3c02667ae578"},"vehicle_type_id":"4","last_reported":1770498929,"current_range_meters":4000,"station_id":"ce4bhkp2rcd13ifvqgd0","pricing_plan_id":"cebpf4jnsgd1na2vs0mg"},{"bike_id":"ab55cc20-b94d-45e5-879c-71ae04584b70","system_id":"levelo_inurba_marseille","lat":43.29552,"lon":5.42301,"is_reserved":false,"is_disabled":true,"rental_uris":{"android":"levelo://app?vid=ab55cc20-b94d-45e5-879c-71ae04584b70","ios":"levelo://app?vid=ab55cc20-b94d-45e5-879c-71ae04584b70"},"vehicle_type_id":"4","last_reported":1770498929,"current_range_meters":4000,"station_id":"ce4bhph2rcd13ifvqhdg","pricing_plan_id":"cebpf4jnsgd1na2vs0mg"},{"bike_id":"f5da9401-db7e-426f-9a0f-2330a30b8658","system_id":"levelo_inurba_marseille","lat":43.24434,"lon":5.37093,"is_reserved":false,"is_disabled":true,"rental_uris":{"android":"levelo://app?vid=f5da9401-db7e-426f-9a0f-2330a30b8658","ios":"levelo://app?vid=f5da9401-db7e-426f-9a0f-2330a30b8658"},"vehicle_type_id":"4","last_reported":1770498929,"current_range_meters":4000,"station_id":"ce4bhhh2rcd13ifvqfk0","pricing_plan_id":"cebpf4jnsgd1na2vs0mg"},{"bike_id":"011daa92-6d39-4283-acb4-52bfa4d16625","system_id":"levelo_inurba_marseille","lat":43.22932,"lon":5.3539,"is_reserved":false,"is_disabled":false,"rental_uris":{"android":"levelo://app?vid=011daa92-6d39-4283-acb4-52bfa4d16625","ios":"levelo://app?vid=011daa92-6d39-4283-acb4-52bfa4d16625"},"vehicle_type_id":"4","last_reported":1770498929,"current_range_meters":4000,"station_id":"cpo3532slgdg3j2ikp40","pricing_plan_id":"cebpf4jnsgd1na2vs0mg"},{"bike_id":"9c39d9f6-d9da-4e77-8458-9331332cbe7c","system_id":"levelo_inurba_marseille","lat":43.27941,"lon":5.41056,"is_reserved":false,"is_disabled":false,"rental_uris":{"android":"levelo://app?vid=9c39d9f6-d9da-4e77-8458-9331332cbe7c","ios":"levelo://app?vid=9c39d9f6-d9da-4e77-8458-9331332cbe7c"},"vehicle_type_id":"4","last_reported":1770498929,"current_range_meters":4000,"station_id":"ce4bhnp2rcd13ifvqh0g","pricing_plan_id":"cebpf4jnsgd1na2vs0mg"},{"bike_id":"93add877-ee9d-4ae2-87c0-e59246a2e4b1","system_id":"levelo_inurba_marseille","lat":43.22987,"lon":5.354,"is_reserved":false,"is_disabled":false,"rental_uris":{"android":"levelo://app?vid=93add877-ee9d-4ae2-87c0-e59246a2e4b1","ios":"levelo://app?vid=93add877-ee9d-4ae2-87c0-e59246a2e4b1"},"vehicle_type_id":"4","last_reported":1770498929,"current_range_meters":4400,"station_id":"","pricing_plan_id":"cebpf4jnsgd1na2vs0mg"},{"bike_id":"dae4e628-e282-43a2-bd42-c22524bf9d93","system_id":"levelo_inurba_marseille","lat":43.29435,"lon":5.39743,"is_reserved":false,"is_disabled":false,"rental_uris":{"android":"levelo://app?vid=dae4e628-e282-43a2-bd42-c22524bf9d93","ios":"levelo://app?vid=dae4e628-e282-43a2-bd42-c22524bf9d93"},"vehicle_type_id":"4","last_reported":1770498929,"current_range_meters":4400,"station_id":"ce4bh3h2rcd13ifvqdo0","pricing_plan_id":"cebpf4jnsgd1na2vs0mg"},{"bike_id":"16e151cc-2b95-4562-83dc-024e6ede4bf7","system_id":"levelo_inurba_marseille","lat":43.23186,"lon":5.3555,"is_reserved":false,"is_disabled":false,"rental_uris":{"android":"levelo://app?vid=16e151cc-2b95-4562-83dc-024e6ede4bf7","ios":"levelo://app?vid=16e151cc-2b95-4562-83dc-024e6ede4bf7"},"vehicle_type_id":"4","last_reported":1770498929,"current_range_meters":4400,"station_id":"ce4bhu92rcd13ifvqi70","pricing_plan_id":"cebpf4jnsgd1na2vs0mg"},{"bike_id":"c5955de7-9ab5-4c95-be4c-788242dce2d4","system_id":"levelo_inurba_marseille","lat":43.32109,"lon":5.36751,"is_reserved":false,"is_disabled":false,"rental_uris":{"android":"levelo://app?vid=c5955de7-9ab5-4c95-be4c-788242dce2d4","ios":"levelo://app?vid=c5955de7-9ab5-4c95-be4c-788242dce2d4"},"vehicle_type_id":"4","last_reported":1770498929,"current_range_meters":4400,"station_id":"ce4bhrh2rcd13ifvqhug","pricing_plan_id":"cebpf4jnsgd1na2vs0mg"},{"bike_id":"762d17af-af27-45ae-8011-3c290ff80fd9","system_id":"levelo_inurba_marseille","lat":43.24178,"lon":5.36396,"is_reserved":false,"is_disabled":false,"rental_uris":{"android":"levelo://app?vid=762d17af-af27-45ae-8011-3c290ff80fd9","ios":"levelo://app?vid=762d17af-af27-45ae-8011-3c290ff80fd9"},"vehicle_type_id":"4","last_reported":1770498929,"current_range_meters":4400,"station_id":"cpo36qri1sfpv3e86is0","pricing_plan_id":"cebpf4jnsgd1na2vs0mg"},{"bike_id":"2e215bae-e2d4-4a81-a07c-a7a4a0c0fd71","system_id":"levelo_inurba_marseille","lat":43.30901,"lon":5.37205,"is_reserved":false,"is_disabled":false,"rental_uris":{"android":"levelo://app?vid=2e215bae-e2d4-4a81-a07c-a7a4a0c0fd71","ios":"levelo://app?vid=2e215bae-e2d4-4a81-a07c-a7a4a0c0fd71"},"vehicle_type_id":"4","last_reported":1770498929,"current_range_meters":4400,"station_id":"ce4bguh2rcd13ifvqckg","pricing_plan_id":"cebpf4jnsgd1na2vs0mg"},{"bike_id":"3926a99e-82ca-4ee7-a161-a486379736ee","system_id":"levelo_inurba_marseille","lat":43.29872,"lon":5.36877,"is_reserved":false,"is_disabled":false,"rental_uris":{"android":"levelo://app?vid=3926a99e-82ca-4ee7-a161-a486379736ee","ios":"levelo://app?vid=3926a99e-82ca-4ee7-a161-a486379736ee"},"vehicle_type_id":"4","last_reported":1770498929,"current_range_meters":4800,"station_id":"","pricing_plan_id":"cebpf4jnsgd1na2vs0mg"},{"bike_id":"cda67a55-cd0b-4996-80a6-9f94ffa5040f","system_id":"levelo_inurba_marseille","lat":43.26081,"lon":5.39405,"is_reserved":false,"is_disabled":false,"rental_uris":{"android":"levelo://app?vid=cda67a55-cd0b-4996-80a6-9f94ffa5040f","ios":"levelo://app?vid=cda67a55-cd0b-4996-80a6-9f94ffa5040f"},"vehicle_type_id":"4","last_reported":1770498929,"current_range_meters":4800,"station_id":"ce4bhh92rcd13ifvqfj0","pricing_plan_id":"cebpf4jnsgd1na2vs0mg"},{"bike_id":"9c6a8984-8ee8-4ae5-a2ee-ca73b9867831","system_id":"levelo_inurba_marseille","lat":43.29942,"lon":5.36533,"is_reserved":false,"is_disabled":false,"rental_uris":{"android":"levelo://app?vid=9c6a8984-8ee8-4ae5-a2ee-ca73b9867831","ios":"levelo://app?vid=9c6a8984-8ee8-4ae5-a2ee-ca73b9867831"},"vehicle_type_id":"4","last_reported":1770498929,"current_range_meters":4800,"station_id":"ce4bgm92rcd13ifvqbr0","pricing_plan_id":"cebpf4jnsgd1na2vs0mg"},{"bike_id":"a832ddf3-c616-4d2c-9dd2-c193872b9b01","system_id":"levelo_inurba_marseille","lat":43.27314,"lon":5.39091,"is_reserved":false,"is_disabled":false,"rental_uris":{"android":"levelo://app?vid=a832ddf3-c616-4d2c-9dd2-c193872b9b01","ios":"levelo://app?vid=a832ddf3-c616-4d2c-9dd2-c193872b9b01"},"vehicle_type_id":"4","last_reported":1770498929,"current_range_meters":4800,"station_id":"ce4bhgp2rcd13ifvqfe0","pricing_plan_id":"cebpf4jnsgd1na2vs0mg"},{"bike_id":"4553b9ae-95be-4d03-9d86-2a4c79a4ffcc","system_id":"levelo_inurba_marseille","lat":43.28911,"lon":5.39844,"is_reserved":false,"is_disabled":false,"rental_uris":{"android":"levelo://app?vid=4553b9ae-95be-4d03-9d86-2a4c79a4ffcc","ios":"levelo://app?vid=4553b9ae-95be-4d03-9d86-2a4c79a4ffcc"},"vehicle_type_id":"4","last_reported":1770498929,"current_range_meters":4800,"station_id":"","pricing_plan_id":"cebpf4jnsgd1na2vs0mg"},{"bike_id":"e3af07ec-2f28-40d2-bf89-652ee0a9ce60","system_id":"levelo_inurba_marseille","lat":43.245873,"lon":5.395513,"is_reserved":false,"is_disabled":false,"rental_uris":{"android":"levelo://app?vid=e3af07ec-2f28-40d2-bf89-652ee0a9ce60","ios":"levelo://app?vid=e3af07ec-2f28-40d2-bf89-652ee0a9ce60"},"vehicle_type_id":"4","last_reported":1770498929,"current_range_meters":4800,"station_id":"","pricing_plan_id":"cebpf4jnsgd1na2vs0mg"},{"bike_id":"478cb419-49e4-42b3-935e-a64c7e907cfc","system_id":"levelo_inurba_marseille","lat":43.30804,"lon":5.38148,"is_reserved":false,"is_disabled":false,"rental_uris":{"android":"levelo://app?vid=478cb419-49e4-42b3-935e-a64c7e907cfc","ios":"levelo://app?vid=478cb419-49e4-42b3-935e-a64c7e907cfc"},"vehicle_type_id":"4","last_reported":1770498929,"current_range_meters":4800,"station_id":"ce4bgt12rcd13ifvqce0","pricing_plan_id":"cebpf4jnsgd1na2vs0mg"},{"bike_id":"b7e3b18f-a763-4cc5-b158-5f63ba83926d","system_id":"levelo_inurba_marseille","lat":43.292611,"lon":5.376293,"is_reserved":false,"is_disabled":false,"rental_uris":{"android":"levelo://app?vid=b7e3b18f-a763-4cc5-b158-5f63ba83926d","ios":"levelo://app?vid=b7e3b18f-a763-4cc5-b158-5f63ba83926d"},"vehicle_type_id":"4","last_reported":1770498929,"current_range_meters":4800,"station_id":"ce4bgi12rcd13ifvqb80","pricing_plan_id":"cebpf4jnsgd1na2vs0mg"},{"bike_id":"ba1b98b8-d6fd-4ac5-9eda-8035e3140fb6","system_id":"levelo_inurba_marseille","lat":43.21196,"lon":5.35076,"is_reserved":false,"is_disabled":false,"rental_uris":{"android":"levelo://app?vid=ba1b98b8-d6fd-4ac5-9eda-8035e3140fb6","ios":"levelo://app?vid=ba1b98b8-d6fd-4ac5-9eda-8035e3140fb6"},"vehicle_type_id":"4","last_reported":1770498929,"current_range_meters":4800,"station_id":"st_cvj6sg6p6f1abm77japg","pricing_plan_id":"cebpf4jnsgd1na2vs0mg"},{"bike_id":"968f210a-55fc-4510-bcd2-d3ede65fbe45","system_id":"levelo_inurba_marseille","lat":43.32529,"lon":5.36594,"is_reserved":false,"is_disabled":false,"rental_uris":{"android":"levelo://app?vid=968f210a-55fc-4510-bcd2-d3ede65fbe45","ios":"levelo://app?vid=968f210a-55fc-4510-bcd2-d3ede65fbe45"},"vehicle_type_id":"4","last_reported":1770498929,"current_range_meters":4800,"station_id":"ce4bhs12rcd13ifvqhvg","pricing_plan_id":"cebpf4jnsgd1na2vs0mg"},{"bike_id":"427b4afc-b7dd-4e77-a7c1-6686018850e8","system_id":"levelo_inurba_marseille","lat":43.28014,"lon":5.41081,"is_reserved":false,"is_disabled":false,"rental_uris":{"android":"levelo://app?vid=427b4afc-b7dd-4e77-a7c1-6686018850e8","ios":"levelo://app?vid=427b4afc-b7dd-4e77-a7c1-6686018850e8"},"vehicle_type_id":"4","last_reported":1770498929,"current_range_meters":5600,"station_id":"","pricing_plan_id":"cebpf4jnsgd1na2vs0mg"},{"bike_id":"55e6acf3-2487-453e-b1e8-9b4bb25c70bc","system_id":"levelo_inurba_marseille","lat":43.31724,"lon":5.40486,"is_reserved":false,"is_disabled":false,"rental_uris":{"android":"levelo://app?vid=55e6acf3-2487-453e-b1e8-9b4bb25c70bc","ios":"levelo://app?vid=55e6acf3-2487-453e-b1e8-9b4bb25c70bc"},"vehicle_type_id":"4","last_reported":1770498929,"current_range_meters":5600,"station_id":"ce4bh012rcd13ifvqd00","pricing_plan_id":"cebpf4jnsgd1na2vs0mg"},{"bike_id":"55701a05-0afd-44f2-b5ec-65dd45bfe15c","system_id":"levelo_inurba_marseille","lat":43.23932,"lon":5.36651,"is_reserved":false,"is_disabled":false,"rental_uris":{"android":"levelo://app?vid=55701a05-0afd-44f2-b5ec-65dd45bfe15c","ios":"levelo://app?vid=55701a05-0afd-44f2-b5ec-65dd45bfe15c"},"vehicle_type_id":"4","last_reported":1770498929,"current_range_meters":5600,"station_id":"ce4bhi12rcd13ifvqfp0","pricing_plan_id":"cebpf4jnsgd1na2vs0mg"},{"bike_id":"88b63b60-0a77-4859-b4d2-ee54cca1b9f3","system_id":"levelo_inurba_marseille","lat":43.30538,"lon":5.36563,"is_reserved":false,"is_disabled":false,"rental_uris":{"android":"levelo://app?vid=88b63b60-0a77-4859-b4d2-ee54cca1b9f3","ios":"levelo://app?vid=88b63b60-0a77-4859-b4d2-ee54cca1b9f3"},"vehicle_type_id":"4","last_reported":1770498929,"current_range_meters":5600,"station_id":"ce4bgs12rcd13ifvqcag","pricing_plan_id":"cebpf4jnsgd1na2vs0mg"},{"bike_id":"082c6167-f943-4767-9df3-19b6044ff5f3","system_id":"levelo_inurba_marseille","lat":43.30627,"lon":5.3723,"is_reserved":false,"is_disabled":false,"rental_uris":{"android":"levelo://app?vid=082c6167-f943-4767-9df3-19b6044ff5f3","ios":"levelo://app?vid=082c6167-f943-4767-9df3-19b6044ff5f3"},"vehicle_type_id":"4","last_reported":1770498929,"current_range_meters":5600,"station_id":"ce4bgqh2rcd13ifvqc4g","pricing_plan_id":"cebpf4jnsgd1na2vs0mg"},{"bike_id":"84c8699d-c437-4eea-b1ad-8edc224bad99","system_id":"levelo_inurba_marseille","lat":43.24976,"lon":5.40532,"is_reserved":false,"is_disabled":false,"rental_uris":{"android":"levelo://app?vid=84c8699d-c437-4eea-b1ad-8edc224bad99","ios":"levelo://app?vid=84c8699d-c437-4eea-b1ad-8edc224bad99"},"vehicle_type_id":"4","last_reported":1770498929,"current_range_meters":5600,"station_id":"st_d2ngiaodas8pm72gd1h0","pricing_plan_id":"cebpf4jnsgd1na2vs0mg"},{"bike_id":"6622ecdf-5979-47a5-b9a2-8e881f3db9ee","system_id":"levelo_inurba_marseille","lat":43.28008,"lon":5.40031,"is_reserved":false,"is_disabled":false,"rental_uris":{"android":"levelo://app?vid=6622ecdf-5979-47a5-b9a2-8e881f3db9ee","ios":"levelo://app?vid=6622ecdf-5979-47a5-b9a2-8e881f3db9ee"},"vehicle_type_id":"4","last_reported":1770498929,"current_range_meters":5600,"station_id":"ce4bho92rcd13ifvqh4g","pricing_plan_id":"cebpf4jnsgd1na2vs0mg"},{"bike_id":"4fd33ec2-191e-42f6-b2f1-474419accee2","system_id":"levelo_inurba_marseille","lat":43.2613,"lon":5.39473,"is_reserved":false,"is_disabled":false,"rental_uris":{"android":"levelo://app?vid=4fd33ec2-191e-42f6-b2f1-474419accee2","ios":"levelo://app?vid=4fd33ec2-191e-42f6-b2f1-474419accee2"},"vehicle_type_id":"4","last_reported":1770498929,"current_range_meters":5600,"station_id":"","pricing_plan_id":"cebpf4jnsgd1na2vs0mg"},{"bike_id":"75973dfd-67b6-4600-ac05-d521b143bd83","system_id":"levelo_inurba_marseille","lat":43.2447,"lon":5.42534,"is_reserved":false,"is_disabled":false,"rental_uris":{"android":"levelo://app?vid=75973dfd-67b6-4600-ac05-d521b143bd83","ios":"levelo://app?vid=75973dfd-67b6-4600-ac05-d521b143bd83"},"vehicle_type_id":"4","last_reported":1770498929,"current_range_meters":5600,"station_id":"st_d4a3vfp97mjs738cd8kg","pricing_plan_id":"cebpf4jnsgd1na2vs0mg"},{"bike_id":"ee8dbaf5-67a9-4fe1-9f78-97faabf96139","system_id":"levelo_inurba_marseille","lat":43.26697,"lon":5.38302,"is_reserved":false,"is_disabled":false,"rental_uris":{"android":"levelo://app?vid=ee8dbaf5-67a9-4fe1-9f78-97faabf96139","ios":"levelo://app?vid=ee8dbaf5-67a9-4fe1-9f78-97faabf96139"},"vehicle_type_id":"4","last_reported":1770498929,"current_range_meters":6000,"station_id":"ce4bhg92rcd13ifvqf90","pricing_plan_id":"cebpf4jnsgd1na2vs0mg"},{"bike_id":"4b38a39f-6da3-4482-91e4-d232d8216fbd","system_id":"levelo_inurba_marseille","lat":43.29245,"lon":5.36759,"is_reserved":false,"is_disabled":false,"rental_uris":{"android":"levelo://app?vid=4b38a39f-6da3-4482-91e4-d232d8216fbd","ios":"levelo://app?vid=4b38a39f-6da3-4482-91e4-d232d8216fbd"},"vehicle_type_id":"4","last_reported":1770498929,"current_range_meters":6000,"station_id":"","pricing_plan_id":"cebpf4jnsgd1na2vs0mg"},{"bike_id":"95ddcd5a-bf89-4af0-8832-e9e870a74381","system_id":"levelo_inurba_marseille","lat":43.26221,"lon":5.38854,"is_reserved":false,"is_disabled":false,"rental_uris":{"android":"levelo://app?vid=95ddcd5a-bf89-4af0-8832-e9e870a74381","ios":"levelo://app?vid=95ddcd5a-bf89-4af0-8832-e9e870a74381"},"vehicle_type_id":"4","last_reported":1770498929,"current_range_meters":6000,"station_id":"","pricing_plan_id":"cebpf4jnsgd1na2vs0mg"},{"bike_id":"34a55f58-a955-4283-bcd6-91c6f2bdcd18","system_id":"levelo_inurba_marseille","lat":43.26567,"lon":5.39393,"is_reserved":false,"is_disabled":false,"rental_uris":{"android":"levelo://app?vid=34a55f58-a955-4283-bcd6-91c6f2bdcd18","ios":"levelo://app?vid=34a55f58-a955-4283-bcd6-91c6f2bdcd18"},"vehicle_type_id":"4","last_reported":1770498929,"current_range_meters":6000,"station_id":"","pricing_plan_id":"cebpf4jnsgd1na2vs0mg"},{"bike_id":"7227446b-610e-4be4-97ad-4ce3c6f17651","system_id":"levelo_inurba_marseille","lat":43.29411,"lon":5.37458,"is_reserved":false,"is_disabled":true,"rental_uris":{"android":"levelo://app?vid=7227446b-610e-4be4-97ad-4ce3c6f17651","ios":"levelo://app?vid=7227446b-610e-4be4-97ad-4ce3c6f17651"},"vehicle_type_id":"4","last_reported":1770498929,"current_range_meters":6000,"station_id":"","pricing_plan_id":"cebpf4jnsgd1na2vs0mg"},{"bike_id":"8d874379-7a33-4f5f-a29b-a641becb777e","system_id":"levelo_inurba_marseille","lat":43.29651,"lon":5.37301,"is_reserved":false,"is_disabled":false,"rental_uris":{"android":"levelo://app?vid=8d874379-7a33-4f5f-a29b-a641becb777e","ios":"levelo://app?vid=8d874379-7a33-4f5f-a29b-a641becb777e"},"vehicle_type_id":"4","last_reported":1770498929,"current_range_meters":6000,"station_id":"ce4bgk12rcd13ifvqbj0","pricing_plan_id":"cebpf4jnsgd1na2vs0mg"},{"bike_id":"831f769d-3737-493b-9a0b-9d0ea0dc33c9","system_id":"levelo_inurba_marseille","lat":43.30892,"lon":5.3679,"is_reserved":false,"is_disabled":false,"rental_uris":{"android":"levelo://app?vid=831f769d-3737-493b-9a0b-9d0ea0dc33c9","ios":"levelo://app?vid=831f769d-3737-493b-9a0b-9d0ea0dc33c9"},"vehicle_type_id":"4","last_reported":1770498929,"current_range_meters":6000,"station_id":"ce4bgn92rcd13ifvqbvg","pricing_plan_id":"cebpf4jnsgd1na2vs0mg"},{"bike_id":"19decdef-6625-4d6a-8a49-f7d33230b922","system_id":"levelo_inurba_marseille","lat":43.29812,"lon":5.38085,"is_reserved":false,"is_disabled":false,"rental_uris":{"android":"levelo://app?vid=19decdef-6625-4d6a-8a49-f7d33230b922","ios":"levelo://app?vid=19decdef-6625-4d6a-8a49-f7d33230b922"},"vehicle_type_id":"4","last_reported":1770498929,"current_range_meters":6000,"station_id":"ce4bgip2rcd13ifvqbb0","pricing_plan_id":"cebpf4jnsgd1na2vs0mg"},{"bike_id":"22a18f5a-e84b-4706-acdf-fdede8aeea20","system_id":"levelo_inurba_marseille","lat":43.25871,"lon":5.39943,"is_reserved":false,"is_disabled":false,"rental_uris":{"android":"levelo://app?vid=22a18f5a-e84b-4706-acdf-fdede8aeea20","ios":"levelo://app?vid=22a18f5a-e84b-4706-acdf-fdede8aeea20"},"vehicle_type_id":"4","last_reported":1770498929,"current_range_meters":6000,"station_id":"ce4bhl92rcd13ifvqghg","pricing_plan_id":"cebpf4jnsgd1na2vs0mg"},{"bike_id":"807b159f-53ad-4b9b-a6f3-98be22f18cac","system_id":"levelo_inurba_marseille","lat":43.31076,"lon":5.38354,"is_reserved":false,"is_disabled":false,"rental_uris":{"android":"levelo://app?vid=807b159f-53ad-4b9b-a6f3-98be22f18cac","ios":"levelo://app?vid=807b159f-53ad-4b9b-a6f3-98be22f18cac"},"vehicle_type_id":"4","last_reported":1770498929,"current_range_meters":6000,"station_id":"ce4bgv92rcd13ifvqcr0","pricing_plan_id":"cebpf4jnsgd1na2vs0mg"},{"bike_id":"8f456931-6682-4563-a722-91f6bad4b5cf","system_id":"levelo_inurba_marseille","lat":43.28996,"lon":5.37544,"is_reserved":false,"is_disabled":false,"rental_uris":{"android":"levelo://app?vid=8f456931-6682-4563-a722-91f6bad4b5cf","ios":"levelo://app?vid=8f456931-6682-4563-a722-91f6bad4b5cf"},"vehicle_type_id":"4","last_reported":1770498929,"current_range_meters":6000,"station_id":"ce4bh692rcd13ifvqe90","pricing_plan_id":"cebpf4jnsgd1na2vs0mg"},{"bike_id":"b5ef2479-08bc-4926-bde6-95f0bd6a5a92","system_id":"levelo_inurba_marseille","lat":43.31492,"lon":5.37255,"is_reserved":false,"is_disabled":false,"rental_uris":{"android":"levelo://app?vid=b5ef2479-08bc-4926-bde6-95f0bd6a5a92","ios":"levelo://app?vid=b5ef2479-08bc-4926-bde6-95f0bd6a5a92"},"vehicle_type_id":"4","last_reported":1770498929,"current_range_meters":6000,"station_id":"ce4bgt12rcd13ifvqcd0","pricing_plan_id":"cebpf4jnsgd1na2vs0mg"},{"bike_id":"f753e5bc-6779-475c-8a3e-9d153858674f","system_id":"levelo_inurba_marseille","lat":43.29262,"lon":5.38465,"is_reserved":false,"is_disabled":false,"rental_uris":{"android":"levelo://app?vid=f753e5bc-6779-475c-8a3e-9d153858674f","ios":"levelo://app?vid=f753e5bc-6779-475c-8a3e-9d153858674f"},"vehicle_type_id":"4","last_reported":1770498929,"current_range_meters":6400,"station_id":"ce4bh692rcd13ifvqea0","pricing_plan_id":"cebpf4jnsgd1na2vs0mg"},{"bike_id":"a0a67bd8-5c45-40bf-b3cf-4bc191cf8630","system_id":"levelo_inurba_marseille","lat":43.23144,"lon":5.43734,"is_reserved":false,"is_disabled":false,"rental_uris":{"android":"levelo://app?vid=a0a67bd8-5c45-40bf-b3cf-4bc191cf8630","ios":"levelo://app?vid=a0a67bd8-5c45-40bf-b3cf-4bc191cf8630"},"vehicle_type_id":"4","last_reported":1770498929,"current_range_meters":6400,"station_id":"ce4bhmp2rcd13ifvqgog","pricing_plan_id":"cebpf4jnsgd1na2vs0mg"},{"bike_id":"444a0cef-68ea-4cc9-9f2b-8b1e8096bb5a","system_id":"levelo_inurba_marseille","lat":43.29067,"lon":5.38632,"is_reserved":false,"is_disabled":false,"rental_uris":{"android":"levelo://app?vid=444a0cef-68ea-4cc9-9f2b-8b1e8096bb5a","ios":"levelo://app?vid=444a0cef-68ea-4cc9-9f2b-8b1e8096bb5a"},"vehicle_type_id":"4","last_reported":1770498929,"current_range_meters":6400,"station_id":"ce4bh4p2rcd13ifvqe0g","pricing_plan_id":"cebpf4jnsgd1na2vs0mg"},{"bike_id":"c2a8a439-33fe-49c7-8bf3-4333c7082516","system_id":"levelo_inurba_marseille","lat":43.27959,"lon":5.41056,"is_reserved":false,"is_disabled":false,"rental_uris":{"android":"levelo://app?vid=c2a8a439-33fe-49c7-8bf3-4333c7082516","ios":"levelo://app?vid=c2a8a439-33fe-49c7-8bf3-4333c7082516"},"vehicle_type_id":"4","last_reported":1770498929,"current_range_meters":6400,"station_id":"ce4bhnp2rcd13ifvqh0g","pricing_plan_id":"cebpf4jnsgd1na2vs0mg"},{"bike_id":"f5b3c0bc-b0db-4532-8e2f-eae93141d573","system_id":"levelo_inurba_marseille","lat":43.3358,"lon":5.37464,"is_reserved":false,"is_disabled":false,"rental_uris":{"android":"levelo://app?vid=f5b3c0bc-b0db-4532-8e2f-eae93141d573","ios":"levelo://app?vid=f5b3c0bc-b0db-4532-8e2f-eae93141d573"},"vehicle_type_id":"4","last_reported":1770498929,"current_range_meters":6400,"station_id":"st_d46tts09ee8s73dlu43g","pricing_plan_id":"cebpf4jnsgd1na2vs0mg"},{"bike_id":"b805cbda-0bcb-43b5-8f11-56fc15ee2f84","system_id":"levelo_inurba_marseille","lat":43.26192,"lon":5.37439,"is_reserved":false,"is_disabled":false,"rental_uris":{"android":"levelo://app?vid=b805cbda-0bcb-43b5-8f11-56fc15ee2f84","ios":"levelo://app?vid=b805cbda-0bcb-43b5-8f11-56fc15ee2f84"},"vehicle_type_id":"4","last_reported":1770498929,"current_range_meters":6400,"station_id":"ce4bhgp2rcd13ifvqfc0","pricing_plan_id":"cebpf4jnsgd1na2vs0mg"},{"bike_id":"2c09a0f9-e9a0-4d52-b227-0d1dbfce5311","system_id":"levelo_inurba_marseille","lat":43.237906,"lon":5.366272,"is_reserved":false,"is_disabled":false,"rental_uris":{"android":"levelo://app?vid=2c09a0f9-e9a0-4d52-b227-0d1dbfce5311","ios":"levelo://app?vid=2c09a0f9-e9a0-4d52-b227-0d1dbfce5311"},"vehicle_type_id":"4","last_reported":1770498929,"current_range_meters":6400,"station_id":"st_d3nk18o9ro0c73en2l3g","pricing_plan_id":"cebpf4jnsgd1na2vs0mg"},{"bike_id":"1780f274-efef-4868-ad51-2e25c5373fc0","system_id":"levelo_inurba_marseille","lat":43.27076,"lon":5.42286,"is_reserved":false,"is_disabled":false,"rental_uris":{"android":"levelo://app?vid=1780f274-efef-4868-ad51-2e25c5373fc0","ios":"levelo://app?vid=1780f274-efef-4868-ad51-2e25c5373fc0"},"vehicle_type_id":"4","last_reported":1770498929,"current_range_meters":6400,"station_id":"ce4bhk92rcd13ifvqgb0","pricing_plan_id":"cebpf4jnsgd1na2vs0mg"},{"bike_id":"699fac07-9b50-471a-988d-02036968b5f7","system_id":"levelo_inurba_marseille","lat":43.29047,"lon":5.38641,"is_reserved":false,"is_disabled":false,"rental_uris":{"android":"levelo://app?vid=699fac07-9b50-471a-988d-02036968b5f7","ios":"levelo://app?vid=699fac07-9b50-471a-988d-02036968b5f7"},"vehicle_type_id":"4","last_reported":1770498929,"current_range_meters":6400,"station_id":"ce4bh4p2rcd13ifvqe0g","pricing_plan_id":"cebpf4jnsgd1na2vs0mg"},{"bike_id":"e28e99f8-7d45-40f8-98b3-b070827fc4f2","system_id":"levelo_inurba_marseille","lat":43.22552,"lon":5.41644,"is_reserved":false,"is_disabled":false,"rental_uris":{"android":"levelo://app?vid=e28e99f8-7d45-40f8-98b3-b070827fc4f2","ios":"levelo://app?vid=e28e99f8-7d45-40f8-98b3-b070827fc4f2"},"vehicle_type_id":"4","last_reported":1770498929,"current_range_meters":6400,"station_id":"st_d2o4gvlbi1j2169b742g","pricing_plan_id":"cebpf4jnsgd1na2vs0mg"},{"bike_id":"c8009395-3528-46a2-8006-ca2eedbb04a8","system_id":"levelo_inurba_marseille","lat":43.32471,"lon":5.36564,"is_reserved":false,"is_disabled":false,"rental_uris":{"android":"levelo://app?vid=c8009395-3528-46a2-8006-ca2eedbb04a8","ios":"levelo://app?vid=c8009395-3528-46a2-8006-ca2eedbb04a8"},"vehicle_type_id":"4","last_reported":1770498929,"current_range_meters":6400,"station_id":"ce4bhs12rcd13ifvqhvg","pricing_plan_id":"cebpf4jnsgd1na2vs0mg"},{"bike_id":"3b71a1ad-0888-4e5c-82a0-0dec693b29d4","system_id":"levelo_inurba_marseille","lat":43.31089,"lon":5.381372,"is_reserved":false,"is_disabled":false,"rental_uris":{"android":"levelo://app?vid=3b71a1ad-0888-4e5c-82a0-0dec693b29d4","ios":"levelo://app?vid=3b71a1ad-0888-4e5c-82a0-0dec693b29d4"},"vehicle_type_id":"4","last_reported":1770498929,"current_range_meters":6400,"station_id":"","pricing_plan_id":"cebpf4jnsgd1na2vs0mg"},{"bike_id":"8efb4574-340b-4df3-a8c1-1e7cd9ceeacf","system_id":"levelo_inurba_marseille","lat":43.23184,"lon":5.4001,"is_reserved":false,"is_disabled":false,"rental_uris":{"android":"levelo://app?vid=8efb4574-340b-4df3-a8c1-1e7cd9ceeacf","ios":"levelo://app?vid=8efb4574-340b-4df3-a8c1-1e7cd9ceeacf"},"vehicle_type_id":"4","last_reported":1770498929,"current_range_meters":6400,"station_id":"ce4bhn12rcd13ifvqgqg","pricing_plan_id":"cebpf4jnsgd1na2vs0mg"},{"bike_id":"9ba83d1b-f7bb-42d4-9de7-cbaf279c8ab2","system_id":"levelo_inurba_marseille","lat":43.31713,"lon":5.42398,"is_reserved":false,"is_disabled":false,"rental_uris":{"android":"levelo://app?vid=9ba83d1b-f7bb-42d4-9de7-cbaf279c8ab2","ios":"levelo://app?vid=9ba83d1b-f7bb-42d4-9de7-cbaf279c8ab2"},"vehicle_type_id":"4","last_reported":1770498929,"current_range_meters":6400,"station_id":"ce4bhp92rcd13ifvqhbg","pricing_plan_id":"cebpf4jnsgd1na2vs0mg"},{"bike_id":"c3cea571-fb42-4ad7-864e-47ef8f4c3f2d","system_id":"levelo_inurba_marseille","lat":43.23186,"lon":5.35559,"is_reserved":false,"is_disabled":false,"rental_uris":{"android":"levelo://app?vid=c3cea571-fb42-4ad7-864e-47ef8f4c3f2d","ios":"levelo://app?vid=c3cea571-fb42-4ad7-864e-47ef8f4c3f2d"},"vehicle_type_id":"4","last_reported":1770498929,"current_range_meters":6400,"station_id":"ce4bhu92rcd13ifvqi70","pricing_plan_id":"cebpf4jnsgd1na2vs0mg"},{"bike_id":"03414a6d-caa9-4966-8ffd-1cbcbc02f0d6","system_id":"levelo_inurba_marseille","lat":43.24413,"lon":5.3703,"is_reserved":false,"is_disabled":false,"rental_uris":{"android":"levelo://app?vid=03414a6d-caa9-4966-8ffd-1cbcbc02f0d6","ios":"levelo://app?vid=03414a6d-caa9-4966-8ffd-1cbcbc02f0d6"},"vehicle_type_id":"4","last_reported":1770498929,"current_range_meters":6400,"station_id":"ce4bhhh2rcd13ifvqfk0","pricing_plan_id":"cebpf4jnsgd1na2vs0mg"},{"bike_id":"37810020-311e-4142-81ed-743738c6fb89","system_id":"levelo_inurba_marseille","lat":43.30717,"lon":5.42462,"is_reserved":false,"is_disabled":false,"rental_uris":{"android":"levelo://app?vid=37810020-311e-4142-81ed-743738c6fb89","ios":"levelo://app?vid=37810020-311e-4142-81ed-743738c6fb89"},"vehicle_type_id":"4","last_reported":1770498929,"current_range_meters":6400,"station_id":"st_cvj6ca6bvosntc0bfgr0","pricing_plan_id":"cebpf4jnsgd1na2vs0mg"},{"bike_id":"695a138c-9117-4798-9030-e462ffee3fe5","system_id":"levelo_inurba_marseille","lat":43.24822,"lon":5.37426,"is_reserved":false,"is_disabled":false,"rental_uris":{"android":"levelo://app?vid=695a138c-9117-4798-9030-e462ffee3fe5","ios":"levelo://app?vid=695a138c-9117-4798-9030-e462ffee3fe5"},"vehicle_type_id":"4","last_reported":1770498929,"current_range_meters":6400,"station_id":"ce4bhgh2rcd13ifvqfb0","pricing_plan_id":"cebpf4jnsgd1na2vs0mg"},{"bike_id":"f0c4f9ae-f3d8-40cd-a533-8933629f33e1","system_id":"levelo_inurba_marseille","lat":43.29268,"lon":5.38446,"is_reserved":false,"is_disabled":false,"rental_uris":{"android":"levelo://app?vid=f0c4f9ae-f3d8-40cd-a533-8933629f33e1","ios":"levelo://app?vid=f0c4f9ae-f3d8-40cd-a533-8933629f33e1"},"vehicle_type_id":"4","last_reported":1770498929,"current_range_meters":6400,"station_id":"ce4bh692rcd13ifvqea0","pricing_plan_id":"cebpf4jnsgd1na2vs0mg"},{"bike_id":"71f0848e-0da5-42b2-bd09-102003c22f59","system_id":"levelo_inurba_marseille","lat":43.24944,"lon":5.405,"is_reserved":false,"is_disabled":false,"rental_uris":{"android":"levelo://app?vid=71f0848e-0da5-42b2-bd09-102003c22f59","ios":"levelo://app?vid=71f0848e-0da5-42b2-bd09-102003c22f59"},"vehicle_type_id":"4","last_reported":1770498929,"current_range_meters":6400,"station_id":"st_d2ngiaodas8pm72gd1h0","pricing_plan_id":"cebpf4jnsgd1na2vs0mg"},{"bike_id":"b834e44c-7a6b-44e2-8b98-4864f68f72bc","system_id":"levelo_inurba_marseille","lat":43.25829,"lon":5.3944,"is_reserved":false,"is_disabled":false,"rental_uris":{"android":"levelo://app?vid=b834e44c-7a6b-44e2-8b98-4864f68f72bc","ios":"levelo://app?vid=b834e44c-7a6b-44e2-8b98-4864f68f72bc"},"vehicle_type_id":"4","last_reported":1770498929,"current_range_meters":6800,"station_id":"ce4bhip2rcd13ifvqft0","pricing_plan_id":"cebpf4jnsgd1na2vs0mg"},{"bike_id":"ba7d3998-6aab-413e-bad5-f6845958284b","system_id":"levelo_inurba_marseille","lat":43.25113,"lon":5.40288,"is_reserved":false,"is_disabled":false,"rental_uris":{"android":"levelo://app?vid=ba7d3998-6aab-413e-bad5-f6845958284b","ios":"levelo://app?vid=ba7d3998-6aab-413e-bad5-f6845958284b"},"vehicle_type_id":"4","last_reported":1770498929,"current_range_meters":6800,"station_id":"ce4bhlh2rcd13ifvqgig","pricing_plan_id":"cebpf4jnsgd1na2vs0mg"},{"bike_id":"7bddda00-b4a3-467e-857f-177f6c856946","system_id":"levelo_inurba_marseille","lat":43.27992,"lon":5.40024,"is_reserved":false,"is_disabled":false,"rental_uris":{"android":"levelo://app?vid=7bddda00-b4a3-467e-857f-177f6c856946","ios":"levelo://app?vid=7bddda00-b4a3-467e-857f-177f6c856946"},"vehicle_type_id":"4","last_reported":1770498929,"current_range_meters":6800,"station_id":"ce4bho92rcd13ifvqh4g","pricing_plan_id":"cebpf4jnsgd1na2vs0mg"},{"bike_id":"3424fe65-7365-4a3d-b40c-9b25ec3af19d","system_id":"levelo_inurba_marseille","lat":43.31322,"lon":5.38722,"is_reserved":false,"is_disabled":false,"rental_uris":{"android":"levelo://app?vid=3424fe65-7365-4a3d-b40c-9b25ec3af19d","ios":"levelo://app?vid=3424fe65-7365-4a3d-b40c-9b25ec3af19d"},"vehicle_type_id":"4","last_reported":1770498929,"current_range_meters":6800,"station_id":"","pricing_plan_id":"cebpf4jnsgd1na2vs0mg"},{"bike_id":"82f38651-b135-48cf-bb30-2efbdc34233b","system_id":"levelo_inurba_marseille","lat":43.2976,"lon":5.44101,"is_reserved":false,"is_disabled":false,"rental_uris":{"android":"levelo://app?vid=82f38651-b135-48cf-bb30-2efbdc34233b","ios":"levelo://app?vid=82f38651-b135-48cf-bb30-2efbdc34233b"},"vehicle_type_id":"4","last_reported":1770498929,"current_range_meters":6800,"station_id":"","pricing_plan_id":"cebpf4jnsgd1na2vs0mg"},{"bike_id":"99083815-4ec4-4ced-ae9a-4a6b4b353671","system_id":"levelo_inurba_marseille","lat":43.29621,"lon":5.37747,"is_reserved":false,"is_disabled":false,"rental_uris":{"android":"levelo://app?vid=99083815-4ec4-4ced-ae9a-4a6b4b353671","ios":"levelo://app?vid=99083815-4ec4-4ced-ae9a-4a6b4b353671"},"vehicle_type_id":"4","last_reported":1770498929,"current_range_meters":6800,"station_id":"ce4bgi92rcd13ifvqb90","pricing_plan_id":"cebpf4jnsgd1na2vs0mg"},{"bike_id":"07fe9fa6-8ba5-4426-9dc7-81b5cb2cb051","system_id":"levelo_inurba_marseille","lat":43.26645,"lon":5.40312,"is_reserved":false,"is_disabled":false,"rental_uris":{"android":"levelo://app?vid=07fe9fa6-8ba5-4426-9dc7-81b5cb2cb051","ios":"levelo://app?vid=07fe9fa6-8ba5-4426-9dc7-81b5cb2cb051"},"vehicle_type_id":"4","last_reported":1770498929,"current_range_meters":6800,"station_id":"ce4bhmp2rcd13ifvqgng","pricing_plan_id":"cebpf4jnsgd1na2vs0mg"},{"bike_id":"d7b7c118-575b-4f69-a01a-1a37afc992ca","system_id":"levelo_inurba_marseille","lat":43.32357,"lon":5.38879,"is_reserved":false,"is_disabled":false,"rental_uris":{"android":"levelo://app?vid=d7b7c118-575b-4f69-a01a-1a37afc992ca","ios":"levelo://app?vid=d7b7c118-575b-4f69-a01a-1a37afc992ca"},"vehicle_type_id":"4","last_reported":1770498929,"current_range_meters":6800,"station_id":"ce4bhqp2rcd13ifvqhog","pricing_plan_id":"cebpf4jnsgd1na2vs0mg"},{"bike_id":"13a66910-aa65-4559-ba7a-e63b61e82f6f","system_id":"levelo_inurba_marseille","lat":43.295632,"lon":5.422856,"is_reserved":false,"is_disabled":false,"rental_uris":{"android":"levelo://app?vid=13a66910-aa65-4559-ba7a-e63b61e82f6f","ios":"levelo://app?vid=13a66910-aa65-4559-ba7a-e63b61e82f6f"},"vehicle_type_id":"4","last_reported":1770498929,"current_range_meters":6800,"station_id":"ce4bhph2rcd13ifvqhdg","pricing_plan_id":"cebpf4jnsgd1na2vs0mg"},{"bike_id":"ff981718-737a-46d1-b7ba-67de65affffe","system_id":"levelo_inurba_marseille","lat":43.25899,"lon":5.39921,"is_reserved":false,"is_disabled":false,"rental_uris":{"android":"levelo://app?vid=ff981718-737a-46d1-b7ba-67de65affffe","ios":"levelo://app?vid=ff981718-737a-46d1-b7ba-67de65affffe"},"vehicle_type_id":"4","last_reported":1770498929,"current_range_meters":6800,"station_id":"ce4bhl92rcd13ifvqghg","pricing_plan_id":"cebpf4jnsgd1na2vs0mg"},{"bike_id":"4a1bcefa-af4a-44ea-9ff4-4cfe2f5cf27d","system_id":"levelo_inurba_marseille","lat":43.31164,"lon":5.38721,"is_reserved":false,"is_disabled":false,"rental_uris":{"android":"levelo://app?vid=4a1bcefa-af4a-44ea-9ff4-4cfe2f5cf27d","ios":"levelo://app?vid=4a1bcefa-af4a-44ea-9ff4-4cfe2f5cf27d"},"vehicle_type_id":"4","last_reported":1770498929,"current_range_meters":6800,"station_id":"ce4bgv12rcd13ifvqcp0","pricing_plan_id":"cebpf4jnsgd1na2vs0mg"},{"bike_id":"a85d500c-1b7e-4b3f-bba8-c0b38aec10c6","system_id":"levelo_inurba_marseille","lat":43.259283,"lon":5.409049,"is_reserved":false,"is_disabled":false,"rental_uris":{"android":"levelo://app?vid=a85d500c-1b7e-4b3f-bba8-c0b38aec10c6","ios":"levelo://app?vid=a85d500c-1b7e-4b3f-bba8-c0b38aec10c6"},"vehicle_type_id":"4","last_reported":1770498929,"current_range_meters":6800,"station_id":"ce4bhm92rcd13ifvqglg","pricing_plan_id":"cebpf4jnsgd1na2vs0mg"},{"bike_id":"1204a6ff-2849-4a7e-ac1a-dbb7e4c916de","system_id":"levelo_inurba_marseille","lat":43.28361,"lon":5.38111,"is_reserved":false,"is_disabled":false,"rental_uris":{"android":"levelo://app?vid=1204a6ff-2849-4a7e-ac1a-dbb7e4c916de","ios":"levelo://app?vid=1204a6ff-2849-4a7e-ac1a-dbb7e4c916de"},"vehicle_type_id":"4","last_reported":1770498929,"current_range_meters":6800,"station_id":"ce4bh412rcd13ifvqdr0","pricing_plan_id":"cebpf4jnsgd1na2vs0mg"},{"bike_id":"4308129b-6751-4273-bbe8-20208f30cb65","system_id":"levelo_inurba_marseille","lat":43.22931,"lon":5.35365,"is_reserved":false,"is_disabled":false,"rental_uris":{"android":"levelo://app?vid=4308129b-6751-4273-bbe8-20208f30cb65","ios":"levelo://app?vid=4308129b-6751-4273-bbe8-20208f30cb65"},"vehicle_type_id":"4","last_reported":1770498929,"current_range_meters":6800,"station_id":"cpo3532slgdg3j2ikp40","pricing_plan_id":"cebpf4jnsgd1na2vs0mg"},{"bike_id":"98794222-3714-41d8-945d-7f3fd3af2bf0","system_id":"levelo_inurba_marseille","lat":43.24802,"lon":5.37455,"is_reserved":false,"is_disabled":false,"rental_uris":{"android":"levelo://app?vid=98794222-3714-41d8-945d-7f3fd3af2bf0","ios":"levelo://app?vid=98794222-3714-41d8-945d-7f3fd3af2bf0"},"vehicle_type_id":"4","last_reported":1770498929,"current_range_meters":6800,"station_id":"ce4bhgh2rcd13ifvqfb0","pricing_plan_id":"cebpf4jnsgd1na2vs0mg"},{"bike_id":"3aed5847-38a3-483f-a302-c0e755a4674d","system_id":"levelo_inurba_marseille","lat":43.26395,"lon":5.41064,"is_reserved":false,"is_disabled":false,"rental_uris":{"android":"levelo://app?vid=3aed5847-38a3-483f-a302-c0e755a4674d","ios":"levelo://app?vid=3aed5847-38a3-483f-a302-c0e755a4674d"},"vehicle_type_id":"4","last_reported":1770498929,"current_range_meters":6800,"station_id":"st_d4e5ca6na9uc73bfl5fg","pricing_plan_id":"cebpf4jnsgd1na2vs0mg"},{"bike_id":"e8b3f3bc-4896-4dbc-afc4-dfc343612c09","system_id":"levelo_inurba_marseille","lat":43.314387,"lon":5.366947,"is_reserved":false,"is_disabled":false,"rental_uris":{"android":"levelo://app?vid=e8b3f3bc-4896-4dbc-afc4-dfc343612c09","ios":"levelo://app?vid=e8b3f3bc-4896-4dbc-afc4-dfc343612c09"},"vehicle_type_id":"4","last_reported":1770498929,"current_range_meters":7200,"station_id":"","pricing_plan_id":"cebpf4jnsgd1na2vs0mg"},{"bike_id":"bb5cab08-186f-4af0-9cfa-2f009cafe5c6","system_id":"levelo_inurba_marseille","lat":43.22993,"lon":5.35437,"is_reserved":false,"is_disabled":false,"rental_uris":{"android":"levelo://app?vid=bb5cab08-186f-4af0-9cfa-2f009cafe5c6","ios":"levelo://app?vid=bb5cab08-186f-4af0-9cfa-2f009cafe5c6"},"vehicle_type_id":"4","last_reported":1770498929,"current_range_meters":7200,"station_id":"","pricing_plan_id":"cebpf4jnsgd1na2vs0mg"},{"bike_id":"e61d0ac2-97cb-4c8f-9bcd-d991c2ca42f8","system_id":"levelo_inurba_marseille","lat":43.29614,"lon":5.37505,"is_reserved":false,"is_disabled":false,"rental_uris":{"android":"levelo://app?vid=e61d0ac2-97cb-4c8f-9bcd-d991c2ca42f8","ios":"levelo://app?vid=e61d0ac2-97cb-4c8f-9bcd-d991c2ca42f8"},"vehicle_type_id":"4","last_reported":1770498929,"current_range_meters":7200,"station_id":"ce4bgh92rcd13ifvqb50","pricing_plan_id":"cebpf4jnsgd1na2vs0mg"},{"bike_id":"cc2dbf0a-8e74-49bf-8aee-b8888874e304","system_id":"levelo_inurba_marseille","lat":43.28845,"lon":5.39311,"is_reserved":false,"is_disabled":false,"rental_uris":{"android":"levelo://app?vid=cc2dbf0a-8e74-49bf-8aee-b8888874e304","ios":"levelo://app?vid=cc2dbf0a-8e74-49bf-8aee-b8888874e304"},"vehicle_type_id":"4","last_reported":1770498929,"current_range_meters":7200,"station_id":"ce4bh2p2rcd13ifvqdi0","pricing_plan_id":"cebpf4jnsgd1na2vs0mg"},{"bike_id":"a8166b5b-d24f-4bfd-bc3a-e719ac9d4b2e","system_id":"levelo_inurba_marseille","lat":43.28047,"lon":5.40894,"is_reserved":false,"is_disabled":false,"rental_uris":{"android":"levelo://app?vid=a8166b5b-d24f-4bfd-bc3a-e719ac9d4b2e","ios":"levelo://app?vid=a8166b5b-d24f-4bfd-bc3a-e719ac9d4b2e"},"vehicle_type_id":"4","last_reported":1770498929,"current_range_meters":7200,"station_id":"","pricing_plan_id":"cebpf4jnsgd1na2vs0mg"},{"bike_id":"b92cefea-b054-4668-8b8f-6f3d47fab6c0","system_id":"levelo_inurba_marseille","lat":43.32106,"lon":5.36753,"is_reserved":false,"is_disabled":false,"rental_uris":{"android":"levelo://app?vid=b92cefea-b054-4668-8b8f-6f3d47fab6c0","ios":"levelo://app?vid=b92cefea-b054-4668-8b8f-6f3d47fab6c0"},"vehicle_type_id":"4","last_reported":1770498929,"current_range_meters":7200,"station_id":"ce4bhrh2rcd13ifvqhug","pricing_plan_id":"cebpf4jnsgd1na2vs0mg"},{"bike_id":"c9d2bfb2-7471-46bf-97d6-14603771c306","system_id":"levelo_inurba_marseille","lat":43.24426,"lon":5.3703,"is_reserved":false,"is_disabled":false,"rental_uris":{"android":"levelo://app?vid=c9d2bfb2-7471-46bf-97d6-14603771c306","ios":"levelo://app?vid=c9d2bfb2-7471-46bf-97d6-14603771c306"},"vehicle_type_id":"4","last_reported":1770498929,"current_range_meters":7200,"station_id":"","pricing_plan_id":"cebpf4jnsgd1na2vs0mg"},{"bike_id":"811ecfab-1e6f-4cd1-8960-403c2a502307","system_id":"levelo_inurba_marseille","lat":43.229506,"lon":5.353671,"is_reserved":false,"is_disabled":false,"rental_uris":{"android":"levelo://app?vid=811ecfab-1e6f-4cd1-8960-403c2a502307","ios":"levelo://app?vid=811ecfab-1e6f-4cd1-8960-403c2a502307"},"vehicle_type_id":"4","last_reported":1770498929,"current_range_meters":7200,"station_id":"cpo3532slgdg3j2ikp40","pricing_plan_id":"cebpf4jnsgd1na2vs0mg"},{"bike_id":"f6d1879a-5333-4d75-8154-4532b09c3b39","system_id":"levelo_inurba_marseille","lat":43.257397,"lon":5.41057,"is_reserved":false,"is_disabled":false,"rental_uris":{"android":"levelo://app?vid=f6d1879a-5333-4d75-8154-4532b09c3b39","ios":"levelo://app?vid=f6d1879a-5333-4d75-8154-4532b09c3b39"},"vehicle_type_id":"4","last_reported":1770498929,"current_range_meters":7200,"station_id":"ce4bhkp2rcd13ifvqgd0","pricing_plan_id":"cebpf4jnsgd1na2vs0mg"},{"bike_id":"4940192c-cd9e-43b0-a8dd-fd4c04e7805e","system_id":"levelo_inurba_marseille","lat":43.22557,"lon":5.41635,"is_reserved":false,"is_disabled":false,"rental_uris":{"android":"levelo://app?vid=4940192c-cd9e-43b0-a8dd-fd4c04e7805e","ios":"levelo://app?vid=4940192c-cd9e-43b0-a8dd-fd4c04e7805e"},"vehicle_type_id":"4","last_reported":1770498929,"current_range_meters":7200,"station_id":"st_d2o4gvlbi1j2169b742g","pricing_plan_id":"cebpf4jnsgd1na2vs0mg"},{"bike_id":"32641f13-9d93-4f9b-b623-ce0c373ebef8","system_id":"levelo_inurba_marseille","lat":43.28531,"lon":5.3843,"is_reserved":false,"is_disabled":false,"rental_uris":{"android":"levelo://app?vid=32641f13-9d93-4f9b-b623-ce0c373ebef8","ios":"levelo://app?vid=32641f13-9d93-4f9b-b623-ce0c373ebef8"},"vehicle_type_id":"4","last_reported":1770498929,"current_range_meters":7200,"station_id":"","pricing_plan_id":"cebpf4jnsgd1na2vs0mg"},{"bike_id":"6b6b3044-dd0e-4787-8945-aab93fdd08a2","system_id":"levelo_inurba_marseille","lat":43.298206,"lon":5.374005,"is_reserved":false,"is_disabled":false,"rental_uris":{"android":"levelo://app?vid=6b6b3044-dd0e-4787-8945-aab93fdd08a2","ios":"levelo://app?vid=6b6b3044-dd0e-4787-8945-aab93fdd08a2"},"vehicle_type_id":"4","last_reported":1770498929,"current_range_meters":7200,"station_id":"","pricing_plan_id":"cebpf4jnsgd1na2vs0mg"},{"bike_id":"386b4487-f2a2-455b-8ef5-022f78fae20f","system_id":"levelo_inurba_marseille","lat":43.248183,"lon":5.374633,"is_reserved":false,"is_disabled":false,"rental_uris":{"android":"levelo://app?vid=386b4487-f2a2-455b-8ef5-022f78fae20f","ios":"levelo://app?vid=386b4487-f2a2-455b-8ef5-022f78fae20f"},"vehicle_type_id":"4","last_reported":1770498929,"current_range_meters":7200,"station_id":"ce4bhgh2rcd13ifvqfb0","pricing_plan_id":"cebpf4jnsgd1na2vs0mg"},{"bike_id":"b47bf9e4-f387-4055-bde0-e0d9d03efab8","system_id":"levelo_inurba_marseille","lat":43.28479,"lon":5.38431,"is_reserved":false,"is_disabled":false,"rental_uris":{"android":"levelo://app?vid=b47bf9e4-f387-4055-bde0-e0d9d03efab8","ios":"levelo://app?vid=b47bf9e4-f387-4055-bde0-e0d9d03efab8"},"vehicle_type_id":"4","last_reported":1770498929,"current_range_meters":7200,"station_id":"ce4bh512rcd13ifvqe3g","pricing_plan_id":"cebpf4jnsgd1na2vs0mg"},{"bike_id":"84d6fa48-cc7d-4f93-b2a0-978294180627","system_id":"levelo_inurba_marseille","lat":43.30897,"lon":5.36844,"is_reserved":false,"is_disabled":false,"rental_uris":{"android":"levelo://app?vid=84d6fa48-cc7d-4f93-b2a0-978294180627","ios":"levelo://app?vid=84d6fa48-cc7d-4f93-b2a0-978294180627"},"vehicle_type_id":"4","last_reported":1770498929,"current_range_meters":7200,"station_id":"ce4bgn92rcd13ifvqbvg","pricing_plan_id":"cebpf4jnsgd1na2vs0mg"},{"bike_id":"72ea63b3-1230-4860-ad81-641e0e69dbb6","system_id":"levelo_inurba_marseille","lat":43.279867,"lon":5.400083,"is_reserved":false,"is_disabled":false,"rental_uris":{"android":"levelo://app?vid=72ea63b3-1230-4860-ad81-641e0e69dbb6","ios":"levelo://app?vid=72ea63b3-1230-4860-ad81-641e0e69dbb6"},"vehicle_type_id":"4","last_reported":1770498929,"current_range_meters":7200,"station_id":"ce4bho92rcd13ifvqh4g","pricing_plan_id":"cebpf4jnsgd1na2vs0mg"},{"bike_id":"ed45abda-ecf5-4137-85bd-6b0bc3b77ddf","system_id":"levelo_inurba_marseille","lat":43.26404,"lon":5.41123,"is_reserved":false,"is_disabled":false,"rental_uris":{"android":"levelo://app?vid=ed45abda-ecf5-4137-85bd-6b0bc3b77ddf","ios":"levelo://app?vid=ed45abda-ecf5-4137-85bd-6b0bc3b77ddf"},"vehicle_type_id":"4","last_reported":1770498929,"current_range_meters":7200,"station_id":"","pricing_plan_id":"cebpf4jnsgd1na2vs0mg"},{"bike_id":"9c27da16-0b95-483f-acc9-aaafd261f73e","system_id":"levelo_inurba_marseille","lat":43.30909,"lon":5.36844,"is_reserved":false,"is_disabled":false,"rental_uris":{"android":"levelo://app?vid=9c27da16-0b95-483f-acc9-aaafd261f73e","ios":"levelo://app?vid=9c27da16-0b95-483f-acc9-aaafd261f73e"},"vehicle_type_id":"4","last_reported":1770498929,"current_range_meters":7200,"station_id":"ce4bgn92rcd13ifvqbvg","pricing_plan_id":"cebpf4jnsgd1na2vs0mg"},{"bike_id":"0836990a-467b-4a67-b33b-4d721d350ca2","system_id":"levelo_inurba_marseille","lat":43.30789,"lon":5.39629,"is_reserved":false,"is_disabled":false,"rental_uris":{"android":"levelo://app?vid=0836990a-467b-4a67-b33b-4d721d350ca2","ios":"levelo://app?vid=0836990a-467b-4a67-b33b-4d721d350ca2"},"vehicle_type_id":"4","last_reported":1770498929,"current_range_meters":7200,"station_id":"ce4bh012rcd13ifvqcv0","pricing_plan_id":"cebpf4jnsgd1na2vs0mg"},{"bike_id":"83eab603-5a81-40a3-afcb-498eea091594","system_id":"levelo_inurba_marseille","lat":43.2865,"lon":5.38687,"is_reserved":false,"is_disabled":false,"rental_uris":{"android":"levelo://app?vid=83eab603-5a81-40a3-afcb-498eea091594","ios":"levelo://app?vid=83eab603-5a81-40a3-afcb-498eea091594"},"vehicle_type_id":"4","last_reported":1770498929,"current_range_meters":7200,"station_id":"ce4bh492rcd13ifvqdug","pricing_plan_id":"cebpf4jnsgd1na2vs0mg"},{"bike_id":"3815ad96-34ed-40b7-b704-3f9b0db98a1c","system_id":"levelo_inurba_marseille","lat":43.29925,"lon":5.37153,"is_reserved":false,"is_disabled":false,"rental_uris":{"android":"levelo://app?vid=3815ad96-34ed-40b7-b704-3f9b0db98a1c","ios":"levelo://app?vid=3815ad96-34ed-40b7-b704-3f9b0db98a1c"},"vehicle_type_id":"4","last_reported":1770498929,"current_range_meters":7200,"station_id":"","pricing_plan_id":"cebpf4jnsgd1na2vs0mg"},{"bike_id":"d3a22fa1-959e-477b-ba1b-5bfadf6f3dfe","system_id":"levelo_inurba_marseille","lat":43.30565,"lon":5.3652,"is_reserved":false,"is_disabled":false,"rental_uris":{"android":"levelo://app?vid=d3a22fa1-959e-477b-ba1b-5bfadf6f3dfe","ios":"levelo://app?vid=d3a22fa1-959e-477b-ba1b-5bfadf6f3dfe"},"vehicle_type_id":"4","last_reported":1770498929,"current_range_meters":7200,"station_id":"ce4bgs12rcd13ifvqcag","pricing_plan_id":"cebpf4jnsgd1na2vs0mg"},{"bike_id":"0187e75d-720f-47d4-b73b-23c61b2bdafb","system_id":"levelo_inurba_marseille","lat":43.28104,"lon":5.37839,"is_reserved":false,"is_disabled":false,"rental_uris":{"android":"levelo://app?vid=0187e75d-720f-47d4-b73b-23c61b2bdafb","ios":"levelo://app?vid=0187e75d-720f-47d4-b73b-23c61b2bdafb"},"vehicle_type_id":"4","last_reported":1770498929,"current_range_meters":7200,"station_id":"ce4bha12rcd13ifvqee0","pricing_plan_id":"cebpf4jnsgd1na2vs0mg"},{"bike_id":"ac7495b1-c2ec-4a50-847c-86b968614ded","system_id":"levelo_inurba_marseille","lat":43.307437,"lon":5.395864,"is_reserved":false,"is_disabled":false,"rental_uris":{"android":"levelo://app?vid=ac7495b1-c2ec-4a50-847c-86b968614ded","ios":"levelo://app?vid=ac7495b1-c2ec-4a50-847c-86b968614ded"},"vehicle_type_id":"4","last_reported":1770498929,"current_range_meters":7200,"station_id":"ce4bh012rcd13ifvqcv0","pricing_plan_id":"cebpf4jnsgd1na2vs0mg"},{"bike_id":"b0331170-4722-484f-85fa-ff26f59380f0","system_id":"levelo_inurba_marseille","lat":43.29493,"lon":5.433004,"is_reserved":false,"is_disabled":false,"rental_uris":{"android":"levelo://app?vid=b0331170-4722-484f-85fa-ff26f59380f0","ios":"levelo://app?vid=b0331170-4722-484f-85fa-ff26f59380f0"},"vehicle_type_id":"4","last_reported":1770498929,"current_range_meters":7200,"station_id":"st_d3j5ugp08ojc73fj9d10","pricing_plan_id":"cebpf4jnsgd1na2vs0mg"},{"bike_id":"b98ad4e8-c2cb-4dee-8b37-7f16701b29dc","system_id":"levelo_inurba_marseille","lat":43.29103,"lon":5.38172,"is_reserved":false,"is_disabled":false,"rental_uris":{"android":"levelo://app?vid=b98ad4e8-c2cb-4dee-8b37-7f16701b29dc","ios":"levelo://app?vid=b98ad4e8-c2cb-4dee-8b37-7f16701b29dc"},"vehicle_type_id":"4","last_reported":1770498929,"current_range_meters":8000,"station_id":"ce4bh512rcd13ifvqe2g","pricing_plan_id":"cebpf4jnsgd1na2vs0mg"},{"bike_id":"9dadd4c2-97fc-4ce7-a20f-b7c55300a138","system_id":"levelo_inurba_marseille","lat":43.29814,"lon":5.4406,"is_reserved":false,"is_disabled":false,"rental_uris":{"android":"levelo://app?vid=9dadd4c2-97fc-4ce7-a20f-b7c55300a138","ios":"levelo://app?vid=9dadd4c2-97fc-4ce7-a20f-b7c55300a138"},"vehicle_type_id":"4","last_reported":1770498929,"current_range_meters":8000,"station_id":"st_d3jp68qikq2c7381ktn0","pricing_plan_id":"cebpf4jnsgd1na2vs0mg"},{"bike_id":"8bf43a5a-dddb-44a9-94ee-81e4be40ea4a","system_id":"levelo_inurba_marseille","lat":43.27602,"lon":5.38432,"is_reserved":false,"is_disabled":false,"rental_uris":{"android":"levelo://app?vid=8bf43a5a-dddb-44a9-94ee-81e4be40ea4a","ios":"levelo://app?vid=8bf43a5a-dddb-44a9-94ee-81e4be40ea4a"},"vehicle_type_id":"4","last_reported":1770498929,"current_range_meters":8000,"station_id":"ce4bhh92rcd13ifvqfi0","pricing_plan_id":"cebpf4jnsgd1na2vs0mg"},{"bike_id":"9989f6af-1fb6-494a-b774-b4a8423ab8d0","system_id":"levelo_inurba_marseille","lat":43.29261,"lon":5.38433,"is_reserved":false,"is_disabled":false,"rental_uris":{"android":"levelo://app?vid=9989f6af-1fb6-494a-b774-b4a8423ab8d0","ios":"levelo://app?vid=9989f6af-1fb6-494a-b774-b4a8423ab8d0"},"vehicle_type_id":"4","last_reported":1770498929,"current_range_meters":8000,"station_id":"ce4bh692rcd13ifvqea0","pricing_plan_id":"cebpf4jnsgd1na2vs0mg"},{"bike_id":"f2a5560d-44d9-44de-9a6a-e86c480b6a9f","system_id":"levelo_inurba_marseille","lat":43.29007,"lon":5.37547,"is_reserved":false,"is_disabled":false,"rental_uris":{"android":"levelo://app?vid=f2a5560d-44d9-44de-9a6a-e86c480b6a9f","ios":"levelo://app?vid=f2a5560d-44d9-44de-9a6a-e86c480b6a9f"},"vehicle_type_id":"4","last_reported":1770498929,"current_range_meters":8000,"station_id":"ce4bh692rcd13ifvqe90","pricing_plan_id":"cebpf4jnsgd1na2vs0mg"},{"bike_id":"e4a0f913-c11d-44fe-9550-8902e8340c94","system_id":"levelo_inurba_marseille","lat":43.24837,"lon":5.37433,"is_reserved":false,"is_disabled":false,"rental_uris":{"android":"levelo://app?vid=e4a0f913-c11d-44fe-9550-8902e8340c94","ios":"levelo://app?vid=e4a0f913-c11d-44fe-9550-8902e8340c94"},"vehicle_type_id":"4","last_reported":1770498929,"current_range_meters":8000,"station_id":"","pricing_plan_id":"cebpf4jnsgd1na2vs0mg"},{"bike_id":"c071f25e-edb7-4f61-b7bc-23f31f6f611a","system_id":"levelo_inurba_marseille","lat":43.26697,"lon":5.38251,"is_reserved":false,"is_disabled":false,"rental_uris":{"android":"levelo://app?vid=c071f25e-edb7-4f61-b7bc-23f31f6f611a","ios":"levelo://app?vid=c071f25e-edb7-4f61-b7bc-23f31f6f611a"},"vehicle_type_id":"4","last_reported":1770498929,"current_range_meters":8000,"station_id":"ce4bhg92rcd13ifvqf90","pricing_plan_id":"cebpf4jnsgd1na2vs0mg"},{"bike_id":"006f45de-433c-4fe3-81a6-3dac1db63eac","system_id":"levelo_inurba_marseille","lat":43.24477,"lon":5.42539,"is_reserved":false,"is_disabled":false,"rental_uris":{"android":"levelo://app?vid=006f45de-433c-4fe3-81a6-3dac1db63eac","ios":"levelo://app?vid=006f45de-433c-4fe3-81a6-3dac1db63eac"},"vehicle_type_id":"4","last_reported":1770498929,"current_range_meters":8000,"station_id":"st_d4a3vfp97mjs738cd8kg","pricing_plan_id":"cebpf4jnsgd1na2vs0mg"},{"bike_id":"6d4d7125-f230-40ff-9866-8a80f2da0b0b","system_id":"levelo_inurba_marseille","lat":43.22933,"lon":5.35374,"is_reserved":false,"is_disabled":false,"rental_uris":{"android":"levelo://app?vid=6d4d7125-f230-40ff-9866-8a80f2da0b0b","ios":"levelo://app?vid=6d4d7125-f230-40ff-9866-8a80f2da0b0b"},"vehicle_type_id":"4","last_reported":1770498929,"current_range_meters":8000,"station_id":"cpo3532slgdg3j2ikp40","pricing_plan_id":"cebpf4jnsgd1na2vs0mg"},{"bike_id":"ea8c0580-dee3-43f3-bf01-1aa8969bd163","system_id":"levelo_inurba_marseille","lat":43.24166,"lon":5.3642,"is_reserved":false,"is_disabled":false,"rental_uris":{"android":"levelo://app?vid=ea8c0580-dee3-43f3-bf01-1aa8969bd163","ios":"levelo://app?vid=ea8c0580-dee3-43f3-bf01-1aa8969bd163"},"vehicle_type_id":"4","last_reported":1770498929,"current_range_meters":8000,"station_id":"cpo36qri1sfpv3e86is0","pricing_plan_id":"cebpf4jnsgd1na2vs0mg"},{"bike_id":"6216461a-536b-4362-ac08-815386365ad7","system_id":"levelo_inurba_marseille","lat":43.30121,"lon":5.43107,"is_reserved":false,"is_disabled":false,"rental_uris":{"android":"levelo://app?vid=6216461a-536b-4362-ac08-815386365ad7","ios":"levelo://app?vid=6216461a-536b-4362-ac08-815386365ad7"},"vehicle_type_id":"4","last_reported":1770498929,"current_range_meters":8000,"station_id":"st_d3js3co5814s73ftftug","pricing_plan_id":"cebpf4jnsgd1na2vs0mg"},{"bike_id":"6a144693-7691-4af0-a94f-86308d14d8c0","system_id":"levelo_inurba_marseille","lat":43.25953,"lon":5.40879,"is_reserved":false,"is_disabled":false,"rental_uris":{"android":"levelo://app?vid=6a144693-7691-4af0-a94f-86308d14d8c0","ios":"levelo://app?vid=6a144693-7691-4af0-a94f-86308d14d8c0"},"vehicle_type_id":"4","last_reported":1770498929,"current_range_meters":8000,"station_id":"ce4bhm92rcd13ifvqglg","pricing_plan_id":"cebpf4jnsgd1na2vs0mg"},{"bike_id":"09986119-327c-45bf-b6a8-e15c339167ea","system_id":"levelo_inurba_marseille","lat":43.28484,"lon":5.43974,"is_reserved":false,"is_disabled":false,"rental_uris":{"android":"levelo://app?vid=09986119-327c-45bf-b6a8-e15c339167ea","ios":"levelo://app?vid=09986119-327c-45bf-b6a8-e15c339167ea"},"vehicle_type_id":"4","last_reported":1770498929,"current_range_meters":8000,"station_id":"","pricing_plan_id":"cebpf4jnsgd1na2vs0mg"},{"bike_id":"d9d493c8-2229-4bda-a958-4c19d5464801","system_id":"levelo_inurba_marseille","lat":43.2584,"lon":5.3985,"is_reserved":false,"is_disabled":false,"rental_uris":{"android":"levelo://app?vid=d9d493c8-2229-4bda-a958-4c19d5464801","ios":"levelo://app?vid=d9d493c8-2229-4bda-a958-4c19d5464801"},"vehicle_type_id":"4","last_reported":1770498929,"current_range_meters":8000,"station_id":"ce4bhl92rcd13ifvqghg","pricing_plan_id":"cebpf4jnsgd1na2vs0mg"},{"bike_id":"3171e4c8-1de2-49d9-8c5f-e23d7bc436e4","system_id":"levelo_inurba_marseille","lat":43.27983,"lon":5.41664,"is_reserved":false,"is_disabled":false,"rental_uris":{"android":"levelo://app?vid=3171e4c8-1de2-49d9-8c5f-e23d7bc436e4","ios":"levelo://app?vid=3171e4c8-1de2-49d9-8c5f-e23d7bc436e4"},"vehicle_type_id":"4","last_reported":1770498929,"current_range_meters":8000,"station_id":"ce4bho12rcd13ifvqh1g","pricing_plan_id":"cebpf4jnsgd1na2vs0mg"},{"bike_id":"2da50a9b-f229-415a-a371-caa3bd1f8c5c","system_id":"levelo_inurba_marseille","lat":43.295204,"lon":5.375168,"is_reserved":false,"is_disabled":false,"rental_uris":{"android":"levelo://app?vid=2da50a9b-f229-415a-a371-caa3bd1f8c5c","ios":"levelo://app?vid=2da50a9b-f229-415a-a371-caa3bd1f8c5c"},"vehicle_type_id":"4","last_reported":1770498929,"current_range_meters":8000,"station_id":"ce4bgkp2rcd13ifvqbmg","pricing_plan_id":"cebpf4jnsgd1na2vs0mg"},{"bike_id":"4c1d817c-2311-4829-b074-c35d06d3a077","system_id":"levelo_inurba_marseille","lat":43.22942,"lon":5.35415,"is_reserved":false,"is_disabled":false,"rental_uris":{"android":"levelo://app?vid=4c1d817c-2311-4829-b074-c35d06d3a077","ios":"levelo://app?vid=4c1d817c-2311-4829-b074-c35d06d3a077"},"vehicle_type_id":"4","last_reported":1770498929,"current_range_meters":8000,"station_id":"cpo3532slgdg3j2ikp40","pricing_plan_id":"cebpf4jnsgd1na2vs0mg"},{"bike_id":"11616263-142c-4dd0-a9e9-585090690c40","system_id":"levelo_inurba_marseille","lat":43.2463,"lon":5.43127,"is_reserved":false,"is_disabled":false,"rental_uris":{"android":"levelo://app?vid=11616263-142c-4dd0-a9e9-585090690c40","ios":"levelo://app?vid=11616263-142c-4dd0-a9e9-585090690c40"},"vehicle_type_id":"4","last_reported":1770498929,"current_range_meters":8400,"station_id":"st_d2m6c4gdas8pm72e190g","pricing_plan_id":"cebpf4jnsgd1na2vs0mg"},{"bike_id":"1fad33a2-7d12-4619-8ecd-0f78a270560b","system_id":"levelo_inurba_marseille","lat":43.2503,"lon":5.37512,"is_reserved":false,"is_disabled":false,"rental_uris":{"android":"levelo://app?vid=1fad33a2-7d12-4619-8ecd-0f78a270560b","ios":"levelo://app?vid=1fad33a2-7d12-4619-8ecd-0f78a270560b"},"vehicle_type_id":"4","last_reported":1770498929,"current_range_meters":8400,"station_id":"","pricing_plan_id":"cebpf4jnsgd1na2vs0mg"},{"bike_id":"781e3167-75c5-4573-807b-ac232a303387","system_id":"levelo_inurba_marseille","lat":43.323471,"lon":5.367397,"is_reserved":false,"is_disabled":false,"rental_uris":{"android":"levelo://app?vid=781e3167-75c5-4573-807b-ac232a303387","ios":"levelo://app?vid=781e3167-75c5-4573-807b-ac232a303387"},"vehicle_type_id":"4","last_reported":1770498929,"current_range_meters":8400,"station_id":"ce4bhsh2rcd13ifvqi2g","pricing_plan_id":"cebpf4jnsgd1na2vs0mg"},{"bike_id":"c1c15dd8-d5f4-419a-b7d9-76b9cd0f2968","system_id":"levelo_inurba_marseille","lat":43.282711,"lon":5.350517,"is_reserved":false,"is_disabled":false,"rental_uris":{"android":"levelo://app?vid=c1c15dd8-d5f4-419a-b7d9-76b9cd0f2968","ios":"levelo://app?vid=c1c15dd8-d5f4-419a-b7d9-76b9cd0f2968"},"vehicle_type_id":"4","last_reported":1770498929,"current_range_meters":8400,"station_id":"ce4bhbp2rcd13ifvqerg","pricing_plan_id":"cebpf4jnsgd1na2vs0mg"},{"bike_id":"e6d03073-11a9-495e-8d13-201bb403d1fc","system_id":"levelo_inurba_marseille","lat":43.21193,"lon":5.35034,"is_reserved":false,"is_disabled":false,"rental_uris":{"android":"levelo://app?vid=e6d03073-11a9-495e-8d13-201bb403d1fc","ios":"levelo://app?vid=e6d03073-11a9-495e-8d13-201bb403d1fc"},"vehicle_type_id":"4","last_reported":1770498929,"current_range_meters":8400,"station_id":"st_cvj6sg6p6f1abm77japg","pricing_plan_id":"cebpf4jnsgd1na2vs0mg"},{"bike_id":"d5176a4f-8c87-4833-bfd5-bb60893e2db3","system_id":"levelo_inurba_marseille","lat":43.29556,"lon":5.38541,"is_reserved":false,"is_disabled":false,"rental_uris":{"android":"levelo://app?vid=d5176a4f-8c87-4833-bfd5-bb60893e2db3","ios":"levelo://app?vid=d5176a4f-8c87-4833-bfd5-bb60893e2db3"},"vehicle_type_id":"4","last_reported":1770498929,"current_range_meters":8400,"station_id":"ce4bgih2rcd13ifvqba0","pricing_plan_id":"cebpf4jnsgd1na2vs0mg"},{"bike_id":"508fb8b9-4cee-4799-8b3b-fa3d800ff13e","system_id":"levelo_inurba_marseille","lat":43.33558,"lon":5.37463,"is_reserved":false,"is_disabled":false,"rental_uris":{"android":"levelo://app?vid=508fb8b9-4cee-4799-8b3b-fa3d800ff13e","ios":"levelo://app?vid=508fb8b9-4cee-4799-8b3b-fa3d800ff13e"},"vehicle_type_id":"4","last_reported":1770498929,"current_range_meters":8400,"station_id":"st_d46tts09ee8s73dlu43g","pricing_plan_id":"cebpf4jnsgd1na2vs0mg"},{"bike_id":"e0226fc4-2c15-484e-94c3-86d1a5b1a233","system_id":"levelo_inurba_marseille","lat":43.30878,"lon":5.37199,"is_reserved":false,"is_disabled":false,"rental_uris":{"android":"levelo://app?vid=e0226fc4-2c15-484e-94c3-86d1a5b1a233","ios":"levelo://app?vid=e0226fc4-2c15-484e-94c3-86d1a5b1a233"},"vehicle_type_id":"4","last_reported":1770498929,"current_range_meters":8400,"station_id":"ce4bguh2rcd13ifvqckg","pricing_plan_id":"cebpf4jnsgd1na2vs0mg"},{"bike_id":"e8457bb3-f99d-40e0-aa19-6d3fdf1a5998","system_id":"levelo_inurba_marseille","lat":43.28112,"lon":5.42656,"is_reserved":false,"is_disabled":false,"rental_uris":{"android":"levelo://app?vid=e8457bb3-f99d-40e0-aa19-6d3fdf1a5998","ios":"levelo://app?vid=e8457bb3-f99d-40e0-aa19-6d3fdf1a5998"},"vehicle_type_id":"4","last_reported":1770498929,"current_range_meters":8400,"station_id":"ce4bhnh2rcd13ifvqgug","pricing_plan_id":"cebpf4jnsgd1na2vs0mg"},{"bike_id":"8138c7ab-272e-47d5-82e8-142e12d30a9b","system_id":"levelo_inurba_marseille","lat":43.32101,"lon":5.36794,"is_reserved":false,"is_disabled":false,"rental_uris":{"android":"levelo://app?vid=8138c7ab-272e-47d5-82e8-142e12d30a9b","ios":"levelo://app?vid=8138c7ab-272e-47d5-82e8-142e12d30a9b"},"vehicle_type_id":"4","last_reported":1770498929,"current_range_meters":8400,"station_id":"ce4bhrh2rcd13ifvqhug","pricing_plan_id":"cebpf4jnsgd1na2vs0mg"},{"bike_id":"f4f1e3a6-3fe6-4f67-be28-c3046d66a285","system_id":"levelo_inurba_marseille","lat":43.292611,"lon":5.384434,"is_reserved":false,"is_disabled":false,"rental_uris":{"android":"levelo://app?vid=f4f1e3a6-3fe6-4f67-be28-c3046d66a285","ios":"levelo://app?vid=f4f1e3a6-3fe6-4f67-be28-c3046d66a285"},"vehicle_type_id":"4","last_reported":1770498929,"current_range_meters":8400,"station_id":"ce4bh692rcd13ifvqea0","pricing_plan_id":"cebpf4jnsgd1na2vs0mg"},{"bike_id":"2f069db8-a5ac-4a5a-adc4-63c62be19c17","system_id":"levelo_inurba_marseille","lat":43.29006,"lon":5.38123,"is_reserved":false,"is_disabled":false,"rental_uris":{"android":"levelo://app?vid=2f069db8-a5ac-4a5a-adc4-63c62be19c17","ios":"levelo://app?vid=2f069db8-a5ac-4a5a-adc4-63c62be19c17"},"vehicle_type_id":"4","last_reported":1770498929,"current_range_meters":8400,"station_id":"ce4bh4p2rcd13ifvqe1g","pricing_plan_id":"cebpf4jnsgd1na2vs0mg"},{"bike_id":"a60f0817-14f1-4ed9-8eb2-cf5535f6aef9","system_id":"levelo_inurba_marseille","lat":43.29559,"lon":5.38552,"is_reserved":false,"is_disabled":false,"rental_uris":{"android":"levelo://app?vid=a60f0817-14f1-4ed9-8eb2-cf5535f6aef9","ios":"levelo://app?vid=a60f0817-14f1-4ed9-8eb2-cf5535f6aef9"},"vehicle_type_id":"4","last_reported":1770498929,"current_range_meters":8400,"station_id":"ce4bgih2rcd13ifvqba0","pricing_plan_id":"cebpf4jnsgd1na2vs0mg"},{"bike_id":"428e65b2-5af7-470b-a082-53791379a455","system_id":"levelo_inurba_marseille","lat":43.29037,"lon":5.38628,"is_reserved":false,"is_disabled":false,"rental_uris":{"android":"levelo://app?vid=428e65b2-5af7-470b-a082-53791379a455","ios":"levelo://app?vid=428e65b2-5af7-470b-a082-53791379a455"},"vehicle_type_id":"4","last_reported":1770498929,"current_range_meters":8800,"station_id":"ce4bh4p2rcd13ifvqe0g","pricing_plan_id":"cebpf4jnsgd1na2vs0mg"},{"bike_id":"fc7e4b88-1656-4ea3-ac70-db935a568e8d","system_id":"levelo_inurba_marseille","lat":43.33144,"lon":5.37717,"is_reserved":false,"is_disabled":false,"rental_uris":{"android":"levelo://app?vid=fc7e4b88-1656-4ea3-ac70-db935a568e8d","ios":"levelo://app?vid=fc7e4b88-1656-4ea3-ac70-db935a568e8d"},"vehicle_type_id":"4","last_reported":1770498929,"current_range_meters":8800,"station_id":"st_d46cu089ee8s73dldbu0","pricing_plan_id":"cebpf4jnsgd1na2vs0mg"},{"bike_id":"0034d4fd-4b78-48fc-8d02-62ecd49e55ba","system_id":"levelo_inurba_marseille","lat":43.289258,"lon":5.366346,"is_reserved":false,"is_disabled":false,"rental_uris":{"android":"levelo://app?vid=0034d4fd-4b78-48fc-8d02-62ecd49e55ba","ios":"levelo://app?vid=0034d4fd-4b78-48fc-8d02-62ecd49e55ba"},"vehicle_type_id":"4","last_reported":1770498929,"current_range_meters":8800,"station_id":"","pricing_plan_id":"cebpf4jnsgd1na2vs0mg"},{"bike_id":"40810a58-1cfb-4ab5-8a76-f6625b7852d9","system_id":"levelo_inurba_marseille","lat":43.28927,"lon":5.38405,"is_reserved":false,"is_disabled":false,"rental_uris":{"android":"levelo://app?vid=40810a58-1cfb-4ab5-8a76-f6625b7852d9","ios":"levelo://app?vid=40810a58-1cfb-4ab5-8a76-f6625b7852d9"},"vehicle_type_id":"4","last_reported":1770498929,"current_range_meters":8800,"station_id":"ce4bh612rcd13ifvqe6g","pricing_plan_id":"cebpf4jnsgd1na2vs0mg"},{"bike_id":"ec530521-2795-4ff9-af45-352d2124398c","system_id":"levelo_inurba_marseille","lat":43.31337,"lon":5.3672,"is_reserved":false,"is_disabled":false,"rental_uris":{"android":"levelo://app?vid=ec530521-2795-4ff9-af45-352d2124398c","ios":"levelo://app?vid=ec530521-2795-4ff9-af45-352d2124398c"},"vehicle_type_id":"4","last_reported":1770498929,"current_range_meters":8800,"station_id":"ce4bgr92rcd13ifvqc6g","pricing_plan_id":"cebpf4jnsgd1na2vs0mg"},{"bike_id":"e6fd01da-afee-4b72-8f6c-a945a0e7b893","system_id":"levelo_inurba_marseille","lat":43.29883,"lon":5.36292,"is_reserved":false,"is_disabled":false,"rental_uris":{"android":"levelo://app?vid=e6fd01da-afee-4b72-8f6c-a945a0e7b893","ios":"levelo://app?vid=e6fd01da-afee-4b72-8f6c-a945a0e7b893"},"vehicle_type_id":"4","last_reported":1770498929,"current_range_meters":8800,"station_id":"ce4bgpp2rcd13ifvqc3g","pricing_plan_id":"cebpf4jnsgd1na2vs0mg"},{"bike_id":"9c95391b-4830-4ea1-90c8-5c3773ef7108","system_id":"levelo_inurba_marseille","lat":43.26563,"lon":5.39019,"is_reserved":false,"is_disabled":false,"rental_uris":{"android":"levelo://app?vid=9c95391b-4830-4ea1-90c8-5c3773ef7108","ios":"levelo://app?vid=9c95391b-4830-4ea1-90c8-5c3773ef7108"},"vehicle_type_id":"4","last_reported":1770498929,"current_range_meters":8800,"station_id":"ce4bhe12rcd13ifvqf30","pricing_plan_id":"cebpf4jnsgd1na2vs0mg"},{"bike_id":"947b1b57-8ba4-4655-9eeb-b092148852d9","system_id":"levelo_inurba_marseille","lat":43.30438,"lon":5.38887,"is_reserved":false,"is_disabled":false,"rental_uris":{"android":"levelo://app?vid=947b1b57-8ba4-4655-9eeb-b092148852d9","ios":"levelo://app?vid=947b1b57-8ba4-4655-9eeb-b092148852d9"},"vehicle_type_id":"4","last_reported":1770498929,"current_range_meters":8800,"station_id":"ce4bgk12rcd13ifvqbi0","pricing_plan_id":"cebpf4jnsgd1na2vs0mg"},{"bike_id":"ec4ea1d5-c052-4c06-9486-233d88e0f6e6","system_id":"levelo_inurba_marseille","lat":43.27317,"lon":5.39093,"is_reserved":false,"is_disabled":false,"rental_uris":{"android":"levelo://app?vid=ec4ea1d5-c052-4c06-9486-233d88e0f6e6","ios":"levelo://app?vid=ec4ea1d5-c052-4c06-9486-233d88e0f6e6"},"vehicle_type_id":"4","last_reported":1770498929,"current_range_meters":8800,"station_id":"ce4bhgp2rcd13ifvqfe0","pricing_plan_id":"cebpf4jnsgd1na2vs0mg"},{"bike_id":"deb86a9c-0d34-4cf2-8c5d-7e8fe93767ac","system_id":"levelo_inurba_marseille","lat":43.29039,"lon":5.38567,"is_reserved":false,"is_disabled":false,"rental_uris":{"android":"levelo://app?vid=deb86a9c-0d34-4cf2-8c5d-7e8fe93767ac","ios":"levelo://app?vid=deb86a9c-0d34-4cf2-8c5d-7e8fe93767ac"},"vehicle_type_id":"4","last_reported":1770498929,"current_range_meters":8800,"station_id":"","pricing_plan_id":"cebpf4jnsgd1na2vs0mg"},{"bike_id":"9cae2485-0afe-41f4-82ed-b4c440c27f3e","system_id":"levelo_inurba_marseille","lat":43.28589,"lon":5.39465,"is_reserved":false,"is_disabled":true,"rental_uris":{"android":"levelo://app?vid=9cae2485-0afe-41f4-82ed-b4c440c27f3e","ios":"levelo://app?vid=9cae2485-0afe-41f4-82ed-b4c440c27f3e"},"vehicle_type_id":"4","last_reported":1770498929,"current_range_meters":8800,"station_id":"ce4bh292rcd13ifvqdg0","pricing_plan_id":"cebpf4jnsgd1na2vs0mg"},{"bike_id":"7e432d56-4167-484a-a6d0-1b8a4f18fe1c","system_id":"levelo_inurba_marseille","lat":43.22934,"lon":5.35376,"is_reserved":false,"is_disabled":false,"rental_uris":{"android":"levelo://app?vid=7e432d56-4167-484a-a6d0-1b8a4f18fe1c","ios":"levelo://app?vid=7e432d56-4167-484a-a6d0-1b8a4f18fe1c"},"vehicle_type_id":"4","last_reported":1770498929,"current_range_meters":8800,"station_id":"cpo3532slgdg3j2ikp40","pricing_plan_id":"cebpf4jnsgd1na2vs0mg"},{"bike_id":"b98629f8-ee0a-40bb-86a1-ad6537ba67bf","system_id":"levelo_inurba_marseille","lat":43.32522,"lon":5.36584,"is_reserved":false,"is_disabled":false,"rental_uris":{"android":"levelo://app?vid=b98629f8-ee0a-40bb-86a1-ad6537ba67bf","ios":"levelo://app?vid=b98629f8-ee0a-40bb-86a1-ad6537ba67bf"},"vehicle_type_id":"4","last_reported":1770498929,"current_range_meters":8800,"station_id":"ce4bhs12rcd13ifvqhvg","pricing_plan_id":"cebpf4jnsgd1na2vs0mg"},{"bike_id":"394571b2-6a01-4fb3-9e4b-403c63ef75e5","system_id":"levelo_inurba_marseille","lat":43.29297,"lon":5.38454,"is_reserved":false,"is_disabled":false,"rental_uris":{"android":"levelo://app?vid=394571b2-6a01-4fb3-9e4b-403c63ef75e5","ios":"levelo://app?vid=394571b2-6a01-4fb3-9e4b-403c63ef75e5"},"vehicle_type_id":"4","last_reported":1770498929,"current_range_meters":9200,"station_id":"ce4bh692rcd13ifvqea0","pricing_plan_id":"cebpf4jnsgd1na2vs0mg"},{"bike_id":"54a9192b-0dd6-49f6-978b-5e71126fb367","system_id":"levelo_inurba_marseille","lat":43.262054,"lon":5.37925,"is_reserved":false,"is_disabled":false,"rental_uris":{"android":"levelo://app?vid=54a9192b-0dd6-49f6-978b-5e71126fb367","ios":"levelo://app?vid=54a9192b-0dd6-49f6-978b-5e71126fb367"},"vehicle_type_id":"4","last_reported":1770498929,"current_range_meters":9200,"station_id":"ce4bhjp2rcd13ifvqg90","pricing_plan_id":"cebpf4jnsgd1na2vs0mg"},{"bike_id":"23947738-da24-4897-9c49-b0eca6b9e3df","system_id":"levelo_inurba_marseille","lat":43.27205,"lon":5.3919,"is_reserved":false,"is_disabled":false,"rental_uris":{"android":"levelo://app?vid=23947738-da24-4897-9c49-b0eca6b9e3df","ios":"levelo://app?vid=23947738-da24-4897-9c49-b0eca6b9e3df"},"vehicle_type_id":"4","last_reported":1770498929,"current_range_meters":9200,"station_id":"ce4bhhp2rcd13ifvqfm0","pricing_plan_id":"cebpf4jnsgd1na2vs0mg"},{"bike_id":"61cfb566-ffe7-452b-9dd4-503964e15283","system_id":"levelo_inurba_marseille","lat":43.29326,"lon":5.38399,"is_reserved":false,"is_disabled":false,"rental_uris":{"android":"levelo://app?vid=61cfb566-ffe7-452b-9dd4-503964e15283","ios":"levelo://app?vid=61cfb566-ffe7-452b-9dd4-503964e15283"},"vehicle_type_id":"4","last_reported":1770498929,"current_range_meters":9200,"station_id":"ce4bh692rcd13ifvqea0","pricing_plan_id":"cebpf4jnsgd1na2vs0mg"},{"bike_id":"4b9bbde0-30cc-4c3d-973e-6947c0246c0b","system_id":"levelo_inurba_marseille","lat":43.2659,"lon":5.37324,"is_reserved":false,"is_disabled":false,"rental_uris":{"android":"levelo://app?vid=4b9bbde0-30cc-4c3d-973e-6947c0246c0b","ios":"levelo://app?vid=4b9bbde0-30cc-4c3d-973e-6947c0246c0b"},"vehicle_type_id":"4","last_reported":1770498929,"current_range_meters":9200,"station_id":"ce4bhg12rcd13ifvqf70","pricing_plan_id":"cebpf4jnsgd1na2vs0mg"},{"bike_id":"5cdd27df-1aa5-4830-b5fc-91672ce179d3","system_id":"levelo_inurba_marseille","lat":43.27974,"lon":5.41057,"is_reserved":false,"is_disabled":true,"rental_uris":{"android":"levelo://app?vid=5cdd27df-1aa5-4830-b5fc-91672ce179d3","ios":"levelo://app?vid=5cdd27df-1aa5-4830-b5fc-91672ce179d3"},"vehicle_type_id":"4","last_reported":1770498929,"current_range_meters":9200,"station_id":"ce4bhnp2rcd13ifvqh0g","pricing_plan_id":"cebpf4jnsgd1na2vs0mg"},{"bike_id":"78bc65bb-d035-423b-9277-04bf0727a9ea","system_id":"levelo_inurba_marseille","lat":43.25574,"lon":5.3823,"is_reserved":false,"is_disabled":false,"rental_uris":{"android":"levelo://app?vid=78bc65bb-d035-423b-9277-04bf0727a9ea","ios":"levelo://app?vid=78bc65bb-d035-423b-9277-04bf0727a9ea"},"vehicle_type_id":"4","last_reported":1770498929,"current_range_meters":9200,"station_id":"ce4bhih2rcd13ifvqfs0","pricing_plan_id":"cebpf4jnsgd1na2vs0mg"},{"bike_id":"3bfbcaa6-9cc7-4f78-9525-559218f7d29d","system_id":"levelo_inurba_marseille","lat":43.24825,"lon":5.37454,"is_reserved":false,"is_disabled":false,"rental_uris":{"android":"levelo://app?vid=3bfbcaa6-9cc7-4f78-9525-559218f7d29d","ios":"levelo://app?vid=3bfbcaa6-9cc7-4f78-9525-559218f7d29d"},"vehicle_type_id":"4","last_reported":1770498929,"current_range_meters":9200,"station_id":"ce4bhgh2rcd13ifvqfb0","pricing_plan_id":"cebpf4jnsgd1na2vs0mg"},{"bike_id":"9c7b49e3-2672-465f-9113-79b2777ffeb5","system_id":"levelo_inurba_marseille","lat":43.25092,"lon":5.39515,"is_reserved":false,"is_disabled":false,"rental_uris":{"android":"levelo://app?vid=9c7b49e3-2672-465f-9113-79b2777ffeb5","ios":"levelo://app?vid=9c7b49e3-2672-465f-9113-79b2777ffeb5"},"vehicle_type_id":"4","last_reported":1770498929,"current_range_meters":9200,"station_id":"ce4bhm12rcd13ifvqgkg","pricing_plan_id":"cebpf4jnsgd1na2vs0mg"},{"bike_id":"d237636d-b8da-4e73-9513-ff2636d081fb","system_id":"levelo_inurba_marseille","lat":43.29064,"lon":5.37172,"is_reserved":false,"is_disabled":false,"rental_uris":{"android":"levelo://app?vid=d237636d-b8da-4e73-9513-ff2636d081fb","ios":"levelo://app?vid=d237636d-b8da-4e73-9513-ff2636d081fb"},"vehicle_type_id":"4","last_reported":1770498929,"current_range_meters":9200,"station_id":"ce4bh5p2rcd13ifvqe4g","pricing_plan_id":"cebpf4jnsgd1na2vs0mg"},{"bike_id":"27e3548f-2e7f-4c60-a690-48429ad01b98","system_id":"levelo_inurba_marseille","lat":43.28578,"lon":5.38328,"is_reserved":false,"is_disabled":false,"rental_uris":{"android":"levelo://app?vid=27e3548f-2e7f-4c60-a690-48429ad01b98","ios":"levelo://app?vid=27e3548f-2e7f-4c60-a690-48429ad01b98"},"vehicle_type_id":"4","last_reported":1770498929,"current_range_meters":9200,"station_id":"","pricing_plan_id":"cebpf4jnsgd1na2vs0mg"},{"bike_id":"18d00c96-10aa-4a3a-b385-346edcb8ffdd","system_id":"levelo_inurba_marseille","lat":43.24624,"lon":5.42486,"is_reserved":false,"is_disabled":false,"rental_uris":{"android":"levelo://app?vid=18d00c96-10aa-4a3a-b385-346edcb8ffdd","ios":"levelo://app?vid=18d00c96-10aa-4a3a-b385-346edcb8ffdd"},"vehicle_type_id":"4","last_reported":1770498929,"current_range_meters":9200,"station_id":"","pricing_plan_id":"cebpf4jnsgd1na2vs0mg"},{"bike_id":"9c9db9d5-0e0c-47a3-a905-8fcf5962983e","system_id":"levelo_inurba_marseille","lat":43.232026,"lon":5.355519,"is_reserved":false,"is_disabled":false,"rental_uris":{"android":"levelo://app?vid=9c9db9d5-0e0c-47a3-a905-8fcf5962983e","ios":"levelo://app?vid=9c9db9d5-0e0c-47a3-a905-8fcf5962983e"},"vehicle_type_id":"4","last_reported":1770498929,"current_range_meters":9200,"station_id":"ce4bhu92rcd13ifvqi70","pricing_plan_id":"cebpf4jnsgd1na2vs0mg"},{"bike_id":"379d74c3-68e6-4c4b-a503-6c5f836e7246","system_id":"levelo_inurba_marseille","lat":43.29542,"lon":5.38551,"is_reserved":false,"is_disabled":false,"rental_uris":{"android":"levelo://app?vid=379d74c3-68e6-4c4b-a503-6c5f836e7246","ios":"levelo://app?vid=379d74c3-68e6-4c4b-a503-6c5f836e7246"},"vehicle_type_id":"4","last_reported":1770498929,"current_range_meters":9200,"station_id":"ce4bgih2rcd13ifvqba0","pricing_plan_id":"cebpf4jnsgd1na2vs0mg"},{"bike_id":"fbd8c4f9-3856-46a2-b291-e190e6907420","system_id":"levelo_inurba_marseille","lat":43.25003,"lon":5.38928,"is_reserved":false,"is_disabled":false,"rental_uris":{"android":"levelo://app?vid=fbd8c4f9-3856-46a2-b291-e190e6907420","ios":"levelo://app?vid=fbd8c4f9-3856-46a2-b291-e190e6907420"},"vehicle_type_id":"4","last_reported":1770498929,"current_range_meters":9200,"station_id":"ce4bhgp2rcd13ifvqfd0","pricing_plan_id":"cebpf4jnsgd1na2vs0mg"},{"bike_id":"1a1d969f-bada-4aaa-a461-ec3f4a01601c","system_id":"levelo_inurba_marseille","lat":43.33571,"lon":5.37447,"is_reserved":false,"is_disabled":false,"rental_uris":{"android":"levelo://app?vid=1a1d969f-bada-4aaa-a461-ec3f4a01601c","ios":"levelo://app?vid=1a1d969f-bada-4aaa-a461-ec3f4a01601c"},"vehicle_type_id":"4","last_reported":1770498929,"current_range_meters":9200,"station_id":"st_d46tts09ee8s73dlu43g","pricing_plan_id":"cebpf4jnsgd1na2vs0mg"},{"bike_id":"94462169-f7a1-4482-a3a2-123f02cc4f09","system_id":"levelo_inurba_marseille","lat":43.2848,"lon":5.38437,"is_reserved":false,"is_disabled":false,"rental_uris":{"android":"levelo://app?vid=94462169-f7a1-4482-a3a2-123f02cc4f09","ios":"levelo://app?vid=94462169-f7a1-4482-a3a2-123f02cc4f09"},"vehicle_type_id":"4","last_reported":1770498929,"current_range_meters":9200,"station_id":"ce4bh512rcd13ifvqe3g","pricing_plan_id":"cebpf4jnsgd1na2vs0mg"},{"bike_id":"2c3dabce-2d5b-4d5e-96e2-9eef2e9da548","system_id":"levelo_inurba_marseille","lat":43.240703,"lon":5.37765,"is_reserved":false,"is_disabled":false,"rental_uris":{"android":"levelo://app?vid=2c3dabce-2d5b-4d5e-96e2-9eef2e9da548","ios":"levelo://app?vid=2c3dabce-2d5b-4d5e-96e2-9eef2e9da548"},"vehicle_type_id":"4","last_reported":1770498929,"current_range_meters":9200,"station_id":"ce4bhnp2rcd13ifvqgvg","pricing_plan_id":"cebpf4jnsgd1na2vs0mg"},{"bike_id":"012ac6a2-c497-48e0-9a21-020861b189c1","system_id":"levelo_inurba_marseille","lat":43.30304,"lon":5.39215,"is_reserved":false,"is_disabled":false,"rental_uris":{"android":"levelo://app?vid=012ac6a2-c497-48e0-9a21-020861b189c1","ios":"levelo://app?vid=012ac6a2-c497-48e0-9a21-020861b189c1"},"vehicle_type_id":"4","last_reported":1770498929,"current_range_meters":9200,"station_id":"ce4bgkh2rcd13ifvqbk0","pricing_plan_id":"cebpf4jnsgd1na2vs0mg"},{"bike_id":"28ea6fbe-b592-43e0-b4f1-22356d5bc8f9","system_id":"levelo_inurba_marseille","lat":43.33603,"lon":5.37497,"is_reserved":false,"is_disabled":false,"rental_uris":{"android":"levelo://app?vid=28ea6fbe-b592-43e0-b4f1-22356d5bc8f9","ios":"levelo://app?vid=28ea6fbe-b592-43e0-b4f1-22356d5bc8f9"},"vehicle_type_id":"4","last_reported":1770498929,"current_range_meters":9200,"station_id":"","pricing_plan_id":"cebpf4jnsgd1na2vs0mg"},{"bike_id":"2cb5a43b-e623-4a02-b02d-84a79ff3e02e","system_id":"levelo_inurba_marseille","lat":43.22559,"lon":5.41629,"is_reserved":false,"is_disabled":false,"rental_uris":{"android":"levelo://app?vid=2cb5a43b-e623-4a02-b02d-84a79ff3e02e","ios":"levelo://app?vid=2cb5a43b-e623-4a02-b02d-84a79ff3e02e"},"vehicle_type_id":"4","last_reported":1770498929,"current_range_meters":9600,"station_id":"st_d2o4gvlbi1j2169b742g","pricing_plan_id":"cebpf4jnsgd1na2vs0mg"},{"bike_id":"0b84e61d-62ba-4706-80f1-3a72823c8089","system_id":"levelo_inurba_marseille","lat":43.25942,"lon":5.40907,"is_reserved":false,"is_disabled":false,"rental_uris":{"android":"levelo://app?vid=0b84e61d-62ba-4706-80f1-3a72823c8089","ios":"levelo://app?vid=0b84e61d-62ba-4706-80f1-3a72823c8089"},"vehicle_type_id":"4","last_reported":1770498929,"current_range_meters":9600,"station_id":"ce4bhm92rcd13ifvqglg","pricing_plan_id":"cebpf4jnsgd1na2vs0mg"},{"bike_id":"0f9398e4-1c51-403f-8553-7aa3b9b52ae1","system_id":"levelo_inurba_marseille","lat":43.2849,"lon":5.3842,"is_reserved":false,"is_disabled":false,"rental_uris":{"android":"levelo://app?vid=0f9398e4-1c51-403f-8553-7aa3b9b52ae1","ios":"levelo://app?vid=0f9398e4-1c51-403f-8553-7aa3b9b52ae1"},"vehicle_type_id":"4","last_reported":1770498929,"current_range_meters":9600,"station_id":"ce4bh512rcd13ifvqe3g","pricing_plan_id":"cebpf4jnsgd1na2vs0mg"},{"bike_id":"b0e7feeb-1416-4406-b174-1e7f94d3553f","system_id":"levelo_inurba_marseille","lat":43.33602,"lon":5.37492,"is_reserved":false,"is_disabled":false,"rental_uris":{"android":"levelo://app?vid=b0e7feeb-1416-4406-b174-1e7f94d3553f","ios":"levelo://app?vid=b0e7feeb-1416-4406-b174-1e7f94d3553f"},"vehicle_type_id":"4","last_reported":1770498929,"current_range_meters":9600,"station_id":"","pricing_plan_id":"cebpf4jnsgd1na2vs0mg"},{"bike_id":"2bd17752-576c-43bd-a49e-c3f722297957","system_id":"levelo_inurba_marseille","lat":43.24662,"lon":5.38897,"is_reserved":false,"is_disabled":false,"rental_uris":{"android":"levelo://app?vid=2bd17752-576c-43bd-a49e-c3f722297957","ios":"levelo://app?vid=2bd17752-576c-43bd-a49e-c3f722297957"},"vehicle_type_id":"4","last_reported":1770498929,"current_range_meters":9600,"station_id":"ce4bhg12rcd13ifvqf60","pricing_plan_id":"cebpf4jnsgd1na2vs0mg"},{"bike_id":"56893961-8f3b-47c8-a24b-0a12834de0b5","system_id":"levelo_inurba_marseille","lat":43.32321,"lon":5.38297,"is_reserved":false,"is_disabled":false,"rental_uris":{"android":"levelo://app?vid=56893961-8f3b-47c8-a24b-0a12834de0b5","ios":"levelo://app?vid=56893961-8f3b-47c8-a24b-0a12834de0b5"},"vehicle_type_id":"4","last_reported":1770498929,"current_range_meters":9600,"station_id":"ce4bhr12rcd13ifvqhqg","pricing_plan_id":"cebpf4jnsgd1na2vs0mg"},{"bike_id":"efaf2e2d-f0b1-421f-ab42-467a192fe9e4","system_id":"levelo_inurba_marseille","lat":43.30531,"lon":5.36709,"is_reserved":false,"is_disabled":false,"rental_uris":{"android":"levelo://app?vid=efaf2e2d-f0b1-421f-ab42-467a192fe9e4","ios":"levelo://app?vid=efaf2e2d-f0b1-421f-ab42-467a192fe9e4"},"vehicle_type_id":"4","last_reported":1770498929,"current_range_meters":9600,"station_id":"ce4bgrp2rcd13ifvqc9g","pricing_plan_id":"cebpf4jnsgd1na2vs0mg"},{"bike_id":"640e309d-b7bd-4cd8-b2b7-5423e8cce285","system_id":"levelo_inurba_marseille","lat":43.29506,"lon":5.3745,"is_reserved":false,"is_disabled":false,"rental_uris":{"android":"levelo://app?vid=640e309d-b7bd-4cd8-b2b7-5423e8cce285","ios":"levelo://app?vid=640e309d-b7bd-4cd8-b2b7-5423e8cce285"},"vehicle_type_id":"4","last_reported":1770498929,"current_range_meters":9600,"station_id":"","pricing_plan_id":"cebpf4jnsgd1na2vs0mg"},{"bike_id":"131c8bc6-588e-4f5d-851b-303b7978f745","system_id":"levelo_inurba_marseille","lat":43.25939,"lon":5.40893,"is_reserved":false,"is_disabled":false,"rental_uris":{"android":"levelo://app?vid=131c8bc6-588e-4f5d-851b-303b7978f745","ios":"levelo://app?vid=131c8bc6-588e-4f5d-851b-303b7978f745"},"vehicle_type_id":"4","last_reported":1770498929,"current_range_meters":9600,"station_id":"ce4bhm92rcd13ifvqglg","pricing_plan_id":"cebpf4jnsgd1na2vs0mg"},{"bike_id":"cc15c3f8-a1dd-42d7-b66a-d239b7f484cf","system_id":"levelo_inurba_marseille","lat":43.24078,"lon":5.37769,"is_reserved":false,"is_disabled":false,"rental_uris":{"android":"levelo://app?vid=cc15c3f8-a1dd-42d7-b66a-d239b7f484cf","ios":"levelo://app?vid=cc15c3f8-a1dd-42d7-b66a-d239b7f484cf"},"vehicle_type_id":"4","last_reported":1770498929,"current_range_meters":9600,"station_id":"ce4bhnp2rcd13ifvqgvg","pricing_plan_id":"cebpf4jnsgd1na2vs0mg"},{"bike_id":"a03e84f2-fce7-448a-ace9-7a98cb0273e2","system_id":"levelo_inurba_marseille","lat":43.28694,"lon":5.38666,"is_reserved":false,"is_disabled":false,"rental_uris":{"android":"levelo://app?vid=a03e84f2-fce7-448a-ace9-7a98cb0273e2","ios":"levelo://app?vid=a03e84f2-fce7-448a-ace9-7a98cb0273e2"},"vehicle_type_id":"4","last_reported":1770498929,"current_range_meters":9600,"station_id":"ce4bh492rcd13ifvqdug","pricing_plan_id":"cebpf4jnsgd1na2vs0mg"},{"bike_id":"5f9bd2ca-91e3-4fbe-a1bb-af05a97d2ea2","system_id":"levelo_inurba_marseille","lat":43.31461,"lon":5.4537,"is_reserved":false,"is_disabled":false,"rental_uris":{"android":"levelo://app?vid=5f9bd2ca-91e3-4fbe-a1bb-af05a97d2ea2","ios":"levelo://app?vid=5f9bd2ca-91e3-4fbe-a1bb-af05a97d2ea2"},"vehicle_type_id":"4","last_reported":1770498929,"current_range_meters":9600,"station_id":"","pricing_plan_id":"cebpf4jnsgd1na2vs0mg"},{"bike_id":"9cf8cf30-14bd-4d76-89d2-27cdf902b478","system_id":"levelo_inurba_marseille","lat":43.31273,"lon":5.40169,"is_reserved":false,"is_disabled":false,"rental_uris":{"android":"levelo://app?vid=9cf8cf30-14bd-4d76-89d2-27cdf902b478","ios":"levelo://app?vid=9cf8cf30-14bd-4d76-89d2-27cdf902b478"},"vehicle_type_id":"4","last_reported":1770498929,"current_range_meters":9600,"station_id":"ce4bh092rcd13ifvqd30","pricing_plan_id":"cebpf4jnsgd1na2vs0mg"},{"bike_id":"7a2c796a-2c27-403d-a799-411424496833","system_id":"levelo_inurba_marseille","lat":43.265821,"lon":5.403336,"is_reserved":false,"is_disabled":false,"rental_uris":{"android":"levelo://app?vid=7a2c796a-2c27-403d-a799-411424496833","ios":"levelo://app?vid=7a2c796a-2c27-403d-a799-411424496833"},"vehicle_type_id":"4","last_reported":1770498929,"current_range_meters":10000,"station_id":"","pricing_plan_id":"cebpf4jnsgd1na2vs0mg"},{"bike_id":"f8354ddb-017a-4bf2-8668-a39598178e17","system_id":"levelo_inurba_marseille","lat":43.30728,"lon":5.42439,"is_reserved":false,"is_disabled":false,"rental_uris":{"android":"levelo://app?vid=f8354ddb-017a-4bf2-8668-a39598178e17","ios":"levelo://app?vid=f8354ddb-017a-4bf2-8668-a39598178e17"},"vehicle_type_id":"4","last_reported":1770498929,"current_range_meters":10000,"station_id":"st_cvj6ca6bvosntc0bfgr0","pricing_plan_id":"cebpf4jnsgd1na2vs0mg"},{"bike_id":"a5fe7b14-3ced-4d6c-aab3-f34baaf11509","system_id":"levelo_inurba_marseille","lat":43.29889,"lon":5.38922,"is_reserved":false,"is_disabled":true,"rental_uris":{"android":"levelo://app?vid=a5fe7b14-3ced-4d6c-aab3-f34baaf11509","ios":"levelo://app?vid=a5fe7b14-3ced-4d6c-aab3-f34baaf11509"},"vehicle_type_id":"4","last_reported":1770498929,"current_range_meters":10000,"station_id":"ce4bh392rcd13ifvqdl0","pricing_plan_id":"cebpf4jnsgd1na2vs0mg"},{"bike_id":"92ceac05-1fb7-4c05-9f7a-f53104e5d648","system_id":"levelo_inurba_marseille","lat":43.24999,"lon":5.38941,"is_reserved":false,"is_disabled":false,"rental_uris":{"android":"levelo://app?vid=92ceac05-1fb7-4c05-9f7a-f53104e5d648","ios":"levelo://app?vid=92ceac05-1fb7-4c05-9f7a-f53104e5d648"},"vehicle_type_id":"4","last_reported":1770498929,"current_range_meters":10000,"station_id":"ce4bhgp2rcd13ifvqfd0","pricing_plan_id":"cebpf4jnsgd1na2vs0mg"},{"bike_id":"b83a8bb5-7a1d-4a7d-8a97-988bfb4796e5","system_id":"levelo_inurba_marseille","lat":43.2858,"lon":5.39502,"is_reserved":false,"is_disabled":false,"rental_uris":{"android":"levelo://app?vid=b83a8bb5-7a1d-4a7d-8a97-988bfb4796e5","ios":"levelo://app?vid=b83a8bb5-7a1d-4a7d-8a97-988bfb4796e5"},"vehicle_type_id":"4","last_reported":1770498929,"current_range_meters":10000,"station_id":"ce4bh292rcd13ifvqdg0","pricing_plan_id":"cebpf4jnsgd1na2vs0mg"},{"bike_id":"a93a3f3a-fc89-4e32-a1fb-c7685626cbdd","system_id":"levelo_inurba_marseille","lat":43.31176,"lon":5.38576,"is_reserved":false,"is_disabled":false,"rental_uris":{"android":"levelo://app?vid=a93a3f3a-fc89-4e32-a1fb-c7685626cbdd","ios":"levelo://app?vid=a93a3f3a-fc89-4e32-a1fb-c7685626cbdd"},"vehicle_type_id":"4","last_reported":1770498929,"current_range_meters":10000,"station_id":"","pricing_plan_id":"cebpf4jnsgd1na2vs0mg"},{"bike_id":"cd4cf3c9-ec82-412c-8eb7-e21fbfb89b1b","system_id":"levelo_inurba_marseille","lat":43.30259,"lon":5.40059,"is_reserved":false,"is_disabled":false,"rental_uris":{"android":"levelo://app?vid=cd4cf3c9-ec82-412c-8eb7-e21fbfb89b1b","ios":"levelo://app?vid=cd4cf3c9-ec82-412c-8eb7-e21fbfb89b1b"},"vehicle_type_id":"4","last_reported":1770498929,"current_range_meters":10000,"station_id":"ce4bgvh2rcd13ifvqcs0","pricing_plan_id":"cebpf4jnsgd1na2vs0mg"},{"bike_id":"c8280ba7-8e63-4edf-848d-dcc323849169","system_id":"levelo_inurba_marseille","lat":43.29656,"lon":5.38082,"is_reserved":false,"is_disabled":false,"rental_uris":{"android":"levelo://app?vid=c8280ba7-8e63-4edf-848d-dcc323849169","ios":"levelo://app?vid=c8280ba7-8e63-4edf-848d-dcc323849169"},"vehicle_type_id":"4","last_reported":1770498929,"current_range_meters":10000,"station_id":"","pricing_plan_id":"cebpf4jnsgd1na2vs0mg"},{"bike_id":"78e91cec-a989-487c-8dcd-1cfb0952c4c7","system_id":"levelo_inurba_marseille","lat":43.24467,"lon":5.42539,"is_reserved":false,"is_disabled":false,"rental_uris":{"android":"levelo://app?vid=78e91cec-a989-487c-8dcd-1cfb0952c4c7","ios":"levelo://app?vid=78e91cec-a989-487c-8dcd-1cfb0952c4c7"},"vehicle_type_id":"4","last_reported":1770498929,"current_range_meters":10000,"station_id":"st_d4a3vfp97mjs738cd8kg","pricing_plan_id":"cebpf4jnsgd1na2vs0mg"},{"bike_id":"87097bdd-db69-48f8-b346-786058315c10","system_id":"levelo_inurba_marseille","lat":43.26688,"lon":5.38263,"is_reserved":false,"is_disabled":false,"rental_uris":{"android":"levelo://app?vid=87097bdd-db69-48f8-b346-786058315c10","ios":"levelo://app?vid=87097bdd-db69-48f8-b346-786058315c10"},"vehicle_type_id":"4","last_reported":1770498929,"current_range_meters":10000,"station_id":"ce4bhg92rcd13ifvqf90","pricing_plan_id":"cebpf4jnsgd1na2vs0mg"},{"bike_id":"0dbab729-d30d-471e-8559-38dc32eda678","system_id":"levelo_inurba_marseille","lat":43.29276,"lon":5.38435,"is_reserved":false,"is_disabled":false,"rental_uris":{"android":"levelo://app?vid=0dbab729-d30d-471e-8559-38dc32eda678","ios":"levelo://app?vid=0dbab729-d30d-471e-8559-38dc32eda678"},"vehicle_type_id":"4","last_reported":1770498929,"current_range_meters":10000,"station_id":"ce4bh692rcd13ifvqea0","pricing_plan_id":"cebpf4jnsgd1na2vs0mg"},{"bike_id":"d8ba07be-4909-4867-9013-61baab37ba2e","system_id":"levelo_inurba_marseille","lat":43.2259,"lon":5.41616,"is_reserved":false,"is_disabled":false,"rental_uris":{"android":"levelo://app?vid=d8ba07be-4909-4867-9013-61baab37ba2e","ios":"levelo://app?vid=d8ba07be-4909-4867-9013-61baab37ba2e"},"vehicle_type_id":"4","last_reported":1770498929,"current_range_meters":10000,"station_id":"st_d2o4gvlbi1j2169b742g","pricing_plan_id":"cebpf4jnsgd1na2vs0mg"},{"bike_id":"a8e8aa90-66c9-4830-8a68-7bf50e940df7","system_id":"levelo_inurba_marseille","lat":43.23183,"lon":5.3999,"is_reserved":false,"is_disabled":false,"rental_uris":{"android":"levelo://app?vid=a8e8aa90-66c9-4830-8a68-7bf50e940df7","ios":"levelo://app?vid=a8e8aa90-66c9-4830-8a68-7bf50e940df7"},"vehicle_type_id":"4","last_reported":1770498929,"current_range_meters":10000,"station_id":"ce4bhn12rcd13ifvqgqg","pricing_plan_id":"cebpf4jnsgd1na2vs0mg"},{"bike_id":"364ea28f-7e20-4ad8-9bf1-69b2e8dad65e","system_id":"levelo_inurba_marseille","lat":43.28649,"lon":5.44361,"is_reserved":false,"is_disabled":false,"rental_uris":{"android":"levelo://app?vid=364ea28f-7e20-4ad8-9bf1-69b2e8dad65e","ios":"levelo://app?vid=364ea28f-7e20-4ad8-9bf1-69b2e8dad65e"},"vehicle_type_id":"4","last_reported":1770498929,"current_range_meters":10000,"station_id":"","pricing_plan_id":"cebpf4jnsgd1na2vs0mg"},{"bike_id":"72bda1ac-8887-4b27-9e63-8abca8128156","system_id":"levelo_inurba_marseille","lat":43.310502,"lon":5.371678,"is_reserved":false,"is_disabled":false,"rental_uris":{"android":"levelo://app?vid=72bda1ac-8887-4b27-9e63-8abca8128156","ios":"levelo://app?vid=72bda1ac-8887-4b27-9e63-8abca8128156"},"vehicle_type_id":"4","last_reported":1770498929,"current_range_meters":10000,"station_id":"st_d4kl2rp97mjs73e7tdfg","pricing_plan_id":"cebpf4jnsgd1na2vs0mg"},{"bike_id":"ea3df964-ab02-4201-99d8-b203a23ecf8f","system_id":"levelo_inurba_marseille","lat":43.24809,"lon":5.37423,"is_reserved":false,"is_disabled":false,"rental_uris":{"android":"levelo://app?vid=ea3df964-ab02-4201-99d8-b203a23ecf8f","ios":"levelo://app?vid=ea3df964-ab02-4201-99d8-b203a23ecf8f"},"vehicle_type_id":"4","last_reported":1770498929,"current_range_meters":10000,"station_id":"ce4bhgh2rcd13ifvqfb0","pricing_plan_id":"cebpf4jnsgd1na2vs0mg"},{"bike_id":"64678126-6a78-46f3-b2dd-28e8e5ef9c36","system_id":"levelo_inurba_marseille","lat":43.32349,"lon":5.367371,"is_reserved":false,"is_disabled":false,"rental_uris":{"android":"levelo://app?vid=64678126-6a78-46f3-b2dd-28e8e5ef9c36","ios":"levelo://app?vid=64678126-6a78-46f3-b2dd-28e8e5ef9c36"},"vehicle_type_id":"4","last_reported":1770498929,"current_range_meters":10000,"station_id":"ce4bhsh2rcd13ifvqi2g","pricing_plan_id":"cebpf4jnsgd1na2vs0mg"},{"bike_id":"1ea60dc0-7a32-4323-9458-3ce0044e2a51","system_id":"levelo_inurba_marseille","lat":43.33551,"lon":5.37463,"is_reserved":false,"is_disabled":false,"rental_uris":{"android":"levelo://app?vid=1ea60dc0-7a32-4323-9458-3ce0044e2a51","ios":"levelo://app?vid=1ea60dc0-7a32-4323-9458-3ce0044e2a51"},"vehicle_type_id":"4","last_reported":1770498929,"current_range_meters":10000,"station_id":"st_d46tts09ee8s73dlu43g","pricing_plan_id":"cebpf4jnsgd1na2vs0mg"},{"bike_id":"d96fa321-cc43-4d28-a99e-b49794bf7b3a","system_id":"levelo_inurba_marseille","lat":43.25956,"lon":5.40912,"is_reserved":false,"is_disabled":false,"rental_uris":{"android":"levelo://app?vid=d96fa321-cc43-4d28-a99e-b49794bf7b3a","ios":"levelo://app?vid=d96fa321-cc43-4d28-a99e-b49794bf7b3a"},"vehicle_type_id":"4","last_reported":1770498929,"current_range_meters":10000,"station_id":"ce4bhm92rcd13ifvqglg","pricing_plan_id":"cebpf4jnsgd1na2vs0mg"},{"bike_id":"bd7025a7-10fe-45d4-8731-6d013563d075","system_id":"levelo_inurba_marseille","lat":43.27212,"lon":5.39193,"is_reserved":false,"is_disabled":false,"rental_uris":{"android":"levelo://app?vid=bd7025a7-10fe-45d4-8731-6d013563d075","ios":"levelo://app?vid=bd7025a7-10fe-45d4-8731-6d013563d075"},