{"last_updated":1702555998,"ttl":30,"version":"2.2","data":{"bikes":[{"bike_id":"fd0d3195-a222-4a69-a6a8-0786757b5026","system_id":"levelo_inurba_marseille","lat":43.313391,"lon":5.36706,"is_reserved":false,"is_disabled":false,"rental_uris":{"android":"levelo://app?vid=fd0d3195-a222-4a69-a6a8-0786757b5026","ios":"levelo://app?vid=fd0d3195-a222-4a69-a6a8-0786757b5026"},"vehicle_type_id":"4","last_reported":1702555998,"current_range_meters":20800,"station_id":"ce4bgr92rcd13ifvqc6g","pricing_plan_id":"free"},{"bike_id":"132756b2-21b0-4b37-a3ac-98574bf56a76","system_id":"levelo_inurba_marseille","lat":43.313391,"lon":5.36706,"is_reserved":false,"is_disabled":false,"rental_uris":{"android":"levelo://app?vid=132756b2-21b0-4b37-a3ac-98574bf56a76","ios":"levelo://app?vid=132756b2-21b0-4b37-a3ac-98574bf56a76"},"vehicle_type_id":"4","last_reported":1702555998,"current_range_meters":15600,"station_id":"ce4bgr92rcd13ifvqc6g","pricing_plan_id":"free"},{"bike_id":"0349cfe3-d4fc-4c2f-a928-645bcf88f8c7","system_id":"levelo_inurba_marseille","lat":43.313391,"lon":5.36706,"is_reserved":false,"is_disabled":false,"rental_uris":{"android":"levelo://app?vid=0349cfe3-d4fc-4c2f-a928-645bcf88f8c7","ios":"levelo://app?vid=0349cfe3-d4fc-4c2f-a928-645bcf88f8c7"},"vehicle_type_id":"4","last_reported":1702555998,"current_range_meters":31600,"station_id":"ce4bgr92rcd13ifvqc6g","pricing_plan_id":"free"},{"bike_id":"a723faf6-6dfb-426d-a6cf-68dca6c2720e","system_id":"levelo_inurba_marseille","lat":43.313391,"lon":5.36706,"is_reserved":false,"is_disabled":false,"rental_uris":{"android":"levelo://app?vid=a723faf6-6dfb-426d-a6cf-68dca6c2720e","ios":"levelo://app?vid=a723faf6-6dfb-426d-a6cf-68dca6c2720e"},"vehicle_type_id":"4","last_reported":1702555998,"current_range_meters":17600,"station_id":"ce4bgr92rcd13ifvqc6g","pricing_plan_id":"free"},{"bike_id":"49e5abb6-f09f-4b7e-bdeb-52461f3f6eb2","system_id":"levelo_inurba_marseille","lat":43.313391,"lon":5.36706,"is_reserved":false,"is_disabled":false,"rental_uris":{"android":"levelo://app?vid=49e5abb6-f09f-4b7e-bdeb-52461f3f6eb2","ios":"levelo://app?vid=49e5abb6-f09f-4b7e-bdeb-52461f3f6eb2"},"vehicle_type_id":"4","last_reported":1702555998,"current_range_meters":18000,"station_id":"ce4bgr92rcd13ifvqc6g","pricing_plan_id":"free"},{"bike_id":"79b27502-46cd-423f-9fcb-ffae1d3f261a","system_id":"levelo_inurba_marseille","lat":43.313507,"lon":5.367211,"is_reserved":false,"is_disabled":false,"rental_uris":{"android":"levelo://app?vid=79b27502-46cd-423f-9fcb-ffae1d3f261a","ios":"levelo://app?vid=79b27502-46cd-423f-9fcb-ffae1d3f261a"},"vehicle_type_id":"4","last_reported":1702555998,"current_range_meters":25600,"station_id":"ce4bgr92rcd13ifvqc6g","pricing_plan_id":"free"},{"bike_id":"5e870a68-e5e1-4f23-9b79-346d0b2e9ca3","system_id":"levelo_inurba_marseille","lat":43.313391,"lon":5.36706,"is_reserved":false,"is_disabled":false,"rental_uris":{"android":"levelo://app?vid=5e870a68-e5e1-4f23-9b79-346d0b2e9ca3","ios":"levelo://app?vid=5e870a68-e5e1-4f23-9b79-346d0b2e9ca3"},"vehicle_type_id":"4","last_reported":1702555998,"current_range_meters":31200,"station_id":"ce4bgr92rcd13ifvqc6g","pricing_plan_id":"free"},{"bike_id":"aba73269-eac1-4a01-9e09-70ddb68fbd12","system_id":"levelo_inurba_marseille","lat":43.31341,"lon":5.367098,"is_reserved":false,"is_disabled":false,"rental_uris":{"android":"levelo://app?vid=aba73269-eac1-4a01-9e09-70ddb68fbd12","ios":"levelo://app?vid=aba73269-eac1-4a01-9e09-70ddb68fbd12"},"vehicle_type_id":"4","last_reported":1702555998,"current_range_meters":31200,"station_id":"ce4bgr92rcd13ifvqc6g","pricing_plan_id":"free"},{"bike_id":"63506cc9-8014-44db-b920-011f0d9737ca","system_id":"levelo_inurba_marseille","lat":43.313553,"lon":5.36721,"is_reserved":false,"is_disabled":false,"rental_uris":{"android":"levelo://app?vid=63506cc9-8014-44db-b920-011f0d9737ca","ios":"levelo://app?vid=63506cc9-8014-44db-b920-011f0d9737ca"},"vehicle_type_id":"4","last_reported":1702555998,"current_range_meters":16800,"station_id":"ce4bgr92rcd13ifvqc6g","pricing_plan_id":"free"},{"bike_id":"4e8da820-d94c-4282-a15b-0d99d45343d6","system_id":"levelo_inurba_marseille","lat":43.312239,"lon":5.368562,"is_reserved":false,"is_disabled":false,"rental_uris":{"android":"levelo://app?vid=4e8da820-d94c-4282-a15b-0d99d45343d6","ios":"levelo://app?vid=4e8da820-d94c-4282-a15b-0d99d45343d6"},"vehicle_type_id":"4","last_reported":1702555998,"current_range_meters":31600,"station_id":"ce4bgl92rcd13ifvqbq0","pricing_plan_id":"free"},{"bike_id":"b78c9a51-0e04-4998-b6ca-7a16de769080","system_id":"levelo_inurba_marseille","lat":43.312239,"lon":5.368562,"is_reserved":false,"is_disabled":false,"rental_uris":{"android":"levelo://app?vid=b78c9a51-0e04-4998-b6ca-7a16de769080","ios":"levelo://app?vid=b78c9a51-0e04-4998-b6ca-7a16de769080"},"vehicle_type_id":"4","last_reported":1702555998,"current_range_meters":31600,"station_id":"ce4bgl92rcd13ifvqbq0","pricing_plan_id":"free"},{"bike_id":"59074f10-9bc7-4ffd-8bc8-559090846504","system_id":"levelo_inurba_marseille","lat":43.312239,"lon":5.368562,"is_reserved":false,"is_disabled":false,"rental_uris":{"android":"levelo://app?vid=59074f10-9bc7-4ffd-8bc8-559090846504","ios":"levelo://app?vid=59074f10-9bc7-4ffd-8bc8-559090846504"},"vehicle_type_id":"4","last_reported":1702555998,"current_range_meters":22000,"station_id":"ce4bgl92rcd13ifvqbq0","pricing_plan_id":"free"},{"bike_id":"6c3a0d4b-2bbe-4572-8781-7c0588b0af67","system_id":"levelo_inurba_marseille","lat":43.312239,"lon":5.368562,"is_reserved":false,"is_disabled":false,"rental_uris":{"android":"levelo://app?vid=6c3a0d4b-2bbe-4572-8781-7c0588b0af67","ios":"levelo://app?vid=6c3a0d4b-2bbe-4572-8781-7c0588b0af67"},"vehicle_type_id":"4","last_reported":1702555998,"current_range_meters":23200,"station_id":"ce4bgl92rcd13ifvqbq0","pricing_plan_id":"free"},{"bike_id":"dca2b111-d324-4194-89c5-abf8ada894d9","system_id":"levelo_inurba_marseille","lat":43.312239,"lon":5.368562,"is_reserved":false,"is_disabled":false,"rental_uris":{"android":"levelo://app?vid=dca2b111-d324-4194-89c5-abf8ada894d9","ios":"levelo://app?vid=dca2b111-d324-4194-89c5-abf8ada894d9"},"vehicle_type_id":"4","last_reported":1702555998,"current_range_meters":6800,"station_id":"ce4bgl92rcd13ifvqbq0","pricing_plan_id":"free"},{"bike_id":"5a037603-ad63-44df-b177-426009f2951c","system_id":"levelo_inurba_marseille","lat":43.312239,"lon":5.368562,"is_reserved":false,"is_disabled":false,"rental_uris":{"android":"levelo://app?vid=5a037603-ad63-44df-b177-426009f2951c","ios":"levelo://app?vid=5a037603-ad63-44df-b177-426009f2951c"},"vehicle_type_id":"4","last_reported":1702555998,"current_range_meters":31600,"station_id":"ce4bgl92rcd13ifvqbq0","pricing_plan_id":"free"},{"bike_id":"782ba954-8744-44a8-ac2c-1af11b08b18d","system_id":"levelo_inurba_marseille","lat":43.312239,"lon":5.368562,"is_reserved":false,"is_disabled":false,"rental_uris":{"android":"levelo://app?vid=782ba954-8744-44a8-ac2c-1af11b08b18d","ios":"levelo://app?vid=782ba954-8744-44a8-ac2c-1af11b08b18d"},"vehicle_type_id":"4","last_reported":1702555998,"current_range_meters":4800,"station_id":"ce4bgl92rcd13ifvqbq0","pricing_plan_id":"free"},{"bike_id":"51fbed6e-dc60-4118-b993-e2a8ed4f7f17","system_id":"levelo_inurba_marseille","lat":43.309076,"lon":5.368465,"is_reserved":false,"is_disabled":false,"rental_uris":{"android":"levelo://app?vid=51fbed6e-dc60-4118-b993-e2a8ed4f7f17","ios":"levelo://app?vid=51fbed6e-dc60-4118-b993-e2a8ed4f7f17"},"vehicle_type_id":"4","last_reported":1702555998,"current_range_meters":31600,"station_id":"ce4bgn92rcd13ifvqbvg","pricing_plan_id":"free"},{"bike_id":"ef9793d2-19be-4121-9958-5163e2105a69","system_id":"levelo_inurba_marseille","lat":43.314811,"lon":5.373103,"is_reserved":false,"is_disabled":false,"rental_uris":{"android":"levelo://app?vid=ef9793d2-19be-4121-9958-5163e2105a69","ios":"levelo://app?vid=ef9793d2-19be-4121-9958-5163e2105a69"},"vehicle_type_id":"4","last_reported":1702555998,"current_range_meters":10400,"station_id":"ce4bgt12rcd13ifvqcd0","pricing_plan_id":"free"},{"bike_id":"669ff05e-0d7c-41bc-81f9-fa2d3b41df33","system_id":"levelo_inurba_marseille","lat":43.314811,"lon":5.373103,"is_reserved":false,"is_disabled":false,"rental_uris":{"android":"levelo://app?vid=669ff05e-0d7c-41bc-81f9-fa2d3b41df33","ios":"levelo://app?vid=669ff05e-0d7c-41bc-81f9-fa2d3b41df33"},"vehicle_type_id":"4","last_reported":1702555998,"current_range_meters":24400,"station_id":"ce4bgt12rcd13ifvqcd0","pricing_plan_id":"free"},{"bike_id":"0590619f-86d0-481d-81eb-a2e04e4e8685","system_id":"levelo_inurba_marseille","lat":43.309039,"lon":5.371797,"is_reserved":false,"is_disabled":false,"rental_uris":{"android":"levelo://app?vid=0590619f-86d0-481d-81eb-a2e04e4e8685","ios":"levelo://app?vid=0590619f-86d0-481d-81eb-a2e04e4e8685"},"vehicle_type_id":"4","last_reported":1702555998,"current_range_meters":18000,"station_id":"ce4bguh2rcd13ifvqckg","pricing_plan_id":"free"},{"bike_id":"3f8b821f-e430-4a35-bf14-f8b6e777ea11","system_id":"levelo_inurba_marseille","lat":43.313939,"lon":5.375306,"is_reserved":false,"is_disabled":false,"rental_uris":{"android":"levelo://app?vid=3f8b821f-e430-4a35-bf14-f8b6e777ea11","ios":"levelo://app?vid=3f8b821f-e430-4a35-bf14-f8b6e777ea11"},"vehicle_type_id":"4","last_reported":1702555998,"current_range_meters":4000,"station_id":"","pricing_plan_id":"free"},{"bike_id":"1c6cd74b-0d6e-4d0d-9b64-cb0c496145ff","system_id":"levelo_inurba_marseille","lat":43.305368,"lon":5.367343,"is_reserved":false,"is_disabled":false,"rental_uris":{"android":"levelo://app?vid=1c6cd74b-0d6e-4d0d-9b64-cb0c496145ff","ios":"levelo://app?vid=1c6cd74b-0d6e-4d0d-9b64-cb0c496145ff"},"vehicle_type_id":"4","last_reported":1702555998,"current_range_meters":0,"station_id":"ce4bgrp2rcd13ifvqc9g","pricing_plan_id":"free"},{"bike_id":"955e4ab2-16e5-44e8-a986-a2f50ff96c06","system_id":"levelo_inurba_marseille","lat":43.305382,"lon":5.365389,"is_reserved":false,"is_disabled":false,"rental_uris":{"android":"levelo://app?vid=955e4ab2-16e5-44e8-a986-a2f50ff96c06","ios":"levelo://app?vid=955e4ab2-16e5-44e8-a986-a2f50ff96c06"},"vehicle_type_id":"4","last_reported":1702555998,"current_range_meters":23200,"station_id":"","pricing_plan_id":"free"},{"bike_id":"a6305b88-c6f0-47ef-bf50-65b34b9fedd0","system_id":"levelo_inurba_marseille","lat":43.32473,"lon":5.36563,"is_reserved":false,"is_disabled":false,"rental_uris":{"android":"levelo://app?vid=a6305b88-c6f0-47ef-bf50-65b34b9fedd0","ios":"levelo://app?vid=a6305b88-c6f0-47ef-bf50-65b34b9fedd0"},"vehicle_type_id":"4","last_reported":1702555998,"current_range_meters":20800,"station_id":"ce4bhs12rcd13ifvqhvg","pricing_plan_id":"free"},{"bike_id":"16a9f359-c71f-4403-a344-338a091f3316","system_id":"levelo_inurba_marseille","lat":43.30143,"lon":5.37413,"is_reserved":false,"is_disabled":false,"rental_uris":{"android":"levelo://app?vid=16a9f359-c71f-4403-a344-338a091f3316","ios":"levelo://app?vid=16a9f359-c71f-4403-a344-338a091f3316"},"vehicle_type_id":"4","last_reported":1702555998,"current_range_meters":28800,"station_id":"ce4bgs92rcd13ifvqcc0","pricing_plan_id":"free"},{"bike_id":"f835b577-fbb6-411e-8fb2-7d818fb82187","system_id":"levelo_inurba_marseille","lat":43.298433,"lon":5.362774,"is_reserved":false,"is_disabled":false,"rental_uris":{"android":"levelo://app?vid=f835b577-fbb6-411e-8fb2-7d818fb82187","ios":"levelo://app?vid=f835b577-fbb6-411e-8fb2-7d818fb82187"},"vehicle_type_id":"4","last_reported":1702555998,"current_range_meters":31200,"station_id":"ce4bgpp2rcd13ifvqc3g","pricing_plan_id":"free"},{"bike_id":"89922cd2-70b7-46b2-b74e-0b5990682f5e","system_id":"levelo_inurba_marseille","lat":43.298433,"lon":5.362774,"is_reserved":false,"is_disabled":false,"rental_uris":{"android":"levelo://app?vid=89922cd2-70b7-46b2-b74e-0b5990682f5e","ios":"levelo://app?vid=89922cd2-70b7-46b2-b74e-0b5990682f5e"},"vehicle_type_id":"4","last_reported":1702555998,"current_range_meters":18000,"station_id":"ce4bgpp2rcd13ifvqc3g","pricing_plan_id":"free"},{"bike_id":"62c4f95f-ec48-4f8f-96b5-1da2ba2b0a34","system_id":"levelo_inurba_marseille","lat":43.311543,"lon":5.38685,"is_reserved":false,"is_disabled":false,"rental_uris":{"android":"levelo://app?vid=62c4f95f-ec48-4f8f-96b5-1da2ba2b0a34","ios":"levelo://app?vid=62c4f95f-ec48-4f8f-96b5-1da2ba2b0a34"},"vehicle_type_id":"4","last_reported":1702555998,"current_range_meters":9600,"station_id":"ce4bgv12rcd13ifvqcp0","pricing_plan_id":"free"},{"bike_id":"00265710-7d3a-419a-9e8b-9666a06620e4","system_id":"levelo_inurba_marseille","lat":43.298433,"lon":5.362774,"is_reserved":false,"is_disabled":false,"rental_uris":{"android":"levelo://app?vid=00265710-7d3a-419a-9e8b-9666a06620e4","ios":"levelo://app?vid=00265710-7d3a-419a-9e8b-9666a06620e4"},"vehicle_type_id":"4","last_reported":1702555998,"current_range_meters":25200,"station_id":"ce4bgpp2rcd13ifvqc3g","pricing_plan_id":"free"},{"bike_id":"ef1106cb-f131-49ab-93c5-811fe1dd48b5","system_id":"levelo_inurba_marseille","lat":43.298433,"lon":5.362774,"is_reserved":false,"is_disabled":false,"rental_uris":{"android":"levelo://app?vid=ef1106cb-f131-49ab-93c5-811fe1dd48b5","ios":"levelo://app?vid=ef1106cb-f131-49ab-93c5-811fe1dd48b5"},"vehicle_type_id":"4","last_reported":1702555998,"current_range_meters":31600,"station_id":"ce4bgpp2rcd13ifvqc3g","pricing_plan_id":"free"},{"bike_id":"68c11159-ade3-4a85-85b7-59a5cb531b38","system_id":"levelo_inurba_marseille","lat":43.298433,"lon":5.362774,"is_reserved":false,"is_disabled":false,"rental_uris":{"android":"levelo://app?vid=68c11159-ade3-4a85-85b7-59a5cb531b38","ios":"levelo://app?vid=68c11159-ade3-4a85-85b7-59a5cb531b38"},"vehicle_type_id":"4","last_reported":1702555998,"current_range_meters":28400,"station_id":"ce4bgpp2rcd13ifvqc3g","pricing_plan_id":"free"},{"bike_id":"cf880a93-689f-496b-b06b-64d66a80d22d","system_id":"levelo_inurba_marseille","lat":43.298433,"lon":5.362774,"is_reserved":false,"is_disabled":false,"rental_uris":{"android":"levelo://app?vid=cf880a93-689f-496b-b06b-64d66a80d22d","ios":"levelo://app?vid=cf880a93-689f-496b-b06b-64d66a80d22d"},"vehicle_type_id":"4","last_reported":1702555998,"current_range_meters":26800,"station_id":"ce4bgpp2rcd13ifvqc3g","pricing_plan_id":"free"},{"bike_id":"ed5f0256-776d-4300-ad00-c107bee05a60","system_id":"levelo_inurba_marseille","lat":43.322872,"lon":5.382756,"is_reserved":false,"is_disabled":false,"rental_uris":{"android":"levelo://app?vid=ed5f0256-776d-4300-ad00-c107bee05a60","ios":"levelo://app?vid=ed5f0256-776d-4300-ad00-c107bee05a60"},"vehicle_type_id":"4","last_reported":1702555998,"current_range_meters":22400,"station_id":"ce4bhr12rcd13ifvqhqg","pricing_plan_id":"free"},{"bike_id":"259f6f8b-cb73-4ae2-9b13-7e12dc02a9fa","system_id":"levelo_inurba_marseille","lat":43.297794,"lon":5.370888,"is_reserved":false,"is_disabled":false,"rental_uris":{"android":"levelo://app?vid=259f6f8b-cb73-4ae2-9b13-7e12dc02a9fa","ios":"levelo://app?vid=259f6f8b-cb73-4ae2-9b13-7e12dc02a9fa"},"vehicle_type_id":"4","last_reported":1702555998,"current_range_meters":24400,"station_id":"ce4bgop2rcd13ifvqc1g","pricing_plan_id":"free"},{"bike_id":"ff1c48d9-766d-47d0-ba39-a55391305eca","system_id":"levelo_inurba_marseille","lat":43.297163,"lon":5.365866,"is_reserved":false,"is_disabled":false,"rental_uris":{"android":"levelo://app?vid=ff1c48d9-766d-47d0-ba39-a55391305eca","ios":"levelo://app?vid=ff1c48d9-766d-47d0-ba39-a55391305eca"},"vehicle_type_id":"4","last_reported":1702555998,"current_range_meters":15600,"station_id":"ce4bgn12rcd13ifvqbt0","pricing_plan_id":"free"},{"bike_id":"24bb61f7-d42c-439d-bc04-faf4119c8e30","system_id":"levelo_inurba_marseille","lat":43.296131,"lon":5.370791,"is_reserved":false,"is_disabled":false,"rental_uris":{"android":"levelo://app?vid=24bb61f7-d42c-439d-bc04-faf4119c8e30","ios":"levelo://app?vid=24bb61f7-d42c-439d-bc04-faf4119c8e30"},"vehicle_type_id":"4","last_reported":1702555998,"current_range_meters":8800,"station_id":"ce4bgnh2rcd13ifvqc0g","pricing_plan_id":"free"},{"bike_id":"3ef1498b-b2e6-43ea-b499-6bbb881b67c5","system_id":"levelo_inurba_marseille","lat":43.317557,"lon":5.390173,"is_reserved":false,"is_disabled":false,"rental_uris":{"android":"levelo://app?vid=3ef1498b-b2e6-43ea-b499-6bbb881b67c5","ios":"levelo://app?vid=3ef1498b-b2e6-43ea-b499-6bbb881b67c5"},"vehicle_type_id":"4","last_reported":1702555998,"current_range_meters":8800,"station_id":"ce4bhqp2rcd13ifvqhng","pricing_plan_id":"free"},{"bike_id":"e5163245-ec5c-45ad-aa1d-441acf4fea39","system_id":"levelo_inurba_marseille","lat":43.29816,"lon":5.38084,"is_reserved":false,"is_disabled":false,"rental_uris":{"android":"levelo://app?vid=e5163245-ec5c-45ad-aa1d-441acf4fea39","ios":"levelo://app?vid=e5163245-ec5c-45ad-aa1d-441acf4fea39"},"vehicle_type_id":"4","last_reported":1702555998,"current_range_meters":18400,"station_id":"ce4bgip2rcd13ifvqbb0","pricing_plan_id":"free"},{"bike_id":"3a2ea8fc-a425-4b5c-8125-b4239dfa9c75","system_id":"levelo_inurba_marseille","lat":43.304369,"lon":5.388982,"is_reserved":false,"is_disabled":false,"rental_uris":{"android":"levelo://app?vid=3a2ea8fc-a425-4b5c-8125-b4239dfa9c75","ios":"levelo://app?vid=3a2ea8fc-a425-4b5c-8125-b4239dfa9c75"},"vehicle_type_id":"4","last_reported":1702555998,"current_range_meters":19200,"station_id":"ce4bgk12rcd13ifvqbi0","pricing_plan_id":"free"},{"bike_id":"b31d1c21-c18d-411b-a6cc-9e0f5b4b87c8","system_id":"levelo_inurba_marseille","lat":43.304381,"lon":5.389,"is_reserved":false,"is_disabled":false,"rental_uris":{"android":"levelo://app?vid=b31d1c21-c18d-411b-a6cc-9e0f5b4b87c8","ios":"levelo://app?vid=b31d1c21-c18d-411b-a6cc-9e0f5b4b87c8"},"vehicle_type_id":"4","last_reported":1702555998,"current_range_meters":30000,"station_id":"ce4bgk12rcd13ifvqbi0","pricing_plan_id":"free"},{"bike_id":"e16030e8-636e-483f-ac94-17f35130722a","system_id":"levelo_inurba_marseille","lat":43.304278,"lon":5.388868,"is_reserved":false,"is_disabled":false,"rental_uris":{"android":"levelo://app?vid=e16030e8-636e-483f-ac94-17f35130722a","ios":"levelo://app?vid=e16030e8-636e-483f-ac94-17f35130722a"},"vehicle_type_id":"4","last_reported":1702555998,"current_range_meters":30000,"station_id":"ce4bgk12rcd13ifvqbi0","pricing_plan_id":"free"},{"bike_id":"bfbad2e8-f727-4fd0-9148-f1ac5a7a520e","system_id":"levelo_inurba_marseille","lat":43.29525,"lon":5.37508,"is_reserved":false,"is_disabled":false,"rental_uris":{"android":"levelo://app?vid=bfbad2e8-f727-4fd0-9148-f1ac5a7a520e","ios":"levelo://app?vid=bfbad2e8-f727-4fd0-9148-f1ac5a7a520e"},"vehicle_type_id":"4","last_reported":1702555998,"current_range_meters":8000,"station_id":"ce4bgkp2rcd13ifvqbmg","pricing_plan_id":"free"},{"bike_id":"67c2b693-74b8-4ded-96fe-1bb459ddc5fc","system_id":"levelo_inurba_marseille","lat":43.29602,"lon":5.381084,"is_reserved":false,"is_disabled":false,"rental_uris":{"android":"levelo://app?vid=67c2b693-74b8-4ded-96fe-1bb459ddc5fc","ios":"levelo://app?vid=67c2b693-74b8-4ded-96fe-1bb459ddc5fc"},"vehicle_type_id":"4","last_reported":1702555998,"current_range_meters":18400,"station_id":"ce4bgl12rcd13ifvqbo0","pricing_plan_id":"free"},{"bike_id":"1177290b-d3df-49f9-b15e-8f2e5c84fde2","system_id":"levelo_inurba_marseille","lat":43.293009,"lon":5.374584,"is_reserved":false,"is_disabled":false,"rental_uris":{"android":"levelo://app?vid=1177290b-d3df-49f9-b15e-8f2e5c84fde2","ios":"levelo://app?vid=1177290b-d3df-49f9-b15e-8f2e5c84fde2"},"vehicle_type_id":"4","last_reported":1702555998,"current_range_meters":23200,"station_id":"ce4bgi12rcd13ifvqb70","pricing_plan_id":"free"},{"bike_id":"f8bb76ff-574c-46e3-b20a-3fef611ab6c8","system_id":"levelo_inurba_marseille","lat":43.305994,"lon":5.393687,"is_reserved":false,"is_disabled":false,"rental_uris":{"android":"levelo://app?vid=f8bb76ff-574c-46e3-b20a-3fef611ab6c8","ios":"levelo://app?vid=f8bb76ff-574c-46e3-b20a-3fef611ab6c8"},"vehicle_type_id":"4","last_reported":1702555998,"current_range_meters":26800,"station_id":"ce4bh0p2rcd13ifvqd80","pricing_plan_id":"free"},{"bike_id":"aa1511c8-46fe-44a9-811a-b96852ab5328","system_id":"levelo_inurba_marseille","lat":43.293009,"lon":5.374584,"is_reserved":false,"is_disabled":false,"rental_uris":{"android":"levelo://app?vid=aa1511c8-46fe-44a9-811a-b96852ab5328","ios":"levelo://app?vid=aa1511c8-46fe-44a9-811a-b96852ab5328"},"vehicle_type_id":"4","last_reported":1702555998,"current_range_meters":3600,"station_id":"ce4bgi12rcd13ifvqb70","pricing_plan_id":"free"},{"bike_id":"ac427eb7-59f1-4be5-8870-a41485fa4acd","system_id":"levelo_inurba_marseille","lat":43.305994,"lon":5.393687,"is_reserved":false,"is_disabled":false,"rental_uris":{"android":"levelo://app?vid=ac427eb7-59f1-4be5-8870-a41485fa4acd","ios":"levelo://app?vid=ac427eb7-59f1-4be5-8870-a41485fa4acd"},"vehicle_type_id":"4","last_reported":1702555998,"current_range_meters":14800,"station_id":"ce4bh0p2rcd13ifvqd80","pricing_plan_id":"free"},{"bike_id":"b1968c2c-6c0d-47ec-a975-e9ddb4b47cfc","system_id":"levelo_inurba_marseille","lat":43.30305,"lon":5.39211,"is_reserved":false,"is_disabled":false,"rental_uris":{"android":"levelo://app?vid=b1968c2c-6c0d-47ec-a975-e9ddb4b47cfc","ios":"levelo://app?vid=b1968c2c-6c0d-47ec-a975-e9ddb4b47cfc"},"vehicle_type_id":"4","last_reported":1702555998,"current_range_meters":28800,"station_id":"ce4bgkh2rcd13ifvqbk0","pricing_plan_id":"free"},{"bike_id":"f5f65e7d-afaa-4ad5-a41f-622ff0baf5f2","system_id":"levelo_inurba_marseille","lat":43.30307,"lon":5.39215,"is_reserved":false,"is_disabled":false,"rental_uris":{"android":"levelo://app?vid=f5f65e7d-afaa-4ad5-a41f-622ff0baf5f2","ios":"levelo://app?vid=f5f65e7d-afaa-4ad5-a41f-622ff0baf5f2"},"vehicle_type_id":"4","last_reported":1702555998,"current_range_meters":28400,"station_id":"ce4bgkh2rcd13ifvqbk0","pricing_plan_id":"free"},{"bike_id":"22e918d9-883f-4ac4-a0fc-001ea44b691b","system_id":"levelo_inurba_marseille","lat":43.303002,"lon":5.392142,"is_reserved":false,"is_disabled":false,"rental_uris":{"android":"levelo://app?vid=22e918d9-883f-4ac4-a0fc-001ea44b691b","ios":"levelo://app?vid=22e918d9-883f-4ac4-a0fc-001ea44b691b"},"vehicle_type_id":"4","last_reported":1702555998,"current_range_meters":27200,"station_id":"ce4bgkh2rcd13ifvqbk0","pricing_plan_id":"free"},{"bike_id":"a6a83824-ad78-4c4f-bbcf-53eb853cfaee","system_id":"levelo_inurba_marseille","lat":43.302992,"lon":5.392136,"is_reserved":false,"is_disabled":false,"rental_uris":{"android":"levelo://app?vid=a6a83824-ad78-4c4f-bbcf-53eb853cfaee","ios":"levelo://app?vid=a6a83824-ad78-4c4f-bbcf-53eb853cfaee"},"vehicle_type_id":"4","last_reported":1702555998,"current_range_meters":29200,"station_id":"ce4bgkh2rcd13ifvqbk0","pricing_plan_id":"free"},{"bike_id":"53d9d9be-a396-41e7-94c2-6f88a8115af7","system_id":"levelo_inurba_marseille","lat":43.302992,"lon":5.392136,"is_reserved":false,"is_disabled":false,"rental_uris":{"android":"levelo://app?vid=53d9d9be-a396-41e7-94c2-6f88a8115af7","ios":"levelo://app?vid=53d9d9be-a396-41e7-94c2-6f88a8115af7"},"vehicle_type_id":"4","last_reported":1702555998,"current_range_meters":23200,"station_id":"ce4bgkh2rcd13ifvqbk0","pricing_plan_id":"free"},{"bike_id":"e0a97a23-3329-497e-815b-900f838e0dd8","system_id":"levelo_inurba_marseille","lat":43.2936,"lon":5.37835,"is_reserved":false,"is_disabled":false,"rental_uris":{"android":"levelo://app?vid=e0a97a23-3329-497e-815b-900f838e0dd8","ios":"levelo://app?vid=e0a97a23-3329-497e-815b-900f838e0dd8"},"vehicle_type_id":"4","last_reported":1702555998,"current_range_meters":6400,"station_id":"ce4bgjh2rcd13ifvqbf0","pricing_plan_id":"free"},{"bike_id":"926dc6fe-e71f-4adc-bd41-4c3b4a6fa9c8","system_id":"levelo_inurba_marseille","lat":43.303,"lon":5.39222,"is_reserved":false,"is_disabled":false,"rental_uris":{"android":"levelo://app?vid=926dc6fe-e71f-4adc-bd41-4c3b4a6fa9c8","ios":"levelo://app?vid=926dc6fe-e71f-4adc-bd41-4c3b4a6fa9c8"},"vehicle_type_id":"4","last_reported":1702555998,"current_range_meters":13200,"station_id":"ce4bgkh2rcd13ifvqbk0","pricing_plan_id":"free"},{"bike_id":"1e5e9ebf-0f1b-47e9-872b-fd5de078c80e","system_id":"levelo_inurba_marseille","lat":43.300852,"lon":5.390859,"is_reserved":false,"is_disabled":false,"rental_uris":{"android":"levelo://app?vid=1e5e9ebf-0f1b-47e9-872b-fd5de078c80e","ios":"levelo://app?vid=1e5e9ebf-0f1b-47e9-872b-fd5de078c80e"},"vehicle_type_id":"4","last_reported":1702555998,"current_range_meters":31200,"station_id":"ce4bh192rcd13ifvqdb0","pricing_plan_id":"free"},{"bike_id":"663f5bc3-1785-4399-9d2c-0032c59540f5","system_id":"levelo_inurba_marseille","lat":43.292311,"lon":5.360731,"is_reserved":false,"is_disabled":false,"rental_uris":{"android":"levelo://app?vid=663f5bc3-1785-4399-9d2c-0032c59540f5","ios":"levelo://app?vid=663f5bc3-1785-4399-9d2c-0032c59540f5"},"vehicle_type_id":"4","last_reported":1702555998,"current_range_meters":2800,"station_id":"ce4bhbh2rcd13ifvqeqg","pricing_plan_id":"free"},{"bike_id":"6b81ef7a-a6e6-470e-82d8-117ca82e9d36","system_id":"levelo_inurba_marseille","lat":43.300852,"lon":5.390859,"is_reserved":false,"is_disabled":false,"rental_uris":{"android":"levelo://app?vid=6b81ef7a-a6e6-470e-82d8-117ca82e9d36","ios":"levelo://app?vid=6b81ef7a-a6e6-470e-82d8-117ca82e9d36"},"vehicle_type_id":"4","last_reported":1702555998,"current_range_meters":5600,"station_id":"ce4bh192rcd13ifvqdb0","pricing_plan_id":"free"},{"bike_id":"5a197b2c-6c89-45e1-9360-18e63aa6f591","system_id":"levelo_inurba_marseille","lat":43.30085,"lon":5.390856,"is_reserved":false,"is_disabled":false,"rental_uris":{"android":"levelo://app?vid=5a197b2c-6c89-45e1-9360-18e63aa6f591","ios":"levelo://app?vid=5a197b2c-6c89-45e1-9360-18e63aa6f591"},"vehicle_type_id":"4","last_reported":1702555998,"current_range_meters":26800,"station_id":"ce4bh192rcd13ifvqdb0","pricing_plan_id":"free"},{"bike_id":"0aad35e5-2e89-4c33-a040-dd09e781e611","system_id":"levelo_inurba_marseille","lat":43.300852,"lon":5.390859,"is_reserved":false,"is_disabled":false,"rental_uris":{"android":"levelo://app?vid=0aad35e5-2e89-4c33-a040-dd09e781e611","ios":"levelo://app?vid=0aad35e5-2e89-4c33-a040-dd09e781e611"},"vehicle_type_id":"4","last_reported":1702555998,"current_range_meters":11600,"station_id":"ce4bh192rcd13ifvqdb0","pricing_plan_id":"free"},{"bike_id":"01e59c6c-dfc9-4340-919e-a2d19de4fd45","system_id":"levelo_inurba_marseille","lat":43.291994,"lon":5.357886,"is_reserved":false,"is_disabled":false,"rental_uris":{"android":"levelo://app?vid=01e59c6c-dfc9-4340-919e-a2d19de4fd45","ios":"levelo://app?vid=01e59c6c-dfc9-4340-919e-a2d19de4fd45"},"vehicle_type_id":"4","last_reported":1702555998,"current_range_meters":24000,"station_id":"ce4bhb12rcd13ifvqel0","pricing_plan_id":"free"},{"bike_id":"1cd3daf7-5540-4d1b-bcc0-984ed22c688a","system_id":"levelo_inurba_marseille","lat":43.309038,"lon":5.396546,"is_reserved":false,"is_disabled":false,"rental_uris":{"android":"levelo://app?vid=1cd3daf7-5540-4d1b-bcc0-984ed22c688a","ios":"levelo://app?vid=1cd3daf7-5540-4d1b-bcc0-984ed22c688a"},"vehicle_type_id":"4","last_reported":1702555998,"current_range_meters":18400,"station_id":"ce4bh012rcd13ifvqcv0","pricing_plan_id":"free"},{"bike_id":"f1b11f77-6567-462d-ae45-88eab0fcedbd","system_id":"levelo_inurba_marseille","lat":43.29529,"lon":5.385581,"is_reserved":false,"is_disabled":false,"rental_uris":{"android":"levelo://app?vid=f1b11f77-6567-462d-ae45-88eab0fcedbd","ios":"levelo://app?vid=f1b11f77-6567-462d-ae45-88eab0fcedbd"},"vehicle_type_id":"4","last_reported":1702555998,"current_range_meters":13200,"station_id":"ce4bgih2rcd13ifvqba0","pricing_plan_id":"free"},{"bike_id":"91f79040-fd49-4f47-846f-1f5e5e830789","system_id":"levelo_inurba_marseille","lat":43.29529,"lon":5.385581,"is_reserved":false,"is_disabled":false,"rental_uris":{"android":"levelo://app?vid=91f79040-fd49-4f47-846f-1f5e5e830789","ios":"levelo://app?vid=91f79040-fd49-4f47-846f-1f5e5e830789"},"vehicle_type_id":"4","last_reported":1702555998,"current_range_meters":17200,"station_id":"ce4bgih2rcd13ifvqba0","pricing_plan_id":"free"},{"bike_id":"e7a18f57-3ead-418f-9992-38a7b5e839fd","system_id":"levelo_inurba_marseille","lat":43.290327,"lon":5.375711,"is_reserved":false,"is_disabled":false,"rental_uris":{"android":"levelo://app?vid=e7a18f57-3ead-418f-9992-38a7b5e839fd","ios":"levelo://app?vid=e7a18f57-3ead-418f-9992-38a7b5e839fd"},"vehicle_type_id":"4","last_reported":1702555998,"current_range_meters":24800,"station_id":"ce4bh692rcd13ifvqe90","pricing_plan_id":"free"},{"bike_id":"d2dbdea2-abe9-49db-8720-20b7d9018aae","system_id":"levelo_inurba_marseille","lat":43.330442,"lon":5.389148,"is_reserved":false,"is_disabled":false,"rental_uris":{"android":"levelo://app?vid=d2dbdea2-abe9-49db-8720-20b7d9018aae","ios":"levelo://app?vid=d2dbdea2-abe9-49db-8720-20b7d9018aae"},"vehicle_type_id":"4","last_reported":1702555998,"current_range_meters":28000,"station_id":"ce4bhr92rcd13ifvqhrg","pricing_plan_id":"free"},{"bike_id":"f5d52a66-6e18-4ad6-8308-77c635ed9e64","system_id":"levelo_inurba_marseille","lat":43.305994,"lon":5.393687,"is_reserved":false,"is_disabled":false,"rental_uris":{"android":"levelo://app?vid=f5d52a66-6e18-4ad6-8308-77c635ed9e64","ios":"levelo://app?vid=f5d52a66-6e18-4ad6-8308-77c635ed9e64"},"vehicle_type_id":"4","last_reported":1702555998,"current_range_meters":14400,"station_id":"ce4bh0p2rcd13ifvqd80","pricing_plan_id":"free"},{"bike_id":"7888c273-a57c-44f0-93e3-ce910981d6d2","system_id":"levelo_inurba_marseille","lat":43.2901,"lon":5.381269,"is_reserved":false,"is_disabled":false,"rental_uris":{"android":"levelo://app?vid=7888c273-a57c-44f0-93e3-ce910981d6d2","ios":"levelo://app?vid=7888c273-a57c-44f0-93e3-ce910981d6d2"},"vehicle_type_id":"4","last_reported":1702555998,"current_range_meters":400,"station_id":"ce4bh4p2rcd13ifvqe1g","pricing_plan_id":"free"},{"bike_id":"76c1eb41-10b4-4128-ba47-b159d91661fa","system_id":"levelo_inurba_marseille","lat":43.2901,"lon":5.381269,"is_reserved":false,"is_disabled":false,"rental_uris":{"android":"levelo://app?vid=76c1eb41-10b4-4128-ba47-b159d91661fa","ios":"levelo://app?vid=76c1eb41-10b4-4128-ba47-b159d91661fa"},"vehicle_type_id":"4","last_reported":1702555998,"current_range_meters":24000,"station_id":"ce4bh4p2rcd13ifvqe1g","pricing_plan_id":"free"},{"bike_id":"6157cc3c-6386-43d2-8f5e-54d2d97a1682","system_id":"levelo_inurba_marseille","lat":43.30937,"lon":5.40145,"is_reserved":false,"is_disabled":false,"rental_uris":{"android":"levelo://app?vid=6157cc3c-6386-43d2-8f5e-54d2d97a1682","ios":"levelo://app?vid=6157cc3c-6386-43d2-8f5e-54d2d97a1682"},"vehicle_type_id":"4","last_reported":1702555998,"current_range_meters":22400,"station_id":"ce4bgvp2rcd13ifvqct0","pricing_plan_id":"free"},{"bike_id":"63071938-a9c0-45b7-9e9e-7e084c140631","system_id":"levelo_inurba_marseille","lat":43.33762,"lon":5.37455,"is_reserved":false,"is_disabled":false,"rental_uris":{"android":"levelo://app?vid=63071938-a9c0-45b7-9e9e-7e084c140631","ios":"levelo://app?vid=63071938-a9c0-45b7-9e9e-7e084c140631"},"vehicle_type_id":"4","last_reported":1702555998,"current_range_meters":28400,"station_id":"","pricing_plan_id":"free"},{"bike_id":"8d59b4a2-375c-47b0-9223-fe379996fadf","system_id":"levelo_inurba_marseille","lat":43.306412,"lon":5.401035,"is_reserved":false,"is_disabled":false,"rental_uris":{"android":"levelo://app?vid=8d59b4a2-375c-47b0-9223-fe379996fadf","ios":"levelo://app?vid=8d59b4a2-375c-47b0-9223-fe379996fadf"},"vehicle_type_id":"4","last_reported":1702555998,"current_range_meters":5200,"station_id":"ce4bh112rcd13ifvqda0","pricing_plan_id":"free"},{"bike_id":"1d253392-bc9c-44bb-9106-e7a3d0925877","system_id":"levelo_inurba_marseille","lat":43.301117,"lon":5.398795,"is_reserved":false,"is_disabled":false,"rental_uris":{"android":"levelo://app?vid=1d253392-bc9c-44bb-9106-e7a3d0925877","ios":"levelo://app?vid=1d253392-bc9c-44bb-9106-e7a3d0925877"},"vehicle_type_id":"4","last_reported":1702555998,"current_range_meters":11600,"station_id":"ce4bh0h2rcd13ifvqd40","pricing_plan_id":"free"},{"bike_id":"84743e5c-417f-4b4b-b5ea-5c98fca15d1a","system_id":"levelo_inurba_marseille","lat":43.286593,"lon":5.363346,"is_reserved":false,"is_disabled":false,"rental_uris":{"android":"levelo://app?vid=84743e5c-417f-4b4b-b5ea-5c98fca15d1a","ios":"levelo://app?vid=84743e5c-417f-4b4b-b5ea-5c98fca15d1a"},"vehicle_type_id":"4","last_reported":1702555998,"current_range_meters":13200,"station_id":"ce4bhah2rcd13ifvqej0","pricing_plan_id":"free"},{"bike_id":"97c8ea3f-a86e-4c54-a574-f18e71d0f1ec","system_id":"levelo_inurba_marseille","lat":43.295196,"lon":5.39397,"is_reserved":false,"is_disabled":false,"rental_uris":{"android":"levelo://app?vid=97c8ea3f-a86e-4c54-a574-f18e71d0f1ec","ios":"levelo://app?vid=97c8ea3f-a86e-4c54-a574-f18e71d0f1ec"},"vehicle_type_id":"4","last_reported":1702555998,"current_range_meters":1200,"station_id":"ce4bh292rcd13ifvqdf0","pricing_plan_id":"free"},{"bike_id":"32b2c5e7-4732-44c3-b5ee-d4941b28480c","system_id":"levelo_inurba_marseille","lat":43.31688,"lon":5.40472,"is_reserved":false,"is_disabled":false,"rental_uris":{"android":"levelo://app?vid=32b2c5e7-4732-44c3-b5ee-d4941b28480c","ios":"levelo://app?vid=32b2c5e7-4732-44c3-b5ee-d4941b28480c"},"vehicle_type_id":"4","last_reported":1702555998,"current_range_meters":6000,"station_id":"ce4bh012rcd13ifvqd00","pricing_plan_id":"free"},{"bike_id":"2cbaee90-3a27-4e7f-b985-0d7b8c2ca0c0","system_id":"levelo_inurba_marseille","lat":43.31685,"lon":5.40474,"is_reserved":false,"is_disabled":false,"rental_uris":{"android":"levelo://app?vid=2cbaee90-3a27-4e7f-b985-0d7b8c2ca0c0","ios":"levelo://app?vid=2cbaee90-3a27-4e7f-b985-0d7b8c2ca0c0"},"vehicle_type_id":"4","last_reported":1702555998,"current_range_meters":20800,"station_id":"ce4bh012rcd13ifvqd00","pricing_plan_id":"free"},{"bike_id":"2e561e80-6259-4368-86e7-4f23807a139a","system_id":"levelo_inurba_marseille","lat":43.31686,"lon":5.40474,"is_reserved":false,"is_disabled":false,"rental_uris":{"android":"levelo://app?vid=2e561e80-6259-4368-86e7-4f23807a139a","ios":"levelo://app?vid=2e561e80-6259-4368-86e7-4f23807a139a"},"vehicle_type_id":"4","last_reported":1702555998,"current_range_meters":14400,"station_id":"ce4bh012rcd13ifvqd00","pricing_plan_id":"free"},{"bike_id":"081b113f-7f9a-4a5e-be81-fca48518f3ae","system_id":"levelo_inurba_marseille","lat":43.291994,"lon":5.392907,"is_reserved":false,"is_disabled":false,"rental_uris":{"android":"levelo://app?vid=081b113f-7f9a-4a5e-be81-fca48518f3ae","ios":"levelo://app?vid=081b113f-7f9a-4a5e-be81-fca48518f3ae"},"vehicle_type_id":"4","last_reported":1702555998,"current_range_meters":5200,"station_id":"ce4bh192rcd13ifvqdd0","pricing_plan_id":"free"},{"bike_id":"0d81b149-71c5-4793-837f-bd14e692c75e","system_id":"levelo_inurba_marseille","lat":43.291994,"lon":5.392907,"is_reserved":false,"is_disabled":false,"rental_uris":{"android":"levelo://app?vid=0d81b149-71c5-4793-837f-bd14e692c75e","ios":"levelo://app?vid=0d81b149-71c5-4793-837f-bd14e692c75e"},"vehicle_type_id":"4","last_reported":1702555998,"current_range_meters":5600,"station_id":"ce4bh192rcd13ifvqdd0","pricing_plan_id":"free"},{"bike_id":"9f83e53b-dd86-47f2-9569-ca4eb3ecc427","system_id":"levelo_inurba_marseille","lat":43.284534,"lon":5.358662,"is_reserved":false,"is_disabled":false,"rental_uris":{"android":"levelo://app?vid=9f83e53b-dd86-47f2-9569-ca4eb3ecc427","ios":"levelo://app?vid=9f83e53b-dd86-47f2-9569-ca4eb3ecc427"},"vehicle_type_id":"4","last_reported":1702555998,"current_range_meters":28800,"station_id":"ce4bhah2rcd13ifvqei0","pricing_plan_id":"free"},{"bike_id":"bbb00f67-cf65-4f13-9f01-e2aee0844f8e","system_id":"levelo_inurba_marseille","lat":43.28612,"lon":5.35101,"is_reserved":false,"is_disabled":false,"rental_uris":{"android":"levelo://app?vid=bbb00f67-cf65-4f13-9f01-e2aee0844f8e","ios":"levelo://app?vid=bbb00f67-cf65-4f13-9f01-e2aee0844f8e"},"vehicle_type_id":"4","last_reported":1702555998,"current_range_meters":0,"station_id":"ce4bhch2rcd13ifvqeug","pricing_plan_id":"free"},{"bike_id":"9a1eb0ca-e1ac-4397-8201-d65c39696e1e","system_id":"levelo_inurba_marseille","lat":43.283998,"lon":5.375062,"is_reserved":false,"is_disabled":false,"rental_uris":{"android":"levelo://app?vid=9a1eb0ca-e1ac-4397-8201-d65c39696e1e","ios":"levelo://app?vid=9a1eb0ca-e1ac-4397-8201-d65c39696e1e"},"vehicle_type_id":"4","last_reported":1702555998,"current_range_meters":16000,"station_id":"ce4bh412rcd13ifvqds0","pricing_plan_id":"free"},{"bike_id":"2c92f10e-fa6e-4ddb-9530-d6f90043c9b5","system_id":"levelo_inurba_marseille","lat":43.33717,"lon":5.391857,"is_reserved":false,"is_disabled":false,"rental_uris":{"android":"levelo://app?vid=2c92f10e-fa6e-4ddb-9530-d6f90043c9b5","ios":"levelo://app?vid=2c92f10e-fa6e-4ddb-9530-d6f90043c9b5"},"vehicle_type_id":"4","last_reported":1702555998,"current_range_meters":28800,"station_id":"ce4bhr92rcd13ifvqhsg","pricing_plan_id":"free"},{"bike_id":"8c7aa787-c4a9-4f9f-bd00-fe13f0c0619c","system_id":"levelo_inurba_marseille","lat":43.283498,"lon":5.380948,"is_reserved":false,"is_disabled":false,"rental_uris":{"android":"levelo://app?vid=8c7aa787-c4a9-4f9f-bd00-fe13f0c0619c","ios":"levelo://app?vid=8c7aa787-c4a9-4f9f-bd00-fe13f0c0619c"},"vehicle_type_id":"4","last_reported":1702555998,"current_range_meters":21200,"station_id":"ce4bh412rcd13ifvqdr0","pricing_plan_id":"free"},{"bike_id":"91cd5c30-d67c-441a-bae1-35ff9c05725c","system_id":"levelo_inurba_marseille","lat":43.284217,"lon":5.349697,"is_reserved":false,"is_disabled":false,"rental_uris":{"android":"levelo://app?vid=91cd5c30-d67c-441a-bae1-35ff9c05725c","ios":"levelo://app?vid=91cd5c30-d67c-441a-bae1-35ff9c05725c"},"vehicle_type_id":"4","last_reported":1702555998,"current_range_meters":28000,"station_id":"ce4bhbh2rcd13ifvqepg","pricing_plan_id":"free"},{"bike_id":"c521b326-7220-4744-9cfe-10786562477d","system_id":"levelo_inurba_marseille","lat":43.289363,"lon":5.396322,"is_reserved":false,"is_disabled":false,"rental_uris":{"android":"levelo://app?vid=c521b326-7220-4744-9cfe-10786562477d","ios":"levelo://app?vid=c521b326-7220-4744-9cfe-10786562477d"},"vehicle_type_id":"4","last_reported":1702555998,"current_range_meters":14000,"station_id":"ce4bh3h2rcd13ifvqdn0","pricing_plan_id":"free"},{"bike_id":"df844221-b292-4a95-94ad-eee22defc80d","system_id":"levelo_inurba_marseille","lat":43.296263,"lon":5.40601,"is_reserved":false,"is_disabled":false,"rental_uris":{"android":"levelo://app?vid=df844221-b292-4a95-94ad-eee22defc80d","ios":"levelo://app?vid=df844221-b292-4a95-94ad-eee22defc80d"},"vehicle_type_id":"4","last_reported":1702555998,"current_range_meters":20800,"station_id":"ce4bh0h2rcd13ifvqd60","pricing_plan_id":"free"},{"bike_id":"5a0c4afe-ce9b-4ecf-8381-920cf2cc9108","system_id":"levelo_inurba_marseille","lat":43.28573,"lon":5.394992,"is_reserved":false,"is_disabled":false,"rental_uris":{"android":"levelo://app?vid=5a0c4afe-ce9b-4ecf-8381-920cf2cc9108","ios":"levelo://app?vid=5a0c4afe-ce9b-4ecf-8381-920cf2cc9108"},"vehicle_type_id":"4","last_reported":1702555998,"current_range_meters":400,"station_id":"ce4bh292rcd13ifvqdg0","pricing_plan_id":"free"},{"bike_id":"0e3d0c1a-28c3-462e-9270-34f9052dcc56","system_id":"levelo_inurba_marseille","lat":43.287154,"lon":5.399979,"is_reserved":false,"is_disabled":false,"rental_uris":{"android":"levelo://app?vid=0e3d0c1a-28c3-462e-9270-34f9052dcc56","ios":"levelo://app?vid=0e3d0c1a-28c3-462e-9270-34f9052dcc56"},"vehicle_type_id":"4","last_reported":1702555998,"current_range_meters":2400,"station_id":"ce4bho92rcd13ifvqh3g","pricing_plan_id":"free"},{"bike_id":"f70dc034-e665-4d18-b203-05ebcd23a344","system_id":"levelo_inurba_marseille","lat":43.287154,"lon":5.399979,"is_reserved":false,"is_disabled":false,"rental_uris":{"android":"levelo://app?vid=f70dc034-e665-4d18-b203-05ebcd23a344","ios":"levelo://app?vid=f70dc034-e665-4d18-b203-05ebcd23a344"},"vehicle_type_id":"4","last_reported":1702555998,"current_range_meters":29600,"station_id":"ce4bho92rcd13ifvqh3g","pricing_plan_id":"free"},{"bike_id":"c2ddc221-5721-44c0-a218-34066a0cef5e","system_id":"levelo_inurba_marseille","lat":43.2798,"lon":5.38745,"is_reserved":false,"is_disabled":false,"rental_uris":{"android":"levelo://app?vid=c2ddc221-5721-44c0-a218-34066a0cef5e","ios":"levelo://app?vid=c2ddc221-5721-44c0-a218-34066a0cef5e"},"vehicle_type_id":"4","last_reported":1702555998,"current_range_meters":5200,"station_id":"","pricing_plan_id":"free"},{"bike_id":"b2952f69-9c65-4a8b-8b11-36225000d2c1","system_id":"levelo_inurba_marseille","lat":43.279742,"lon":5.38744,"is_reserved":false,"is_disabled":false,"rental_uris":{"android":"levelo://app?vid=b2952f69-9c65-4a8b-8b11-36225000d2c1","ios":"levelo://app?vid=b2952f69-9c65-4a8b-8b11-36225000d2c1"},"vehicle_type_id":"4","last_reported":1702555998,"current_range_meters":0,"station_id":"ce4bhg12rcd13ifvqf80","pricing_plan_id":"free"},{"bike_id":"65d78932-291f-425b-a703-fb03cf9731ef","system_id":"levelo_inurba_marseille","lat":43.279742,"lon":5.38744,"is_reserved":false,"is_disabled":false,"rental_uris":{"android":"levelo://app?vid=65d78932-291f-425b-a703-fb03cf9731ef","ios":"levelo://app?vid=65d78932-291f-425b-a703-fb03cf9731ef"},"vehicle_type_id":"4","last_reported":1702555998,"current_range_meters":28000,"station_id":"ce4bhg12rcd13ifvqf80","pricing_plan_id":"free"},{"bike_id":"9a125995-9b1e-4ec5-a1ae-fec8b0e288cf","system_id":"levelo_inurba_marseille","lat":43.292571,"lon":5.409107,"is_reserved":false,"is_disabled":false,"rental_uris":{"android":"levelo://app?vid=9a125995-9b1e-4ec5-a1ae-fec8b0e288cf","ios":"levelo://app?vid=9a125995-9b1e-4ec5-a1ae-fec8b0e288cf"},"vehicle_type_id":"4","last_reported":1702555998,"current_range_meters":21600,"station_id":"ce4bh192rcd13ifvqdc0","pricing_plan_id":"free"},{"bike_id":"459764d2-fd4c-42e5-add5-8d793922db64","system_id":"levelo_inurba_marseille","lat":43.325243,"lon":5.414326,"is_reserved":false,"is_disabled":false,"rental_uris":{"android":"levelo://app?vid=459764d2-fd4c-42e5-add5-8d793922db64","ios":"levelo://app?vid=459764d2-fd4c-42e5-add5-8d793922db64"},"vehicle_type_id":"4","last_reported":1702555998,"current_range_meters":12400,"station_id":"ce4bhq12rcd13ifvqhhg","pricing_plan_id":"free"},{"bike_id":"1fd0d8b5-4bc5-491e-8e45-0b199cefe83c","system_id":"levelo_inurba_marseille","lat":43.325233,"lon":5.414318,"is_reserved":false,"is_disabled":false,"rental_uris":{"android":"levelo://app?vid=1fd0d8b5-4bc5-491e-8e45-0b199cefe83c","ios":"levelo://app?vid=1fd0d8b5-4bc5-491e-8e45-0b199cefe83c"},"vehicle_type_id":"4","last_reported":1702555998,"current_range_meters":18000,"station_id":"ce4bhq12rcd13ifvqhhg","pricing_plan_id":"free"},{"bike_id":"44d93f86-6321-4de3-bbc1-780bc3cf4cb8","system_id":"levelo_inurba_marseille","lat":43.325233,"lon":5.414318,"is_reserved":false,"is_disabled":false,"rental_uris":{"android":"levelo://app?vid=44d93f86-6321-4de3-bbc1-780bc3cf4cb8","ios":"levelo://app?vid=44d93f86-6321-4de3-bbc1-780bc3cf4cb8"},"vehicle_type_id":"4","last_reported":1702555998,"current_range_meters":26000,"station_id":"ce4bhq12rcd13ifvqhhg","pricing_plan_id":"free"},{"bike_id":"5a84a1cc-f653-4727-abfd-3cd7e1c33f70","system_id":"levelo_inurba_marseille","lat":43.280784,"lon":5.396622,"is_reserved":false,"is_disabled":false,"rental_uris":{"android":"levelo://app?vid=5a84a1cc-f653-4727-abfd-3cd7e1c33f70","ios":"levelo://app?vid=5a84a1cc-f653-4727-abfd-3cd7e1c33f70"},"vehicle_type_id":"4","last_reported":1702555998,"current_range_meters":26400,"station_id":"ce4bho12rcd13ifvqh2g","pricing_plan_id":"free"},{"bike_id":"ccaa59a6-7d99-4a18-9e46-95087d495809","system_id":"levelo_inurba_marseille","lat":43.273613,"lon":5.362705,"is_reserved":false,"is_disabled":false,"rental_uris":{"android":"levelo://app?vid=ccaa59a6-7d99-4a18-9e46-95087d495809","ios":"levelo://app?vid=ccaa59a6-7d99-4a18-9e46-95087d495809"},"vehicle_type_id":"4","last_reported":1702555998,"current_range_meters":22800,"station_id":"ce4bhbh2rcd13ifvqeo0","pricing_plan_id":"free"},{"bike_id":"c4cfb68b-0ac0-4a8c-b786-f9b41850db55","system_id":"levelo_inurba_marseille","lat":43.273613,"lon":5.362705,"is_reserved":false,"is_disabled":false,"rental_uris":{"android":"levelo://app?vid=c4cfb68b-0ac0-4a8c-b786-f9b41850db55","ios":"levelo://app?vid=c4cfb68b-0ac0-4a8c-b786-f9b41850db55"},"vehicle_type_id":"4","last_reported":1702555998,"current_range_meters":20400,"station_id":"ce4bhbh2rcd13ifvqeo0","pricing_plan_id":"free"},{"bike_id":"9bac72fa-33e0-41b0-985b-43be3d7b69e0","system_id":"levelo_inurba_marseille","lat":43.278399,"lon":5.392139,"is_reserved":false,"is_disabled":false,"rental_uris":{"android":"levelo://app?vid=9bac72fa-33e0-41b0-985b-43be3d7b69e0","ios":"levelo://app?vid=9bac72fa-33e0-41b0-985b-43be3d7b69e0"},"vehicle_type_id":"4","last_reported":1702555998,"current_range_meters":4400,"station_id":"ce4bhjp2rcd13ifvqga0","pricing_plan_id":"free"},{"bike_id":"8e838614-7153-460b-99f5-ff9e1a9ca04d","system_id":"levelo_inurba_marseille","lat":43.336134,"lon":5.410341,"is_reserved":false,"is_disabled":false,"rental_uris":{"android":"levelo://app?vid=8e838614-7153-460b-99f5-ff9e1a9ca04d","ios":"levelo://app?vid=8e838614-7153-460b-99f5-ff9e1a9ca04d"},"vehicle_type_id":"4","last_reported":1702555998,"current_range_meters":2000,"station_id":"ce4bhqh2rcd13ifvqhmg","pricing_plan_id":"free"},{"bike_id":"db787655-e66d-4eaf-95db-cf136bf09411","system_id":"levelo_inurba_marseille","lat":43.275625,"lon":5.384392,"is_reserved":false,"is_disabled":false,"rental_uris":{"android":"levelo://app?vid=db787655-e66d-4eaf-95db-cf136bf09411","ios":"levelo://app?vid=db787655-e66d-4eaf-95db-cf136bf09411"},"vehicle_type_id":"4","last_reported":1702555998,"current_range_meters":19200,"station_id":"ce4bhh92rcd13ifvqfi0","pricing_plan_id":"free"},{"bike_id":"55f8cf7b-a384-4860-b1f5-075034029351","system_id":"levelo_inurba_marseille","lat":43.31715,"lon":5.42399,"is_reserved":false,"is_disabled":false,"rental_uris":{"android":"levelo://app?vid=55f8cf7b-a384-4860-b1f5-075034029351","ios":"levelo://app?vid=55f8cf7b-a384-4860-b1f5-075034029351"},"vehicle_type_id":"4","last_reported":1702555998,"current_range_meters":21200,"station_id":"ce4bhp92rcd13ifvqhbg","pricing_plan_id":"free"},{"bike_id":"ac2c58ee-191e-4bb0-956f-1c831f336570","system_id":"levelo_inurba_marseille","lat":43.340804,"lon":5.410219,"is_reserved":false,"is_disabled":false,"rental_uris":{"android":"levelo://app?vid=ac2c58ee-191e-4bb0-956f-1c831f336570","ios":"levelo://app?vid=ac2c58ee-191e-4bb0-956f-1c831f336570"},"vehicle_type_id":"4","last_reported":1702555998,"current_range_meters":18000,"station_id":"ce4bhqh2rcd13ifvqhlg","pricing_plan_id":"free"},{"bike_id":"3ca2c2d2-99b0-4aa6-a05d-e30f02e6a7fb","system_id":"levelo_inurba_marseille","lat":43.276092,"lon":5.395289,"is_reserved":false,"is_disabled":false,"rental_uris":{"android":"levelo://app?vid=3ca2c2d2-99b0-4aa6-a05d-e30f02e6a7fb","ios":"levelo://app?vid=3ca2c2d2-99b0-4aa6-a05d-e30f02e6a7fb"},"vehicle_type_id":"4","last_reported":1702555998,"current_range_meters":30400,"station_id":"","pricing_plan_id":"free"},{"bike_id":"3282a339-a51b-46a3-8290-6af827fa1d57","system_id":"levelo_inurba_marseille","lat":43.272124,"lon":5.391768,"is_reserved":false,"is_disabled":false,"rental_uris":{"android":"levelo://app?vid=3282a339-a51b-46a3-8290-6af827fa1d57","ios":"levelo://app?vid=3282a339-a51b-46a3-8290-6af827fa1d57"},"vehicle_type_id":"4","last_reported":1702555998,"current_range_meters":1200,"station_id":"ce4bhhp2rcd13ifvqfm0","pricing_plan_id":"free"},{"bike_id":"06d62dd1-a1e1-4f6a-a50c-c3a307e663ec","system_id":"levelo_inurba_marseille","lat":43.269467,"lon":5.386439,"is_reserved":false,"is_disabled":false,"rental_uris":{"android":"levelo://app?vid=06d62dd1-a1e1-4f6a-a50c-c3a307e663ec","ios":"levelo://app?vid=06d62dd1-a1e1-4f6a-a50c-c3a307e663ec"},"vehicle_type_id":"4","last_reported":1702555998,"current_range_meters":4000,"station_id":"ce4bhh92rcd13ifvqfh0","pricing_plan_id":"free"},{"bike_id":"b7ac324f-7b79-4bef-b273-3c968d476083","system_id":"levelo_inurba_marseille","lat":43.269467,"lon":5.386439,"is_reserved":false,"is_disabled":false,"rental_uris":{"android":"levelo://app?vid=b7ac324f-7b79-4bef-b273-3c968d476083","ios":"levelo://app?vid=b7ac324f-7b79-4bef-b273-3c968d476083"},"vehicle_type_id":"4","last_reported":1702555998,"current_range_meters":10000,"station_id":"ce4bhh92rcd13ifvqfh0","pricing_plan_id":"free"},{"bike_id":"1267b9d0-1eca-47d9-920a-85f355fd9fc1","system_id":"levelo_inurba_marseille","lat":43.279465,"lon":5.410561,"is_reserved":false,"is_disabled":false,"rental_uris":{"android":"levelo://app?vid=1267b9d0-1eca-47d9-920a-85f355fd9fc1","ios":"levelo://app?vid=1267b9d0-1eca-47d9-920a-85f355fd9fc1"},"vehicle_type_id":"4","last_reported":1702555998,"current_range_meters":10800,"station_id":"ce4bhnp2rcd13ifvqh0g","pricing_plan_id":"free"},{"bike_id":"c8801110-9dee-4ba1-9569-eef1267df78d","system_id":"levelo_inurba_marseille","lat":43.279465,"lon":5.410561,"is_reserved":false,"is_disabled":false,"rental_uris":{"android":"levelo://app?vid=c8801110-9dee-4ba1-9569-eef1267df78d","ios":"levelo://app?vid=c8801110-9dee-4ba1-9569-eef1267df78d"},"vehicle_type_id":"4","last_reported":1702555998,"current_range_meters":21600,"station_id":"ce4bhnp2rcd13ifvqh0g","pricing_plan_id":"free"},{"bike_id":"f7ba1bd1-0b64-4579-812f-07ee12780698","system_id":"levelo_inurba_marseille","lat":43.26554,"lon":5.37282,"is_reserved":false,"is_disabled":false,"rental_uris":{"android":"levelo://app?vid=f7ba1bd1-0b64-4579-812f-07ee12780698","ios":"levelo://app?vid=f7ba1bd1-0b64-4579-812f-07ee12780698"},"vehicle_type_id":"4","last_reported":1702555998,"current_range_meters":3600,"station_id":"ce4bhg12rcd13ifvqf70","pricing_plan_id":"free"},{"bike_id":"ae6278bf-716a-4e19-9821-fac4483e8758","system_id":"levelo_inurba_marseille","lat":43.27996,"lon":5.416624,"is_reserved":false,"is_disabled":false,"rental_uris":{"android":"levelo://app?vid=ae6278bf-716a-4e19-9821-fac4483e8758","ios":"levelo://app?vid=ae6278bf-716a-4e19-9821-fac4483e8758"},"vehicle_type_id":"4","last_reported":1702555998,"current_range_meters":25600,"station_id":"ce4bho12rcd13ifvqh1g","pricing_plan_id":"free"},{"bike_id":"a3113d1f-a910-4733-9bd9-e6d103965cad","system_id":"levelo_inurba_marseille","lat":43.265569,"lon":5.390047,"is_reserved":false,"is_disabled":false,"rental_uris":{"android":"levelo://app?vid=a3113d1f-a910-4733-9bd9-e6d103965cad","ios":"levelo://app?vid=a3113d1f-a910-4733-9bd9-e6d103965cad"},"vehicle_type_id":"4","last_reported":1702555998,"current_range_meters":24400,"station_id":"ce4bhe12rcd13ifvqf30","pricing_plan_id":"free"},{"bike_id":"5c9c9494-3d62-420d-a717-39dc43e7e161","system_id":"levelo_inurba_marseille","lat":43.26941,"lon":5.40247,"is_reserved":false,"is_disabled":false,"rental_uris":{"android":"levelo://app?vid=5c9c9494-3d62-420d-a717-39dc43e7e161","ios":"levelo://app?vid=5c9c9494-3d62-420d-a717-39dc43e7e161"},"vehicle_type_id":"4","last_reported":1702555998,"current_range_meters":0,"station_id":"cjm6bp8fraef2m0cb0m0","pricing_plan_id":"free"},{"bike_id":"1fe4e537-38e9-419b-b86c-24f712d804c6","system_id":"levelo_inurba_marseille","lat":43.261782,"lon":5.374515,"is_reserved":false,"is_disabled":false,"rental_uris":{"android":"levelo://app?vid=1fe4e537-38e9-419b-b86c-24f712d804c6","ios":"levelo://app?vid=1fe4e537-38e9-419b-b86c-24f712d804c6"},"vehicle_type_id":"4","last_reported":1702555998,"current_range_meters":13600,"station_id":"ce4bhgp2rcd13ifvqfc0","pricing_plan_id":"free"},{"bike_id":"53093914-eb2c-462a-82f7-e1b5e65eb7ca","system_id":"levelo_inurba_marseille","lat":43.261782,"lon":5.374515,"is_reserved":false,"is_disabled":false,"rental_uris":{"android":"levelo://app?vid=53093914-eb2c-462a-82f7-e1b5e65eb7ca","ios":"levelo://app?vid=53093914-eb2c-462a-82f7-e1b5e65eb7ca"},"vehicle_type_id":"4","last_reported":1702555998,"current_range_meters":14000,"station_id":"ce4bhgp2rcd13ifvqfc0","pricing_plan_id":"free"},{"bike_id":"2a9b5c26-716b-49ad-a0d0-742f445ef661","system_id":"levelo_inurba_marseille","lat":43.262012,"lon":5.379307,"is_reserved":false,"is_disabled":false,"rental_uris":{"android":"levelo://app?vid=2a9b5c26-716b-49ad-a0d0-742f445ef661","ios":"levelo://app?vid=2a9b5c26-716b-49ad-a0d0-742f445ef661"},"vehicle_type_id":"4","last_reported":1702555998,"current_range_meters":27200,"station_id":"ce4bhjp2rcd13ifvqg90","pricing_plan_id":"free"},{"bike_id":"96dd960e-9e5f-4ba8-a693-12d87ec3b4a9","system_id":"levelo_inurba_marseille","lat":43.271388,"lon":5.409269,"is_reserved":false,"is_disabled":false,"rental_uris":{"android":"levelo://app?vid=96dd960e-9e5f-4ba8-a693-12d87ec3b4a9","ios":"levelo://app?vid=96dd960e-9e5f-4ba8-a693-12d87ec3b4a9"},"vehicle_type_id":"4","last_reported":1702555998,"current_range_meters":31200,"station_id":"ce4bhl12rcd13ifvqgf0","pricing_plan_id":"free"},{"bike_id":"293b0fd3-65b1-42bb-807b-a77a51ee2260","system_id":"levelo_inurba_marseille","lat":43.271388,"lon":5.409269,"is_reserved":false,"is_disabled":false,"rental_uris":{"android":"levelo://app?vid=293b0fd3-65b1-42bb-807b-a77a51ee2260","ios":"levelo://app?vid=293b0fd3-65b1-42bb-807b-a77a51ee2260"},"vehicle_type_id":"4","last_reported":1702555998,"current_range_meters":30000,"station_id":"ce4bhl12rcd13ifvqgf0","pricing_plan_id":"free"},{"bike_id":"d1d32a8f-6061-42f8-beac-ce290461e74b","system_id":"levelo_inurba_marseille","lat":43.271368,"lon":5.40928,"is_reserved":false,"is_disabled":false,"rental_uris":{"android":"levelo://app?vid=d1d32a8f-6061-42f8-beac-ce290461e74b","ios":"levelo://app?vid=d1d32a8f-6061-42f8-beac-ce290461e74b"},"vehicle_type_id":"4","last_reported":1702555998,"current_range_meters":26800,"station_id":"ce4bhl12rcd13ifvqgf0","pricing_plan_id":"free"},{"bike_id":"7d5f7346-2fb8-4a87-8aa5-074b5a79ac77","system_id":"levelo_inurba_marseille","lat":43.271368,"lon":5.40928,"is_reserved":false,"is_disabled":false,"rental_uris":{"android":"levelo://app?vid=7d5f7346-2fb8-4a87-8aa5-074b5a79ac77","ios":"levelo://app?vid=7d5f7346-2fb8-4a87-8aa5-074b5a79ac77"},"vehicle_type_id":"4","last_reported":1702555998,"current_range_meters":29200,"station_id":"ce4bhl12rcd13ifvqgf0","pricing_plan_id":"free"},{"bike_id":"c1a8efc5-2e3d-49d0-904c-c79a29112631","system_id":"levelo_inurba_marseille","lat":43.26202,"lon":5.379299,"is_reserved":false,"is_disabled":false,"rental_uris":{"android":"levelo://app?vid=c1a8efc5-2e3d-49d0-904c-c79a29112631","ios":"levelo://app?vid=c1a8efc5-2e3d-49d0-904c-c79a29112631"},"vehicle_type_id":"4","last_reported":1702555998,"current_range_meters":31600,"station_id":"ce4bhjp2rcd13ifvqg90","pricing_plan_id":"free"},{"bike_id":"ae6f9245-5cb7-449d-b038-f2de69599c57","system_id":"levelo_inurba_marseille","lat":43.26202,"lon":5.379299,"is_reserved":false,"is_disabled":false,"rental_uris":{"android":"levelo://app?vid=ae6f9245-5cb7-449d-b038-f2de69599c57","ios":"levelo://app?vid=ae6f9245-5cb7-449d-b038-f2de69599c57"},"vehicle_type_id":"4","last_reported":1702555998,"current_range_meters":21200,"station_id":"ce4bhjp2rcd13ifvqg90","pricing_plan_id":"free"},{"bike_id":"4d378f67-a94d-4eeb-b3c0-00defc805997","system_id":"levelo_inurba_marseille","lat":43.267959,"lon":5.402685,"is_reserved":false,"is_disabled":false,"rental_uris":{"android":"levelo://app?vid=4d378f67-a94d-4eeb-b3c0-00defc805997","ios":"levelo://app?vid=4d378f67-a94d-4eeb-b3c0-00defc805997"},"vehicle_type_id":"4","last_reported":1702555998,"current_range_meters":26000,"station_id":"ce501612rcd8frsf0b60","pricing_plan_id":"free"},{"bike_id":"81a6f7c7-e876-4da9-9acc-cd51e761bff2","system_id":"levelo_inurba_marseille","lat":43.267959,"lon":5.402687,"is_reserved":false,"is_disabled":false,"rental_uris":{"android":"levelo://app?vid=81a6f7c7-e876-4da9-9acc-cd51e761bff2","ios":"levelo://app?vid=81a6f7c7-e876-4da9-9acc-cd51e761bff2"},"vehicle_type_id":"4","last_reported":1702555998,"current_range_meters":24400,"station_id":"ce501612rcd8frsf0b60","pricing_plan_id":"free"},{"bike_id":"96ba9d10-482b-4b54-ba33-7a67558f4e06","system_id":"levelo_inurba_marseille","lat":43.264991,"lon":5.395367,"is_reserved":false,"is_disabled":false,"rental_uris":{"android":"levelo://app?vid=96ba9d10-482b-4b54-ba33-7a67558f4e06","ios":"levelo://app?vid=96ba9d10-482b-4b54-ba33-7a67558f4e06"},"vehicle_type_id":"4","last_reported":1702555998,"current_range_meters":14800,"station_id":"","pricing_plan_id":"free"},{"bike_id":"38a4a3ac-b01c-43e0-abb4-5a012521fc8c","system_id":"levelo_inurba_marseille","lat":43.298768,"lon":5.43643,"is_reserved":false,"is_disabled":false,"rental_uris":{"android":"levelo://app?vid=38a4a3ac-b01c-43e0-abb4-5a012521fc8c","ios":"levelo://app?vid=38a4a3ac-b01c-43e0-abb4-5a012521fc8c"},"vehicle_type_id":"4","last_reported":1702555998,"current_range_meters":30400,"station_id":"ce4bhpp2rcd13ifvqhfg","pricing_plan_id":"free"},{"bike_id":"77b2a286-354b-40cc-be5e-9ae26145de61","system_id":"levelo_inurba_marseille","lat":43.28153,"lon":5.42647,"is_reserved":false,"is_disabled":false,"rental_uris":{"android":"levelo://app?vid=77b2a286-354b-40cc-be5e-9ae26145de61","ios":"levelo://app?vid=77b2a286-354b-40cc-be5e-9ae26145de61"},"vehicle_type_id":"4","last_reported":1702555998,"current_range_meters":22800,"station_id":"ce4bhnh2rcd13ifvqgug","pricing_plan_id":"free"},{"bike_id":"6c291e9b-d89d-44c2-a954-65d77e5af433","system_id":"levelo_inurba_marseille","lat":43.281548,"lon":5.42643,"is_reserved":false,"is_disabled":false,"rental_uris":{"android":"levelo://app?vid=6c291e9b-d89d-44c2-a954-65d77e5af433","ios":"levelo://app?vid=6c291e9b-d89d-44c2-a954-65d77e5af433"},"vehicle_type_id":"4","last_reported":1702555998,"current_range_meters":30800,"station_id":"ce4bhnh2rcd13ifvqgug","pricing_plan_id":"free"},{"bike_id":"ecf01aad-11c2-411e-91d2-0e6db3600a9b","system_id":"levelo_inurba_marseille","lat":43.25821,"lon":5.39435,"is_reserved":false,"is_disabled":false,"rental_uris":{"android":"levelo://app?vid=ecf01aad-11c2-411e-91d2-0e6db3600a9b","ios":"levelo://app?vid=ecf01aad-11c2-411e-91d2-0e6db3600a9b"},"vehicle_type_id":"4","last_reported":1702555998,"current_range_meters":13600,"station_id":"ce4bhip2rcd13ifvqft0","pricing_plan_id":"free"},{"bike_id":"dcd474fc-fa65-466b-8d04-28e140a15b36","system_id":"levelo_inurba_marseille","lat":43.258658,"lon":5.398935,"is_reserved":false,"is_disabled":false,"rental_uris":{"android":"levelo://app?vid=dcd474fc-fa65-466b-8d04-28e140a15b36","ios":"levelo://app?vid=dcd474fc-fa65-466b-8d04-28e140a15b36"},"vehicle_type_id":"4","last_reported":1702555998,"current_range_meters":28400,"station_id":"ce4bhl92rcd13ifvqghg","pricing_plan_id":"free"},{"bike_id":"b56296a6-c132-4f69-bfed-86e5c711a1c1","system_id":"levelo_inurba_marseille","lat":43.258658,"lon":5.398935,"is_reserved":false,"is_disabled":false,"rental_uris":{"android":"levelo://app?vid=b56296a6-c132-4f69-bfed-86e5c711a1c1","ios":"levelo://app?vid=b56296a6-c132-4f69-bfed-86e5c711a1c1"},"vehicle_type_id":"4","last_reported":1702555998,"current_range_meters":1600,"station_id":"ce4bhl92rcd13ifvqghg","pricing_plan_id":"free"},{"bike_id":"3c847056-2e72-49a6-a67b-46501b320c09","system_id":"levelo_inurba_marseille","lat":43.250009,"lon":5.389195,"is_reserved":false,"is_disabled":false,"rental_uris":{"android":"levelo://app?vid=3c847056-2e72-49a6-a67b-46501b320c09","ios":"levelo://app?vid=3c847056-2e72-49a6-a67b-46501b320c09"},"vehicle_type_id":"4","last_reported":1702555998,"current_range_meters":21200,"station_id":"ce4bhgp2rcd13ifvqfd0","pricing_plan_id":"free"},{"bike_id":"9e26352a-23fd-49f3-8864-54f8c14248a4","system_id":"levelo_inurba_marseille","lat":43.250023,"lon":5.38919,"is_reserved":false,"is_disabled":false,"rental_uris":{"android":"levelo://app?vid=9e26352a-23fd-49f3-8864-54f8c14248a4","ios":"levelo://app?vid=9e26352a-23fd-49f3-8864-54f8c14248a4"},"vehicle_type_id":"4","last_reported":1702555998,"current_range_meters":13200,"station_id":"ce4bhgp2rcd13ifvqfd0","pricing_plan_id":"free"},{"bike_id":"19d9b9ef-2dd2-43fc-931d-065a383ff580","system_id":"levelo_inurba_marseille","lat":43.250023,"lon":5.38919,"is_reserved":false,"is_disabled":false,"rental_uris":{"android":"levelo://app?vid=19d9b9ef-2dd2-43fc-931d-065a383ff580","ios":"levelo://app?vid=19d9b9ef-2dd2-43fc-931d-065a383ff580"},"vehicle_type_id":"4","last_reported":1702555998,"current_range_meters":29600,"station_id":"ce4bhgp2rcd13ifvqfd0","pricing_plan_id":"free"},{"bike_id":"5df306f0-6c4c-4d4f-a5df-785fbc76a77f","system_id":"levelo_inurba_marseille","lat":43.250023,"lon":5.38919,"is_reserved":false,"is_disabled":false,"rental_uris":{"android":"levelo://app?vid=5df306f0-6c4c-4d4f-a5df-785fbc76a77f","ios":"levelo://app?vid=5df306f0-6c4c-4d4f-a5df-785fbc76a77f"},"vehicle_type_id":"4","last_reported":1702555998,"current_range_meters":30000,"station_id":"ce4bhgp2rcd13ifvqfd0","pricing_plan_id":"free"},{"bike_id":"5301bbb4-6ed7-4d3e-a1c2-7bed95ae2af0","system_id":"levelo_inurba_marseille","lat":43.24804,"lon":5.37457,"is_reserved":false,"is_disabled":false,"rental_uris":{"android":"levelo://app?vid=5301bbb4-6ed7-4d3e-a1c2-7bed95ae2af0","ios":"levelo://app?vid=5301bbb4-6ed7-4d3e-a1c2-7bed95ae2af0"},"vehicle_type_id":"4","last_reported":1702555998,"current_range_meters":0,"station_id":"ce4bhgh2rcd13ifvqfb0","pricing_plan_id":"free"},{"bike_id":"b3778f4b-17a5-414d-a355-5d6709a05873","system_id":"levelo_inurba_marseille","lat":43.2477,"lon":5.38224,"is_reserved":false,"is_disabled":false,"rental_uris":{"android":"levelo://app?vid=b3778f4b-17a5-414d-a355-5d6709a05873","ios":"levelo://app?vid=b3778f4b-17a5-414d-a355-5d6709a05873"},"vehicle_type_id":"4","last_reported":1702555998,"current_range_meters":20800,"station_id":"","pricing_plan_id":"free"},{"bike_id":"6abe2df4-da1f-4e46-a779-fc280ef79d55","system_id":"levelo_inurba_marseille","lat":43.246573,"lon":5.381607,"is_reserved":false,"is_disabled":false,"rental_uris":{"android":"levelo://app?vid=6abe2df4-da1f-4e46-a779-fc280ef79d55","ios":"levelo://app?vid=6abe2df4-da1f-4e46-a779-fc280ef79d55"},"vehicle_type_id":"4","last_reported":1702555998,"current_range_meters":12800,"station_id":"","pricing_plan_id":"free"},{"bike_id":"96d8a474-2244-4bf2-a271-05d8099c0229","system_id":"levelo_inurba_marseille","lat":43.25114,"lon":5.40325,"is_reserved":false,"is_disabled":false,"rental_uris":{"android":"levelo://app?vid=96d8a474-2244-4bf2-a271-05d8099c0229","ios":"levelo://app?vid=96d8a474-2244-4bf2-a271-05d8099c0229"},"vehicle_type_id":"4","last_reported":1702555998,"current_range_meters":25200,"station_id":"ce4bhlh2rcd13ifvqgig","pricing_plan_id":"free"},{"bike_id":"8f96ee91-5f03-4337-964d-728705765026","system_id":"levelo_inurba_marseille","lat":43.2463,"lon":5.381767,"is_reserved":false,"is_disabled":false,"rental_uris":{"android":"levelo://app?vid=8f96ee91-5f03-4337-964d-728705765026","ios":"levelo://app?vid=8f96ee91-5f03-4337-964d-728705765026"},"vehicle_type_id":"4","last_reported":1702555998,"current_range_meters":16000,"station_id":"ce4bhih2rcd13ifvqfr0","pricing_plan_id":"free"},{"bike_id":"99416ee2-4d02-4ca9-9413-f1ebc361a373","system_id":"levelo_inurba_marseille","lat":43.245581,"lon":5.395069,"is_reserved":false,"is_disabled":false,"rental_uris":{"android":"levelo://app?vid=99416ee2-4d02-4ca9-9413-f1ebc361a373","ios":"levelo://app?vid=99416ee2-4d02-4ca9-9413-f1ebc361a373"},"vehicle_type_id":"4","last_reported":1702555998,"current_range_meters":26400,"station_id":"ce4bhlp2rcd13ifvqgjg","pricing_plan_id":"free"},{"bike_id":"ee40f195-e1e3-4db2-86f3-5750704ca69c","system_id":"levelo_inurba_marseille","lat":43.245581,"lon":5.395069,"is_reserved":false,"is_disabled":false,"rental_uris":{"android":"levelo://app?vid=ee40f195-e1e3-4db2-86f3-5750704ca69c","ios":"levelo://app?vid=ee40f195-e1e3-4db2-86f3-5750704ca69c"},"vehicle_type_id":"4","last_reported":1702555998,"current_range_meters":26800,"station_id":"ce4bhlp2rcd13ifvqgjg","pricing_plan_id":"free"},{"bike_id":"3fd9d478-d509-4fd0-ad0b-eb3b24fce254","system_id":"levelo_inurba_marseille","lat":43.2408,"lon":5.3776,"is_reserved":false,"is_disabled":false,"rental_uris":{"android":"levelo://app?vid=3fd9d478-d509-4fd0-ad0b-eb3b24fce254","ios":"levelo://app?vid=3fd9d478-d509-4fd0-ad0b-eb3b24fce254"},"vehicle_type_id":"4","last_reported":1702555998,"current_range_meters":2400,"station_id":"ce4bhnp2rcd13ifvqgvg","pricing_plan_id":"free"},{"bike_id":"db79a0b7-2eb5-4a4f-93cf-70b6122e3cc6","system_id":"levelo_inurba_marseille","lat":43.240623,"lon":5.377642,"is_reserved":false,"is_disabled":false,"rental_uris":{"android":"levelo://app?vid=db79a0b7-2eb5-4a4f-93cf-70b6122e3cc6","ios":"levelo://app?vid=db79a0b7-2eb5-4a4f-93cf-70b6122e3cc6"},"vehicle_type_id":"4","last_reported":1702555998,"current_range_meters":10800,"station_id":"ce4bhnp2rcd13ifvqgvg","pricing_plan_id":"free"},{"bike_id":"77a25dcb-42c7-459f-9088-d1a09eec1776","system_id":"levelo_inurba_marseille","lat":43.24076,"lon":5.37758,"is_reserved":false,"is_disabled":false,"rental_uris":{"android":"levelo://app?vid=77a25dcb-42c7-459f-9088-d1a09eec1776","ios":"levelo://app?vid=77a25dcb-42c7-459f-9088-d1a09eec1776"},"vehicle_type_id":"4","last_reported":1702555998,"current_range_meters":14800,"station_id":"ce4bhnp2rcd13ifvqgvg","pricing_plan_id":"free"},{"bike_id":"417c4bb2-53a9-4a4c-a128-5a6478c52446","system_id":"levelo_inurba_marseille","lat":43.239588,"lon":5.366238,"is_reserved":false,"is_disabled":false,"rental_uris":{"android":"levelo://app?vid=417c4bb2-53a9-4a4c-a128-5a6478c52446","ios":"levelo://app?vid=417c4bb2-53a9-4a4c-a128-5a6478c52446"},"vehicle_type_id":"4","last_reported":1702555998,"current_range_meters":18000,"station_id":"ce4bhi12rcd13ifvqfp0","pricing_plan_id":"free"},{"bike_id":"3a814a24-07d8-4e6f-9e30-e43634a525e4","system_id":"levelo_inurba_marseille","lat":43.23961,"lon":5.36638,"is_reserved":false,"is_disabled":false,"rental_uris":{"android":"levelo://app?vid=3a814a24-07d8-4e6f-9e30-e43634a525e4","ios":"levelo://app?vid=3a814a24-07d8-4e6f-9e30-e43634a525e4"},"vehicle_type_id":"4","last_reported":1702555998,"current_range_meters":7600,"station_id":"ce4bhi12rcd13ifvqfp0","pricing_plan_id":"free"},{"bike_id":"065ae836-be92-4fe9-a603-2b3cc8022284","system_id":"levelo_inurba_marseille","lat":43.241782,"lon":5.397261,"is_reserved":false,"is_disabled":false,"rental_uris":{"android":"levelo://app?vid=065ae836-be92-4fe9-a603-2b3cc8022284","ios":"levelo://app?vid=065ae836-be92-4fe9-a603-2b3cc8022284"},"vehicle_type_id":"4","last_reported":1702555998,"current_range_meters":28000,"station_id":"ce4bhn12rcd13ifvqgpg","pricing_plan_id":"free"},{"bike_id":"3b8d5fcd-8f99-47b2-a788-b7236d49b7ad","system_id":"levelo_inurba_marseille","lat":43.241782,"lon":5.397261,"is_reserved":false,"is_disabled":false,"rental_uris":{"android":"levelo://app?vid=3b8d5fcd-8f99-47b2-a788-b7236d49b7ad","ios":"levelo://app?vid=3b8d5fcd-8f99-47b2-a788-b7236d49b7ad"},"vehicle_type_id":"4","last_reported":1702555998,"current_range_meters":30400,"station_id":"ce4bhn12rcd13ifvqgpg","pricing_plan_id":"free"},{"bike_id":"46e85755-7f44-4770-9e69-88e3e5d2d0d4","system_id":"levelo_inurba_marseille","lat":43.231794,"lon":5.400052,"is_reserved":false,"is_disabled":false,"rental_uris":{"android":"levelo://app?vid=46e85755-7f44-4770-9e69-88e3e5d2d0d4","ios":"levelo://app?vid=46e85755-7f44-4770-9e69-88e3e5d2d0d4"},"vehicle_type_id":"4","last_reported":1702555998,"current_range_meters":17200,"station_id":"ce4bhn12rcd13ifvqgqg","pricing_plan_id":"free"},{"bike_id":"1e83289b-6bab-48ae-8f5b-498ecf95fc11","system_id":"levelo_inurba_marseille","lat":43.231794,"lon":5.400052,"is_reserved":false,"is_disabled":false,"rental_uris":{"android":"levelo://app?vid=1e83289b-6bab-48ae-8f5b-498ecf95fc11","ios":"levelo://app?vid=1e83289b-6bab-48ae-8f5b-498ecf95fc11"},"vehicle_type_id":"4","last_reported":1702555998,"current_range_meters":20400,"station_id":"ce4bhn12rcd13ifvqgqg","pricing_plan_id":"free"},{"bike_id":"5d66a1e1-407e-43b7-8a1f-b43437a90341","system_id":"levelo_inurba_marseille","lat":43.231794,"lon":5.400052,"is_reserved":false,"is_disabled":false,"rental_uris":{"android":"levelo://app?vid=5d66a1e1-407e-43b7-8a1f-b43437a90341","ios":"levelo://app?vid=5d66a1e1-407e-43b7-8a1f-b43437a90341"},"vehicle_type_id":"4","last_reported":1702555998,"current_range_meters":31200,"station_id":"ce4bhn12rcd13ifvqgqg","pricing_plan_id":"free"},{"bike_id":"1ad64d7a-9f94-42c8-8c31-dd9aed00b79b","system_id":"levelo_inurba_marseille","lat":43.23184,"lon":5.3999,"is_reserved":false,"is_disabled":false,"rental_uris":{"android":"levelo://app?vid=1ad64d7a-9f94-42c8-8c31-dd9aed00b79b","ios":"levelo://app?vid=1ad64d7a-9f94-42c8-8c31-dd9aed00b79b"},"vehicle_type_id":"4","last_reported":1702555998,"current_range_meters":19600,"station_id":"ce4bhn12rcd13ifvqgqg","pricing_plan_id":"free"},{"bike_id":"c9350101-e6e6-4759-8154-b3134ea8c63c","system_id":"levelo_inurba_marseille","lat":43.231793,"lon":5.400044,"is_reserved":false,"is_disabled":false,"rental_uris":{"android":"levelo://app?vid=c9350101-e6e6-4759-8154-b3134ea8c63c","ios":"levelo://app?vid=c9350101-e6e6-4759-8154-b3134ea8c63c"},"vehicle_type_id":"4","last_reported":1702555998,"current_range_meters":22800,"station_id":"ce4bhn12rcd13ifvqgqg","pricing_plan_id":"free"},{"bike_id":"ca5e62ab-ad96-4c53-a03e-be2c50cd695e","system_id":"levelo_inurba_marseille","lat":43.232615,"lon":5.43655,"is_reserved":false,"is_disabled":false,"rental_uris":{"android":"levelo://app?vid=ca5e62ab-ad96-4c53-a03e-be2c50cd695e","ios":"levelo://app?vid=ca5e62ab-ad96-4c53-a03e-be2c50cd695e"},"vehicle_type_id":"4","last_reported":1702555998,"current_range_meters":11600,"station_id":"ce4bhmp2rcd13ifvqgog","pricing_plan_id":"free"},{"bike_id":"5baad603-16af-4b46-9899-8c12c42ef7f0","system_id":"levelo_inurba_marseille","lat":43.231562,"lon":5.436933,"is_reserved":false,"is_disabled":false,"rental_uris":{"android":"levelo://app?vid=5baad603-16af-4b46-9899-8c12c42ef7f0","ios":"levelo://app?vid=5baad603-16af-4b46-9899-8c12c42ef7f0"},"vehicle_type_id":"4","last_reported":1702555998,"current_range_meters":4400,"station_id":"ce4bhmp2rcd13ifvqgog","pricing_plan_id":"free"},{"bike_id":"b569a46d-e980-4041-aabf-063e4829ad55","system_id":"levelo_inurba_marseille","lat":43.231562,"lon":5.436933,"is_reserved":false,"is_disabled":false,"rental_uris":{"android":"levelo://app?vid=b569a46d-e980-4041-aabf-063e4829ad55","ios":"levelo://app?vid=b569a46d-e980-4041-aabf-063e4829ad55"},"vehicle_type_id":"4","last_reported":1702555998,"current_range_meters":5600,"station_id":"ce4bhmp2rcd13ifvqgog","pricing_plan_id":"free"},{"bike_id":"06866d47-2c37-4144-baca-d9ea40f74b26","system_id":"levelo_inurba_marseille","lat":43.231562,"lon":5.436933,"is_reserved":false,"is_disabled":false,"rental_uris":{"android":"levelo://app?vid=06866d47-2c37-4144-baca-d9ea40f74b26","ios":"levelo://app?vid=06866d47-2c37-4144-baca-d9ea40f74b26"},"vehicle_type_id":"4","last_reported":1702555998,"current_range_meters":0,"station_id":"ce4bhmp2rcd13ifvqgog","pricing_plan_id":"free"},{"bike_id":"4fa388d2-5dbe-456c-aae4-95aa38c16702","system_id":"levelo_inurba_marseille","lat":43.231536,"lon":5.437002,"is_reserved":false,"is_disabled":false,"rental_uris":{"android":"levelo://app?vid=4fa388d2-5dbe-456c-aae4-95aa38c16702","ios":"levelo://app?vid=4fa388d2-5dbe-456c-aae4-95aa38c16702"},"vehicle_type_id":"4","last_reported":1702555998,"current_range_meters":6400,"station_id":"ce4bhmp2rcd13ifvqgog","pricing_plan_id":"free"},{"bike_id":"be72807a-9a7f-4d6b-9ec7-53daa8856b96","system_id":"levelo_inurba_marseille","lat":43.231562,"lon":5.436933,"is_reserved":false,"is_disabled":false,"rental_uris":{"android":"levelo://app?vid=be72807a-9a7f-4d6b-9ec7-53daa8856b96","ios":"levelo://app?vid=be72807a-9a7f-4d6b-9ec7-53daa8856b96"},"vehicle_type_id":"4","last_reported":1702555998,"current_range_meters":3600,"station_id":"ce4bhmp2rcd13ifvqgog","pricing_plan_id":"free"},{"bike_id":"2bfd76a0-1e79-4241-ad52-f5a596eddc26","system_id":"levelo_inurba_marseille","lat":43.23155,"lon":5.43711,"is_reserved":false,"is_disabled":false,"rental_uris":{"android":"levelo://app?vid=2bfd76a0-1e79-4241-ad52-f5a596eddc26","ios":"levelo://app?vid=2bfd76a0-1e79-4241-ad52-f5a596eddc26"},"vehicle_type_id":"4","last_reported":1702555998,"current_range_meters":30800,"station_id":"ce4bhmp2rcd13ifvqgog","pricing_plan_id":"free"},{"bike_id":"f6419703-0daf-4ce1-8be0-92733369fcca","system_id":"levelo_inurba_marseille","lat":43.231562,"lon":5.436933,"is_reserved":false,"is_disabled":false,"rental_uris":{"android":"levelo://app?vid=f6419703-0daf-4ce1-8be0-92733369fcca","ios":"levelo://app?vid=f6419703-0daf-4ce1-8be0-92733369fcca"},"vehicle_type_id":"4","last_reported":1702555998,"current_range_meters":3600,"station_id":"ce4bhmp2rcd13ifvqgog","pricing_plan_id":"free"},{"bike_id":"edd0328e-4f4d-4404-b1ac-6a3c4f9973e8","system_id":"levelo_inurba_marseille","lat":43.23152,"lon":5.43714,"is_reserved":false,"is_disabled":false,"rental_uris":{"android":"levelo://app?vid=edd0328e-4f4d-4404-b1ac-6a3c4f9973e8","ios":"levelo://app?vid=edd0328e-4f4d-4404-b1ac-6a3c4f9973e8"},"vehicle_type_id":"4","last_reported":1702555998,"current_range_meters":15600,"station_id":"ce4bhmp2rcd13ifvqgog","pricing_plan_id":"free"},{"bike_id":"4b56c5a8-b830-4918-b74a-41a7f1965b9c","system_id":"levelo_inurba_marseille","lat":43.231517,"lon":5.437162,"is_reserved":false,"is_disabled":false,"rental_uris":{"android":"levelo://app?vid=4b56c5a8-b830-4918-b74a-41a7f1965b9c","ios":"levelo://app?vid=4b56c5a8-b830-4918-b74a-41a7f1965b9c"},"vehicle_type_id":"4","last_reported":1702555998,"current_range_meters":11200,"station_id":"ce4bhmp2rcd13ifvqgog","pricing_plan_id":"free"}]}}