{"last_updated":1761449724,"ttl":60,"version":"2.2","data":{"bikes":[{"bike_id":"01138f7b-597e-4bbe-bd8b-25bb5f053d36","system_id":"levelo_inurba_marseille","lat":43.270578,"lon":5.383069,"is_reserved":false,"is_disabled":false,"rental_uris":{"android":"levelo://app?vid=01138f7b-597e-4bbe-bd8b-25bb5f053d36","ios":"levelo://app?vid=01138f7b-597e-4bbe-bd8b-25bb5f053d36"},"vehicle_type_id":"4","last_reported":1761449724,"current_range_meters":2800,"station_id":"st_d3n2fo6cfp8s73cte1j0","pricing_plan_id":"cebpf4jnsgd1na2vs0mg"},{"bike_id":"9d61579c-f050-4831-b39c-a59336a92f23","system_id":"levelo_inurba_marseille","lat":43.28704,"lon":5.40005,"is_reserved":false,"is_disabled":false,"rental_uris":{"android":"levelo://app?vid=9d61579c-f050-4831-b39c-a59336a92f23","ios":"levelo://app?vid=9d61579c-f050-4831-b39c-a59336a92f23"},"vehicle_type_id":"4","last_reported":1761449724,"current_range_meters":2800,"station_id":"ce4bho92rcd13ifvqh3g","pricing_plan_id":"cebpf4jnsgd1na2vs0mg"},{"bike_id":"36be68e0-bfe7-4731-af0c-05b556575597","system_id":"levelo_inurba_marseille","lat":43.27832,"lon":5.39196,"is_reserved":false,"is_disabled":false,"rental_uris":{"android":"levelo://app?vid=36be68e0-bfe7-4731-af0c-05b556575597","ios":"levelo://app?vid=36be68e0-bfe7-4731-af0c-05b556575597"},"vehicle_type_id":"4","last_reported":1761449724,"current_range_meters":3200,"station_id":"ce4bhjp2rcd13ifvqga0","pricing_plan_id":"cebpf4jnsgd1na2vs0mg"},{"bike_id":"809286ea-3e9d-46a5-b098-901598f76651","system_id":"levelo_inurba_marseille","lat":43.25505,"lon":5.37647,"is_reserved":false,"is_disabled":false,"rental_uris":{"android":"levelo://app?vid=809286ea-3e9d-46a5-b098-901598f76651","ios":"levelo://app?vid=809286ea-3e9d-46a5-b098-901598f76651"},"vehicle_type_id":"4","last_reported":1761449724,"current_range_meters":3600,"station_id":"ce4bhh12rcd13ifvqff0","pricing_plan_id":"cebpf4jnsgd1na2vs0mg"},{"bike_id":"00fd3c6a-780c-49dc-9993-d4de69c9b57a","system_id":"levelo_inurba_marseille","lat":43.310738,"lon":5.37455,"is_reserved":false,"is_disabled":false,"rental_uris":{"android":"levelo://app?vid=00fd3c6a-780c-49dc-9993-d4de69c9b57a","ios":"levelo://app?vid=00fd3c6a-780c-49dc-9993-d4de69c9b57a"},"vehicle_type_id":"4","last_reported":1761449724,"current_range_meters":3600,"station_id":"","pricing_plan_id":"cebpf4jnsgd1na2vs0mg"},{"bike_id":"8bcacd78-80de-4026-af75-b37ebe3030fe","system_id":"levelo_inurba_marseille","lat":43.334756,"lon":5.404255,"is_reserved":false,"is_disabled":false,"rental_uris":{"android":"levelo://app?vid=8bcacd78-80de-4026-af75-b37ebe3030fe","ios":"levelo://app?vid=8bcacd78-80de-4026-af75-b37ebe3030fe"},"vehicle_type_id":"4","last_reported":1761449724,"current_range_meters":3600,"station_id":"","pricing_plan_id":"cebpf4jnsgd1na2vs0mg"},{"bike_id":"1e172e2b-37c5-4615-b8ba-35833d700090","system_id":"levelo_inurba_marseille","lat":43.26566,"lon":5.39021,"is_reserved":false,"is_disabled":false,"rental_uris":{"android":"levelo://app?vid=1e172e2b-37c5-4615-b8ba-35833d700090","ios":"levelo://app?vid=1e172e2b-37c5-4615-b8ba-35833d700090"},"vehicle_type_id":"4","last_reported":1761449724,"current_range_meters":3600,"station_id":"ce4bhe12rcd13ifvqf30","pricing_plan_id":"cebpf4jnsgd1na2vs0mg"},{"bike_id":"ef9f94b6-49db-4195-b862-563223e2ba3d","system_id":"levelo_inurba_marseille","lat":43.21752,"lon":5.34615,"is_reserved":false,"is_disabled":false,"rental_uris":{"android":"levelo://app?vid=ef9f94b6-49db-4195-b862-563223e2ba3d","ios":"levelo://app?vid=ef9f94b6-49db-4195-b862-563223e2ba3d"},"vehicle_type_id":"4","last_reported":1761449724,"current_range_meters":4000,"station_id":"st_cvj6r9ubvosntc0bgbag","pricing_plan_id":"cebpf4jnsgd1na2vs0mg"},{"bike_id":"b9764ed2-f91a-421e-b54e-d7527bd8af22","system_id":"levelo_inurba_marseille","lat":43.29811,"lon":5.36588,"is_reserved":false,"is_disabled":false,"rental_uris":{"android":"levelo://app?vid=b9764ed2-f91a-421e-b54e-d7527bd8af22","ios":"levelo://app?vid=b9764ed2-f91a-421e-b54e-d7527bd8af22"},"vehicle_type_id":"4","last_reported":1761449724,"current_range_meters":4000,"station_id":"","pricing_plan_id":"cebpf4jnsgd1na2vs0mg"},{"bike_id":"cb14a91a-e5a7-4fa2-9c1d-b1acec3d3362","system_id":"levelo_inurba_marseille","lat":43.24163,"lon":5.36391,"is_reserved":false,"is_disabled":false,"rental_uris":{"android":"levelo://app?vid=cb14a91a-e5a7-4fa2-9c1d-b1acec3d3362","ios":"levelo://app?vid=cb14a91a-e5a7-4fa2-9c1d-b1acec3d3362"},"vehicle_type_id":"4","last_reported":1761449724,"current_range_meters":4000,"station_id":"cpo36qri1sfpv3e86is0","pricing_plan_id":"cebpf4jnsgd1na2vs0mg"},{"bike_id":"9881c788-42a8-46f5-8ccc-580a73583155","system_id":"levelo_inurba_marseille","lat":43.32078,"lon":5.40923,"is_reserved":false,"is_disabled":false,"rental_uris":{"android":"levelo://app?vid=9881c788-42a8-46f5-8ccc-580a73583155","ios":"levelo://app?vid=9881c788-42a8-46f5-8ccc-580a73583155"},"vehicle_type_id":"4","last_reported":1761449724,"current_range_meters":4000,"station_id":"","pricing_plan_id":"cebpf4jnsgd1na2vs0mg"},{"bike_id":"354c5457-58e6-4f2f-a1b9-1acb8eec4932","system_id":"levelo_inurba_marseille","lat":43.30593,"lon":5.39355,"is_reserved":false,"is_disabled":false,"rental_uris":{"android":"levelo://app?vid=354c5457-58e6-4f2f-a1b9-1acb8eec4932","ios":"levelo://app?vid=354c5457-58e6-4f2f-a1b9-1acb8eec4932"},"vehicle_type_id":"4","last_reported":1761449724,"current_range_meters":4400,"station_id":"ce4bh0p2rcd13ifvqd80","pricing_plan_id":"cebpf4jnsgd1na2vs0mg"},{"bike_id":"ad59d08a-36e0-428b-ad60-c245b162df87","system_id":"levelo_inurba_marseille","lat":43.28869,"lon":5.35754,"is_reserved":false,"is_disabled":false,"rental_uris":{"android":"levelo://app?vid=ad59d08a-36e0-428b-ad60-c245b162df87","ios":"levelo://app?vid=ad59d08a-36e0-428b-ad60-c245b162df87"},"vehicle_type_id":"4","last_reported":1761449724,"current_range_meters":4400,"station_id":"ce4bhb12rcd13ifvqem0","pricing_plan_id":"cebpf4jnsgd1na2vs0mg"},{"bike_id":"79b7db10-4eec-40c9-8d7a-ed593829d628","system_id":"levelo_inurba_marseille","lat":43.28883,"lon":5.3587,"is_reserved":false,"is_disabled":false,"rental_uris":{"android":"levelo://app?vid=79b7db10-4eec-40c9-8d7a-ed593829d628","ios":"levelo://app?vid=79b7db10-4eec-40c9-8d7a-ed593829d628"},"vehicle_type_id":"4","last_reported":1761449724,"current_range_meters":4400,"station_id":"ce4bhb12rcd13ifvqem0","pricing_plan_id":"cebpf4jnsgd1na2vs0mg"},{"bike_id":"024df3e2-5d23-452c-96e8-d98812f10694","system_id":"levelo_inurba_marseille","lat":43.30597,"lon":5.37248,"is_reserved":false,"is_disabled":false,"rental_uris":{"android":"levelo://app?vid=024df3e2-5d23-452c-96e8-d98812f10694","ios":"levelo://app?vid=024df3e2-5d23-452c-96e8-d98812f10694"},"vehicle_type_id":"4","last_reported":1761449724,"current_range_meters":4400,"station_id":"ce4bgqh2rcd13ifvqc4g","pricing_plan_id":"cebpf4jnsgd1na2vs0mg"},{"bike_id":"2ac32ba2-91a2-4a18-983f-e02eddf58cab","system_id":"levelo_inurba_marseille","lat":43.27924,"lon":5.395909,"is_reserved":false,"is_disabled":false,"rental_uris":{"android":"levelo://app?vid=2ac32ba2-91a2-4a18-983f-e02eddf58cab","ios":"levelo://app?vid=2ac32ba2-91a2-4a18-983f-e02eddf58cab"},"vehicle_type_id":"4","last_reported":1761449724,"current_range_meters":4800,"station_id":"ce4bhf92rcd13ifvqf40","pricing_plan_id":"cebpf4jnsgd1na2vs0mg"},{"bike_id":"139d020b-78f9-452a-b9f6-07a4ecc161b4","system_id":"levelo_inurba_marseille","lat":43.24549,"lon":5.39518,"is_reserved":false,"is_disabled":false,"rental_uris":{"android":"levelo://app?vid=139d020b-78f9-452a-b9f6-07a4ecc161b4","ios":"levelo://app?vid=139d020b-78f9-452a-b9f6-07a4ecc161b4"},"vehicle_type_id":"4","last_reported":1761449724,"current_range_meters":4800,"station_id":"ce4bhlp2rcd13ifvqgjg","pricing_plan_id":"cebpf4jnsgd1na2vs0mg"},{"bike_id":"af37cf42-0c62-43d0-bb3a-42bf13c7a169","system_id":"levelo_inurba_marseille","lat":43.27909,"lon":5.39584,"is_reserved":false,"is_disabled":false,"rental_uris":{"android":"levelo://app?vid=af37cf42-0c62-43d0-bb3a-42bf13c7a169","ios":"levelo://app?vid=af37cf42-0c62-43d0-bb3a-42bf13c7a169"},"vehicle_type_id":"4","last_reported":1761449724,"current_range_meters":5600,"station_id":"ce4bhf92rcd13ifvqf40","pricing_plan_id":"cebpf4jnsgd1na2vs0mg"},{"bike_id":"e28b01bc-016a-40f4-9cc2-b2c4a99d4b8e","system_id":"levelo_inurba_marseille","lat":43.292834,"lon":5.401265,"is_reserved":false,"is_disabled":false,"rental_uris":{"android":"levelo://app?vid=e28b01bc-016a-40f4-9cc2-b2c4a99d4b8e","ios":"levelo://app?vid=e28b01bc-016a-40f4-9cc2-b2c4a99d4b8e"},"vehicle_type_id":"4","last_reported":1761449724,"current_range_meters":6000,"station_id":"ce4bh312rcd13ifvqdk0","pricing_plan_id":"cebpf4jnsgd1na2vs0mg"},{"bike_id":"822da2d3-fcf8-484b-86dc-5443dae6d3c4","system_id":"levelo_inurba_marseille","lat":43.237786,"lon":5.366295,"is_reserved":false,"is_disabled":false,"rental_uris":{"android":"levelo://app?vid=822da2d3-fcf8-484b-86dc-5443dae6d3c4","ios":"levelo://app?vid=822da2d3-fcf8-484b-86dc-5443dae6d3c4"},"vehicle_type_id":"4","last_reported":1761449724,"current_range_meters":6000,"station_id":"st_d3nk18o9ro0c73en2l3g","pricing_plan_id":"cebpf4jnsgd1na2vs0mg"},{"bike_id":"f97c0dc2-7b8a-4617-9b00-119e60b0647a","system_id":"levelo_inurba_marseille","lat":43.31697,"lon":5.37752,"is_reserved":false,"is_disabled":false,"rental_uris":{"android":"levelo://app?vid=f97c0dc2-7b8a-4617-9b00-119e60b0647a","ios":"levelo://app?vid=f97c0dc2-7b8a-4617-9b00-119e60b0647a"},"vehicle_type_id":"4","last_reported":1761449724,"current_range_meters":6400,"station_id":"ce4bgth2rcd13ifvqch0","pricing_plan_id":"cebpf4jnsgd1na2vs0mg"},{"bike_id":"b3160317-0963-48d9-91d8-043b1042fa86","system_id":"levelo_inurba_marseille","lat":43.26921,"lon":5.39266,"is_reserved":false,"is_disabled":false,"rental_uris":{"android":"levelo://app?vid=b3160317-0963-48d9-91d8-043b1042fa86","ios":"levelo://app?vid=b3160317-0963-48d9-91d8-043b1042fa86"},"vehicle_type_id":"4","last_reported":1761449724,"current_range_meters":6400,"station_id":"","pricing_plan_id":"cebpf4jnsgd1na2vs0mg"},{"bike_id":"4cc0edfc-ff46-4c96-9438-209e9afb380b","system_id":"levelo_inurba_marseille","lat":43.28203,"lon":5.37335,"is_reserved":false,"is_disabled":false,"rental_uris":{"android":"levelo://app?vid=4cc0edfc-ff46-4c96-9438-209e9afb380b","ios":"levelo://app?vid=4cc0edfc-ff46-4c96-9438-209e9afb380b"},"vehicle_type_id":"4","last_reported":1761449724,"current_range_meters":6400,"station_id":"","pricing_plan_id":"cebpf4jnsgd1na2vs0mg"},{"bike_id":"9350e66e-1bd1-439d-9cc0-822125878999","system_id":"levelo_inurba_marseille","lat":43.29749,"lon":5.42784,"is_reserved":false,"is_disabled":false,"rental_uris":{"android":"levelo://app?vid=9350e66e-1bd1-439d-9cc0-822125878999","ios":"levelo://app?vid=9350e66e-1bd1-439d-9cc0-822125878999"},"vehicle_type_id":"4","last_reported":1761449724,"current_range_meters":6400,"station_id":"st_d3md5207bmas73dh9klg","pricing_plan_id":"cebpf4jnsgd1na2vs0mg"},{"bike_id":"e35e1247-2ec0-4206-a360-6aaa534a130f","system_id":"levelo_inurba_marseille","lat":43.28466,"lon":5.48391,"is_reserved":false,"is_disabled":false,"rental_uris":{"android":"levelo://app?vid=e35e1247-2ec0-4206-a360-6aaa534a130f","ios":"levelo://app?vid=e35e1247-2ec0-4206-a360-6aaa534a130f"},"vehicle_type_id":"4","last_reported":1761449724,"current_range_meters":6400,"station_id":"st_d3svhcjqgbts73a3dn0g","pricing_plan_id":"cebpf4jnsgd1na2vs0mg"},{"bike_id":"5f9debc0-c360-4a2e-b517-592e9a0c2818","system_id":"levelo_inurba_marseille","lat":43.32941,"lon":5.42775,"is_reserved":false,"is_disabled":false,"rental_uris":{"android":"levelo://app?vid=5f9debc0-c360-4a2e-b517-592e9a0c2818","ios":"levelo://app?vid=5f9debc0-c360-4a2e-b517-592e9a0c2818"},"vehicle_type_id":"4","last_reported":1761449724,"current_range_meters":6800,"station_id":"","pricing_plan_id":"cebpf4jnsgd1na2vs0mg"},{"bike_id":"ce4cbc8c-f134-4256-a32e-1f00470425f1","system_id":"levelo_inurba_marseille","lat":43.30318,"lon":5.4044,"is_reserved":false,"is_disabled":false,"rental_uris":{"android":"levelo://app?vid=ce4cbc8c-f134-4256-a32e-1f00470425f1","ios":"levelo://app?vid=ce4cbc8c-f134-4256-a32e-1f00470425f1"},"vehicle_type_id":"4","last_reported":1761449724,"current_range_meters":6800,"station_id":"ce4bh012rcd13ifvqd10","pricing_plan_id":"cebpf4jnsgd1na2vs0mg"},{"bike_id":"69fbf5d7-a9e3-4bf6-a8f2-00d5422c6837","system_id":"levelo_inurba_marseille","lat":43.250885,"lon":5.395159,"is_reserved":false,"is_disabled":false,"rental_uris":{"android":"levelo://app?vid=69fbf5d7-a9e3-4bf6-a8f2-00d5422c6837","ios":"levelo://app?vid=69fbf5d7-a9e3-4bf6-a8f2-00d5422c6837"},"vehicle_type_id":"4","last_reported":1761449724,"current_range_meters":6800,"station_id":"ce4bhm12rcd13ifvqgkg","pricing_plan_id":"cebpf4jnsgd1na2vs0mg"},{"bike_id":"120ff619-a55e-400f-961f-a43081db1a2f","system_id":"levelo_inurba_marseille","lat":43.298956,"lon":5.436653,"is_reserved":false,"is_disabled":false,"rental_uris":{"android":"levelo://app?vid=120ff619-a55e-400f-961f-a43081db1a2f","ios":"levelo://app?vid=120ff619-a55e-400f-961f-a43081db1a2f"},"vehicle_type_id":"4","last_reported":1761449724,"current_range_meters":7200,"station_id":"ce4bhpp2rcd13ifvqhfg","pricing_plan_id":"cebpf4jnsgd1na2vs0mg"},{"bike_id":"af0c9ba3-0f23-49a2-a4bb-9a3b0b688705","system_id":"levelo_inurba_marseille","lat":43.28273,"lon":5.35081,"is_reserved":false,"is_disabled":false,"rental_uris":{"android":"levelo://app?vid=af0c9ba3-0f23-49a2-a4bb-9a3b0b688705","ios":"levelo://app?vid=af0c9ba3-0f23-49a2-a4bb-9a3b0b688705"},"vehicle_type_id":"4","last_reported":1761449724,"current_range_meters":7200,"station_id":"ce4bhbp2rcd13ifvqerg","pricing_plan_id":"cebpf4jnsgd1na2vs0mg"},{"bike_id":"6398fd05-47e5-41f8-95bf-116d17d1d757","system_id":"levelo_inurba_marseille","lat":43.292603,"lon":5.384447,"is_reserved":false,"is_disabled":false,"rental_uris":{"android":"levelo://app?vid=6398fd05-47e5-41f8-95bf-116d17d1d757","ios":"levelo://app?vid=6398fd05-47e5-41f8-95bf-116d17d1d757"},"vehicle_type_id":"4","last_reported":1761449724,"current_range_meters":7200,"station_id":"","pricing_plan_id":"cebpf4jnsgd1na2vs0mg"},{"bike_id":"6d748f3f-9b78-4557-9b71-13da24fa702d","system_id":"levelo_inurba_marseille","lat":43.24666,"lon":5.38174,"is_reserved":false,"is_disabled":false,"rental_uris":{"android":"levelo://app?vid=6d748f3f-9b78-4557-9b71-13da24fa702d","ios":"levelo://app?vid=6d748f3f-9b78-4557-9b71-13da24fa702d"},"vehicle_type_id":"4","last_reported":1761449724,"current_range_meters":7200,"station_id":"ce4bhih2rcd13ifvqfr0","pricing_plan_id":"cebpf4jnsgd1na2vs0mg"},{"bike_id":"fa063608-29c2-42ab-95b5-2fc82231eea9","system_id":"levelo_inurba_marseille","lat":43.21196,"lon":5.35081,"is_reserved":false,"is_disabled":true,"rental_uris":{"android":"levelo://app?vid=fa063608-29c2-42ab-95b5-2fc82231eea9","ios":"levelo://app?vid=fa063608-29c2-42ab-95b5-2fc82231eea9"},"vehicle_type_id":"4","last_reported":1761449724,"current_range_meters":7200,"station_id":"st_cvj6sg6p6f1abm77japg","pricing_plan_id":"cebpf4jnsgd1na2vs0mg"},{"bike_id":"4f5c5045-2f2c-4ab7-ad8b-eeba1d52fe66","system_id":"levelo_inurba_marseille","lat":43.31081,"lon":5.37477,"is_reserved":false,"is_disabled":false,"rental_uris":{"android":"levelo://app?vid=4f5c5045-2f2c-4ab7-ad8b-eeba1d52fe66","ios":"levelo://app?vid=4f5c5045-2f2c-4ab7-ad8b-eeba1d52fe66"},"vehicle_type_id":"4","last_reported":1761449724,"current_range_meters":8000,"station_id":"","pricing_plan_id":"cebpf4jnsgd1na2vs0mg"},{"bike_id":"e94f57f2-601c-4cad-a187-6e953770aa25","system_id":"levelo_inurba_marseille","lat":43.312004,"lon":5.37861,"is_reserved":false,"is_disabled":false,"rental_uris":{"android":"levelo://app?vid=e94f57f2-601c-4cad-a187-6e953770aa25","ios":"levelo://app?vid=e94f57f2-601c-4cad-a187-6e953770aa25"},"vehicle_type_id":"4","last_reported":1761449724,"current_range_meters":8000,"station_id":"","pricing_plan_id":"cebpf4jnsgd1na2vs0mg"},{"bike_id":"cfb6d980-a1ae-441f-a504-92186a8c75da","system_id":"levelo_inurba_marseille","lat":43.30659,"lon":5.37317,"is_reserved":false,"is_disabled":false,"rental_uris":{"android":"levelo://app?vid=cfb6d980-a1ae-441f-a504-92186a8c75da","ios":"levelo://app?vid=cfb6d980-a1ae-441f-a504-92186a8c75da"},"vehicle_type_id":"4","last_reported":1761449724,"current_range_meters":8000,"station_id":"","pricing_plan_id":"cebpf4jnsgd1na2vs0mg"},{"bike_id":"2b08430f-3826-4249-8325-53b3985c5d73","system_id":"levelo_inurba_marseille","lat":43.27826,"lon":5.41469,"is_reserved":false,"is_disabled":false,"rental_uris":{"android":"levelo://app?vid=2b08430f-3826-4249-8325-53b3985c5d73","ios":"levelo://app?vid=2b08430f-3826-4249-8325-53b3985c5d73"},"vehicle_type_id":"4","last_reported":1761449724,"current_range_meters":8400,"station_id":"","pricing_plan_id":"cebpf4jnsgd1na2vs0mg"},{"bike_id":"63607eb3-248e-4001-9ec1-0690f1f9728e","system_id":"levelo_inurba_marseille","lat":43.26216,"lon":5.37441,"is_reserved":false,"is_disabled":false,"rental_uris":{"android":"levelo://app?vid=63607eb3-248e-4001-9ec1-0690f1f9728e","ios":"levelo://app?vid=63607eb3-248e-4001-9ec1-0690f1f9728e"},"vehicle_type_id":"4","last_reported":1761449724,"current_range_meters":8400,"station_id":"ce4bhgp2rcd13ifvqfc0","pricing_plan_id":"cebpf4jnsgd1na2vs0mg"},{"bike_id":"5334db16-532d-447f-bed6-9cfa8d288895","system_id":"levelo_inurba_marseille","lat":43.25366,"lon":5.4162,"is_reserved":false,"is_disabled":false,"rental_uris":{"android":"levelo://app?vid=5334db16-532d-447f-bed6-9cfa8d288895","ios":"levelo://app?vid=5334db16-532d-447f-bed6-9cfa8d288895"},"vehicle_type_id":"4","last_reported":1761449724,"current_range_meters":8800,"station_id":"","pricing_plan_id":"cebpf4jnsgd1na2vs0mg"},{"bike_id":"61293ad2-9e9b-470e-8230-7d50547a491e","system_id":"levelo_inurba_marseille","lat":43.28697,"lon":5.39997,"is_reserved":false,"is_disabled":false,"rental_uris":{"android":"levelo://app?vid=61293ad2-9e9b-470e-8230-7d50547a491e","ios":"levelo://app?vid=61293ad2-9e9b-470e-8230-7d50547a491e"},"vehicle_type_id":"4","last_reported":1761449724,"current_range_meters":8800,"station_id":"ce4bho92rcd13ifvqh3g","pricing_plan_id":"cebpf4jnsgd1na2vs0mg"},{"bike_id":"7818236f-a5a6-4b5f-8f2d-4546cbb27187","system_id":"levelo_inurba_marseille","lat":43.27993,"lon":5.41668,"is_reserved":false,"is_disabled":false,"rental_uris":{"android":"levelo://app?vid=7818236f-a5a6-4b5f-8f2d-4546cbb27187","ios":"levelo://app?vid=7818236f-a5a6-4b5f-8f2d-4546cbb27187"},"vehicle_type_id":"4","last_reported":1761449724,"current_range_meters":8800,"station_id":"ce4bho12rcd13ifvqh1g","pricing_plan_id":"cebpf4jnsgd1na2vs0mg"},{"bike_id":"51b614d1-6dfe-4e67-9a5e-bfd8acf52d94","system_id":"levelo_inurba_marseille","lat":43.30127,"lon":5.38783,"is_reserved":false,"is_disabled":true,"rental_uris":{"android":"levelo://app?vid=51b614d1-6dfe-4e67-9a5e-bfd8acf52d94","ios":"levelo://app?vid=51b614d1-6dfe-4e67-9a5e-bfd8acf52d94"},"vehicle_type_id":"4","last_reported":1761449724,"current_range_meters":8800,"station_id":"ce4bghh2rcd13ifvqb60","pricing_plan_id":"cebpf4jnsgd1na2vs0mg"},{"bike_id":"a35a4922-b803-4cd9-8623-7e895c294787","system_id":"levelo_inurba_marseille","lat":43.29801,"lon":5.3824,"is_reserved":false,"is_disabled":true,"rental_uris":{"android":"levelo://app?vid=a35a4922-b803-4cd9-8623-7e895c294787","ios":"levelo://app?vid=a35a4922-b803-4cd9-8623-7e895c294787"},"vehicle_type_id":"4","last_reported":1761449724,"current_range_meters":8800,"station_id":"","pricing_plan_id":"cebpf4jnsgd1na2vs0mg"},{"bike_id":"d8ec3603-a166-4ea2-8b58-5835662186cf","system_id":"levelo_inurba_marseille","lat":43.28684,"lon":5.40001,"is_reserved":false,"is_disabled":false,"rental_uris":{"android":"levelo://app?vid=d8ec3603-a166-4ea2-8b58-5835662186cf","ios":"levelo://app?vid=d8ec3603-a166-4ea2-8b58-5835662186cf"},"vehicle_type_id":"4","last_reported":1761449724,"current_range_meters":8800,"station_id":"ce4bho92rcd13ifvqh3g","pricing_plan_id":"cebpf4jnsgd1na2vs0mg"},{"bike_id":"7cd91938-3219-470e-835d-7418891d9874","system_id":"levelo_inurba_marseille","lat":43.265588,"lon":5.372819,"is_reserved":false,"is_disabled":false,"rental_uris":{"android":"levelo://app?vid=7cd91938-3219-470e-835d-7418891d9874","ios":"levelo://app?vid=7cd91938-3219-470e-835d-7418891d9874"},"vehicle_type_id":"4","last_reported":1761449724,"current_range_meters":8800,"station_id":"ce4bhg12rcd13ifvqf70","pricing_plan_id":"cebpf4jnsgd1na2vs0mg"},{"bike_id":"3289c138-5cfe-4438-99e3-8b3c8633c055","system_id":"levelo_inurba_marseille","lat":43.29627,"lon":5.40597,"is_reserved":false,"is_disabled":false,"rental_uris":{"android":"levelo://app?vid=3289c138-5cfe-4438-99e3-8b3c8633c055","ios":"levelo://app?vid=3289c138-5cfe-4438-99e3-8b3c8633c055"},"vehicle_type_id":"4","last_reported":1761449724,"current_range_meters":9200,"station_id":"ce4bh0h2rcd13ifvqd60","pricing_plan_id":"cebpf4jnsgd1na2vs0mg"},{"bike_id":"9d964ec4-c537-4f1d-b21c-451d3f46b1bf","system_id":"levelo_inurba_marseille","lat":43.29919,"lon":5.3789,"is_reserved":false,"is_disabled":false,"rental_uris":{"android":"levelo://app?vid=9d964ec4-c537-4f1d-b21c-451d3f46b1bf","ios":"levelo://app?vid=9d964ec4-c537-4f1d-b21c-451d3f46b1bf"},"vehicle_type_id":"4","last_reported":1761449724,"current_range_meters":9200,"station_id":"","pricing_plan_id":"cebpf4jnsgd1na2vs0mg"},{"bike_id":"b271dec7-e9c0-4031-a78b-d3a50b11d54a","system_id":"levelo_inurba_marseille","lat":43.28687,"lon":5.41256,"is_reserved":false,"is_disabled":false,"rental_uris":{"android":"levelo://app?vid=b271dec7-e9c0-4031-a78b-d3a50b11d54a","ios":"levelo://app?vid=b271dec7-e9c0-4031-a78b-d3a50b11d54a"},"vehicle_type_id":"4","last_reported":1761449724,"current_range_meters":9200,"station_id":"","pricing_plan_id":"cebpf4jnsgd1na2vs0mg"},{"bike_id":"8be6a47c-9542-4fed-8109-f6d91a0f2b3f","system_id":"levelo_inurba_marseille","lat":43.29174,"lon":5.37161,"is_reserved":false,"is_disabled":false,"rental_uris":{"android":"levelo://app?vid=8be6a47c-9542-4fed-8109-f6d91a0f2b3f","ios":"levelo://app?vid=8be6a47c-9542-4fed-8109-f6d91a0f2b3f"},"vehicle_type_id":"4","last_reported":1761449724,"current_range_meters":9600,"station_id":"ce4bha92rcd13ifvqeh0","pricing_plan_id":"cebpf4jnsgd1na2vs0mg"},{"bike_id":"dab36927-4328-48fa-bffb-145a737de07e","system_id":"levelo_inurba_marseille","lat":43.30799,"lon":5.43525,"is_reserved":false,"is_disabled":true,"rental_uris":{"android":"levelo://app?vid=dab36927-4328-48fa-bffb-145a737de07e","ios":"levelo://app?vid=dab36927-4328-48fa-bffb-145a737de07e"},"vehicle_type_id":"4","last_reported":1761449724,"current_range_meters":10000,"station_id":"ce4bhph2rcd13ifvqheg","pricing_plan_id":"cebpf4jnsgd1na2vs0mg"},{"bike_id":"43117888-69d1-4bc6-a73a-697554e4a08e","system_id":"levelo_inurba_marseille","lat":43.252566,"lon":5.377986,"is_reserved":false,"is_disabled":false,"rental_uris":{"android":"levelo://app?vid=43117888-69d1-4bc6-a73a-697554e4a08e","ios":"levelo://app?vid=43117888-69d1-4bc6-a73a-697554e4a08e"},"vehicle_type_id":"4","last_reported":1761449724,"current_range_meters":10000,"station_id":"","pricing_plan_id":"cebpf4jnsgd1na2vs0mg"},{"bike_id":"fe699c95-a812-44b9-ae3d-43948bf10ba2","system_id":"levelo_inurba_marseille","lat":43.289395,"lon":5.366359,"is_reserved":false,"is_disabled":false,"rental_uris":{"android":"levelo://app?vid=fe699c95-a812-44b9-ae3d-43948bf10ba2","ios":"levelo://app?vid=fe699c95-a812-44b9-ae3d-43948bf10ba2"},"vehicle_type_id":"4","last_reported":1761449724,"current_range_meters":10000,"station_id":"ce4bhap2rcd13ifvqek0","pricing_plan_id":"cebpf4jnsgd1na2vs0mg"},{"bike_id":"4120429c-3982-429c-8fca-2811a562778b","system_id":"levelo_inurba_marseille","lat":43.2455,"lon":5.39535,"is_reserved":false,"is_disabled":false,"rental_uris":{"android":"levelo://app?vid=4120429c-3982-429c-8fca-2811a562778b","ios":"levelo://app?vid=4120429c-3982-429c-8fca-2811a562778b"},"vehicle_type_id":"4","last_reported":1761449724,"current_range_meters":10000,"station_id":"ce4bhlp2rcd13ifvqgjg","pricing_plan_id":"cebpf4jnsgd1na2vs0mg"},{"bike_id":"c004ca58-fa04-42cb-af70-2d846e3067b7","system_id":"levelo_inurba_marseille","lat":43.27816,"lon":5.40709,"is_reserved":false,"is_disabled":false,"rental_uris":{"android":"levelo://app?vid=c004ca58-fa04-42cb-af70-2d846e3067b7","ios":"levelo://app?vid=c004ca58-fa04-42cb-af70-2d846e3067b7"},"vehicle_type_id":"4","last_reported":1761449724,"current_range_meters":10000,"station_id":"ce4bhnh2rcd13ifvqgtg","pricing_plan_id":"cebpf4jnsgd1na2vs0mg"},{"bike_id":"355b5a91-45a4-479e-a40a-2cfa9eaa221a","system_id":"levelo_inurba_marseille","lat":43.33603,"lon":5.4104,"is_reserved":false,"is_disabled":false,"rental_uris":{"android":"levelo://app?vid=355b5a91-45a4-479e-a40a-2cfa9eaa221a","ios":"levelo://app?vid=355b5a91-45a4-479e-a40a-2cfa9eaa221a"},"vehicle_type_id":"4","last_reported":1761449724,"current_range_meters":10000,"station_id":"ce4bhqh2rcd13ifvqhmg","pricing_plan_id":"cebpf4jnsgd1na2vs0mg"},{"bike_id":"bb27bfe2-5f13-4832-a5f4-33677ca2d5b0","system_id":"levelo_inurba_marseille","lat":43.262158,"lon":5.374402,"is_reserved":false,"is_disabled":false,"rental_uris":{"android":"levelo://app?vid=bb27bfe2-5f13-4832-a5f4-33677ca2d5b0","ios":"levelo://app?vid=bb27bfe2-5f13-4832-a5f4-33677ca2d5b0"},"vehicle_type_id":"4","last_reported":1761449724,"current_range_meters":10800,"station_id":"ce4bhgp2rcd13ifvqfc0","pricing_plan_id":"cebpf4jnsgd1na2vs0mg"},{"bike_id":"5b91766d-91d0-4602-8be6-6a369c10831e","system_id":"levelo_inurba_marseille","lat":43.2379,"lon":5.36623,"is_reserved":false,"is_disabled":false,"rental_uris":{"android":"levelo://app?vid=5b91766d-91d0-4602-8be6-6a369c10831e","ios":"levelo://app?vid=5b91766d-91d0-4602-8be6-6a369c10831e"},"vehicle_type_id":"4","last_reported":1761449724,"current_range_meters":10800,"station_id":"st_d3nk18o9ro0c73en2l3g","pricing_plan_id":"cebpf4jnsgd1na2vs0mg"},{"bike_id":"3693a0c9-6156-4456-86fb-2d34ab5fde82","system_id":"levelo_inurba_marseille","lat":43.30432,"lon":5.41289,"is_reserved":false,"is_disabled":false,"rental_uris":{"android":"levelo://app?vid=3693a0c9-6156-4456-86fb-2d34ab5fde82","ios":"levelo://app?vid=3693a0c9-6156-4456-86fb-2d34ab5fde82"},"vehicle_type_id":"4","last_reported":1761449724,"current_range_meters":10800,"station_id":"ce4bhop2rcd13ifvqh8g","pricing_plan_id":"cebpf4jnsgd1na2vs0mg"},{"bike_id":"f74b73b5-86b9-4be7-98da-7ab4dc567bcc","system_id":"levelo_inurba_marseille","lat":43.31098,"lon":5.38377,"is_reserved":false,"is_disabled":false,"rental_uris":{"android":"levelo://app?vid=f74b73b5-86b9-4be7-98da-7ab4dc567bcc","ios":"levelo://app?vid=f74b73b5-86b9-4be7-98da-7ab4dc567bcc"},"vehicle_type_id":"4","last_reported":1761449724,"current_range_meters":11200,"station_id":"ce4bgv92rcd13ifvqcr0","pricing_plan_id":"cebpf4jnsgd1na2vs0mg"},{"bike_id":"a9ea93bc-6d57-4686-a418-4c2c498e4411","system_id":"levelo_inurba_marseille","lat":43.28151,"lon":5.42639,"is_reserved":false,"is_disabled":false,"rental_uris":{"android":"levelo://app?vid=a9ea93bc-6d57-4686-a418-4c2c498e4411","ios":"levelo://app?vid=a9ea93bc-6d57-4686-a418-4c2c498e4411"},"vehicle_type_id":"4","last_reported":1761449724,"current_range_meters":11600,"station_id":"ce4bhnh2rcd13ifvqgug","pricing_plan_id":"cebpf4jnsgd1na2vs0mg"},{"bike_id":"0ab2d94e-78b2-43a7-83b4-3fa9105dc9b9","system_id":"levelo_inurba_marseille","lat":43.31282,"lon":5.4015,"is_reserved":false,"is_disabled":false,"rental_uris":{"android":"levelo://app?vid=0ab2d94e-78b2-43a7-83b4-3fa9105dc9b9","ios":"levelo://app?vid=0ab2d94e-78b2-43a7-83b4-3fa9105dc9b9"},"vehicle_type_id":"4","last_reported":1761449724,"current_range_meters":11600,"station_id":"ce4bh092rcd13ifvqd30","pricing_plan_id":"cebpf4jnsgd1na2vs0mg"},{"bike_id":"b982d108-97e6-4535-9be1-a88fe711b87e","system_id":"levelo_inurba_marseille","lat":43.28451,"lon":5.35885,"is_reserved":false,"is_disabled":false,"rental_uris":{"android":"levelo://app?vid=b982d108-97e6-4535-9be1-a88fe711b87e","ios":"levelo://app?vid=b982d108-97e6-4535-9be1-a88fe711b87e"},"vehicle_type_id":"4","last_reported":1761449724,"current_range_meters":11600,"station_id":"ce4bhah2rcd13ifvqei0","pricing_plan_id":"cebpf4jnsgd1na2vs0mg"},{"bike_id":"f39598b4-29ff-4f21-be45-0a249ecf2690","system_id":"levelo_inurba_marseille","lat":43.27909,"lon":5.39572,"is_reserved":false,"is_disabled":false,"rental_uris":{"android":"levelo://app?vid=f39598b4-29ff-4f21-be45-0a249ecf2690","ios":"levelo://app?vid=f39598b4-29ff-4f21-be45-0a249ecf2690"},"vehicle_type_id":"4","last_reported":1761449724,"current_range_meters":11600,"station_id":"ce4bhf92rcd13ifvqf40","pricing_plan_id":"cebpf4jnsgd1na2vs0mg"},{"bike_id":"f3816400-7461-49f4-8637-c6da23ae7098","system_id":"levelo_inurba_marseille","lat":43.322223,"lon":5.389426,"is_reserved":false,"is_disabled":false,"rental_uris":{"android":"levelo://app?vid=f3816400-7461-49f4-8637-c6da23ae7098","ios":"levelo://app?vid=f3816400-7461-49f4-8637-c6da23ae7098"},"vehicle_type_id":"4","last_reported":1761449724,"current_range_meters":12000,"station_id":"","pricing_plan_id":"cebpf4jnsgd1na2vs0mg"},{"bike_id":"51f6b392-8d0d-41b5-9bf6-76a949608beb","system_id":"levelo_inurba_marseille","lat":43.253372,"lon":5.421657,"is_reserved":false,"is_disabled":false,"rental_uris":{"android":"levelo://app?vid=51f6b392-8d0d-41b5-9bf6-76a949608beb","ios":"levelo://app?vid=51f6b392-8d0d-41b5-9bf6-76a949608beb"},"vehicle_type_id":"4","last_reported":1761449724,"current_range_meters":12000,"station_id":"st_d2m65c5bi1j21697t3ng","pricing_plan_id":"cebpf4jnsgd1na2vs0mg"},{"bike_id":"c97c0c7b-4d40-4177-9082-d869a13c90e0","system_id":"levelo_inurba_marseille","lat":43.29028,"lon":5.35894,"is_reserved":false,"is_disabled":false,"rental_uris":{"android":"levelo://app?vid=c97c0c7b-4d40-4177-9082-d869a13c90e0","ios":"levelo://app?vid=c97c0c7b-4d40-4177-9082-d869a13c90e0"},"vehicle_type_id":"4","last_reported":1761449724,"current_range_meters":12000,"station_id":"ce4bha92rcd13ifvqeg0","pricing_plan_id":"cebpf4jnsgd1na2vs0mg"},{"bike_id":"d3145067-3ca0-4e72-b01a-ef78c0959aad","system_id":"levelo_inurba_marseille","lat":43.302357,"lon":5.400826,"is_reserved":false,"is_disabled":true,"rental_uris":{"android":"levelo://app?vid=d3145067-3ca0-4e72-b01a-ef78c0959aad","ios":"levelo://app?vid=d3145067-3ca0-4e72-b01a-ef78c0959aad"},"vehicle_type_id":"4","last_reported":1761449724,"current_range_meters":12000,"station_id":"ce4bgvh2rcd13ifvqcs0","pricing_plan_id":"cebpf4jnsgd1na2vs0mg"},{"bike_id":"dabc5321-7dca-43de-9278-8cc0ee0db18c","system_id":"levelo_inurba_marseille","lat":43.25717,"lon":5.4111,"is_reserved":false,"is_disabled":false,"rental_uris":{"android":"levelo://app?vid=dabc5321-7dca-43de-9278-8cc0ee0db18c","ios":"levelo://app?vid=dabc5321-7dca-43de-9278-8cc0ee0db18c"},"vehicle_type_id":"4","last_reported":1761449724,"current_range_meters":12400,"station_id":"ce4bhkp2rcd13ifvqgd0","pricing_plan_id":"cebpf4jnsgd1na2vs0mg"},{"bike_id":"37d5d3c7-5b21-4af5-9cc6-eb8440c64f7e","system_id":"levelo_inurba_marseille","lat":43.29453,"lon":5.397438,"is_reserved":false,"is_disabled":false,"rental_uris":{"android":"levelo://app?vid=37d5d3c7-5b21-4af5-9cc6-eb8440c64f7e","ios":"levelo://app?vid=37d5d3c7-5b21-4af5-9cc6-eb8440c64f7e"},"vehicle_type_id":"4","last_reported":1761449724,"current_range_meters":12400,"station_id":"ce4bh3h2rcd13ifvqdo0","pricing_plan_id":"cebpf4jnsgd1na2vs0mg"},{"bike_id":"c83bb3aa-7331-438c-9af3-734140904b21","system_id":"levelo_inurba_marseille","lat":43.2845,"lon":5.37539,"is_reserved":false,"is_disabled":false,"rental_uris":{"android":"levelo://app?vid=c83bb3aa-7331-438c-9af3-734140904b21","ios":"levelo://app?vid=c83bb3aa-7331-438c-9af3-734140904b21"},"vehicle_type_id":"4","last_reported":1761449724,"current_range_meters":12400,"station_id":"","pricing_plan_id":"cebpf4jnsgd1na2vs0mg"},{"bike_id":"99978bab-685a-4c81-b6fe-e0bbe1f2d694","system_id":"levelo_inurba_marseille","lat":43.30879,"lon":5.39648,"is_reserved":false,"is_disabled":false,"rental_uris":{"android":"levelo://app?vid=99978bab-685a-4c81-b6fe-e0bbe1f2d694","ios":"levelo://app?vid=99978bab-685a-4c81-b6fe-e0bbe1f2d694"},"vehicle_type_id":"4","last_reported":1761449724,"current_range_meters":12800,"station_id":"ce4bh012rcd13ifvqcv0","pricing_plan_id":"cebpf4jnsgd1na2vs0mg"},{"bike_id":"ab097f15-aad4-45c1-872b-28a77488204a","system_id":"levelo_inurba_marseille","lat":43.298967,"lon":5.436544,"is_reserved":false,"is_disabled":false,"rental_uris":{"android":"levelo://app?vid=ab097f15-aad4-45c1-872b-28a77488204a","ios":"levelo://app?vid=ab097f15-aad4-45c1-872b-28a77488204a"},"vehicle_type_id":"4","last_reported":1761449724,"current_range_meters":12800,"station_id":"ce4bhpp2rcd13ifvqhfg","pricing_plan_id":"cebpf4jnsgd1na2vs0mg"},{"bike_id":"3fc0e27c-a523-4f4b-9993-e958cec7d4ae","system_id":"levelo_inurba_marseille","lat":43.30805,"lon":5.43527,"is_reserved":false,"is_disabled":false,"rental_uris":{"android":"levelo://app?vid=3fc0e27c-a523-4f4b-9993-e958cec7d4ae","ios":"levelo://app?vid=3fc0e27c-a523-4f4b-9993-e958cec7d4ae"},"vehicle_type_id":"4","last_reported":1761449724,"current_range_meters":12800,"station_id":"ce4bhph2rcd13ifvqheg","pricing_plan_id":"cebpf4jnsgd1na2vs0mg"},{"bike_id":"a0648f66-7c69-4e08-be25-a3fafba98199","system_id":"levelo_inurba_marseille","lat":43.28466,"lon":5.35888,"is_reserved":false,"is_disabled":false,"rental_uris":{"android":"levelo://app?vid=a0648f66-7c69-4e08-be25-a3fafba98199","ios":"levelo://app?vid=a0648f66-7c69-4e08-be25-a3fafba98199"},"vehicle_type_id":"4","last_reported":1761449724,"current_range_meters":12800,"station_id":"ce4bhah2rcd13ifvqei0","pricing_plan_id":"cebpf4jnsgd1na2vs0mg"},{"bike_id":"5dd04910-101f-4654-853d-341f84b98945","system_id":"levelo_inurba_marseille","lat":43.28994,"lon":5.372,"is_reserved":false,"is_disabled":false,"rental_uris":{"android":"levelo://app?vid=5dd04910-101f-4654-853d-341f84b98945","ios":"levelo://app?vid=5dd04910-101f-4654-853d-341f84b98945"},"vehicle_type_id":"4","last_reported":1761449724,"current_range_meters":12800,"station_id":"","pricing_plan_id":"cebpf4jnsgd1na2vs0mg"},{"bike_id":"3dae4e58-acf8-461b-bdbd-4903b9e132b1","system_id":"levelo_inurba_marseille","lat":43.319899,"lon":5.381447,"is_reserved":false,"is_disabled":false,"rental_uris":{"android":"levelo://app?vid=3dae4e58-acf8-461b-bdbd-4903b9e132b1","ios":"levelo://app?vid=3dae4e58-acf8-461b-bdbd-4903b9e132b1"},"vehicle_type_id":"4","last_reported":1761449724,"current_range_meters":13600,"station_id":"ce4bhr12rcd13ifvqhpg","pricing_plan_id":"cebpf4jnsgd1na2vs0mg"},{"bike_id":"3ad4d97d-497f-4447-841e-5d883753625f","system_id":"levelo_inurba_marseille","lat":43.282706,"lon":5.350575,"is_reserved":false,"is_disabled":false,"rental_uris":{"android":"levelo://app?vid=3ad4d97d-497f-4447-841e-5d883753625f","ios":"levelo://app?vid=3ad4d97d-497f-4447-841e-5d883753625f"},"vehicle_type_id":"4","last_reported":1761449724,"current_range_meters":13600,"station_id":"ce4bhbp2rcd13ifvqerg","pricing_plan_id":"cebpf4jnsgd1na2vs0mg"},{"bike_id":"650e1c61-89fb-471d-abe7-ecebd3eec1f8","system_id":"levelo_inurba_marseille","lat":43.28845,"lon":5.3587,"is_reserved":false,"is_disabled":false,"rental_uris":{"android":"levelo://app?vid=650e1c61-89fb-471d-abe7-ecebd3eec1f8","ios":"levelo://app?vid=650e1c61-89fb-471d-abe7-ecebd3eec1f8"},"vehicle_type_id":"4","last_reported":1761449724,"current_range_meters":13600,"station_id":"ce4bhb12rcd13ifvqem0","pricing_plan_id":"cebpf4jnsgd1na2vs0mg"},{"bike_id":"ab35a204-84d2-4e3b-be4a-b95652d8c25f","system_id":"levelo_inurba_marseille","lat":43.245487,"lon":5.395184,"is_reserved":false,"is_disabled":false,"rental_uris":{"android":"levelo://app?vid=ab35a204-84d2-4e3b-be4a-b95652d8c25f","ios":"levelo://app?vid=ab35a204-84d2-4e3b-be4a-b95652d8c25f"},"vehicle_type_id":"4","last_reported":1761449724,"current_range_meters":13600,"station_id":"ce4bhlp2rcd13ifvqgjg","pricing_plan_id":"cebpf4jnsgd1na2vs0mg"},{"bike_id":"875ed736-33ec-4fd9-9ccc-07f69a3506cb","system_id":"levelo_inurba_marseille","lat":43.245435,"lon":5.395215,"is_reserved":false,"is_disabled":false,"rental_uris":{"android":"levelo://app?vid=875ed736-33ec-4fd9-9ccc-07f69a3506cb","ios":"levelo://app?vid=875ed736-33ec-4fd9-9ccc-07f69a3506cb"},"vehicle_type_id":"4","last_reported":1761449724,"current_range_meters":13600,"station_id":"ce4bhlp2rcd13ifvqgjg","pricing_plan_id":"cebpf4jnsgd1na2vs0mg"},{"bike_id":"2d2b3a0d-5fe0-4130-853e-b3238745f69f","system_id":"levelo_inurba_marseille","lat":43.26565,"lon":5.39003,"is_reserved":false,"is_disabled":false,"rental_uris":{"android":"levelo://app?vid=2d2b3a0d-5fe0-4130-853e-b3238745f69f","ios":"levelo://app?vid=2d2b3a0d-5fe0-4130-853e-b3238745f69f"},"vehicle_type_id":"4","last_reported":1761449724,"current_range_meters":13600,"station_id":"ce4bhe12rcd13ifvqf30","pricing_plan_id":"cebpf4jnsgd1na2vs0mg"},{"bike_id":"6b8486c6-4cdf-4138-b813-f784534597ae","system_id":"levelo_inurba_marseille","lat":43.32111,"lon":5.36746,"is_reserved":false,"is_disabled":false,"rental_uris":{"android":"levelo://app?vid=6b8486c6-4cdf-4138-b813-f784534597ae","ios":"levelo://app?vid=6b8486c6-4cdf-4138-b813-f784534597ae"},"vehicle_type_id":"4","last_reported":1761449724,"current_range_meters":14000,"station_id":"ce4bhrh2rcd13ifvqhug","pricing_plan_id":"cebpf4jnsgd1na2vs0mg"},{"bike_id":"6903b4c0-1100-4c04-8764-965094ab4dd5","system_id":"levelo_inurba_marseille","lat":43.2862,"lon":5.35099,"is_reserved":false,"is_disabled":false,"rental_uris":{"android":"levelo://app?vid=6903b4c0-1100-4c04-8764-965094ab4dd5","ios":"levelo://app?vid=6903b4c0-1100-4c04-8764-965094ab4dd5"},"vehicle_type_id":"4","last_reported":1761449724,"current_range_meters":14000,"station_id":"ce4bhch2rcd13ifvqeug","pricing_plan_id":"cebpf4jnsgd1na2vs0mg"},{"bike_id":"a7b24216-4bc4-4eec-9601-98ed556867f7","system_id":"levelo_inurba_marseille","lat":43.27426,"lon":5.394265,"is_reserved":false,"is_disabled":false,"rental_uris":{"android":"levelo://app?vid=a7b24216-4bc4-4eec-9601-98ed556867f7","ios":"levelo://app?vid=a7b24216-4bc4-4eec-9601-98ed556867f7"},"vehicle_type_id":"4","last_reported":1761449724,"current_range_meters":14400,"station_id":"ce4bhdp2rcd13ifvqf20","pricing_plan_id":"cebpf4jnsgd1na2vs0mg"},{"bike_id":"29b38a45-3e07-40c1-b8b1-5f85b487711f","system_id":"levelo_inurba_marseille","lat":43.3125,"lon":5.40408,"is_reserved":false,"is_disabled":false,"rental_uris":{"android":"levelo://app?vid=29b38a45-3e07-40c1-b8b1-5f85b487711f","ios":"levelo://app?vid=29b38a45-3e07-40c1-b8b1-5f85b487711f"},"vehicle_type_id":"4","last_reported":1761449724,"current_range_meters":14400,"station_id":"","pricing_plan_id":"cebpf4jnsgd1na2vs0mg"},{"bike_id":"e3c37ef6-fc8d-40f6-aaa7-3e531d410441","system_id":"levelo_inurba_marseille","lat":43.337135,"lon":5.391773,"is_reserved":false,"is_disabled":false,"rental_uris":{"android":"levelo://app?vid=e3c37ef6-fc8d-40f6-aaa7-3e531d410441","ios":"levelo://app?vid=e3c37ef6-fc8d-40f6-aaa7-3e531d410441"},"vehicle_type_id":"4","last_reported":1761449724,"current_range_meters":14400,"station_id":"ce4bhr92rcd13ifvqhsg","pricing_plan_id":"cebpf4jnsgd1na2vs0mg"},{"bike_id":"900ab184-d5eb-4bfe-873b-8cdca2a52913","system_id":"levelo_inurba_marseille","lat":43.321066,"lon":5.368062,"is_reserved":false,"is_disabled":false,"rental_uris":{"android":"levelo://app?vid=900ab184-d5eb-4bfe-873b-8cdca2a52913","ios":"levelo://app?vid=900ab184-d5eb-4bfe-873b-8cdca2a52913"},"vehicle_type_id":"4","last_reported":1761449724,"current_range_meters":14400,"station_id":"ce4bhrh2rcd13ifvqhug","pricing_plan_id":"cebpf4jnsgd1na2vs0mg"},{"bike_id":"e4746a2d-9cd3-46c8-bf0e-3a10fdb16ced","system_id":"levelo_inurba_marseille","lat":43.32365,"lon":5.36758,"is_reserved":false,"is_disabled":false,"rental_uris":{"android":"levelo://app?vid=e4746a2d-9cd3-46c8-bf0e-3a10fdb16ced","ios":"levelo://app?vid=e4746a2d-9cd3-46c8-bf0e-3a10fdb16ced"},"vehicle_type_id":"4","last_reported":1761449724,"current_range_meters":14400,"station_id":"ce4bhsh2rcd13ifvqi2g","pricing_plan_id":"cebpf4jnsgd1na2vs0mg"},{"bike_id":"bf526c33-28dd-4a6a-a10d-b02e3c57c12e","system_id":"levelo_inurba_marseille","lat":43.239644,"lon":5.366197,"is_reserved":false,"is_disabled":false,"rental_uris":{"android":"levelo://app?vid=bf526c33-28dd-4a6a-a10d-b02e3c57c12e","ios":"levelo://app?vid=bf526c33-28dd-4a6a-a10d-b02e3c57c12e"},"vehicle_type_id":"4","last_reported":1761449724,"current_range_meters":14400,"station_id":"ce4bhi12rcd13ifvqfp0","pricing_plan_id":"cebpf4jnsgd1na2vs0mg"},{"bike_id":"b7cd284d-3722-47c9-8280-2128a29419fc","system_id":"levelo_inurba_marseille","lat":43.28932,"lon":5.36635,"is_reserved":false,"is_disabled":false,"rental_uris":{"android":"levelo://app?vid=b7cd284d-3722-47c9-8280-2128a29419fc","ios":"levelo://app?vid=b7cd284d-3722-47c9-8280-2128a29419fc"},"vehicle_type_id":"4","last_reported":1761449724,"current_range_meters":14400,"station_id":"ce4bhap2rcd13ifvqek0","pricing_plan_id":"cebpf4jnsgd1na2vs0mg"},{"bike_id":"2d37b67a-b91c-4fd1-8113-f0add5ec7d40","system_id":"levelo_inurba_marseille","lat":43.308897,"lon":5.39659,"is_reserved":false,"is_disabled":false,"rental_uris":{"android":"levelo://app?vid=2d37b67a-b91c-4fd1-8113-f0add5ec7d40","ios":"levelo://app?vid=2d37b67a-b91c-4fd1-8113-f0add5ec7d40"},"vehicle_type_id":"4","last_reported":1761449724,"current_range_meters":14400,"station_id":"ce4bh012rcd13ifvqcv0","pricing_plan_id":"cebpf4jnsgd1na2vs0mg"},{"bike_id":"e5bd73c9-d2fd-429b-a719-e50033314cf7","system_id":"levelo_inurba_marseille","lat":43.22555,"lon":5.4164,"is_reserved":false,"is_disabled":false,"rental_uris":{"android":"levelo://app?vid=e5bd73c9-d2fd-429b-a719-e50033314cf7","ios":"levelo://app?vid=e5bd73c9-d2fd-429b-a719-e50033314cf7"},"vehicle_type_id":"4","last_reported":1761449724,"current_range_meters":14400,"station_id":"st_d2o4gvlbi1j2169b742g","pricing_plan_id":"cebpf4jnsgd1na2vs0mg"},{"bike_id":"3cc54c1d-71ff-4f82-bf53-5c25775d2246","system_id":"levelo_inurba_marseille","lat":43.32111,"lon":5.36786,"is_reserved":false,"is_disabled":false,"rental_uris":{"android":"levelo://app?vid=3cc54c1d-71ff-4f82-bf53-5c25775d2246","ios":"levelo://app?vid=3cc54c1d-71ff-4f82-bf53-5c25775d2246"},"vehicle_type_id":"4","last_reported":1761449724,"current_range_meters":14800,"station_id":"ce4bhrh2rcd13ifvqhug","pricing_plan_id":"cebpf4jnsgd1na2vs0mg"},{"bike_id":"3fbd66b1-e2a9-4be3-b923-94252387751e","system_id":"levelo_inurba_marseille","lat":43.27916,"lon":5.39577,"is_reserved":false,"is_disabled":false,"rental_uris":{"android":"levelo://app?vid=3fbd66b1-e2a9-4be3-b923-94252387751e","ios":"levelo://app?vid=3fbd66b1-e2a9-4be3-b923-94252387751e"},"vehicle_type_id":"4","last_reported":1761449724,"current_range_meters":14800,"station_id":"ce4bhf92rcd13ifvqf40","pricing_plan_id":"cebpf4jnsgd1na2vs0mg"},{"bike_id":"3e7fd0f5-a88a-485f-8077-3afcef15c8db","system_id":"levelo_inurba_marseille","lat":43.30321,"lon":5.40444,"is_reserved":false,"is_disabled":false,"rental_uris":{"android":"levelo://app?vid=3e7fd0f5-a88a-485f-8077-3afcef15c8db","ios":"levelo://app?vid=3e7fd0f5-a88a-485f-8077-3afcef15c8db"},"vehicle_type_id":"4","last_reported":1761449724,"current_range_meters":14800,"station_id":"ce4bh012rcd13ifvqd10","pricing_plan_id":"cebpf4jnsgd1na2vs0mg"},{"bike_id":"a68c8946-fca1-4a4f-91c2-8fedf3b4c230","system_id":"levelo_inurba_marseille","lat":43.31369,"lon":5.38493,"is_reserved":false,"is_disabled":false,"rental_uris":{"android":"levelo://app?vid=a68c8946-fca1-4a4f-91c2-8fedf3b4c230","ios":"levelo://app?vid=a68c8946-fca1-4a4f-91c2-8fedf3b4c230"},"vehicle_type_id":"4","last_reported":1761449724,"current_range_meters":14800,"station_id":"ce4bgt92rcd13ifvqcf0","pricing_plan_id":"cebpf4jnsgd1na2vs0mg"},{"bike_id":"5ee9edc8-dc97-44a6-876e-7a09b34dd265","system_id":"levelo_inurba_marseille","lat":43.295508,"lon":5.422837,"is_reserved":false,"is_disabled":true,"rental_uris":{"android":"levelo://app?vid=5ee9edc8-dc97-44a6-876e-7a09b34dd265","ios":"levelo://app?vid=5ee9edc8-dc97-44a6-876e-7a09b34dd265"},"vehicle_type_id":"4","last_reported":1761449724,"current_range_meters":15200,"station_id":"ce4bhph2rcd13ifvqhdg","pricing_plan_id":"cebpf4jnsgd1na2vs0mg"},{"bike_id":"c0b81f28-bbba-4247-a74b-c55a34b31846","system_id":"levelo_inurba_marseille","lat":43.33258,"lon":5.41086,"is_reserved":false,"is_disabled":false,"rental_uris":{"android":"levelo://app?vid=c0b81f28-bbba-4247-a74b-c55a34b31846","ios":"levelo://app?vid=c0b81f28-bbba-4247-a74b-c55a34b31846"},"vehicle_type_id":"4","last_reported":1761449724,"current_range_meters":15200,"station_id":"","pricing_plan_id":"cebpf4jnsgd1na2vs0mg"},{"bike_id":"86bb99a4-3bed-453c-bdfd-4fd969cec0ce","system_id":"levelo_inurba_marseille","lat":43.26067,"lon":5.39379,"is_reserved":false,"is_disabled":false,"rental_uris":{"android":"levelo://app?vid=86bb99a4-3bed-453c-bdfd-4fd969cec0ce","ios":"levelo://app?vid=86bb99a4-3bed-453c-bdfd-4fd969cec0ce"},"vehicle_type_id":"4","last_reported":1761449724,"current_range_meters":15200,"station_id":"ce4bhh92rcd13ifvqfj0","pricing_plan_id":"cebpf4jnsgd1na2vs0mg"},{"bike_id":"f72a00f1-1fed-4f6c-b4b5-8473dfdb4606","system_id":"levelo_inurba_marseille","lat":43.296868,"lon":5.40363,"is_reserved":false,"is_disabled":false,"rental_uris":{"android":"levelo://app?vid=f72a00f1-1fed-4f6c-b4b5-8473dfdb4606","ios":"levelo://app?vid=f72a00f1-1fed-4f6c-b4b5-8473dfdb4606"},"vehicle_type_id":"4","last_reported":1761449724,"current_range_meters":15200,"station_id":"","pricing_plan_id":"cebpf4jnsgd1na2vs0mg"},{"bike_id":"12cefd40-c26f-402c-b50f-33cfb17b8e9f","system_id":"levelo_inurba_marseille","lat":43.2596,"lon":5.37541,"is_reserved":false,"is_disabled":false,"rental_uris":{"android":"levelo://app?vid=12cefd40-c26f-402c-b50f-33cfb17b8e9f","ios":"levelo://app?vid=12cefd40-c26f-402c-b50f-33cfb17b8e9f"},"vehicle_type_id":"4","last_reported":1761449724,"current_range_meters":16000,"station_id":"","pricing_plan_id":"cebpf4jnsgd1na2vs0mg"},{"bike_id":"7a75e86a-b984-4c1b-9547-5354edb5cebe","system_id":"levelo_inurba_marseille","lat":43.299296,"lon":5.365208,"is_reserved":false,"is_disabled":false,"rental_uris":{"android":"levelo://app?vid=7a75e86a-b984-4c1b-9547-5354edb5cebe","ios":"levelo://app?vid=7a75e86a-b984-4c1b-9547-5354edb5cebe"},"vehicle_type_id":"4","last_reported":1761449724,"current_range_meters":16000,"station_id":"ce4bgm92rcd13ifvqbr0","pricing_plan_id":"cebpf4jnsgd1na2vs0mg"},{"bike_id":"131383a1-8a4f-43bc-87be-c4279527b101","system_id":"levelo_inurba_marseille","lat":43.28466,"lon":5.35885,"is_reserved":false,"is_disabled":false,"rental_uris":{"android":"levelo://app?vid=131383a1-8a4f-43bc-87be-c4279527b101","ios":"levelo://app?vid=131383a1-8a4f-43bc-87be-c4279527b101"},"vehicle_type_id":"4","last_reported":1761449724,"current_range_meters":16000,"station_id":"ce4bhah2rcd13ifvqei0","pricing_plan_id":"cebpf4jnsgd1na2vs0mg"},{"bike_id":"ef8701f2-8b95-4d10-ada3-a8b00599d2dc","system_id":"levelo_inurba_marseille","lat":43.29724,"lon":5.3792,"is_reserved":false,"is_disabled":false,"rental_uris":{"android":"levelo://app?vid=ef8701f2-8b95-4d10-ada3-a8b00599d2dc","ios":"levelo://app?vid=ef8701f2-8b95-4d10-ada3-a8b00599d2dc"},"vehicle_type_id":"4","last_reported":1761449724,"current_range_meters":16000,"station_id":"","pricing_plan_id":"cebpf4jnsgd1na2vs0mg"},{"bike_id":"41d45b45-3a52-4b5a-b2b3-1e62d5490ada","system_id":"levelo_inurba_marseille","lat":43.28528,"lon":5.44112,"is_reserved":false,"is_disabled":false,"rental_uris":{"android":"levelo://app?vid=41d45b45-3a52-4b5a-b2b3-1e62d5490ada","ios":"levelo://app?vid=41d45b45-3a52-4b5a-b2b3-1e62d5490ada"},"vehicle_type_id":"4","last_reported":1761449724,"current_range_meters":16000,"station_id":"st_d3j3df2ikq2c7380ej80","pricing_plan_id":"cebpf4jnsgd1na2vs0mg"},{"bike_id":"b61c15e0-c19c-4445-b92d-6adef82d396f","system_id":"levelo_inurba_marseille","lat":43.27954,"lon":5.41021,"is_reserved":false,"is_disabled":false,"rental_uris":{"android":"levelo://app?vid=b61c15e0-c19c-4445-b92d-6adef82d396f","ios":"levelo://app?vid=b61c15e0-c19c-4445-b92d-6adef82d396f"},"vehicle_type_id":"4","last_reported":1761449724,"current_range_meters":16000,"station_id":"ce4bhnp2rcd13ifvqh0g","pricing_plan_id":"cebpf4jnsgd1na2vs0mg"},{"bike_id":"3f427bb6-4893-4874-84c4-82bff6116b3b","system_id":"levelo_inurba_marseille","lat":43.28694,"lon":5.37385,"is_reserved":false,"is_disabled":false,"rental_uris":{"android":"levelo://app?vid=3f427bb6-4893-4874-84c4-82bff6116b3b","ios":"levelo://app?vid=3f427bb6-4893-4874-84c4-82bff6116b3b"},"vehicle_type_id":"4","last_reported":1761449724,"current_range_meters":16000,"station_id":"ce4bh3p2rcd13ifvqdq0","pricing_plan_id":"cebpf4jnsgd1na2vs0mg"},{"bike_id":"a19578d6-d951-4028-8fd3-5a6107e3816c","system_id":"levelo_inurba_marseille","lat":43.248056,"lon":5.374503,"is_reserved":false,"is_disabled":false,"rental_uris":{"android":"levelo://app?vid=a19578d6-d951-4028-8fd3-5a6107e3816c","ios":"levelo://app?vid=a19578d6-d951-4028-8fd3-5a6107e3816c"},"vehicle_type_id":"4","last_reported":1761449724,"current_range_meters":16000,"station_id":"ce4bhgh2rcd13ifvqfb0","pricing_plan_id":"cebpf4jnsgd1na2vs0mg"},{"bike_id":"a41c5a70-3f59-4d8c-a3ea-c5a0fe85153f","system_id":"levelo_inurba_marseille","lat":43.296297,"lon":5.405943,"is_reserved":false,"is_disabled":false,"rental_uris":{"android":"levelo://app?vid=a41c5a70-3f59-4d8c-a3ea-c5a0fe85153f","ios":"levelo://app?vid=a41c5a70-3f59-4d8c-a3ea-c5a0fe85153f"},"vehicle_type_id":"4","last_reported":1761449724,"current_range_meters":16000,"station_id":"ce4bh0h2rcd13ifvqd60","pricing_plan_id":"cebpf4jnsgd1na2vs0mg"},{"bike_id":"3da36b46-32f0-4723-8f3b-8cba39a84287","system_id":"levelo_inurba_marseille","lat":43.24386,"lon":5.37056,"is_reserved":false,"is_disabled":false,"rental_uris":{"android":"levelo://app?vid=3da36b46-32f0-4723-8f3b-8cba39a84287","ios":"levelo://app?vid=3da36b46-32f0-4723-8f3b-8cba39a84287"},"vehicle_type_id":"4","last_reported":1761449724,"current_range_meters":16000,"station_id":"ce4bhhh2rcd13ifvqfk0","pricing_plan_id":"cebpf4jnsgd1na2vs0mg"},{"bike_id":"ae6bf635-0651-4b2d-9e37-c2ac19adb437","system_id":"levelo_inurba_marseille","lat":43.306446,"lon":5.400616,"is_reserved":false,"is_disabled":false,"rental_uris":{"android":"levelo://app?vid=ae6bf635-0651-4b2d-9e37-c2ac19adb437","ios":"levelo://app?vid=ae6bf635-0651-4b2d-9e37-c2ac19adb437"},"vehicle_type_id":"4","last_reported":1761449724,"current_range_meters":16000,"station_id":"ce4bh112rcd13ifvqda0","pricing_plan_id":"cebpf4jnsgd1na2vs0mg"},{"bike_id":"e4ccce50-4824-4895-aa8c-033835526f23","system_id":"levelo_inurba_marseille","lat":43.31882,"lon":5.40018,"is_reserved":false,"is_disabled":false,"rental_uris":{"android":"levelo://app?vid=e4ccce50-4824-4895-aa8c-033835526f23","ios":"levelo://app?vid=e4ccce50-4824-4895-aa8c-033835526f23"},"vehicle_type_id":"4","last_reported":1761449724,"current_range_meters":16000,"station_id":"","pricing_plan_id":"cebpf4jnsgd1na2vs0mg"},{"bike_id":"6586bf90-b8c4-4eb8-89d5-5af30c464a58","system_id":"levelo_inurba_marseille","lat":43.28711,"lon":5.39974,"is_reserved":false,"is_disabled":false,"rental_uris":{"android":"levelo://app?vid=6586bf90-b8c4-4eb8-89d5-5af30c464a58","ios":"levelo://app?vid=6586bf90-b8c4-4eb8-89d5-5af30c464a58"},"vehicle_type_id":"4","last_reported":1761449724,"current_range_meters":16400,"station_id":"ce4bho92rcd13ifvqh3g","pricing_plan_id":"cebpf4jnsgd1na2vs0mg"},{"bike_id":"076b1675-da23-4da2-8566-0b033b3d5601","system_id":"levelo_inurba_marseille","lat":43.28705,"lon":5.40005,"is_reserved":false,"is_disabled":false,"rental_uris":{"android":"levelo://app?vid=076b1675-da23-4da2-8566-0b033b3d5601","ios":"levelo://app?vid=076b1675-da23-4da2-8566-0b033b3d5601"},"vehicle_type_id":"4","last_reported":1761449724,"current_range_meters":16400,"station_id":"ce4bho92rcd13ifvqh3g","pricing_plan_id":"cebpf4jnsgd1na2vs0mg"},{"bike_id":"de5cece4-6186-4ccb-b70e-a25e8bd3fc86","system_id":"levelo_inurba_marseille","lat":43.337444,"lon":5.374475,"is_reserved":false,"is_disabled":false,"rental_uris":{"android":"levelo://app?vid=de5cece4-6186-4ccb-b70e-a25e8bd3fc86","ios":"levelo://app?vid=de5cece4-6186-4ccb-b70e-a25e8bd3fc86"},"vehicle_type_id":"4","last_reported":1761449724,"current_range_meters":16400,"station_id":"","pricing_plan_id":"cebpf4jnsgd1na2vs0mg"},{"bike_id":"731aeccc-0da2-4fe8-a5e2-94574eb41cd3","system_id":"levelo_inurba_marseille","lat":43.278474,"lon":5.39226,"is_reserved":false,"is_disabled":false,"rental_uris":{"android":"levelo://app?vid=731aeccc-0da2-4fe8-a5e2-94574eb41cd3","ios":"levelo://app?vid=731aeccc-0da2-4fe8-a5e2-94574eb41cd3"},"vehicle_type_id":"4","last_reported":1761449724,"current_range_meters":16800,"station_id":"ce4bhjp2rcd13ifvqga0","pricing_plan_id":"cebpf4jnsgd1na2vs0mg"},{"bike_id":"476ede32-cfdc-42f2-8cc1-233e266f9923","system_id":"levelo_inurba_marseille","lat":43.295699,"lon":5.37555,"is_reserved":false,"is_disabled":false,"rental_uris":{"android":"levelo://app?vid=476ede32-cfdc-42f2-8cc1-233e266f9923","ios":"levelo://app?vid=476ede32-cfdc-42f2-8cc1-233e266f9923"},"vehicle_type_id":"4","last_reported":1761449724,"current_range_meters":16800,"station_id":"","pricing_plan_id":"cebpf4jnsgd1na2vs0mg"},{"bike_id":"1ffe1259-bda0-45d2-bfd5-822026a61c98","system_id":"levelo_inurba_marseille","lat":43.250856,"lon":5.395057,"is_reserved":false,"is_disabled":false,"rental_uris":{"android":"levelo://app?vid=1ffe1259-bda0-45d2-bfd5-822026a61c98","ios":"levelo://app?vid=1ffe1259-bda0-45d2-bfd5-822026a61c98"},"vehicle_type_id":"4","last_reported":1761449724,"current_range_meters":16800,"station_id":"ce4bhm12rcd13ifvqgkg","pricing_plan_id":"cebpf4jnsgd1na2vs0mg"},{"bike_id":"8847af5d-c1ad-4d8d-a5c1-273c3b41c105","system_id":"levelo_inurba_marseille","lat":43.32245,"lon":5.41961,"is_reserved":false,"is_disabled":false,"rental_uris":{"android":"levelo://app?vid=8847af5d-c1ad-4d8d-a5c1-273c3b41c105","ios":"levelo://app?vid=8847af5d-c1ad-4d8d-a5c1-273c3b41c105"},"vehicle_type_id":"4","last_reported":1761449724,"current_range_meters":16800,"station_id":"","pricing_plan_id":"cebpf4jnsgd1na2vs0mg"},{"bike_id":"cda71c7b-88f2-407d-84ac-548eccd03856","system_id":"levelo_inurba_marseille","lat":43.287054,"lon":5.399848,"is_reserved":false,"is_disabled":false,"rental_uris":{"android":"levelo://app?vid=cda71c7b-88f2-407d-84ac-548eccd03856","ios":"levelo://app?vid=cda71c7b-88f2-407d-84ac-548eccd03856"},"vehicle_type_id":"4","last_reported":1761449724,"current_range_meters":16800,"station_id":"ce4bho92rcd13ifvqh3g","pricing_plan_id":"cebpf4jnsgd1na2vs0mg"},{"bike_id":"46b0db6c-35c8-470b-a45d-db7e7afa9bfd","system_id":"levelo_inurba_marseille","lat":43.28413,"lon":5.37521,"is_reserved":false,"is_disabled":true,"rental_uris":{"android":"levelo://app?vid=46b0db6c-35c8-470b-a45d-db7e7afa9bfd","ios":"levelo://app?vid=46b0db6c-35c8-470b-a45d-db7e7afa9bfd"},"vehicle_type_id":"4","last_reported":1761449724,"current_range_meters":16800,"station_id":"ce4bh412rcd13ifvqds0","pricing_plan_id":"cebpf4jnsgd1na2vs0mg"},{"bike_id":"33768696-a2d3-45cb-a560-e61f09030a44","system_id":"levelo_inurba_marseille","lat":43.28691,"lon":5.39986,"is_reserved":false,"is_disabled":false,"rental_uris":{"android":"levelo://app?vid=33768696-a2d3-45cb-a560-e61f09030a44","ios":"levelo://app?vid=33768696-a2d3-45cb-a560-e61f09030a44"},"vehicle_type_id":"4","last_reported":1761449724,"current_range_meters":16800,"station_id":"ce4bho92rcd13ifvqh3g","pricing_plan_id":"cebpf4jnsgd1na2vs0mg"},{"bike_id":"67f8857f-0853-46d2-b9ef-96c5ce2639bc","system_id":"levelo_inurba_marseille","lat":43.230577,"lon":5.354843,"is_reserved":false,"is_disabled":false,"rental_uris":{"android":"levelo://app?vid=67f8857f-0853-46d2-b9ef-96c5ce2639bc","ios":"levelo://app?vid=67f8857f-0853-46d2-b9ef-96c5ce2639bc"},"vehicle_type_id":"4","last_reported":1761449724,"current_range_meters":16800,"station_id":"cpo3342slgdg3j2ifvpg","pricing_plan_id":"cebpf4jnsgd1na2vs0mg"},{"bike_id":"e5aafa61-e384-4c69-800b-fe726c41fdc6","system_id":"levelo_inurba_marseille","lat":43.29952,"lon":5.38439,"is_reserved":false,"is_disabled":true,"rental_uris":{"android":"levelo://app?vid=e5aafa61-e384-4c69-800b-fe726c41fdc6","ios":"levelo://app?vid=e5aafa61-e384-4c69-800b-fe726c41fdc6"},"vehicle_type_id":"4","last_reported":1761449724,"current_range_meters":16800,"station_id":"ce4bgj92rcd13ifvqbd0","pricing_plan_id":"cebpf4jnsgd1na2vs0mg"},{"bike_id":"e8c9a1ee-ed6f-4541-9142-80413064a185","system_id":"levelo_inurba_marseille","lat":43.32368,"lon":5.38878,"is_reserved":false,"is_disabled":false,"rental_uris":{"android":"levelo://app?vid=e8c9a1ee-ed6f-4541-9142-80413064a185","ios":"levelo://app?vid=e8c9a1ee-ed6f-4541-9142-80413064a185"},"vehicle_type_id":"4","last_reported":1761449724,"current_range_meters":16800,"station_id":"ce4bhqp2rcd13ifvqhog","pricing_plan_id":"cebpf4jnsgd1na2vs0mg"},{"bike_id":"cda7f354-0454-4149-a969-d9b7a4afc3f1","system_id":"levelo_inurba_marseille","lat":43.28948,"lon":5.36408,"is_reserved":false,"is_disabled":false,"rental_uris":{"android":"levelo://app?vid=cda7f354-0454-4149-a969-d9b7a4afc3f1","ios":"levelo://app?vid=cda7f354-0454-4149-a969-d9b7a4afc3f1"},"vehicle_type_id":"4","last_reported":1761449724,"current_range_meters":17200,"station_id":"ce4bhc92rcd13ifvqetg","pricing_plan_id":"cebpf4jnsgd1na2vs0mg"},{"bike_id":"e07e8bbf-9ed8-4275-b653-bb6549fa9ed8","system_id":"levelo_inurba_marseille","lat":43.29422,"lon":5.39743,"is_reserved":false,"is_disabled":false,"rental_uris":{"android":"levelo://app?vid=e07e8bbf-9ed8-4275-b653-bb6549fa9ed8","ios":"levelo://app?vid=e07e8bbf-9ed8-4275-b653-bb6549fa9ed8"},"vehicle_type_id":"4","last_reported":1761449724,"current_range_meters":17200,"station_id":"ce4bh3h2rcd13ifvqdo0","pricing_plan_id":"cebpf4jnsgd1na2vs0mg"},{"bike_id":"7a1877e8-1310-4142-900d-3cea9a2ef65f","system_id":"levelo_inurba_marseille","lat":43.294888,"lon":5.433007,"is_reserved":false,"is_disabled":false,"rental_uris":{"android":"levelo://app?vid=7a1877e8-1310-4142-900d-3cea9a2ef65f","ios":"levelo://app?vid=7a1877e8-1310-4142-900d-3cea9a2ef65f"},"vehicle_type_id":"4","last_reported":1761449724,"current_range_meters":17200,"station_id":"st_d3j5ugp08ojc73fj9d10","pricing_plan_id":"cebpf4jnsgd1na2vs0mg"},{"bike_id":"80bbf991-6681-4970-b679-b420bff212f4","system_id":"levelo_inurba_marseille","lat":43.31115,"lon":5.37773,"is_reserved":false,"is_disabled":false,"rental_uris":{"android":"levelo://app?vid=80bbf991-6681-4970-b679-b420bff212f4","ios":"levelo://app?vid=80bbf991-6681-4970-b679-b420bff212f4"},"vehicle_type_id":"4","last_reported":1761449724,"current_range_meters":17200,"station_id":"ce4bgt92rcd13ifvqcg0","pricing_plan_id":"cebpf4jnsgd1na2vs0mg"},{"bike_id":"1c18cac1-a78c-48f3-8ede-93a5617120b1","system_id":"levelo_inurba_marseille","lat":43.32475,"lon":5.365647,"is_reserved":false,"is_disabled":false,"rental_uris":{"android":"levelo://app?vid=1c18cac1-a78c-48f3-8ede-93a5617120b1","ios":"levelo://app?vid=1c18cac1-a78c-48f3-8ede-93a5617120b1"},"vehicle_type_id":"4","last_reported":1761449724,"current_range_meters":17200,"station_id":"ce4bhs12rcd13ifvqhvg","pricing_plan_id":"cebpf4jnsgd1na2vs0mg"},{"bike_id":"64b75b4a-3497-4861-8cc2-90dd62cd9f5e","system_id":"levelo_inurba_marseille","lat":43.294851,"lon":5.43304,"is_reserved":false,"is_disabled":false,"rental_uris":{"android":"levelo://app?vid=64b75b4a-3497-4861-8cc2-90dd62cd9f5e","ios":"levelo://app?vid=64b75b4a-3497-4861-8cc2-90dd62cd9f5e"},"vehicle_type_id":"4","last_reported":1761449724,"current_range_meters":17200,"station_id":"st_d3j5ugp08ojc73fj9d10","pricing_plan_id":"cebpf4jnsgd1na2vs0mg"},{"bike_id":"fc900bb4-539d-4c37-92c1-81891d689b0b","system_id":"levelo_inurba_marseille","lat":43.260277,"lon":5.375498,"is_reserved":false,"is_disabled":false,"rental_uris":{"android":"levelo://app?vid=fc900bb4-539d-4c37-92c1-81891d689b0b","ios":"levelo://app?vid=fc900bb4-539d-4c37-92c1-81891d689b0b"},"vehicle_type_id":"4","last_reported":1761449724,"current_range_meters":17200,"station_id":"ce4bhgh2rcd13ifvqfa0","pricing_plan_id":"cebpf4jnsgd1na2vs0mg"},{"bike_id":"2a5b7299-20c3-4378-bf5a-92d9cd0f3d4c","system_id":"levelo_inurba_marseille","lat":43.303223,"lon":5.369355,"is_reserved":false,"is_disabled":false,"rental_uris":{"android":"levelo://app?vid=2a5b7299-20c3-4378-bf5a-92d9cd0f3d4c","ios":"levelo://app?vid=2a5b7299-20c3-4378-bf5a-92d9cd0f3d4c"},"vehicle_type_id":"4","last_reported":1761449724,"current_range_meters":17200,"station_id":"ce4bha12rcd13ifvqef0","pricing_plan_id":"cebpf4jnsgd1na2vs0mg"},{"bike_id":"c124d4a0-9e47-48ec-ad7a-ea36eb6e5d35","system_id":"levelo_inurba_marseille","lat":43.243977,"lon":5.370501,"is_reserved":false,"is_disabled":false,"rental_uris":{"android":"levelo://app?vid=c124d4a0-9e47-48ec-ad7a-ea36eb6e5d35","ios":"levelo://app?vid=c124d4a0-9e47-48ec-ad7a-ea36eb6e5d35"},"vehicle_type_id":"4","last_reported":1761449724,"current_range_meters":17200,"station_id":"ce4bhhh2rcd13ifvqfk0","pricing_plan_id":"cebpf4jnsgd1na2vs0mg"},{"bike_id":"ee63d3c4-f9ad-48dd-a91b-8e565e473a00","system_id":"levelo_inurba_marseille","lat":43.30123,"lon":5.43096,"is_reserved":false,"is_disabled":false,"rental_uris":{"android":"levelo://app?vid=ee63d3c4-f9ad-48dd-a91b-8e565e473a00","ios":"levelo://app?vid=ee63d3c4-f9ad-48dd-a91b-8e565e473a00"},"vehicle_type_id":"4","last_reported":1761449724,"current_range_meters":17600,"station_id":"st_d3js3co5814s73ftftug","pricing_plan_id":"cebpf4jnsgd1na2vs0mg"},{"bike_id":"af9e12e7-38b8-459b-8665-a09998ee41f3","system_id":"levelo_inurba_marseille","lat":43.24659,"lon":5.38893,"is_reserved":false,"is_disabled":false,"rental_uris":{"android":"levelo://app?vid=af9e12e7-38b8-459b-8665-a09998ee41f3","ios":"levelo://app?vid=af9e12e7-38b8-459b-8665-a09998ee41f3"},"vehicle_type_id":"4","last_reported":1761449724,"current_range_meters":17600,"station_id":"ce4bhg12rcd13ifvqf60","pricing_plan_id":"cebpf4jnsgd1na2vs0mg"},{"bike_id":"a70a5c56-54da-4a9c-92ae-4bd04c5f57d9","system_id":"levelo_inurba_marseille","lat":43.29903,"lon":5.43667,"is_reserved":false,"is_disabled":false,"rental_uris":{"android":"levelo://app?vid=a70a5c56-54da-4a9c-92ae-4bd04c5f57d9","ios":"levelo://app?vid=a70a5c56-54da-4a9c-92ae-4bd04c5f57d9"},"vehicle_type_id":"4","last_reported":1761449724,"current_range_meters":17600,"station_id":"ce4bhpp2rcd13ifvqhfg","pricing_plan_id":"cebpf4jnsgd1na2vs0mg"},{"bike_id":"317107fa-306d-4b8d-9380-a16cd06486ce","system_id":"levelo_inurba_marseille","lat":43.284648,"lon":5.358887,"is_reserved":false,"is_disabled":true,"rental_uris":{"android":"levelo://app?vid=317107fa-306d-4b8d-9380-a16cd06486ce","ios":"levelo://app?vid=317107fa-306d-4b8d-9380-a16cd06486ce"},"vehicle_type_id":"4","last_reported":1761449724,"current_range_meters":17600,"station_id":"ce4bhah2rcd13ifvqei0","pricing_plan_id":"cebpf4jnsgd1na2vs0mg"},{"bike_id":"26c6a81a-4568-4934-a001-6703f4c6d2e7","system_id":"levelo_inurba_marseille","lat":43.313605,"lon":5.38502,"is_reserved":false,"is_disabled":false,"rental_uris":{"android":"levelo://app?vid=26c6a81a-4568-4934-a001-6703f4c6d2e7","ios":"levelo://app?vid=26c6a81a-4568-4934-a001-6703f4c6d2e7"},"vehicle_type_id":"4","last_reported":1761449724,"current_range_meters":17600,"station_id":"ce4bgt92rcd13ifvqcf0","pricing_plan_id":"cebpf4jnsgd1na2vs0mg"},{"bike_id":"baa93571-061d-4d98-a7c4-ab842c53f2f8","system_id":"levelo_inurba_marseille","lat":43.301325,"lon":5.385045,"is_reserved":false,"is_disabled":false,"rental_uris":{"android":"levelo://app?vid=baa93571-061d-4d98-a7c4-ab842c53f2f8","ios":"levelo://app?vid=baa93571-061d-4d98-a7c4-ab842c53f2f8"},"vehicle_type_id":"4","last_reported":1761449724,"current_range_meters":18000,"station_id":"","pricing_plan_id":"cebpf4jnsgd1na2vs0mg"},{"bike_id":"63496c9e-d690-4500-b92f-a176f5c5177f","system_id":"levelo_inurba_marseille","lat":43.306135,"lon":5.372061,"is_reserved":false,"is_disabled":false,"rental_uris":{"android":"levelo://app?vid=63496c9e-d690-4500-b92f-a176f5c5177f","ios":"levelo://app?vid=63496c9e-d690-4500-b92f-a176f5c5177f"},"vehicle_type_id":"4","last_reported":1761449724,"current_range_meters":18000,"station_id":"ce4bgqh2rcd13ifvqc4g","pricing_plan_id":"cebpf4jnsgd1na2vs0mg"},{"bike_id":"8f1595ee-0c39-45ec-bd05-7feb852a34d8","system_id":"levelo_inurba_marseille","lat":43.250865,"lon":5.3951,"is_reserved":false,"is_disabled":false,"rental_uris":{"android":"levelo://app?vid=8f1595ee-0c39-45ec-bd05-7feb852a34d8","ios":"levelo://app?vid=8f1595ee-0c39-45ec-bd05-7feb852a34d8"},"vehicle_type_id":"4","last_reported":1761449724,"current_range_meters":18000,"station_id":"ce4bhm12rcd13ifvqgkg","pricing_plan_id":"cebpf4jnsgd1na2vs0mg"},{"bike_id":"ca8c5fef-8841-4e27-bf56-b75f84bec5da","system_id":"levelo_inurba_marseille","lat":43.23785,"lon":5.36627,"is_reserved":false,"is_disabled":false,"rental_uris":{"android":"levelo://app?vid=ca8c5fef-8841-4e27-bf56-b75f84bec5da","ios":"levelo://app?vid=ca8c5fef-8841-4e27-bf56-b75f84bec5da"},"vehicle_type_id":"4","last_reported":1761449724,"current_range_meters":18000,"station_id":"st_d3nk18o9ro0c73en2l3g","pricing_plan_id":"cebpf4jnsgd1na2vs0mg"},{"bike_id":"765344d1-c0a8-4bf2-bef9-e18721fcf44c","system_id":"levelo_inurba_marseille","lat":43.2468,"lon":5.38201,"is_reserved":false,"is_disabled":false,"rental_uris":{"android":"levelo://app?vid=765344d1-c0a8-4bf2-bef9-e18721fcf44c","ios":"levelo://app?vid=765344d1-c0a8-4bf2-bef9-e18721fcf44c"},"vehicle_type_id":"4","last_reported":1761449724,"current_range_meters":18000,"station_id":"ce4bhih2rcd13ifvqfr0","pricing_plan_id":"cebpf4jnsgd1na2vs0mg"},{"bike_id":"ad166e8d-320f-47c2-bfd9-9e014a946d21","system_id":"levelo_inurba_marseille","lat":43.27812,"lon":5.4073,"is_reserved":false,"is_disabled":true,"rental_uris":{"android":"levelo://app?vid=ad166e8d-320f-47c2-bfd9-9e014a946d21","ios":"levelo://app?vid=ad166e8d-320f-47c2-bfd9-9e014a946d21"},"vehicle_type_id":"4","last_reported":1761449724,"current_range_meters":18000,"station_id":"ce4bhnh2rcd13ifvqgtg","pricing_plan_id":"cebpf4jnsgd1na2vs0mg"},{"bike_id":"e743463d-8a9a-44c6-bb87-cd5e05ed4042","system_id":"levelo_inurba_marseille","lat":43.30378,"lon":5.42489,"is_reserved":false,"is_disabled":false,"rental_uris":{"android":"levelo://app?vid=e743463d-8a9a-44c6-bb87-cd5e05ed4042","ios":"levelo://app?vid=e743463d-8a9a-44c6-bb87-cd5e05ed4042"},"vehicle_type_id":"4","last_reported":1761449724,"current_range_meters":18800,"station_id":"ce4bhoh2rcd13ifvqh6g","pricing_plan_id":"cebpf4jnsgd1na2vs0mg"},{"bike_id":"6ee611b3-bf13-495e-a0dc-dfd1a8718271","system_id":"levelo_inurba_marseille","lat":43.298156,"lon":5.440574,"is_reserved":false,"is_disabled":false,"rental_uris":{"android":"levelo://app?vid=6ee611b3-bf13-495e-a0dc-dfd1a8718271","ios":"levelo://app?vid=6ee611b3-bf13-495e-a0dc-dfd1a8718271"},"vehicle_type_id":"4","last_reported":1761449724,"current_range_meters":18800,"station_id":"st_d3jp68qikq2c7381ktn0","pricing_plan_id":"cebpf4jnsgd1na2vs0mg"},{"bike_id":"528aef34-7fbc-4a2b-b380-aa6d55aa5885","system_id":"levelo_inurba_marseille","lat":43.26067,"lon":5.39392,"is_reserved":false,"is_disabled":false,"rental_uris":{"android":"levelo://app?vid=528aef34-7fbc-4a2b-b380-aa6d55aa5885","ios":"levelo://app?vid=528aef34-7fbc-4a2b-b380-aa6d55aa5885"},"vehicle_type_id":"4","last_reported":1761449724,"current_range_meters":18800,"station_id":"ce4bhh92rcd13ifvqfj0","pricing_plan_id":"cebpf4jnsgd1na2vs0mg"},{"bike_id":"d290b727-6836-4e17-bb70-fa6919fa7378","system_id":"levelo_inurba_marseille","lat":43.25516,"lon":5.3766,"is_reserved":false,"is_disabled":false,"rental_uris":{"android":"levelo://app?vid=d290b727-6836-4e17-bb70-fa6919fa7378","ios":"levelo://app?vid=d290b727-6836-4e17-bb70-fa6919fa7378"},"vehicle_type_id":"4","last_reported":1761449724,"current_range_meters":18800,"station_id":"ce4bhh12rcd13ifvqff0","pricing_plan_id":"cebpf4jnsgd1na2vs0mg"},{"bike_id":"53619b52-f6a4-4a36-9715-aa47e9e64dbc","system_id":"levelo_inurba_marseille","lat":43.292422,"lon":5.384291,"is_reserved":false,"is_disabled":true,"rental_uris":{"android":"levelo://app?vid=53619b52-f6a4-4a36-9715-aa47e9e64dbc","ios":"levelo://app?vid=53619b52-f6a4-4a36-9715-aa47e9e64dbc"},"vehicle_type_id":"4","last_reported":1761449724,"current_range_meters":18800,"station_id":"ce4bh692rcd13ifvqea0","pricing_plan_id":"cebpf4jnsgd1na2vs0mg"},{"bike_id":"de7582b4-8119-4dc4-89b9-6ead48018aad","system_id":"levelo_inurba_marseille","lat":43.30323,"lon":5.40445,"is_reserved":false,"is_disabled":false,"rental_uris":{"android":"levelo://app?vid=de7582b4-8119-4dc4-89b9-6ead48018aad","ios":"levelo://app?vid=de7582b4-8119-4dc4-89b9-6ead48018aad"},"vehicle_type_id":"4","last_reported":1761449724,"current_range_meters":18800,"station_id":"ce4bh012rcd13ifvqd10","pricing_plan_id":"cebpf4jnsgd1na2vs0mg"},{"bike_id":"cbcdd39f-b16b-4830-bef7-1f20f112a7de","system_id":"levelo_inurba_marseille","lat":43.31987,"lon":5.38138,"is_reserved":false,"is_disabled":false,"rental_uris":{"android":"levelo://app?vid=cbcdd39f-b16b-4830-bef7-1f20f112a7de","ios":"levelo://app?vid=cbcdd39f-b16b-4830-bef7-1f20f112a7de"},"vehicle_type_id":"4","last_reported":1761449724,"current_range_meters":18800,"station_id":"ce4bhr12rcd13ifvqhpg","pricing_plan_id":"cebpf4jnsgd1na2vs0mg"},{"bike_id":"87bbf993-1256-4c6b-a1f8-ec4c8719189d","system_id":"levelo_inurba_marseille","lat":43.27843,"lon":5.39213,"is_reserved":false,"is_disabled":false,"rental_uris":{"android":"levelo://app?vid=87bbf993-1256-4c6b-a1f8-ec4c8719189d","ios":"levelo://app?vid=87bbf993-1256-4c6b-a1f8-ec4c8719189d"},"vehicle_type_id":"4","last_reported":1761449724,"current_range_meters":18800,"station_id":"ce4bhjp2rcd13ifvqga0","pricing_plan_id":"cebpf4jnsgd1na2vs0mg"},{"bike_id":"7f389dfa-e0ac-4ffa-a888-5a224a168bfb","system_id":"levelo_inurba_marseille","lat":43.246926,"lon":5.381418,"is_reserved":false,"is_disabled":false,"rental_uris":{"android":"levelo://app?vid=7f389dfa-e0ac-4ffa-a888-5a224a168bfb","ios":"levelo://app?vid=7f389dfa-e0ac-4ffa-a888-5a224a168bfb"},"vehicle_type_id":"4","last_reported":1761449724,"current_range_meters":18800,"station_id":"ce4bhih2rcd13ifvqfr0","pricing_plan_id":"cebpf4jnsgd1na2vs0mg"},{"bike_id":"b711399f-b3e7-48ed-b950-30750d9f548b","system_id":"levelo_inurba_marseille","lat":43.31061,"lon":5.38353,"is_reserved":false,"is_disabled":false,"rental_uris":{"android":"levelo://app?vid=b711399f-b3e7-48ed-b950-30750d9f548b","ios":"levelo://app?vid=b711399f-b3e7-48ed-b950-30750d9f548b"},"vehicle_type_id":"4","last_reported":1761449724,"current_range_meters":18800,"station_id":"ce4bgv92rcd13ifvqcr0","pricing_plan_id":"cebpf4jnsgd1na2vs0mg"},{"bike_id":"de0ca7a8-116a-46c8-8c50-6b445a473423","system_id":"levelo_inurba_marseille","lat":43.28866,"lon":5.42491,"is_reserved":false,"is_disabled":false,"rental_uris":{"android":"levelo://app?vid=de0ca7a8-116a-46c8-8c50-6b445a473423","ios":"levelo://app?vid=de0ca7a8-116a-46c8-8c50-6b445a473423"},"vehicle_type_id":"4","last_reported":1761449724,"current_range_meters":19200,"station_id":"st_d3b462108ojc7389ooeg","pricing_plan_id":"cebpf4jnsgd1na2vs0mg"},{"bike_id":"bac1245a-88c1-4fe5-baae-0f4a8b74990b","system_id":"levelo_inurba_marseille","lat":43.24661,"lon":5.38896,"is_reserved":false,"is_disabled":false,"rental_uris":{"android":"levelo://app?vid=bac1245a-88c1-4fe5-baae-0f4a8b74990b","ios":"levelo://app?vid=bac1245a-88c1-4fe5-baae-0f4a8b74990b"},"vehicle_type_id":"4","last_reported":1761449724,"current_range_meters":19200,"station_id":"ce4bhg12rcd13ifvqf60","pricing_plan_id":"cebpf4jnsgd1na2vs0mg"},{"bike_id":"5cfe4b7d-6d3f-48bf-8c47-cb158467e709","system_id":"levelo_inurba_marseille","lat":43.29258,"lon":5.40902,"is_reserved":false,"is_disabled":false,"rental_uris":{"android":"levelo://app?vid=5cfe4b7d-6d3f-48bf-8c47-cb158467e709","ios":"levelo://app?vid=5cfe4b7d-6d3f-48bf-8c47-cb158467e709"},"vehicle_type_id":"4","last_reported":1761449724,"current_range_meters":19200,"station_id":"ce4bh192rcd13ifvqdc0","pricing_plan_id":"cebpf4jnsgd1na2vs0mg"},{"bike_id":"7a6d68ca-a21b-4edb-8a04-d3198efcf4e1","system_id":"levelo_inurba_marseille","lat":43.27951,"lon":5.4103,"is_reserved":false,"is_disabled":false,"rental_uris":{"android":"levelo://app?vid=7a6d68ca-a21b-4edb-8a04-d3198efcf4e1","ios":"levelo://app?vid=7a6d68ca-a21b-4edb-8a04-d3198efcf4e1"},"vehicle_type_id":"4","last_reported":1761449724,"current_range_meters":19200,"station_id":"ce4bhnp2rcd13ifvqh0g","pricing_plan_id":"cebpf4jnsgd1na2vs0mg"},{"bike_id":"ce15d64c-7bd4-4017-a01a-0dc353c2995b","system_id":"levelo_inurba_marseille","lat":43.281327,"lon":5.350203,"is_reserved":false,"is_disabled":false,"rental_uris":{"android":"levelo://app?vid=ce15d64c-7bd4-4017-a01a-0dc353c2995b","ios":"levelo://app?vid=ce15d64c-7bd4-4017-a01a-0dc353c2995b"},"vehicle_type_id":"4","last_reported":1761449724,"current_range_meters":19200,"station_id":"","pricing_plan_id":"cebpf4jnsgd1na2vs0mg"},{"bike_id":"d89cae02-c286-46f1-8467-19851e436161","system_id":"levelo_inurba_marseille","lat":43.26059,"lon":5.393977,"is_reserved":false,"is_disabled":false,"rental_uris":{"android":"levelo://app?vid=d89cae02-c286-46f1-8467-19851e436161","ios":"levelo://app?vid=d89cae02-c286-46f1-8467-19851e436161"},"vehicle_type_id":"4","last_reported":1761449724,"current_range_meters":19600,"station_id":"ce4bhh92rcd13ifvqfj0","pricing_plan_id":"cebpf4jnsgd1na2vs0mg"},{"bike_id":"e5782673-6e31-49d6-a807-809e270a9ea0","system_id":"levelo_inurba_marseille","lat":43.29934,"lon":5.36556,"is_reserved":false,"is_disabled":false,"rental_uris":{"android":"levelo://app?vid=e5782673-6e31-49d6-a807-809e270a9ea0","ios":"levelo://app?vid=e5782673-6e31-49d6-a807-809e270a9ea0"},"vehicle_type_id":"4","last_reported":1761449724,"current_range_meters":19600,"station_id":"ce4bgm92rcd13ifvqbr0","pricing_plan_id":"cebpf4jnsgd1na2vs0mg"},{"bike_id":"7165d414-e8a5-415f-8a72-9e3295be2a67","system_id":"levelo_inurba_marseille","lat":43.310476,"lon":5.378976,"is_reserved":false,"is_disabled":false,"rental_uris":{"android":"levelo://app?vid=7165d414-e8a5-415f-8a72-9e3295be2a67","ios":"levelo://app?vid=7165d414-e8a5-415f-8a72-9e3295be2a67"},"vehicle_type_id":"4","last_reported":1761449724,"current_range_meters":19600,"station_id":"","pricing_plan_id":"cebpf4jnsgd1na2vs0mg"},{"bike_id":"dd49c643-708e-4930-9902-c0a947f622bd","system_id":"levelo_inurba_marseille","lat":43.230577,"lon":5.354935,"is_reserved":false,"is_disabled":false,"rental_uris":{"android":"levelo://app?vid=dd49c643-708e-4930-9902-c0a947f622bd","ios":"levelo://app?vid=dd49c643-708e-4930-9902-c0a947f622bd"},"vehicle_type_id":"4","last_reported":1761449724,"current_range_meters":19600,"station_id":"cpo3342slgdg3j2ifvpg","pricing_plan_id":"cebpf4jnsgd1na2vs0mg"},{"bike_id":"7ebb4a77-9058-4726-915d-018c57111d93","system_id":"levelo_inurba_marseille","lat":43.313287,"lon":5.397009,"is_reserved":false,"is_disabled":false,"rental_uris":{"android":"levelo://app?vid=7ebb4a77-9058-4726-915d-018c57111d93","ios":"levelo://app?vid=7ebb4a77-9058-4726-915d-018c57111d93"},"vehicle_type_id":"4","last_reported":1761449724,"current_range_meters":19600,"station_id":"ce4bgvp2rcd13ifvqcu0","pricing_plan_id":"cebpf4jnsgd1na2vs0mg"},{"bike_id":"f6f41915-49e3-4fb8-8c5c-96d42e084e15","system_id":"levelo_inurba_marseille","lat":43.320296,"lon":5.371105,"is_reserved":false,"is_disabled":false,"rental_uris":{"android":"levelo://app?vid=f6f41915-49e3-4fb8-8c5c-96d42e084e15","ios":"levelo://app?vid=f6f41915-49e3-4fb8-8c5c-96d42e084e15"},"vehicle_type_id":"4","last_reported":1761449724,"current_range_meters":19600,"station_id":"","pricing_plan_id":"cebpf4jnsgd1na2vs0mg"},{"bike_id":"e9c59ef7-f889-42af-a387-98050af3bbe7","system_id":"levelo_inurba_marseille","lat":43.30876,"lon":5.39639,"is_reserved":false,"is_disabled":false,"rental_uris":{"android":"levelo://app?vid=e9c59ef7-f889-42af-a387-98050af3bbe7","ios":"levelo://app?vid=e9c59ef7-f889-42af-a387-98050af3bbe7"},"vehicle_type_id":"4","last_reported":1761449724,"current_range_meters":19600,"station_id":"ce4bh012rcd13ifvqcv0","pricing_plan_id":"cebpf4jnsgd1na2vs0mg"},{"bike_id":"cf2edc85-5546-4730-8729-79cad6d71f12","system_id":"levelo_inurba_marseille","lat":43.3137,"lon":5.38504,"is_reserved":false,"is_disabled":false,"rental_uris":{"android":"levelo://app?vid=cf2edc85-5546-4730-8729-79cad6d71f12","ios":"levelo://app?vid=cf2edc85-5546-4730-8729-79cad6d71f12"},"vehicle_type_id":"4","last_reported":1761449724,"current_range_meters":19600,"station_id":"ce4bgt92rcd13ifvqcf0","pricing_plan_id":"cebpf4jnsgd1na2vs0mg"},{"bike_id":"b093f329-277a-43e7-9ff3-54a02ec2f529","system_id":"levelo_inurba_marseille","lat":43.31123,"lon":5.37765,"is_reserved":false,"is_disabled":false,"rental_uris":{"android":"levelo://app?vid=b093f329-277a-43e7-9ff3-54a02ec2f529","ios":"levelo://app?vid=b093f329-277a-43e7-9ff3-54a02ec2f529"},"vehicle_type_id":"4","last_reported":1761449724,"current_range_meters":19600,"station_id":"ce4bgt92rcd13ifvqcg0","pricing_plan_id":"cebpf4jnsgd1na2vs0mg"},{"bike_id":"36d7fbc3-e4e1-4b61-8e94-e74b2c6446ca","system_id":"levelo_inurba_marseille","lat":43.255094,"lon":5.376447,"is_reserved":false,"is_disabled":true,"rental_uris":{"android":"levelo://app?vid=36d7fbc3-e4e1-4b61-8e94-e74b2c6446ca","ios":"levelo://app?vid=36d7fbc3-e4e1-4b61-8e94-e74b2c6446ca"},"vehicle_type_id":"4","last_reported":1761449724,"current_range_meters":20000,"station_id":"ce4bhh12rcd13ifvqff0","pricing_plan_id":"cebpf4jnsgd1na2vs0mg"},{"bike_id":"6eb9a672-8cb2-4252-94ed-40f0b3bbf07b","system_id":"levelo_inurba_marseille","lat":43.30167,"lon":5.38071,"is_reserved":false,"is_disabled":false,"rental_uris":{"android":"levelo://app?vid=6eb9a672-8cb2-4252-94ed-40f0b3bbf07b","ios":"levelo://app?vid=6eb9a672-8cb2-4252-94ed-40f0b3bbf07b"},"vehicle_type_id":"4","last_reported":1761449724,"current_range_meters":20000,"station_id":"ce4bgjp2rcd13ifvqbh0","pricing_plan_id":"cebpf4jnsgd1na2vs0mg"},{"bike_id":"94aaf935-55ff-4431-b612-265a39fb330c","system_id":"levelo_inurba_marseille","lat":43.29036,"lon":5.38624,"is_reserved":false,"is_disabled":true,"rental_uris":{"android":"levelo://app?vid=94aaf935-55ff-4431-b612-265a39fb330c","ios":"levelo://app?vid=94aaf935-55ff-4431-b612-265a39fb330c"},"vehicle_type_id":"4","last_reported":1761449724,"current_range_meters":20000,"station_id":"ce4bh4p2rcd13ifvqe0g","pricing_plan_id":"cebpf4jnsgd1na2vs0mg"},{"bike_id":"b9ae3ff8-1fd5-421b-a8a3-72ad80cdae9e","system_id":"levelo_inurba_marseille","lat":43.26585,"lon":5.38997,"is_reserved":false,"is_disabled":false,"rental_uris":{"android":"levelo://app?vid=b9ae3ff8-1fd5-421b-a8a3-72ad80cdae9e","ios":"levelo://app?vid=b9ae3ff8-1fd5-421b-a8a3-72ad80cdae9e"},"vehicle_type_id":"4","last_reported":1761449724,"current_range_meters":20000,"station_id":"ce4bhe12rcd13ifvqf30","pricing_plan_id":"cebpf4jnsgd1na2vs0mg"},{"bike_id":"ab21c459-409a-4641-a994-5fab6aa4b8bd","system_id":"levelo_inurba_marseille","lat":43.308911,"lon":5.371844,"is_reserved":false,"is_disabled":false,"rental_uris":{"android":"levelo://app?vid=ab21c459-409a-4641-a994-5fab6aa4b8bd","ios":"levelo://app?vid=ab21c459-409a-4641-a994-5fab6aa4b8bd"},"vehicle_type_id":"4","last_reported":1761449724,"current_range_meters":20000,"station_id":"ce4bguh2rcd13ifvqckg","pricing_plan_id":"cebpf4jnsgd1na2vs0mg"},{"bike_id":"766024bb-f0cf-4573-8d62-7934baf6c547","system_id":"levelo_inurba_marseille","lat":43.29032,"lon":5.39868,"is_reserved":false,"is_disabled":false,"rental_uris":{"android":"levelo://app?vid=766024bb-f0cf-4573-8d62-7934baf6c547","ios":"levelo://app?vid=766024bb-f0cf-4573-8d62-7934baf6c547"},"vehicle_type_id":"4","last_reported":1761449724,"current_range_meters":20000,"station_id":"ce4bh392rcd13ifvqdm0","pricing_plan_id":"cebpf4jnsgd1na2vs0mg"},{"bike_id":"c1c167dd-f5e3-43a8-a933-1a6a5ed79d07","system_id":"levelo_inurba_marseille","lat":43.23047,"lon":5.35496,"is_reserved":false,"is_disabled":false,"rental_uris":{"android":"levelo://app?vid=c1c167dd-f5e3-43a8-a933-1a6a5ed79d07","ios":"levelo://app?vid=c1c167dd-f5e3-43a8-a933-1a6a5ed79d07"},"vehicle_type_id":"4","last_reported":1761449724,"current_range_meters":20000,"station_id":"cpo3342slgdg3j2ifvpg","pricing_plan_id":"cebpf4jnsgd1na2vs0mg"},{"bike_id":"f11b7d45-67d1-4eb4-b8b6-69c65c9cd299","system_id":"levelo_inurba_marseille","lat":43.30778,"lon":5.37665,"is_reserved":false,"is_disabled":false,"rental_uris":{"android":"levelo://app?vid=f11b7d45-67d1-4eb4-b8b6-69c65c9cd299","ios":"levelo://app?vid=f11b7d45-67d1-4eb4-b8b6-69c65c9cd299"},"vehicle_type_id":"4","last_reported":1761449724,"current_range_meters":20000,"station_id":"ce4bgv92rcd13ifvqcq0","pricing_plan_id":"cebpf4jnsgd1na2vs0mg"},{"bike_id":"50dd3cec-7415-41a0-8a40-a15df02d7acc","system_id":"levelo_inurba_marseille","lat":43.29831,"lon":5.38089,"is_reserved":false,"is_disabled":false,"rental_uris":{"android":"levelo://app?vid=50dd3cec-7415-41a0-8a40-a15df02d7acc","ios":"levelo://app?vid=50dd3cec-7415-41a0-8a40-a15df02d7acc"},"vehicle_type_id":"4","last_reported":1761449724,"current_range_meters":20000,"station_id":"ce4bgip2rcd13ifvqbb0","pricing_plan_id":"cebpf4jnsgd1na2vs0mg"},{"bike_id":"ce55d04d-c530-453c-8470-08457d10d42c","system_id":"levelo_inurba_marseille","lat":43.28073,"lon":5.39649,"is_reserved":false,"is_disabled":false,"rental_uris":{"android":"levelo://app?vid=ce55d04d-c530-453c-8470-08457d10d42c","ios":"levelo://app?vid=ce55d04d-c530-453c-8470-08457d10d42c"},"vehicle_type_id":"4","last_reported":1761449724,"current_range_meters":20000,"station_id":"ce4bho12rcd13ifvqh2g","pricing_plan_id":"cebpf4jnsgd1na2vs0mg"},{"bike_id":"c7dc7d8a-05e2-4ea3-8adc-2dd23fbc4f29","system_id":"levelo_inurba_marseille","lat":43.28175,"lon":5.42602,"is_reserved":false,"is_disabled":false,"rental_uris":{"android":"levelo://app?vid=c7dc7d8a-05e2-4ea3-8adc-2dd23fbc4f29","ios":"levelo://app?vid=c7dc7d8a-05e2-4ea3-8adc-2dd23fbc4f29"},"vehicle_type_id":"4","last_reported":1761449724,"current_range_meters":20400,"station_id":"ce4bhnh2rcd13ifvqgug","pricing_plan_id":"cebpf4jnsgd1na2vs0mg"},{"bike_id":"79f9cde6-2fc1-438e-a896-83f6555a03e6","system_id":"levelo_inurba_marseille","lat":43.3211,"lon":5.36788,"is_reserved":false,"is_disabled":false,"rental_uris":{"android":"levelo://app?vid=79f9cde6-2fc1-438e-a896-83f6555a03e6","ios":"levelo://app?vid=79f9cde6-2fc1-438e-a896-83f6555a03e6"},"vehicle_type_id":"4","last_reported":1761449724,"current_range_meters":20400,"station_id":"ce4bhrh2rcd13ifvqhug","pricing_plan_id":"cebpf4jnsgd1na2vs0mg"},{"bike_id":"26c48375-1e6e-43b2-9750-bd0ef6e16469","system_id":"levelo_inurba_marseille","lat":43.22562,"lon":5.41632,"is_reserved":false,"is_disabled":false,"rental_uris":{"android":"levelo://app?vid=26c48375-1e6e-43b2-9750-bd0ef6e16469","ios":"levelo://app?vid=26c48375-1e6e-43b2-9750-bd0ef6e16469"},"vehicle_type_id":"4","last_reported":1761449724,"current_range_meters":20400,"station_id":"st_d2o4gvlbi1j2169b742g","pricing_plan_id":"cebpf4jnsgd1na2vs0mg"},{"bike_id":"895ffdf7-4451-4c60-af0b-ac75220bdc28","system_id":"levelo_inurba_marseille","lat":43.28214,"lon":5.39069,"is_reserved":false,"is_disabled":false,"rental_uris":{"android":"levelo://app?vid=895ffdf7-4451-4c60-af0b-ac75220bdc28","ios":"levelo://app?vid=895ffdf7-4451-4c60-af0b-ac75220bdc28"},"vehicle_type_id":"4","last_reported":1761449724,"current_range_meters":20400,"station_id":"ce4bhn92rcd13ifvqgsg","pricing_plan_id":"cebpf4jnsgd1na2vs0mg"},{"bike_id":"e92a5181-3093-4535-adde-2230374de0aa","system_id":"levelo_inurba_marseille","lat":43.31369,"lon":5.3769,"is_reserved":false,"is_disabled":false,"rental_uris":{"android":"levelo://app?vid=e92a5181-3093-4535-adde-2230374de0aa","ios":"levelo://app?vid=e92a5181-3093-4535-adde-2230374de0aa"},"vehicle_type_id":"4","last_reported":1761449724,"current_range_meters":20400,"station_id":"","pricing_plan_id":"cebpf4jnsgd1na2vs0mg"},{"bike_id":"a1617119-cd47-4ba2-b3fd-d3214485d3fa","system_id":"levelo_inurba_marseille","lat":43.22939,"lon":5.35377,"is_reserved":false,"is_disabled":false,"rental_uris":{"android":"levelo://app?vid=a1617119-cd47-4ba2-b3fd-d3214485d3fa","ios":"levelo://app?vid=a1617119-cd47-4ba2-b3fd-d3214485d3fa"},"vehicle_type_id":"4","last_reported":1761449724,"current_range_meters":20400,"station_id":"cpo3532slgdg3j2ikp40","pricing_plan_id":"cebpf4jnsgd1na2vs0mg"},{"bike_id":"da945370-32c7-4765-8b8c-dadee680d38e","system_id":"levelo_inurba_marseille","lat":43.34058,"lon":5.40415,"is_reserved":false,"is_disabled":false,"rental_uris":{"android":"levelo://app?vid=da945370-32c7-4765-8b8c-dadee680d38e","ios":"levelo://app?vid=da945370-32c7-4765-8b8c-dadee680d38e"},"vehicle_type_id":"4","last_reported":1761449724,"current_range_meters":20400,"station_id":"","pricing_plan_id":"cebpf4jnsgd1na2vs0mg"},{"bike_id":"611000ca-5aa7-40da-a0d2-9b3c8da9f53a","system_id":"levelo_inurba_marseille","lat":43.25096,"lon":5.39501,"is_reserved":false,"is_disabled":false,"rental_uris":{"android":"levelo://app?vid=611000ca-5aa7-40da-a0d2-9b3c8da9f53a","ios":"levelo://app?vid=611000ca-5aa7-40da-a0d2-9b3c8da9f53a"},"vehicle_type_id":"4","last_reported":1761449724,"current_range_meters":20400,"station_id":"ce4bhm12rcd13ifvqgkg","pricing_plan_id":"cebpf4jnsgd1na2vs0mg"},{"bike_id":"dea76e1b-a01d-415a-8864-695f90f26959","system_id":"levelo_inurba_marseille","lat":43.2636,"lon":5.39653,"is_reserved":false,"is_disabled":false,"rental_uris":{"android":"levelo://app?vid=dea76e1b-a01d-415a-8864-695f90f26959","ios":"levelo://app?vid=dea76e1b-a01d-415a-8864-695f90f26959"},"vehicle_type_id":"4","last_reported":1761449724,"current_range_meters":20400,"station_id":"","pricing_plan_id":"cebpf4jnsgd1na2vs0mg"},{"bike_id":"47438ea8-9e06-4f18-9f61-d9073ef15d0f","system_id":"levelo_inurba_marseille","lat":43.250035,"lon":5.389349,"is_reserved":false,"is_disabled":false,"rental_uris":{"android":"levelo://app?vid=47438ea8-9e06-4f18-9f61-d9073ef15d0f","ios":"levelo://app?vid=47438ea8-9e06-4f18-9f61-d9073ef15d0f"},"vehicle_type_id":"4","last_reported":1761449724,"current_range_meters":20800,"station_id":"ce4bhgp2rcd13ifvqfd0","pricing_plan_id":"cebpf4jnsgd1na2vs0mg"},{"bike_id":"ee61dc45-2fb4-4455-a015-74c395128f51","system_id":"levelo_inurba_marseille","lat":43.309282,"lon":5.401361,"is_reserved":false,"is_disabled":false,"rental_uris":{"android":"levelo://app?vid=ee61dc45-2fb4-4455-a015-74c395128f51","ios":"levelo://app?vid=ee61dc45-2fb4-4455-a015-74c395128f51"},"vehicle_type_id":"4","last_reported":1761449724,"current_range_meters":20800,"station_id":"ce4bgvp2rcd13ifvqct0","pricing_plan_id":"cebpf4jnsgd1na2vs0mg"},{"bike_id":"26a33dcf-50de-4561-a5e9-8254886f89ed","system_id":"levelo_inurba_marseille","lat":43.24323,"lon":5.39212,"is_reserved":false,"is_disabled":false,"rental_uris":{"android":"levelo://app?vid=26a33dcf-50de-4561-a5e9-8254886f89ed","ios":"levelo://app?vid=26a33dcf-50de-4561-a5e9-8254886f89ed"},"vehicle_type_id":"4","last_reported":1761449724,"current_range_meters":20800,"station_id":"","pricing_plan_id":"cebpf4jnsgd1na2vs0mg"},{"bike_id":"83106217-f024-4381-9607-50194d3370ce","system_id":"levelo_inurba_marseille","lat":43.24166,"lon":5.36412,"is_reserved":false,"is_disabled":false,"rental_uris":{"android":"levelo://app?vid=83106217-f024-4381-9607-50194d3370ce","ios":"levelo://app?vid=83106217-f024-4381-9607-50194d3370ce"},"vehicle_type_id":"4","last_reported":1761449724,"current_range_meters":20800,"station_id":"cpo36qri1sfpv3e86is0","pricing_plan_id":"cebpf4jnsgd1na2vs0mg"},{"bike_id":"74440bb7-72c3-4ad8-9dec-9a57ed6d17c9","system_id":"levelo_inurba_marseille","lat":43.32368,"lon":5.38917,"is_reserved":false,"is_disabled":false,"rental_uris":{"android":"levelo://app?vid=74440bb7-72c3-4ad8-9dec-9a57ed6d17c9","ios":"levelo://app?vid=74440bb7-72c3-4ad8-9dec-9a57ed6d17c9"},"vehicle_type_id":"4","last_reported":1761449724,"current_range_meters":20800,"station_id":"ce4bhqp2rcd13ifvqhog","pricing_plan_id":"cebpf4jnsgd1na2vs0mg"},{"bike_id":"5a025cd9-27dc-454b-837f-b07a75999f2f","system_id":"levelo_inurba_marseille","lat":43.29553,"lon":5.422912,"is_reserved":false,"is_disabled":false,"rental_uris":{"android":"levelo://app?vid=5a025cd9-27dc-454b-837f-b07a75999f2f","ios":"levelo://app?vid=5a025cd9-27dc-454b-837f-b07a75999f2f"},"vehicle_type_id":"4","last_reported":1761449724,"current_range_meters":20800,"station_id":"ce4bhph2rcd13ifvqhdg","pricing_plan_id":"cebpf4jnsgd1na2vs0mg"},{"bike_id":"0e3a1375-1454-4101-915f-2208001d5e2b","system_id":"levelo_inurba_marseille","lat":43.30255,"lon":5.40068,"is_reserved":false,"is_disabled":true,"rental_uris":{"android":"levelo://app?vid=0e3a1375-1454-4101-915f-2208001d5e2b","ios":"levelo://app?vid=0e3a1375-1454-4101-915f-2208001d5e2b"},"vehicle_type_id":"4","last_reported":1761449724,"current_range_meters":20800,"station_id":"ce4bgvh2rcd13ifvqcs0","pricing_plan_id":"cebpf4jnsgd1na2vs0mg"},{"bike_id":"fc415666-0eee-42cf-ad7e-559eb9802048","system_id":"levelo_inurba_marseille","lat":43.31097,"lon":5.37487,"is_reserved":false,"is_disabled":false,"rental_uris":{"android":"levelo://app?vid=fc415666-0eee-42cf-ad7e-559eb9802048","ios":"levelo://app?vid=fc415666-0eee-42cf-ad7e-559eb9802048"},"vehicle_type_id":"4","last_reported":1761449724,"current_range_meters":21600,"station_id":"","pricing_plan_id":"cebpf4jnsgd1na2vs0mg"},{"bike_id":"48f379fc-9021-4051-8306-9d9acbadecc0","system_id":"levelo_inurba_marseille","lat":43.3032,"lon":5.40442,"is_reserved":false,"is_disabled":false,"rental_uris":{"android":"levelo://app?vid=48f379fc-9021-4051-8306-9d9acbadecc0","ios":"levelo://app?vid=48f379fc-9021-4051-8306-9d9acbadecc0"},"vehicle_type_id":"4","last_reported":1761449724,"current_range_meters":21600,"station_id":"ce4bh012rcd13ifvqd10","pricing_plan_id":"cebpf4jnsgd1na2vs0mg"},{"bike_id":"ba6bdb84-efa9-45a9-9e20-4bde528874fd","system_id":"levelo_inurba_marseille","lat":43.27919,"lon":5.39581,"is_reserved":false,"is_disabled":false,"rental_uris":{"android":"levelo://app?vid=ba6bdb84-efa9-45a9-9e20-4bde528874fd","ios":"levelo://app?vid=ba6bdb84-efa9-45a9-9e20-4bde528874fd"},"vehicle_type_id":"4","last_reported":1761449724,"current_range_meters":21600,"station_id":"ce4bhf92rcd13ifvqf40","pricing_plan_id":"cebpf4jnsgd1na2vs0mg"},{"bike_id":"548dee91-47de-497b-8d87-b77421634d51","system_id":"levelo_inurba_marseille","lat":43.292745,"lon":5.401159,"is_reserved":false,"is_disabled":false,"rental_uris":{"android":"levelo://app?vid=548dee91-47de-497b-8d87-b77421634d51","ios":"levelo://app?vid=548dee91-47de-497b-8d87-b77421634d51"},"vehicle_type_id":"4","last_reported":1761449724,"current_range_meters":21600,"station_id":"ce4bh312rcd13ifvqdk0","pricing_plan_id":"cebpf4jnsgd1na2vs0mg"},{"bike_id":"93ef566c-0909-48d1-8deb-d11c9c5aea5b","system_id":"levelo_inurba_marseille","lat":43.32363,"lon":5.36764,"is_reserved":false,"is_disabled":false,"rental_uris":{"android":"levelo://app?vid=93ef566c-0909-48d1-8deb-d11c9c5aea5b","ios":"levelo://app?vid=93ef566c-0909-48d1-8deb-d11c9c5aea5b"},"vehicle_type_id":"4","last_reported":1761449724,"current_range_meters":21600,"station_id":"ce4bhsh2rcd13ifvqi2g","pricing_plan_id":"cebpf4jnsgd1na2vs0mg"},{"bike_id":"f42fb67c-eb05-4969-9885-5d2a3a809c83","system_id":"levelo_inurba_marseille","lat":43.317607,"lon":5.390159,"is_reserved":false,"is_disabled":false,"rental_uris":{"android":"levelo://app?vid=f42fb67c-eb05-4969-9885-5d2a3a809c83","ios":"levelo://app?vid=f42fb67c-eb05-4969-9885-5d2a3a809c83"},"vehicle_type_id":"4","last_reported":1761449724,"current_range_meters":21600,"station_id":"ce4bhqp2rcd13ifvqhng","pricing_plan_id":"cebpf4jnsgd1na2vs0mg"},{"bike_id":"73e3d00c-eed9-4474-8470-2701da8f5335","system_id":"levelo_inurba_marseille","lat":43.257354,"lon":5.410347,"is_reserved":false,"is_disabled":false,"rental_uris":{"android":"levelo://app?vid=73e3d00c-eed9-4474-8470-2701da8f5335","ios":"levelo://app?vid=73e3d00c-eed9-4474-8470-2701da8f5335"},"vehicle_type_id":"4","last_reported":1761449724,"current_range_meters":21600,"station_id":"","pricing_plan_id":"cebpf4jnsgd1na2vs0mg"},{"bike_id":"8e449deb-01cb-47ca-be6e-16f516426fdb","system_id":"levelo_inurba_marseille","lat":43.29267,"lon":5.40873,"is_reserved":false,"is_disabled":false,"rental_uris":{"android":"levelo://app?vid=8e449deb-01cb-47ca-be6e-16f516426fdb","ios":"levelo://app?vid=8e449deb-01cb-47ca-be6e-16f516426fdb"},"vehicle_type_id":"4","last_reported":1761449724,"current_range_meters":21600,"station_id":"ce4bh192rcd13ifvqdc0","pricing_plan_id":"cebpf4jnsgd1na2vs0mg"},{"bike_id":"ac1054ea-b7cc-4fc4-b666-bf8c0c517e3a","system_id":"levelo_inurba_marseille","lat":43.2306,"lon":5.35489,"is_reserved":false,"is_disabled":false,"rental_uris":{"android":"levelo://app?vid=ac1054ea-b7cc-4fc4-b666-bf8c0c517e3a","ios":"levelo://app?vid=ac1054ea-b7cc-4fc4-b666-bf8c0c517e3a"},"vehicle_type_id":"4","last_reported":1761449724,"current_range_meters":21600,"station_id":"cpo3342slgdg3j2ifvpg","pricing_plan_id":"cebpf4jnsgd1na2vs0mg"},{"bike_id":"3bbf0ac0-530a-490c-8628-abdb3b178099","system_id":"levelo_inurba_marseille","lat":43.30329,"lon":5.36906,"is_reserved":false,"is_disabled":false,"rental_uris":{"android":"levelo://app?vid=3bbf0ac0-530a-490c-8628-abdb3b178099","ios":"levelo://app?vid=3bbf0ac0-530a-490c-8628-abdb3b178099"},"vehicle_type_id":"4","last_reported":1761449724,"current_range_meters":21600,"station_id":"ce4bgqh2rcd13ifvqc5g","pricing_plan_id":"cebpf4jnsgd1na2vs0mg"},{"bike_id":"fdc43030-5704-454e-ad42-cd94061c06a1","system_id":"levelo_inurba_marseille","lat":43.321133,"lon":5.36766,"is_reserved":false,"is_disabled":false,"rental_uris":{"android":"levelo://app?vid=fdc43030-5704-454e-ad42-cd94061c06a1","ios":"levelo://app?vid=fdc43030-5704-454e-ad42-cd94061c06a1"},"vehicle_type_id":"4","last_reported":1761449724,"current_range_meters":21600,"station_id":"ce4bhrh2rcd13ifvqhug","pricing_plan_id":"cebpf4jnsgd1na2vs0mg"},{"bike_id":"b83891d3-7971-45ae-9af3-651a6e6209e2","system_id":"levelo_inurba_marseille","lat":43.23218,"lon":5.35566,"is_reserved":false,"is_disabled":false,"rental_uris":{"android":"levelo://app?vid=b83891d3-7971-45ae-9af3-651a6e6209e2","ios":"levelo://app?vid=b83891d3-7971-45ae-9af3-651a6e6209e2"},"vehicle_type_id":"4","last_reported":1761449724,"current_range_meters":22000,"station_id":"ce4bhu92rcd13ifvqi70","pricing_plan_id":"cebpf4jnsgd1na2vs0mg"},{"bike_id":"50c41fd9-15b8-47fc-9776-e10bad83b525","system_id":"levelo_inurba_marseille","lat":43.31316,"lon":5.39702,"is_reserved":false,"is_disabled":false,"rental_uris":{"android":"levelo://app?vid=50c41fd9-15b8-47fc-9776-e10bad83b525","ios":"levelo://app?vid=50c41fd9-15b8-47fc-9776-e10bad83b525"},"vehicle_type_id":"4","last_reported":1761449724,"current_range_meters":22000,"station_id":"ce4bgvp2rcd13ifvqcu0","pricing_plan_id":"cebpf4jnsgd1na2vs0mg"},{"bike_id":"4b219a79-a7cc-4cd2-a25e-838fe8d3bf04","system_id":"levelo_inurba_marseille","lat":43.30893,"lon":5.39631,"is_reserved":false,"is_disabled":false,"rental_uris":{"android":"levelo://app?vid=4b219a79-a7cc-4cd2-a25e-838fe8d3bf04","ios":"levelo://app?vid=4b219a79-a7cc-4cd2-a25e-838fe8d3bf04"},"vehicle_type_id":"4","last_reported":1761449724,"current_range_meters":22000,"station_id":"ce4bh012rcd13ifvqcv0","pricing_plan_id":"cebpf4jnsgd1na2vs0mg"},{"bike_id":"458f5d68-7d8c-47e9-9206-2c8e9417c3d0","system_id":"levelo_inurba_marseille","lat":43.31119,"lon":5.37753,"is_reserved":false,"is_disabled":false,"rental_uris":{"android":"levelo://app?vid=458f5d68-7d8c-47e9-9206-2c8e9417c3d0","ios":"levelo://app?vid=458f5d68-7d8c-47e9-9206-2c8e9417c3d0"},"vehicle_type_id":"4","last_reported":1761449724,"current_range_meters":22000,"station_id":"ce4bgt92rcd13ifvqcg0","pricing_plan_id":"cebpf4jnsgd1na2vs0mg"},{"bike_id":"db9de1fc-21ad-43f6-9eec-77de2c93e6d8","system_id":"levelo_inurba_marseille","lat":43.2294,"lon":5.35393,"is_reserved":false,"is_disabled":false,"rental_uris":{"android":"levelo://app?vid=db9de1fc-21ad-43f6-9eec-77de2c93e6d8","ios":"levelo://app?vid=db9de1fc-21ad-43f6-9eec-77de2c93e6d8"},"vehicle_type_id":"4","last_reported":1761449724,"current_range_meters":22000,"station_id":"cpo3532slgdg3j2ikp40","pricing_plan_id":"cebpf4jnsgd1na2vs0mg"},{"bike_id":"3cf954f8-897c-4098-b7a1-1e4490c2b26a","system_id":"levelo_inurba_marseille","lat":43.25822,"lon":5.39437,"is_reserved":false,"is_disabled":false,"rental_uris":{"android":"levelo://app?vid=3cf954f8-897c-4098-b7a1-1e4490c2b26a","ios":"levelo://app?vid=3cf954f8-897c-4098-b7a1-1e4490c2b26a"},"vehicle_type_id":"4","last_reported":1761449724,"current_range_meters":22000,"station_id":"ce4bhip2rcd13ifvqft0","pricing_plan_id":"cebpf4jnsgd1na2vs0mg"},{"bike_id":"582fe2d6-0ae9-4675-bd90-c18d8f24c8d4","system_id":"levelo_inurba_marseille","lat":43.27916,"lon":5.3959,"is_reserved":false,"is_disabled":false,"rental_uris":{"android":"levelo://app?vid=582fe2d6-0ae9-4675-bd90-c18d8f24c8d4","ios":"levelo://app?vid=582fe2d6-0ae9-4675-bd90-c18d8f24c8d4"},"vehicle_type_id":"4","last_reported":1761449724,"current_range_meters":22000,"station_id":"ce4bhf92rcd13ifvqf40","pricing_plan_id":"cebpf4jnsgd1na2vs0mg"},{"bike_id":"52e18c7a-cb2d-4922-b27d-db3062306fa6","system_id":"levelo_inurba_marseille","lat":43.284105,"lon":5.37515,"is_reserved":false,"is_disabled":false,"rental_uris":{"android":"levelo://app?vid=52e18c7a-cb2d-4922-b27d-db3062306fa6","ios":"levelo://app?vid=52e18c7a-cb2d-4922-b27d-db3062306fa6"},"vehicle_type_id":"4","last_reported":1761449724,"current_range_meters":22400,"station_id":"ce4bh412rcd13ifvqds0","pricing_plan_id":"cebpf4jnsgd1na2vs0mg"},{"bike_id":"bb3d6f43-fe8d-4027-a7f4-02cf8b0450bf","system_id":"levelo_inurba_marseille","lat":43.28845,"lon":5.35858,"is_reserved":false,"is_disabled":true,"rental_uris":{"android":"levelo://app?vid=bb3d6f43-fe8d-4027-a7f4-02cf8b0450bf","ios":"levelo://app?vid=bb3d6f43-fe8d-4027-a7f4-02cf8b0450bf"},"vehicle_type_id":"4","last_reported":1761449724,"current_range_meters":22400,"station_id":"ce4bhb12rcd13ifvqem0","pricing_plan_id":"cebpf4jnsgd1na2vs0mg"},{"bike_id":"a3742816-3b43-434e-9db0-9ab9379fa4b3","system_id":"levelo_inurba_marseille","lat":43.273832,"lon":5.362518,"is_reserved":false,"is_disabled":true,"rental_uris":{"android":"levelo://app?vid=a3742816-3b43-434e-9db0-9ab9379fa4b3","ios":"levelo://app?vid=a3742816-3b43-434e-9db0-9ab9379fa4b3"},"vehicle_type_id":"4","last_reported":1761449724,"current_range_meters":22400,"station_id":"ce4bhbh2rcd13ifvqeo0","pricing_plan_id":"cebpf4jnsgd1na2vs0mg"},{"bike_id":"e0f6a33f-8aa4-4a58-9626-cf221b60f85c","system_id":"levelo_inurba_marseille","lat":43.25714,"lon":5.41092,"is_reserved":false,"is_disabled":false,"rental_uris":{"android":"levelo://app?vid=e0f6a33f-8aa4-4a58-9626-cf221b60f85c","ios":"levelo://app?vid=e0f6a33f-8aa4-4a58-9626-cf221b60f85c"},"vehicle_type_id":"4","last_reported":1761449724,"current_range_meters":22400,"station_id":"ce4bhkp2rcd13ifvqgd0","pricing_plan_id":"cebpf4jnsgd1na2vs0mg"},{"bike_id":"0df65b60-541b-4485-8343-c851e6de5b07","system_id":"levelo_inurba_marseille","lat":43.30614,"lon":5.3723,"is_reserved":false,"is_disabled":false,"rental_uris":{"android":"levelo://app?vid=0df65b60-541b-4485-8343-c851e6de5b07","ios":"levelo://app?vid=0df65b60-541b-4485-8343-c851e6de5b07"},"vehicle_type_id":"4","last_reported":1761449724,"current_range_meters":22400,"station_id":"ce4bgqh2rcd13ifvqc4g","pricing_plan_id":"cebpf4jnsgd1na2vs0mg"},{"bike_id":"21dbf7f2-eb19-4663-b1c0-879822879492","system_id":"levelo_inurba_marseille","lat":43.337619,"lon":5.374425,"is_reserved":false,"is_disabled":false,"rental_uris":{"android":"levelo://app?vid=21dbf7f2-eb19-4663-b1c0-879822879492","ios":"levelo://app?vid=21dbf7f2-eb19-4663-b1c0-879822879492"},"vehicle_type_id":"4","last_reported":1761449724,"current_range_meters":22400,"station_id":"","pricing_plan_id":"cebpf4jnsgd1na2vs0mg"},{"bike_id":"b689a5bf-875d-4ab1-9212-a71e85899faa","system_id":"levelo_inurba_marseille","lat":43.29749,"lon":5.42802,"is_reserved":false,"is_disabled":false,"rental_uris":{"android":"levelo://app?vid=b689a5bf-875d-4ab1-9212-a71e85899faa","ios":"levelo://app?vid=b689a5bf-875d-4ab1-9212-a71e85899faa"},"vehicle_type_id":"4","last_reported":1761449724,"current_range_meters":22800,"station_id":"st_d3md5207bmas73dh9klg","pricing_plan_id":"cebpf4jnsgd1na2vs0mg"},