{"last_updated":1745665649,"ttl":60,"version":"2.2","data":{"bikes":[{"bike_id":"6d0a61fc-518d-48e6-b383-0cc8c0395f0a","system_id":"levelo_inurba_marseille","lat":43.241669,"lon":5.363905,"is_reserved":false,"is_disabled":false,"rental_uris":{"android":"levelo://app?vid=6d0a61fc-518d-48e6-b383-0cc8c0395f0a","ios":"levelo://app?vid=6d0a61fc-518d-48e6-b383-0cc8c0395f0a"},"vehicle_type_id":"4","last_reported":1745665649,"current_range_meters":2800,"station_id":"","pricing_plan_id":"cebpf4jnsgd1na2vs0mg"},{"bike_id":"7463caf0-561d-4111-a6db-625b68562e5c","system_id":"levelo_inurba_marseille","lat":43.2602,"lon":5.37546,"is_reserved":false,"is_disabled":false,"rental_uris":{"android":"levelo://app?vid=7463caf0-561d-4111-a6db-625b68562e5c","ios":"levelo://app?vid=7463caf0-561d-4111-a6db-625b68562e5c"},"vehicle_type_id":"4","last_reported":1745665649,"current_range_meters":2000,"station_id":"ce4bhgh2rcd13ifvqfa0","pricing_plan_id":"cebpf4jnsgd1na2vs0mg"},{"bike_id":"3767ba54-0ee2-464a-8805-d28bad95405b","system_id":"levelo_inurba_marseille","lat":43.2597,"lon":5.37538,"is_reserved":false,"is_disabled":false,"rental_uris":{"android":"levelo://app?vid=3767ba54-0ee2-464a-8805-d28bad95405b","ios":"levelo://app?vid=3767ba54-0ee2-464a-8805-d28bad95405b"},"vehicle_type_id":"4","last_reported":1745665649,"current_range_meters":2800,"station_id":"","pricing_plan_id":"cebpf4jnsgd1na2vs0mg"},{"bike_id":"ecdd0875-7d56-4cd2-a14a-671f78e26c97","system_id":"levelo_inurba_marseille","lat":43.23061,"lon":5.35514,"is_reserved":false,"is_disabled":true,"rental_uris":{"android":"levelo://app?vid=ecdd0875-7d56-4cd2-a14a-671f78e26c97","ios":"levelo://app?vid=ecdd0875-7d56-4cd2-a14a-671f78e26c97"},"vehicle_type_id":"4","last_reported":1745665649,"current_range_meters":3200,"station_id":"cpo3342slgdg3j2ifvpg","pricing_plan_id":"cebpf4jnsgd1na2vs0mg"},{"bike_id":"46374c49-3adc-4c5a-8966-e00f056c0d57","system_id":"levelo_inurba_marseille","lat":43.27846,"lon":5.35442,"is_reserved":false,"is_disabled":false,"rental_uris":{"android":"levelo://app?vid=46374c49-3adc-4c5a-8966-e00f056c0d57","ios":"levelo://app?vid=46374c49-3adc-4c5a-8966-e00f056c0d57"},"vehicle_type_id":"4","last_reported":1745665649,"current_range_meters":3200,"station_id":"","pricing_plan_id":"cebpf4jnsgd1na2vs0mg"},{"bike_id":"0762788c-2464-4066-9a33-ab79cfc16fe4","system_id":"levelo_inurba_marseille","lat":43.28615,"lon":5.35105,"is_reserved":false,"is_disabled":false,"rental_uris":{"android":"levelo://app?vid=0762788c-2464-4066-9a33-ab79cfc16fe4","ios":"levelo://app?vid=0762788c-2464-4066-9a33-ab79cfc16fe4"},"vehicle_type_id":"4","last_reported":1745665649,"current_range_meters":3200,"station_id":"ce4bhch2rcd13ifvqeug","pricing_plan_id":"cebpf4jnsgd1na2vs0mg"},{"bike_id":"e8dc35be-1245-4aca-bf45-e24cb87d6658","system_id":"levelo_inurba_marseille","lat":43.23193,"lon":5.35557,"is_reserved":false,"is_disabled":false,"rental_uris":{"android":"levelo://app?vid=e8dc35be-1245-4aca-bf45-e24cb87d6658","ios":"levelo://app?vid=e8dc35be-1245-4aca-bf45-e24cb87d6658"},"vehicle_type_id":"4","last_reported":1745665649,"current_range_meters":3200,"station_id":"ce4bhu92rcd13ifvqi70","pricing_plan_id":"cebpf4jnsgd1na2vs0mg"},{"bike_id":"809e59ac-ee8e-4f79-a65e-a2fad53fd2cc","system_id":"levelo_inurba_marseille","lat":43.29758,"lon":5.40975,"is_reserved":false,"is_disabled":false,"rental_uris":{"android":"levelo://app?vid=809e59ac-ee8e-4f79-a65e-a2fad53fd2cc","ios":"levelo://app?vid=809e59ac-ee8e-4f79-a65e-a2fad53fd2cc"},"vehicle_type_id":"4","last_reported":1745665649,"current_range_meters":3600,"station_id":"","pricing_plan_id":"cebpf4jnsgd1na2vs0mg"},{"bike_id":"12140ae1-49aa-44ca-9360-46a0729827d9","system_id":"levelo_inurba_marseille","lat":43.23969,"lon":5.36634,"is_reserved":false,"is_disabled":false,"rental_uris":{"android":"levelo://app?vid=12140ae1-49aa-44ca-9360-46a0729827d9","ios":"levelo://app?vid=12140ae1-49aa-44ca-9360-46a0729827d9"},"vehicle_type_id":"4","last_reported":1745665649,"current_range_meters":3600,"station_id":"ce4bhi12rcd13ifvqfp0","pricing_plan_id":"cebpf4jnsgd1na2vs0mg"},{"bike_id":"f8546583-4b1f-461d-8f16-996c31dd0471","system_id":"levelo_inurba_marseille","lat":43.21188,"lon":5.35096,"is_reserved":false,"is_disabled":false,"rental_uris":{"android":"levelo://app?vid=f8546583-4b1f-461d-8f16-996c31dd0471","ios":"levelo://app?vid=f8546583-4b1f-461d-8f16-996c31dd0471"},"vehicle_type_id":"4","last_reported":1745665649,"current_range_meters":4000,"station_id":"st_cvj6sg6p6f1abm77japg","pricing_plan_id":"cebpf4jnsgd1na2vs0mg"},{"bike_id":"f1a9f5db-d774-4f36-a0be-69b289d14fd1","system_id":"levelo_inurba_marseille","lat":43.21189,"lon":5.35077,"is_reserved":false,"is_disabled":false,"rental_uris":{"android":"levelo://app?vid=f1a9f5db-d774-4f36-a0be-69b289d14fd1","ios":"levelo://app?vid=f1a9f5db-d774-4f36-a0be-69b289d14fd1"},"vehicle_type_id":"4","last_reported":1745665649,"current_range_meters":4000,"station_id":"st_cvj6sg6p6f1abm77japg","pricing_plan_id":"cebpf4jnsgd1na2vs0mg"},{"bike_id":"29346584-caac-4e9f-b6be-20db807b22b1","system_id":"levelo_inurba_marseille","lat":43.29207,"lon":5.36037,"is_reserved":false,"is_disabled":false,"rental_uris":{"android":"levelo://app?vid=29346584-caac-4e9f-b6be-20db807b22b1","ios":"levelo://app?vid=29346584-caac-4e9f-b6be-20db807b22b1"},"vehicle_type_id":"4","last_reported":1745665649,"current_range_meters":4000,"station_id":"ce4bhbh2rcd13ifvqeqg","pricing_plan_id":"cebpf4jnsgd1na2vs0mg"},{"bike_id":"af58cf6d-89b2-40ac-89a0-9b5b44fd8be0","system_id":"levelo_inurba_marseille","lat":43.29969,"lon":5.38498,"is_reserved":false,"is_disabled":false,"rental_uris":{"android":"levelo://app?vid=af58cf6d-89b2-40ac-89a0-9b5b44fd8be0","ios":"levelo://app?vid=af58cf6d-89b2-40ac-89a0-9b5b44fd8be0"},"vehicle_type_id":"4","last_reported":1745665649,"current_range_meters":4400,"station_id":"ce4bgj92rcd13ifvqbd0","pricing_plan_id":"cebpf4jnsgd1na2vs0mg"},{"bike_id":"49362cd8-0cc1-428e-bd69-89f1745293ce","system_id":"levelo_inurba_marseille","lat":43.25116,"lon":5.40324,"is_reserved":false,"is_disabled":false,"rental_uris":{"android":"levelo://app?vid=49362cd8-0cc1-428e-bd69-89f1745293ce","ios":"levelo://app?vid=49362cd8-0cc1-428e-bd69-89f1745293ce"},"vehicle_type_id":"4","last_reported":1745665649,"current_range_meters":4400,"station_id":"ce4bhlh2rcd13ifvqgig","pricing_plan_id":"cebpf4jnsgd1na2vs0mg"},{"bike_id":"5874b36d-9467-4e3a-b0e2-84cd2e5811ac","system_id":"levelo_inurba_marseille","lat":43.29525,"lon":5.37503,"is_reserved":false,"is_disabled":false,"rental_uris":{"android":"levelo://app?vid=5874b36d-9467-4e3a-b0e2-84cd2e5811ac","ios":"levelo://app?vid=5874b36d-9467-4e3a-b0e2-84cd2e5811ac"},"vehicle_type_id":"4","last_reported":1745665649,"current_range_meters":4400,"station_id":"ce4bgkp2rcd13ifvqbmg","pricing_plan_id":"cebpf4jnsgd1na2vs0mg"},{"bike_id":"cff0645d-6f16-405f-9dbe-8beb4468a634","system_id":"levelo_inurba_marseille","lat":43.265642,"lon":5.390146,"is_reserved":false,"is_disabled":false,"rental_uris":{"android":"levelo://app?vid=cff0645d-6f16-405f-9dbe-8beb4468a634","ios":"levelo://app?vid=cff0645d-6f16-405f-9dbe-8beb4468a634"},"vehicle_type_id":"4","last_reported":1745665649,"current_range_meters":4800,"station_id":"ce4bhg12rcd13ifvqf80","pricing_plan_id":"cebpf4jnsgd1na2vs0mg"},{"bike_id":"e61abe7b-e6ae-4e72-ad6d-fc4a72d74f14","system_id":"levelo_inurba_marseille","lat":43.27629,"lon":5.36117,"is_reserved":false,"is_disabled":false,"rental_uris":{"android":"levelo://app?vid=e61abe7b-e6ae-4e72-ad6d-fc4a72d74f14","ios":"levelo://app?vid=e61abe7b-e6ae-4e72-ad6d-fc4a72d74f14"},"vehicle_type_id":"4","last_reported":1745665649,"current_range_meters":4800,"station_id":"ce4bgj92rcd13ifvqbe0","pricing_plan_id":"cebpf4jnsgd1na2vs0mg"},{"bike_id":"3b3774a3-111f-442c-bf5c-0a16c8cf7b0a","system_id":"levelo_inurba_marseille","lat":43.271851,"lon":5.410032,"is_reserved":false,"is_disabled":false,"rental_uris":{"android":"levelo://app?vid=3b3774a3-111f-442c-bf5c-0a16c8cf7b0a","ios":"levelo://app?vid=3b3774a3-111f-442c-bf5c-0a16c8cf7b0a"},"vehicle_type_id":"4","last_reported":1745665649,"current_range_meters":5600,"station_id":"ce4bhl12rcd13ifvqgf0","pricing_plan_id":"cebpf4jnsgd1na2vs0mg"},{"bike_id":"4a865a1b-7a18-4031-84ea-bcb6b2837f6d","system_id":"levelo_inurba_marseille","lat":43.295209,"lon":5.393974,"is_reserved":false,"is_disabled":false,"rental_uris":{"android":"levelo://app?vid=4a865a1b-7a18-4031-84ea-bcb6b2837f6d","ios":"levelo://app?vid=4a865a1b-7a18-4031-84ea-bcb6b2837f6d"},"vehicle_type_id":"4","last_reported":1745665649,"current_range_meters":5600,"station_id":"ce4bh292rcd13ifvqdf0","pricing_plan_id":"cebpf4jnsgd1na2vs0mg"},{"bike_id":"e9ab448f-ff65-4aac-a5a6-febcb20f7369","system_id":"levelo_inurba_marseille","lat":43.27071,"lon":5.42284,"is_reserved":false,"is_disabled":false,"rental_uris":{"android":"levelo://app?vid=e9ab448f-ff65-4aac-a5a6-febcb20f7369","ios":"levelo://app?vid=e9ab448f-ff65-4aac-a5a6-febcb20f7369"},"vehicle_type_id":"4","last_reported":1745665649,"current_range_meters":5600,"station_id":"ce4bhk92rcd13ifvqgb0","pricing_plan_id":"cebpf4jnsgd1na2vs0mg"},{"bike_id":"dfa6da75-b092-4628-adda-9b97e0c8ded2","system_id":"levelo_inurba_marseille","lat":43.29269,"lon":5.38448,"is_reserved":false,"is_disabled":false,"rental_uris":{"android":"levelo://app?vid=dfa6da75-b092-4628-adda-9b97e0c8ded2","ios":"levelo://app?vid=dfa6da75-b092-4628-adda-9b97e0c8ded2"},"vehicle_type_id":"4","last_reported":1745665649,"current_range_meters":6000,"station_id":"ce4bh692rcd13ifvqea0","pricing_plan_id":"cebpf4jnsgd1na2vs0mg"},{"bike_id":"1746265e-27ad-4913-8a06-b6dc5372d844","system_id":"levelo_inurba_marseille","lat":43.26001,"lon":5.37504,"is_reserved":false,"is_disabled":false,"rental_uris":{"android":"levelo://app?vid=1746265e-27ad-4913-8a06-b6dc5372d844","ios":"levelo://app?vid=1746265e-27ad-4913-8a06-b6dc5372d844"},"vehicle_type_id":"4","last_reported":1745665649,"current_range_meters":6400,"station_id":"ce4bhgh2rcd13ifvqfa0","pricing_plan_id":"cebpf4jnsgd1na2vs0mg"},{"bike_id":"59232912-3439-4043-8f55-e375d81c3836","system_id":"levelo_inurba_marseille","lat":43.28271,"lon":5.35058,"is_reserved":false,"is_disabled":false,"rental_uris":{"android":"levelo://app?vid=59232912-3439-4043-8f55-e375d81c3836","ios":"levelo://app?vid=59232912-3439-4043-8f55-e375d81c3836"},"vehicle_type_id":"4","last_reported":1745665649,"current_range_meters":6400,"station_id":"ce4bhbp2rcd13ifvqerg","pricing_plan_id":"cebpf4jnsgd1na2vs0mg"},{"bike_id":"a84dda67-2771-448f-9f2c-69a47019d774","system_id":"levelo_inurba_marseille","lat":43.33621,"lon":5.40963,"is_reserved":false,"is_disabled":true,"rental_uris":{"android":"levelo://app?vid=a84dda67-2771-448f-9f2c-69a47019d774","ios":"levelo://app?vid=a84dda67-2771-448f-9f2c-69a47019d774"},"vehicle_type_id":"4","last_reported":1745665649,"current_range_meters":6400,"station_id":"ce4bhqh2rcd13ifvqhmg","pricing_plan_id":"cebpf4jnsgd1na2vs0mg"},{"bike_id":"af22e109-08fb-48e4-8221-27cd4aef96ee","system_id":"levelo_inurba_marseille","lat":43.21197,"lon":5.35056,"is_reserved":false,"is_disabled":false,"rental_uris":{"android":"levelo://app?vid=af22e109-08fb-48e4-8221-27cd4aef96ee","ios":"levelo://app?vid=af22e109-08fb-48e4-8221-27cd4aef96ee"},"vehicle_type_id":"4","last_reported":1745665649,"current_range_meters":6400,"station_id":"st_cvj6sg6p6f1abm77japg","pricing_plan_id":"cebpf4jnsgd1na2vs0mg"},{"bike_id":"4751c42c-df70-44f1-921f-311585e43c28","system_id":"levelo_inurba_marseille","lat":43.28034,"lon":5.35625,"is_reserved":false,"is_disabled":false,"rental_uris":{"android":"levelo://app?vid=4751c42c-df70-44f1-921f-311585e43c28","ios":"levelo://app?vid=4751c42c-df70-44f1-921f-311585e43c28"},"vehicle_type_id":"4","last_reported":1745665649,"current_range_meters":6800,"station_id":"ce4bhp92rcd13ifvqhbg","pricing_plan_id":"cebpf4jnsgd1na2vs0mg"},{"bike_id":"824539da-8973-44b3-933c-ee1ba2495a50","system_id":"levelo_inurba_marseille","lat":43.25116,"lon":5.4032,"is_reserved":false,"is_disabled":false,"rental_uris":{"android":"levelo://app?vid=824539da-8973-44b3-933c-ee1ba2495a50","ios":"levelo://app?vid=824539da-8973-44b3-933c-ee1ba2495a50"},"vehicle_type_id":"4","last_reported":1745665649,"current_range_meters":6800,"station_id":"ce4bhlh2rcd13ifvqgig","pricing_plan_id":"cebpf4jnsgd1na2vs0mg"},{"bike_id":"7b6c378f-aa33-4cef-981a-0fbd810ee4f4","system_id":"levelo_inurba_marseille","lat":43.291962,"lon":5.357975,"is_reserved":false,"is_disabled":false,"rental_uris":{"android":"levelo://app?vid=7b6c378f-aa33-4cef-981a-0fbd810ee4f4","ios":"levelo://app?vid=7b6c378f-aa33-4cef-981a-0fbd810ee4f4"},"vehicle_type_id":"4","last_reported":1745665649,"current_range_meters":6400,"station_id":"ce4bho92rcd13ifvqh3g","pricing_plan_id":"cebpf4jnsgd1na2vs0mg"},{"bike_id":"c7a6fd56-e03d-4e5c-ac9b-f6f21a4c7adf","system_id":"levelo_inurba_marseille","lat":43.23193,"lon":5.35554,"is_reserved":false,"is_disabled":false,"rental_uris":{"android":"levelo://app?vid=c7a6fd56-e03d-4e5c-ac9b-f6f21a4c7adf","ios":"levelo://app?vid=c7a6fd56-e03d-4e5c-ac9b-f6f21a4c7adf"},"vehicle_type_id":"4","last_reported":1745665649,"current_range_meters":6800,"station_id":"ce4bhu92rcd13ifvqi70","pricing_plan_id":"cebpf4jnsgd1na2vs0mg"},{"bike_id":"d1ff7e34-d25d-4063-9648-2bd4db47424f","system_id":"levelo_inurba_marseille","lat":43.32371,"lon":5.38889,"is_reserved":false,"is_disabled":false,"rental_uris":{"android":"levelo://app?vid=d1ff7e34-d25d-4063-9648-2bd4db47424f","ios":"levelo://app?vid=d1ff7e34-d25d-4063-9648-2bd4db47424f"},"vehicle_type_id":"4","last_reported":1745665649,"current_range_meters":6800,"station_id":"ce4bhqp2rcd13ifvqhog","pricing_plan_id":"cebpf4jnsgd1na2vs0mg"},{"bike_id":"2c2e5bcc-b9ff-41a6-be9a-7733528f3bfa","system_id":"levelo_inurba_marseille","lat":43.27499,"lon":5.42445,"is_reserved":false,"is_disabled":false,"rental_uris":{"android":"levelo://app?vid=2c2e5bcc-b9ff-41a6-be9a-7733528f3bfa","ios":"levelo://app?vid=2c2e5bcc-b9ff-41a6-be9a-7733528f3bfa"},"vehicle_type_id":"4","last_reported":1745665649,"current_range_meters":7200,"station_id":"ce4bhn92rcd13ifvqgrg","pricing_plan_id":"cebpf4jnsgd1na2vs0mg"},{"bike_id":"a45396b4-6a30-4907-9c08-e415b6011144","system_id":"levelo_inurba_marseille","lat":43.24046,"lon":5.37734,"is_reserved":false,"is_disabled":false,"rental_uris":{"android":"levelo://app?vid=a45396b4-6a30-4907-9c08-e415b6011144","ios":"levelo://app?vid=a45396b4-6a30-4907-9c08-e415b6011144"},"vehicle_type_id":"4","last_reported":1745665649,"current_range_meters":7200,"station_id":"ce4bhnp2rcd13ifvqgvg","pricing_plan_id":"cebpf4jnsgd1na2vs0mg"},{"bike_id":"87c5ffe5-963f-41d5-9fa9-2dab0e9bd130","system_id":"levelo_inurba_marseille","lat":43.28402,"lon":5.37518,"is_reserved":false,"is_disabled":false,"rental_uris":{"android":"levelo://app?vid=87c5ffe5-963f-41d5-9fa9-2dab0e9bd130","ios":"levelo://app?vid=87c5ffe5-963f-41d5-9fa9-2dab0e9bd130"},"vehicle_type_id":"4","last_reported":1745665649,"current_range_meters":7200,"station_id":"ce4bh412rcd13ifvqds0","pricing_plan_id":"cebpf4jnsgd1na2vs0mg"},{"bike_id":"422b5989-c8b6-43aa-b2b9-3bfeb2e1ddc0","system_id":"levelo_inurba_marseille","lat":43.247255,"lon":5.411699,"is_reserved":false,"is_disabled":false,"rental_uris":{"android":"levelo://app?vid=422b5989-c8b6-43aa-b2b9-3bfeb2e1ddc0","ios":"levelo://app?vid=422b5989-c8b6-43aa-b2b9-3bfeb2e1ddc0"},"vehicle_type_id":"4","last_reported":1745665649,"current_range_meters":8000,"station_id":"","pricing_plan_id":"cebpf4jnsgd1na2vs0mg"},{"bike_id":"f62a4552-ec40-438e-82bf-49608a81162e","system_id":"levelo_inurba_marseille","lat":43.23954,"lon":5.36643,"is_reserved":false,"is_disabled":false,"rental_uris":{"android":"levelo://app?vid=f62a4552-ec40-438e-82bf-49608a81162e","ios":"levelo://app?vid=f62a4552-ec40-438e-82bf-49608a81162e"},"vehicle_type_id":"4","last_reported":1745665649,"current_range_meters":8000,"station_id":"ce4bhi12rcd13ifvqfp0","pricing_plan_id":"cebpf4jnsgd1na2vs0mg"},{"bike_id":"ea240a75-2133-400f-916e-4b33b8318602","system_id":"levelo_inurba_marseille","lat":43.282526,"lon":5.390227,"is_reserved":false,"is_disabled":false,"rental_uris":{"android":"levelo://app?vid=ea240a75-2133-400f-916e-4b33b8318602","ios":"levelo://app?vid=ea240a75-2133-400f-916e-4b33b8318602"},"vehicle_type_id":"4","last_reported":1745665649,"current_range_meters":7200,"station_id":"ce4bhoh2rcd13ifvqh5g","pricing_plan_id":"cebpf4jnsgd1na2vs0mg"},{"bike_id":"9ca09da2-c342-4d15-aeb1-43aad5bc0a7b","system_id":"levelo_inurba_marseille","lat":43.30595,"lon":5.39363,"is_reserved":false,"is_disabled":false,"rental_uris":{"android":"levelo://app?vid=9ca09da2-c342-4d15-aeb1-43aad5bc0a7b","ios":"levelo://app?vid=9ca09da2-c342-4d15-aeb1-43aad5bc0a7b"},"vehicle_type_id":"4","last_reported":1745665649,"current_range_meters":8000,"station_id":"ce4bh0p2rcd13ifvqd80","pricing_plan_id":"cebpf4jnsgd1na2vs0mg"},{"bike_id":"7f94544b-bba8-45a7-abba-f47bba3830bc","system_id":"levelo_inurba_marseille","lat":43.23191,"lon":5.3556,"is_reserved":false,"is_disabled":false,"rental_uris":{"android":"levelo://app?vid=7f94544b-bba8-45a7-abba-f47bba3830bc","ios":"levelo://app?vid=7f94544b-bba8-45a7-abba-f47bba3830bc"},"vehicle_type_id":"4","last_reported":1745665649,"current_range_meters":8000,"station_id":"ce4bhu92rcd13ifvqi70","pricing_plan_id":"cebpf4jnsgd1na2vs0mg"},{"bike_id":"49398eb2-81be-4d6e-bfd4-b9f6d23a0fcc","system_id":"levelo_inurba_marseille","lat":43.24385,"lon":5.37053,"is_reserved":false,"is_disabled":false,"rental_uris":{"android":"levelo://app?vid=49398eb2-81be-4d6e-bfd4-b9f6d23a0fcc","ios":"levelo://app?vid=49398eb2-81be-4d6e-bfd4-b9f6d23a0fcc"},"vehicle_type_id":"4","last_reported":1745665649,"current_range_meters":8000,"station_id":"ce4bhhh2rcd13ifvqfk0","pricing_plan_id":"cebpf4jnsgd1na2vs0mg"},{"bike_id":"18ae1d78-8d9e-4697-bc48-a39d36035c1d","system_id":"levelo_inurba_marseille","lat":43.23971,"lon":5.36637,"is_reserved":false,"is_disabled":false,"rental_uris":{"android":"levelo://app?vid=18ae1d78-8d9e-4697-bc48-a39d36035c1d","ios":"levelo://app?vid=18ae1d78-8d9e-4697-bc48-a39d36035c1d"},"vehicle_type_id":"4","last_reported":1745665649,"current_range_meters":8000,"station_id":"ce4bhi12rcd13ifvqfp0","pricing_plan_id":"cebpf4jnsgd1na2vs0mg"},{"bike_id":"e8bbf66e-8b2a-4c18-b56f-b383bc297541","system_id":"levelo_inurba_marseille","lat":43.27947,"lon":5.41031,"is_reserved":false,"is_disabled":false,"rental_uris":{"android":"levelo://app?vid=e8bbf66e-8b2a-4c18-b56f-b383bc297541","ios":"levelo://app?vid=e8bbf66e-8b2a-4c18-b56f-b383bc297541"},"vehicle_type_id":"4","last_reported":1745665649,"current_range_meters":8000,"station_id":"ce4bhnp2rcd13ifvqh0g","pricing_plan_id":"cebpf4jnsgd1na2vs0mg"},{"bike_id":"df2c09f3-5a37-4e0f-86fc-2e6ae05c7370","system_id":"levelo_inurba_marseille","lat":43.23211,"lon":5.3556,"is_reserved":false,"is_disabled":false,"rental_uris":{"android":"levelo://app?vid=df2c09f3-5a37-4e0f-86fc-2e6ae05c7370","ios":"levelo://app?vid=df2c09f3-5a37-4e0f-86fc-2e6ae05c7370"},"vehicle_type_id":"4","last_reported":1745665649,"current_range_meters":8400,"station_id":"ce4bhu92rcd13ifvqi70","pricing_plan_id":"cebpf4jnsgd1na2vs0mg"},{"bike_id":"d84f3635-60db-48cd-9410-343070032f58","system_id":"levelo_inurba_marseille","lat":43.26693,"lon":5.3827,"is_reserved":false,"is_disabled":false,"rental_uris":{"android":"levelo://app?vid=d84f3635-60db-48cd-9410-343070032f58","ios":"levelo://app?vid=d84f3635-60db-48cd-9410-343070032f58"},"vehicle_type_id":"4","last_reported":1745665649,"current_range_meters":8400,"station_id":"ce4bhg92rcd13ifvqf90","pricing_plan_id":"cebpf4jnsgd1na2vs0mg"},{"bike_id":"ead33492-4c86-40e3-aeec-d5dccfe6d777","system_id":"levelo_inurba_marseille","lat":43.2293,"lon":5.35379,"is_reserved":false,"is_disabled":false,"rental_uris":{"android":"levelo://app?vid=ead33492-4c86-40e3-aeec-d5dccfe6d777","ios":"levelo://app?vid=ead33492-4c86-40e3-aeec-d5dccfe6d777"},"vehicle_type_id":"4","last_reported":1745665649,"current_range_meters":8400,"station_id":"cpo3532slgdg3j2ikp40","pricing_plan_id":"cebpf4jnsgd1na2vs0mg"},{"bike_id":"4f944775-57ad-4dfe-887f-1080686cb12e","system_id":"levelo_inurba_marseille","lat":43.29374,"lon":5.37843,"is_reserved":false,"is_disabled":true,"rental_uris":{"android":"levelo://app?vid=4f944775-57ad-4dfe-887f-1080686cb12e","ios":"levelo://app?vid=4f944775-57ad-4dfe-887f-1080686cb12e"},"vehicle_type_id":"4","last_reported":1745665649,"current_range_meters":8400,"station_id":"ce4bgjh2rcd13ifvqbf0","pricing_plan_id":"cebpf4jnsgd1na2vs0mg"},{"bike_id":"b5418f46-4be5-4e29-9c68-f7911947407a","system_id":"levelo_inurba_marseille","lat":43.2951,"lon":5.37508,"is_reserved":false,"is_disabled":false,"rental_uris":{"android":"levelo://app?vid=b5418f46-4be5-4e29-9c68-f7911947407a","ios":"levelo://app?vid=b5418f46-4be5-4e29-9c68-f7911947407a"},"vehicle_type_id":"4","last_reported":1745665649,"current_range_meters":8800,"station_id":"ce4bgkp2rcd13ifvqbmg","pricing_plan_id":"cebpf4jnsgd1na2vs0mg"},{"bike_id":"51376682-930e-45ed-90e0-b53d931ddc33","system_id":"levelo_inurba_marseille","lat":43.27497,"lon":5.42451,"is_reserved":false,"is_disabled":false,"rental_uris":{"android":"levelo://app?vid=51376682-930e-45ed-90e0-b53d931ddc33","ios":"levelo://app?vid=51376682-930e-45ed-90e0-b53d931ddc33"},"vehicle_type_id":"4","last_reported":1745665649,"current_range_meters":8800,"station_id":"ce4bhn92rcd13ifvqgrg","pricing_plan_id":"cebpf4jnsgd1na2vs0mg"},{"bike_id":"5959e3ec-92c1-41ac-94ce-ebf943ed9ed1","system_id":"levelo_inurba_marseille","lat":43.3132,"lon":5.39712,"is_reserved":false,"is_disabled":false,"rental_uris":{"android":"levelo://app?vid=5959e3ec-92c1-41ac-94ce-ebf943ed9ed1","ios":"levelo://app?vid=5959e3ec-92c1-41ac-94ce-ebf943ed9ed1"},"vehicle_type_id":"4","last_reported":1745665649,"current_range_meters":8400,"station_id":"ce4bgvp2rcd13ifvqcu0","pricing_plan_id":"cebpf4jnsgd1na2vs0mg"},{"bike_id":"f997f3a2-6ef7-4d7a-931e-8083cf2fa70c","system_id":"levelo_inurba_marseille","lat":43.26825,"lon":5.40251,"is_reserved":false,"is_disabled":false,"rental_uris":{"android":"levelo://app?vid=f997f3a2-6ef7-4d7a-931e-8083cf2fa70c","ios":"levelo://app?vid=f997f3a2-6ef7-4d7a-931e-8083cf2fa70c"},"vehicle_type_id":"4","last_reported":1745665649,"current_range_meters":8800,"station_id":"ce501612rcd8frsf0b60","pricing_plan_id":"cebpf4jnsgd1na2vs0mg"},{"bike_id":"772842a6-5761-493c-8f74-bba5da4509ac","system_id":"levelo_inurba_marseille","lat":43.23069,"lon":5.35493,"is_reserved":false,"is_disabled":false,"rental_uris":{"android":"levelo://app?vid=772842a6-5761-493c-8f74-bba5da4509ac","ios":"levelo://app?vid=772842a6-5761-493c-8f74-bba5da4509ac"},"vehicle_type_id":"4","last_reported":1745665649,"current_range_meters":9200,"station_id":"cpo3342slgdg3j2ifvpg","pricing_plan_id":"cebpf4jnsgd1na2vs0mg"},{"bike_id":"6104de1b-83a6-4912-bfa1-49d35364e6af","system_id":"levelo_inurba_marseille","lat":43.23965,"lon":5.36626,"is_reserved":false,"is_disabled":false,"rental_uris":{"android":"levelo://app?vid=6104de1b-83a6-4912-bfa1-49d35364e6af","ios":"levelo://app?vid=6104de1b-83a6-4912-bfa1-49d35364e6af"},"vehicle_type_id":"4","last_reported":1745665649,"current_range_meters":9200,"station_id":"ce4bhi12rcd13ifvqfp0","pricing_plan_id":"cebpf4jnsgd1na2vs0mg"},{"bike_id":"f308a0b3-da32-4a35-977c-915341dba4a0","system_id":"levelo_inurba_marseille","lat":43.23192,"lon":5.39978,"is_reserved":false,"is_disabled":false,"rental_uris":{"android":"levelo://app?vid=f308a0b3-da32-4a35-977c-915341dba4a0","ios":"levelo://app?vid=f308a0b3-da32-4a35-977c-915341dba4a0"},"vehicle_type_id":"4","last_reported":1745665649,"current_range_meters":8800,"station_id":"ce4bhn12rcd13ifvqgqg","pricing_plan_id":"cebpf4jnsgd1na2vs0mg"},{"bike_id":"4c11ff0f-a579-4f78-9960-a443174b0bdd","system_id":"levelo_inurba_marseille","lat":43.2119,"lon":5.35072,"is_reserved":false,"is_disabled":false,"rental_uris":{"android":"levelo://app?vid=4c11ff0f-a579-4f78-9960-a443174b0bdd","ios":"levelo://app?vid=4c11ff0f-a579-4f78-9960-a443174b0bdd"},"vehicle_type_id":"4","last_reported":1745665649,"current_range_meters":9200,"station_id":"st_cvj6sg6p6f1abm77japg","pricing_plan_id":"cebpf4jnsgd1na2vs0mg"},{"bike_id":"64693b54-6786-452d-b342-d78b85ae2e39","system_id":"levelo_inurba_marseille","lat":43.31761,"lon":5.39018,"is_reserved":false,"is_disabled":false,"rental_uris":{"android":"levelo://app?vid=64693b54-6786-452d-b342-d78b85ae2e39","ios":"levelo://app?vid=64693b54-6786-452d-b342-d78b85ae2e39"},"vehicle_type_id":"4","last_reported":1745665649,"current_range_meters":9200,"station_id":"ce4bhqp2rcd13ifvqhng","pricing_plan_id":"cebpf4jnsgd1na2vs0mg"},{"bike_id":"1096d47f-9cba-4c17-a704-0d5800630ccd","system_id":"levelo_inurba_marseille","lat":43.23184,"lon":5.39989,"is_reserved":false,"is_disabled":false,"rental_uris":{"android":"levelo://app?vid=1096d47f-9cba-4c17-a704-0d5800630ccd","ios":"levelo://app?vid=1096d47f-9cba-4c17-a704-0d5800630ccd"},"vehicle_type_id":"4","last_reported":1745665649,"current_range_meters":9200,"station_id":"ce4bhn12rcd13ifvqgqg","pricing_plan_id":"cebpf4jnsgd1na2vs0mg"},{"bike_id":"cd726135-ef3a-4f85-9770-4df66d669aaf","system_id":"levelo_inurba_marseille","lat":43.23191,"lon":5.35555,"is_reserved":false,"is_disabled":false,"rental_uris":{"android":"levelo://app?vid=cd726135-ef3a-4f85-9770-4df66d669aaf","ios":"levelo://app?vid=cd726135-ef3a-4f85-9770-4df66d669aaf"},"vehicle_type_id":"4","last_reported":1745665649,"current_range_meters":9600,"station_id":"ce4bhu92rcd13ifvqi70","pricing_plan_id":"cebpf4jnsgd1na2vs0mg"},{"bike_id":"9507e096-5ca0-42a5-a0d6-a1fb54126fd6","system_id":"levelo_inurba_marseille","lat":43.28652,"lon":5.36357,"is_reserved":false,"is_disabled":false,"rental_uris":{"android":"levelo://app?vid=9507e096-5ca0-42a5-a0d6-a1fb54126fd6","ios":"levelo://app?vid=9507e096-5ca0-42a5-a0d6-a1fb54126fd6"},"vehicle_type_id":"4","last_reported":1745665649,"current_range_meters":9600,"station_id":"ce4bhah2rcd13ifvqej0","pricing_plan_id":"cebpf4jnsgd1na2vs0mg"},{"bike_id":"350e2a1c-b656-4551-9cbc-c862dedef604","system_id":"levelo_inurba_marseille","lat":43.24075,"lon":5.37766,"is_reserved":false,"is_disabled":false,"rental_uris":{"android":"levelo://app?vid=350e2a1c-b656-4551-9cbc-c862dedef604","ios":"levelo://app?vid=350e2a1c-b656-4551-9cbc-c862dedef604"},"vehicle_type_id":"4","last_reported":1745665649,"current_range_meters":9600,"station_id":"ce4bhnp2rcd13ifvqgvg","pricing_plan_id":"cebpf4jnsgd1na2vs0mg"},{"bike_id":"8722025a-c2f9-4f94-b0ab-3b1fd979be90","system_id":"levelo_inurba_marseille","lat":43.26032,"lon":5.37554,"is_reserved":false,"is_disabled":false,"rental_uris":{"android":"levelo://app?vid=8722025a-c2f9-4f94-b0ab-3b1fd979be90","ios":"levelo://app?vid=8722025a-c2f9-4f94-b0ab-3b1fd979be90"},"vehicle_type_id":"4","last_reported":1745665649,"current_range_meters":9200,"station_id":"ce4bhgh2rcd13ifvqfa0","pricing_plan_id":"cebpf4jnsgd1na2vs0mg"},{"bike_id":"b4f03569-54c1-4513-a766-01bf447b3da8","system_id":"levelo_inurba_marseille","lat":43.29202,"lon":5.39324,"is_reserved":false,"is_disabled":false,"rental_uris":{"android":"levelo://app?vid=b4f03569-54c1-4513-a766-01bf447b3da8","ios":"levelo://app?vid=b4f03569-54c1-4513-a766-01bf447b3da8"},"vehicle_type_id":"4","last_reported":1745665649,"current_range_meters":10000,"station_id":"ce4bh192rcd13ifvqdd0","pricing_plan_id":"cebpf4jnsgd1na2vs0mg"},{"bike_id":"b9645152-7bb3-4564-9526-2c8c8765d5f9","system_id":"levelo_inurba_marseille","lat":43.26033,"lon":5.37547,"is_reserved":false,"is_disabled":false,"rental_uris":{"android":"levelo://app?vid=b9645152-7bb3-4564-9526-2c8c8765d5f9","ios":"levelo://app?vid=b9645152-7bb3-4564-9526-2c8c8765d5f9"},"vehicle_type_id":"4","last_reported":1745665649,"current_range_meters":10000,"station_id":"ce4bhgh2rcd13ifvqfa0","pricing_plan_id":"cebpf4jnsgd1na2vs0mg"},{"bike_id":"ee4c36cb-c492-4552-ba80-5494b966c738","system_id":"levelo_inurba_marseille","lat":43.24402,"lon":5.37063,"is_reserved":false,"is_disabled":false,"rental_uris":{"android":"levelo://app?vid=ee4c36cb-c492-4552-ba80-5494b966c738","ios":"levelo://app?vid=ee4c36cb-c492-4552-ba80-5494b966c738"},"vehicle_type_id":"4","last_reported":1745665649,"current_range_meters":10000,"station_id":"ce4bhhh2rcd13ifvqfk0","pricing_plan_id":"cebpf4jnsgd1na2vs0mg"},{"bike_id":"f77a929f-13ce-4ad3-b37b-030e100178ba","system_id":"levelo_inurba_marseille","lat":43.2595,"lon":5.40927,"is_reserved":false,"is_disabled":false,"rental_uris":{"android":"levelo://app?vid=f77a929f-13ce-4ad3-b37b-030e100178ba","ios":"levelo://app?vid=f77a929f-13ce-4ad3-b37b-030e100178ba"},"vehicle_type_id":"4","last_reported":1745665649,"current_range_meters":10000,"station_id":"ce4bhm92rcd13ifvqglg","pricing_plan_id":"cebpf4jnsgd1na2vs0mg"},{"bike_id":"240d6df9-1781-4dbd-86a8-332d775ebdae","system_id":"levelo_inurba_marseille","lat":43.308936,"lon":5.368359,"is_reserved":false,"is_disabled":false,"rental_uris":{"android":"levelo://app?vid=240d6df9-1781-4dbd-86a8-332d775ebdae","ios":"levelo://app?vid=240d6df9-1781-4dbd-86a8-332d775ebdae"},"vehicle_type_id":"4","last_reported":1745665649,"current_range_meters":10000,"station_id":"ce4bgop2rcd13ifvqc1g","pricing_plan_id":"cebpf4jnsgd1na2vs0mg"},{"bike_id":"72a2ecab-78ba-4933-8f0e-a1e7d9156f2b","system_id":"levelo_inurba_marseille","lat":43.21193,"lon":5.35037,"is_reserved":false,"is_disabled":false,"rental_uris":{"android":"levelo://app?vid=72a2ecab-78ba-4933-8f0e-a1e7d9156f2b","ios":"levelo://app?vid=72a2ecab-78ba-4933-8f0e-a1e7d9156f2b"},"vehicle_type_id":"4","last_reported":1745665649,"current_range_meters":10800,"station_id":"st_cvj6sg6p6f1abm77japg","pricing_plan_id":"cebpf4jnsgd1na2vs0mg"},{"bike_id":"0977a513-05ba-4815-a4ed-4cece163a938","system_id":"levelo_inurba_marseille","lat":43.28667,"lon":5.36343,"is_reserved":false,"is_disabled":false,"rental_uris":{"android":"levelo://app?vid=0977a513-05ba-4815-a4ed-4cece163a938","ios":"levelo://app?vid=0977a513-05ba-4815-a4ed-4cece163a938"},"vehicle_type_id":"4","last_reported":1745665649,"current_range_meters":10000,"station_id":"ce4bhah2rcd13ifvqej0","pricing_plan_id":"cebpf4jnsgd1na2vs0mg"},{"bike_id":"37b2c48f-15c7-4933-b035-5a9773e5973d","system_id":"levelo_inurba_marseille","lat":43.25496,"lon":5.37648,"is_reserved":false,"is_disabled":false,"rental_uris":{"android":"levelo://app?vid=37b2c48f-15c7-4933-b035-5a9773e5973d","ios":"levelo://app?vid=37b2c48f-15c7-4933-b035-5a9773e5973d"},"vehicle_type_id":"4","last_reported":1745665649,"current_range_meters":10800,"station_id":"ce4bhh12rcd13ifvqff0","pricing_plan_id":"cebpf4jnsgd1na2vs0mg"},{"bike_id":"c2935531-51cb-4c58-bcbe-95a7046089ee","system_id":"levelo_inurba_marseille","lat":43.28424,"lon":5.34984,"is_reserved":false,"is_disabled":false,"rental_uris":{"android":"levelo://app?vid=c2935531-51cb-4c58-bcbe-95a7046089ee","ios":"levelo://app?vid=c2935531-51cb-4c58-bcbe-95a7046089ee"},"vehicle_type_id":"4","last_reported":1745665649,"current_range_meters":10800,"station_id":"ce4bhbh2rcd13ifvqepg","pricing_plan_id":"cebpf4jnsgd1na2vs0mg"},{"bike_id":"62561881-c4d3-4a05-930b-c4ea5f9798f4","system_id":"levelo_inurba_marseille","lat":43.243893,"lon":5.370483,"is_reserved":false,"is_disabled":false,"rental_uris":{"android":"levelo://app?vid=62561881-c4d3-4a05-930b-c4ea5f9798f4","ios":"levelo://app?vid=62561881-c4d3-4a05-930b-c4ea5f9798f4"},"vehicle_type_id":"4","last_reported":1745665649,"current_range_meters":10800,"station_id":"ce4bhhh2rcd13ifvqfk0","pricing_plan_id":"cebpf4jnsgd1na2vs0mg"},{"bike_id":"121886d5-4700-422a-a91b-1298acd6a808","system_id":"levelo_inurba_marseille","lat":43.29556,"lon":5.37514,"is_reserved":false,"is_disabled":false,"rental_uris":{"android":"levelo://app?vid=121886d5-4700-422a-a91b-1298acd6a808","ios":"levelo://app?vid=121886d5-4700-422a-a91b-1298acd6a808"},"vehicle_type_id":"4","last_reported":1745665649,"current_range_meters":11200,"station_id":"ce4bgh92rcd13ifvqb50","pricing_plan_id":"cebpf4jnsgd1na2vs0mg"},{"bike_id":"48f513c9-62d8-4ffd-93b3-46a567c33f9b","system_id":"levelo_inurba_marseille","lat":43.30613,"lon":5.37223,"is_reserved":false,"is_disabled":false,"rental_uris":{"android":"levelo://app?vid=48f513c9-62d8-4ffd-93b3-46a567c33f9b","ios":"levelo://app?vid=48f513c9-62d8-4ffd-93b3-46a567c33f9b"},"vehicle_type_id":"4","last_reported":1745665649,"current_range_meters":11200,"station_id":"ce4bgqh2rcd13ifvqc4g","pricing_plan_id":"cebpf4jnsgd1na2vs0mg"},{"bike_id":"df63c525-ee18-4e9a-b2a8-a4c1c3fd001a","system_id":"levelo_inurba_marseille","lat":43.31088,"lon":5.42428,"is_reserved":false,"is_disabled":false,"rental_uris":{"android":"levelo://app?vid=df63c525-ee18-4e9a-b2a8-a4c1c3fd001a","ios":"levelo://app?vid=df63c525-ee18-4e9a-b2a8-a4c1c3fd001a"},"vehicle_type_id":"4","last_reported":1745665649,"current_range_meters":11200,"station_id":"ce4bhp92rcd13ifvqhag","pricing_plan_id":"cebpf4jnsgd1na2vs0mg"},{"bike_id":"27e23d40-05ef-4e40-921d-2b9c843f8fda","system_id":"levelo_inurba_marseille","lat":43.23196,"lon":5.35552,"is_reserved":false,"is_disabled":false,"rental_uris":{"android":"levelo://app?vid=27e23d40-05ef-4e40-921d-2b9c843f8fda","ios":"levelo://app?vid=27e23d40-05ef-4e40-921d-2b9c843f8fda"},"vehicle_type_id":"4","last_reported":1745665649,"current_range_meters":11600,"station_id":"ce4bhu92rcd13ifvqi70","pricing_plan_id":"cebpf4jnsgd1na2vs0mg"},{"bike_id":"b337b47e-e0c0-40c3-878a-37e58bb44305","system_id":"levelo_inurba_marseille","lat":43.31205,"lon":5.40785,"is_reserved":false,"is_disabled":false,"rental_uris":{"android":"levelo://app?vid=b337b47e-e0c0-40c3-878a-37e58bb44305","ios":"levelo://app?vid=b337b47e-e0c0-40c3-878a-37e58bb44305"},"vehicle_type_id":"4","last_reported":1745665649,"current_range_meters":11600,"station_id":"","pricing_plan_id":"cebpf4jnsgd1na2vs0mg"},{"bike_id":"41a81d00-357b-4fc5-a800-cc4dddc5460d","system_id":"levelo_inurba_marseille","lat":43.29764,"lon":5.39346,"is_reserved":false,"is_disabled":false,"rental_uris":{"android":"levelo://app?vid=41a81d00-357b-4fc5-a800-cc4dddc5460d","ios":"levelo://app?vid=41a81d00-357b-4fc5-a800-cc4dddc5460d"},"vehicle_type_id":"4","last_reported":1745665649,"current_range_meters":11200,"station_id":"chh1huq6cuj3fo74tm60","pricing_plan_id":"cebpf4jnsgd1na2vs0mg"},{"bike_id":"8fb5b57f-2f80-46ee-8b95-326ac0760007","system_id":"levelo_inurba_marseille","lat":43.31173,"lon":5.38713,"is_reserved":false,"is_disabled":false,"rental_uris":{"android":"levelo://app?vid=8fb5b57f-2f80-46ee-8b95-326ac0760007","ios":"levelo://app?vid=8fb5b57f-2f80-46ee-8b95-326ac0760007"},"vehicle_type_id":"4","last_reported":1745665649,"current_range_meters":11600,"station_id":"ce4bgv12rcd13ifvqcp0","pricing_plan_id":"cebpf4jnsgd1na2vs0mg"},{"bike_id":"13f83d69-19fe-4415-9968-e262ae035ed8","system_id":"levelo_inurba_marseille","lat":43.28006,"lon":5.40017,"is_reserved":false,"is_disabled":false,"rental_uris":{"android":"levelo://app?vid=13f83d69-19fe-4415-9968-e262ae035ed8","ios":"levelo://app?vid=13f83d69-19fe-4415-9968-e262ae035ed8"},"vehicle_type_id":"4","last_reported":1745665649,"current_range_meters":11600,"station_id":"ce4bho92rcd13ifvqh4g","pricing_plan_id":"cebpf4jnsgd1na2vs0mg"},{"bike_id":"fdac972c-523b-4580-b704-1aacc8e1156c","system_id":"levelo_inurba_marseille","lat":43.29029,"lon":5.38124,"is_reserved":false,"is_disabled":false,"rental_uris":{"android":"levelo://app?vid=fdac972c-523b-4580-b704-1aacc8e1156c","ios":"levelo://app?vid=fdac972c-523b-4580-b704-1aacc8e1156c"},"vehicle_type_id":"4","last_reported":1745665649,"current_range_meters":11600,"station_id":"ce4bh4p2rcd13ifvqe1g","pricing_plan_id":"cebpf4jnsgd1na2vs0mg"},{"bike_id":"9df9f6ac-6519-42f4-a16d-1e9ef635e1cb","system_id":"levelo_inurba_marseille","lat":43.21196,"lon":5.35076,"is_reserved":false,"is_disabled":false,"rental_uris":{"android":"levelo://app?vid=9df9f6ac-6519-42f4-a16d-1e9ef635e1cb","ios":"levelo://app?vid=9df9f6ac-6519-42f4-a16d-1e9ef635e1cb"},"vehicle_type_id":"4","last_reported":1745665649,"current_range_meters":12000,"station_id":"st_cvj6sg6p6f1abm77japg","pricing_plan_id":"cebpf4jnsgd1na2vs0mg"},{"bike_id":"91836a1f-d082-4deb-b3cf-db56f6f085be","system_id":"levelo_inurba_marseille","lat":43.230522,"lon":5.354789,"is_reserved":false,"is_disabled":false,"rental_uris":{"android":"levelo://app?vid=91836a1f-d082-4deb-b3cf-db56f6f085be","ios":"levelo://app?vid=91836a1f-d082-4deb-b3cf-db56f6f085be"},"vehicle_type_id":"4","last_reported":1745665649,"current_range_meters":12000,"station_id":"cpo3342slgdg3j2ifvpg","pricing_plan_id":"cebpf4jnsgd1na2vs0mg"},{"bike_id":"b2511a21-a10e-4a23-a72f-37faa4d8515c","system_id":"levelo_inurba_marseille","lat":43.21756,"lon":5.34606,"is_reserved":false,"is_disabled":false,"rental_uris":{"android":"levelo://app?vid=b2511a21-a10e-4a23-a72f-37faa4d8515c","ios":"levelo://app?vid=b2511a21-a10e-4a23-a72f-37faa4d8515c"},"vehicle_type_id":"4","last_reported":1745665649,"current_range_meters":12000,"station_id":"st_cvj6r9ubvosntc0bgbag","pricing_plan_id":"cebpf4jnsgd1na2vs0mg"},{"bike_id":"aa7dd23a-c50c-4359-a4fa-3d29c4576751","system_id":"levelo_inurba_marseille","lat":43.24147,"lon":5.36423,"is_reserved":false,"is_disabled":false,"rental_uris":{"android":"levelo://app?vid=aa7dd23a-c50c-4359-a4fa-3d29c4576751","ios":"levelo://app?vid=aa7dd23a-c50c-4359-a4fa-3d29c4576751"},"vehicle_type_id":"4","last_reported":1745665649,"current_range_meters":12000,"station_id":"cpo36qri1sfpv3e86is0","pricing_plan_id":"cebpf4jnsgd1na2vs0mg"},{"bike_id":"1c7ad529-eec0-4147-b207-ac0c05006476","system_id":"levelo_inurba_marseille","lat":43.29634,"lon":5.40602,"is_reserved":false,"is_disabled":false,"rental_uris":{"android":"levelo://app?vid=1c7ad529-eec0-4147-b207-ac0c05006476","ios":"levelo://app?vid=1c7ad529-eec0-4147-b207-ac0c05006476"},"vehicle_type_id":"4","last_reported":1745665649,"current_range_meters":12000,"station_id":"ce4bh0h2rcd13ifvqd60","pricing_plan_id":"cebpf4jnsgd1na2vs0mg"},{"bike_id":"1313add7-bae5-42c4-a1a4-63fa978bf810","system_id":"levelo_inurba_marseille","lat":43.23185,"lon":5.39987,"is_reserved":false,"is_disabled":false,"rental_uris":{"android":"levelo://app?vid=1313add7-bae5-42c4-a1a4-63fa978bf810","ios":"levelo://app?vid=1313add7-bae5-42c4-a1a4-63fa978bf810"},"vehicle_type_id":"4","last_reported":1745665649,"current_range_meters":12000,"station_id":"ce4bhn12rcd13ifvqgqg","pricing_plan_id":"cebpf4jnsgd1na2vs0mg"},{"bike_id":"d1097c57-a267-45ce-8dc7-6649948e0f08","system_id":"levelo_inurba_marseille","lat":43.28288,"lon":5.35054,"is_reserved":false,"is_disabled":false,"rental_uris":{"android":"levelo://app?vid=d1097c57-a267-45ce-8dc7-6649948e0f08","ios":"levelo://app?vid=d1097c57-a267-45ce-8dc7-6649948e0f08"},"vehicle_type_id":"4","last_reported":1745665649,"current_range_meters":12400,"station_id":"ce4bhbp2rcd13ifvqerg","pricing_plan_id":"cebpf4jnsgd1na2vs0mg"},{"bike_id":"79d247de-4f4d-4ea7-aa22-126a418beb2d","system_id":"levelo_inurba_marseille","lat":43.28155,"lon":5.42653,"is_reserved":false,"is_disabled":false,"rental_uris":{"android":"levelo://app?vid=79d247de-4f4d-4ea7-aa22-126a418beb2d","ios":"levelo://app?vid=79d247de-4f4d-4ea7-aa22-126a418beb2d"},"vehicle_type_id":"4","last_reported":1745665649,"current_range_meters":12400,"station_id":"ce4bhnh2rcd13ifvqgug","pricing_plan_id":"cebpf4jnsgd1na2vs0mg"},{"bike_id":"987d7900-bb2a-45cb-bed7-6d69f6fd4fa3","system_id":"levelo_inurba_marseille","lat":43.28497,"lon":5.38468,"is_reserved":false,"is_disabled":false,"rental_uris":{"android":"levelo://app?vid=987d7900-bb2a-45cb-bed7-6d69f6fd4fa3","ios":"levelo://app?vid=987d7900-bb2a-45cb-bed7-6d69f6fd4fa3"},"vehicle_type_id":"4","last_reported":1745665649,"current_range_meters":12400,"station_id":"ce4bh512rcd13ifvqe3g","pricing_plan_id":"cebpf4jnsgd1na2vs0mg"},{"bike_id":"b21c00a7-d144-4ca6-8488-9b092c938569","system_id":"levelo_inurba_marseille","lat":43.27378,"lon":5.36266,"is_reserved":false,"is_disabled":false,"rental_uris":{"android":"levelo://app?vid=b21c00a7-d144-4ca6-8488-9b092c938569","ios":"levelo://app?vid=b21c00a7-d144-4ca6-8488-9b092c938569"},"vehicle_type_id":"4","last_reported":1745665649,"current_range_meters":12800,"station_id":"ce4bhbh2rcd13ifvqeo0","pricing_plan_id":"cebpf4jnsgd1na2vs0mg"},{"bike_id":"e7f0edfb-1784-4296-b436-45f081824e97","system_id":"levelo_inurba_marseille","lat":43.23188,"lon":5.35557,"is_reserved":false,"is_disabled":false,"rental_uris":{"android":"levelo://app?vid=e7f0edfb-1784-4296-b436-45f081824e97","ios":"levelo://app?vid=e7f0edfb-1784-4296-b436-45f081824e97"},"vehicle_type_id":"4","last_reported":1745665649,"current_range_meters":12800,"station_id":"ce4bhu92rcd13ifvqi70","pricing_plan_id":"cebpf4jnsgd1na2vs0mg"},{"bike_id":"0ef66c3a-6bbe-415e-bdeb-116c5abbb5ba","system_id":"levelo_inurba_marseille","lat":43.28939,"lon":5.36642,"is_reserved":false,"is_disabled":false,"rental_uris":{"android":"levelo://app?vid=0ef66c3a-6bbe-415e-bdeb-116c5abbb5ba","ios":"levelo://app?vid=0ef66c3a-6bbe-415e-bdeb-116c5abbb5ba"},"vehicle_type_id":"4","last_reported":1745665649,"current_range_meters":12400,"station_id":"ce4bhap2rcd13ifvqek0","pricing_plan_id":"cebpf4jnsgd1na2vs0mg"},{"bike_id":"7c799cf1-9919-4f59-bde2-ea860bf8d95f","system_id":"levelo_inurba_marseille","lat":43.23198,"lon":5.3556,"is_reserved":false,"is_disabled":true,"rental_uris":{"android":"levelo://app?vid=7c799cf1-9919-4f59-bde2-ea860bf8d95f","ios":"levelo://app?vid=7c799cf1-9919-4f59-bde2-ea860bf8d95f"},"vehicle_type_id":"4","last_reported":1745665649,"current_range_meters":12800,"station_id":"ce4bhu92rcd13ifvqi70","pricing_plan_id":"cebpf4jnsgd1na2vs0mg"},{"bike_id":"d566bf3a-3c07-46c6-b315-87334dd4aa83","system_id":"levelo_inurba_marseille","lat":43.286109,"lon":5.370591,"is_reserved":false,"is_disabled":true,"rental_uris":{"android":"levelo://app?vid=d566bf3a-3c07-46c6-b315-87334dd4aa83","ios":"levelo://app?vid=d566bf3a-3c07-46c6-b315-87334dd4aa83"},"vehicle_type_id":"4","last_reported":1745665649,"current_range_meters":12800,"station_id":"","pricing_plan_id":"cebpf4jnsgd1na2vs0mg"},{"bike_id":"f84e89ef-6778-40da-9602-1501af5964cf","system_id":"levelo_inurba_marseille","lat":43.29622,"lon":5.37149,"is_reserved":false,"is_disabled":false,"rental_uris":{"android":"levelo://app?vid=f84e89ef-6778-40da-9602-1501af5964cf","ios":"levelo://app?vid=f84e89ef-6778-40da-9602-1501af5964cf"},"vehicle_type_id":"4","last_reported":1745665649,"current_range_meters":12800,"station_id":"ce4bgnh2rcd13ifvqc0g","pricing_plan_id":"cebpf4jnsgd1na2vs0mg"},{"bike_id":"ceb6eb10-1374-4060-b4b8-a1f1c052e8a6","system_id":"levelo_inurba_marseille","lat":43.31222,"lon":5.36871,"is_reserved":false,"is_disabled":false,"rental_uris":{"android":"levelo://app?vid=ceb6eb10-1374-4060-b4b8-a1f1c052e8a6","ios":"levelo://app?vid=ceb6eb10-1374-4060-b4b8-a1f1c052e8a6"},"vehicle_type_id":"4","last_reported":1745665649,"current_range_meters":13600,"station_id":"ce4bgl92rcd13ifvqbq0","pricing_plan_id":"cebpf4jnsgd1na2vs0mg"},{"bike_id":"d62fb115-7ac9-475a-893e-d528d1ceb925","system_id":"levelo_inurba_marseille","lat":43.30151,"lon":5.37421,"is_reserved":false,"is_disabled":false,"rental_uris":{"android":"levelo://app?vid=d62fb115-7ac9-475a-893e-d528d1ceb925","ios":"levelo://app?vid=d62fb115-7ac9-475a-893e-d528d1ceb925"},"vehicle_type_id":"4","last_reported":1745665649,"current_range_meters":13600,"station_id":"ce4bgs92rcd13ifvqcc0","pricing_plan_id":"cebpf4jnsgd1na2vs0mg"},{"bike_id":"3f8e74df-4b8a-4fe8-9f20-4fbe47605119","system_id":"levelo_inurba_marseille","lat":43.291168,"lon":5.380726,"is_reserved":false,"is_disabled":true,"rental_uris":{"android":"levelo://app?vid=3f8e74df-4b8a-4fe8-9f20-4fbe47605119","ios":"levelo://app?vid=3f8e74df-4b8a-4fe8-9f20-4fbe47605119"},"vehicle_type_id":"4","last_reported":1745665649,"current_range_meters":13600,"station_id":"ce4bh692rcd13ifvqe90","pricing_plan_id":"cebpf4jnsgd1na2vs0mg"},{"bike_id":"a21155a7-a1fe-498e-8c1d-a1860eb067a3","system_id":"levelo_inurba_marseille","lat":43.28272,"lon":5.35059,"is_reserved":false,"is_disabled":false,"rental_uris":{"android":"levelo://app?vid=a21155a7-a1fe-498e-8c1d-a1860eb067a3","ios":"levelo://app?vid=a21155a7-a1fe-498e-8c1d-a1860eb067a3"},"vehicle_type_id":"4","last_reported":1745665649,"current_range_meters":13600,"station_id":"ce4bhbp2rcd13ifvqerg","pricing_plan_id":"cebpf4jnsgd1na2vs0mg"},{"bike_id":"e6dd51ac-2075-47cd-ad99-bcf7ffe96cb9","system_id":"levelo_inurba_marseille","lat":43.22502,"lon":5.34783,"is_reserved":false,"is_disabled":false,"rental_uris":{"android":"levelo://app?vid=e6dd51ac-2075-47cd-ad99-bcf7ffe96cb9","ios":"levelo://app?vid=e6dd51ac-2075-47cd-ad99-bcf7ffe96cb9"},"vehicle_type_id":"4","last_reported":1745665649,"current_range_meters":13600,"station_id":"st_cvj5dfep6f1abm77gieg","pricing_plan_id":"cebpf4jnsgd1na2vs0mg"},{"bike_id":"f0ff19c2-cbf5-4852-bfe8-1207ae67f84f","system_id":"levelo_inurba_marseille","lat":43.241685,"lon":5.363978,"is_reserved":false,"is_disabled":false,"rental_uris":{"android":"levelo://app?vid=f0ff19c2-cbf5-4852-bfe8-1207ae67f84f","ios":"levelo://app?vid=f0ff19c2-cbf5-4852-bfe8-1207ae67f84f"},"vehicle_type_id":"4","last_reported":1745665649,"current_range_meters":14000,"station_id":"cpo36qri1sfpv3e86is0","pricing_plan_id":"cebpf4jnsgd1na2vs0mg"},{"bike_id":"de21758b-8dd0-4451-9bdf-6c2f789056dd","system_id":"levelo_inurba_marseille","lat":43.2873,"lon":5.36082,"is_reserved":false,"is_disabled":false,"rental_uris":{"android":"levelo://app?vid=de21758b-8dd0-4451-9bdf-6c2f789056dd","ios":"levelo://app?vid=de21758b-8dd0-4451-9bdf-6c2f789056dd"},"vehicle_type_id":"4","last_reported":1745665649,"current_range_meters":14000,"station_id":"cki0cbj6b192h4jlfktg","pricing_plan_id":"cebpf4jnsgd1na2vs0mg"},{"bike_id":"a48c6b92-9a9d-4782-8187-4a3bac9d75ea","system_id":"levelo_inurba_marseille","lat":43.23198,"lon":5.35552,"is_reserved":false,"is_disabled":false,"rental_uris":{"android":"levelo://app?vid=a48c6b92-9a9d-4782-8187-4a3bac9d75ea","ios":"levelo://app?vid=a48c6b92-9a9d-4782-8187-4a3bac9d75ea"},"vehicle_type_id":"4","last_reported":1745665649,"current_range_meters":14000,"station_id":"ce4bhu92rcd13ifvqi70","pricing_plan_id":"cebpf4jnsgd1na2vs0mg"},{"bike_id":"1545c628-78da-40c3-8c9e-23e80abea750","system_id":"levelo_inurba_marseille","lat":43.23155,"lon":5.43718,"is_reserved":false,"is_disabled":false,"rental_uris":{"android":"levelo://app?vid=1545c628-78da-40c3-8c9e-23e80abea750","ios":"levelo://app?vid=1545c628-78da-40c3-8c9e-23e80abea750"},"vehicle_type_id":"4","last_reported":1745665649,"current_range_meters":14800,"station_id":"ce4bhmp2rcd13ifvqgog","pricing_plan_id":"cebpf4jnsgd1na2vs0mg"},{"bike_id":"10cef5e9-1f90-4f35-b677-0c47e5f0c92c","system_id":"levelo_inurba_marseille","lat":43.288483,"lon":5.358548,"is_reserved":false,"is_disabled":false,"rental_uris":{"android":"levelo://app?vid=10cef5e9-1f90-4f35-b677-0c47e5f0c92c","ios":"levelo://app?vid=10cef5e9-1f90-4f35-b677-0c47e5f0c92c"},"vehicle_type_id":"4","last_reported":1745665649,"current_range_meters":14000,"station_id":"ce4bhb12rcd13ifvqem0","pricing_plan_id":"cebpf4jnsgd1na2vs0mg"},{"bike_id":"ca376395-5bab-49ac-a88b-03ed7986b1fc","system_id":"levelo_inurba_marseille","lat":43.25916,"lon":5.40888,"is_reserved":false,"is_disabled":false,"rental_uris":{"android":"levelo://app?vid=ca376395-5bab-49ac-a88b-03ed7986b1fc","ios":"levelo://app?vid=ca376395-5bab-49ac-a88b-03ed7986b1fc"},"vehicle_type_id":"4","last_reported":1745665649,"current_range_meters":14400,"station_id":"ce4bhm92rcd13ifvqglg","pricing_plan_id":"cebpf4jnsgd1na2vs0mg"},{"bike_id":"94625ec8-1b12-4416-bf03-8cb0e01d24a0","system_id":"levelo_inurba_marseille","lat":43.21746,"lon":5.34601,"is_reserved":false,"is_disabled":false,"rental_uris":{"android":"levelo://app?vid=94625ec8-1b12-4416-bf03-8cb0e01d24a0","ios":"levelo://app?vid=94625ec8-1b12-4416-bf03-8cb0e01d24a0"},"vehicle_type_id":"4","last_reported":1745665649,"current_range_meters":14400,"station_id":"st_cvj6r9ubvosntc0bgbag","pricing_plan_id":"cebpf4jnsgd1na2vs0mg"},{"bike_id":"86082c5a-74ec-45ee-9bbd-681fdfc8da73","system_id":"levelo_inurba_marseille","lat":43.23973,"lon":5.36613,"is_reserved":false,"is_disabled":false,"rental_uris":{"android":"levelo://app?vid=86082c5a-74ec-45ee-9bbd-681fdfc8da73","ios":"levelo://app?vid=86082c5a-74ec-45ee-9bbd-681fdfc8da73"},"vehicle_type_id":"4","last_reported":1745665649,"current_range_meters":14800,"station_id":"ce4bhi12rcd13ifvqfp0","pricing_plan_id":"cebpf4jnsgd1na2vs0mg"},{"bike_id":"4046a82f-66e8-4b55-bd0a-356edea772d8","system_id":"levelo_inurba_marseille","lat":43.31016,"lon":5.37027,"is_reserved":false,"is_disabled":false,"rental_uris":{"android":"levelo://app?vid=4046a82f-66e8-4b55-bd0a-356edea772d8","ios":"levelo://app?vid=4046a82f-66e8-4b55-bd0a-356edea772d8"},"vehicle_type_id":"4","last_reported":1745665649,"current_range_meters":14800,"station_id":"","pricing_plan_id":"cebpf4jnsgd1na2vs0mg"},{"bike_id":"24348ca5-e949-446c-830e-9df0a038e7e5","system_id":"levelo_inurba_marseille","lat":43.29789,"lon":5.39341,"is_reserved":false,"is_disabled":false,"rental_uris":{"android":"levelo://app?vid=24348ca5-e949-446c-830e-9df0a038e7e5","ios":"levelo://app?vid=24348ca5-e949-446c-830e-9df0a038e7e5"},"vehicle_type_id":"4","last_reported":1745665649,"current_range_meters":15200,"station_id":"chh1huq6cuj3fo74tm60","pricing_plan_id":"cebpf4jnsgd1na2vs0mg"},{"bike_id":"be33aa2d-800c-4b13-b8a0-7befb5713ac3","system_id":"levelo_inurba_marseille","lat":43.26224,"lon":5.40427,"is_reserved":false,"is_disabled":false,"rental_uris":{"android":"levelo://app?vid=be33aa2d-800c-4b13-b8a0-7befb5713ac3","ios":"levelo://app?vid=be33aa2d-800c-4b13-b8a0-7befb5713ac3"},"vehicle_type_id":"4","last_reported":1745665649,"current_range_meters":14800,"station_id":"ce4bhmh2rcd13ifvqgmg","pricing_plan_id":"cebpf4jnsgd1na2vs0mg"},{"bike_id":"17fba1e3-a5b4-4e07-a20e-eab26f701e89","system_id":"levelo_inurba_marseille","lat":43.29527,"lon":5.39047,"is_reserved":false,"is_disabled":false,"rental_uris":{"android":"levelo://app?vid=17fba1e3-a5b4-4e07-a20e-eab26f701e89","ios":"levelo://app?vid=17fba1e3-a5b4-4e07-a20e-eab26f701e89"},"vehicle_type_id":"4","last_reported":1745665649,"current_range_meters":14800,"station_id":"ce4bh3p2rcd13ifvqdp0","pricing_plan_id":"cebpf4jnsgd1na2vs0mg"},{"bike_id":"163a66b6-3720-44ea-8ffc-fbd51dbcd3e1","system_id":"levelo_inurba_marseille","lat":43.23151,"lon":5.43726,"is_reserved":false,"is_disabled":false,"rental_uris":{"android":"levelo://app?vid=163a66b6-3720-44ea-8ffc-fbd51dbcd3e1","ios":"levelo://app?vid=163a66b6-3720-44ea-8ffc-fbd51dbcd3e1"},"vehicle_type_id":"4","last_reported":1745665649,"current_range_meters":14800,"station_id":"ce4bhmp2rcd13ifvqgog","pricing_plan_id":"cebpf4jnsgd1na2vs0mg"},{"bike_id":"7bf5aee5-5cfe-4452-8e32-1945f59b5cc9","system_id":"levelo_inurba_marseille","lat":43.298401,"lon":5.36273,"is_reserved":false,"is_disabled":false,"rental_uris":{"android":"levelo://app?vid=7bf5aee5-5cfe-4452-8e32-1945f59b5cc9","ios":"levelo://app?vid=7bf5aee5-5cfe-4452-8e32-1945f59b5cc9"},"vehicle_type_id":"4","last_reported":1745665649,"current_range_meters":15200,"station_id":"ce4bgi92rcd13ifvqb90","pricing_plan_id":"cebpf4jnsgd1na2vs0mg"},{"bike_id":"30620f58-200e-4f8e-8eed-5278352ba38f","system_id":"levelo_inurba_marseille","lat":43.29858,"lon":5.36286,"is_reserved":false,"is_disabled":false,"rental_uris":{"android":"levelo://app?vid=30620f58-200e-4f8e-8eed-5278352ba38f","ios":"levelo://app?vid=30620f58-200e-4f8e-8eed-5278352ba38f"},"vehicle_type_id":"4","last_reported":1745665649,"current_range_meters":15200,"station_id":"ce4bgpp2rcd13ifvqc3g","pricing_plan_id":"cebpf4jnsgd1na2vs0mg"},{"bike_id":"469167e4-732c-4d6a-bc90-434e05062734","system_id":"levelo_inurba_marseille","lat":43.31498,"lon":5.37317,"is_reserved":false,"is_disabled":false,"rental_uris":{"android":"levelo://app?vid=469167e4-732c-4d6a-bc90-434e05062734","ios":"levelo://app?vid=469167e4-732c-4d6a-bc90-434e05062734"},"vehicle_type_id":"4","last_reported":1745665649,"current_range_meters":15200,"station_id":"ce4bgt12rcd13ifvqcd0","pricing_plan_id":"cebpf4jnsgd1na2vs0mg"},{"bike_id":"a6cb1471-99e5-414f-853d-bf8164b12e20","system_id":"levelo_inurba_marseille","lat":43.29623,"lon":5.37701,"is_reserved":false,"is_disabled":false,"rental_uris":{"android":"levelo://app?vid=a6cb1471-99e5-414f-853d-bf8164b12e20","ios":"levelo://app?vid=a6cb1471-99e5-414f-853d-bf8164b12e20"},"vehicle_type_id":"4","last_reported":1745665649,"current_range_meters":15200,"station_id":"ce4bgi92rcd13ifvqb90","pricing_plan_id":"cebpf4jnsgd1na2vs0mg"},{"bike_id":"4414587f-8c1c-461b-8a25-417a49b86327","system_id":"levelo_inurba_marseille","lat":43.23196,"lon":5.35549,"is_reserved":false,"is_disabled":false,"rental_uris":{"android":"levelo://app?vid=4414587f-8c1c-461b-8a25-417a49b86327","ios":"levelo://app?vid=4414587f-8c1c-461b-8a25-417a49b86327"},"vehicle_type_id":"4","last_reported":1745665649,"current_range_meters":15200,"station_id":"ce4bhu92rcd13ifvqi70","pricing_plan_id":"cebpf4jnsgd1na2vs0mg"},{"bike_id":"dd3d040d-49ae-4fd1-b0c4-effaebf6992c","system_id":"levelo_inurba_marseille","lat":43.28412,"lon":5.34981,"is_reserved":false,"is_disabled":false,"rental_uris":{"android":"levelo://app?vid=dd3d040d-49ae-4fd1-b0c4-effaebf6992c","ios":"levelo://app?vid=dd3d040d-49ae-4fd1-b0c4-effaebf6992c"},"vehicle_type_id":"4","last_reported":1745665649,"current_range_meters":15200,"station_id":"ce4bhbh2rcd13ifvqepg","pricing_plan_id":"cebpf4jnsgd1na2vs0mg"},{"bike_id":"4f1a2897-e2f4-42a1-99cb-45cbe6c3b58e","system_id":"levelo_inurba_marseille","lat":43.28617,"lon":5.35096,"is_reserved":false,"is_disabled":false,"rental_uris":{"android":"levelo://app?vid=4f1a2897-e2f4-42a1-99cb-45cbe6c3b58e","ios":"levelo://app?vid=4f1a2897-e2f4-42a1-99cb-45cbe6c3b58e"},"vehicle_type_id":"4","last_reported":1745665649,"current_range_meters":15200,"station_id":"ce4bhch2rcd13ifvqeug","pricing_plan_id":"cebpf4jnsgd1na2vs0mg"},{"bike_id":"08361f15-a042-435d-b65b-7568cb2fed56","system_id":"levelo_inurba_marseille","lat":43.25924,"lon":5.40879,"is_reserved":false,"is_disabled":false,"rental_uris":{"android":"levelo://app?vid=08361f15-a042-435d-b65b-7568cb2fed56","ios":"levelo://app?vid=08361f15-a042-435d-b65b-7568cb2fed56"},"vehicle_type_id":"4","last_reported":1745665649,"current_range_meters":16000,"station_id":"ce4bhm92rcd13ifvqglg","pricing_plan_id":"cebpf4jnsgd1na2vs0mg"},{"bike_id":"e8b62835-a84e-47ec-ae17-92ed9baa736d","system_id":"levelo_inurba_marseille","lat":43.21758,"lon":5.34606,"is_reserved":false,"is_disabled":false,"rental_uris":{"android":"levelo://app?vid=e8b62835-a84e-47ec-ae17-92ed9baa736d","ios":"levelo://app?vid=e8b62835-a84e-47ec-ae17-92ed9baa736d"},"vehicle_type_id":"4","last_reported":1745665649,"current_range_meters":16000,"station_id":"st_cvj6r9ubvosntc0bgbag","pricing_plan_id":"cebpf4jnsgd1na2vs0mg"},{"bike_id":"0abb145a-12ac-4105-b164-8feb4fb022b8","system_id":"levelo_inurba_marseille","lat":43.21194,"lon":5.35065,"is_reserved":false,"is_disabled":false,"rental_uris":{"android":"levelo://app?vid=0abb145a-12ac-4105-b164-8feb4fb022b8","ios":"levelo://app?vid=0abb145a-12ac-4105-b164-8feb4fb022b8"},"vehicle_type_id":"4","last_reported":1745665649,"current_range_meters":16000,"station_id":"st_cvj6sg6p6f1abm77japg","pricing_plan_id":"cebpf4jnsgd1na2vs0mg"},{"bike_id":"e2982129-0a81-4346-98bc-974c80e409ff","system_id":"levelo_inurba_marseille","lat":43.2119,"lon":5.35073,"is_reserved":false,"is_disabled":false,"rental_uris":{"android":"levelo://app?vid=e2982129-0a81-4346-98bc-974c80e409ff","ios":"levelo://app?vid=e2982129-0a81-4346-98bc-974c80e409ff"},"vehicle_type_id":"4","last_reported":1745665649,"current_range_meters":16000,"station_id":"st_cvj6sg6p6f1abm77japg","pricing_plan_id":"cebpf4jnsgd1na2vs0mg"},{"bike_id":"4741e6af-20c0-42f4-b950-4d85a1b8cba0","system_id":"levelo_inurba_marseille","lat":43.30846,"lon":5.37909,"is_reserved":false,"is_disabled":false,"rental_uris":{"android":"levelo://app?vid=4741e6af-20c0-42f4-b950-4d85a1b8cba0","ios":"levelo://app?vid=4741e6af-20c0-42f4-b950-4d85a1b8cba0"},"vehicle_type_id":"4","last_reported":1745665649,"current_range_meters":16000,"station_id":"","pricing_plan_id":"cebpf4jnsgd1na2vs0mg"},{"bike_id":"c5eef4e3-3e25-4729-af12-550d2fb50648","system_id":"levelo_inurba_marseille","lat":43.28157,"lon":5.42644,"is_reserved":false,"is_disabled":false,"rental_uris":{"android":"levelo://app?vid=c5eef4e3-3e25-4729-af12-550d2fb50648","ios":"levelo://app?vid=c5eef4e3-3e25-4729-af12-550d2fb50648"},"vehicle_type_id":"4","last_reported":1745665649,"current_range_meters":16000,"station_id":"ce4bhnh2rcd13ifvqgug","pricing_plan_id":"cebpf4jnsgd1na2vs0mg"},{"bike_id":"531e383a-42d6-4901-adef-7c2edea1feba","system_id":"levelo_inurba_marseille","lat":43.22932,"lon":5.35375,"is_reserved":false,"is_disabled":false,"rental_uris":{"android":"levelo://app?vid=531e383a-42d6-4901-adef-7c2edea1feba","ios":"levelo://app?vid=531e383a-42d6-4901-adef-7c2edea1feba"},"vehicle_type_id":"4","last_reported":1745665649,"current_range_meters":16000,"station_id":"cpo3532slgdg3j2ikp40","pricing_plan_id":"cebpf4jnsgd1na2vs0mg"},{"bike_id":"73f1af39-c87a-4084-a3b4-40e01b4d0a0e","system_id":"levelo_inurba_marseille","lat":43.2927,"lon":5.38437,"is_reserved":false,"is_disabled":false,"rental_uris":{"android":"levelo://app?vid=73f1af39-c87a-4084-a3b4-40e01b4d0a0e","ios":"levelo://app?vid=73f1af39-c87a-4084-a3b4-40e01b4d0a0e"},"vehicle_type_id":"4","last_reported":1745665649,"current_range_meters":16000,"station_id":"ce4bh692rcd13ifvqea0","pricing_plan_id":"cebpf4jnsgd1na2vs0mg"},{"bike_id":"03a3e930-e2fe-42c4-a993-bd8e729eb225","system_id":"levelo_inurba_marseille","lat":43.29856,"lon":5.36253,"is_reserved":false,"is_disabled":false,"rental_uris":{"android":"levelo://app?vid=03a3e930-e2fe-42c4-a993-bd8e729eb225","ios":"levelo://app?vid=03a3e930-e2fe-42c4-a993-bd8e729eb225"},"vehicle_type_id":"4","last_reported":1745665649,"current_range_meters":16000,"station_id":"ce4bgpp2rcd13ifvqc3g","pricing_plan_id":"cebpf4jnsgd1na2vs0mg"},{"bike_id":"d66b4a69-6281-4894-a153-1026d05bbe0a","system_id":"levelo_inurba_marseille","lat":43.301368,"lon":5.398519,"is_reserved":false,"is_disabled":false,"rental_uris":{"android":"levelo://app?vid=d66b4a69-6281-4894-a153-1026d05bbe0a","ios":"levelo://app?vid=d66b4a69-6281-4894-a153-1026d05bbe0a"},"vehicle_type_id":"4","last_reported":1745665649,"current_range_meters":16400,"station_id":"ce4bh0h2rcd13ifvqd40","pricing_plan_id":"cebpf4jnsgd1na2vs0mg"},{"bike_id":"5cb5fa24-52ea-420d-ba8f-f3e9de6bfd03","system_id":"levelo_inurba_marseille","lat":43.26699,"lon":5.38267,"is_reserved":false,"is_disabled":false,"rental_uris":{"android":"levelo://app?vid=5cb5fa24-52ea-420d-ba8f-f3e9de6bfd03","ios":"levelo://app?vid=5cb5fa24-52ea-420d-ba8f-f3e9de6bfd03"},"vehicle_type_id":"4","last_reported":1745665649,"current_range_meters":16400,"station_id":"ce4bhg92rcd13ifvqf90","pricing_plan_id":"cebpf4jnsgd1na2vs0mg"},{"bike_id":"bc2652db-32ee-450e-8cc0-005a02c1f054","system_id":"levelo_inurba_marseille","lat":43.21187,"lon":5.35071,"is_reserved":false,"is_disabled":false,"rental_uris":{"android":"levelo://app?vid=bc2652db-32ee-450e-8cc0-005a02c1f054","ios":"levelo://app?vid=bc2652db-32ee-450e-8cc0-005a02c1f054"},"vehicle_type_id":"4","last_reported":1745665649,"current_range_meters":16400,"station_id":"st_cvj6sg6p6f1abm77japg","pricing_plan_id":"cebpf4jnsgd1na2vs0mg"},{"bike_id":"4d70b616-d17d-4574-abd2-67bf390981a5","system_id":"levelo_inurba_marseille","lat":43.24074,"lon":5.37757,"is_reserved":false,"is_disabled":false,"rental_uris":{"android":"levelo://app?vid=4d70b616-d17d-4574-abd2-67bf390981a5","ios":"levelo://app?vid=4d70b616-d17d-4574-abd2-67bf390981a5"},"vehicle_type_id":"4","last_reported":1745665649,"current_range_meters":16800,"station_id":"ce4bhnp2rcd13ifvqgvg","pricing_plan_id":"cebpf4jnsgd1na2vs0mg"},{"bike_id":"52b4c787-50b0-406b-86a2-8f144bc1679c","system_id":"levelo_inurba_marseille","lat":43.27901,"lon":5.38019,"is_reserved":false,"is_disabled":false,"rental_uris":{"android":"levelo://app?vid=52b4c787-50b0-406b-86a2-8f144bc1679c","ios":"levelo://app?vid=52b4c787-50b0-406b-86a2-8f144bc1679c"},"vehicle_type_id":"4","last_reported":1745665649,"current_range_meters":16800,"station_id":"ce4bhf92rcd13ifvqf50","pricing_plan_id":"cebpf4jnsgd1na2vs0mg"},{"bike_id":"c7fec285-68d9-47a2-95fe-ac09adfeac9a","system_id":"levelo_inurba_marseille","lat":43.30547,"lon":5.36558,"is_reserved":false,"is_disabled":false,"rental_uris":{"android":"levelo://app?vid=c7fec285-68d9-47a2-95fe-ac09adfeac9a","ios":"levelo://app?vid=c7fec285-68d9-47a2-95fe-ac09adfeac9a"},"vehicle_type_id":"4","last_reported":1745665649,"current_range_meters":16800,"station_id":"ce4bgs12rcd13ifvqcag","pricing_plan_id":"cebpf4jnsgd1na2vs0mg"},{"bike_id":"0053b840-de47-4900-98aa-cc8575176b05","system_id":"levelo_inurba_marseille","lat":43.24169,"lon":5.364,"is_reserved":false,"is_disabled":true,"rental_uris":{"android":"levelo://app?vid=0053b840-de47-4900-98aa-cc8575176b05","ios":"levelo://app?vid=0053b840-de47-4900-98aa-cc8575176b05"},"vehicle_type_id":"4","last_reported":1745665649,"current_range_meters":17200,"station_id":"cpo36qri1sfpv3e86is0","pricing_plan_id":"cebpf4jnsgd1na2vs0mg"},{"bike_id":"a6fcee3b-561c-4a7d-b60e-4b457ffcb7b7","system_id":"levelo_inurba_marseille","lat":43.292,"lon":5.35804,"is_reserved":false,"is_disabled":false,"rental_uris":{"android":"levelo://app?vid=a6fcee3b-561c-4a7d-b60e-4b457ffcb7b7","ios":"levelo://app?vid=a6fcee3b-561c-4a7d-b60e-4b457ffcb7b7"},"vehicle_type_id":"4","last_reported":1745665649,"current_range_meters":16800,"station_id":"ce4bhb12rcd13ifvqel0","pricing_plan_id":"cebpf4jnsgd1na2vs0mg"},{"bike_id":"88fa99dd-fd7b-4bb4-b03f-46bf99b7e41b","system_id":"levelo_inurba_marseille","lat":43.2985,"lon":5.36282,"is_reserved":false,"is_disabled":false,"rental_uris":{"android":"levelo://app?vid=88fa99dd-fd7b-4bb4-b03f-46bf99b7e41b","ios":"levelo://app?vid=88fa99dd-fd7b-4bb4-b03f-46bf99b7e41b"},"vehicle_type_id":"4","last_reported":1745665649,"current_range_meters":17200,"station_id":"ce4bgpp2rcd13ifvqc3g","pricing_plan_id":"cebpf4jnsgd1na2vs0mg"},{"bike_id":"d6e41e93-1359-46e8-bfef-ed1fee730adb","system_id":"levelo_inurba_marseille","lat":43.28649,"lon":5.36351,"is_reserved":false,"is_disabled":true,"rental_uris":{"android":"levelo://app?vid=d6e41e93-1359-46e8-bfef-ed1fee730adb","ios":"levelo://app?vid=d6e41e93-1359-46e8-bfef-ed1fee730adb"},"vehicle_type_id":"4","last_reported":1745665649,"current_range_meters":17200,"station_id":"ce4bhah2rcd13ifvqej0","pricing_plan_id":"cebpf4jnsgd1na2vs0mg"},{"bike_id":"f338b586-c95c-4003-961b-4ab2c50263be","system_id":"levelo_inurba_marseille","lat":43.31482,"lon":5.37328,"is_reserved":false,"is_disabled":false,"rental_uris":{"android":"levelo://app?vid=f338b586-c95c-4003-961b-4ab2c50263be","ios":"levelo://app?vid=f338b586-c95c-4003-961b-4ab2c50263be"},"vehicle_type_id":"4","last_reported":1745665649,"current_range_meters":17200,"station_id":"ce4bgt12rcd13ifvqcd0","pricing_plan_id":"cebpf4jnsgd1na2vs0mg"},{"bike_id":"0390a7f6-5047-40d7-9591-67284edda013","system_id":"levelo_inurba_marseille","lat":43.29844,"lon":5.36237,"is_reserved":false,"is_disabled":false,"rental_uris":{"android":"levelo://app?vid=0390a7f6-5047-40d7-9591-67284edda013","ios":"levelo://app?vid=0390a7f6-5047-40d7-9591-67284edda013"},"vehicle_type_id":"4","last_reported":1745665649,"current_range_meters":17200,"station_id":"ce4bgpp2rcd13ifvqc3g","pricing_plan_id":"cebpf4jnsgd1na2vs0mg"},{"bike_id":"6a8eb88a-3991-47b5-a32c-a66e1b747290","system_id":"levelo_inurba_marseille","lat":43.25081,"lon":5.39513,"is_reserved":false,"is_disabled":false,"rental_uris":{"android":"levelo://app?vid=6a8eb88a-3991-47b5-a32c-a66e1b747290","ios":"levelo://app?vid=6a8eb88a-3991-47b5-a32c-a66e1b747290"},"vehicle_type_id":"4","last_reported":1745665649,"current_range_meters":17200,"station_id":"ce4bhm12rcd13ifvqgkg","pricing_plan_id":"cebpf4jnsgd1na2vs0mg"},{"bike_id":"00f50d2d-8e0c-43df-aae6-6718cf7f4aba","system_id":"levelo_inurba_marseille","lat":43.286888,"lon":5.373863,"is_reserved":false,"is_disabled":false,"rental_uris":{"android":"levelo://app?vid=00f50d2d-8e0c-43df-aae6-6718cf7f4aba","ios":"levelo://app?vid=00f50d2d-8e0c-43df-aae6-6718cf7f4aba"},"vehicle_type_id":"4","last_reported":1745665649,"current_range_meters":17200,"station_id":"ce4bh3p2rcd13ifvqdq0","pricing_plan_id":"cebpf4jnsgd1na2vs0mg"},{"bike_id":"5d28e137-7b8a-4c76-9b88-d9293a2646d1","system_id":"levelo_inurba_marseille","lat":43.30147,"lon":5.37424,"is_reserved":false,"is_disabled":false,"rental_uris":{"android":"levelo://app?vid=5d28e137-7b8a-4c76-9b88-d9293a2646d1","ios":"levelo://app?vid=5d28e137-7b8a-4c76-9b88-d9293a2646d1"},"vehicle_type_id":"4","last_reported":1745665649,"current_range_meters":17600,"station_id":"ce4bgs92rcd13ifvqcc0","pricing_plan_id":"cebpf4jnsgd1na2vs0mg"},{"bike_id":"2d5923fd-7de7-4197-ada1-f9364785cdc9","system_id":"levelo_inurba_marseille","lat":43.28942,"lon":5.36638,"is_reserved":false,"is_disabled":false,"rental_uris":{"android":"levelo://app?vid=2d5923fd-7de7-4197-ada1-f9364785cdc9","ios":"levelo://app?vid=2d5923fd-7de7-4197-ada1-f9364785cdc9"},"vehicle_type_id":"4","last_reported":1745665649,"current_range_meters":17600,"station_id":"ce4bhap2rcd13ifvqek0","pricing_plan_id":"cebpf4jnsgd1na2vs0mg"},{"bike_id":"886f774b-b172-4ee0-8af6-2a328933c394","system_id":"levelo_inurba_marseille","lat":43.24394,"lon":5.37049,"is_reserved":false,"is_disabled":false,"rental_uris":{"android":"levelo://app?vid=886f774b-b172-4ee0-8af6-2a328933c394","ios":"levelo://app?vid=886f774b-b172-4ee0-8af6-2a328933c394"},"vehicle_type_id":"4","last_reported":1745665649,"current_range_meters":17600,"station_id":"ce4bhhh2rcd13ifvqfk0","pricing_plan_id":"cebpf4jnsgd1na2vs0mg"},{"bike_id":"8aad07b9-087b-4540-bb3d-47793898b9b3","system_id":"levelo_inurba_marseille","lat":43.29977,"lon":5.37179,"is_reserved":false,"is_disabled":false,"rental_uris":{"android":"levelo://app?vid=8aad07b9-087b-4540-bb3d-47793898b9b3","ios":"levelo://app?vid=8aad07b9-087b-4540-bb3d-47793898b9b3"},"vehicle_type_id":"4","last_reported":1745665649,"current_range_meters":17600,"station_id":"ce4bgr92rcd13ifvqc7g","pricing_plan_id":"cebpf4jnsgd1na2vs0mg"},{"bike_id":"132f5c0f-d23c-4801-a0e2-2468c79d45c6","system_id":"levelo_inurba_marseille","lat":43.29631,"lon":5.4059,"is_reserved":false,"is_disabled":false,"rental_uris":{"android":"levelo://app?vid=132f5c0f-d23c-4801-a0e2-2468c79d45c6","ios":"levelo://app?vid=132f5c0f-d23c-4801-a0e2-2468c79d45c6"},"vehicle_type_id":"4","last_reported":1745665649,"current_range_meters":17600,"station_id":"ce4bh0h2rcd13ifvqd60","pricing_plan_id":"cebpf4jnsgd1na2vs0mg"},{"bike_id":"0c920c40-b1bd-42f3-9531-87b0d8611c22","system_id":"levelo_inurba_marseille","lat":43.27967,"lon":5.40029,"is_reserved":false,"is_disabled":false,"rental_uris":{"android":"levelo://app?vid=0c920c40-b1bd-42f3-9531-87b0d8611c22","ios":"levelo://app?vid=0c920c40-b1bd-42f3-9531-87b0d8611c22"},"vehicle_type_id":"4","last_reported":1745665649,"current_range_meters":17600,"station_id":"ce4bho92rcd13ifvqh4g","pricing_plan_id":"cebpf4jnsgd1na2vs0mg"},{"bike_id":"ca8753d3-dffa-4a2e-8300-a83a1208df49","system_id":"levelo_inurba_marseille","lat":43.31996,"lon":5.38158,"is_reserved":false,"is_disabled":false,"rental_uris":{"android":"levelo://app?vid=ca8753d3-dffa-4a2e-8300-a83a1208df49","ios":"levelo://app?vid=ca8753d3-dffa-4a2e-8300-a83a1208df49"},"vehicle_type_id":"4","last_reported":1745665649,"current_range_meters":17600,"station_id":"ce4bhr12rcd13ifvqhpg","pricing_plan_id":"cebpf4jnsgd1na2vs0mg"},{"bike_id":"b299429a-277b-4f12-a858-2186ddec18cc","system_id":"levelo_inurba_marseille","lat":43.2841,"lon":5.37515,"is_reserved":false,"is_disabled":false,"rental_uris":{"android":"levelo://app?vid=b299429a-277b-4f12-a858-2186ddec18cc","ios":"levelo://app?vid=b299429a-277b-4f12-a858-2186ddec18cc"},"vehicle_type_id":"4","last_reported":1745665649,"current_range_meters":18000,"station_id":"ce4bh412rcd13ifvqds0","pricing_plan_id":"cebpf4jnsgd1na2vs0mg"},{"bike_id":"f2843378-5f12-43a3-b382-4d512f253105","system_id":"levelo_inurba_marseille","lat":43.27602,"lon":5.36115,"is_reserved":false,"is_disabled":false,"rental_uris":{"android":"levelo://app?vid=f2843378-5f12-43a3-b382-4d512f253105","ios":"levelo://app?vid=f2843378-5f12-43a3-b382-4d512f253105"},"vehicle_type_id":"4","last_reported":1745665649,"current_range_meters":18000,"station_id":"ce4bgj92rcd13ifvqbe0","pricing_plan_id":"cebpf4jnsgd1na2vs0mg"},{"bike_id":"644268e1-f235-4316-91a1-a701d1174cab","system_id":"levelo_inurba_marseille","lat":43.30139,"lon":5.38089,"is_reserved":false,"is_disabled":false,"rental_uris":{"android":"levelo://app?vid=644268e1-f235-4316-91a1-a701d1174cab","ios":"levelo://app?vid=644268e1-f235-4316-91a1-a701d1174cab"},"vehicle_type_id":"4","last_reported":1745665649,"current_range_meters":18000,"station_id":"ce4bgjp2rcd13ifvqbh0","pricing_plan_id":"cebpf4jnsgd1na2vs0mg"},{"bike_id":"560f12bb-1614-4d7c-b78e-ccf5bdec9ea6","system_id":"levelo_inurba_marseille","lat":43.28488,"lon":5.35919,"is_reserved":false,"is_disabled":true,"rental_uris":{"android":"levelo://app?vid=560f12bb-1614-4d7c-b78e-ccf5bdec9ea6","ios":"levelo://app?vid=560f12bb-1614-4d7c-b78e-ccf5bdec9ea6"},"vehicle_type_id":"4","last_reported":1745665649,"current_range_meters":18000,"station_id":"","pricing_plan_id":"cebpf4jnsgd1na2vs0mg"},{"bike_id":"aa0a0acb-a19a-4569-9f7e-6c492cc43a49","system_id":"levelo_inurba_marseille","lat":43.2847,"lon":5.38452,"is_reserved":false,"is_disabled":true,"rental_uris":{"android":"levelo://app?vid=aa0a0acb-a19a-4569-9f7e-6c492cc43a49","ios":"levelo://app?vid=aa0a0acb-a19a-4569-9f7e-6c492cc43a49"},"vehicle_type_id":"4","last_reported":1745665649,"current_range_meters":18000,"station_id":"ce4bh512rcd13ifvqe3g","pricing_plan_id":"cebpf4jnsgd1na2vs0mg"},{"bike_id":"1e0ac60b-e244-4f1a-948d-7791c5fa98da","system_id":"levelo_inurba_marseille","lat":43.21218,"lon":5.35049,"is_reserved":false,"is_disabled":true,"rental_uris":{"android":"levelo://app?vid=1e0ac60b-e244-4f1a-948d-7791c5fa98da","ios":"levelo://app?vid=1e0ac60b-e244-4f1a-948d-7791c5fa98da"},"vehicle_type_id":"4","last_reported":1745665649,"current_range_meters":18800,"station_id":"","pricing_plan_id":"cebpf4jnsgd1na2vs0mg"},{"bike_id":"e3d86c14-a6f1-42a7-902e-4de83ee477dd","system_id":"levelo_inurba_marseille","lat":43.21195,"lon":5.35069,"is_reserved":false,"is_disabled":false,"rental_uris":{"android":"levelo://app?vid=e3d86c14-a6f1-42a7-902e-4de83ee477dd","ios":"levelo://app?vid=e3d86c14-a6f1-42a7-902e-4de83ee477dd"},"vehicle_type_id":"4","last_reported":1745665649,"current_range_meters":18800,"station_id":"st_cvj6sg6p6f1abm77japg","pricing_plan_id":"cebpf4jnsgd1na2vs0mg"},{"bike_id":"42179ed8-017f-4612-8e92-8efce2e86e5c","system_id":"levelo_inurba_marseille","lat":43.28614,"lon":5.35109,"is_reserved":false,"is_disabled":false,"rental_uris":{"android":"levelo://app?vid=42179ed8-017f-4612-8e92-8efce2e86e5c","ios":"levelo://app?vid=42179ed8-017f-4612-8e92-8efce2e86e5c"},"vehicle_type_id":"4","last_reported":1745665649,"current_range_meters":18800,"station_id":"ce4bhch2rcd13ifvqeug","pricing_plan_id":"cebpf4jnsgd1na2vs0mg"},{"bike_id":"dc6a6c97-9525-413d-9de5-13313fcc93c6","system_id":"levelo_inurba_marseille","lat":43.21198,"lon":5.35065,"is_reserved":false,"is_disabled":false,"rental_uris":{"android":"levelo://app?vid=dc6a6c97-9525-413d-9de5-13313fcc93c6","ios":"levelo://app?vid=dc6a6c97-9525-413d-9de5-13313fcc93c6"},"vehicle_type_id":"4","last_reported":1745665649,"current_range_meters":18800,"station_id":"st_cvj6sg6p6f1abm77japg","pricing_plan_id":"cebpf4jnsgd1na2vs0mg"},{"bike_id":"12232190-ca75-4d9b-9b42-45985d4e6da8","system_id":"levelo_inurba_marseille","lat":43.31096,"lon":5.38355,"is_reserved":false,"is_disabled":false,"rental_uris":{"android":"levelo://app?vid=12232190-ca75-4d9b-9b42-45985d4e6da8","ios":"levelo://app?vid=12232190-ca75-4d9b-9b42-45985d4e6da8"},"vehicle_type_id":"4","last_reported":1745665649,"current_range_meters":18800,"station_id":"ce4bgv92rcd13ifvqcr0","pricing_plan_id":"cebpf4jnsgd1na2vs0mg"},{"bike_id":"d8c0baf6-bcaa-4acf-9b9c-1341ce1d7d92","system_id":"levelo_inurba_marseille","lat":43.28359,"lon":5.38631,"is_reserved":false,"is_disabled":false,"rental_uris":{"android":"levelo://app?vid=d8c0baf6-bcaa-4acf-9b9c-1341ce1d7d92","ios":"levelo://app?vid=d8c0baf6-bcaa-4acf-9b9c-1341ce1d7d92"},"vehicle_type_id":"4","last_reported":1745665649,"current_range_meters":18000,"station_id":"ce4bh492rcd13ifvqdvg","pricing_plan_id":"cebpf4jnsgd1na2vs0mg"},{"bike_id":"e7caf4cd-945d-418c-8941-fe804ba57b84","system_id":"levelo_inurba_marseille","lat":43.27904,"lon":5.4052,"is_reserved":false,"is_disabled":true,"rental_uris":{"android":"levelo://app?vid=e7caf4cd-945d-418c-8941-fe804ba57b84","ios":"levelo://app?vid=e7caf4cd-945d-418c-8941-fe804ba57b84"},"vehicle_type_id":"4","last_reported":1745665649,"current_range_meters":19200,"station_id":"","pricing_plan_id":"cebpf4jnsgd1na2vs0mg"},{"bike_id":"9b7cd2db-62b1-4dd2-9912-1b5e0a7a3fca","system_id":"levelo_inurba_marseille","lat":43.30397,"lon":5.39333,"is_reserved":false,"is_disabled":false,"rental_uris":{"android":"levelo://app?vid=9b7cd2db-62b1-4dd2-9912-1b5e0a7a3fca","ios":"levelo://app?vid=9b7cd2db-62b1-4dd2-9912-1b5e0a7a3fca"},"vehicle_type_id":"4","last_reported":1745665649,"current_range_meters":19200,"station_id":"","pricing_plan_id":"cebpf4jnsgd1na2vs0mg"},{"bike_id":"ee696d87-e7d6-4c39-91b8-dd13e5f590f1","system_id":"levelo_inurba_marseille","lat":43.2992,"lon":5.383,"is_reserved":false,"is_disabled":false,"rental_uris":{"android":"levelo://app?vid=ee696d87-e7d6-4c39-91b8-dd13e5f590f1","ios":"levelo://app?vid=ee696d87-e7d6-4c39-91b8-dd13e5f590f1"},"vehicle_type_id":"4","last_reported":1745665649,"current_range_meters":19200,"station_id":"","pricing_plan_id":"cebpf4jnsgd1na2vs0mg"},{"bike_id":"856bb8cd-872a-46e3-be87-152f876d5f6a","system_id":"levelo_inurba_marseille","lat":43.224972,"lon":5.347967,"is_reserved":false,"is_disabled":false,"rental_uris":{"android":"levelo://app?vid=856bb8cd-872a-46e3-be87-152f876d5f6a","ios":"levelo://app?vid=856bb8cd-872a-46e3-be87-152f876d5f6a"},"vehicle_type_id":"4","last_reported":1745665649,"current_range_meters":19200,"station_id":"","pricing_plan_id":"cebpf4jnsgd1na2vs0mg"},{"bike_id":"0e96c8db-53ec-48cc-9089-e715927f4e1f","system_id":"levelo_inurba_marseille","lat":43.23961,"lon":5.36632,"is_reserved":false,"is_disabled":false,"rental_uris":{"android":"levelo://app?vid=0e96c8db-53ec-48cc-9089-e715927f4e1f","ios":"levelo://app?vid=0e96c8db-53ec-48cc-9089-e715927f4e1f"},"vehicle_type_id":"4","last_reported":1745665649,"current_range_meters":19200,"station_id":"ce4bhi12rcd13ifvqfp0","pricing_plan_id":"cebpf4jnsgd1na2vs0mg"},{"bike_id":"9b453bce-fb6f-4a07-8252-dffeeaa90381","system_id":"levelo_inurba_marseille","lat":43.23968,"lon":5.36628,"is_reserved":false,"is_disabled":false,"rental_uris":{"android":"levelo://app?vid=9b453bce-fb6f-4a07-8252-dffeeaa90381","ios":"levelo://app?vid=9b453bce-fb6f-4a07-8252-dffeeaa90381"},"vehicle_type_id":"4","last_reported":1745665649,"current_range_meters":19200,"station_id":"ce4bhi12rcd13ifvqfp0","pricing_plan_id":"cebpf4jnsgd1na2vs0mg"},{"bike_id":"ceaf7cf9-6b79-40e4-b50b-c0f7cf539812","system_id":"levelo_inurba_marseille","lat":43.29901,"lon":5.37525,"is_reserved":false,"is_disabled":false,"rental_uris":{"android":"levelo://app?vid=ceaf7cf9-6b79-40e4-b50b-c0f7cf539812","ios":"levelo://app?vid=ceaf7cf9-6b79-40e4-b50b-c0f7cf539812"},"vehicle_type_id":"4","last_reported":1745665649,"current_range_meters":19200,"station_id":"ce4bgjh2rcd13ifvqbg0","pricing_plan_id":"cebpf4jnsgd1na2vs0mg"},{"bike_id":"93f5cc7b-361a-44a4-bb01-09b55687fccc","system_id":"levelo_inurba_marseille","lat":43.281579,"lon":5.426467,"is_reserved":false,"is_disabled":false,"rental_uris":{"android":"levelo://app?vid=93f5cc7b-361a-44a4-bb01-09b55687fccc","ios":"levelo://app?vid=93f5cc7b-361a-44a4-bb01-09b55687fccc"},"vehicle_type_id":"4","last_reported":1745665649,"current_range_meters":19200,"station_id":"ce4bhkp2rcd13ifvqgd0","pricing_plan_id":"cebpf4jnsgd1na2vs0mg"},{"bike_id":"9d326a30-45fb-4007-aa3d-acac8289c2c4","system_id":"levelo_inurba_marseille","lat":43.31484,"lon":5.37306,"is_reserved":false,"is_disabled":false,"rental_uris":{"android":"levelo://app?vid=9d326a30-45fb-4007-aa3d-acac8289c2c4","ios":"levelo://app?vid=9d326a30-45fb-4007-aa3d-acac8289c2c4"},"vehicle_type_id":"4","last_reported":1745665649,"current_range_meters":19600,"station_id":"ce4bgt12rcd13ifvqcd0","pricing_plan_id":"cebpf4jnsgd1na2vs0mg"},{"bike_id":"7bc5a09e-236d-451a-a2a7-60a6dde9bc90","system_id":"levelo_inurba_marseille","lat":43.23081,"lon":5.35489,"is_reserved":false,"is_disabled":false,"rental_uris":{"android":"levelo://app?vid=7bc5a09e-236d-451a-a2a7-60a6dde9bc90","ios":"levelo://app?vid=7bc5a09e-236d-451a-a2a7-60a6dde9bc90"},"vehicle_type_id":"4","last_reported":1745665649,"current_range_meters":19600,"station_id":"cpo3342slgdg3j2ifvpg","pricing_plan_id":"cebpf4jnsgd1na2vs0mg"},{"bike_id":"eb415590-18a8-43d7-83c0-df6b3948639e","system_id":"levelo_inurba_marseille","lat":43.23964,"lon":5.36628,"is_reserved":false,"is_disabled":false,"rental_uris":{"android":"levelo://app?vid=eb415590-18a8-43d7-83c0-df6b3948639e","ios":"levelo://app?vid=eb415590-18a8-43d7-83c0-df6b3948639e"},"vehicle_type_id":"4","last_reported":1745665649,"current_range_meters":19600,"station_id":"ce4bhi12rcd13ifvqfp0","pricing_plan_id":"cebpf4jnsgd1na2vs0mg"},{"bike_id":"c2afd97f-df2b-4bbd-a07b-2b7b9d12cbfb","system_id":"levelo_inurba_marseille","lat":43.29491,"lon":5.39508,"is_reserved":false,"is_disabled":false,"rental_uris":{"android":"levelo://app?vid=c2afd97f-df2b-4bbd-a07b-2b7b9d12cbfb","ios":"levelo://app?vid=c2afd97f-df2b-4bbd-a07b-2b7b9d12cbfb"},"vehicle_type_id":"4","last_reported":1745665649,"current_range_meters":19600,"station_id":"","pricing_plan_id":"cebpf4jnsgd1na2vs0mg"},{"bike_id":"ca226576-a3e0-4b7f-a208-8c8bcdb5874e","system_id":"levelo_inurba_marseille","lat":43.25932,"lon":5.40889,"is_reserved":false,"is_disabled":false,"rental_uris":{"android":"levelo://app?vid=ca226576-a3e0-4b7f-a208-8c8bcdb5874e","ios":"levelo://app?vid=ca226576-a3e0-4b7f-a208-8c8bcdb5874e"},"vehicle_type_id":"4","last_reported":1745665649,"current_range_meters":19600,"station_id":"ce4bhm92rcd13ifvqglg","pricing_plan_id":"cebpf4jnsgd1na2vs0mg"},{"bike_id":"d3d6dce0-2b92-4121-b875-7563f64123d6","system_id":"levelo_inurba_marseille","lat":43.22938,"lon":5.3538,"is_reserved":false,"is_disabled":false,"rental_uris":{"android":"levelo://app?vid=d3d6dce0-2b92-4121-b875-7563f64123d6","ios":"levelo://app?vid=d3d6dce0-2b92-4121-b875-7563f64123d6"},"vehicle_type_id":"4","last_reported":1745665649,"current_range_meters":19600,"station_id":"cpo3532slgdg3j2ikp40","pricing_plan_id":"cebpf4jnsgd1na2vs0mg"},{"bike_id":"46be2e42-2c38-410b-ad5c-af4a24980971","system_id":"levelo_inurba_marseille","lat":43.24389,"lon":5.37062,"is_reserved":false,"is_disabled":false,"rental_uris":{"android":"levelo://app?vid=46be2e42-2c38-410b-ad5c-af4a24980971","ios":"levelo://app?vid=46be2e42-2c38-410b-ad5c-af4a24980971"},"vehicle_type_id":"4","last_reported":1745665649,"current_range_meters":19600,"station_id":"ce4bhhh2rcd13ifvqfk0","pricing_plan_id":"cebpf4jnsgd1na2vs0mg"},{"bike_id":"0d777af5-4166-475a-a6b9-6a0197032592","system_id":"levelo_inurba_marseille","lat":43.2328,"lon":5.35198,"is_reserved":false,"is_disabled":false,"rental_uris":{"android":"levelo://app?vid=0d777af5-4166-475a-a6b9-6a0197032592","ios":"levelo://app?vid=0d777af5-4166-475a-a6b9-6a0197032592"},"vehicle_type_id":"4","last_reported":1745665649,"current_range_meters":20000,"station_id":"","pricing_plan_id":"cebpf4jnsgd1na2vs0mg"},{"bike_id":"ac4c4173-35f2-480f-a156-1e96630b45e8","system_id":"levelo_inurba_marseille","lat":43.24073,"lon":5.3776,"is_reserved":false,"is_disabled":false,"rental_uris":{"android":"levelo://app?vid=ac4c4173-35f2-480f-a156-1e96630b45e8","ios":"levelo://app?vid=ac4c4173-35f2-480f-a156-1e96630b45e8"},"vehicle_type_id":"4","last_reported":1745665649,"current_range_meters":20000,"station_id":"ce4bhnp2rcd13ifvqgvg","pricing_plan_id":"cebpf4jnsgd1na2vs0mg"},{"bike_id":"48ca9be8-0527-40a5-acd5-f73ef97d607e","system_id":"levelo_inurba_marseille","lat":43.241,"lon":5.37753,"is_reserved":false,"is_disabled":false,"rental_uris":{"android":"levelo://app?vid=48ca9be8-0527-40a5-acd5-f73ef97d607e","ios":"levelo://app?vid=48ca9be8-0527-40a5-acd5-f73ef97d607e"},"vehicle_type_id":"4","last_reported":1745665649,"current_range_meters":20000,"station_id":"ce4bhnp2rcd13ifvqgvg","pricing_plan_id":"cebpf4jnsgd1na2vs0mg"},{"bike_id":"151dd1b1-908f-496a-81c6-31258561b176","system_id":"levelo_inurba_marseille","lat":43.25496,"lon":5.37649,"is_reserved":false,"is_disabled":false,"rental_uris":{"android":"levelo://app?vid=151dd1b1-908f-496a-81c6-31258561b176","ios":"levelo://app?vid=151dd1b1-908f-496a-81c6-31258561b176"},"vehicle_type_id":"4","last_reported":1745665649,"current_range_meters":20000,"station_id":"ce4bhh12rcd13ifvqff0","pricing_plan_id":"cebpf4jnsgd1na2vs0mg"},{"bike_id":"6a531350-6c17-4861-84f1-e573dc535c22","system_id":"levelo_inurba_marseille","lat":43.32111,"lon":5.36775,"is_reserved":false,"is_disabled":false,"rental_uris":{"android":"levelo://app?vid=6a531350-6c17-4861-84f1-e573dc535c22","ios":"levelo://app?vid=6a531350-6c17-4861-84f1-e573dc535c22"},"vehicle_type_id":"4","last_reported":1745665649,"current_range_meters":20000,"station_id":"ce4bhrh2rcd13ifvqhug","pricing_plan_id":"cebpf4jnsgd1na2vs0mg"},{"bike_id":"8980ce58-94c3-49b9-925a-c5952f8da45a","system_id":"levelo_inurba_marseille","lat":43.21198,"lon":5.35085,"is_reserved":false,"is_disabled":false,"rental_uris":{"android":"levelo://app?vid=8980ce58-94c3-49b9-925a-c5952f8da45a","ios":"levelo://app?vid=8980ce58-94c3-49b9-925a-c5952f8da45a"},"vehicle_type_id":"4","last_reported":1745665649,"current_range_meters":20000,"station_id":"st_cvj6sg6p6f1abm77japg","pricing_plan_id":"cebpf4jnsgd1na2vs0mg"},{"bike_id":"3ad35c25-d89f-4ea6-848b-393a00786d79","system_id":"levelo_inurba_marseille","lat":43.29856,"lon":5.42075,"is_reserved":false,"is_disabled":false,"rental_uris":{"android":"levelo://app?vid=3ad35c25-d89f-4ea6-848b-393a00786d79","ios":"levelo://app?vid=3ad35c25-d89f-4ea6-848b-393a00786d79"},"vehicle_type_id":"4","last_reported":1745665649,"current_range_meters":20000,"station_id":"","pricing_plan_id":"cebpf4jnsgd1na2vs0mg"},{"bike_id":"bc356e07-c6ac-43e7-a3c5-5552446665e5","system_id":"levelo_inurba_marseille","lat":43.31009,"lon":5.41754,"is_reserved":false,"is_disabled":false,"rental_uris":{"android":"levelo://app?vid=bc356e07-c6ac-43e7-a3c5-5552446665e5","ios":"levelo://app?vid=bc356e07-c6ac-43e7-a3c5-5552446665e5"},"vehicle_type_id":"4","last_reported":1745665649,"current_range_meters":20400,"station_id":"","pricing_plan_id":"cebpf4jnsgd1na2vs0mg"},{"bike_id":"429a2824-25d3-4e87-8865-ec398d90ebca","system_id":"levelo_inurba_marseille","lat":43.21209,"lon":5.35063,"is_reserved":false,"is_disabled":false,"rental_uris":{"android":"levelo://app?vid=429a2824-25d3-4e87-8865-ec398d90ebca","ios":"levelo://app?vid=429a2824-25d3-4e87-8865-ec398d90ebca"},"vehicle_type_id":"4","last_reported":1745665649,"current_range_meters":20400,"station_id":"st_cvj6sg6p6f1abm77japg","pricing_plan_id":"cebpf4jnsgd1na2vs0mg"},{"bike_id":"389fa13e-9fb8-4551-94cc-3437e858ed36","system_id":"levelo_inurba_marseille","lat":43.24169,"lon":5.36406,"is_reserved":false,"is_disabled":false,"rental_uris":{"android":"levelo://app?vid=389fa13e-9fb8-4551-94cc-3437e858ed36","ios":"levelo://app?vid=389fa13e-9fb8-4551-94cc-3437e858ed36"},"vehicle_type_id":"4","last_reported":1745665649,"current_range_meters":20400,"station_id":"cpo36qri1sfpv3e86is0","pricing_plan_id":"cebpf4jnsgd1na2vs0mg"},{"bike_id":"75ed342a-9a0d-46bc-8852-312166e3d922","system_id":"levelo_inurba_marseille","lat":43.2121,"lon":5.35069,"is_reserved":false,"is_disabled":false,"rental_uris":{"android":"levelo://app?vid=75ed342a-9a0d-46bc-8852-312166e3d922","ios":"levelo://app?vid=75ed342a-9a0d-46bc-8852-312166e3d922"},"vehicle_type_id":"4","last_reported":1745665649,"current_range_meters":20400,"station_id":"st_cvj6sg6p6f1abm77japg","pricing_plan_id":"cebpf4jnsgd1na2vs0mg"},{"bike_id":"2d09ed0d-024f-46e7-a4ae-63adee1f6d72","system_id":"levelo_inurba_marseille","lat":43.30207,"lon":5.39467,"is_reserved":false,"is_disabled":false,"rental_uris":{"android":"levelo://app?vid=2d09ed0d-024f-46e7-a4ae-63adee1f6d72","ios":"levelo://app?vid=2d09ed0d-024f-46e7-a4ae-63adee1f6d72"},"vehicle_type_id":"4","last_reported":1745665649,"current_range_meters":20800,"station_id":"ce4bh0p2rcd13ifvqd70","pricing_plan_id":"cebpf4jnsgd1na2vs0mg"},{"bike_id":"f815ac98-ed77-424b-acb4-2f11680a91cc","system_id":"levelo_inurba_marseille","lat":43.21205,"lon":5.35057,"is_reserved":false,"is_disabled":false,"rental_uris":{"android":"levelo://app?vid=f815ac98-ed77-424b-acb4-2f11680a91cc","ios":"levelo://app?vid=f815ac98-ed77-424b-acb4-2f11680a91cc"},"vehicle_type_id":"4","last_reported":1745665649,"current_range_meters":20800,"station_id":"st_cvj6sg6p6f1abm77japg","pricing_plan_id":"cebpf4jnsgd1na2vs0mg"},{"bike_id":"e38527ba-c1d1-46c0-aa2a-11a1ee2dbd55","system_id":"levelo_inurba_marseille","lat":43.27324,"lon":5.39102,"is_reserved":false,"is_disabled":false,"rental_uris":{"android":"levelo://app?vid=e38527ba-c1d1-46c0-aa2a-11a1ee2dbd55","ios":"levelo://app?vid=e38527ba-c1d1-46c0-aa2a-11a1ee2dbd55"},"vehicle_type_id":"4","last_reported":1745665649,"current_range_meters":20800,"station_id":"ce4bhgp2rcd13ifvqfe0","pricing_plan_id":"cebpf4jnsgd1na2vs0mg"},{"bike_id":"ffa1e5f2-6462-4c8a-a5fb-c7ececaf632b","system_id":"levelo_inurba_marseille","lat":43.29437,"lon":5.39749,"is_reserved":false,"is_disabled":false,"rental_uris":{"android":"levelo://app?vid=ffa1e5f2-6462-4c8a-a5fb-c7ececaf632b","ios":"levelo://app?vid=ffa1e5f2-6462-4c8a-a5fb-c7ececaf632b"},"vehicle_type_id":"4","last_reported":1745665649,"current_range_meters":20800,"station_id":"ce4bh3h2rcd13ifvqdo0","pricing_plan_id":"cebpf4jnsgd1na2vs0mg"},{"bike_id":"92e041e2-e41e-4ddf-a42b-ce34ce3d168c","system_id":"levelo_inurba_marseille","lat":43.30932,"lon":5.40145,"is_reserved":false,"is_disabled":false,"rental_uris":{"android":"levelo://app?vid=92e041e2-e41e-4ddf-a42b-ce34ce3d168c","ios":"levelo://app?vid=92e041e2-e41e-4ddf-a42b-ce34ce3d168c"},"vehicle_type_id":"4","last_reported":1745665649,"current_range_meters":20400,"station_id":"ce4bgvp2rcd13ifvqct0","pricing_plan_id":"cebpf4jnsgd1na2vs0mg"},{"bike_id":"2743111f-6f05-405a-b992-7e5d8fae8924","system_id":"levelo_inurba_marseille","lat":43.22934,"lon":5.35378,"is_reserved":false,"is_disabled":false,"rental_uris":{"android":"levelo://app?vid=2743111f-6f05-405a-b992-7e5d8fae8924","ios":"levelo://app?vid=2743111f-6f05-405a-b992-7e5d8fae8924"},"vehicle_type_id":"4","last_reported":1745665649,"current_range_meters":20800,"station_id":"cpo3532slgdg3j2ikp40","pricing_plan_id":"cebpf4jnsgd1na2vs0mg"},{"bike_id":"c96dca77-5277-4a69-8181-773cef0a61bf","system_id":"levelo_inurba_marseille","lat":43.28632,"lon":5.35091,"is_reserved":false,"is_disabled":false,"rental_uris":{"android":"levelo://app?vid=c96dca77-5277-4a69-8181-773cef0a61bf","ios":"levelo://app?vid=c96dca77-5277-4a69-8181-773cef0a61bf"},"vehicle_type_id":"4","last_reported":1745665649,"current_range_meters":20800,"station_id":"ce4bhch2rcd13ifvqeug","pricing_plan_id":"cebpf4jnsgd1na2vs0mg"},{"bike_id":"709b8bd3-1f90-4f41-8cab-a02966b3a0fe","system_id":"levelo_inurba_marseille","lat":43.27622,"lon":5.36104,"is_reserved":false,"is_disabled":false,"rental_uris":{"android":"levelo://app?vid=709b8bd3-1f90-4f41-8cab-a02966b3a0fe","ios":"levelo://app?vid=709b8bd3-1f90-4f41-8cab-a02966b3a0fe"},"vehicle_type_id":"4","last_reported":1745665649,"current_range_meters":20800,"station_id":"ce4bgj92rcd13ifvqbe0","pricing_plan_id":"cebpf4jnsgd1na2vs0mg"},{"bike_id":"4eae56ea-83e0-4273-b5af-2fc02075f618","system_id":"levelo_inurba_marseille","lat":43.30151,"lon":5.38072,"is_reserved":false,"is_disabled":false,"rental_uris":{"android":"levelo://app?vid=4eae56ea-83e0-4273-b5af-2fc02075f618","ios":"levelo://app?vid=4eae56ea-83e0-4273-b5af-2fc02075f618"},"vehicle_type_id":"4","last_reported":1745665649,"current_range_meters":21600,"station_id":"ce4bgjp2rcd13ifvqbh0","pricing_plan_id":"cebpf4jnsgd1na2vs0mg"},{"bike_id":"90349f57-f1fe-444b-8f1d-45dedd785664","system_id":"levelo_inurba_marseille","lat":43.30886,"lon":5.37194,"is_reserved":false,"is_disabled":false,"rental_uris":{"android":"levelo://app?vid=90349f57-f1fe-444b-8f1d-45dedd785664","ios":"levelo://app?vid=90349f57-f1fe-444b-8f1d-45dedd785664"},"vehicle_type_id":"4","last_reported":1745665649,"current_range_meters":21600,"station_id":"ce4bguh2rcd13ifvqckg","pricing_plan_id":"cebpf4jnsgd1na2vs0mg"},{"bike_id":"2cc399f1-cfec-43b9-bbd7-2351fafd5194","system_id":"levelo_inurba_marseille","lat":43.22506,"lon":5.34782,"is_reserved":false,"is_disabled":false,"rental_uris":{"android":"levelo://app?vid=2cc399f1-cfec-43b9-bbd7-2351fafd5194","ios":"levelo://app?vid=2cc399f1-cfec-43b9-bbd7-2351fafd5194"},"vehicle_type_id":"4","last_reported":1745665649,"current_range_meters":21600,"station_id":"","pricing_plan_id":"cebpf4jnsgd1na2vs0mg"},{"bike_id":"155cb6f1-2c7d-40b4-8ac8-cb3b918eaa43","system_id":"levelo_inurba_marseille","lat":43.28349,"lon":5.38104,"is_reserved":false,"is_disabled":false,"rental_uris":{"android":"levelo://app?vid=155cb6f1-2c7d-40b4-8ac8-cb3b918eaa43","ios":"levelo://app?vid=155cb6f1-2c7d-40b4-8ac8-cb3b918eaa43"},"vehicle_type_id":"4","last_reported":1745665649,"current_range_meters":20800,"station_id":"ce4bh412rcd13ifvqdr0","pricing_plan_id":"cebpf4jnsgd1na2vs0mg"},{"bike_id":"3c31e25e-0742-4d12-89f5-cb9ba44656c5","system_id":"levelo_inurba_marseille","lat":43.21208,"lon":5.35059,"is_reserved":false,"is_disabled":false,"rental_uris":{"android":"levelo://app?vid=3c31e25e-0742-4d12-89f5-cb9ba44656c5","ios":"levelo://app?vid=3c31e25e-0742-4d12-89f5-cb9ba44656c5"},"vehicle_type_id":"4","last_reported":1745665649,"current_range_meters":21600,"station_id":"st_cvj6sg6p6f1abm77japg","pricing_plan_id":"cebpf4jnsgd1na2vs0mg"},{"bike_id":"6af4f5d9-fdac-4ef3-b90a-53977332598a","system_id":"levelo_inurba_marseille","lat":43.31999,"lon":5.38163,"is_reserved":false,"is_disabled":false,"rental_uris":{"android":"levelo://app?vid=6af4f5d9-fdac-4ef3-b90a-53977332598a","ios":"levelo://app?vid=6af4f5d9-fdac-4ef3-b90a-53977332598a"},"vehicle_type_id":"4","last_reported":1745665649,"current_range_meters":21600,"station_id":"ce4bhr12rcd13ifvqhpg","pricing_plan_id":"cebpf4jnsgd1na2vs0mg"},{"bike_id":"db17fa4b-2479-4f0d-a921-5ee59dfefb04","system_id":"levelo_inurba_marseille","lat":43.21189,"lon":5.35074,"is_reserved":false,"is_disabled":false,"rental_uris":{"android":"levelo://app?vid=db17fa4b-2479-4f0d-a921-5ee59dfefb04","ios":"levelo://app?vid=db17fa4b-2479-4f0d-a921-5ee59dfefb04"},"vehicle_type_id":"4","last_reported":1745665649,"current_range_meters":22000,"station_id":"st_cvj6sg6p6f1abm77japg","pricing_plan_id":"cebpf4jnsgd1na2vs0mg"},{"bike_id":"e2cf9de0-458d-4994-a25d-84845fed4e98","system_id":"levelo_inurba_marseille","lat":43.27062,"lon":5.40263,"is_reserved":false,"is_disabled":false,"rental_uris":{"android":"levelo://app?vid=e2cf9de0-458d-4994-a25d-84845fed4e98","ios":"levelo://app?vid=e2cf9de0-458d-4994-a25d-84845fed4e98"},"vehicle_type_id":"4","last_reported":1745665649,"current_range_meters":22000,"station_id":"ce4bhk92rcd13ifvqgc0","pricing_plan_id":"cebpf4jnsgd1na2vs0mg"},{"bike_id":"4c4df6b0-651c-4139-85c7-3c1718b1e49b","system_id":"levelo_inurba_marseille","lat":43.26693,"lon":5.38273,"is_reserved":false,"is_disabled":false,"rental_uris":{"android":"levelo://app?vid=4c4df6b0-651c-4139-85c7-3c1718b1e49b","ios":"levelo://app?vid=4c4df6b0-651c-4139-85c7-3c1718b1e49b"},"vehicle_type_id":"4","last_reported":1745665649,"current_range_meters":22400,"station_id":"ce4bhg92rcd13ifvqf90","pricing_plan_id":"cebpf4jnsgd1na2vs0mg"},{"bike_id":"0863d9a7-0ae4-48d2-80d2-0f70e5160f41","system_id":"levelo_inurba_marseille","lat":43.2621,"lon":5.37444,"is_reserved":false,"is_disabled":false,"rental_uris":{"android":"levelo://app?vid=0863d9a7-0ae4-48d2-80d2-0f70e5160f41","ios":"levelo://app?vid=0863d9a7-0ae4-48d2-80d2-0f70e5160f41"},"vehicle_type_id":"4","last_reported":1745665649,"current_range_meters":22400,"station_id":"ce4bhgp2rcd13ifvqfc0","pricing_plan_id":"cebpf4jnsgd1na2vs0mg"},{"bike_id":"da50045c-5fbe-4b6a-aa54-664b65a30a06","system_id":"levelo_inurba_marseille","lat":43.24166,"lon":5.36391,"is_reserved":false,"is_disabled":false,"rental_uris":{"android":"levelo://app?vid=da50045c-5fbe-4b6a-aa54-664b65a30a06","ios":"levelo://app?vid=da50045c-5fbe-4b6a-aa54-664b65a30a06"},"vehicle_type_id":"4","last_reported":1745665649,"current_range_meters":22400,"station_id":"cpo36qri1sfpv3e86is0","pricing_plan_id":"cebpf4jnsgd1na2vs0mg"},{"bike_id":"d6999195-178c-4476-a936-af0075db78bc","system_id":"levelo_inurba_marseille","lat":43.22507,"lon":5.34791,"is_reserved":false,"is_disabled":false,"rental_uris":{"android":"levelo://app?vid=d6999195-178c-4476-a936-af0075db78bc","ios":"levelo://app?vid=d6999195-178c-4476-a936-af0075db78bc"},"vehicle_type_id":"4","last_reported":1745665649,"current_range_meters":22800,"station_id":"st_cvj5dfep6f1abm77gieg","pricing_plan_id":"cebpf4jnsgd1na2vs0mg"},{"bike_id":"c5841a88-5ed1-4c50-b05b-6f4272c67bbd","system_id":"levelo_inurba_marseille","lat":43.24075,"lon":5.37759,"is_reserved":false,"is_disabled":false,"rental_uris":{"android":"levelo://app?vid=c5841a88-5ed1-4c50-b05b-6f4272c67bbd","ios":"levelo://app?vid=c5841a88-5ed1-4c50-b05b-6f4272c67bbd"},"vehicle_type_id":"4","last_reported":1745665649,"current_range_meters":22800,"station_id":"ce4bhnp2rcd13ifvqgvg","pricing_plan_id":"cebpf4jnsgd1na2vs0mg"},{"bike_id":"dccf8318-29b6-4fb5-94cb-7502af5aba3d","system_id":"levelo_inurba_marseille","lat":43.21194,"lon":5.35073,"is_reserved":false,"is_disabled":false,"rental_uris":{"android":"levelo://app?vid=dccf8318-29b6-4fb5-94cb-7502af5aba3d","ios":"levelo://app?vid=dccf8318-29b6-4fb5-94cb-7502af5aba3d"},"vehicle_type_id":"4","last_reported":1745665649,"current_range_meters":22800,"station_id":"st_cvj6sg6p6f1abm77japg","pricing_plan_id":"cebpf4jnsgd1na2vs0mg"},{"bike_id":"3edf4337-5538-4dd7-a8c4-b2e06de67ea6","system_id":"levelo_inurba_marseille","lat":43.29843,"lon":5.36262,"is_reserved":false,"is_disabled":false,"rental_uris":{"android":"levelo://app?vid=3edf4337-5538-4dd7-a8c4-b2e06de67ea6","ios":"levelo://app?vid=3edf4337-5538-4dd7-a8c4-b2e06de67ea6"},"vehicle_type_id":"4","last_reported":1745665649,"current_range_meters":22800,"station_id":"ce4bgpp2rcd13ifvqc3g","pricing_plan_id":"cebpf4jnsgd1na2vs0mg"},{"bike_id":"5b7ec4ef-d423-41c4-96cb-1ca7bceef233","system_id":"levelo_inurba_marseille","lat":43.29932,"lon":5.36534,"is_reserved":false,"is_disabled":false,"rental_uris":{"android":"levelo://app?vid=5b7ec4ef-d423-41c4-96cb-1ca7bceef233","ios":"levelo://app?vid=5b7ec4ef-d423-41c4-96cb-1ca7bceef233"},"vehicle_type_id":"4","last_reported":1745665649,"current_range_meters":22800,"station_id":"ce4bgm92rcd13ifvqbr0","pricing_plan_id":"cebpf4jnsgd1na2vs0mg"},{"bike_id":"ecd10d08-6f3d-416e-bce8-cc83edfe01eb","system_id":"levelo_inurba_marseille","lat":43.28626,"lon":5.35109,"is_reserved":false,"is_disabled":false,"rental_uris":{"android":"levelo://app?vid=ecd10d08-6f3d-416e-bce8-cc83edfe01eb","ios":"levelo://app?vid=ecd10d08-6f3d-416e-bce8-cc83edfe01eb"},"vehicle_type_id":"4","last_reported":1745665649,"current_range_meters":22800,"station_id":"ce4bhch2rcd13ifvqeug","pricing_plan_id":"cebpf4jnsgd1na2vs0mg"},{"bike_id":"9b2417be-105c-40f8-ad7a-743cc829ae16","system_id":"levelo_inurba_marseille","lat":43.2886,"lon":5.35864,"is_reserved":false,"is_disabled":false,"rental_uris":{"android":"levelo://app?vid=9b2417be-105c-40f8-ad7a-743cc829ae16","ios":"levelo://app?vid=9b2417be-105c-40f8-ad7a-743cc829ae16"},"vehicle_type_id":"4","last_reported":1745665649,"current_range_meters":22800,"station_id":"ce4bhb12rcd13ifvqem0","pricing_plan_id":"cebpf4jnsgd1na2vs0mg"},{"bike_id":"5f526bed-15a3-4e6b-9ee3-99728a5e3240","system_id":"levelo_inurba_marseille","lat":43.281613,"lon":5.426444,"is_reserved":false,"is_disabled":false,"rental_uris":{"android":"levelo://app?vid=5f526bed-15a3-4e6b-9ee3-99728a5e3240","ios":"levelo://app?vid=5f526bed-15a3-4e6b-9ee3-99728a5e3240"},"vehicle_type_id":"4","last_reported":1745665649,"current_range_meters":22800,"station_id":"ce4bhnh2rcd13ifvqgug","pricing_plan_id":"cebpf4jnsgd1na2vs0mg"},{"bike_id":"864f0b9a-7091-4244-adac-728b3a4586ed","system_id":"levelo_inurba_marseille","lat":43.23189,"lon":5.35554,"is_reserved":false,"is_disabled":false,"rental_uris":{"android":"levelo://app?vid=864f0b9a-7091-4244-adac-728b3a4586ed","ios":"levelo://app?vid=864f0b9a-7091-4244-adac-728b3a4586ed"},"vehicle_type_id":"4","last_reported":1745665649,"current_range_meters":23200,"station_id":"ce4bhu92rcd13ifvqi70","pricing_plan_id":"cebpf4jnsgd1na2vs0mg"},{"bike_id":"d7e5f1af-7e58-44d1-8c4e-02cb410256e4","system_id":"levelo_inurba_marseille","lat":43.224969,"lon":5.34792,"is_reserved":false,"is_disabled":false,"rental_uris":{"android":"levelo://app?vid=d7e5f1af-7e58-44d1-8c4e-02cb410256e4","ios":"levelo://app?vid=d7e5f1af-7e58-44d1-8c4e-02cb410256e4"},"vehicle_type_id":"4","last_reported":1745665649,"current_range_meters":23200,"station_id":"st_cvj5dfep6f1abm77gieg","pricing_plan_id":"cebpf4jnsgd1na2vs0mg"},{"bike_id":"053ff11e-ebae-4082-9003-e408045f767a","system_id":"levelo_inurba_marseille","lat":43.29807,"lon":5.40395,"is_reserved":false,"is_disabled":false,"rental_uris":{"android":"levelo://app?vid=053ff11e-ebae-4082-9003-e408045f767a","ios":"levelo://app?vid=053ff11e-ebae-4082-9003-e408045f767a"},"vehicle_type_id":"4","last_reported":1745665649,"current_range_meters":23200,"station_id":"ce4bh112rcd13ifvqd90","pricing_plan_id":"cebpf4jnsgd1na2vs0mg"},{"bike_id":"97fd7a4c-36e8-401d-b12d-1b4015a01ebe","system_id":"levelo_inurba_marseille","lat":43.26565,"lon":5.42098,"is_reserved":false,"is_disabled":false,"rental_uris":{"android":"levelo://app?vid=97fd7a4c-36e8-401d-b12d-1b4015a01ebe","ios":"levelo://app?vid=97fd7a4c-36e8-401d-b12d-1b4015a01ebe"},"vehicle_type_id":"4","last_reported":1745665649,"current_range_meters":23200,"station_id":"","pricing_plan_id":"cebpf4jnsgd1na2vs0mg"},{"bike_id":"3472e5f3-8cec-4d54-8c67-98eaef559abf","system_id":"levelo_inurba_marseille","lat":43.24169,"lon":5.36393,"is_reserved":false,"is_disabled":false,"rental_uris":{"android":"levelo://app?vid=3472e5f3-8cec-4d54-8c67-98eaef559abf","ios":"levelo://app?vid=3472e5f3-8cec-4d54-8c67-98eaef559abf"},"vehicle_type_id":"4","last_reported":1745665649,"current_range_meters":23200,"station_id":"cpo36qri1sfpv3e86is0","pricing_plan_id":"cebpf4jnsgd1na2vs0mg"},{"bike_id":"1402c1de-de06-4a20-9869-46a6e4252a53","system_id":"levelo_inurba_marseille","lat":43.23195,"lon":5.35546,"is_reserved":false,"is_disabled":false,"rental_uris":{"android":"levelo://app?vid=1402c1de-de06-4a20-9869-46a6e4252a53","ios":"levelo://app?vid=1402c1de-de06-4a20-9869-46a6e4252a53"},"vehicle_type_id":"4","last_reported":1745665649,"current_range_meters":23200,"station_id":"ce4bhu92rcd13ifvqi70","pricing_plan_id":"cebpf4jnsgd1na2vs0mg"},{"bike_id":"62c07acf-3a70-4692-bba6-6e2be0f714e5","system_id":"levelo_inurba_marseille","lat":43.23192,"lon":5.35559,"is_reserved":false,"is_disabled":false,"rental_uris":{"android":"levelo://app?vid=62c07acf-3a70-4692-bba6-6e2be0f714e5","ios":"levelo://app?vid=62c07acf-3a70-4692-bba6-6e2be0f714e5"},"vehicle_type_id":"4","last_reported":1745665649,"current_range_meters":23200,"station_id":"ce4bhu92rcd13ifvqi70","pricing_plan_id":"cebpf4jnsgd1na2vs0mg"},