{"last_updated":1766132221,"ttl":60,"version":"2.2","data":{"bikes":[{"bike_id":"2f0206cb-b310-4962-baad-47793d752615","system_id":"levelo_inurba_marseille","lat":43.26499,"lon":5.39536,"is_reserved":false,"is_disabled":false,"rental_uris":{"android":"levelo://app?vid=2f0206cb-b310-4962-baad-47793d752615","ios":"levelo://app?vid=2f0206cb-b310-4962-baad-47793d752615"},"vehicle_type_id":"4","last_reported":1766132222,"current_range_meters":2800,"station_id":"ce4bhi12rcd13ifvqfq0","pricing_plan_id":"cebpf4jnsgd1na2vs0mg"},{"bike_id":"26cb6391-37a3-4d64-8ae5-05cf50386336","system_id":"levelo_inurba_marseille","lat":43.27557,"lon":5.38422,"is_reserved":false,"is_disabled":false,"rental_uris":{"android":"levelo://app?vid=26cb6391-37a3-4d64-8ae5-05cf50386336","ios":"levelo://app?vid=26cb6391-37a3-4d64-8ae5-05cf50386336"},"vehicle_type_id":"4","last_reported":1766132222,"current_range_meters":2800,"station_id":"ce4bhh92rcd13ifvqfi0","pricing_plan_id":"cebpf4jnsgd1na2vs0mg"},{"bike_id":"ca2a7b0d-2288-48bd-b02a-bd98708dcd75","system_id":"levelo_inurba_marseille","lat":43.30534,"lon":5.38425,"is_reserved":false,"is_disabled":false,"rental_uris":{"android":"levelo://app?vid=ca2a7b0d-2288-48bd-b02a-bd98708dcd75","ios":"levelo://app?vid=ca2a7b0d-2288-48bd-b02a-bd98708dcd75"},"vehicle_type_id":"4","last_reported":1766132222,"current_range_meters":3200,"station_id":"ce4bgg92rcd13ifvqb30","pricing_plan_id":"cebpf4jnsgd1na2vs0mg"},{"bike_id":"88031236-6a40-4d32-a503-adc00e8f1b31","system_id":"levelo_inurba_marseille","lat":43.33767,"lon":5.374479,"is_reserved":false,"is_disabled":false,"rental_uris":{"android":"levelo://app?vid=88031236-6a40-4d32-a503-adc00e8f1b31","ios":"levelo://app?vid=88031236-6a40-4d32-a503-adc00e8f1b31"},"vehicle_type_id":"4","last_reported":1766132222,"current_range_meters":3200,"station_id":"","pricing_plan_id":"cebpf4jnsgd1na2vs0mg"},{"bike_id":"cc178787-4e27-477e-85ac-bb874f1df1de","system_id":"levelo_inurba_marseille","lat":43.27332,"lon":5.41085,"is_reserved":false,"is_disabled":false,"rental_uris":{"android":"levelo://app?vid=cc178787-4e27-477e-85ac-bb874f1df1de","ios":"levelo://app?vid=cc178787-4e27-477e-85ac-bb874f1df1de"},"vehicle_type_id":"4","last_reported":1766132222,"current_range_meters":3200,"station_id":"","pricing_plan_id":"cebpf4jnsgd1na2vs0mg"},{"bike_id":"1541fb33-8a48-4ade-a9ca-ccb368fdd8ef","system_id":"levelo_inurba_marseille","lat":43.26223,"lon":5.40459,"is_reserved":false,"is_disabled":false,"rental_uris":{"android":"levelo://app?vid=1541fb33-8a48-4ade-a9ca-ccb368fdd8ef","ios":"levelo://app?vid=1541fb33-8a48-4ade-a9ca-ccb368fdd8ef"},"vehicle_type_id":"4","last_reported":1766132222,"current_range_meters":3200,"station_id":"ce4bhmh2rcd13ifvqgmg","pricing_plan_id":"cebpf4jnsgd1na2vs0mg"},{"bike_id":"a1ac0ba7-1483-464e-9caa-755fc64f46a4","system_id":"levelo_inurba_marseille","lat":43.24059,"lon":5.37824,"is_reserved":false,"is_disabled":false,"rental_uris":{"android":"levelo://app?vid=a1ac0ba7-1483-464e-9caa-755fc64f46a4","ios":"levelo://app?vid=a1ac0ba7-1483-464e-9caa-755fc64f46a4"},"vehicle_type_id":"4","last_reported":1766132222,"current_range_meters":3200,"station_id":"","pricing_plan_id":"cebpf4jnsgd1na2vs0mg"},{"bike_id":"460dc354-c776-4d8b-8c94-0d199826f0ab","system_id":"levelo_inurba_marseille","lat":43.28972,"lon":5.37833,"is_reserved":false,"is_disabled":false,"rental_uris":{"android":"levelo://app?vid=460dc354-c776-4d8b-8c94-0d199826f0ab","ios":"levelo://app?vid=460dc354-c776-4d8b-8c94-0d199826f0ab"},"vehicle_type_id":"4","last_reported":1766132222,"current_range_meters":3600,"station_id":"ce4bh9p2rcd13ifvqed0","pricing_plan_id":"cebpf4jnsgd1na2vs0mg"},{"bike_id":"4e136d56-fd17-4618-807e-23d6c3f01396","system_id":"levelo_inurba_marseille","lat":43.2695,"lon":5.38639,"is_reserved":false,"is_disabled":false,"rental_uris":{"android":"levelo://app?vid=4e136d56-fd17-4618-807e-23d6c3f01396","ios":"levelo://app?vid=4e136d56-fd17-4618-807e-23d6c3f01396"},"vehicle_type_id":"4","last_reported":1766132222,"current_range_meters":3600,"station_id":"ce4bhh92rcd13ifvqfh0","pricing_plan_id":"cebpf4jnsgd1na2vs0mg"},{"bike_id":"ec9d8cfa-7177-4a22-b722-be96750525bd","system_id":"levelo_inurba_marseille","lat":43.28867,"lon":5.4252,"is_reserved":false,"is_disabled":false,"rental_uris":{"android":"levelo://app?vid=ec9d8cfa-7177-4a22-b722-be96750525bd","ios":"levelo://app?vid=ec9d8cfa-7177-4a22-b722-be96750525bd"},"vehicle_type_id":"4","last_reported":1766132222,"current_range_meters":3600,"station_id":"st_d3b462108ojc7389ooeg","pricing_plan_id":"cebpf4jnsgd1na2vs0mg"},{"bike_id":"d235767a-3e44-44c9-893e-7ebda15e5a64","system_id":"levelo_inurba_marseille","lat":43.254015,"lon":5.385514,"is_reserved":false,"is_disabled":false,"rental_uris":{"android":"levelo://app?vid=d235767a-3e44-44c9-893e-7ebda15e5a64","ios":"levelo://app?vid=d235767a-3e44-44c9-893e-7ebda15e5a64"},"vehicle_type_id":"4","last_reported":1766132222,"current_range_meters":4000,"station_id":"","pricing_plan_id":"cebpf4jnsgd1na2vs0mg"},{"bike_id":"07102bbf-8e43-4cc8-abfb-b7bffaf00185","system_id":"levelo_inurba_marseille","lat":43.29379,"lon":5.36279,"is_reserved":false,"is_disabled":false,"rental_uris":{"android":"levelo://app?vid=07102bbf-8e43-4cc8-abfb-b7bffaf00185","ios":"levelo://app?vid=07102bbf-8e43-4cc8-abfb-b7bffaf00185"},"vehicle_type_id":"4","last_reported":1766132222,"current_range_meters":4000,"station_id":"","pricing_plan_id":"cebpf4jnsgd1na2vs0mg"},{"bike_id":"718b2211-3725-4a62-b19b-57eba450ac56","system_id":"levelo_inurba_marseille","lat":43.2408,"lon":5.37758,"is_reserved":false,"is_disabled":false,"rental_uris":{"android":"levelo://app?vid=718b2211-3725-4a62-b19b-57eba450ac56","ios":"levelo://app?vid=718b2211-3725-4a62-b19b-57eba450ac56"},"vehicle_type_id":"4","last_reported":1766132222,"current_range_meters":4000,"station_id":"ce4bhnp2rcd13ifvqgvg","pricing_plan_id":"cebpf4jnsgd1na2vs0mg"},{"bike_id":"c7e5daf3-a6b0-4ffc-8e95-134c47362fa1","system_id":"levelo_inurba_marseille","lat":43.301105,"lon":5.368654,"is_reserved":false,"is_disabled":false,"rental_uris":{"android":"levelo://app?vid=c7e5daf3-a6b0-4ffc-8e95-134c47362fa1","ios":"levelo://app?vid=c7e5daf3-a6b0-4ffc-8e95-134c47362fa1"},"vehicle_type_id":"4","last_reported":1766132222,"current_range_meters":4000,"station_id":"","pricing_plan_id":"cebpf4jnsgd1na2vs0mg"},{"bike_id":"04616961-57ab-409e-8c00-5a618d6fc383","system_id":"levelo_inurba_marseille","lat":43.29073,"lon":5.3716,"is_reserved":false,"is_disabled":false,"rental_uris":{"android":"levelo://app?vid=04616961-57ab-409e-8c00-5a618d6fc383","ios":"levelo://app?vid=04616961-57ab-409e-8c00-5a618d6fc383"},"vehicle_type_id":"4","last_reported":1766132222,"current_range_meters":4000,"station_id":"ce4bh5p2rcd13ifvqe4g","pricing_plan_id":"cebpf4jnsgd1na2vs0mg"},{"bike_id":"fdb18b9b-3b90-486e-b306-62bb1a73300b","system_id":"levelo_inurba_marseille","lat":43.246751,"lon":5.381539,"is_reserved":false,"is_disabled":false,"rental_uris":{"android":"levelo://app?vid=fdb18b9b-3b90-486e-b306-62bb1a73300b","ios":"levelo://app?vid=fdb18b9b-3b90-486e-b306-62bb1a73300b"},"vehicle_type_id":"4","last_reported":1766132222,"current_range_meters":4400,"station_id":"ce4bhih2rcd13ifvqfr0","pricing_plan_id":"cebpf4jnsgd1na2vs0mg"},{"bike_id":"c194a18a-77ef-403b-9eeb-22624c7dc88c","system_id":"levelo_inurba_marseille","lat":43.30143,"lon":5.37423,"is_reserved":false,"is_disabled":false,"rental_uris":{"android":"levelo://app?vid=c194a18a-77ef-403b-9eeb-22624c7dc88c","ios":"levelo://app?vid=c194a18a-77ef-403b-9eeb-22624c7dc88c"},"vehicle_type_id":"4","last_reported":1766132222,"current_range_meters":4400,"station_id":"ce4bgs92rcd13ifvqcc0","pricing_plan_id":"cebpf4jnsgd1na2vs0mg"},{"bike_id":"50e6eefe-8aea-4054-ab8f-87d6e301ff34","system_id":"levelo_inurba_marseille","lat":43.242998,"lon":5.438436,"is_reserved":false,"is_disabled":false,"rental_uris":{"android":"levelo://app?vid=50e6eefe-8aea-4054-ab8f-87d6e301ff34","ios":"levelo://app?vid=50e6eefe-8aea-4054-ab8f-87d6e301ff34"},"vehicle_type_id":"4","last_reported":1766132222,"current_range_meters":4400,"station_id":"","pricing_plan_id":"cebpf4jnsgd1na2vs0mg"},{"bike_id":"d5dd2e1f-6caa-403c-b144-e678f4b6bd63","system_id":"levelo_inurba_marseille","lat":43.32104,"lon":5.36765,"is_reserved":false,"is_disabled":false,"rental_uris":{"android":"levelo://app?vid=d5dd2e1f-6caa-403c-b144-e678f4b6bd63","ios":"levelo://app?vid=d5dd2e1f-6caa-403c-b144-e678f4b6bd63"},"vehicle_type_id":"4","last_reported":1766132222,"current_range_meters":4400,"station_id":"ce4bhrh2rcd13ifvqhug","pricing_plan_id":"cebpf4jnsgd1na2vs0mg"},{"bike_id":"d2bcf7e6-9e6c-48c1-8c64-5337f19dad07","system_id":"levelo_inurba_marseille","lat":43.22872,"lon":5.39956,"is_reserved":false,"is_disabled":false,"rental_uris":{"android":"levelo://app?vid=d2bcf7e6-9e6c-48c1-8c64-5337f19dad07","ios":"levelo://app?vid=d2bcf7e6-9e6c-48c1-8c64-5337f19dad07"},"vehicle_type_id":"4","last_reported":1766132222,"current_range_meters":4400,"station_id":"","pricing_plan_id":"cebpf4jnsgd1na2vs0mg"},{"bike_id":"a965fb6e-7e60-48bc-a1be-f3231fec2fe1","system_id":"levelo_inurba_marseille","lat":43.26955,"lon":5.38628,"is_reserved":false,"is_disabled":false,"rental_uris":{"android":"levelo://app?vid=a965fb6e-7e60-48bc-a1be-f3231fec2fe1","ios":"levelo://app?vid=a965fb6e-7e60-48bc-a1be-f3231fec2fe1"},"vehicle_type_id":"4","last_reported":1766132222,"current_range_meters":4800,"station_id":"ce4bhh92rcd13ifvqfh0","pricing_plan_id":"cebpf4jnsgd1na2vs0mg"},{"bike_id":"ecbf33d1-ea9e-4c73-86a0-bbf927870a65","system_id":"levelo_inurba_marseille","lat":43.3234,"lon":5.38493,"is_reserved":false,"is_disabled":false,"rental_uris":{"android":"levelo://app?vid=ecbf33d1-ea9e-4c73-86a0-bbf927870a65","ios":"levelo://app?vid=ecbf33d1-ea9e-4c73-86a0-bbf927870a65"},"vehicle_type_id":"4","last_reported":1766132222,"current_range_meters":4800,"station_id":"st_d45171o9ee8s73djdqug","pricing_plan_id":"cebpf4jnsgd1na2vs0mg"},{"bike_id":"b6974cac-17ff-404a-846c-ff0003a98209","system_id":"levelo_inurba_marseille","lat":43.24063,"lon":5.37755,"is_reserved":false,"is_disabled":false,"rental_uris":{"android":"levelo://app?vid=b6974cac-17ff-404a-846c-ff0003a98209","ios":"levelo://app?vid=b6974cac-17ff-404a-846c-ff0003a98209"},"vehicle_type_id":"4","last_reported":1766132222,"current_range_meters":4800,"station_id":"ce4bhnp2rcd13ifvqgvg","pricing_plan_id":"cebpf4jnsgd1na2vs0mg"},{"bike_id":"d88f83fc-7a24-4804-9301-839b1ae399e9","system_id":"levelo_inurba_marseille","lat":43.29517,"lon":5.37861,"is_reserved":false,"is_disabled":false,"rental_uris":{"android":"levelo://app?vid=d88f83fc-7a24-4804-9301-839b1ae399e9","ios":"levelo://app?vid=d88f83fc-7a24-4804-9301-839b1ae399e9"},"vehicle_type_id":"4","last_reported":1766132222,"current_range_meters":4800,"station_id":"","pricing_plan_id":"cebpf4jnsgd1na2vs0mg"},{"bike_id":"a9adc8bf-52f1-4c31-a2de-42743dd086bf","system_id":"levelo_inurba_marseille","lat":43.33723,"lon":5.3748,"is_reserved":false,"is_disabled":false,"rental_uris":{"android":"levelo://app?vid=a9adc8bf-52f1-4c31-a2de-42743dd086bf","ios":"levelo://app?vid=a9adc8bf-52f1-4c31-a2de-42743dd086bf"},"vehicle_type_id":"4","last_reported":1766132222,"current_range_meters":4800,"station_id":"","pricing_plan_id":"cebpf4jnsgd1na2vs0mg"},{"bike_id":"8080e206-1a15-4198-8e73-b70339b0f1ad","system_id":"levelo_inurba_marseille","lat":43.25488,"lon":5.37646,"is_reserved":false,"is_disabled":false,"rental_uris":{"android":"levelo://app?vid=8080e206-1a15-4198-8e73-b70339b0f1ad","ios":"levelo://app?vid=8080e206-1a15-4198-8e73-b70339b0f1ad"},"vehicle_type_id":"4","last_reported":1766132222,"current_range_meters":5600,"station_id":"ce4bhh12rcd13ifvqff0","pricing_plan_id":"cebpf4jnsgd1na2vs0mg"},{"bike_id":"fa6d8b61-d061-4555-a605-5623bf4575bc","system_id":"levelo_inurba_marseille","lat":43.30324,"lon":5.40432,"is_reserved":false,"is_disabled":false,"rental_uris":{"android":"levelo://app?vid=fa6d8b61-d061-4555-a605-5623bf4575bc","ios":"levelo://app?vid=fa6d8b61-d061-4555-a605-5623bf4575bc"},"vehicle_type_id":"4","last_reported":1766132222,"current_range_meters":5600,"station_id":"ce4bh012rcd13ifvqd10","pricing_plan_id":"cebpf4jnsgd1na2vs0mg"},{"bike_id":"00fd2dcb-6faf-4c7a-8c99-525909084655","system_id":"levelo_inurba_marseille","lat":43.28162,"lon":5.42635,"is_reserved":false,"is_disabled":true,"rental_uris":{"android":"levelo://app?vid=00fd2dcb-6faf-4c7a-8c99-525909084655","ios":"levelo://app?vid=00fd2dcb-6faf-4c7a-8c99-525909084655"},"vehicle_type_id":"4","last_reported":1766132222,"current_range_meters":5600,"station_id":"ce4bhnh2rcd13ifvqgug","pricing_plan_id":"cebpf4jnsgd1na2vs0mg"},{"bike_id":"9b5a9886-2dd9-4782-914c-1cfd3e985ecb","system_id":"levelo_inurba_marseille","lat":43.29872,"lon":5.39725,"is_reserved":false,"is_disabled":false,"rental_uris":{"android":"levelo://app?vid=9b5a9886-2dd9-4782-914c-1cfd3e985ecb","ios":"levelo://app?vid=9b5a9886-2dd9-4782-914c-1cfd3e985ecb"},"vehicle_type_id":"4","last_reported":1766132222,"current_range_meters":5600,"station_id":"ce4bh0h2rcd13ifvqd50","pricing_plan_id":"cebpf4jnsgd1na2vs0mg"},{"bike_id":"c77ed1c3-96ae-45e5-a4d4-21b6a72cf6a6","system_id":"levelo_inurba_marseille","lat":43.31345,"lon":5.39714,"is_reserved":false,"is_disabled":true,"rental_uris":{"android":"levelo://app?vid=c77ed1c3-96ae-45e5-a4d4-21b6a72cf6a6","ios":"levelo://app?vid=c77ed1c3-96ae-45e5-a4d4-21b6a72cf6a6"},"vehicle_type_id":"4","last_reported":1766132222,"current_range_meters":6000,"station_id":"ce4bgvp2rcd13ifvqcu0","pricing_plan_id":"cebpf4jnsgd1na2vs0mg"},{"bike_id":"33b451a0-a441-4300-869b-39a18ae89cae","system_id":"levelo_inurba_marseille","lat":43.30261,"lon":5.40079,"is_reserved":false,"is_disabled":false,"rental_uris":{"android":"levelo://app?vid=33b451a0-a441-4300-869b-39a18ae89cae","ios":"levelo://app?vid=33b451a0-a441-4300-869b-39a18ae89cae"},"vehicle_type_id":"4","last_reported":1766132222,"current_range_meters":6000,"station_id":"ce4bgvh2rcd13ifvqcs0","pricing_plan_id":"cebpf4jnsgd1na2vs0mg"},{"bike_id":"6ffdae3b-a52e-467d-9cfc-11d3b3e8193c","system_id":"levelo_inurba_marseille","lat":43.24069,"lon":5.37756,"is_reserved":false,"is_disabled":false,"rental_uris":{"android":"levelo://app?vid=6ffdae3b-a52e-467d-9cfc-11d3b3e8193c","ios":"levelo://app?vid=6ffdae3b-a52e-467d-9cfc-11d3b3e8193c"},"vehicle_type_id":"4","last_reported":1766132222,"current_range_meters":6000,"station_id":"ce4bhnp2rcd13ifvqgvg","pricing_plan_id":"cebpf4jnsgd1na2vs0mg"},{"bike_id":"135034e9-a9ba-448f-8fb7-1a6ab7b9598e","system_id":"levelo_inurba_marseille","lat":43.2656,"lon":5.37268,"is_reserved":false,"is_disabled":true,"rental_uris":{"android":"levelo://app?vid=135034e9-a9ba-448f-8fb7-1a6ab7b9598e","ios":"levelo://app?vid=135034e9-a9ba-448f-8fb7-1a6ab7b9598e"},"vehicle_type_id":"4","last_reported":1766132222,"current_range_meters":6400,"station_id":"ce4bhg12rcd13ifvqf70","pricing_plan_id":"cebpf4jnsgd1na2vs0mg"},{"bike_id":"3cde007c-a409-4597-91e7-ca2461274ad1","system_id":"levelo_inurba_marseille","lat":43.26564,"lon":5.40191,"is_reserved":false,"is_disabled":false,"rental_uris":{"android":"levelo://app?vid=3cde007c-a409-4597-91e7-ca2461274ad1","ios":"levelo://app?vid=3cde007c-a409-4597-91e7-ca2461274ad1"},"vehicle_type_id":"4","last_reported":1766132222,"current_range_meters":6400,"station_id":"","pricing_plan_id":"cebpf4jnsgd1na2vs0mg"},{"bike_id":"da18a3b0-ce97-43eb-b181-936e440b40e5","system_id":"levelo_inurba_marseille","lat":43.31696,"lon":5.40379,"is_reserved":false,"is_disabled":false,"rental_uris":{"android":"levelo://app?vid=da18a3b0-ce97-43eb-b181-936e440b40e5","ios":"levelo://app?vid=da18a3b0-ce97-43eb-b181-936e440b40e5"},"vehicle_type_id":"4","last_reported":1766132222,"current_range_meters":6400,"station_id":"","pricing_plan_id":"cebpf4jnsgd1na2vs0mg"},{"bike_id":"c6d46fa6-4244-47db-bf38-73e3be416caa","system_id":"levelo_inurba_marseille","lat":43.292614,"lon":5.376179,"is_reserved":false,"is_disabled":false,"rental_uris":{"android":"levelo://app?vid=c6d46fa6-4244-47db-bf38-73e3be416caa","ios":"levelo://app?vid=c6d46fa6-4244-47db-bf38-73e3be416caa"},"vehicle_type_id":"4","last_reported":1766132222,"current_range_meters":6400,"station_id":"ce4bgi12rcd13ifvqb80","pricing_plan_id":"cebpf4jnsgd1na2vs0mg"},{"bike_id":"a96e8f12-6904-4a45-aa16-0c9b2d30b482","system_id":"levelo_inurba_marseille","lat":43.315483,"lon":5.368917,"is_reserved":false,"is_disabled":false,"rental_uris":{"android":"levelo://app?vid=a96e8f12-6904-4a45-aa16-0c9b2d30b482","ios":"levelo://app?vid=a96e8f12-6904-4a45-aa16-0c9b2d30b482"},"vehicle_type_id":"4","last_reported":1766132222,"current_range_meters":6400,"station_id":"","pricing_plan_id":"cebpf4jnsgd1na2vs0mg"},{"bike_id":"9f323355-8aea-4190-9a7c-64d0528a027d","system_id":"levelo_inurba_marseille","lat":43.2956,"lon":5.37513,"is_reserved":false,"is_disabled":false,"rental_uris":{"android":"levelo://app?vid=9f323355-8aea-4190-9a7c-64d0528a027d","ios":"levelo://app?vid=9f323355-8aea-4190-9a7c-64d0528a027d"},"vehicle_type_id":"4","last_reported":1766132222,"current_range_meters":6800,"station_id":"ce4bgh92rcd13ifvqb50","pricing_plan_id":"cebpf4jnsgd1na2vs0mg"},{"bike_id":"e5026ec9-7069-4ecd-b81d-4afd6e79ecb3","system_id":"levelo_inurba_marseille","lat":43.337444,"lon":5.374475,"is_reserved":false,"is_disabled":false,"rental_uris":{"android":"levelo://app?vid=e5026ec9-7069-4ecd-b81d-4afd6e79ecb3","ios":"levelo://app?vid=e5026ec9-7069-4ecd-b81d-4afd6e79ecb3"},"vehicle_type_id":"4","last_reported":1766132222,"current_range_meters":6800,"station_id":"ce4bh3p2rcd13ifvqdp0","pricing_plan_id":"cebpf4jnsgd1na2vs0mg"},{"bike_id":"81508f0a-e327-4705-ae72-228165570b37","system_id":"levelo_inurba_marseille","lat":43.250959,"lon":5.389458,"is_reserved":false,"is_disabled":false,"rental_uris":{"android":"levelo://app?vid=81508f0a-e327-4705-ae72-228165570b37","ios":"levelo://app?vid=81508f0a-e327-4705-ae72-228165570b37"},"vehicle_type_id":"4","last_reported":1766132222,"current_range_meters":6800,"station_id":"","pricing_plan_id":"cebpf4jnsgd1na2vs0mg"},{"bike_id":"54fc8c9d-5461-493b-af17-a4b1d67f98ac","system_id":"levelo_inurba_marseille","lat":43.2978,"lon":5.39355,"is_reserved":false,"is_disabled":false,"rental_uris":{"android":"levelo://app?vid=54fc8c9d-5461-493b-af17-a4b1d67f98ac","ios":"levelo://app?vid=54fc8c9d-5461-493b-af17-a4b1d67f98ac"},"vehicle_type_id":"4","last_reported":1766132222,"current_range_meters":6800,"station_id":"chh1huq6cuj3fo74tm60","pricing_plan_id":"cebpf4jnsgd1na2vs0mg"},{"bike_id":"48e30a46-3a61-4ed5-93c8-2b0ee8661bac","system_id":"levelo_inurba_marseille","lat":43.30192,"lon":5.38086,"is_reserved":false,"is_disabled":false,"rental_uris":{"android":"levelo://app?vid=48e30a46-3a61-4ed5-93c8-2b0ee8661bac","ios":"levelo://app?vid=48e30a46-3a61-4ed5-93c8-2b0ee8661bac"},"vehicle_type_id":"4","last_reported":1766132222,"current_range_meters":6800,"station_id":"","pricing_plan_id":"cebpf4jnsgd1na2vs0mg"},{"bike_id":"343c39da-8b17-4173-9c56-199ee5283baf","system_id":"levelo_inurba_marseille","lat":43.309705,"lon":5.379452,"is_reserved":false,"is_disabled":false,"rental_uris":{"android":"levelo://app?vid=343c39da-8b17-4173-9c56-199ee5283baf","ios":"levelo://app?vid=343c39da-8b17-4173-9c56-199ee5283baf"},"vehicle_type_id":"4","last_reported":1766132222,"current_range_meters":6800,"station_id":"ce4bhn92rcd13ifvqgrg","pricing_plan_id":"cebpf4jnsgd1na2vs0mg"},{"bike_id":"6ea1c15e-5b74-4575-9f55-3622c6e19603","system_id":"levelo_inurba_marseille","lat":43.288601,"lon":5.358413,"is_reserved":false,"is_disabled":false,"rental_uris":{"android":"levelo://app?vid=6ea1c15e-5b74-4575-9f55-3622c6e19603","ios":"levelo://app?vid=6ea1c15e-5b74-4575-9f55-3622c6e19603"},"vehicle_type_id":"4","last_reported":1766132222,"current_range_meters":7200,"station_id":"ce4bhb12rcd13ifvqem0","pricing_plan_id":"cebpf4jnsgd1na2vs0mg"},{"bike_id":"7269d091-ddac-4db0-8508-7fa2778f9131","system_id":"levelo_inurba_marseille","lat":43.33748,"lon":5.37436,"is_reserved":false,"is_disabled":false,"rental_uris":{"android":"levelo://app?vid=7269d091-ddac-4db0-8508-7fa2778f9131","ios":"levelo://app?vid=7269d091-ddac-4db0-8508-7fa2778f9131"},"vehicle_type_id":"4","last_reported":1766132222,"current_range_meters":7200,"station_id":"","pricing_plan_id":"cebpf4jnsgd1na2vs0mg"},{"bike_id":"9282d5a7-0e9c-4010-ae8a-61b36e696bbc","system_id":"levelo_inurba_marseille","lat":43.2533,"lon":5.421749,"is_reserved":false,"is_disabled":false,"rental_uris":{"android":"levelo://app?vid=9282d5a7-0e9c-4010-ae8a-61b36e696bbc","ios":"levelo://app?vid=9282d5a7-0e9c-4010-ae8a-61b36e696bbc"},"vehicle_type_id":"4","last_reported":1766132222,"current_range_meters":7200,"station_id":"st_d2m65c5bi1j21697t3ng","pricing_plan_id":"cebpf4jnsgd1na2vs0mg"},{"bike_id":"40c51ff6-bcdf-4189-b2f9-53259a9dc236","system_id":"levelo_inurba_marseille","lat":43.28306,"lon":5.38919,"is_reserved":false,"is_disabled":true,"rental_uris":{"android":"levelo://app?vid=40c51ff6-bcdf-4189-b2f9-53259a9dc236","ios":"levelo://app?vid=40c51ff6-bcdf-4189-b2f9-53259a9dc236"},"vehicle_type_id":"4","last_reported":1766132222,"current_range_meters":7200,"station_id":"","pricing_plan_id":"cebpf4jnsgd1na2vs0mg"},{"bike_id":"55793fee-0b48-4ea8-8b3c-24460bf017fa","system_id":"levelo_inurba_marseille","lat":43.30157,"lon":5.38089,"is_reserved":false,"is_disabled":false,"rental_uris":{"android":"levelo://app?vid=55793fee-0b48-4ea8-8b3c-24460bf017fa","ios":"levelo://app?vid=55793fee-0b48-4ea8-8b3c-24460bf017fa"},"vehicle_type_id":"4","last_reported":1766132222,"current_range_meters":7200,"station_id":"ce4bgjp2rcd13ifvqbh0","pricing_plan_id":"cebpf4jnsgd1na2vs0mg"},{"bike_id":"4d2384fe-ea9e-4519-ac94-c18b2083379a","system_id":"levelo_inurba_marseille","lat":43.28719,"lon":5.37934,"is_reserved":false,"is_disabled":false,"rental_uris":{"android":"levelo://app?vid=4d2384fe-ea9e-4519-ac94-c18b2083379a","ios":"levelo://app?vid=4d2384fe-ea9e-4519-ac94-c18b2083379a"},"vehicle_type_id":"4","last_reported":1766132222,"current_range_meters":7200,"station_id":"ce4bh9p2rcd13ifvqec0","pricing_plan_id":"cebpf4jnsgd1na2vs0mg"},{"bike_id":"db84eb0b-bdb2-4a01-a2b1-fde121b05b30","system_id":"levelo_inurba_marseille","lat":43.28347,"lon":5.38082,"is_reserved":false,"is_disabled":false,"rental_uris":{"android":"levelo://app?vid=db84eb0b-bdb2-4a01-a2b1-fde121b05b30","ios":"levelo://app?vid=db84eb0b-bdb2-4a01-a2b1-fde121b05b30"},"vehicle_type_id":"4","last_reported":1766132222,"current_range_meters":7200,"station_id":"ce4bh412rcd13ifvqdr0","pricing_plan_id":"cebpf4jnsgd1na2vs0mg"},{"bike_id":"43f8c405-568b-40a3-a67a-99619c5e63c0","system_id":"levelo_inurba_marseille","lat":43.30536,"lon":5.38424,"is_reserved":false,"is_disabled":false,"rental_uris":{"android":"levelo://app?vid=43f8c405-568b-40a3-a67a-99619c5e63c0","ios":"levelo://app?vid=43f8c405-568b-40a3-a67a-99619c5e63c0"},"vehicle_type_id":"4","last_reported":1766132222,"current_range_meters":7200,"station_id":"ce4bgg92rcd13ifvqb30","pricing_plan_id":"cebpf4jnsgd1na2vs0mg"},{"bike_id":"f7ebab7c-96ee-4ff2-8e1e-3a8d23205c84","system_id":"levelo_inurba_marseille","lat":43.2654,"lon":5.40351,"is_reserved":false,"is_disabled":false,"rental_uris":{"android":"levelo://app?vid=f7ebab7c-96ee-4ff2-8e1e-3a8d23205c84","ios":"levelo://app?vid=f7ebab7c-96ee-4ff2-8e1e-3a8d23205c84"},"vehicle_type_id":"4","last_reported":1766132222,"current_range_meters":7200,"station_id":"ce4bhmp2rcd13ifvqgng","pricing_plan_id":"cebpf4jnsgd1na2vs0mg"},{"bike_id":"f87a7598-e6b9-4feb-a6e3-d98d4acd6941","system_id":"levelo_inurba_marseille","lat":43.24174,"lon":5.36407,"is_reserved":false,"is_disabled":false,"rental_uris":{"android":"levelo://app?vid=f87a7598-e6b9-4feb-a6e3-d98d4acd6941","ios":"levelo://app?vid=f87a7598-e6b9-4feb-a6e3-d98d4acd6941"},"vehicle_type_id":"4","last_reported":1766132222,"current_range_meters":7200,"station_id":"cpo36qri1sfpv3e86is0","pricing_plan_id":"cebpf4jnsgd1na2vs0mg"},{"bike_id":"18e23220-d1ca-4c2a-aece-590a7a71fd58","system_id":"levelo_inurba_marseille","lat":43.2978,"lon":5.37097,"is_reserved":false,"is_disabled":false,"rental_uris":{"android":"levelo://app?vid=18e23220-d1ca-4c2a-aece-590a7a71fd58","ios":"levelo://app?vid=18e23220-d1ca-4c2a-aece-590a7a71fd58"},"vehicle_type_id":"4","last_reported":1766132222,"current_range_meters":7200,"station_id":"ce4bgop2rcd13ifvqc1g","pricing_plan_id":"cebpf4jnsgd1na2vs0mg"},{"bike_id":"6a1e1967-fdaf-4e65-ae26-1571d7f0290c","system_id":"levelo_inurba_marseille","lat":43.337605,"lon":5.374353,"is_reserved":false,"is_disabled":false,"rental_uris":{"android":"levelo://app?vid=6a1e1967-fdaf-4e65-ae26-1571d7f0290c","ios":"levelo://app?vid=6a1e1967-fdaf-4e65-ae26-1571d7f0290c"},"vehicle_type_id":"4","last_reported":1766132222,"current_range_meters":8000,"station_id":"","pricing_plan_id":"cebpf4jnsgd1na2vs0mg"},{"bike_id":"467517c8-ed87-4e02-bef8-4ed63963538d","system_id":"levelo_inurba_marseille","lat":43.27187,"lon":5.40991,"is_reserved":false,"is_disabled":true,"rental_uris":{"android":"levelo://app?vid=467517c8-ed87-4e02-bef8-4ed63963538d","ios":"levelo://app?vid=467517c8-ed87-4e02-bef8-4ed63963538d"},"vehicle_type_id":"4","last_reported":1766132222,"current_range_meters":8000,"station_id":"ce4bhl12rcd13ifvqgf0","pricing_plan_id":"cebpf4jnsgd1na2vs0mg"},{"bike_id":"1c36134d-99b2-4f6a-aed2-a9f8bf56ddf1","system_id":"levelo_inurba_marseille","lat":43.305284,"lon":5.367264,"is_reserved":false,"is_disabled":false,"rental_uris":{"android":"levelo://app?vid=1c36134d-99b2-4f6a-aed2-a9f8bf56ddf1","ios":"levelo://app?vid=1c36134d-99b2-4f6a-aed2-a9f8bf56ddf1"},"vehicle_type_id":"4","last_reported":1766132222,"current_range_meters":8000,"station_id":"ce4bgrp2rcd13ifvqc9g","pricing_plan_id":"cebpf4jnsgd1na2vs0mg"},{"bike_id":"f65ad8d4-940c-4c44-8c2a-cd0c3cfcfbed","system_id":"levelo_inurba_marseille","lat":43.26681,"lon":5.38292,"is_reserved":false,"is_disabled":false,"rental_uris":{"android":"levelo://app?vid=f65ad8d4-940c-4c44-8c2a-cd0c3cfcfbed","ios":"levelo://app?vid=f65ad8d4-940c-4c44-8c2a-cd0c3cfcfbed"},"vehicle_type_id":"4","last_reported":1766132222,"current_range_meters":8000,"station_id":"ce4bhg92rcd13ifvqf90","pricing_plan_id":"cebpf4jnsgd1na2vs0mg"},{"bike_id":"7ca36e65-29f2-4389-9847-4bff73ecf20a","system_id":"levelo_inurba_marseille","lat":43.32348,"lon":5.3674,"is_reserved":false,"is_disabled":false,"rental_uris":{"android":"levelo://app?vid=7ca36e65-29f2-4389-9847-4bff73ecf20a","ios":"levelo://app?vid=7ca36e65-29f2-4389-9847-4bff73ecf20a"},"vehicle_type_id":"4","last_reported":1766132222,"current_range_meters":8000,"station_id":"ce4bhsh2rcd13ifvqi2g","pricing_plan_id":"cebpf4jnsgd1na2vs0mg"},{"bike_id":"92e2511c-c371-4d33-95ca-5e7881da6b56","system_id":"levelo_inurba_marseille","lat":43.3137,"lon":5.36675,"is_reserved":false,"is_disabled":false,"rental_uris":{"android":"levelo://app?vid=92e2511c-c371-4d33-95ca-5e7881da6b56","ios":"levelo://app?vid=92e2511c-c371-4d33-95ca-5e7881da6b56"},"vehicle_type_id":"4","last_reported":1766132222,"current_range_meters":8000,"station_id":"ce4bgr92rcd13ifvqc6g","pricing_plan_id":"cebpf4jnsgd1na2vs0mg"},{"bike_id":"9a3d7d62-61d2-4eda-b573-080611517549","system_id":"levelo_inurba_marseille","lat":43.28605,"lon":5.35106,"is_reserved":false,"is_disabled":false,"rental_uris":{"android":"levelo://app?vid=9a3d7d62-61d2-4eda-b573-080611517549","ios":"levelo://app?vid=9a3d7d62-61d2-4eda-b573-080611517549"},"vehicle_type_id":"4","last_reported":1766132222,"current_range_meters":8000,"station_id":"ce4bhch2rcd13ifvqeug","pricing_plan_id":"cebpf4jnsgd1na2vs0mg"},{"bike_id":"00bbacab-1c2a-49f5-b112-777e1c225f58","system_id":"levelo_inurba_marseille","lat":43.30542,"lon":5.36704,"is_reserved":false,"is_disabled":false,"rental_uris":{"android":"levelo://app?vid=00bbacab-1c2a-49f5-b112-777e1c225f58","ios":"levelo://app?vid=00bbacab-1c2a-49f5-b112-777e1c225f58"},"vehicle_type_id":"4","last_reported":1766132222,"current_range_meters":8000,"station_id":"ce4bgrp2rcd13ifvqc9g","pricing_plan_id":"cebpf4jnsgd1na2vs0mg"},{"bike_id":"c63ccd62-9e0a-4e66-92ab-9a7e6a0ecf3e","system_id":"levelo_inurba_marseille","lat":43.28987,"lon":5.3907,"is_reserved":false,"is_disabled":false,"rental_uris":{"android":"levelo://app?vid=c63ccd62-9e0a-4e66-92ab-9a7e6a0ecf3e","ios":"levelo://app?vid=c63ccd62-9e0a-4e66-92ab-9a7e6a0ecf3e"},"vehicle_type_id":"4","last_reported":1766132222,"current_range_meters":8000,"station_id":"","pricing_plan_id":"cebpf4jnsgd1na2vs0mg"},{"bike_id":"2e79d8f7-445a-4ac6-b7ef-6770a6ec9f65","system_id":"levelo_inurba_marseille","lat":43.28506,"lon":5.44095,"is_reserved":false,"is_disabled":false,"rental_uris":{"android":"levelo://app?vid=2e79d8f7-445a-4ac6-b7ef-6770a6ec9f65","ios":"levelo://app?vid=2e79d8f7-445a-4ac6-b7ef-6770a6ec9f65"},"vehicle_type_id":"4","last_reported":1766132222,"current_range_meters":8000,"station_id":"st_d3j3df2ikq2c7380ej80","pricing_plan_id":"cebpf4jnsgd1na2vs0mg"},{"bike_id":"21e5fd9f-e5d4-4aeb-929a-a23be3e8819d","system_id":"levelo_inurba_marseille","lat":43.30927,"lon":5.40149,"is_reserved":false,"is_disabled":false,"rental_uris":{"android":"levelo://app?vid=21e5fd9f-e5d4-4aeb-929a-a23be3e8819d","ios":"levelo://app?vid=21e5fd9f-e5d4-4aeb-929a-a23be3e8819d"},"vehicle_type_id":"4","last_reported":1766132222,"current_range_meters":8400,"station_id":"ce4bgvp2rcd13ifvqct0","pricing_plan_id":"cebpf4jnsgd1na2vs0mg"},{"bike_id":"9302250b-f5e6-4d0c-863d-477f53448b1d","system_id":"levelo_inurba_marseille","lat":43.30157,"lon":5.38091,"is_reserved":false,"is_disabled":false,"rental_uris":{"android":"levelo://app?vid=9302250b-f5e6-4d0c-863d-477f53448b1d","ios":"levelo://app?vid=9302250b-f5e6-4d0c-863d-477f53448b1d"},"vehicle_type_id":"4","last_reported":1766132222,"current_range_meters":8400,"station_id":"ce4bgjp2rcd13ifvqbh0","pricing_plan_id":"cebpf4jnsgd1na2vs0mg"},{"bike_id":"cf0e2dfe-8751-4251-bbd3-3ad00be9f3ad","system_id":"levelo_inurba_marseille","lat":43.28478,"lon":5.48386,"is_reserved":false,"is_disabled":false,"rental_uris":{"android":"levelo://app?vid=cf0e2dfe-8751-4251-bbd3-3ad00be9f3ad","ios":"levelo://app?vid=cf0e2dfe-8751-4251-bbd3-3ad00be9f3ad"},"vehicle_type_id":"4","last_reported":1766132222,"current_range_meters":8400,"station_id":"","pricing_plan_id":"cebpf4jnsgd1na2vs0mg"},{"bike_id":"f0552324-7f16-45f2-af53-7d50398c0e4b","system_id":"levelo_inurba_marseille","lat":43.292011,"lon":5.393194,"is_reserved":false,"is_disabled":true,"rental_uris":{"android":"levelo://app?vid=f0552324-7f16-45f2-af53-7d50398c0e4b","ios":"levelo://app?vid=f0552324-7f16-45f2-af53-7d50398c0e4b"},"vehicle_type_id":"4","last_reported":1766132222,"current_range_meters":8400,"station_id":"ce4bh192rcd13ifvqdd0","pricing_plan_id":"cebpf4jnsgd1na2vs0mg"},{"bike_id":"81d78af1-65ec-472d-b230-d4165c7300cd","system_id":"levelo_inurba_marseille","lat":43.297086,"lon":5.376954,"is_reserved":false,"is_disabled":false,"rental_uris":{"android":"levelo://app?vid=81d78af1-65ec-472d-b230-d4165c7300cd","ios":"levelo://app?vid=81d78af1-65ec-472d-b230-d4165c7300cd"},"vehicle_type_id":"4","last_reported":1766132222,"current_range_meters":8400,"station_id":"ce4bgkh2rcd13ifvqbl0","pricing_plan_id":"cebpf4jnsgd1na2vs0mg"},{"bike_id":"4a614ce4-d61c-499d-8955-0569e02f377b","system_id":"levelo_inurba_marseille","lat":43.275134,"lon":5.372663,"is_reserved":false,"is_disabled":false,"rental_uris":{"android":"levelo://app?vid=4a614ce4-d61c-499d-8955-0569e02f377b","ios":"levelo://app?vid=4a614ce4-d61c-499d-8955-0569e02f377b"},"vehicle_type_id":"4","last_reported":1766132222,"current_range_meters":8800,"station_id":"","pricing_plan_id":"cebpf4jnsgd1na2vs0mg"},{"bike_id":"2734d6e7-0375-4f56-8446-04dd5477c707","system_id":"levelo_inurba_marseille","lat":43.27677,"lon":5.38887,"is_reserved":false,"is_disabled":false,"rental_uris":{"android":"levelo://app?vid=2734d6e7-0375-4f56-8446-04dd5477c707","ios":"levelo://app?vid=2734d6e7-0375-4f56-8446-04dd5477c707"},"vehicle_type_id":"4","last_reported":1766132222,"current_range_meters":8800,"station_id":"ce4bhi12rcd13ifvqfo0","pricing_plan_id":"cebpf4jnsgd1na2vs0mg"},{"bike_id":"df6dcf0d-9531-4d10-85db-933197462177","system_id":"levelo_inurba_marseille","lat":43.3107,"lon":5.37188,"is_reserved":false,"is_disabled":false,"rental_uris":{"android":"levelo://app?vid=df6dcf0d-9531-4d10-85db-933197462177","ios":"levelo://app?vid=df6dcf0d-9531-4d10-85db-933197462177"},"vehicle_type_id":"4","last_reported":1766132222,"current_range_meters":8800,"station_id":"st_d4kl2rp97mjs73e7tdfg","pricing_plan_id":"cebpf4jnsgd1na2vs0mg"},{"bike_id":"1e6b9ab6-11b1-4c99-beb7-30b30e8ec0aa","system_id":"levelo_inurba_marseille","lat":43.25326,"lon":5.42173,"is_reserved":false,"is_disabled":false,"rental_uris":{"android":"levelo://app?vid=1e6b9ab6-11b1-4c99-beb7-30b30e8ec0aa","ios":"levelo://app?vid=1e6b9ab6-11b1-4c99-beb7-30b30e8ec0aa"},"vehicle_type_id":"4","last_reported":1766132222,"current_range_meters":8800,"station_id":"st_d2m65c5bi1j21697t3ng","pricing_plan_id":"cebpf4jnsgd1na2vs0mg"},{"bike_id":"2ee4eaaa-95c2-4144-98f4-90e30c4d4bf7","system_id":"levelo_inurba_marseille","lat":43.30151,"lon":5.38095,"is_reserved":false,"is_disabled":false,"rental_uris":{"android":"levelo://app?vid=2ee4eaaa-95c2-4144-98f4-90e30c4d4bf7","ios":"levelo://app?vid=2ee4eaaa-95c2-4144-98f4-90e30c4d4bf7"},"vehicle_type_id":"4","last_reported":1766132222,"current_range_meters":8800,"station_id":"ce4bgjp2rcd13ifvqbh0","pricing_plan_id":"cebpf4jnsgd1na2vs0mg"},{"bike_id":"4ee5cbd7-d314-4a5f-b01c-b41629a1d053","system_id":"levelo_inurba_marseille","lat":43.28026,"lon":5.3696,"is_reserved":false,"is_disabled":false,"rental_uris":{"android":"levelo://app?vid=4ee5cbd7-d314-4a5f-b01c-b41629a1d053","ios":"levelo://app?vid=4ee5cbd7-d314-4a5f-b01c-b41629a1d053"},"vehicle_type_id":"4","last_reported":1766132222,"current_range_meters":8800,"station_id":"ce4bha12rcd13ifvqef0","pricing_plan_id":"cebpf4jnsgd1na2vs0mg"},{"bike_id":"e3545456-9ccd-47b9-9f35-1db0fbdf5c17","system_id":"levelo_inurba_marseille","lat":43.28526,"lon":5.44106,"is_reserved":false,"is_disabled":false,"rental_uris":{"android":"levelo://app?vid=e3545456-9ccd-47b9-9f35-1db0fbdf5c17","ios":"levelo://app?vid=e3545456-9ccd-47b9-9f35-1db0fbdf5c17"},"vehicle_type_id":"4","last_reported":1766132222,"current_range_meters":8800,"station_id":"st_d3j3df2ikq2c7380ej80","pricing_plan_id":"cebpf4jnsgd1na2vs0mg"},{"bike_id":"f5263347-3c71-41be-b174-7df864a4ff80","system_id":"levelo_inurba_marseille","lat":43.316732,"lon":5.40454,"is_reserved":false,"is_disabled":false,"rental_uris":{"android":"levelo://app?vid=f5263347-3c71-41be-b174-7df864a4ff80","ios":"levelo://app?vid=f5263347-3c71-41be-b174-7df864a4ff80"},"vehicle_type_id":"4","last_reported":1766132222,"current_range_meters":8800,"station_id":"ce4bh012rcd13ifvqd00","pricing_plan_id":"cebpf4jnsgd1na2vs0mg"},{"bike_id":"67c11c2e-656b-4d69-b05f-2d46cd149b33","system_id":"levelo_inurba_marseille","lat":43.30942,"lon":5.39031,"is_reserved":false,"is_disabled":false,"rental_uris":{"android":"levelo://app?vid=67c11c2e-656b-4d69-b05f-2d46cd149b33","ios":"levelo://app?vid=67c11c2e-656b-4d69-b05f-2d46cd149b33"},"vehicle_type_id":"4","last_reported":1766132222,"current_range_meters":8800,"station_id":"ce4bgup2rcd13ifvqco0","pricing_plan_id":"cebpf4jnsgd1na2vs0mg"},{"bike_id":"31b2d736-3111-4aa1-93a2-599bb6829831","system_id":"levelo_inurba_marseille","lat":43.31119,"lon":5.37774,"is_reserved":false,"is_disabled":false,"rental_uris":{"android":"levelo://app?vid=31b2d736-3111-4aa1-93a2-599bb6829831","ios":"levelo://app?vid=31b2d736-3111-4aa1-93a2-599bb6829831"},"vehicle_type_id":"4","last_reported":1766132222,"current_range_meters":9200,"station_id":"ce4bgt92rcd13ifvqcg0","pricing_plan_id":"cebpf4jnsgd1na2vs0mg"},{"bike_id":"436e467e-3ef8-4484-b12e-82fd46509f97","system_id":"levelo_inurba_marseille","lat":43.232951,"lon":5.443915,"is_reserved":false,"is_disabled":false,"rental_uris":{"android":"levelo://app?vid=436e467e-3ef8-4484-b12e-82fd46509f97","ios":"levelo://app?vid=436e467e-3ef8-4484-b12e-82fd46509f97"},"vehicle_type_id":"4","last_reported":1766132222,"current_range_meters":9200,"station_id":"","pricing_plan_id":"cebpf4jnsgd1na2vs0mg"},{"bike_id":"f2a5954f-7832-41d8-927a-0a1a2e0f9394","system_id":"levelo_inurba_marseille","lat":43.24382,"lon":5.37061,"is_reserved":false,"is_disabled":false,"rental_uris":{"android":"levelo://app?vid=f2a5954f-7832-41d8-927a-0a1a2e0f9394","ios":"levelo://app?vid=f2a5954f-7832-41d8-927a-0a1a2e0f9394"},"vehicle_type_id":"4","last_reported":1766132222,"current_range_meters":9200,"station_id":"ce4bhhh2rcd13ifvqfk0","pricing_plan_id":"cebpf4jnsgd1na2vs0mg"},{"bike_id":"f365ebf1-46c0-4bc0-ae4f-263145122a46","system_id":"levelo_inurba_marseille","lat":43.24998,"lon":5.38939,"is_reserved":false,"is_disabled":false,"rental_uris":{"android":"levelo://app?vid=f365ebf1-46c0-4bc0-ae4f-263145122a46","ios":"levelo://app?vid=f365ebf1-46c0-4bc0-ae4f-263145122a46"},"vehicle_type_id":"4","last_reported":1766132222,"current_range_meters":9200,"station_id":"ce4bhgp2rcd13ifvqfd0","pricing_plan_id":"cebpf4jnsgd1na2vs0mg"},{"bike_id":"ee6f7e5c-24b4-4046-a3ec-072080785116","system_id":"levelo_inurba_marseille","lat":43.21746,"lon":5.34594,"is_reserved":false,"is_disabled":true,"rental_uris":{"android":"levelo://app?vid=ee6f7e5c-24b4-4046-a3ec-072080785116","ios":"levelo://app?vid=ee6f7e5c-24b4-4046-a3ec-072080785116"},"vehicle_type_id":"4","last_reported":1766132222,"current_range_meters":9200,"station_id":"st_cvj6r9ubvosntc0bgbag","pricing_plan_id":"cebpf4jnsgd1na2vs0mg"},{"bike_id":"a24ee5b6-572d-4941-9ef3-a9d89c28bd82","system_id":"levelo_inurba_marseille","lat":43.30551,"lon":5.36686,"is_reserved":false,"is_disabled":false,"rental_uris":{"android":"levelo://app?vid=a24ee5b6-572d-4941-9ef3-a9d89c28bd82","ios":"levelo://app?vid=a24ee5b6-572d-4941-9ef3-a9d89c28bd82"},"vehicle_type_id":"4","last_reported":1766132222,"current_range_meters":9200,"station_id":"ce4bgrp2rcd13ifvqc9g","pricing_plan_id":"cebpf4jnsgd1na2vs0mg"},{"bike_id":"7646bb24-8e97-4ec7-8f0b-3bd06c67dd5d","system_id":"levelo_inurba_marseille","lat":43.310821,"lon":5.424291,"is_reserved":false,"is_disabled":false,"rental_uris":{"android":"levelo://app?vid=7646bb24-8e97-4ec7-8f0b-3bd06c67dd5d","ios":"levelo://app?vid=7646bb24-8e97-4ec7-8f0b-3bd06c67dd5d"},"vehicle_type_id":"4","last_reported":1766132222,"current_range_meters":9200,"station_id":"ce4bhp92rcd13ifvqhag","pricing_plan_id":"cebpf4jnsgd1na2vs0mg"},{"bike_id":"13d3967b-4cfe-47bf-8d35-564fb9330955","system_id":"levelo_inurba_marseille","lat":43.284064,"lon":5.375211,"is_reserved":false,"is_disabled":true,"rental_uris":{"android":"levelo://app?vid=13d3967b-4cfe-47bf-8d35-564fb9330955","ios":"levelo://app?vid=13d3967b-4cfe-47bf-8d35-564fb9330955"},"vehicle_type_id":"4","last_reported":1766132222,"current_range_meters":9200,"station_id":"ce4bh412rcd13ifvqds0","pricing_plan_id":"cebpf4jnsgd1na2vs0mg"},{"bike_id":"228ed5e4-a793-4f90-a46f-1e70b2793524","system_id":"levelo_inurba_marseille","lat":43.28615,"lon":5.39879,"is_reserved":false,"is_disabled":true,"rental_uris":{"android":"levelo://app?vid=228ed5e4-a793-4f90-a46f-1e70b2793524","ios":"levelo://app?vid=228ed5e4-a793-4f90-a46f-1e70b2793524"},"vehicle_type_id":"4","last_reported":1766132222,"current_range_meters":9200,"station_id":"st_d4a7ka997mjs738ck50g","pricing_plan_id":"cebpf4jnsgd1na2vs0mg"},{"bike_id":"c5365846-c619-4f12-8c92-97c9f9725a15","system_id":"levelo_inurba_marseille","lat":43.295162,"lon":5.379293,"is_reserved":false,"is_disabled":false,"rental_uris":{"android":"levelo://app?vid=c5365846-c619-4f12-8c92-97c9f9725a15","ios":"levelo://app?vid=c5365846-c619-4f12-8c92-97c9f9725a15"},"vehicle_type_id":"4","last_reported":1766132222,"current_range_meters":9200,"station_id":"","pricing_plan_id":"cebpf4jnsgd1na2vs0mg"},{"bike_id":"5468063e-389f-4f8a-885a-ff84b80cef4c","system_id":"levelo_inurba_marseille","lat":43.29041,"lon":5.39945,"is_reserved":false,"is_disabled":false,"rental_uris":{"android":"levelo://app?vid=5468063e-389f-4f8a-885a-ff84b80cef4c","ios":"levelo://app?vid=5468063e-389f-4f8a-885a-ff84b80cef4c"},"vehicle_type_id":"4","last_reported":1766132222,"current_range_meters":9200,"station_id":"ce4bh392rcd13ifvqdm0","pricing_plan_id":"cebpf4jnsgd1na2vs0mg"},{"bike_id":"c2b60210-c2fc-42df-8a7f-5d2ba9cadabb","system_id":"levelo_inurba_marseille","lat":43.30939,"lon":5.39028,"is_reserved":false,"is_disabled":true,"rental_uris":{"android":"levelo://app?vid=c2b60210-c2fc-42df-8a7f-5d2ba9cadabb","ios":"levelo://app?vid=c2b60210-c2fc-42df-8a7f-5d2ba9cadabb"},"vehicle_type_id":"4","last_reported":1766132222,"current_range_meters":9200,"station_id":"ce4bgup2rcd13ifvqco0","pricing_plan_id":"cebpf4jnsgd1na2vs0mg"},{"bike_id":"1f8bf9e3-c9bd-4c05-9201-34f9580d25af","system_id":"levelo_inurba_marseille","lat":43.21192,"lon":5.35067,"is_reserved":false,"is_disabled":false,"rental_uris":{"android":"levelo://app?vid=1f8bf9e3-c9bd-4c05-9201-34f9580d25af","ios":"levelo://app?vid=1f8bf9e3-c9bd-4c05-9201-34f9580d25af"},"vehicle_type_id":"4","last_reported":1766132222,"current_range_meters":9600,"station_id":"st_cvj6sg6p6f1abm77japg","pricing_plan_id":"cebpf4jnsgd1na2vs0mg"},{"bike_id":"0a598fce-978f-4f90-b03f-b8be1902feff","system_id":"levelo_inurba_marseille","lat":43.3128,"lon":5.37837,"is_reserved":false,"is_disabled":false,"rental_uris":{"android":"levelo://app?vid=0a598fce-978f-4f90-b03f-b8be1902feff","ios":"levelo://app?vid=0a598fce-978f-4f90-b03f-b8be1902feff"},"vehicle_type_id":"4","last_reported":1766132222,"current_range_meters":9600,"station_id":"","pricing_plan_id":"cebpf4jnsgd1na2vs0mg"},{"bike_id":"da0c886d-bf9d-46c9-ba41-bfd5ae0eda24","system_id":"levelo_inurba_marseille","lat":43.24163,"lon":5.36401,"is_reserved":false,"is_disabled":false,"rental_uris":{"android":"levelo://app?vid=da0c886d-bf9d-46c9-ba41-bfd5ae0eda24","ios":"levelo://app?vid=da0c886d-bf9d-46c9-ba41-bfd5ae0eda24"},"vehicle_type_id":"4","last_reported":1766132222,"current_range_meters":9600,"station_id":"cpo36qri1sfpv3e86is0","pricing_plan_id":"cebpf4jnsgd1na2vs0mg"},{"bike_id":"d0dd282f-2c05-49dd-834d-6d93cee6c88a","system_id":"levelo_inurba_marseille","lat":43.302004,"lon":5.36613,"is_reserved":false,"is_disabled":true,"rental_uris":{"android":"levelo://app?vid=d0dd282f-2c05-49dd-834d-6d93cee6c88a","ios":"levelo://app?vid=d0dd282f-2c05-49dd-834d-6d93cee6c88a"},"vehicle_type_id":"4","last_reported":1766132222,"current_range_meters":9600,"station_id":"ce4bgrh2rcd13ifvqc8g","pricing_plan_id":"cebpf4jnsgd1na2vs0mg"},{"bike_id":"173620f3-968a-421e-bf5b-96116c5d91a2","system_id":"levelo_inurba_marseille","lat":43.3046,"lon":5.37908,"is_reserved":false,"is_disabled":false,"rental_uris":{"android":"levelo://app?vid=173620f3-968a-421e-bf5b-96116c5d91a2","ios":"levelo://app?vid=173620f3-968a-421e-bf5b-96116c5d91a2"},"vehicle_type_id":"4","last_reported":1766132222,"current_range_meters":9600,"station_id":"ce4bgup2rcd13ifvqcn0","pricing_plan_id":"cebpf4jnsgd1na2vs0mg"},{"bike_id":"01a22ff4-19c2-4976-a549-24240c0f7d2f","system_id":"levelo_inurba_marseille","lat":43.25337,"lon":5.42171,"is_reserved":false,"is_disabled":false,"rental_uris":{"android":"levelo://app?vid=01a22ff4-19c2-4976-a549-24240c0f7d2f","ios":"levelo://app?vid=01a22ff4-19c2-4976-a549-24240c0f7d2f"},"vehicle_type_id":"4","last_reported":1766132222,"current_range_meters":9600,"station_id":"st_d2m65c5bi1j21697t3ng","pricing_plan_id":"cebpf4jnsgd1na2vs0mg"},{"bike_id":"fade1f76-6248-43fe-aeb9-7f93aeff737b","system_id":"levelo_inurba_marseille","lat":43.27931,"lon":5.39607,"is_reserved":false,"is_disabled":true,"rental_uris":{"android":"levelo://app?vid=fade1f76-6248-43fe-aeb9-7f93aeff737b","ios":"levelo://app?vid=fade1f76-6248-43fe-aeb9-7f93aeff737b"},"vehicle_type_id":"4","last_reported":1766132222,"current_range_meters":9600,"station_id":"ce4bhf92rcd13ifvqf40","pricing_plan_id":"cebpf4jnsgd1na2vs0mg"},{"bike_id":"374a0371-4968-4fe9-88a9-ac5ffa94b236","system_id":"levelo_inurba_marseille","lat":43.31467,"lon":5.45371,"is_reserved":false,"is_disabled":false,"rental_uris":{"android":"levelo://app?vid=374a0371-4968-4fe9-88a9-ac5ffa94b236","ios":"levelo://app?vid=374a0371-4968-4fe9-88a9-ac5ffa94b236"},"vehicle_type_id":"4","last_reported":1766132222,"current_range_meters":9600,"station_id":"","pricing_plan_id":"cebpf4jnsgd1na2vs0mg"},{"bike_id":"1626daf3-5722-4708-8aed-cbc8067f87db","system_id":"levelo_inurba_marseille","lat":43.286235,"lon":5.351067,"is_reserved":false,"is_disabled":false,"rental_uris":{"android":"levelo://app?vid=1626daf3-5722-4708-8aed-cbc8067f87db","ios":"levelo://app?vid=1626daf3-5722-4708-8aed-cbc8067f87db"},"vehicle_type_id":"4","last_reported":1766132222,"current_range_meters":9600,"station_id":"ce4bhch2rcd13ifvqeug","pricing_plan_id":"cebpf4jnsgd1na2vs0mg"},{"bike_id":"a6bb7fde-2db0-447e-8cac-38a0c3844ce6","system_id":"levelo_inurba_marseille","lat":43.277857,"lon":5.388488,"is_reserved":false,"is_disabled":false,"rental_uris":{"android":"levelo://app?vid=a6bb7fde-2db0-447e-8cac-38a0c3844ce6","ios":"levelo://app?vid=a6bb7fde-2db0-447e-8cac-38a0c3844ce6"},"vehicle_type_id":"4","last_reported":1766132222,"current_range_meters":10000,"station_id":"","pricing_plan_id":"cebpf4jnsgd1na2vs0mg"},{"bike_id":"600d55a4-2f20-4fd7-90f6-704497e65a89","system_id":"levelo_inurba_marseille","lat":43.292772,"lon":5.401137,"is_reserved":false,"is_disabled":false,"rental_uris":{"android":"levelo://app?vid=600d55a4-2f20-4fd7-90f6-704497e65a89","ios":"levelo://app?vid=600d55a4-2f20-4fd7-90f6-704497e65a89"},"vehicle_type_id":"4","last_reported":1766132222,"current_range_meters":10000,"station_id":"","pricing_plan_id":"cebpf4jnsgd1na2vs0mg"},{"bike_id":"3600545b-6af9-4527-916c-36a9c126b47e","system_id":"levelo_inurba_marseille","lat":43.30135,"lon":5.37406,"is_reserved":false,"is_disabled":false,"rental_uris":{"android":"levelo://app?vid=3600545b-6af9-4527-916c-36a9c126b47e","ios":"levelo://app?vid=3600545b-6af9-4527-916c-36a9c126b47e"},"vehicle_type_id":"4","last_reported":1766132222,"current_range_meters":10000,"station_id":"ce4bgs92rcd13ifvqcc0","pricing_plan_id":"cebpf4jnsgd1na2vs0mg"},{"bike_id":"4218c3f6-4764-47cf-93fc-c76838aefb78","system_id":"levelo_inurba_marseille","lat":43.24164,"lon":5.3641,"is_reserved":false,"is_disabled":false,"rental_uris":{"android":"levelo://app?vid=4218c3f6-4764-47cf-93fc-c76838aefb78","ios":"levelo://app?vid=4218c3f6-4764-47cf-93fc-c76838aefb78"},"vehicle_type_id":"4","last_reported":1766132222,"current_range_meters":10000,"station_id":"cpo36qri1sfpv3e86is0","pricing_plan_id":"cebpf4jnsgd1na2vs0mg"},{"bike_id":"56618555-07dd-421f-b982-e9c356439bd9","system_id":"levelo_inurba_marseille","lat":43.337444,"lon":5.374475,"is_reserved":false,"is_disabled":false,"rental_uris":{"android":"levelo://app?vid=56618555-07dd-421f-b982-e9c356439bd9","ios":"levelo://app?vid=56618555-07dd-421f-b982-e9c356439bd9"},"vehicle_type_id":"4","last_reported":1766132222,"current_range_meters":10000,"station_id":"cpo3342slgdg3j2ifvpg","pricing_plan_id":"cebpf4jnsgd1na2vs0mg"},{"bike_id":"f07708a6-82af-4792-a815-0ab5057b5c95","system_id":"levelo_inurba_marseille","lat":43.30654,"lon":5.4006,"is_reserved":false,"is_disabled":false,"rental_uris":{"android":"levelo://app?vid=f07708a6-82af-4792-a815-0ab5057b5c95","ios":"levelo://app?vid=f07708a6-82af-4792-a815-0ab5057b5c95"},"vehicle_type_id":"4","last_reported":1766132222,"current_range_meters":10000,"station_id":"ce4bh112rcd13ifvqda0","pricing_plan_id":"cebpf4jnsgd1na2vs0mg"},{"bike_id":"d50867a0-a974-4546-a28c-eba4c2e0b399","system_id":"levelo_inurba_marseille","lat":43.23197,"lon":5.3555,"is_reserved":false,"is_disabled":false,"rental_uris":{"android":"levelo://app?vid=d50867a0-a974-4546-a28c-eba4c2e0b399","ios":"levelo://app?vid=d50867a0-a974-4546-a28c-eba4c2e0b399"},"vehicle_type_id":"4","last_reported":1766132222,"current_range_meters":10000,"station_id":"ce4bhu92rcd13ifvqi70","pricing_plan_id":"cebpf4jnsgd1na2vs0mg"},{"bike_id":"91dc96a9-ec51-4128-814e-ce3aa80480d3","system_id":"levelo_inurba_marseille","lat":43.30051,"lon":5.380947,"is_reserved":false,"is_disabled":false,"rental_uris":{"android":"levelo://app?vid=91dc96a9-ec51-4128-814e-ce3aa80480d3","ios":"levelo://app?vid=91dc96a9-ec51-4128-814e-ce3aa80480d3"},"vehicle_type_id":"4","last_reported":1766132222,"current_range_meters":10000,"station_id":"","pricing_plan_id":"cebpf4jnsgd1na2vs0mg"},{"bike_id":"94e7a114-da94-42a3-a296-7a6593b82d0a","system_id":"levelo_inurba_marseille","lat":43.30281,"lon":5.37705,"is_reserved":false,"is_disabled":false,"rental_uris":{"android":"levelo://app?vid=94e7a114-da94-42a3-a296-7a6593b82d0a","ios":"levelo://app?vid=94e7a114-da94-42a3-a296-7a6593b82d0a"},"vehicle_type_id":"4","last_reported":1766132222,"current_range_meters":10000,"station_id":"ce4bguh2rcd13ifvqcj0","pricing_plan_id":"cebpf4jnsgd1na2vs0mg"},{"bike_id":"5af53c2e-3d97-499f-9892-e2ccad8d47f5","system_id":"levelo_inurba_marseille","lat":43.24173,"lon":5.39727,"is_reserved":false,"is_disabled":false,"rental_uris":{"android":"levelo://app?vid=5af53c2e-3d97-499f-9892-e2ccad8d47f5","ios":"levelo://app?vid=5af53c2e-3d97-499f-9892-e2ccad8d47f5"},"vehicle_type_id":"4","last_reported":1766132222,"current_range_meters":10000,"station_id":"ce4bhn12rcd13ifvqgpg","pricing_plan_id":"cebpf4jnsgd1na2vs0mg"},{"bike_id":"337243c5-3137-454a-b887-b8068f1ffff0","system_id":"levelo_inurba_marseille","lat":43.33725,"lon":5.39184,"is_reserved":false,"is_disabled":false,"rental_uris":{"android":"levelo://app?vid=337243c5-3137-454a-b887-b8068f1ffff0","ios":"levelo://app?vid=337243c5-3137-454a-b887-b8068f1ffff0"},"vehicle_type_id":"4","last_reported":1766132222,"current_range_meters":10000,"station_id":"ce4bhr92rcd13ifvqhsg","pricing_plan_id":"cebpf4jnsgd1na2vs0mg"},{"bike_id":"c3faba9e-e87b-45d3-a04d-815ef51baa2b","system_id":"levelo_inurba_marseille","lat":43.27493,"lon":5.42458,"is_reserved":false,"is_disabled":false,"rental_uris":{"android":"levelo://app?vid=c3faba9e-e87b-45d3-a04d-815ef51baa2b","ios":"levelo://app?vid=c3faba9e-e87b-45d3-a04d-815ef51baa2b"},"vehicle_type_id":"4","last_reported":1766132222,"current_range_meters":10000,"station_id":"ce4bhn92rcd13ifvqgrg","pricing_plan_id":"cebpf4jnsgd1na2vs0mg"},{"bike_id":"bd9f5726-57b9-4211-811f-03f39d31409a","system_id":"levelo_inurba_marseille","lat":43.26365,"lon":5.41082,"is_reserved":false,"is_disabled":false,"rental_uris":{"android":"levelo://app?vid=bd9f5726-57b9-4211-811f-03f39d31409a","ios":"levelo://app?vid=bd9f5726-57b9-4211-811f-03f39d31409a"},"vehicle_type_id":"4","last_reported":1766132222,"current_range_meters":10000,"station_id":"st_d4e5ca6na9uc73bfl5fg","pricing_plan_id":"cebpf4jnsgd1na2vs0mg"},{"bike_id":"3165b46a-3493-4d35-8deb-2335a6e8b422","system_id":"levelo_inurba_marseille","lat":43.253371,"lon":5.421705,"is_reserved":false,"is_disabled":false,"rental_uris":{"android":"levelo://app?vid=3165b46a-3493-4d35-8deb-2335a6e8b422","ios":"levelo://app?vid=3165b46a-3493-4d35-8deb-2335a6e8b422"},"vehicle_type_id":"4","last_reported":1766132222,"current_range_meters":10000,"station_id":"st_d2m65c5bi1j21697t3ng","pricing_plan_id":"cebpf4jnsgd1na2vs0mg"},{"bike_id":"2089392d-6463-48ba-9daa-f06a7da7f382","system_id":"levelo_inurba_marseille","lat":43.295302,"lon":5.375014,"is_reserved":false,"is_disabled":false,"rental_uris":{"android":"levelo://app?vid=2089392d-6463-48ba-9daa-f06a7da7f382","ios":"levelo://app?vid=2089392d-6463-48ba-9daa-f06a7da7f382"},"vehicle_type_id":"4","last_reported":1766132222,"current_range_meters":10000,"station_id":"ce4bgkp2rcd13ifvqbmg","pricing_plan_id":"cebpf4jnsgd1na2vs0mg"},{"bike_id":"1f056b37-e3f2-4d39-81cb-848d585f8a47","system_id":"levelo_inurba_marseille","lat":43.24159,"lon":5.36412,"is_reserved":false,"is_disabled":false,"rental_uris":{"android":"levelo://app?vid=1f056b37-e3f2-4d39-81cb-848d585f8a47","ios":"levelo://app?vid=1f056b37-e3f2-4d39-81cb-848d585f8a47"},"vehicle_type_id":"4","last_reported":1766132222,"current_range_meters":10000,"station_id":"cpo36qri1sfpv3e86is0","pricing_plan_id":"cebpf4jnsgd1na2vs0mg"},{"bike_id":"305412fd-41fd-4f48-b0ce-d25b5a7eb63f","system_id":"levelo_inurba_marseille","lat":43.34578,"lon":5.38222,"is_reserved":false,"is_disabled":false,"rental_uris":{"android":"levelo://app?vid=305412fd-41fd-4f48-b0ce-d25b5a7eb63f","ios":"levelo://app?vid=305412fd-41fd-4f48-b0ce-d25b5a7eb63f"},"vehicle_type_id":"4","last_reported":1766132222,"current_range_meters":10800,"station_id":"","pricing_plan_id":"cebpf4jnsgd1na2vs0mg"},{"bike_id":"512a49a8-855e-4402-acd5-266adb295b5e","system_id":"levelo_inurba_marseille","lat":43.313269,"lon":5.396919,"is_reserved":false,"is_disabled":false,"rental_uris":{"android":"levelo://app?vid=512a49a8-855e-4402-acd5-266adb295b5e","ios":"levelo://app?vid=512a49a8-855e-4402-acd5-266adb295b5e"},"vehicle_type_id":"4","last_reported":1766132222,"current_range_meters":10800,"station_id":"ce4bgvp2rcd13ifvqcu0","pricing_plan_id":"cebpf4jnsgd1na2vs0mg"},{"bike_id":"cf5eb2c1-c87d-4ae3-9256-41d8d82f1276","system_id":"levelo_inurba_marseille","lat":43.292262,"lon":5.360553,"is_reserved":false,"is_disabled":false,"rental_uris":{"android":"levelo://app?vid=cf5eb2c1-c87d-4ae3-9256-41d8d82f1276","ios":"levelo://app?vid=cf5eb2c1-c87d-4ae3-9256-41d8d82f1276"},"vehicle_type_id":"4","last_reported":1766132222,"current_range_meters":10800,"station_id":"ce4bhbh2rcd13ifvqeqg","pricing_plan_id":"cebpf4jnsgd1na2vs0mg"},{"bike_id":"f3a4c2fd-c27a-4ca6-bbe5-3949d2a88808","system_id":"levelo_inurba_marseille","lat":43.28584,"lon":5.43,"is_reserved":false,"is_disabled":false,"rental_uris":{"android":"levelo://app?vid=f3a4c2fd-c27a-4ca6-bbe5-3949d2a88808","ios":"levelo://app?vid=f3a4c2fd-c27a-4ca6-bbe5-3949d2a88808"},"vehicle_type_id":"4","last_reported":1766132222,"current_range_meters":10800,"station_id":"","pricing_plan_id":"cebpf4jnsgd1na2vs0mg"},{"bike_id":"17a49efb-d179-4b85-b20c-4afe87c0613f","system_id":"levelo_inurba_marseille","lat":43.310467,"lon":5.37176,"is_reserved":false,"is_disabled":true,"rental_uris":{"android":"levelo://app?vid=17a49efb-d179-4b85-b20c-4afe87c0613f","ios":"levelo://app?vid=17a49efb-d179-4b85-b20c-4afe87c0613f"},"vehicle_type_id":"4","last_reported":1766132222,"current_range_meters":10800,"station_id":"st_d4kl2rp97mjs73e7tdfg","pricing_plan_id":"cebpf4jnsgd1na2vs0mg"},{"bike_id":"5c3659b4-d7fa-4e5c-b0ae-f41b20fbf26a","system_id":"levelo_inurba_marseille","lat":43.30534,"lon":5.36703,"is_reserved":false,"is_disabled":false,"rental_uris":{"android":"levelo://app?vid=5c3659b4-d7fa-4e5c-b0ae-f41b20fbf26a","ios":"levelo://app?vid=5c3659b4-d7fa-4e5c-b0ae-f41b20fbf26a"},"vehicle_type_id":"4","last_reported":1766132222,"current_range_meters":10800,"station_id":"ce4bgrp2rcd13ifvqc9g","pricing_plan_id":"cebpf4jnsgd1na2vs0mg"},{"bike_id":"59cbfa1d-37f3-47c2-8f1c-6a8852460364","system_id":"levelo_inurba_marseille","lat":43.28932,"lon":5.36636,"is_reserved":false,"is_disabled":false,"rental_uris":{"android":"levelo://app?vid=59cbfa1d-37f3-47c2-8f1c-6a8852460364","ios":"levelo://app?vid=59cbfa1d-37f3-47c2-8f1c-6a8852460364"},"vehicle_type_id":"4","last_reported":1766132222,"current_range_meters":11200,"station_id":"ce4bhap2rcd13ifvqek0","pricing_plan_id":"cebpf4jnsgd1na2vs0mg"},{"bike_id":"221325bd-ec9a-4285-9407-f23495128f9a","system_id":"levelo_inurba_marseille","lat":43.29065,"lon":5.39966,"is_reserved":false,"is_disabled":false,"rental_uris":{"android":"levelo://app?vid=221325bd-ec9a-4285-9407-f23495128f9a","ios":"levelo://app?vid=221325bd-ec9a-4285-9407-f23495128f9a"},"vehicle_type_id":"4","last_reported":1766132222,"current_range_meters":11200,"station_id":"ce4bh392rcd13ifvqdm0","pricing_plan_id":"cebpf4jnsgd1na2vs0mg"},{"bike_id":"413557ff-13d9-40fb-81ee-6ad5e7d92bea","system_id":"levelo_inurba_marseille","lat":43.2118,"lon":5.35086,"is_reserved":false,"is_disabled":false,"rental_uris":{"android":"levelo://app?vid=413557ff-13d9-40fb-81ee-6ad5e7d92bea","ios":"levelo://app?vid=413557ff-13d9-40fb-81ee-6ad5e7d92bea"},"vehicle_type_id":"4","last_reported":1766132222,"current_range_meters":11200,"station_id":"st_cvj6sg6p6f1abm77japg","pricing_plan_id":"cebpf4jnsgd1na2vs0mg"},{"bike_id":"dfbce69e-f6e8-4b7d-b65d-85deba113350","system_id":"levelo_inurba_marseille","lat":43.28275,"lon":5.35073,"is_reserved":false,"is_disabled":false,"rental_uris":{"android":"levelo://app?vid=dfbce69e-f6e8-4b7d-b65d-85deba113350","ios":"levelo://app?vid=dfbce69e-f6e8-4b7d-b65d-85deba113350"},"vehicle_type_id":"4","last_reported":1766132222,"current_range_meters":11200,"station_id":"ce4bhbp2rcd13ifvqerg","pricing_plan_id":"cebpf4jnsgd1na2vs0mg"},{"bike_id":"eaf0b5a3-bbfe-438d-ac7b-a4db46433dcd","system_id":"levelo_inurba_marseille","lat":43.26948,"lon":5.38633,"is_reserved":false,"is_disabled":false,"rental_uris":{"android":"levelo://app?vid=eaf0b5a3-bbfe-438d-ac7b-a4db46433dcd","ios":"levelo://app?vid=eaf0b5a3-bbfe-438d-ac7b-a4db46433dcd"},"vehicle_type_id":"4","last_reported":1766132222,"current_range_meters":11200,"station_id":"ce4bhh92rcd13ifvqfh0","pricing_plan_id":"cebpf4jnsgd1na2vs0mg"},{"bike_id":"b12c4caa-9d88-4cba-acda-9a8c909ff289","system_id":"levelo_inurba_marseille","lat":43.24176,"lon":5.3974,"is_reserved":false,"is_disabled":false,"rental_uris":{"android":"levelo://app?vid=b12c4caa-9d88-4cba-acda-9a8c909ff289","ios":"levelo://app?vid=b12c4caa-9d88-4cba-acda-9a8c909ff289"},"vehicle_type_id":"4","last_reported":1766132222,"current_range_meters":11200,"station_id":"ce4bhn12rcd13ifvqgpg","pricing_plan_id":"cebpf4jnsgd1na2vs0mg"},{"bike_id":"28e7ea25-d676-49ca-8be6-ac1c19bc94ea","system_id":"levelo_inurba_marseille","lat":43.33424,"lon":5.40073,"is_reserved":false,"is_disabled":false,"rental_uris":{"android":"levelo://app?vid=28e7ea25-d676-49ca-8be6-ac1c19bc94ea","ios":"levelo://app?vid=28e7ea25-d676-49ca-8be6-ac1c19bc94ea"},"vehicle_type_id":"4","last_reported":1766132222,"current_range_meters":11200,"station_id":"","pricing_plan_id":"cebpf4jnsgd1na2vs0mg"},{"bike_id":"b2930c46-b7b7-4c68-aaaf-02e56fba4a18","system_id":"levelo_inurba_marseille","lat":43.30558,"lon":5.36555,"is_reserved":false,"is_disabled":false,"rental_uris":{"android":"levelo://app?vid=b2930c46-b7b7-4c68-aaaf-02e56fba4a18","ios":"levelo://app?vid=b2930c46-b7b7-4c68-aaaf-02e56fba4a18"},"vehicle_type_id":"4","last_reported":1766132222,"current_range_meters":11200,"station_id":"ce4bgs12rcd13ifvqcag","pricing_plan_id":"cebpf4jnsgd1na2vs0mg"},{"bike_id":"a995a60a-c8a4-454d-a12f-523b7a8e58ae","system_id":"levelo_inurba_marseille","lat":43.27428,"lon":5.42569,"is_reserved":false,"is_disabled":false,"rental_uris":{"android":"levelo://app?vid=a995a60a-c8a4-454d-a12f-523b7a8e58ae","ios":"levelo://app?vid=a995a60a-c8a4-454d-a12f-523b7a8e58ae"},"vehicle_type_id":"4","last_reported":1766132222,"current_range_meters":11200,"station_id":"","pricing_plan_id":"cebpf4jnsgd1na2vs0mg"},{"bike_id":"6ee4c9ab-838e-438b-9933-5a64b8c8b53e","system_id":"levelo_inurba_marseille","lat":43.29603,"lon":5.38103,"is_reserved":false,"is_disabled":false,"rental_uris":{"android":"levelo://app?vid=6ee4c9ab-838e-438b-9933-5a64b8c8b53e","ios":"levelo://app?vid=6ee4c9ab-838e-438b-9933-5a64b8c8b53e"},"vehicle_type_id":"4","last_reported":1766132222,"current_range_meters":11200,"station_id":"ce4bgl12rcd13ifvqbo0","pricing_plan_id":"cebpf4jnsgd1na2vs0mg"},{"bike_id":"4a4511f8-e03d-4104-bc90-a58fb016d12a","system_id":"levelo_inurba_marseille","lat":43.31123,"lon":5.37781,"is_reserved":false,"is_disabled":false,"rental_uris":{"android":"levelo://app?vid=4a4511f8-e03d-4104-bc90-a58fb016d12a","ios":"levelo://app?vid=4a4511f8-e03d-4104-bc90-a58fb016d12a"},"vehicle_type_id":"4","last_reported":1766132222,"current_range_meters":11600,"station_id":"ce4bgt92rcd13ifvqcg0","pricing_plan_id":"cebpf4jnsgd1na2vs0mg"},{"bike_id":"467de831-2f68-4e35-b5b7-2fd9784f5260","system_id":"levelo_inurba_marseille","lat":43.31344,"lon":5.367071,"is_reserved":false,"is_disabled":false,"rental_uris":{"android":"levelo://app?vid=467de831-2f68-4e35-b5b7-2fd9784f5260","ios":"levelo://app?vid=467de831-2f68-4e35-b5b7-2fd9784f5260"},"vehicle_type_id":"4","last_reported":1766132222,"current_range_meters":11600,"station_id":"ce4bgr92rcd13ifvqc6g","pricing_plan_id":"cebpf4jnsgd1na2vs0mg"},{"bike_id":"700442f5-a082-454e-8bc7-ab3bbb77bfce","system_id":"levelo_inurba_marseille","lat":43.26649,"lon":5.37439,"is_reserved":false,"is_disabled":false,"rental_uris":{"android":"levelo://app?vid=700442f5-a082-454e-8bc7-ab3bbb77bfce","ios":"levelo://app?vid=700442f5-a082-454e-8bc7-ab3bbb77bfce"},"vehicle_type_id":"4","last_reported":1766132222,"current_range_meters":11600,"station_id":"","pricing_plan_id":"cebpf4jnsgd1na2vs0mg"},{"bike_id":"94150bbb-22d7-418f-a1f2-0587163143f0","system_id":"levelo_inurba_marseille","lat":43.29917,"lon":5.37491,"is_reserved":false,"is_disabled":false,"rental_uris":{"android":"levelo://app?vid=94150bbb-22d7-418f-a1f2-0587163143f0","ios":"levelo://app?vid=94150bbb-22d7-418f-a1f2-0587163143f0"},"vehicle_type_id":"4","last_reported":1766132222,"current_range_meters":11600,"station_id":"ce4bgjh2rcd13ifvqbg0","pricing_plan_id":"cebpf4jnsgd1na2vs0mg"},{"bike_id":"63daf17d-55c7-4d34-b6d5-5c96a2dfc377","system_id":"levelo_inurba_marseille","lat":43.29264,"lon":5.3762,"is_reserved":false,"is_disabled":false,"rental_uris":{"android":"levelo://app?vid=63daf17d-55c7-4d34-b6d5-5c96a2dfc377","ios":"levelo://app?vid=63daf17d-55c7-4d34-b6d5-5c96a2dfc377"},"vehicle_type_id":"4","last_reported":1766132222,"current_range_meters":11600,"station_id":"ce4bgi12rcd13ifvqb80","pricing_plan_id":"cebpf4jnsgd1na2vs0mg"},{"bike_id":"caa296d3-3cc5-4a69-b445-5ef39d3f3433","system_id":"levelo_inurba_marseille","lat":43.2856,"lon":5.39507,"is_reserved":false,"is_disabled":false,"rental_uris":{"android":"levelo://app?vid=caa296d3-3cc5-4a69-b445-5ef39d3f3433","ios":"levelo://app?vid=caa296d3-3cc5-4a69-b445-5ef39d3f3433"},"vehicle_type_id":"4","last_reported":1766132222,"current_range_meters":12000,"station_id":"ce4bh292rcd13ifvqdg0","pricing_plan_id":"cebpf4jnsgd1na2vs0mg"},{"bike_id":"76fb7a73-a5f9-4340-855e-fcbbe13e759a","system_id":"levelo_inurba_marseille","lat":43.31874,"lon":5.4,"is_reserved":false,"is_disabled":false,"rental_uris":{"android":"levelo://app?vid=76fb7a73-a5f9-4340-855e-fcbbe13e759a","ios":"levelo://app?vid=76fb7a73-a5f9-4340-855e-fcbbe13e759a"},"vehicle_type_id":"4","last_reported":1766132222,"current_range_meters":12000,"station_id":"","pricing_plan_id":"cebpf4jnsgd1na2vs0mg"},{"bike_id":"d6bc7465-ed58-4731-8353-a1bf1c3037e6","system_id":"levelo_inurba_marseille","lat":43.2657,"lon":5.40314,"is_reserved":false,"is_disabled":false,"rental_uris":{"android":"levelo://app?vid=d6bc7465-ed58-4731-8353-a1bf1c3037e6","ios":"levelo://app?vid=d6bc7465-ed58-4731-8353-a1bf1c3037e6"},"vehicle_type_id":"4","last_reported":1766132222,"current_range_meters":12000,"station_id":"ce4bhmp2rcd13ifvqgng","pricing_plan_id":"cebpf4jnsgd1na2vs0mg"},{"bike_id":"2a19795b-b390-40e2-8dc7-a4bf8c23192c","system_id":"levelo_inurba_marseille","lat":43.29577,"lon":5.381,"is_reserved":false,"is_disabled":false,"rental_uris":{"android":"levelo://app?vid=2a19795b-b390-40e2-8dc7-a4bf8c23192c","ios":"levelo://app?vid=2a19795b-b390-40e2-8dc7-a4bf8c23192c"},"vehicle_type_id":"4","last_reported":1766132222,"current_range_meters":12000,"station_id":"ce4bgl12rcd13ifvqbo0","pricing_plan_id":"cebpf4jnsgd1na2vs0mg"},{"bike_id":"b7b64a96-c9ae-46e0-8768-12fcfeb4b194","system_id":"levelo_inurba_marseille","lat":43.30158,"lon":5.38076,"is_reserved":false,"is_disabled":false,"rental_uris":{"android":"levelo://app?vid=b7b64a96-c9ae-46e0-8768-12fcfeb4b194","ios":"levelo://app?vid=b7b64a96-c9ae-46e0-8768-12fcfeb4b194"},"vehicle_type_id":"4","last_reported":1766132222,"current_range_meters":12000,"station_id":"ce4bgjp2rcd13ifvqbh0","pricing_plan_id":"cebpf4jnsgd1na2vs0mg"},{"bike_id":"586e8ce6-cc8a-4e68-aeb4-229571c65d56","system_id":"levelo_inurba_marseille","lat":43.314804,"lon":5.373054,"is_reserved":false,"is_disabled":false,"rental_uris":{"android":"levelo://app?vid=586e8ce6-cc8a-4e68-aeb4-229571c65d56","ios":"levelo://app?vid=586e8ce6-cc8a-4e68-aeb4-229571c65d56"},"vehicle_type_id":"4","last_reported":1766132222,"current_range_meters":12000,"station_id":"ce4bgt12rcd13ifvqcd0","pricing_plan_id":"cebpf4jnsgd1na2vs0mg"},{"bike_id":"8baf18d0-6725-4ba0-9f72-640cffab0f68","system_id":"levelo_inurba_marseille","lat":43.30114,"lon":5.39899,"is_reserved":false,"is_disabled":false,"rental_uris":{"android":"levelo://app?vid=8baf18d0-6725-4ba0-9f72-640cffab0f68","ios":"levelo://app?vid=8baf18d0-6725-4ba0-9f72-640cffab0f68"},"vehicle_type_id":"4","last_reported":1766132222,"current_range_meters":12400,"station_id":"ce4bh0h2rcd13ifvqd40","pricing_plan_id":"cebpf4jnsgd1na2vs0mg"},{"bike_id":"af783cbc-685b-4b56-93fa-6a6d328c307a","system_id":"levelo_inurba_marseille","lat":43.24994,"lon":5.38941,"is_reserved":false,"is_disabled":false,"rental_uris":{"android":"levelo://app?vid=af783cbc-685b-4b56-93fa-6a6d328c307a","ios":"levelo://app?vid=af783cbc-685b-4b56-93fa-6a6d328c307a"},"vehicle_type_id":"4","last_reported":1766132222,"current_range_meters":12400,"station_id":"ce4bhgp2rcd13ifvqfd0","pricing_plan_id":"cebpf4jnsgd1na2vs0mg"},{"bike_id":"8f4a549b-344a-4fc6-aab0-739441a53b76","system_id":"levelo_inurba_marseille","lat":43.31091,"lon":5.42433,"is_reserved":false,"is_disabled":false,"rental_uris":{"android":"levelo://app?vid=8f4a549b-344a-4fc6-aab0-739441a53b76","ios":"levelo://app?vid=8f4a549b-344a-4fc6-aab0-739441a53b76"},"vehicle_type_id":"4","last_reported":1766132222,"current_range_meters":12400,"station_id":"ce4bhp92rcd13ifvqhag","pricing_plan_id":"cebpf4jnsgd1na2vs0mg"},{"bike_id":"1c79eb29-135e-40c1-8651-901759d4aaa6","system_id":"levelo_inurba_marseille","lat":43.28563,"lon":5.3529,"is_reserved":false,"is_disabled":false,"rental_uris":{"android":"levelo://app?vid=1c79eb29-135e-40c1-8651-901759d4aaa6","ios":"levelo://app?vid=1c79eb29-135e-40c1-8651-901759d4aaa6"},"vehicle_type_id":"4","last_reported":1766132222,"current_range_meters":12400,"station_id":"","pricing_plan_id":"cebpf4jnsgd1na2vs0mg"},{"bike_id":"5c1f0183-cbe5-4a9e-a493-d80ce3862cbd","system_id":"levelo_inurba_marseille","lat":43.321047,"lon":5.367757,"is_reserved":false,"is_disabled":false,"rental_uris":{"android":"levelo://app?vid=5c1f0183-cbe5-4a9e-a493-d80ce3862cbd","ios":"levelo://app?vid=5c1f0183-cbe5-4a9e-a493-d80ce3862cbd"},"vehicle_type_id":"4","last_reported":1766132222,"current_range_meters":12400,"station_id":"ce4bhrh2rcd13ifvqhug","pricing_plan_id":"cebpf4jnsgd1na2vs0mg"},{"bike_id":"dcebbb45-765e-44b9-9596-1f8fdae0f25e","system_id":"levelo_inurba_marseille","lat":43.24637,"lon":5.38893,"is_reserved":false,"is_disabled":false,"rental_uris":{"android":"levelo://app?vid=dcebbb45-765e-44b9-9596-1f8fdae0f25e","ios":"levelo://app?vid=dcebbb45-765e-44b9-9596-1f8fdae0f25e"},"vehicle_type_id":"4","last_reported":1766132222,"current_range_meters":12400,"station_id":"ce4bhg12rcd13ifvqf60","pricing_plan_id":"cebpf4jnsgd1na2vs0mg"},{"bike_id":"d6888ab2-db65-443c-8d72-10589f53745a","system_id":"levelo_inurba_marseille","lat":43.29524,"lon":5.37488,"is_reserved":false,"is_disabled":true,"rental_uris":{"android":"levelo://app?vid=d6888ab2-db65-443c-8d72-10589f53745a","ios":"levelo://app?vid=d6888ab2-db65-443c-8d72-10589f53745a"},"vehicle_type_id":"4","last_reported":1766132222,"current_range_meters":12400,"station_id":"ce4bgkp2rcd13ifvqbmg","pricing_plan_id":"cebpf4jnsgd1na2vs0mg"},{"bike_id":"545c4cd4-8ff2-4661-8441-b5febf6eec48","system_id":"levelo_inurba_marseille","lat":43.337444,"lon":5.374475,"is_reserved":false,"is_disabled":false,"rental_uris":{"android":"levelo://app?vid=545c4cd4-8ff2-4661-8441-b5febf6eec48","ios":"levelo://app?vid=545c4cd4-8ff2-4661-8441-b5febf6eec48"},"vehicle_type_id":"4","last_reported":1766132222,"current_range_meters":12400,"station_id":"cpo3342slgdg3j2ifvpg","pricing_plan_id":"cebpf4jnsgd1na2vs0mg"},{"bike_id":"f6c3f220-b7a9-4a60-85a7-44db13ce74e3","system_id":"levelo_inurba_marseille","lat":43.23063,"lon":5.35485,"is_reserved":false,"is_disabled":false,"rental_uris":{"android":"levelo://app?vid=f6c3f220-b7a9-4a60-85a7-44db13ce74e3","ios":"levelo://app?vid=f6c3f220-b7a9-4a60-85a7-44db13ce74e3"},"vehicle_type_id":"4","last_reported":1766132222,"current_range_meters":12400,"station_id":"cpo3342slgdg3j2ifvpg","pricing_plan_id":"cebpf4jnsgd1na2vs0mg"},{"bike_id":"51850788-6d18-4067-a22e-183a3dbd8b5e","system_id":"levelo_inurba_marseille","lat":43.286094,"lon":5.351087,"is_reserved":false,"is_disabled":false,"rental_uris":{"android":"levelo://app?vid=51850788-6d18-4067-a22e-183a3dbd8b5e","ios":"levelo://app?vid=51850788-6d18-4067-a22e-183a3dbd8b5e"},"vehicle_type_id":"4","last_reported":1766132222,"current_range_meters":12400,"station_id":"ce4bhch2rcd13ifvqeug","pricing_plan_id":"cebpf4jnsgd1na2vs0mg"},{"bike_id":"689e1e25-96b9-418c-bbe1-0e8f9558c52f","system_id":"levelo_inurba_marseille","lat":43.31367,"lon":5.37699,"is_reserved":false,"is_disabled":false,"rental_uris":{"android":"levelo://app?vid=689e1e25-96b9-418c-bbe1-0e8f9558c52f","ios":"levelo://app?vid=689e1e25-96b9-418c-bbe1-0e8f9558c52f"},"vehicle_type_id":"4","last_reported":1766132222,"current_range_meters":12400,"station_id":"","pricing_plan_id":"cebpf4jnsgd1na2vs0mg"},{"bike_id":"c2657a42-26a4-4ae0-b35b-25bd9d22776b","system_id":"levelo_inurba_marseille","lat":43.28722,"lon":5.36079,"is_reserved":false,"is_disabled":false,"rental_uris":{"android":"levelo://app?vid=c2657a42-26a4-4ae0-b35b-25bd9d22776b","ios":"levelo://app?vid=c2657a42-26a4-4ae0-b35b-25bd9d22776b"},"vehicle_type_id":"4","last_reported":1766132222,"current_range_meters":12800,"station_id":"cki0cbj6b192h4jlfktg","pricing_plan_id":"cebpf4jnsgd1na2vs0mg"},{"bike_id":"1c1f01d8-c54a-439c-9e3f-5ded92cedb52","system_id":"levelo_inurba_marseille","lat":43.237798,"lon":5.366356,"is_reserved":false,"is_disabled":false,"rental_uris":{"android":"levelo://app?vid=1c1f01d8-c54a-439c-9e3f-5ded92cedb52","ios":"levelo://app?vid=1c1f01d8-c54a-439c-9e3f-5ded92cedb52"},"vehicle_type_id":"4","last_reported":1766132222,"current_range_meters":12800,"station_id":"st_d3nk18o9ro0c73en2l3g","pricing_plan_id":"cebpf4jnsgd1na2vs0mg"},{"bike_id":"ed0b0efc-7ff2-4ff0-8f38-23867c9755df","system_id":"levelo_inurba_marseille","lat":43.2534,"lon":5.421652,"is_reserved":false,"is_disabled":false,"rental_uris":{"android":"levelo://app?vid=ed0b0efc-7ff2-4ff0-8f38-23867c9755df","ios":"levelo://app?vid=ed0b0efc-7ff2-4ff0-8f38-23867c9755df"},"vehicle_type_id":"4","last_reported":1766132222,"current_range_meters":12800,"station_id":"st_d2m65c5bi1j21697t3ng","pricing_plan_id":"cebpf4jnsgd1na2vs0mg"},{"bike_id":"d674a729-c24a-42f8-8d99-54fc4e699b40","system_id":"levelo_inurba_marseille","lat":43.30795,"lon":5.37655,"is_reserved":false,"is_disabled":false,"rental_uris":{"android":"levelo://app?vid=d674a729-c24a-42f8-8d99-54fc4e699b40","ios":"levelo://app?vid=d674a729-c24a-42f8-8d99-54fc4e699b40"},"vehicle_type_id":"4","last_reported":1766132222,"current_range_meters":12800,"station_id":"ce4bgv92rcd13ifvqcq0","pricing_plan_id":"cebpf4jnsgd1na2vs0mg"},{"bike_id":"ec6401bf-06e9-4881-946b-649f2b1df2d1","system_id":"levelo_inurba_marseille","lat":43.2533,"lon":5.42173,"is_reserved":false,"is_disabled":false,"rental_uris":{"android":"levelo://app?vid=ec6401bf-06e9-4881-946b-649f2b1df2d1","ios":"levelo://app?vid=ec6401bf-06e9-4881-946b-649f2b1df2d1"},"vehicle_type_id":"4","last_reported":1766132222,"current_range_meters":12800,"station_id":"st_d2m65c5bi1j21697t3ng","pricing_plan_id":"cebpf4jnsgd1na2vs0mg"},{"bike_id":"9dd14efa-efeb-4984-b064-566781d069e0","system_id":"levelo_inurba_marseille","lat":43.30947,"lon":5.39027,"is_reserved":false,"is_disabled":false,"rental_uris":{"android":"levelo://app?vid=9dd14efa-efeb-4984-b064-566781d069e0","ios":"levelo://app?vid=9dd14efa-efeb-4984-b064-566781d069e0"},"vehicle_type_id":"4","last_reported":1766132222,"current_range_meters":12800,"station_id":"ce4bgup2rcd13ifvqco0","pricing_plan_id":"cebpf4jnsgd1na2vs0mg"},{"bike_id":"1b242f74-0031-42b6-9e71-062aba3f7d85","system_id":"levelo_inurba_marseille","lat":43.25338,"lon":5.42168,"is_reserved":false,"is_disabled":false,"rental_uris":{"android":"levelo://app?vid=1b242f74-0031-42b6-9e71-062aba3f7d85","ios":"levelo://app?vid=1b242f74-0031-42b6-9e71-062aba3f7d85"},"vehicle_type_id":"4","last_reported":1766132222,"current_range_meters":12800,"station_id":"st_d2m65c5bi1j21697t3ng","pricing_plan_id":"cebpf4jnsgd1na2vs0mg"},{"bike_id":"8965bd2e-8152-488c-82f6-eca1ad732749","system_id":"levelo_inurba_marseille","lat":43.31279,"lon":5.40161,"is_reserved":false,"is_disabled":false,"rental_uris":{"android":"levelo://app?vid=8965bd2e-8152-488c-82f6-eca1ad732749","ios":"levelo://app?vid=8965bd2e-8152-488c-82f6-eca1ad732749"},"vehicle_type_id":"4","last_reported":1766132222,"current_range_meters":12800,"station_id":"ce4bh092rcd13ifvqd30","pricing_plan_id":"cebpf4jnsgd1na2vs0mg"},{"bike_id":"24df08af-7a2c-4580-b263-bcb3f62d73e3","system_id":"levelo_inurba_marseille","lat":43.24464,"lon":5.42528,"is_reserved":false,"is_disabled":false,"rental_uris":{"android":"levelo://app?vid=24df08af-7a2c-4580-b263-bcb3f62d73e3","ios":"levelo://app?vid=24df08af-7a2c-4580-b263-bcb3f62d73e3"},"vehicle_type_id":"4","last_reported":1766132222,"current_range_meters":12800,"station_id":"st_d4a3vfp97mjs738cd8kg","pricing_plan_id":"cebpf4jnsgd1na2vs0mg"},{"bike_id":"fdde03c4-f3c6-4562-b5d1-e681d3e4b56e","system_id":"levelo_inurba_marseille","lat":43.323605,"lon":5.367347,"is_reserved":false,"is_disabled":false,"rental_uris":{"android":"levelo://app?vid=fdde03c4-f3c6-4562-b5d1-e681d3e4b56e","ios":"levelo://app?vid=fdde03c4-f3c6-4562-b5d1-e681d3e4b56e"},"vehicle_type_id":"4","last_reported":1766132222,"current_range_meters":13600,"station_id":"ce4bhsh2rcd13ifvqi2g","pricing_plan_id":"cebpf4jnsgd1na2vs0mg"},{"bike_id":"12ddb4c5-9a4d-4a0b-8db4-6d16d71da3e9","system_id":"levelo_inurba_marseille","lat":43.28746,"lon":5.352184,"is_reserved":false,"is_disabled":true,"rental_uris":{"android":"levelo://app?vid=12ddb4c5-9a4d-4a0b-8db4-6d16d71da3e9","ios":"levelo://app?vid=12ddb4c5-9a4d-4a0b-8db4-6d16d71da3e9"},"vehicle_type_id":"4","last_reported":1766132222,"current_range_meters":13600,"station_id":"","pricing_plan_id":"cebpf4jnsgd1na2vs0mg"},{"bike_id":"47b454cd-01f9-4de3-b129-3f7a7abb6370","system_id":"levelo_inurba_marseille","lat":43.29223,"lon":5.36068,"is_reserved":false,"is_disabled":false,"rental_uris":{"android":"levelo://app?vid=47b454cd-01f9-4de3-b129-3f7a7abb6370","ios":"levelo://app?vid=47b454cd-01f9-4de3-b129-3f7a7abb6370"},"vehicle_type_id":"4","last_reported":1766132222,"current_range_meters":13600,"station_id":"ce4bhbh2rcd13ifvqeqg","pricing_plan_id":"cebpf4jnsgd1na2vs0mg"},{"bike_id":"eace70d9-abc4-463e-ad30-564a1fb2f71d","system_id":"levelo_inurba_marseille","lat":43.2587,"lon":5.39897,"is_reserved":false,"is_disabled":false,"rental_uris":{"android":"levelo://app?vid=eace70d9-abc4-463e-ad30-564a1fb2f71d","ios":"levelo://app?vid=eace70d9-abc4-463e-ad30-564a1fb2f71d"},"vehicle_type_id":"4","last_reported":1766132222,"current_range_meters":13600,"station_id":"ce4bhl92rcd13ifvqghg","pricing_plan_id":"cebpf4jnsgd1na2vs0mg"},{"bike_id":"128f68df-e6c8-471d-bf6e-3a9c347712de","system_id":"levelo_inurba_marseille","lat":43.29234,"lon":5.40898,"is_reserved":false,"is_disabled":false,"rental_uris":{"android":"levelo://app?vid=128f68df-e6c8-471d-bf6e-3a9c347712de","ios":"levelo://app?vid=128f68df-e6c8-471d-bf6e-3a9c347712de"},"vehicle_type_id":"4","last_reported":1766132222,"current_range_meters":13600,"station_id":"ce4bh192rcd13ifvqdc0","pricing_plan_id":"cebpf4jnsgd1na2vs0mg"},{"bike_id":"29ff8d65-fbca-42c1-b12e-cd4dc579808a","system_id":"levelo_inurba_marseille","lat":43.30151,"lon":5.37407,"is_reserved":false,"is_disabled":false,"rental_uris":{"android":"levelo://app?vid=29ff8d65-fbca-42c1-b12e-cd4dc579808a","ios":"levelo://app?vid=29ff8d65-fbca-42c1-b12e-cd4dc579808a"},"vehicle_type_id":"4","last_reported":1766132222,"current_range_meters":13600,"station_id":"ce4bgs92rcd13ifvqcc0","pricing_plan_id":"cebpf4jnsgd1na2vs0mg"},{"bike_id":"e0effb5a-e8c9-4234-ae32-e89cc890b254","system_id":"levelo_inurba_marseille","lat":43.28865,"lon":5.42523,"is_reserved":false,"is_disabled":false,"rental_uris":{"android":"levelo://app?vid=e0effb5a-e8c9-4234-ae32-e89cc890b254","ios":"levelo://app?vid=e0effb5a-e8c9-4234-ae32-e89cc890b254"},"vehicle_type_id":"4","last_reported":1766132222,"current_range_meters":13600,"station_id":"st_d3b462108ojc7389ooeg","pricing_plan_id":"cebpf4jnsgd1na2vs0mg"},{"bike_id":"9059853e-cbe4-4135-a44d-2e6b73d8c077","system_id":"levelo_inurba_marseille","lat":43.29758,"lon":5.42786,"is_reserved":false,"is_disabled":false,"rental_uris":{"android":"levelo://app?vid=9059853e-cbe4-4135-a44d-2e6b73d8c077","ios":"levelo://app?vid=9059853e-cbe4-4135-a44d-2e6b73d8c077"},"vehicle_type_id":"4","last_reported":1766132222,"current_range_meters":13600,"station_id":"st_d3md5207bmas73dh9klg","pricing_plan_id":"cebpf4jnsgd1na2vs0mg"},{"bike_id":"a8bb7bbc-85dc-488d-8db9-15a263115c98","system_id":"levelo_inurba_marseille","lat":43.29024,"lon":5.39951,"is_reserved":false,"is_disabled":false,"rental_uris":{"android":"levelo://app?vid=a8bb7bbc-85dc-488d-8db9-15a263115c98","ios":"levelo://app?vid=a8bb7bbc-85dc-488d-8db9-15a263115c98"},"vehicle_type_id":"4","last_reported":1766132222,"current_range_meters":13600,"station_id":"ce4bh392rcd13ifvqdm0","pricing_plan_id":"cebpf4jnsgd1na2vs0mg"},{"bike_id":"67d835a6-21e4-471b-bcce-6e8b660c295a","system_id":"levelo_inurba_marseille","lat":43.28611,"lon":5.351078,"is_reserved":false,"is_disabled":false,"rental_uris":{"android":"levelo://app?vid=67d835a6-21e4-471b-bcce-6e8b660c295a","ios":"levelo://app?vid=67d835a6-21e4-471b-bcce-6e8b660c295a"},"vehicle_type_id":"4","last_reported":1766132222,"current_range_meters":13600,"station_id":"ce4bhch2rcd13ifvqeug","pricing_plan_id":"cebpf4jnsgd1na2vs0mg"},{"bike_id":"93bcaa21-af38-4678-bd82-764833dfb40b","system_id":"levelo_inurba_marseille","lat":43.269473,"lon":5.38643,"is_reserved":false,"is_disabled":false,"rental_uris":{"android":"levelo://app?vid=93bcaa21-af38-4678-bd82-764833dfb40b","ios":"levelo://app?vid=93bcaa21-af38-4678-bd82-764833dfb40b"},"vehicle_type_id":"4","last_reported":1766132222,"current_range_meters":13600,"station_id":"ce4bhh92rcd13ifvqfh0","pricing_plan_id":"cebpf4jnsgd1na2vs0mg"},{"bike_id":"170e4f2f-bf3b-4f7e-a951-f24111c20788","system_id":"levelo_inurba_marseille","lat":43.287835,"lon":5.400421,"is_reserved":false,"is_disabled":false,"rental_uris":{"android":"levelo://app?vid=170e4f2f-bf3b-4f7e-a951-f24111c20788","ios":"levelo://app?vid=170e4f2f-bf3b-4f7e-a951-f24111c20788"},"vehicle_type_id":"4","last_reported":1766132222,"current_range_meters":13600,"station_id":"ce4bh292rcd13ifvqdg0","pricing_plan_id":"cebpf4jnsgd1na2vs0mg"},{"bike_id":"1d7a2ca0-8161-4459-b5d5-06113213bda9","system_id":"levelo_inurba_marseille","lat":43.23191,"lon":5.35563,"is_reserved":false,"is_disabled":false,"rental_uris":{"android":"levelo://app?vid=1d7a2ca0-8161-4459-b5d5-06113213bda9","ios":"levelo://app?vid=1d7a2ca0-8161-4459-b5d5-06113213bda9"},"vehicle_type_id":"4","last_reported":1766132222,"current_range_meters":13600,"station_id":"ce4bhu92rcd13ifvqi70","pricing_plan_id":"cebpf4jnsgd1na2vs0mg"},{"bike_id":"d978346a-4426-4e3c-89b3-96a36d544e65","system_id":"levelo_inurba_marseille","lat":43.29299,"lon":5.37181,"is_reserved":false,"is_disabled":false,"rental_uris":{"android":"levelo://app?vid=d978346a-4426-4e3c-89b3-96a36d544e65","ios":"levelo://app?vid=d978346a-4426-4e3c-89b3-96a36d544e65"},"vehicle_type_id":"4","last_reported":1766132222,"current_range_meters":13600,"station_id":"ce4bgh92rcd13ifvqb40","pricing_plan_id":"cebpf4jnsgd1na2vs0mg"},{"bike_id":"98c2d8b2-75d5-4ce7-8197-392c8f860f60","system_id":"levelo_inurba_marseille","lat":43.25818,"lon":5.39433,"is_reserved":false,"is_disabled":false,"rental_uris":{"android":"levelo://app?vid=98c2d8b2-75d5-4ce7-8197-392c8f860f60","ios":"levelo://app?vid=98c2d8b2-75d5-4ce7-8197-392c8f860f60"},"vehicle_type_id":"4","last_reported":1766132222,"current_range_meters":13600,"station_id":"ce4bhip2rcd13ifvqft0","pricing_plan_id":"cebpf4jnsgd1na2vs0mg"},{"bike_id":"02cb24cc-e062-4b73-80fd-141f91a697f7","system_id":"levelo_inurba_marseille","lat":43.31562,"lon":5.37654,"is_reserved":false,"is_disabled":false,"rental_uris":{"android":"levelo://app?vid=02cb24cc-e062-4b73-80fd-141f91a697f7","ios":"levelo://app?vid=02cb24cc-e062-4b73-80fd-141f91a697f7"},"vehicle_type_id":"4","last_reported":1766132222,"current_range_meters":13600,"station_id":"","pricing_plan_id":"cebpf4jnsgd1na2vs0mg"},{"bike_id":"99cbd201-bcb4-4a82-af17-b0eb88e8e0ca","system_id":"levelo_inurba_marseille","lat":43.29541,"lon":5.3854,"is_reserved":false,"is_disabled":false,"rental_uris":{"android":"levelo://app?vid=99cbd201-bcb4-4a82-af17-b0eb88e8e0ca","ios":"levelo://app?vid=99cbd201-bcb4-4a82-af17-b0eb88e8e0ca"},"vehicle_type_id":"4","last_reported":1766132222,"current_range_meters":13600,"station_id":"ce4bgih2rcd13ifvqba0","pricing_plan_id":"cebpf4jnsgd1na2vs0mg"},{"bike_id":"fcae12e9-dde1-430e-95a7-f5567d679aa5","system_id":"levelo_inurba_marseille","lat":43.29246,"lon":5.38438,"is_reserved":false,"is_disabled":true,"rental_uris":{"android":"levelo://app?vid=fcae12e9-dde1-430e-95a7-f5567d679aa5","ios":"levelo://app?vid=fcae12e9-dde1-430e-95a7-f5567d679aa5"},"vehicle_type_id":"4","last_reported":1766132222,"current_range_meters":14000,"station_id":"ce4bh692rcd13ifvqea0","pricing_plan_id":"cebpf4jnsgd1na2vs0mg"},{"bike_id":"f1fe0e05-fe90-40dc-bf1c-51498d3a38bb","system_id":"levelo_inurba_marseille","lat":43.27375,"lon":5.3627,"is_reserved":false,"is_disabled":false,"rental_uris":{"android":"levelo://app?vid=f1fe0e05-fe90-40dc-bf1c-51498d3a38bb","ios":"levelo://app?vid=f1fe0e05-fe90-40dc-bf1c-51498d3a38bb"},"vehicle_type_id":"4","last_reported":1766132222,"current_range_meters":14000,"station_id":"ce4bhbh2rcd13ifvqeo0","pricing_plan_id":"cebpf4jnsgd1na2vs0mg"},{"bike_id":"61ca951e-8592-4e08-979a-2290ac3fe5c2","system_id":"levelo_inurba_marseille","lat":43.25001,"lon":5.38951,"is_reserved":false,"is_disabled":false,"rental_uris":{"android":"levelo://app?vid=61ca951e-8592-4e08-979a-2290ac3fe5c2","ios":"levelo://app?vid=61ca951e-8592-4e08-979a-2290ac3fe5c2"},"vehicle_type_id":"4","last_reported":1766132222,"current_range_meters":14000,"station_id":"ce4bhgp2rcd13ifvqfd0","pricing_plan_id":"cebpf4jnsgd1na2vs0mg"},{"bike_id":"c38b2599-febe-43e2-a480-dbccbb14f267","system_id":"levelo_inurba_marseille","lat":43.29602,"lon":5.381023,"is_reserved":false,"is_disabled":false,"rental_uris":{"android":"levelo://app?vid=c38b2599-febe-43e2-a480-dbccbb14f267","ios":"levelo://app?vid=c38b2599-febe-43e2-a480-dbccbb14f267"},"vehicle_type_id":"4","last_reported":1766132222,"current_range_meters":14000,"station_id":"ce4bgl12rcd13ifvqbo0","pricing_plan_id":"cebpf4jnsgd1na2vs0mg"},{"bike_id":"e1174ac3-8072-4001-8ce5-6d8228097e59","system_id":"levelo_inurba_marseille","lat":43.263702,"lon":5.410692,"is_reserved":false,"is_disabled":false,"rental_uris":{"android":"levelo://app?vid=e1174ac3-8072-4001-8ce5-6d8228097e59","ios":"levelo://app?vid=e1174ac3-8072-4001-8ce5-6d8228097e59"},"vehicle_type_id":"4","last_reported":1766132222,"current_range_meters":14000,"station_id":"","pricing_plan_id":"cebpf4jnsgd1na2vs0mg"},{"bike_id":"d67904e3-d432-4bb6-9c59-13ac7cead46a","system_id":"levelo_inurba_marseille","lat":43.32345,"lon":5.36725,"is_reserved":false,"is_disabled":false,"rental_uris":{"android":"levelo://app?vid=d67904e3-d432-4bb6-9c59-13ac7cead46a","ios":"levelo://app?vid=d67904e3-d432-4bb6-9c59-13ac7cead46a"},"vehicle_type_id":"4","last_reported":1766132222,"current_range_meters":14000,"station_id":"ce4bhsh2rcd13ifvqi2g","pricing_plan_id":"cebpf4jnsgd1na2vs0mg"},{"bike_id":"90054a0f-7707-4d38-a2c3-d622d9809e49","system_id":"levelo_inurba_marseille","lat":43.297547,"lon":5.427835,"is_reserved":false,"is_disabled":false,"rental_uris":{"android":"levelo://app?vid=90054a0f-7707-4d38-a2c3-d622d9809e49","ios":"levelo://app?vid=90054a0f-7707-4d38-a2c3-d622d9809e49"},"vehicle_type_id":"4","last_reported":1766132222,"current_range_meters":14000,"station_id":"st_d3md5207bmas73dh9klg","pricing_plan_id":"cebpf4jnsgd1na2vs0mg"},{"bike_id":"6ec9a6be-eed9-4adb-a34f-9a64c85ea37b","system_id":"levelo_inurba_marseille","lat":43.30631,"lon":5.37588,"is_reserved":false,"is_disabled":false,"rental_uris":{"android":"levelo://app?vid=6ec9a6be-eed9-4adb-a34f-9a64c85ea37b","ios":"levelo://app?vid=6ec9a6be-eed9-4adb-a34f-9a64c85ea37b"},"vehicle_type_id":"4","last_reported":1766132222,"current_range_meters":14000,"station_id":"","pricing_plan_id":"cebpf4jnsgd1na2vs0mg"},{"bike_id":"d0402a20-daa7-4886-b60c-4cc9bf804b71","system_id":"levelo_inurba_marseille","lat":43.30635,"lon":5.40093,"is_reserved":false,"is_disabled":false,"rental_uris":{"android":"levelo://app?vid=d0402a20-daa7-4886-b60c-4cc9bf804b71","ios":"levelo://app?vid=d0402a20-daa7-4886-b60c-4cc9bf804b71"},"vehicle_type_id":"4","last_reported":1766132222,"current_range_meters":14000,"station_id":"ce4bh112rcd13ifvqda0","pricing_plan_id":"cebpf4jnsgd1na2vs0mg"},{"bike_id":"d3fcd822-177c-4652-bd1b-c4847def5cc0","system_id":"levelo_inurba_marseille","lat":43.30657,"lon":5.4006,"is_reserved":false,"is_disabled":false,"rental_uris":{"android":"levelo://app?vid=d3fcd822-177c-4652-bd1b-c4847def5cc0","ios":"levelo://app?vid=d3fcd822-177c-4652-bd1b-c4847def5cc0"},"vehicle_type_id":"4","last_reported":1766132222,"current_range_meters":14400,"station_id":"ce4bh112rcd13ifvqda0","pricing_plan_id":"cebpf4jnsgd1na2vs0mg"},{"bike_id":"41dde568-f7f7-4633-be20-51b0af4553ba","system_id":"levelo_inurba_marseille","lat":43.27915,"lon":5.39577,"is_reserved":false,"is_disabled":false,"rental_uris":{"android":"levelo://app?vid=41dde568-f7f7-4633-be20-51b0af4553ba","ios":"levelo://app?vid=41dde568-f7f7-4633-be20-51b0af4553ba"},"vehicle_type_id":"4","last_reported":1766132222,"current_range_meters":14400,"station_id":"ce4bhf92rcd13ifvqf40","pricing_plan_id":"cebpf4jnsgd1na2vs0mg"},{"bike_id":"340f8d30-ede3-427a-836c-03a47321f603","system_id":"levelo_inurba_marseille","lat":43.26237,"lon":5.40439,"is_reserved":false,"is_disabled":false,"rental_uris":{"android":"levelo://app?vid=340f8d30-ede3-427a-836c-03a47321f603","ios":"levelo://app?vid=340f8d30-ede3-427a-836c-03a47321f603"},"vehicle_type_id":"4","last_reported":1766132222,"current_range_meters":14400,"station_id":"ce4bhmh2rcd13ifvqgmg","pricing_plan_id":"cebpf4jnsgd1na2vs0mg"},{"bike_id":"00a29bb1-88ca-440d-9219-07d673c689ed","system_id":"levelo_inurba_marseille","lat":43.29837,"lon":5.36335,"is_reserved":false,"is_disabled":false,"rental_uris":{"android":"levelo://app?vid=00a29bb1-88ca-440d-9219-07d673c689ed","ios":"levelo://app?vid=00a29bb1-88ca-440d-9219-07d673c689ed"},"vehicle_type_id":"4","last_reported":1766132222,"current_range_meters":14400,"station_id":"ce4bgpp2rcd13ifvqc3g","pricing_plan_id":"cebpf4jnsgd1na2vs0mg"},{"bike_id":"0213bbfa-8658-49a9-a195-f9732f38949c","system_id":"levelo_inurba_marseille","lat":43.30544,"lon":5.36555,"is_reserved":false,"is_disabled":false,"rental_uris":{"android":"levelo://app?vid=0213bbfa-8658-49a9-a195-f9732f38949c","ios":"levelo://app?vid=0213bbfa-8658-49a9-a195-f9732f38949c"},"vehicle_type_id":"4","last_reported":1766132222,"current_range_meters":14400,"station_id":"ce4bgs12rcd13ifvqcag","pricing_plan_id":"cebpf4jnsgd1na2vs0mg"},{"bike_id":"67486f1b-a40b-4e91-8dc3-2d661fa8d1bb","system_id":"levelo_inurba_marseille","lat":43.29226,"lon":5.36072,"is_reserved":false,"is_disabled":false,"rental_uris":{"android":"levelo://app?vid=67486f1b-a40b-4e91-8dc3-2d661fa8d1bb","ios":"levelo://app?vid=67486f1b-a40b-4e91-8dc3-2d661fa8d1bb"},"vehicle_type_id":"4","last_reported":1766132222,"current_range_meters":14400,"station_id":"ce4bhbh2rcd13ifvqeqg","pricing_plan_id":"cebpf4jnsgd1na2vs0mg"},{"bike_id":"2804a5d3-faa8-4e3b-a458-ce91cd4919af","system_id":"levelo_inurba_marseille","lat":43.29219,"lon":5.36074,"is_reserved":false,"is_disabled":false,"rental_uris":{"android":"levelo://app?vid=2804a5d3-faa8-4e3b-a458-ce91cd4919af","ios":"levelo://app?vid=2804a5d3-faa8-4e3b-a458-ce91cd4919af"},"vehicle_type_id":"4","last_reported":1766132222,"current_range_meters":14400,"station_id":"ce4bhbh2rcd13ifvqeqg","pricing_plan_id":"cebpf4jnsgd1na2vs0mg"},{"bike_id":"353191d5-c85e-4d2b-8a88-8af8c037e499","system_id":"levelo_inurba_marseille","lat":43.30161,"lon":5.37401,"is_reserved":false,"is_disabled":false,"rental_uris":{"android":"levelo://app?vid=353191d5-c85e-4d2b-8a88-8af8c037e499","ios":"levelo://app?vid=353191d5-c85e-4d2b-8a88-8af8c037e499"},"vehicle_type_id":"4","last_reported":1766132222,"current_range_meters":14400,"station_id":"ce4bgs92rcd13ifvqcc0","pricing_plan_id":"cebpf4jnsgd1na2vs0mg"},{"bike_id":"0e831b8a-ba65-4401-84c3-afd3e8869534","system_id":"levelo_inurba_marseille","lat":43.29607,"lon":5.37152,"is_reserved":false,"is_disabled":false,"rental_uris":{"android":"levelo://app?vid=0e831b8a-ba65-4401-84c3-afd3e8869534","ios":"levelo://app?vid=0e831b8a-ba65-4401-84c3-afd3e8869534"},"vehicle_type_id":"4","last_reported":1766132222,"current_range_meters":14400,"station_id":"ce4bgnh2rcd13ifvqc0g","pricing_plan_id":"cebpf4jnsgd1na2vs0mg"},{"bike_id":"b3f21da2-d024-465d-b144-03ce21fdac23","system_id":"levelo_inurba_marseille","lat":43.33722,"lon":5.39175,"is_reserved":false,"is_disabled":false,"rental_uris":{"android":"levelo://app?vid=b3f21da2-d024-465d-b144-03ce21fdac23","ios":"levelo://app?vid=b3f21da2-d024-465d-b144-03ce21fdac23"},"vehicle_type_id":"4","last_reported":1766132222,"current_range_meters":14400,"station_id":"ce4bhr92rcd13ifvqhsg","pricing_plan_id":"cebpf4jnsgd1na2vs0mg"},{"bike_id":"db6b0cc7-b9db-4628-83ce-019dc0f883ff","system_id":"levelo_inurba_marseille","lat":43.26566,"lon":5.39001,"is_reserved":false,"is_disabled":false,"rental_uris":{"android":"levelo://app?vid=db6b0cc7-b9db-4628-83ce-019dc0f883ff","ios":"levelo://app?vid=db6b0cc7-b9db-4628-83ce-019dc0f883ff"},"vehicle_type_id":"4","last_reported":1766132222,"current_range_meters":14800,"station_id":"ce4bhe12rcd13ifvqf30","pricing_plan_id":"cebpf4jnsgd1na2vs0mg"},{"bike_id":"cde5a581-29ce-4016-b63d-e5b255981a8b","system_id":"levelo_inurba_marseille","lat":43.2919,"lon":5.39312,"is_reserved":false,"is_disabled":false,"rental_uris":{"android":"levelo://app?vid=cde5a581-29ce-4016-b63d-e5b255981a8b","ios":"levelo://app?vid=cde5a581-29ce-4016-b63d-e5b255981a8b"},"vehicle_type_id":"4","last_reported":1766132222,"current_range_meters":14800,"station_id":"ce4bh192rcd13ifvqdd0","pricing_plan_id":"cebpf4jnsgd1na2vs0mg"},{"bike_id":"207776d7-b88e-48a6-b74f-2b1aae5e54c7","system_id":"levelo_inurba_marseille","lat":43.268961,"lon":5.387159,"is_reserved":false,"is_disabled":false,"rental_uris":{"android":"levelo://app?vid=207776d7-b88e-48a6-b74f-2b1aae5e54c7","ios":"levelo://app?vid=207776d7-b88e-48a6-b74f-2b1aae5e54c7"},"vehicle_type_id":"4","last_reported":1766132222,"current_range_meters":14800,"station_id":"","pricing_plan_id":"cebpf4jnsgd1na2vs0mg"},{"bike_id":"8ddf5f0b-8638-4227-b0ee-efe27c023df6","system_id":"levelo_inurba_marseille","lat":43.308014,"lon":5.381433,"is_reserved":false,"is_disabled":false,"rental_uris":{"android":"levelo://app?vid=8ddf5f0b-8638-4227-b0ee-efe27c023df6","ios":"levelo://app?vid=8ddf5f0b-8638-4227-b0ee-efe27c023df6"},"vehicle_type_id":"4","last_reported":1766132222,"current_range_meters":14800,"station_id":"ce4bgjp2rcd13ifvqbh0","pricing_plan_id":"cebpf4jnsgd1na2vs0mg"},{"bike_id":"657677ff-bd0f-45b9-a985-0cee09b5fde2","system_id":"levelo_inurba_marseille","lat":43.3172,"lon":5.43699,"is_reserved":false,"is_disabled":false,"rental_uris":{"android":"levelo://app?vid=657677ff-bd0f-45b9-a985-0cee09b5fde2","ios":"levelo://app?vid=657677ff-bd0f-45b9-a985-0cee09b5fde2"},"vehicle_type_id":"4","last_reported":1766132222,"current_range_meters":14800,"station_id":"ce4bhp92rcd13ifvqhcg","pricing_plan_id":"cebpf4jnsgd1na2vs0mg"},{"bike_id":"342831ac-e927-49d6-8b43-22fa72e5bef8","system_id":"levelo_inurba_marseille","lat":43.28033,"lon":5.38735,"is_reserved":false,"is_disabled":false,"rental_uris":{"android":"levelo://app?vid=342831ac-e927-49d6-8b43-22fa72e5bef8","ios":"levelo://app?vid=342831ac-e927-49d6-8b43-22fa72e5bef8"},"vehicle_type_id":"4","last_reported":1766132222,"current_range_meters":14800,"station_id":"","pricing_plan_id":"cebpf4jnsgd1na2vs0mg"},{"bike_id":"17e6a6d7-a83e-4be6-ac4f-a147c0b56fba","system_id":"levelo_inurba_marseille","lat":43.237843,"lon":5.366447,"is_reserved":false,"is_disabled":false,"rental_uris":{"android":"levelo://app?vid=17e6a6d7-a83e-4be6-ac4f-a147c0b56fba","ios":"levelo://app?vid=17e6a6d7-a83e-4be6-ac4f-a147c0b56fba"},"vehicle_type_id":"4","last_reported":1766132222,"current_range_meters":14800,"station_id":"st_d3nk18o9ro0c73en2l3g","pricing_plan_id":"cebpf4jnsgd1na2vs0mg"},{"bike_id":"bb9e8009-1b63-46b9-8f33-b6e7b8e01577","system_id":"levelo_inurba_marseille","lat":43.27498,"lon":5.42447,"is_reserved":false,"is_disabled":false,"rental_uris":{"android":"levelo://app?vid=bb9e8009-1b63-46b9-8f33-b6e7b8e01577","ios":"levelo://app?vid=bb9e8009-1b63-46b9-8f33-b6e7b8e01577"},"vehicle_type_id":"4","last_reported":1766132222,"current_range_meters":14800,"station_id":"ce4bhn92rcd13ifvqgrg","pricing_plan_id":"cebpf4jnsgd1na2vs0mg"},{"bike_id":"539a15a5-ea1f-433a-b280-748c300e9855","system_id":"levelo_inurba_marseille","lat":43.2317,"lon":5.39964,"is_reserved":false,"is_disabled":false,"rental_uris":{"android":"levelo://app?vid=539a15a5-ea1f-433a-b280-748c300e9855","ios":"levelo://app?vid=539a15a5-ea1f-433a-b280-748c300e9855"},"vehicle_type_id":"4","last_reported":1766132222,"current_range_meters":14800,"station_id":"ce4bhn12rcd13ifvqgqg","pricing_plan_id":"cebpf4jnsgd1na2vs0mg"},{"bike_id":"f1c6ef30-df40-4531-b632-19b3b8de3f93","system_id":"levelo_inurba_marseille","lat":43.337444,"lon":5.374475,"is_reserved":false,"is_disabled":false,"rental_uris":{"android":"levelo://app?vid=f1c6ef30-df40-4531-b632-19b3b8de3f93","ios":"levelo://app?vid=f1c6ef30-df40-4531-b632-19b3b8de3f93"},"vehicle_type_id":"4","last_reported":1766132222,"current_range_meters":15200,"station_id":"","pricing_plan_id":"cebpf4jnsgd1na2vs0mg"},{"bike_id":"3632f2ab-b221-4863-b774-2c55ea753df5","system_id":"levelo_inurba_marseille","lat":43.29808,"lon":5.38054,"is_reserved":false,"is_disabled":false,"rental_uris":{"android":"levelo://app?vid=3632f2ab-b221-4863-b774-2c55ea753df5","ios":"levelo://app?vid=3632f2ab-b221-4863-b774-2c55ea753df5"},"vehicle_type_id":"4","last_reported":1766132222,"current_range_meters":15200,"station_id":"","pricing_plan_id":"cebpf4jnsgd1na2vs0mg"},{"bike_id":"7d04a59d-052f-40a7-8094-4edf07c71710","system_id":"levelo_inurba_marseille","lat":43.28617,"lon":5.35113,"is_reserved":false,"is_disabled":false,"rental_uris":{"android":"levelo://app?vid=7d04a59d-052f-40a7-8094-4edf07c71710","ios":"levelo://app?vid=7d04a59d-052f-40a7-8094-4edf07c71710"},"vehicle_type_id":"4","last_reported":1766132222,"current_range_meters":15200,"station_id":"ce4bhch2rcd13ifvqeug","pricing_plan_id":"cebpf4jnsgd1na2vs0mg"},{"bike_id":"97ead070-9949-4124-b67c-52777e5101c0","system_id":"levelo_inurba_marseille","lat":43.30126,"lon":5.37436,"is_reserved":false,"is_disabled":false,"rental_uris":{"android":"levelo://app?vid=97ead070-9949-4124-b67c-52777e5101c0","ios":"levelo://app?vid=97ead070-9949-4124-b67c-52777e5101c0"},"vehicle_type_id":"4","last_reported":1766132222,"current_range_meters":15200,"station_id":"ce4bgs92rcd13ifvqcc0","pricing_plan_id":"cebpf4jnsgd1na2vs0mg"},{"bike_id":"bb67b255-5e37-444f-b7a3-316dd67e2430","system_id":"levelo_inurba_marseille","lat":43.29177,"lon":5.35789,"is_reserved":false,"is_disabled":false,"rental_uris":{"android":"levelo://app?vid=bb67b255-5e37-444f-b7a3-316dd67e2430","ios":"levelo://app?vid=bb67b255-5e37-444f-b7a3-316dd67e2430"},"vehicle_type_id":"4","last_reported":1766132222,"current_range_meters":15200,"station_id":"ce4bgh92rcd13ifvqb40","pricing_plan_id":"cebpf4jnsgd1na2vs0mg"},{"bike_id":"9ebbcfcf-d9e3-461c-b46c-9767237761a2","system_id":"levelo_inurba_marseille","lat":43.24544,"lon":5.39517,"is_reserved":false,"is_disabled":false,"rental_uris":{"android":"levelo://app?vid=9ebbcfcf-d9e3-461c-b46c-9767237761a2","ios":"levelo://app?vid=9ebbcfcf-d9e3-461c-b46c-9767237761a2"},"vehicle_type_id":"4","last_reported":1766132222,"current_range_meters":15200,"station_id":"ce4bhlp2rcd13ifvqgjg","pricing_plan_id":"cebpf4jnsgd1na2vs0mg"},{"bike_id":"5cfdf108-64c2-4b38-8628-9d012576cd8b","system_id":"levelo_inurba_marseille","lat":43.335405,"lon":5.374705,"is_reserved":false,"is_disabled":false,"rental_uris":{"android":"levelo://app?vid=5cfdf108-64c2-4b38-8628-9d012576cd8b","ios":"levelo://app?vid=5cfdf108-64c2-4b38-8628-9d012576cd8b"},"vehicle_type_id":"4","last_reported":1766132222,"current_range_meters":15200,"station_id":"st_d46tts09ee8s73dlu43g","pricing_plan_id":"cebpf4jnsgd1na2vs0mg"},{"bike_id":"6c7cdeb8-b2c3-4427-b73a-735e42079b93","system_id":"levelo_inurba_marseille","lat":43.26489,"lon":5.39543,"is_reserved":false,"is_disabled":false,"rental_uris":{"android":"levelo://app?vid=6c7cdeb8-b2c3-4427-b73a-735e42079b93","ios":"levelo://app?vid=6c7cdeb8-b2c3-4427-b73a-735e42079b93"},"vehicle_type_id":"4","last_reported":1766132222,"current_range_meters":15200,"station_id":"ce4bhi12rcd13ifvqfq0","pricing_plan_id":"cebpf4jnsgd1na2vs0mg"},{"bike_id":"449de3f7-7300-4f32-99ec-8d8d0b74147a","system_id":"levelo_inurba_marseille","lat":43.24989,"lon":5.38944,"is_reserved":false,"is_disabled":false,"rental_uris":{"android":"levelo://app?vid=449de3f7-7300-4f32-99ec-8d8d0b74147a","ios":"levelo://app?vid=449de3f7-7300-4f32-99ec-8d8d0b74147a"},"vehicle_type_id":"4","last_reported":1766132222,"current_range_meters":15200,"station_id":"ce4bhgp2rcd13ifvqfd0","pricing_plan_id":"cebpf4jnsgd1na2vs0mg"},{"bike_id":"320f03a8-c4c7-4d1f-be9f-3d7bc7f5d6b3","system_id":"levelo_inurba_marseille","lat":43.3112,"lon":5.37771,"is_reserved":false,"is_disabled":false,"rental_uris":{"android":"levelo://app?vid=320f03a8-c4c7-4d1f-be9f-3d7bc7f5d6b3","ios":"levelo://app?vid=320f03a8-c4c7-4d1f-be9f-3d7bc7f5d6b3"},"vehicle_type_id":"4","last_reported":1766132222,"current_range_meters":16000,"station_id":"ce4bgt92rcd13ifvqcg0","pricing_plan_id":"cebpf4jnsgd1na2vs0mg"},{"bike_id":"fcd75001-1344-42ec-a013-2f4c6240ace8","system_id":"levelo_inurba_marseille","lat":43.29748,"lon":5.38651,"is_reserved":false,"is_disabled":false,"rental_uris":{"android":"levelo://app?vid=fcd75001-1344-42ec-a013-2f4c6240ace8","ios":"levelo://app?vid=fcd75001-1344-42ec-a013-2f4c6240ace8"},"vehicle_type_id":"4","last_reported":1766132222,"current_range_meters":16000,"station_id":"","pricing_plan_id":"cebpf4jnsgd1na2vs0mg"},{"bike_id":"99ad97c1-5a83-4b1c-9cf1-08492f7d7210","system_id":"levelo_inurba_marseille","lat":43.29249,"lon":5.409,"is_reserved":false,"is_disabled":false,"rental_uris":{"android":"levelo://app?vid=99ad97c1-5a83-4b1c-9cf1-08492f7d7210","ios":"levelo://app?vid=99ad97c1-5a83-4b1c-9cf1-08492f7d7210"},"vehicle_type_id":"4","last_reported":1766132222,"current_range_meters":16000,"station_id":"ce4bh192rcd13ifvqdc0","pricing_plan_id":"cebpf4jnsgd1na2vs0mg"},{"bike_id":"bcb638ec-1f7a-45bb-913f-62a7a0a453a1","system_id":"levelo_inurba_marseille","lat":43.29823,"lon":5.38584,"is_reserved":false,"is_disabled":false,"rental_uris":{"android":"levelo://app?vid=bcb638ec-1f7a-45bb-913f-62a7a0a453a1","ios":"levelo://app?vid=bcb638ec-1f7a-45bb-913f-62a7a0a453a1"},"vehicle_type_id":"4","last_reported":1766132222,"current_range_meters":16000,"station_id":"","pricing_plan_id":"cebpf4jnsgd1na2vs0mg"},{"bike_id":"5dc013a0-6d5f-425a-8554-3da4042bc007","system_id":"levelo_inurba_marseille","lat":43.229289,"lon":5.353817,"is_reserved":false,"is_disabled":false,"rental_uris":{"android":"levelo://app?vid=5dc013a0-6d5f-425a-8554-3da4042bc007","ios":"levelo://app?vid=5dc013a0-6d5f-425a-8554-3da4042bc007"},