{"last_updated":1741151409,"ttl":60,"version":"2.2","data":{"bikes":[{"bike_id":"511d8bfb-54fb-4e3b-8b58-cd0179111dc0","system_id":"levelo_inurba_marseille","lat":43.25239,"lon":5.40354,"is_reserved":false,"is_disabled":true,"rental_uris":{"android":"levelo://app?vid=511d8bfb-54fb-4e3b-8b58-cd0179111dc0","ios":"levelo://app?vid=511d8bfb-54fb-4e3b-8b58-cd0179111dc0"},"vehicle_type_id":"4","last_reported":1741151410,"current_range_meters":0,"station_id":"","pricing_plan_id":"cebpf4jnsgd1na2vs0mg"},{"bike_id":"77e2384d-b561-4506-a153-6a0942910900","system_id":"levelo_inurba_marseille","lat":43.273797,"lon":5.362553,"is_reserved":false,"is_disabled":true,"rental_uris":{"android":"levelo://app?vid=77e2384d-b561-4506-a153-6a0942910900","ios":"levelo://app?vid=77e2384d-b561-4506-a153-6a0942910900"},"vehicle_type_id":"4","last_reported":1741151410,"current_range_meters":0,"station_id":"ce4bhbh2rcd13ifvqeo0","pricing_plan_id":"cebpf4jnsgd1na2vs0mg"},{"bike_id":"4ab79c3e-1454-494e-9705-90e7e8bb6c85","system_id":"levelo_inurba_marseille","lat":43.25035,"lon":5.3894,"is_reserved":false,"is_disabled":true,"rental_uris":{"android":"levelo://app?vid=4ab79c3e-1454-494e-9705-90e7e8bb6c85","ios":"levelo://app?vid=4ab79c3e-1454-494e-9705-90e7e8bb6c85"},"vehicle_type_id":"4","last_reported":1741151410,"current_range_meters":0,"station_id":"ce4bhgp2rcd13ifvqfd0","pricing_plan_id":"cebpf4jnsgd1na2vs0mg"},{"bike_id":"219d62ce-7b93-4c64-8d23-3e9d98cebec8","system_id":"levelo_inurba_marseille","lat":43.23189,"lon":5.3998,"is_reserved":false,"is_disabled":true,"rental_uris":{"android":"levelo://app?vid=219d62ce-7b93-4c64-8d23-3e9d98cebec8","ios":"levelo://app?vid=219d62ce-7b93-4c64-8d23-3e9d98cebec8"},"vehicle_type_id":"4","last_reported":1741151410,"current_range_meters":1200,"station_id":"ce4bhn12rcd13ifvqgqg","pricing_plan_id":"cebpf4jnsgd1na2vs0mg"},{"bike_id":"e7ec1ac1-2323-47bd-a2b5-7cd3afb282cf","system_id":"levelo_inurba_marseille","lat":43.26924,"lon":5.36661,"is_reserved":false,"is_disabled":true,"rental_uris":{"android":"levelo://app?vid=e7ec1ac1-2323-47bd-a2b5-7cd3afb282cf","ios":"levelo://app?vid=e7ec1ac1-2323-47bd-a2b5-7cd3afb282cf"},"vehicle_type_id":"4","last_reported":1741151410,"current_range_meters":2000,"station_id":"","pricing_plan_id":"cebpf4jnsgd1na2vs0mg"},{"bike_id":"e432fcbc-da49-4827-bc18-4179d60243bb","system_id":"levelo_inurba_marseille","lat":43.31269,"lon":5.36847,"is_reserved":false,"is_disabled":false,"rental_uris":{"android":"levelo://app?vid=e432fcbc-da49-4827-bc18-4179d60243bb","ios":"levelo://app?vid=e432fcbc-da49-4827-bc18-4179d60243bb"},"vehicle_type_id":"4","last_reported":1741151410,"current_range_meters":2800,"station_id":"ce4bgl92rcd13ifvqbq0","pricing_plan_id":"cebpf4jnsgd1na2vs0mg"},{"bike_id":"3fdc9a7e-2885-4db2-b302-c77e590b4771","system_id":"levelo_inurba_marseille","lat":43.31029,"lon":5.37564,"is_reserved":false,"is_disabled":false,"rental_uris":{"android":"levelo://app?vid=3fdc9a7e-2885-4db2-b302-c77e590b4771","ios":"levelo://app?vid=3fdc9a7e-2885-4db2-b302-c77e590b4771"},"vehicle_type_id":"4","last_reported":1741151410,"current_range_meters":3200,"station_id":"","pricing_plan_id":"cebpf4jnsgd1na2vs0mg"},{"bike_id":"e65082d6-5529-479d-9979-0976e546b0b6","system_id":"levelo_inurba_marseille","lat":43.255756,"lon":5.382334,"is_reserved":false,"is_disabled":false,"rental_uris":{"android":"levelo://app?vid=e65082d6-5529-479d-9979-0976e546b0b6","ios":"levelo://app?vid=e65082d6-5529-479d-9979-0976e546b0b6"},"vehicle_type_id":"4","last_reported":1741151410,"current_range_meters":3200,"station_id":"ce4bhih2rcd13ifvqfs0","pricing_plan_id":"cebpf4jnsgd1na2vs0mg"},{"bike_id":"771552a7-ab8d-491e-9bd8-ee533f6ca525","system_id":"levelo_inurba_marseille","lat":43.231507,"lon":5.437238,"is_reserved":false,"is_disabled":false,"rental_uris":{"android":"levelo://app?vid=771552a7-ab8d-491e-9bd8-ee533f6ca525","ios":"levelo://app?vid=771552a7-ab8d-491e-9bd8-ee533f6ca525"},"vehicle_type_id":"4","last_reported":1741151410,"current_range_meters":3200,"station_id":"ce4bhmp2rcd13ifvqgog","pricing_plan_id":"cebpf4jnsgd1na2vs0mg"},{"bike_id":"e63e5fb2-1553-47f6-9ba9-b9fe49bde62f","system_id":"levelo_inurba_marseille","lat":43.27993,"lon":5.38763,"is_reserved":false,"is_disabled":false,"rental_uris":{"android":"levelo://app?vid=e63e5fb2-1553-47f6-9ba9-b9fe49bde62f","ios":"levelo://app?vid=e63e5fb2-1553-47f6-9ba9-b9fe49bde62f"},"vehicle_type_id":"4","last_reported":1741151410,"current_range_meters":3600,"station_id":"ce4bhg12rcd13ifvqf80","pricing_plan_id":"cebpf4jnsgd1na2vs0mg"},{"bike_id":"81837559-78cb-4a14-a847-89a84b64c16b","system_id":"levelo_inurba_marseille","lat":43.250114,"lon":5.389165,"is_reserved":false,"is_disabled":false,"rental_uris":{"android":"levelo://app?vid=81837559-78cb-4a14-a847-89a84b64c16b","ios":"levelo://app?vid=81837559-78cb-4a14-a847-89a84b64c16b"},"vehicle_type_id":"4","last_reported":1741151410,"current_range_meters":3600,"station_id":"ce4bhgp2rcd13ifvqfd0","pricing_plan_id":"cebpf4jnsgd1na2vs0mg"},{"bike_id":"31701141-a4c2-4c66-89b3-ee2824e625e0","system_id":"levelo_inurba_marseille","lat":43.25109,"lon":5.40339,"is_reserved":false,"is_disabled":false,"rental_uris":{"android":"levelo://app?vid=31701141-a4c2-4c66-89b3-ee2824e625e0","ios":"levelo://app?vid=31701141-a4c2-4c66-89b3-ee2824e625e0"},"vehicle_type_id":"4","last_reported":1741151410,"current_range_meters":3600,"station_id":"ce4bhlh2rcd13ifvqgig","pricing_plan_id":"cebpf4jnsgd1na2vs0mg"},{"bike_id":"9e6dbc2a-80eb-443b-bb2c-7b14a1ecc330","system_id":"levelo_inurba_marseille","lat":43.26787,"lon":5.40262,"is_reserved":false,"is_disabled":false,"rental_uris":{"android":"levelo://app?vid=9e6dbc2a-80eb-443b-bb2c-7b14a1ecc330","ios":"levelo://app?vid=9e6dbc2a-80eb-443b-bb2c-7b14a1ecc330"},"vehicle_type_id":"4","last_reported":1741151410,"current_range_meters":3600,"station_id":"ce501612rcd8frsf0b60","pricing_plan_id":"cebpf4jnsgd1na2vs0mg"},{"bike_id":"109f7ce4-d3ac-4f8b-b2e6-ef7dbcf340d4","system_id":"levelo_inurba_marseille","lat":43.27502,"lon":5.43503,"is_reserved":false,"is_disabled":false,"rental_uris":{"android":"levelo://app?vid=109f7ce4-d3ac-4f8b-b2e6-ef7dbcf340d4","ios":"levelo://app?vid=109f7ce4-d3ac-4f8b-b2e6-ef7dbcf340d4"},"vehicle_type_id":"4","last_reported":1741151410,"current_range_meters":4000,"station_id":"","pricing_plan_id":"cebpf4jnsgd1na2vs0mg"},{"bike_id":"da23dc2e-6a18-4b38-997c-b609378f01e7","system_id":"levelo_inurba_marseille","lat":43.31118,"lon":5.37804,"is_reserved":false,"is_disabled":false,"rental_uris":{"android":"levelo://app?vid=da23dc2e-6a18-4b38-997c-b609378f01e7","ios":"levelo://app?vid=da23dc2e-6a18-4b38-997c-b609378f01e7"},"vehicle_type_id":"4","last_reported":1741151410,"current_range_meters":4000,"station_id":"ce4bgt92rcd13ifvqcg0","pricing_plan_id":"cebpf4jnsgd1na2vs0mg"},{"bike_id":"ce8ef3d2-07e3-4512-8813-bcde53a01429","system_id":"levelo_inurba_marseille","lat":43.241624,"lon":5.363978,"is_reserved":false,"is_disabled":false,"rental_uris":{"android":"levelo://app?vid=ce8ef3d2-07e3-4512-8813-bcde53a01429","ios":"levelo://app?vid=ce8ef3d2-07e3-4512-8813-bcde53a01429"},"vehicle_type_id":"4","last_reported":1741151410,"current_range_meters":4000,"station_id":"cpo36qri1sfpv3e86is0","pricing_plan_id":"cebpf4jnsgd1na2vs0mg"},{"bike_id":"79687e17-5ece-4f9c-9252-898196d1c2cb","system_id":"levelo_inurba_marseille","lat":43.29892,"lon":5.38506,"is_reserved":false,"is_disabled":false,"rental_uris":{"android":"levelo://app?vid=79687e17-5ece-4f9c-9252-898196d1c2cb","ios":"levelo://app?vid=79687e17-5ece-4f9c-9252-898196d1c2cb"},"vehicle_type_id":"4","last_reported":1741151410,"current_range_meters":4400,"station_id":"","pricing_plan_id":"cebpf4jnsgd1na2vs0mg"},{"bike_id":"13c44e5e-5463-4505-ba1b-c0544af7d8ca","system_id":"levelo_inurba_marseille","lat":43.23195,"lon":5.35542,"is_reserved":false,"is_disabled":false,"rental_uris":{"android":"levelo://app?vid=13c44e5e-5463-4505-ba1b-c0544af7d8ca","ios":"levelo://app?vid=13c44e5e-5463-4505-ba1b-c0544af7d8ca"},"vehicle_type_id":"4","last_reported":1741151410,"current_range_meters":4400,"station_id":"ce4bhu92rcd13ifvqi70","pricing_plan_id":"cebpf4jnsgd1na2vs0mg"},{"bike_id":"8eb0846c-9083-4b2c-8112-d44349d1cea4","system_id":"levelo_inurba_marseille","lat":43.303216,"lon":5.404394,"is_reserved":false,"is_disabled":false,"rental_uris":{"android":"levelo://app?vid=8eb0846c-9083-4b2c-8112-d44349d1cea4","ios":"levelo://app?vid=8eb0846c-9083-4b2c-8112-d44349d1cea4"},"vehicle_type_id":"4","last_reported":1741151410,"current_range_meters":4800,"station_id":"ce4bh012rcd13ifvqd10","pricing_plan_id":"cebpf4jnsgd1na2vs0mg"},{"bike_id":"10d61af2-a218-4397-b179-939c5dec9f2f","system_id":"levelo_inurba_marseille","lat":43.264881,"lon":5.395464,"is_reserved":false,"is_disabled":false,"rental_uris":{"android":"levelo://app?vid=10d61af2-a218-4397-b179-939c5dec9f2f","ios":"levelo://app?vid=10d61af2-a218-4397-b179-939c5dec9f2f"},"vehicle_type_id":"4","last_reported":1741151410,"current_range_meters":4800,"station_id":"ce4bhi12rcd13ifvqfq0","pricing_plan_id":"cebpf4jnsgd1na2vs0mg"},{"bike_id":"83e13657-2b1f-4b00-8276-03c45d12c05c","system_id":"levelo_inurba_marseille","lat":43.231903,"lon":5.399859,"is_reserved":false,"is_disabled":false,"rental_uris":{"android":"levelo://app?vid=83e13657-2b1f-4b00-8276-03c45d12c05c","ios":"levelo://app?vid=83e13657-2b1f-4b00-8276-03c45d12c05c"},"vehicle_type_id":"4","last_reported":1741151410,"current_range_meters":5600,"station_id":"ce4bhn12rcd13ifvqgqg","pricing_plan_id":"cebpf4jnsgd1na2vs0mg"},{"bike_id":"9032b32b-8cfa-4057-b70d-caa572ef981e","system_id":"levelo_inurba_marseille","lat":43.27486,"lon":5.43505,"is_reserved":false,"is_disabled":false,"rental_uris":{"android":"levelo://app?vid=9032b32b-8cfa-4057-b70d-caa572ef981e","ios":"levelo://app?vid=9032b32b-8cfa-4057-b70d-caa572ef981e"},"vehicle_type_id":"4","last_reported":1741151410,"current_range_meters":6000,"station_id":"","pricing_plan_id":"cebpf4jnsgd1na2vs0mg"},{"bike_id":"94e2fe73-27e1-47ea-a6c9-99dd1f3918d4","system_id":"levelo_inurba_marseille","lat":43.25079,"lon":5.3951,"is_reserved":false,"is_disabled":false,"rental_uris":{"android":"levelo://app?vid=94e2fe73-27e1-47ea-a6c9-99dd1f3918d4","ios":"levelo://app?vid=94e2fe73-27e1-47ea-a6c9-99dd1f3918d4"},"vehicle_type_id":"4","last_reported":1741151410,"current_range_meters":6000,"station_id":"ce4bhm12rcd13ifvqgkg","pricing_plan_id":"cebpf4jnsgd1na2vs0mg"},{"bike_id":"89721c29-6bac-4f2b-8a58-9e1a16f55fe3","system_id":"levelo_inurba_marseille","lat":43.247,"lon":5.376866,"is_reserved":false,"is_disabled":false,"rental_uris":{"android":"levelo://app?vid=89721c29-6bac-4f2b-8a58-9e1a16f55fe3","ios":"levelo://app?vid=89721c29-6bac-4f2b-8a58-9e1a16f55fe3"},"vehicle_type_id":"4","last_reported":1741151410,"current_range_meters":6400,"station_id":"","pricing_plan_id":"cebpf4jnsgd1na2vs0mg"},{"bike_id":"64953142-7637-42b4-b0d1-c449e63f1db7","system_id":"levelo_inurba_marseille","lat":43.296362,"lon":5.360147,"is_reserved":false,"is_disabled":false,"rental_uris":{"android":"levelo://app?vid=64953142-7637-42b4-b0d1-c449e63f1db7","ios":"levelo://app?vid=64953142-7637-42b4-b0d1-c449e63f1db7"},"vehicle_type_id":"4","last_reported":1741151410,"current_range_meters":6400,"station_id":"","pricing_plan_id":"cebpf4jnsgd1na2vs0mg"},{"bike_id":"e7354dad-9663-4e36-86b3-e94320664f74","system_id":"levelo_inurba_marseille","lat":43.28562,"lon":5.39504,"is_reserved":false,"is_disabled":false,"rental_uris":{"android":"levelo://app?vid=e7354dad-9663-4e36-86b3-e94320664f74","ios":"levelo://app?vid=e7354dad-9663-4e36-86b3-e94320664f74"},"vehicle_type_id":"4","last_reported":1741151410,"current_range_meters":6400,"station_id":"ce4bh292rcd13ifvqdg0","pricing_plan_id":"cebpf4jnsgd1na2vs0mg"},{"bike_id":"a7e4c0d5-f8e4-4c3b-acad-9c7d5ce39506","system_id":"levelo_inurba_marseille","lat":43.317122,"lon":5.437006,"is_reserved":false,"is_disabled":false,"rental_uris":{"android":"levelo://app?vid=a7e4c0d5-f8e4-4c3b-acad-9c7d5ce39506","ios":"levelo://app?vid=a7e4c0d5-f8e4-4c3b-acad-9c7d5ce39506"},"vehicle_type_id":"4","last_reported":1741151410,"current_range_meters":6400,"station_id":"ce4bhp92rcd13ifvqhcg","pricing_plan_id":"cebpf4jnsgd1na2vs0mg"},{"bike_id":"4900e558-d896-4e88-a482-c92483d35a16","system_id":"levelo_inurba_marseille","lat":43.281266,"lon":5.445679,"is_reserved":false,"is_disabled":false,"rental_uris":{"android":"levelo://app?vid=4900e558-d896-4e88-a482-c92483d35a16","ios":"levelo://app?vid=4900e558-d896-4e88-a482-c92483d35a16"},"vehicle_type_id":"4","last_reported":1741151410,"current_range_meters":6800,"station_id":"","pricing_plan_id":"cebpf4jnsgd1na2vs0mg"},{"bike_id":"c85fc62f-5162-4936-8b1a-1aa8d5c60d7b","system_id":"levelo_inurba_marseille","lat":43.31326,"lon":5.39691,"is_reserved":false,"is_disabled":false,"rental_uris":{"android":"levelo://app?vid=c85fc62f-5162-4936-8b1a-1aa8d5c60d7b","ios":"levelo://app?vid=c85fc62f-5162-4936-8b1a-1aa8d5c60d7b"},"vehicle_type_id":"4","last_reported":1741151410,"current_range_meters":6800,"station_id":"ce4bgvp2rcd13ifvqcu0","pricing_plan_id":"cebpf4jnsgd1na2vs0mg"},{"bike_id":"51b35190-dd77-4929-ad86-193e8785fcc9","system_id":"levelo_inurba_marseille","lat":43.29261,"lon":5.40919,"is_reserved":false,"is_disabled":false,"rental_uris":{"android":"levelo://app?vid=51b35190-dd77-4929-ad86-193e8785fcc9","ios":"levelo://app?vid=51b35190-dd77-4929-ad86-193e8785fcc9"},"vehicle_type_id":"4","last_reported":1741151410,"current_range_meters":6800,"station_id":"ce4bh192rcd13ifvqdc0","pricing_plan_id":"cebpf4jnsgd1na2vs0mg"},{"bike_id":"ef586f23-ee4b-465a-84b4-b76ec36bdcf2","system_id":"levelo_inurba_marseille","lat":43.28404,"lon":5.3753,"is_reserved":false,"is_disabled":false,"rental_uris":{"android":"levelo://app?vid=ef586f23-ee4b-465a-84b4-b76ec36bdcf2","ios":"levelo://app?vid=ef586f23-ee4b-465a-84b4-b76ec36bdcf2"},"vehicle_type_id":"4","last_reported":1741151410,"current_range_meters":6800,"station_id":"ce4bh412rcd13ifvqds0","pricing_plan_id":"cebpf4jnsgd1na2vs0mg"},{"bike_id":"d31b2456-8658-4979-bcc6-467a9b901726","system_id":"levelo_inurba_marseille","lat":43.28929,"lon":5.36414,"is_reserved":false,"is_disabled":false,"rental_uris":{"android":"levelo://app?vid=d31b2456-8658-4979-bcc6-467a9b901726","ios":"levelo://app?vid=d31b2456-8658-4979-bcc6-467a9b901726"},"vehicle_type_id":"4","last_reported":1741151410,"current_range_meters":6800,"station_id":"ce4bhc92rcd13ifvqetg","pricing_plan_id":"cebpf4jnsgd1na2vs0mg"},{"bike_id":"523797ee-a9f0-494d-a6a9-db807f9343e4","system_id":"levelo_inurba_marseille","lat":43.26566,"lon":5.38999,"is_reserved":false,"is_disabled":false,"rental_uris":{"android":"levelo://app?vid=523797ee-a9f0-494d-a6a9-db807f9343e4","ios":"levelo://app?vid=523797ee-a9f0-494d-a6a9-db807f9343e4"},"vehicle_type_id":"4","last_reported":1741151410,"current_range_meters":7200,"station_id":"ce4bhe12rcd13ifvqf30","pricing_plan_id":"cebpf4jnsgd1na2vs0mg"},{"bike_id":"40592169-4d72-4b69-a512-be614d00ab33","system_id":"levelo_inurba_marseille","lat":43.28061,"lon":5.39643,"is_reserved":false,"is_disabled":false,"rental_uris":{"android":"levelo://app?vid=40592169-4d72-4b69-a512-be614d00ab33","ios":"levelo://app?vid=40592169-4d72-4b69-a512-be614d00ab33"},"vehicle_type_id":"4","last_reported":1741151410,"current_range_meters":7200,"station_id":"ce4bho12rcd13ifvqh2g","pricing_plan_id":"cebpf4jnsgd1na2vs0mg"},{"bike_id":"0d96420a-e9fb-4106-a142-1e100df6f8c3","system_id":"levelo_inurba_marseille","lat":43.28721,"lon":5.36083,"is_reserved":false,"is_disabled":false,"rental_uris":{"android":"levelo://app?vid=0d96420a-e9fb-4106-a142-1e100df6f8c3","ios":"levelo://app?vid=0d96420a-e9fb-4106-a142-1e100df6f8c3"},"vehicle_type_id":"4","last_reported":1741151410,"current_range_meters":7200,"station_id":"cki0cbj6b192h4jlfktg","pricing_plan_id":"cebpf4jnsgd1na2vs0mg"},{"bike_id":"82cf1890-6fc9-45de-a4c6-a2860b6ad381","system_id":"levelo_inurba_marseille","lat":43.308836,"lon":5.396326,"is_reserved":false,"is_disabled":false,"rental_uris":{"android":"levelo://app?vid=82cf1890-6fc9-45de-a4c6-a2860b6ad381","ios":"levelo://app?vid=82cf1890-6fc9-45de-a4c6-a2860b6ad381"},"vehicle_type_id":"4","last_reported":1741151410,"current_range_meters":8000,"station_id":"ce4bh012rcd13ifvqcv0","pricing_plan_id":"cebpf4jnsgd1na2vs0mg"},{"bike_id":"5d3e6fd1-d59d-494a-b7ae-de8150ce0ae7","system_id":"levelo_inurba_marseille","lat":43.28391,"lon":5.37497,"is_reserved":false,"is_disabled":false,"rental_uris":{"android":"levelo://app?vid=5d3e6fd1-d59d-494a-b7ae-de8150ce0ae7","ios":"levelo://app?vid=5d3e6fd1-d59d-494a-b7ae-de8150ce0ae7"},"vehicle_type_id":"4","last_reported":1741151410,"current_range_meters":8000,"station_id":"ce4bh412rcd13ifvqds0","pricing_plan_id":"cebpf4jnsgd1na2vs0mg"},{"bike_id":"67f170b2-c527-4f82-a5e7-48060deabad3","system_id":"levelo_inurba_marseille","lat":43.28038,"lon":5.36948,"is_reserved":false,"is_disabled":false,"rental_uris":{"android":"levelo://app?vid=67f170b2-c527-4f82-a5e7-48060deabad3","ios":"levelo://app?vid=67f170b2-c527-4f82-a5e7-48060deabad3"},"vehicle_type_id":"4","last_reported":1741151410,"current_range_meters":8000,"station_id":"ce4bha12rcd13ifvqef0","pricing_plan_id":"cebpf4jnsgd1na2vs0mg"},{"bike_id":"9b540801-2fb4-4668-80c9-cb399c571c1a","system_id":"levelo_inurba_marseille","lat":43.26564,"lon":5.39013,"is_reserved":false,"is_disabled":false,"rental_uris":{"android":"levelo://app?vid=9b540801-2fb4-4668-80c9-cb399c571c1a","ios":"levelo://app?vid=9b540801-2fb4-4668-80c9-cb399c571c1a"},"vehicle_type_id":"4","last_reported":1741151410,"current_range_meters":8000,"station_id":"ce4bhe12rcd13ifvqf30","pricing_plan_id":"cebpf4jnsgd1na2vs0mg"},{"bike_id":"d4856af7-9b74-4c20-9ef9-3e21a73f2567","system_id":"levelo_inurba_marseille","lat":43.26216,"lon":5.40477,"is_reserved":false,"is_disabled":false,"rental_uris":{"android":"levelo://app?vid=d4856af7-9b74-4c20-9ef9-3e21a73f2567","ios":"levelo://app?vid=d4856af7-9b74-4c20-9ef9-3e21a73f2567"},"vehicle_type_id":"4","last_reported":1741151410,"current_range_meters":8000,"station_id":"ce4bhmh2rcd13ifvqgmg","pricing_plan_id":"cebpf4jnsgd1na2vs0mg"},{"bike_id":"48d28e38-4ec2-4e1e-b64a-7d4b817a6fea","system_id":"levelo_inurba_marseille","lat":43.231829,"lon":5.399766,"is_reserved":false,"is_disabled":false,"rental_uris":{"android":"levelo://app?vid=48d28e38-4ec2-4e1e-b64a-7d4b817a6fea","ios":"levelo://app?vid=48d28e38-4ec2-4e1e-b64a-7d4b817a6fea"},"vehicle_type_id":"4","last_reported":1741151410,"current_range_meters":8000,"station_id":"ce4bhn12rcd13ifvqgqg","pricing_plan_id":"cebpf4jnsgd1na2vs0mg"},{"bike_id":"4bc22bc8-57d9-4e3e-bbf9-5bb2e57875a0","system_id":"levelo_inurba_marseille","lat":43.27818,"lon":5.40729,"is_reserved":false,"is_disabled":false,"rental_uris":{"android":"levelo://app?vid=4bc22bc8-57d9-4e3e-bbf9-5bb2e57875a0","ios":"levelo://app?vid=4bc22bc8-57d9-4e3e-bbf9-5bb2e57875a0"},"vehicle_type_id":"4","last_reported":1741151410,"current_range_meters":8000,"station_id":"ce4bhnh2rcd13ifvqgtg","pricing_plan_id":"cebpf4jnsgd1na2vs0mg"},{"bike_id":"af961a62-89ab-48c3-99b4-9e347c6b0fdf","system_id":"levelo_inurba_marseille","lat":43.28077,"lon":5.39698,"is_reserved":false,"is_disabled":false,"rental_uris":{"android":"levelo://app?vid=af961a62-89ab-48c3-99b4-9e347c6b0fdf","ios":"levelo://app?vid=af961a62-89ab-48c3-99b4-9e347c6b0fdf"},"vehicle_type_id":"4","last_reported":1741151410,"current_range_meters":8000,"station_id":"ce4bho12rcd13ifvqh2g","pricing_plan_id":"cebpf4jnsgd1na2vs0mg"},{"bike_id":"ee1d2ad1-36ca-49dd-a328-f2a9a9994ecb","system_id":"levelo_inurba_marseille","lat":43.31096,"lon":5.38172,"is_reserved":false,"is_disabled":false,"rental_uris":{"android":"levelo://app?vid=ee1d2ad1-36ca-49dd-a328-f2a9a9994ecb","ios":"levelo://app?vid=ee1d2ad1-36ca-49dd-a328-f2a9a9994ecb"},"vehicle_type_id":"4","last_reported":1741151410,"current_range_meters":8400,"station_id":"","pricing_plan_id":"cebpf4jnsgd1na2vs0mg"},{"bike_id":"f9e6d230-69c5-4095-84ed-f5e6a773b409","system_id":"levelo_inurba_marseille","lat":43.3116,"lon":5.38712,"is_reserved":false,"is_disabled":false,"rental_uris":{"android":"levelo://app?vid=f9e6d230-69c5-4095-84ed-f5e6a773b409","ios":"levelo://app?vid=f9e6d230-69c5-4095-84ed-f5e6a773b409"},"vehicle_type_id":"4","last_reported":1741151410,"current_range_meters":8400,"station_id":"ce4bgv12rcd13ifvqcp0","pricing_plan_id":"cebpf4jnsgd1na2vs0mg"},{"bike_id":"75d8b1d8-ca8d-400c-bdcf-1a41c663b6a5","system_id":"levelo_inurba_marseille","lat":43.31303,"lon":5.39715,"is_reserved":false,"is_disabled":false,"rental_uris":{"android":"levelo://app?vid=75d8b1d8-ca8d-400c-bdcf-1a41c663b6a5","ios":"levelo://app?vid=75d8b1d8-ca8d-400c-bdcf-1a41c663b6a5"},"vehicle_type_id":"4","last_reported":1741151410,"current_range_meters":8400,"station_id":"ce4bgvp2rcd13ifvqcu0","pricing_plan_id":"cebpf4jnsgd1na2vs0mg"},{"bike_id":"a9e1b48c-a740-49e6-b5f5-035dad0376c2","system_id":"levelo_inurba_marseille","lat":43.28487,"lon":5.38411,"is_reserved":false,"is_disabled":false,"rental_uris":{"android":"levelo://app?vid=a9e1b48c-a740-49e6-b5f5-035dad0376c2","ios":"levelo://app?vid=a9e1b48c-a740-49e6-b5f5-035dad0376c2"},"vehicle_type_id":"4","last_reported":1741151410,"current_range_meters":8400,"station_id":"ce4bh512rcd13ifvqe3g","pricing_plan_id":"cebpf4jnsgd1na2vs0mg"},{"bike_id":"7c914269-a916-4211-b445-4054467759c4","system_id":"levelo_inurba_marseille","lat":43.27934,"lon":5.38713,"is_reserved":false,"is_disabled":false,"rental_uris":{"android":"levelo://app?vid=7c914269-a916-4211-b445-4054467759c4","ios":"levelo://app?vid=7c914269-a916-4211-b445-4054467759c4"},"vehicle_type_id":"4","last_reported":1741151410,"current_range_meters":8400,"station_id":"ce4bhg12rcd13ifvqf80","pricing_plan_id":"cebpf4jnsgd1na2vs0mg"},{"bike_id":"16422601-b06e-4432-b609-e1ea0e7ea850","system_id":"levelo_inurba_marseille","lat":43.26216,"lon":5.40431,"is_reserved":false,"is_disabled":false,"rental_uris":{"android":"levelo://app?vid=16422601-b06e-4432-b609-e1ea0e7ea850","ios":"levelo://app?vid=16422601-b06e-4432-b609-e1ea0e7ea850"},"vehicle_type_id":"4","last_reported":1741151410,"current_range_meters":8400,"station_id":"ce4bhmh2rcd13ifvqgmg","pricing_plan_id":"cebpf4jnsgd1na2vs0mg"},{"bike_id":"6178d4a3-6d1b-438c-ac71-a61f5db2dfc0","system_id":"levelo_inurba_marseille","lat":43.27816,"lon":5.40704,"is_reserved":false,"is_disabled":false,"rental_uris":{"android":"levelo://app?vid=6178d4a3-6d1b-438c-ac71-a61f5db2dfc0","ios":"levelo://app?vid=6178d4a3-6d1b-438c-ac71-a61f5db2dfc0"},"vehicle_type_id":"4","last_reported":1741151410,"current_range_meters":8400,"station_id":"ce4bhnh2rcd13ifvqgtg","pricing_plan_id":"cebpf4jnsgd1na2vs0mg"},{"bike_id":"bf284b86-4ac3-4366-b668-6c33ec16b817","system_id":"levelo_inurba_marseille","lat":43.317536,"lon":5.390221,"is_reserved":false,"is_disabled":false,"rental_uris":{"android":"levelo://app?vid=bf284b86-4ac3-4366-b668-6c33ec16b817","ios":"levelo://app?vid=bf284b86-4ac3-4366-b668-6c33ec16b817"},"vehicle_type_id":"4","last_reported":1741151410,"current_range_meters":8400,"station_id":"ce4bhqp2rcd13ifvqhng","pricing_plan_id":"cebpf4jnsgd1na2vs0mg"},{"bike_id":"b8dacfd7-6aa1-4cb2-ac25-dfdf82e53218","system_id":"levelo_inurba_marseille","lat":43.3238,"lon":5.38863,"is_reserved":false,"is_disabled":false,"rental_uris":{"android":"levelo://app?vid=b8dacfd7-6aa1-4cb2-ac25-dfdf82e53218","ios":"levelo://app?vid=b8dacfd7-6aa1-4cb2-ac25-dfdf82e53218"},"vehicle_type_id":"4","last_reported":1741151410,"current_range_meters":8400,"station_id":"ce4bhqp2rcd13ifvqhog","pricing_plan_id":"cebpf4jnsgd1na2vs0mg"},{"bike_id":"21b19842-9ad9-4db0-bc46-3d2827c0069e","system_id":"levelo_inurba_marseille","lat":43.23179,"lon":5.35572,"is_reserved":false,"is_disabled":false,"rental_uris":{"android":"levelo://app?vid=21b19842-9ad9-4db0-bc46-3d2827c0069e","ios":"levelo://app?vid=21b19842-9ad9-4db0-bc46-3d2827c0069e"},"vehicle_type_id":"4","last_reported":1741151410,"current_range_meters":8400,"station_id":"ce4bhu92rcd13ifvqi70","pricing_plan_id":"cebpf4jnsgd1na2vs0mg"},{"bike_id":"ea6a4a15-a453-498d-be30-f6d5d98c6c99","system_id":"levelo_inurba_marseille","lat":43.26783,"lon":5.40283,"is_reserved":false,"is_disabled":false,"rental_uris":{"android":"levelo://app?vid=ea6a4a15-a453-498d-be30-f6d5d98c6c99","ios":"levelo://app?vid=ea6a4a15-a453-498d-be30-f6d5d98c6c99"},"vehicle_type_id":"4","last_reported":1741151410,"current_range_meters":8400,"station_id":"ce501612rcd8frsf0b60","pricing_plan_id":"cebpf4jnsgd1na2vs0mg"},{"bike_id":"bb688706-69e9-4ba8-9806-7df641f3b926","system_id":"levelo_inurba_marseille","lat":43.29288,"lon":5.40134,"is_reserved":false,"is_disabled":false,"rental_uris":{"android":"levelo://app?vid=bb688706-69e9-4ba8-9806-7df641f3b926","ios":"levelo://app?vid=bb688706-69e9-4ba8-9806-7df641f3b926"},"vehicle_type_id":"4","last_reported":1741151410,"current_range_meters":8800,"station_id":"ce4bh312rcd13ifvqdk0","pricing_plan_id":"cebpf4jnsgd1na2vs0mg"},{"bike_id":"378742b7-983e-469b-a38e-ad703616c184","system_id":"levelo_inurba_marseille","lat":43.28459,"lon":5.35885,"is_reserved":false,"is_disabled":false,"rental_uris":{"android":"levelo://app?vid=378742b7-983e-469b-a38e-ad703616c184","ios":"levelo://app?vid=378742b7-983e-469b-a38e-ad703616c184"},"vehicle_type_id":"4","last_reported":1741151410,"current_range_meters":8800,"station_id":"ce4bhah2rcd13ifvqei0","pricing_plan_id":"cebpf4jnsgd1na2vs0mg"},{"bike_id":"c225e1a0-be98-446e-a697-333af943beb7","system_id":"levelo_inurba_marseille","lat":43.27884,"lon":5.39607,"is_reserved":false,"is_disabled":false,"rental_uris":{"android":"levelo://app?vid=c225e1a0-be98-446e-a697-333af943beb7","ios":"levelo://app?vid=c225e1a0-be98-446e-a697-333af943beb7"},"vehicle_type_id":"4","last_reported":1741151410,"current_range_meters":8800,"station_id":"ce4bhf92rcd13ifvqf40","pricing_plan_id":"cebpf4jnsgd1na2vs0mg"},{"bike_id":"0d40529a-4ceb-4fe5-a173-9a9387273cfa","system_id":"levelo_inurba_marseille","lat":43.2569,"lon":5.41134,"is_reserved":false,"is_disabled":false,"rental_uris":{"android":"levelo://app?vid=0d40529a-4ceb-4fe5-a173-9a9387273cfa","ios":"levelo://app?vid=0d40529a-4ceb-4fe5-a173-9a9387273cfa"},"vehicle_type_id":"4","last_reported":1741151410,"current_range_meters":8800,"station_id":"ce4bhkp2rcd13ifvqgd0","pricing_plan_id":"cebpf4jnsgd1na2vs0mg"},{"bike_id":"d0ca81a9-e00f-4db3-8736-356c22988b10","system_id":"levelo_inurba_marseille","lat":43.30786,"lon":5.43543,"is_reserved":false,"is_disabled":false,"rental_uris":{"android":"levelo://app?vid=d0ca81a9-e00f-4db3-8736-356c22988b10","ios":"levelo://app?vid=d0ca81a9-e00f-4db3-8736-356c22988b10"},"vehicle_type_id":"4","last_reported":1741151410,"current_range_meters":8800,"station_id":"ce4bhph2rcd13ifvqheg","pricing_plan_id":"cebpf4jnsgd1na2vs0mg"},{"bike_id":"ede61442-3229-4ac2-8d72-b654099eef6a","system_id":"levelo_inurba_marseille","lat":43.33016,"lon":5.39047,"is_reserved":false,"is_disabled":false,"rental_uris":{"android":"levelo://app?vid=ede61442-3229-4ac2-8d72-b654099eef6a","ios":"levelo://app?vid=ede61442-3229-4ac2-8d72-b654099eef6a"},"vehicle_type_id":"4","last_reported":1741151410,"current_range_meters":8800,"station_id":"ce4bhr92rcd13ifvqhrg","pricing_plan_id":"cebpf4jnsgd1na2vs0mg"},{"bike_id":"44a7153b-0fd7-4509-836b-676bbf84fb06","system_id":"levelo_inurba_marseille","lat":43.231842,"lon":5.355537,"is_reserved":false,"is_disabled":false,"rental_uris":{"android":"levelo://app?vid=44a7153b-0fd7-4509-836b-676bbf84fb06","ios":"levelo://app?vid=44a7153b-0fd7-4509-836b-676bbf84fb06"},"vehicle_type_id":"4","last_reported":1741151410,"current_range_meters":8800,"station_id":"ce4bhu92rcd13ifvqi70","pricing_plan_id":"cebpf4jnsgd1na2vs0mg"},{"bike_id":"332abda5-2296-4955-8d29-1593f717e1c9","system_id":"levelo_inurba_marseille","lat":43.279635,"lon":5.415789,"is_reserved":false,"is_disabled":false,"rental_uris":{"android":"levelo://app?vid=332abda5-2296-4955-8d29-1593f717e1c9","ios":"levelo://app?vid=332abda5-2296-4955-8d29-1593f717e1c9"},"vehicle_type_id":"4","last_reported":1741151410,"current_range_meters":9200,"station_id":"","pricing_plan_id":"cebpf4jnsgd1na2vs0mg"},{"bike_id":"5883e9fe-2268-4df6-984e-ee5397dac27a","system_id":"levelo_inurba_marseille","lat":43.31118,"lon":5.3777,"is_reserved":false,"is_disabled":false,"rental_uris":{"android":"levelo://app?vid=5883e9fe-2268-4df6-984e-ee5397dac27a","ios":"levelo://app?vid=5883e9fe-2268-4df6-984e-ee5397dac27a"},"vehicle_type_id":"4","last_reported":1741151410,"current_range_meters":9200,"station_id":"ce4bgt92rcd13ifvqcg0","pricing_plan_id":"cebpf4jnsgd1na2vs0mg"},{"bike_id":"daca5608-d824-4447-a25b-fde22b6fa82e","system_id":"levelo_inurba_marseille","lat":43.28703,"lon":5.37397,"is_reserved":false,"is_disabled":false,"rental_uris":{"android":"levelo://app?vid=daca5608-d824-4447-a25b-fde22b6fa82e","ios":"levelo://app?vid=daca5608-d824-4447-a25b-fde22b6fa82e"},"vehicle_type_id":"4","last_reported":1741151410,"current_range_meters":9200,"station_id":"ce4bh3p2rcd13ifvqdq0","pricing_plan_id":"cebpf4jnsgd1na2vs0mg"},{"bike_id":"226fc5b5-2dc3-4df3-b484-d227347b3355","system_id":"levelo_inurba_marseille","lat":43.284493,"lon":5.358799,"is_reserved":false,"is_disabled":false,"rental_uris":{"android":"levelo://app?vid=226fc5b5-2dc3-4df3-b484-d227347b3355","ios":"levelo://app?vid=226fc5b5-2dc3-4df3-b484-d227347b3355"},"vehicle_type_id":"4","last_reported":1741151410,"current_range_meters":9200,"station_id":"ce4bhah2rcd13ifvqei0","pricing_plan_id":"cebpf4jnsgd1na2vs0mg"},{"bike_id":"0596970d-6eb4-4331-8d1d-96c25a649f4a","system_id":"levelo_inurba_marseille","lat":43.286676,"lon":5.363416,"is_reserved":false,"is_disabled":false,"rental_uris":{"android":"levelo://app?vid=0596970d-6eb4-4331-8d1d-96c25a649f4a","ios":"levelo://app?vid=0596970d-6eb4-4331-8d1d-96c25a649f4a"},"vehicle_type_id":"4","last_reported":1741151410,"current_range_meters":9200,"station_id":"ce4bhah2rcd13ifvqej0","pricing_plan_id":"cebpf4jnsgd1na2vs0mg"},{"bike_id":"913bb55b-2edb-4434-9d82-fe796f8d08f1","system_id":"levelo_inurba_marseille","lat":43.286184,"lon":5.351036,"is_reserved":false,"is_disabled":false,"rental_uris":{"android":"levelo://app?vid=913bb55b-2edb-4434-9d82-fe796f8d08f1","ios":"levelo://app?vid=913bb55b-2edb-4434-9d82-fe796f8d08f1"},"vehicle_type_id":"4","last_reported":1741151410,"current_range_meters":9200,"station_id":"ce4bhch2rcd13ifvqeug","pricing_plan_id":"cebpf4jnsgd1na2vs0mg"},{"bike_id":"3f3c1456-9049-45c0-983e-1e780cd7ac03","system_id":"levelo_inurba_marseille","lat":43.280749,"lon":5.396466,"is_reserved":false,"is_disabled":false,"rental_uris":{"android":"levelo://app?vid=3f3c1456-9049-45c0-983e-1e780cd7ac03","ios":"levelo://app?vid=3f3c1456-9049-45c0-983e-1e780cd7ac03"},"vehicle_type_id":"4","last_reported":1741151410,"current_range_meters":9200,"station_id":"ce4bho12rcd13ifvqh2g","pricing_plan_id":"cebpf4jnsgd1na2vs0mg"},{"bike_id":"4e6eac08-b624-4f71-84f3-0c6188cb583d","system_id":"levelo_inurba_marseille","lat":43.330293,"lon":5.39043,"is_reserved":false,"is_disabled":false,"rental_uris":{"android":"levelo://app?vid=4e6eac08-b624-4f71-84f3-0c6188cb583d","ios":"levelo://app?vid=4e6eac08-b624-4f71-84f3-0c6188cb583d"},"vehicle_type_id":"4","last_reported":1741151410,"current_range_meters":9200,"station_id":"ce4bhr92rcd13ifvqhrg","pricing_plan_id":"cebpf4jnsgd1na2vs0mg"},{"bike_id":"bb5de7ea-83f9-4463-b672-1ca258599166","system_id":"levelo_inurba_marseille","lat":43.31287,"lon":5.39724,"is_reserved":false,"is_disabled":false,"rental_uris":{"android":"levelo://app?vid=bb5de7ea-83f9-4463-b672-1ca258599166","ios":"levelo://app?vid=bb5de7ea-83f9-4463-b672-1ca258599166"},"vehicle_type_id":"4","last_reported":1741151410,"current_range_meters":9600,"station_id":"","pricing_plan_id":"cebpf4jnsgd1na2vs0mg"},{"bike_id":"c743212a-653d-4524-b33a-31000cc2ce7a","system_id":"levelo_inurba_marseille","lat":43.30963,"lon":5.39031,"is_reserved":false,"is_disabled":false,"rental_uris":{"android":"levelo://app?vid=c743212a-653d-4524-b33a-31000cc2ce7a","ios":"levelo://app?vid=c743212a-653d-4524-b33a-31000cc2ce7a"},"vehicle_type_id":"4","last_reported":1741151410,"current_range_meters":9600,"station_id":"ce4bgup2rcd13ifvqco0","pricing_plan_id":"cebpf4jnsgd1na2vs0mg"},{"bike_id":"2d63655e-aae3-4697-b227-eab6dfcef626","system_id":"levelo_inurba_marseille","lat":43.31082,"lon":5.38366,"is_reserved":false,"is_disabled":false,"rental_uris":{"android":"levelo://app?vid=2d63655e-aae3-4697-b227-eab6dfcef626","ios":"levelo://app?vid=2d63655e-aae3-4697-b227-eab6dfcef626"},"vehicle_type_id":"4","last_reported":1741151410,"current_range_meters":9600,"station_id":"ce4bgv92rcd13ifvqcr0","pricing_plan_id":"cebpf4jnsgd1na2vs0mg"},{"bike_id":"00608916-7958-4604-b882-c5c8cddffbdd","system_id":"levelo_inurba_marseille","lat":43.30257,"lon":5.40063,"is_reserved":false,"is_disabled":false,"rental_uris":{"android":"levelo://app?vid=00608916-7958-4604-b882-c5c8cddffbdd","ios":"levelo://app?vid=00608916-7958-4604-b882-c5c8cddffbdd"},"vehicle_type_id":"4","last_reported":1741151410,"current_range_meters":9600,"station_id":"ce4bgvh2rcd13ifvqcs0","pricing_plan_id":"cebpf4jnsgd1na2vs0mg"},{"bike_id":"136cb9a9-1e3b-4d1b-badc-9ed56a652de2","system_id":"levelo_inurba_marseille","lat":43.28401,"lon":5.37536,"is_reserved":false,"is_disabled":false,"rental_uris":{"android":"levelo://app?vid=136cb9a9-1e3b-4d1b-badc-9ed56a652de2","ios":"levelo://app?vid=136cb9a9-1e3b-4d1b-badc-9ed56a652de2"},"vehicle_type_id":"4","last_reported":1741151410,"current_range_meters":9600,"station_id":"ce4bh412rcd13ifvqds0","pricing_plan_id":"cebpf4jnsgd1na2vs0mg"},{"bike_id":"ec1930f4-7944-4e1a-8967-bad6e440e5c9","system_id":"levelo_inurba_marseille","lat":43.24667,"lon":5.38158,"is_reserved":false,"is_disabled":false,"rental_uris":{"android":"levelo://app?vid=ec1930f4-7944-4e1a-8967-bad6e440e5c9","ios":"levelo://app?vid=ec1930f4-7944-4e1a-8967-bad6e440e5c9"},"vehicle_type_id":"4","last_reported":1741151410,"current_range_meters":9600,"station_id":"ce4bhih2rcd13ifvqfr0","pricing_plan_id":"cebpf4jnsgd1na2vs0mg"},{"bike_id":"ed4c1c10-3fc3-47c0-be84-e8c73611bf7f","system_id":"levelo_inurba_marseille","lat":43.270533,"lon":5.402801,"is_reserved":false,"is_disabled":false,"rental_uris":{"android":"levelo://app?vid=ed4c1c10-3fc3-47c0-be84-e8c73611bf7f","ios":"levelo://app?vid=ed4c1c10-3fc3-47c0-be84-e8c73611bf7f"},"vehicle_type_id":"4","last_reported":1741151410,"current_range_meters":9600,"station_id":"ce4bhk92rcd13ifvqgc0","pricing_plan_id":"cebpf4jnsgd1na2vs0mg"},{"bike_id":"c39e2295-e7a5-4c5b-833a-007e71b3658e","system_id":"levelo_inurba_marseille","lat":43.30804,"lon":5.43547,"is_reserved":false,"is_disabled":false,"rental_uris":{"android":"levelo://app?vid=c39e2295-e7a5-4c5b-833a-007e71b3658e","ios":"levelo://app?vid=c39e2295-e7a5-4c5b-833a-007e71b3658e"},"vehicle_type_id":"4","last_reported":1741151410,"current_range_meters":9600,"station_id":"ce4bhph2rcd13ifvqheg","pricing_plan_id":"cebpf4jnsgd1na2vs0mg"},{"bike_id":"08edb43b-0433-48ff-8c1a-b9c3a5c66ded","system_id":"levelo_inurba_marseille","lat":43.28418,"lon":5.37566,"is_reserved":false,"is_disabled":false,"rental_uris":{"android":"levelo://app?vid=08edb43b-0433-48ff-8c1a-b9c3a5c66ded","ios":"levelo://app?vid=08edb43b-0433-48ff-8c1a-b9c3a5c66ded"},"vehicle_type_id":"4","last_reported":1741151410,"current_range_meters":10000,"station_id":"","pricing_plan_id":"cebpf4jnsgd1na2vs0mg"},{"bike_id":"6ea8ab5c-65c2-4db6-8cb6-dfdbe5b30189","system_id":"levelo_inurba_marseille","lat":43.32361,"lon":5.38884,"is_reserved":false,"is_disabled":false,"rental_uris":{"android":"levelo://app?vid=6ea8ab5c-65c2-4db6-8cb6-dfdbe5b30189","ios":"levelo://app?vid=6ea8ab5c-65c2-4db6-8cb6-dfdbe5b30189"},"vehicle_type_id":"4","last_reported":1741151410,"current_range_meters":10000,"station_id":"ce4bhqp2rcd13ifvqhog","pricing_plan_id":"cebpf4jnsgd1na2vs0mg"},{"bike_id":"51f6f578-8898-487a-9da7-ff3d6d379d1b","system_id":"levelo_inurba_marseille","lat":43.321084,"lon":5.368016,"is_reserved":false,"is_disabled":false,"rental_uris":{"android":"levelo://app?vid=51f6f578-8898-487a-9da7-ff3d6d379d1b","ios":"levelo://app?vid=51f6f578-8898-487a-9da7-ff3d6d379d1b"},"vehicle_type_id":"4","last_reported":1741151410,"current_range_meters":10000,"station_id":"ce4bhrh2rcd13ifvqhug","pricing_plan_id":"cebpf4jnsgd1na2vs0mg"},{"bike_id":"4c0e314a-87e2-48f0-a7b0-ec6605046de8","system_id":"levelo_inurba_marseille","lat":43.32096,"lon":5.36775,"is_reserved":false,"is_disabled":false,"rental_uris":{"android":"levelo://app?vid=4c0e314a-87e2-48f0-a7b0-ec6605046de8","ios":"levelo://app?vid=4c0e314a-87e2-48f0-a7b0-ec6605046de8"},"vehicle_type_id":"4","last_reported":1741151410,"current_range_meters":10000,"station_id":"ce4bhrh2rcd13ifvqhug","pricing_plan_id":"cebpf4jnsgd1na2vs0mg"},{"bike_id":"0eb9fef3-83c8-47c8-ad9e-cfe2998c47d1","system_id":"levelo_inurba_marseille","lat":43.31052,"lon":5.37563,"is_reserved":false,"is_disabled":false,"rental_uris":{"android":"levelo://app?vid=0eb9fef3-83c8-47c8-ad9e-cfe2998c47d1","ios":"levelo://app?vid=0eb9fef3-83c8-47c8-ad9e-cfe2998c47d1"},"vehicle_type_id":"4","last_reported":1741151410,"current_range_meters":10800,"station_id":"","pricing_plan_id":"cebpf4jnsgd1na2vs0mg"},{"bike_id":"9250a28a-9289-4df0-ba18-f9b6050fcdec","system_id":"levelo_inurba_marseille","lat":43.299,"lon":5.39236,"is_reserved":false,"is_disabled":false,"rental_uris":{"android":"levelo://app?vid=9250a28a-9289-4df0-ba18-f9b6050fcdec","ios":"levelo://app?vid=9250a28a-9289-4df0-ba18-f9b6050fcdec"},"vehicle_type_id":"4","last_reported":1741151410,"current_range_meters":10800,"station_id":"","pricing_plan_id":"cebpf4jnsgd1na2vs0mg"},{"bike_id":"f6968460-496f-4dc8-98f9-fe94f42f985f","system_id":"levelo_inurba_marseille","lat":43.29257,"lon":5.40908,"is_reserved":false,"is_disabled":false,"rental_uris":{"android":"levelo://app?vid=f6968460-496f-4dc8-98f9-fe94f42f985f","ios":"levelo://app?vid=f6968460-496f-4dc8-98f9-fe94f42f985f"},"vehicle_type_id":"4","last_reported":1741151410,"current_range_meters":10800,"station_id":"ce4bh192rcd13ifvqdc0","pricing_plan_id":"cebpf4jnsgd1na2vs0mg"},{"bike_id":"4cef1e10-619a-4f9e-9170-5c650d29f2c6","system_id":"levelo_inurba_marseille","lat":43.2791,"lon":5.39589,"is_reserved":false,"is_disabled":false,"rental_uris":{"android":"levelo://app?vid=4cef1e10-619a-4f9e-9170-5c650d29f2c6","ios":"levelo://app?vid=4cef1e10-619a-4f9e-9170-5c650d29f2c6"},"vehicle_type_id":"4","last_reported":1741151410,"current_range_meters":10800,"station_id":"ce4bhf92rcd13ifvqf40","pricing_plan_id":"cebpf4jnsgd1na2vs0mg"},{"bike_id":"65454335-2b8f-41a7-9a83-ad755de99323","system_id":"levelo_inurba_marseille","lat":43.248066,"lon":5.374525,"is_reserved":false,"is_disabled":false,"rental_uris":{"android":"levelo://app?vid=65454335-2b8f-41a7-9a83-ad755de99323","ios":"levelo://app?vid=65454335-2b8f-41a7-9a83-ad755de99323"},"vehicle_type_id":"4","last_reported":1741151410,"current_range_meters":10800,"station_id":"ce4bhgh2rcd13ifvqfb0","pricing_plan_id":"cebpf4jnsgd1na2vs0mg"},{"bike_id":"8441514c-4110-42af-a6dc-85606173b4cc","system_id":"levelo_inurba_marseille","lat":43.2465,"lon":5.38198,"is_reserved":false,"is_disabled":false,"rental_uris":{"android":"levelo://app?vid=8441514c-4110-42af-a6dc-85606173b4cc","ios":"levelo://app?vid=8441514c-4110-42af-a6dc-85606173b4cc"},"vehicle_type_id":"4","last_reported":1741151410,"current_range_meters":10800,"station_id":"ce4bhih2rcd13ifvqfr0","pricing_plan_id":"cebpf4jnsgd1na2vs0mg"},{"bike_id":"40aff33d-1539-45b6-9efe-a1c7fa7c7dbc","system_id":"levelo_inurba_marseille","lat":43.25714,"lon":5.41115,"is_reserved":false,"is_disabled":false,"rental_uris":{"android":"levelo://app?vid=40aff33d-1539-45b6-9efe-a1c7fa7c7dbc","ios":"levelo://app?vid=40aff33d-1539-45b6-9efe-a1c7fa7c7dbc"},"vehicle_type_id":"4","last_reported":1741151410,"current_range_meters":10800,"station_id":"ce4bhkp2rcd13ifvqgd0","pricing_plan_id":"cebpf4jnsgd1na2vs0mg"},{"bike_id":"f8b34b05-3ce8-4023-b46a-493d367bd4f6","system_id":"levelo_inurba_marseille","lat":43.271794,"lon":5.409899,"is_reserved":false,"is_disabled":false,"rental_uris":{"android":"levelo://app?vid=f8b34b05-3ce8-4023-b46a-493d367bd4f6","ios":"levelo://app?vid=f8b34b05-3ce8-4023-b46a-493d367bd4f6"},"vehicle_type_id":"4","last_reported":1741151410,"current_range_meters":10800,"station_id":"ce4bhl12rcd13ifvqgf0","pricing_plan_id":"cebpf4jnsgd1na2vs0mg"},{"bike_id":"c19d2d03-17b5-4949-b7dc-22a7fd555156","system_id":"levelo_inurba_marseille","lat":43.300364,"lon":5.399507,"is_reserved":false,"is_disabled":false,"rental_uris":{"android":"levelo://app?vid=c19d2d03-17b5-4949-b7dc-22a7fd555156","ios":"levelo://app?vid=c19d2d03-17b5-4949-b7dc-22a7fd555156"},"vehicle_type_id":"4","last_reported":1741151410,"current_range_meters":11200,"station_id":"","pricing_plan_id":"cebpf4jnsgd1na2vs0mg"},{"bike_id":"7cd5e07c-ad2a-4af8-99d9-77c41335ce79","system_id":"levelo_inurba_marseille","lat":43.241692,"lon":5.363953,"is_reserved":false,"is_disabled":false,"rental_uris":{"android":"levelo://app?vid=7cd5e07c-ad2a-4af8-99d9-77c41335ce79","ios":"levelo://app?vid=7cd5e07c-ad2a-4af8-99d9-77c41335ce79"},"vehicle_type_id":"4","last_reported":1741151410,"current_range_meters":11200,"station_id":"cpo36qri1sfpv3e86is0","pricing_plan_id":"cebpf4jnsgd1na2vs0mg"},{"bike_id":"e126cf9b-9912-4c39-ab86-baa13346af6b","system_id":"levelo_inurba_marseille","lat":43.30899,"lon":5.39658,"is_reserved":false,"is_disabled":false,"rental_uris":{"android":"levelo://app?vid=e126cf9b-9912-4c39-ab86-baa13346af6b","ios":"levelo://app?vid=e126cf9b-9912-4c39-ab86-baa13346af6b"},"vehicle_type_id":"4","last_reported":1741151410,"current_range_meters":11600,"station_id":"ce4bh012rcd13ifvqcv0","pricing_plan_id":"cebpf4jnsgd1na2vs0mg"},{"bike_id":"9664280c-ec19-44a4-9913-206ac50d66b9","system_id":"levelo_inurba_marseille","lat":43.26234,"lon":5.4046,"is_reserved":false,"is_disabled":false,"rental_uris":{"android":"levelo://app?vid=9664280c-ec19-44a4-9913-206ac50d66b9","ios":"levelo://app?vid=9664280c-ec19-44a4-9913-206ac50d66b9"},"vehicle_type_id":"4","last_reported":1741151410,"current_range_meters":11600,"station_id":"ce4bhmh2rcd13ifvqgmg","pricing_plan_id":"cebpf4jnsgd1na2vs0mg"},{"bike_id":"17c04b47-b4f3-4a2a-accd-d5f659a10fa3","system_id":"levelo_inurba_marseille","lat":43.32473,"lon":5.3659,"is_reserved":false,"is_disabled":false,"rental_uris":{"android":"levelo://app?vid=17c04b47-b4f3-4a2a-accd-d5f659a10fa3","ios":"levelo://app?vid=17c04b47-b4f3-4a2a-accd-d5f659a10fa3"},"vehicle_type_id":"4","last_reported":1741151410,"current_range_meters":11600,"station_id":"ce4bhs12rcd13ifvqhvg","pricing_plan_id":"cebpf4jnsgd1na2vs0mg"},{"bike_id":"c55557ad-1ed5-4997-aee7-ac92107f14b6","system_id":"levelo_inurba_marseille","lat":43.264537,"lon":5.374968,"is_reserved":false,"is_disabled":false,"rental_uris":{"android":"levelo://app?vid=c55557ad-1ed5-4997-aee7-ac92107f14b6","ios":"levelo://app?vid=c55557ad-1ed5-4997-aee7-ac92107f14b6"},"vehicle_type_id":"4","last_reported":1741151410,"current_range_meters":12000,"station_id":"","pricing_plan_id":"cebpf4jnsgd1na2vs0mg"},{"bike_id":"b0bab969-b185-4a3a-91e5-f6829e4cca8e","system_id":"levelo_inurba_marseille","lat":43.30416,"lon":5.39758,"is_reserved":false,"is_disabled":false,"rental_uris":{"android":"levelo://app?vid=b0bab969-b185-4a3a-91e5-f6829e4cca8e","ios":"levelo://app?vid=b0bab969-b185-4a3a-91e5-f6829e4cca8e"},"vehicle_type_id":"4","last_reported":1741151410,"current_range_meters":12000,"station_id":"ce4bh092rcd13ifvqd20","pricing_plan_id":"cebpf4jnsgd1na2vs0mg"},{"bike_id":"5c0d7678-af0d-4c07-ba6d-73e21c2b49b7","system_id":"levelo_inurba_marseille","lat":43.28556,"lon":5.395,"is_reserved":false,"is_disabled":false,"rental_uris":{"android":"levelo://app?vid=5c0d7678-af0d-4c07-ba6d-73e21c2b49b7","ios":"levelo://app?vid=5c0d7678-af0d-4c07-ba6d-73e21c2b49b7"},"vehicle_type_id":"4","last_reported":1741151410,"current_range_meters":12000,"station_id":"ce4bh292rcd13ifvqdg0","pricing_plan_id":"cebpf4jnsgd1na2vs0mg"},{"bike_id":"59265087-e393-4063-9d20-fa507a2a898c","system_id":"levelo_inurba_marseille","lat":43.278186,"lon":5.407144,"is_reserved":false,"is_disabled":false,"rental_uris":{"android":"levelo://app?vid=59265087-e393-4063-9d20-fa507a2a898c","ios":"levelo://app?vid=59265087-e393-4063-9d20-fa507a2a898c"},"vehicle_type_id":"4","last_reported":1741151410,"current_range_meters":12000,"station_id":"ce4bhnh2rcd13ifvqgtg","pricing_plan_id":"cebpf4jnsgd1na2vs0mg"},{"bike_id":"e1cdc4f0-509b-415c-9592-9c6eaf597898","system_id":"levelo_inurba_marseille","lat":43.278161,"lon":5.407203,"is_reserved":false,"is_disabled":false,"rental_uris":{"android":"levelo://app?vid=e1cdc4f0-509b-415c-9592-9c6eaf597898","ios":"levelo://app?vid=e1cdc4f0-509b-415c-9592-9c6eaf597898"},"vehicle_type_id":"4","last_reported":1741151410,"current_range_meters":12000,"station_id":"ce4bhnh2rcd13ifvqgtg","pricing_plan_id":"cebpf4jnsgd1na2vs0mg"},{"bike_id":"aa05a3f4-9121-4f6b-8a2d-6fb3d1d04e32","system_id":"levelo_inurba_marseille","lat":43.31313,"lon":5.39706,"is_reserved":false,"is_disabled":false,"rental_uris":{"android":"levelo://app?vid=aa05a3f4-9121-4f6b-8a2d-6fb3d1d04e32","ios":"levelo://app?vid=aa05a3f4-9121-4f6b-8a2d-6fb3d1d04e32"},"vehicle_type_id":"4","last_reported":1741151410,"current_range_meters":12400,"station_id":"ce4bgvp2rcd13ifvqcu0","pricing_plan_id":"cebpf4jnsgd1na2vs0mg"},{"bike_id":"892cd4cc-09bf-4c71-bb11-9df83de773e0","system_id":"levelo_inurba_marseille","lat":43.31335,"lon":5.39718,"is_reserved":false,"is_disabled":false,"rental_uris":{"android":"levelo://app?vid=892cd4cc-09bf-4c71-bb11-9df83de773e0","ios":"levelo://app?vid=892cd4cc-09bf-4c71-bb11-9df83de773e0"},"vehicle_type_id":"4","last_reported":1741151410,"current_range_meters":12400,"station_id":"ce4bgvp2rcd13ifvqcu0","pricing_plan_id":"cebpf4jnsgd1na2vs0mg"},{"bike_id":"df4cb1b2-fb7b-4dce-8888-0afba30ebd84","system_id":"levelo_inurba_marseille","lat":43.29223,"lon":5.40929,"is_reserved":false,"is_disabled":false,"rental_uris":{"android":"levelo://app?vid=df4cb1b2-fb7b-4dce-8888-0afba30ebd84","ios":"levelo://app?vid=df4cb1b2-fb7b-4dce-8888-0afba30ebd84"},"vehicle_type_id":"4","last_reported":1741151410,"current_range_meters":12400,"station_id":"ce4bh192rcd13ifvqdc0","pricing_plan_id":"cebpf4jnsgd1na2vs0mg"},{"bike_id":"0c16575b-2d4e-4cf9-960f-1cac2ff7caaf","system_id":"levelo_inurba_marseille","lat":43.2841,"lon":5.37534,"is_reserved":false,"is_disabled":false,"rental_uris":{"android":"levelo://app?vid=0c16575b-2d4e-4cf9-960f-1cac2ff7caaf","ios":"levelo://app?vid=0c16575b-2d4e-4cf9-960f-1cac2ff7caaf"},"vehicle_type_id":"4","last_reported":1741151410,"current_range_meters":12400,"station_id":"ce4bh412rcd13ifvqds0","pricing_plan_id":"cebpf4jnsgd1na2vs0mg"},{"bike_id":"d726aba3-5d50-4e2e-9209-ba22e2312b15","system_id":"levelo_inurba_marseille","lat":43.28939,"lon":5.36414,"is_reserved":false,"is_disabled":false,"rental_uris":{"android":"levelo://app?vid=d726aba3-5d50-4e2e-9209-ba22e2312b15","ios":"levelo://app?vid=d726aba3-5d50-4e2e-9209-ba22e2312b15"},"vehicle_type_id":"4","last_reported":1741151410,"current_range_meters":12400,"station_id":"ce4bhc92rcd13ifvqetg","pricing_plan_id":"cebpf4jnsgd1na2vs0mg"},{"bike_id":"15d8cf60-e2c6-4878-b1df-683348cc043e","system_id":"levelo_inurba_marseille","lat":43.24788,"lon":5.37481,"is_reserved":false,"is_disabled":false,"rental_uris":{"android":"levelo://app?vid=15d8cf60-e2c6-4878-b1df-683348cc043e","ios":"levelo://app?vid=15d8cf60-e2c6-4878-b1df-683348cc043e"},"vehicle_type_id":"4","last_reported":1741151410,"current_range_meters":12400,"station_id":"ce4bhgh2rcd13ifvqfb0","pricing_plan_id":"cebpf4jnsgd1na2vs0mg"},{"bike_id":"4e099002-469e-40dd-a988-90ba29d19792","system_id":"levelo_inurba_marseille","lat":43.2453,"lon":5.39548,"is_reserved":false,"is_disabled":false,"rental_uris":{"android":"levelo://app?vid=4e099002-469e-40dd-a988-90ba29d19792","ios":"levelo://app?vid=4e099002-469e-40dd-a988-90ba29d19792"},"vehicle_type_id":"4","last_reported":1741151410,"current_range_meters":12400,"station_id":"ce4bhlp2rcd13ifvqgjg","pricing_plan_id":"cebpf4jnsgd1na2vs0mg"},{"bike_id":"4c318e6f-45ad-4827-bf6b-ffb0059697a8","system_id":"levelo_inurba_marseille","lat":43.322876,"lon":5.406309,"is_reserved":false,"is_disabled":false,"rental_uris":{"android":"levelo://app?vid=4c318e6f-45ad-4827-bf6b-ffb0059697a8","ios":"levelo://app?vid=4c318e6f-45ad-4827-bf6b-ffb0059697a8"},"vehicle_type_id":"4","last_reported":1741151410,"current_range_meters":12800,"station_id":"","pricing_plan_id":"cebpf4jnsgd1na2vs0mg"},{"bike_id":"3c0c83c5-ab80-4377-a80d-6db8ea5c21e9","system_id":"levelo_inurba_marseille","lat":43.308563,"lon":5.396624,"is_reserved":false,"is_disabled":false,"rental_uris":{"android":"levelo://app?vid=3c0c83c5-ab80-4377-a80d-6db8ea5c21e9","ios":"levelo://app?vid=3c0c83c5-ab80-4377-a80d-6db8ea5c21e9"},"vehicle_type_id":"4","last_reported":1741151410,"current_range_meters":12800,"station_id":"ce4bh012rcd13ifvqcv0","pricing_plan_id":"cebpf4jnsgd1na2vs0mg"},{"bike_id":"cd6daa3a-07f9-42ed-90a2-4f41a2e8d311","system_id":"levelo_inurba_marseille","lat":43.30214,"lon":5.39483,"is_reserved":false,"is_disabled":false,"rental_uris":{"android":"levelo://app?vid=cd6daa3a-07f9-42ed-90a2-4f41a2e8d311","ios":"levelo://app?vid=cd6daa3a-07f9-42ed-90a2-4f41a2e8d311"},"vehicle_type_id":"4","last_reported":1741151410,"current_range_meters":12800,"station_id":"ce4bh0p2rcd13ifvqd70","pricing_plan_id":"cebpf4jnsgd1na2vs0mg"},{"bike_id":"4a2da07a-b9ad-4b93-a387-be16767f29cb","system_id":"levelo_inurba_marseille","lat":43.28947,"lon":5.36405,"is_reserved":false,"is_disabled":false,"rental_uris":{"android":"levelo://app?vid=4a2da07a-b9ad-4b93-a387-be16767f29cb","ios":"levelo://app?vid=4a2da07a-b9ad-4b93-a387-be16767f29cb"},"vehicle_type_id":"4","last_reported":1741151410,"current_range_meters":12800,"station_id":"ce4bhc92rcd13ifvqetg","pricing_plan_id":"cebpf4jnsgd1na2vs0mg"},{"bike_id":"c6762606-6123-4176-98c0-430a38ac0378","system_id":"levelo_inurba_marseille","lat":43.24766,"lon":5.41229,"is_reserved":false,"is_disabled":false,"rental_uris":{"android":"levelo://app?vid=c6762606-6123-4176-98c0-430a38ac0378","ios":"levelo://app?vid=c6762606-6123-4176-98c0-430a38ac0378"},"vehicle_type_id":"4","last_reported":1741151410,"current_range_meters":13600,"station_id":"","pricing_plan_id":"cebpf4jnsgd1na2vs0mg"},{"bike_id":"5f1ba289-9b13-46ac-af73-61b34bf98c84","system_id":"levelo_inurba_marseille","lat":43.30305,"lon":5.392076,"is_reserved":false,"is_disabled":false,"rental_uris":{"android":"levelo://app?vid=5f1ba289-9b13-46ac-af73-61b34bf98c84","ios":"levelo://app?vid=5f1ba289-9b13-46ac-af73-61b34bf98c84"},"vehicle_type_id":"4","last_reported":1741151410,"current_range_meters":13600,"station_id":"ce4bgkh2rcd13ifvqbk0","pricing_plan_id":"cebpf4jnsgd1na2vs0mg"},{"bike_id":"61874337-5ccd-4955-8b89-7147d0c4091e","system_id":"levelo_inurba_marseille","lat":43.29266,"lon":5.40144,"is_reserved":false,"is_disabled":false,"rental_uris":{"android":"levelo://app?vid=61874337-5ccd-4955-8b89-7147d0c4091e","ios":"levelo://app?vid=61874337-5ccd-4955-8b89-7147d0c4091e"},"vehicle_type_id":"4","last_reported":1741151410,"current_range_meters":13600,"station_id":"ce4bh312rcd13ifvqdk0","pricing_plan_id":"cebpf4jnsgd1na2vs0mg"},{"bike_id":"d916775b-40d5-4fea-9568-f5ee3830ae2f","system_id":"levelo_inurba_marseille","lat":43.29033,"lon":5.37565,"is_reserved":false,"is_disabled":false,"rental_uris":{"android":"levelo://app?vid=d916775b-40d5-4fea-9568-f5ee3830ae2f","ios":"levelo://app?vid=d916775b-40d5-4fea-9568-f5ee3830ae2f"},"vehicle_type_id":"4","last_reported":1741151410,"current_range_meters":13600,"station_id":"ce4bh692rcd13ifvqe90","pricing_plan_id":"cebpf4jnsgd1na2vs0mg"},{"bike_id":"95af3f61-11f3-48c0-a765-258073df16be","system_id":"levelo_inurba_marseille","lat":43.24804,"lon":5.3745,"is_reserved":false,"is_disabled":false,"rental_uris":{"android":"levelo://app?vid=95af3f61-11f3-48c0-a765-258073df16be","ios":"levelo://app?vid=95af3f61-11f3-48c0-a765-258073df16be"},"vehicle_type_id":"4","last_reported":1741151410,"current_range_meters":13600,"station_id":"ce4bhgh2rcd13ifvqfb0","pricing_plan_id":"cebpf4jnsgd1na2vs0mg"},{"bike_id":"45531899-b171-4b11-9743-5e84d77c8538","system_id":"levelo_inurba_marseille","lat":43.27805,"lon":5.40735,"is_reserved":false,"is_disabled":false,"rental_uris":{"android":"levelo://app?vid=45531899-b171-4b11-9743-5e84d77c8538","ios":"levelo://app?vid=45531899-b171-4b11-9743-5e84d77c8538"},"vehicle_type_id":"4","last_reported":1741151410,"current_range_meters":13600,"station_id":"ce4bhnh2rcd13ifvqgtg","pricing_plan_id":"cebpf4jnsgd1na2vs0mg"},{"bike_id":"f126ebf4-345b-4a89-ab86-9fcc01836759","system_id":"levelo_inurba_marseille","lat":43.28425,"lon":5.3919,"is_reserved":false,"is_disabled":false,"rental_uris":{"android":"levelo://app?vid=f126ebf4-345b-4a89-ab86-9fcc01836759","ios":"levelo://app?vid=f126ebf4-345b-4a89-ab86-9fcc01836759"},"vehicle_type_id":"4","last_reported":1741151410,"current_range_meters":13600,"station_id":"ce4bhoh2rcd13ifvqh5g","pricing_plan_id":"cebpf4jnsgd1na2vs0mg"},{"bike_id":"ad84434d-20fb-4dcc-8def-077a9f6fa45b","system_id":"levelo_inurba_marseille","lat":43.284061,"lon":5.375022,"is_reserved":false,"is_disabled":false,"rental_uris":{"android":"levelo://app?vid=ad84434d-20fb-4dcc-8def-077a9f6fa45b","ios":"levelo://app?vid=ad84434d-20fb-4dcc-8def-077a9f6fa45b"},"vehicle_type_id":"4","last_reported":1741151410,"current_range_meters":14000,"station_id":"","pricing_plan_id":"cebpf4jnsgd1na2vs0mg"},{"bike_id":"cba6a766-3158-4fdc-849a-5887af830bdc","system_id":"levelo_inurba_marseille","lat":43.29238,"lon":5.38238,"is_reserved":false,"is_disabled":false,"rental_uris":{"android":"levelo://app?vid=cba6a766-3158-4fdc-849a-5887af830bdc","ios":"levelo://app?vid=cba6a766-3158-4fdc-849a-5887af830bdc"},"vehicle_type_id":"4","last_reported":1741151410,"current_range_meters":14000,"station_id":"","pricing_plan_id":"cebpf4jnsgd1na2vs0mg"},{"bike_id":"253377e6-7164-4811-973b-4d94bddbeffc","system_id":"levelo_inurba_marseille","lat":43.30473,"lon":5.37464,"is_reserved":false,"is_disabled":false,"rental_uris":{"android":"levelo://app?vid=253377e6-7164-4811-973b-4d94bddbeffc","ios":"levelo://app?vid=253377e6-7164-4811-973b-4d94bddbeffc"},"vehicle_type_id":"4","last_reported":1741151410,"current_range_meters":14000,"station_id":"","pricing_plan_id":"cebpf4jnsgd1na2vs0mg"},{"bike_id":"79ad4526-135b-4b53-9e21-d3b2fe547392","system_id":"levelo_inurba_marseille","lat":43.30892,"lon":5.3966,"is_reserved":false,"is_disabled":false,"rental_uris":{"android":"levelo://app?vid=79ad4526-135b-4b53-9e21-d3b2fe547392","ios":"levelo://app?vid=79ad4526-135b-4b53-9e21-d3b2fe547392"},"vehicle_type_id":"4","last_reported":1741151410,"current_range_meters":14000,"station_id":"ce4bh012rcd13ifvqcv0","pricing_plan_id":"cebpf4jnsgd1na2vs0mg"},{"bike_id":"4b37ce1f-b43f-429e-a19c-b8c9e00f65d3","system_id":"levelo_inurba_marseille","lat":43.24059,"lon":5.37762,"is_reserved":false,"is_disabled":false,"rental_uris":{"android":"levelo://app?vid=4b37ce1f-b43f-429e-a19c-b8c9e00f65d3","ios":"levelo://app?vid=4b37ce1f-b43f-429e-a19c-b8c9e00f65d3"},"vehicle_type_id":"4","last_reported":1741151410,"current_range_meters":14000,"station_id":"ce4bhnp2rcd13ifvqgvg","pricing_plan_id":"cebpf4jnsgd1na2vs0mg"},{"bike_id":"330426bc-0af9-4c3e-8e4c-6ec10833df11","system_id":"levelo_inurba_marseille","lat":43.29907,"lon":5.43673,"is_reserved":false,"is_disabled":false,"rental_uris":{"android":"levelo://app?vid=330426bc-0af9-4c3e-8e4c-6ec10833df11","ios":"levelo://app?vid=330426bc-0af9-4c3e-8e4c-6ec10833df11"},"vehicle_type_id":"4","last_reported":1741151410,"current_range_meters":14000,"station_id":"ce4bhpp2rcd13ifvqhfg","pricing_plan_id":"cebpf4jnsgd1na2vs0mg"},{"bike_id":"bfaefdd0-de3c-401c-9815-bd6ab825eef1","system_id":"levelo_inurba_marseille","lat":43.31772,"lon":5.38983,"is_reserved":false,"is_disabled":false,"rental_uris":{"android":"levelo://app?vid=bfaefdd0-de3c-401c-9815-bd6ab825eef1","ios":"levelo://app?vid=bfaefdd0-de3c-401c-9815-bd6ab825eef1"},"vehicle_type_id":"4","last_reported":1741151410,"current_range_meters":14400,"station_id":"ce4bhqp2rcd13ifvqhng","pricing_plan_id":"cebpf4jnsgd1na2vs0mg"},{"bike_id":"9cbb5914-3ce0-45a9-bfe4-895657d5f46f","system_id":"levelo_inurba_marseille","lat":43.23184,"lon":5.35565,"is_reserved":false,"is_disabled":false,"rental_uris":{"android":"levelo://app?vid=9cbb5914-3ce0-45a9-bfe4-895657d5f46f","ios":"levelo://app?vid=9cbb5914-3ce0-45a9-bfe4-895657d5f46f"},"vehicle_type_id":"4","last_reported":1741151410,"current_range_meters":14400,"station_id":"ce4bhu92rcd13ifvqi70","pricing_plan_id":"cebpf4jnsgd1na2vs0mg"},{"bike_id":"8e67c6c2-1f86-420e-855b-676e159ed831","system_id":"levelo_inurba_marseille","lat":43.230626,"lon":5.355039,"is_reserved":false,"is_disabled":false,"rental_uris":{"android":"levelo://app?vid=8e67c6c2-1f86-420e-855b-676e159ed831","ios":"levelo://app?vid=8e67c6c2-1f86-420e-855b-676e159ed831"},"vehicle_type_id":"4","last_reported":1741151410,"current_range_meters":14400,"station_id":"cpo3342slgdg3j2ifvpg","pricing_plan_id":"cebpf4jnsgd1na2vs0mg"},{"bike_id":"e8fb3957-55aa-4712-b8af-a6da8b77890f","system_id":"levelo_inurba_marseille","lat":43.301671,"lon":5.381083,"is_reserved":false,"is_disabled":false,"rental_uris":{"android":"levelo://app?vid=e8fb3957-55aa-4712-b8af-a6da8b77890f","ios":"levelo://app?vid=e8fb3957-55aa-4712-b8af-a6da8b77890f"},"vehicle_type_id":"4","last_reported":1741151410,"current_range_meters":14800,"station_id":"ce4bgjp2rcd13ifvqbh0","pricing_plan_id":"cebpf4jnsgd1na2vs0mg"},{"bike_id":"58464e12-30b1-4607-a7a4-43ba66e81a4d","system_id":"levelo_inurba_marseille","lat":43.312279,"lon":5.368494,"is_reserved":false,"is_disabled":false,"rental_uris":{"android":"levelo://app?vid=58464e12-30b1-4607-a7a4-43ba66e81a4d","ios":"levelo://app?vid=58464e12-30b1-4607-a7a4-43ba66e81a4d"},"vehicle_type_id":"4","last_reported":1741151410,"current_range_meters":14800,"station_id":"ce4bgl92rcd13ifvqbq0","pricing_plan_id":"cebpf4jnsgd1na2vs0mg"},{"bike_id":"7e141603-5076-446b-a90d-8e44d6246006","system_id":"levelo_inurba_marseille","lat":43.31246,"lon":5.36863,"is_reserved":false,"is_disabled":false,"rental_uris":{"android":"levelo://app?vid=7e141603-5076-446b-a90d-8e44d6246006","ios":"levelo://app?vid=7e141603-5076-446b-a90d-8e44d6246006"},"vehicle_type_id":"4","last_reported":1741151410,"current_range_meters":14800,"station_id":"ce4bgl92rcd13ifvqbq0","pricing_plan_id":"cebpf4jnsgd1na2vs0mg"},{"bike_id":"1acefdf6-5d73-4748-ba98-728a728be212","system_id":"levelo_inurba_marseille","lat":43.30305,"lon":5.36885,"is_reserved":false,"is_disabled":false,"rental_uris":{"android":"levelo://app?vid=1acefdf6-5d73-4748-ba98-728a728be212","ios":"levelo://app?vid=1acefdf6-5d73-4748-ba98-728a728be212"},"vehicle_type_id":"4","last_reported":1741151410,"current_range_meters":14800,"station_id":"ce4bgqh2rcd13ifvqc5g","pricing_plan_id":"cebpf4jnsgd1na2vs0mg"},{"bike_id":"6be2d959-3029-43e5-9ca2-a3dfb9eee01b","system_id":"levelo_inurba_marseille","lat":43.30814,"lon":5.43529,"is_reserved":false,"is_disabled":false,"rental_uris":{"android":"levelo://app?vid=6be2d959-3029-43e5-9ca2-a3dfb9eee01b","ios":"levelo://app?vid=6be2d959-3029-43e5-9ca2-a3dfb9eee01b"},"vehicle_type_id":"4","last_reported":1741151410,"current_range_meters":14800,"station_id":"ce4bhph2rcd13ifvqheg","pricing_plan_id":"cebpf4jnsgd1na2vs0mg"},{"bike_id":"ee59b3a3-0f87-489f-91b5-15c91569f1b2","system_id":"levelo_inurba_marseille","lat":43.2415,"lon":5.36402,"is_reserved":false,"is_disabled":false,"rental_uris":{"android":"levelo://app?vid=ee59b3a3-0f87-489f-91b5-15c91569f1b2","ios":"levelo://app?vid=ee59b3a3-0f87-489f-91b5-15c91569f1b2"},"vehicle_type_id":"4","last_reported":1741151410,"current_range_meters":14800,"station_id":"cpo36qri1sfpv3e86is0","pricing_plan_id":"cebpf4jnsgd1na2vs0mg"},{"bike_id":"4b3527e0-2461-4d35-a7b3-3519632fea52","system_id":"levelo_inurba_marseille","lat":43.31354,"lon":5.39721,"is_reserved":false,"is_disabled":false,"rental_uris":{"android":"levelo://app?vid=4b3527e0-2461-4d35-a7b3-3519632fea52","ios":"levelo://app?vid=4b3527e0-2461-4d35-a7b3-3519632fea52"},"vehicle_type_id":"4","last_reported":1741151410,"current_range_meters":15200,"station_id":"ce4bgvp2rcd13ifvqcu0","pricing_plan_id":"cebpf4jnsgd1na2vs0mg"},{"bike_id":"8479d310-69c3-461f-820a-fc2b327af55a","system_id":"levelo_inurba_marseille","lat":43.25863,"lon":5.39911,"is_reserved":false,"is_disabled":false,"rental_uris":{"android":"levelo://app?vid=8479d310-69c3-461f-820a-fc2b327af55a","ios":"levelo://app?vid=8479d310-69c3-461f-820a-fc2b327af55a"},"vehicle_type_id":"4","last_reported":1741151410,"current_range_meters":15200,"station_id":"ce4bhl92rcd13ifvqghg","pricing_plan_id":"cebpf4jnsgd1na2vs0mg"},{"bike_id":"6cd2c9f3-9c64-4f6f-a748-c71c29ea4e8f","system_id":"levelo_inurba_marseille","lat":43.32354,"lon":5.38896,"is_reserved":false,"is_disabled":false,"rental_uris":{"android":"levelo://app?vid=6cd2c9f3-9c64-4f6f-a748-c71c29ea4e8f","ios":"levelo://app?vid=6cd2c9f3-9c64-4f6f-a748-c71c29ea4e8f"},"vehicle_type_id":"4","last_reported":1741151410,"current_range_meters":15200,"station_id":"ce4bhqp2rcd13ifvqhog","pricing_plan_id":"cebpf4jnsgd1na2vs0mg"},{"bike_id":"3a61d3ee-a53c-4aba-987b-55941d57629d","system_id":"levelo_inurba_marseille","lat":43.30253,"lon":5.4006,"is_reserved":false,"is_disabled":false,"rental_uris":{"android":"levelo://app?vid=3a61d3ee-a53c-4aba-987b-55941d57629d","ios":"levelo://app?vid=3a61d3ee-a53c-4aba-987b-55941d57629d"},"vehicle_type_id":"4","last_reported":1741151410,"current_range_meters":16000,"station_id":"ce4bgvh2rcd13ifvqcs0","pricing_plan_id":"cebpf4jnsgd1na2vs0mg"},{"bike_id":"e58dfbe3-e42b-4bf0-acbc-24f0b8d09ebf","system_id":"levelo_inurba_marseille","lat":43.28568,"lon":5.3949,"is_reserved":false,"is_disabled":false,"rental_uris":{"android":"levelo://app?vid=e58dfbe3-e42b-4bf0-acbc-24f0b8d09ebf","ios":"levelo://app?vid=e58dfbe3-e42b-4bf0-acbc-24f0b8d09ebf"},"vehicle_type_id":"4","last_reported":1741151410,"current_range_meters":16000,"station_id":"ce4bh292rcd13ifvqdg0","pricing_plan_id":"cebpf4jnsgd1na2vs0mg"},{"bike_id":"ddc4e932-3700-46b0-a34f-49ccac99feb1","system_id":"levelo_inurba_marseille","lat":43.28414,"lon":5.37517,"is_reserved":false,"is_disabled":false,"rental_uris":{"android":"levelo://app?vid=ddc4e932-3700-46b0-a34f-49ccac99feb1","ios":"levelo://app?vid=ddc4e932-3700-46b0-a34f-49ccac99feb1"},"vehicle_type_id":"4","last_reported":1741151410,"current_range_meters":16000,"station_id":"ce4bh412rcd13ifvqds0","pricing_plan_id":"cebpf4jnsgd1na2vs0mg"},{"bike_id":"cb80388b-8041-4c60-a895-a163ef95da6f","system_id":"levelo_inurba_marseille","lat":43.28475,"lon":5.35879,"is_reserved":false,"is_disabled":false,"rental_uris":{"android":"levelo://app?vid=cb80388b-8041-4c60-a895-a163ef95da6f","ios":"levelo://app?vid=cb80388b-8041-4c60-a895-a163ef95da6f"},"vehicle_type_id":"4","last_reported":1741151410,"current_range_meters":16000,"station_id":"ce4bhah2rcd13ifvqei0","pricing_plan_id":"cebpf4jnsgd1na2vs0mg"},{"bike_id":"123a193e-d3f7-45a0-92b1-fa7d8443540e","system_id":"levelo_inurba_marseille","lat":43.28911,"lon":5.36429,"is_reserved":false,"is_disabled":false,"rental_uris":{"android":"levelo://app?vid=123a193e-d3f7-45a0-92b1-fa7d8443540e","ios":"levelo://app?vid=123a193e-d3f7-45a0-92b1-fa7d8443540e"},"vehicle_type_id":"4","last_reported":1741151410,"current_range_meters":16000,"station_id":"ce4bhc92rcd13ifvqetg","pricing_plan_id":"cebpf4jnsgd1na2vs0mg"},{"bike_id":"aa2df70d-6382-46d7-b4f4-57998ee8a055","system_id":"levelo_inurba_marseille","lat":43.23183,"lon":5.39991,"is_reserved":false,"is_disabled":false,"rental_uris":{"android":"levelo://app?vid=aa2df70d-6382-46d7-b4f4-57998ee8a055","ios":"levelo://app?vid=aa2df70d-6382-46d7-b4f4-57998ee8a055"},"vehicle_type_id":"4","last_reported":1741151410,"current_range_meters":16400,"station_id":"ce4bhn12rcd13ifvqgqg","pricing_plan_id":"cebpf4jnsgd1na2vs0mg"},{"bike_id":"310aa2e9-7a67-4936-808f-1880c1a2e6e8","system_id":"levelo_inurba_marseille","lat":43.299272,"lon":5.365332,"is_reserved":false,"is_disabled":false,"rental_uris":{"android":"levelo://app?vid=310aa2e9-7a67-4936-808f-1880c1a2e6e8","ios":"levelo://app?vid=310aa2e9-7a67-4936-808f-1880c1a2e6e8"},"vehicle_type_id":"4","last_reported":1741151410,"current_range_meters":16800,"station_id":"ce4bgm92rcd13ifvqbr0","pricing_plan_id":"cebpf4jnsgd1na2vs0mg"},{"bike_id":"1620d5d1-1c38-4166-bb3a-1d7c3f5b5fdf","system_id":"levelo_inurba_marseille","lat":43.30249,"lon":5.40097,"is_reserved":false,"is_disabled":false,"rental_uris":{"android":"levelo://app?vid=1620d5d1-1c38-4166-bb3a-1d7c3f5b5fdf","ios":"levelo://app?vid=1620d5d1-1c38-4166-bb3a-1d7c3f5b5fdf"},"vehicle_type_id":"4","last_reported":1741151410,"current_range_meters":16800,"station_id":"ce4bgvh2rcd13ifvqcs0","pricing_plan_id":"cebpf4jnsgd1na2vs0mg"},{"bike_id":"4f500008-bb9a-4a09-8eba-78f661430110","system_id":"levelo_inurba_marseille","lat":43.285679,"lon":5.394968,"is_reserved":false,"is_disabled":false,"rental_uris":{"android":"levelo://app?vid=4f500008-bb9a-4a09-8eba-78f661430110","ios":"levelo://app?vid=4f500008-bb9a-4a09-8eba-78f661430110"},"vehicle_type_id":"4","last_reported":1741151410,"current_range_meters":16800,"station_id":"ce4bh292rcd13ifvqdg0","pricing_plan_id":"cebpf4jnsgd1na2vs0mg"},{"bike_id":"9cdc0688-b476-4e47-b0c2-48124c4a767c","system_id":"levelo_inurba_marseille","lat":43.250042,"lon":5.38925,"is_reserved":false,"is_disabled":false,"rental_uris":{"android":"levelo://app?vid=9cdc0688-b476-4e47-b0c2-48124c4a767c","ios":"levelo://app?vid=9cdc0688-b476-4e47-b0c2-48124c4a767c"},"vehicle_type_id":"4","last_reported":1741151410,"current_range_meters":16800,"station_id":"ce4bhgp2rcd13ifvqfd0","pricing_plan_id":"cebpf4jnsgd1na2vs0mg"},{"bike_id":"03578bb5-d96c-4a57-a2c9-d62c3ef779fd","system_id":"levelo_inurba_marseille","lat":43.27937,"lon":5.41046,"is_reserved":false,"is_disabled":false,"rental_uris":{"android":"levelo://app?vid=03578bb5-d96c-4a57-a2c9-d62c3ef779fd","ios":"levelo://app?vid=03578bb5-d96c-4a57-a2c9-d62c3ef779fd"},"vehicle_type_id":"4","last_reported":1741151410,"current_range_meters":16800,"station_id":"ce4bhnp2rcd13ifvqh0g","pricing_plan_id":"cebpf4jnsgd1na2vs0mg"},{"bike_id":"0b3cb245-c1ab-4265-9e03-36f6b9bfa685","system_id":"levelo_inurba_marseille","lat":43.23064,"lon":5.354974,"is_reserved":false,"is_disabled":false,"rental_uris":{"android":"levelo://app?vid=0b3cb245-c1ab-4265-9e03-36f6b9bfa685","ios":"levelo://app?vid=0b3cb245-c1ab-4265-9e03-36f6b9bfa685"},"vehicle_type_id":"4","last_reported":1741151410,"current_range_meters":16800,"station_id":"cpo3342slgdg3j2ifvpg","pricing_plan_id":"cebpf4jnsgd1na2vs0mg"},{"bike_id":"0998abad-2e95-4112-a39f-b55007d9cff8","system_id":"levelo_inurba_marseille","lat":43.2865,"lon":5.35048,"is_reserved":false,"is_disabled":false,"rental_uris":{"android":"levelo://app?vid=0998abad-2e95-4112-a39f-b55007d9cff8","ios":"levelo://app?vid=0998abad-2e95-4112-a39f-b55007d9cff8"},"vehicle_type_id":"4","last_reported":1741151410,"current_range_meters":17200,"station_id":"","pricing_plan_id":"cebpf4jnsgd1na2vs0mg"},{"bike_id":"37d49625-a41a-424f-867d-8323fa9ce7c1","system_id":"levelo_inurba_marseille","lat":43.28422,"lon":5.37527,"is_reserved":false,"is_disabled":false,"rental_uris":{"android":"levelo://app?vid=37d49625-a41a-424f-867d-8323fa9ce7c1","ios":"levelo://app?vid=37d49625-a41a-424f-867d-8323fa9ce7c1"},"vehicle_type_id":"4","last_reported":1741151410,"current_range_meters":17200,"station_id":"ce4bh412rcd13ifvqds0","pricing_plan_id":"cebpf4jnsgd1na2vs0mg"},{"bike_id":"f9db1adc-f23c-4685-b128-97e7165d0213","system_id":"levelo_inurba_marseille","lat":43.28038,"lon":5.36956,"is_reserved":false,"is_disabled":false,"rental_uris":{"android":"levelo://app?vid=f9db1adc-f23c-4685-b128-97e7165d0213","ios":"levelo://app?vid=f9db1adc-f23c-4685-b128-97e7165d0213"},"vehicle_type_id":"4","last_reported":1741151410,"current_range_meters":17200,"station_id":"ce4bha12rcd13ifvqef0","pricing_plan_id":"cebpf4jnsgd1na2vs0mg"},{"bike_id":"497f36e6-1b4d-4194-810d-d7a7f9228aa4","system_id":"levelo_inurba_marseille","lat":43.271789,"lon":5.409929,"is_reserved":false,"is_disabled":false,"rental_uris":{"android":"levelo://app?vid=497f36e6-1b4d-4194-810d-d7a7f9228aa4","ios":"levelo://app?vid=497f36e6-1b4d-4194-810d-d7a7f9228aa4"},"vehicle_type_id":"4","last_reported":1741151410,"current_range_meters":17200,"station_id":"ce4bhl12rcd13ifvqgf0","pricing_plan_id":"cebpf4jnsgd1na2vs0mg"},{"bike_id":"1f514bc4-2e6e-40a4-8975-fabff7fe2280","system_id":"levelo_inurba_marseille","lat":43.23182,"lon":5.39975,"is_reserved":false,"is_disabled":false,"rental_uris":{"android":"levelo://app?vid=1f514bc4-2e6e-40a4-8975-fabff7fe2280","ios":"levelo://app?vid=1f514bc4-2e6e-40a4-8975-fabff7fe2280"},"vehicle_type_id":"4","last_reported":1741151410,"current_range_meters":17200,"station_id":"ce4bhn12rcd13ifvqgqg","pricing_plan_id":"cebpf4jnsgd1na2vs0mg"},{"bike_id":"7f1905bf-da4d-4f13-af14-c5d46804e585","system_id":"levelo_inurba_marseille","lat":43.23178,"lon":5.35571,"is_reserved":false,"is_disabled":false,"rental_uris":{"android":"levelo://app?vid=7f1905bf-da4d-4f13-af14-c5d46804e585","ios":"levelo://app?vid=7f1905bf-da4d-4f13-af14-c5d46804e585"},"vehicle_type_id":"4","last_reported":1741151410,"current_range_meters":17200,"station_id":"ce4bhu92rcd13ifvqi70","pricing_plan_id":"cebpf4jnsgd1na2vs0mg"},{"bike_id":"e5d41598-0b8c-4934-983a-bc2927772685","system_id":"levelo_inurba_marseille","lat":43.309571,"lon":5.390369,"is_reserved":false,"is_disabled":false,"rental_uris":{"android":"levelo://app?vid=e5d41598-0b8c-4934-983a-bc2927772685","ios":"levelo://app?vid=e5d41598-0b8c-4934-983a-bc2927772685"},"vehicle_type_id":"4","last_reported":1741151410,"current_range_meters":17600,"station_id":"ce4bgup2rcd13ifvqco0","pricing_plan_id":"cebpf4jnsgd1na2vs0mg"},{"bike_id":"c6c08dd3-66e1-4917-8555-0d6d30fa328f","system_id":"levelo_inurba_marseille","lat":43.29239,"lon":5.40911,"is_reserved":false,"is_disabled":false,"rental_uris":{"android":"levelo://app?vid=c6c08dd3-66e1-4917-8555-0d6d30fa328f","ios":"levelo://app?vid=c6c08dd3-66e1-4917-8555-0d6d30fa328f"},"vehicle_type_id":"4","last_reported":1741151410,"current_range_meters":17600,"station_id":"ce4bh192rcd13ifvqdc0","pricing_plan_id":"cebpf4jnsgd1na2vs0mg"},{"bike_id":"c0c9898b-544e-487f-b48c-d9691751b894","system_id":"levelo_inurba_marseille","lat":43.286158,"lon":5.351072,"is_reserved":false,"is_disabled":false,"rental_uris":{"android":"levelo://app?vid=c0c9898b-544e-487f-b48c-d9691751b894","ios":"levelo://app?vid=c0c9898b-544e-487f-b48c-d9691751b894"},"vehicle_type_id":"4","last_reported":1741151410,"current_range_meters":17600,"station_id":"ce4bhch2rcd13ifvqeug","pricing_plan_id":"cebpf4jnsgd1na2vs0mg"},{"bike_id":"53890812-d349-4ce9-87bf-98b5641abbac","system_id":"levelo_inurba_marseille","lat":43.23186,"lon":5.39985,"is_reserved":false,"is_disabled":false,"rental_uris":{"android":"levelo://app?vid=53890812-d349-4ce9-87bf-98b5641abbac","ios":"levelo://app?vid=53890812-d349-4ce9-87bf-98b5641abbac"},"vehicle_type_id":"4","last_reported":1741151410,"current_range_meters":17600,"station_id":"ce4bhn12rcd13ifvqgqg","pricing_plan_id":"cebpf4jnsgd1na2vs0mg"},{"bike_id":"20ec722b-0094-47d9-82e0-e3e0a0e9aa2e","system_id":"levelo_inurba_marseille","lat":43.28728,"lon":5.3608,"is_reserved":false,"is_disabled":false,"rental_uris":{"android":"levelo://app?vid=20ec722b-0094-47d9-82e0-e3e0a0e9aa2e","ios":"levelo://app?vid=20ec722b-0094-47d9-82e0-e3e0a0e9aa2e"},"vehicle_type_id":"4","last_reported":1741151410,"current_range_meters":17600,"station_id":"cki0cbj6b192h4jlfktg","pricing_plan_id":"cebpf4jnsgd1na2vs0mg"},{"bike_id":"5981e5fd-8ca3-4e17-921d-10437ee17d35","system_id":"levelo_inurba_marseille","lat":43.24159,"lon":5.36402,"is_reserved":false,"is_disabled":false,"rental_uris":{"android":"levelo://app?vid=5981e5fd-8ca3-4e17-921d-10437ee17d35","ios":"levelo://app?vid=5981e5fd-8ca3-4e17-921d-10437ee17d35"},"vehicle_type_id":"4","last_reported":1741151410,"current_range_meters":17600,"station_id":"cpo36qri1sfpv3e86is0","pricing_plan_id":"cebpf4jnsgd1na2vs0mg"},{"bike_id":"63144ad0-cb53-4aa6-b1d2-4fd709156664","system_id":"levelo_inurba_marseille","lat":43.275635,"lon":5.417016,"is_reserved":false,"is_disabled":false,"rental_uris":{"android":"levelo://app?vid=63144ad0-cb53-4aa6-b1d2-4fd709156664","ios":"levelo://app?vid=63144ad0-cb53-4aa6-b1d2-4fd709156664"},"vehicle_type_id":"4","last_reported":1741151410,"current_range_meters":18000,"station_id":"","pricing_plan_id":"cebpf4jnsgd1na2vs0mg"},{"bike_id":"d566b349-fad5-4c65-ba67-763095a86b52","system_id":"levelo_inurba_marseille","lat":43.284027,"lon":5.375115,"is_reserved":false,"is_disabled":false,"rental_uris":{"android":"levelo://app?vid=d566b349-fad5-4c65-ba67-763095a86b52","ios":"levelo://app?vid=d566b349-fad5-4c65-ba67-763095a86b52"},"vehicle_type_id":"4","last_reported":1741151410,"current_range_meters":18000,"station_id":"ce4bh412rcd13ifvqds0","pricing_plan_id":"cebpf4jnsgd1na2vs0mg"},{"bike_id":"30f48192-7373-4199-b6d6-4dc7df19305a","system_id":"levelo_inurba_marseille","lat":43.27773,"lon":5.40711,"is_reserved":false,"is_disabled":false,"rental_uris":{"android":"levelo://app?vid=30f48192-7373-4199-b6d6-4dc7df19305a","ios":"levelo://app?vid=30f48192-7373-4199-b6d6-4dc7df19305a"},"vehicle_type_id":"4","last_reported":1741151410,"current_range_meters":18000,"station_id":"ce4bhnh2rcd13ifvqgtg","pricing_plan_id":"cebpf4jnsgd1na2vs0mg"},{"bike_id":"946e4ecf-fad9-4839-b716-fff17ccb476d","system_id":"levelo_inurba_marseille","lat":43.323654,"lon":5.38892,"is_reserved":false,"is_disabled":false,"rental_uris":{"android":"levelo://app?vid=946e4ecf-fad9-4839-b716-fff17ccb476d","ios":"levelo://app?vid=946e4ecf-fad9-4839-b716-fff17ccb476d"},"vehicle_type_id":"4","last_reported":1741151410,"current_range_meters":18000,"station_id":"ce4bhqp2rcd13ifvqhog","pricing_plan_id":"cebpf4jnsgd1na2vs0mg"},{"bike_id":"e9d6c337-98c4-4047-9c98-4a611a55b19a","system_id":"levelo_inurba_marseille","lat":43.31641,"lon":5.40497,"is_reserved":false,"is_disabled":false,"rental_uris":{"android":"levelo://app?vid=e9d6c337-98c4-4047-9c98-4a611a55b19a","ios":"levelo://app?vid=e9d6c337-98c4-4047-9c98-4a611a55b19a"},"vehicle_type_id":"4","last_reported":1741151410,"current_range_meters":18800,"station_id":"","pricing_plan_id":"cebpf4jnsgd1na2vs0mg"},{"bike_id":"03c83291-9847-4b1c-aa19-ce2811f56694","system_id":"levelo_inurba_marseille","lat":43.300114,"lon":5.400386,"is_reserved":false,"is_disabled":false,"rental_uris":{"android":"levelo://app?vid=03c83291-9847-4b1c-aa19-ce2811f56694","ios":"levelo://app?vid=03c83291-9847-4b1c-aa19-ce2811f56694"},"vehicle_type_id":"4","last_reported":1741151410,"current_range_meters":18800,"station_id":"","pricing_plan_id":"cebpf4jnsgd1na2vs0mg"},{"bike_id":"4a27a090-a312-490c-ae3e-4fb8916cc6b0","system_id":"levelo_inurba_marseille","lat":43.30919,"lon":5.39643,"is_reserved":false,"is_disabled":false,"rental_uris":{"android":"levelo://app?vid=4a27a090-a312-490c-ae3e-4fb8916cc6b0","ios":"levelo://app?vid=4a27a090-a312-490c-ae3e-4fb8916cc6b0"},"vehicle_type_id":"4","last_reported":1741151410,"current_range_meters":18800,"station_id":"ce4bh012rcd13ifvqcv0","pricing_plan_id":"cebpf4jnsgd1na2vs0mg"},{"bike_id":"7b0aaf32-5511-49fd-9442-b69a9ccf3aec","system_id":"levelo_inurba_marseille","lat":43.306409,"lon":5.400821,"is_reserved":false,"is_disabled":false,"rental_uris":{"android":"levelo://app?vid=7b0aaf32-5511-49fd-9442-b69a9ccf3aec","ios":"levelo://app?vid=7b0aaf32-5511-49fd-9442-b69a9ccf3aec"},"vehicle_type_id":"4","last_reported":1741151410,"current_range_meters":18800,"station_id":"ce4bh112rcd13ifvqda0","pricing_plan_id":"cebpf4jnsgd1na2vs0mg"},{"bike_id":"0a578be9-4570-45c2-8cb0-87b6ce50f70c","system_id":"levelo_inurba_marseille","lat":43.311741,"lon":5.387157,"is_reserved":false,"is_disabled":false,"rental_uris":{"android":"levelo://app?vid=0a578be9-4570-45c2-8cb0-87b6ce50f70c","ios":"levelo://app?vid=0a578be9-4570-45c2-8cb0-87b6ce50f70c"},"vehicle_type_id":"4","last_reported":1741151410,"current_range_meters":19200,"station_id":"ce4bgv12rcd13ifvqcp0","pricing_plan_id":"cebpf4jnsgd1na2vs0mg"},{"bike_id":"41480a0a-3b1b-42e0-b97e-6f98e49c4bd1","system_id":"levelo_inurba_marseille","lat":43.31153,"lon":5.38716,"is_reserved":false,"is_disabled":false,"rental_uris":{"android":"levelo://app?vid=41480a0a-3b1b-42e0-b97e-6f98e49c4bd1","ios":"levelo://app?vid=41480a0a-3b1b-42e0-b97e-6f98e49c4bd1"},"vehicle_type_id":"4","last_reported":1741151410,"current_range_meters":19200,"station_id":"ce4bgv12rcd13ifvqcp0","pricing_plan_id":"cebpf4jnsgd1na2vs0mg"},{"bike_id":"461d2f80-a501-4578-ba04-3fcb42ca37bd","system_id":"levelo_inurba_marseille","lat":43.2874,"lon":5.37938,"is_reserved":false,"is_disabled":false,"rental_uris":{"android":"levelo://app?vid=461d2f80-a501-4578-ba04-3fcb42ca37bd","ios":"levelo://app?vid=461d2f80-a501-4578-ba04-3fcb42ca37bd"},"vehicle_type_id":"4","last_reported":1741151410,"current_range_meters":19200,"station_id":"ce4bh9p2rcd13ifvqec0","pricing_plan_id":"cebpf4jnsgd1na2vs0mg"},{"bike_id":"adcd852c-89c5-4d5d-9f0d-748a5f918f3a","system_id":"levelo_inurba_marseille","lat":43.31219,"lon":5.38661,"is_reserved":false,"is_disabled":false,"rental_uris":{"android":"levelo://app?vid=adcd852c-89c5-4d5d-9f0d-748a5f918f3a","ios":"levelo://app?vid=adcd852c-89c5-4d5d-9f0d-748a5f918f3a"},"vehicle_type_id":"4","last_reported":1741151410,"current_range_meters":19600,"station_id":"","pricing_plan_id":"cebpf4jnsgd1na2vs0mg"},{"bike_id":"ddf8da57-c75b-46e3-b29c-8fee32cd41e0","system_id":"levelo_inurba_marseille","lat":43.27198,"lon":5.40997,"is_reserved":false,"is_disabled":false,"rental_uris":{"android":"levelo://app?vid=ddf8da57-c75b-46e3-b29c-8fee32cd41e0","ios":"levelo://app?vid=ddf8da57-c75b-46e3-b29c-8fee32cd41e0"},"vehicle_type_id":"4","last_reported":1741151410,"current_range_meters":19600,"station_id":"ce4bhl12rcd13ifvqgf0","pricing_plan_id":"cebpf4jnsgd1na2vs0mg"},{"bike_id":"29233438-0b44-40bc-9e96-aa2194368664","system_id":"levelo_inurba_marseille","lat":43.28095,"lon":5.39713,"is_reserved":false,"is_disabled":false,"rental_uris":{"android":"levelo://app?vid=29233438-0b44-40bc-9e96-aa2194368664","ios":"levelo://app?vid=29233438-0b44-40bc-9e96-aa2194368664"},"vehicle_type_id":"4","last_reported":1741151410,"current_range_meters":19600,"station_id":"ce4bho12rcd13ifvqh2g","pricing_plan_id":"cebpf4jnsgd1na2vs0mg"},{"bike_id":"8a9e82e6-813b-4d5c-85b9-38189a94d859","system_id":"levelo_inurba_marseille","lat":43.31761,"lon":5.39018,"is_reserved":false,"is_disabled":false,"rental_uris":{"android":"levelo://app?vid=8a9e82e6-813b-4d5c-85b9-38189a94d859","ios":"levelo://app?vid=8a9e82e6-813b-4d5c-85b9-38189a94d859"},"vehicle_type_id":"4","last_reported":1741151410,"current_range_meters":19600,"station_id":"ce4bhqp2rcd13ifvqhng","pricing_plan_id":"cebpf4jnsgd1na2vs0mg"},{"bike_id":"49a3c411-674c-4b0d-900e-f4a8030bd814","system_id":"levelo_inurba_marseille","lat":43.295683,"lon":5.399617,"is_reserved":false,"is_disabled":false,"rental_uris":{"android":"levelo://app?vid=49a3c411-674c-4b0d-900e-f4a8030bd814","ios":"levelo://app?vid=49a3c411-674c-4b0d-900e-f4a8030bd814"},"vehicle_type_id":"4","last_reported":1741151410,"current_range_meters":20000,"station_id":"ce4bh312rcd13ifvqdj0","pricing_plan_id":"cebpf4jnsgd1na2vs0mg"},{"bike_id":"d7cf99b8-c3a9-4616-a11e-4b26b17a4da8","system_id":"levelo_inurba_marseille","lat":43.28456,"lon":5.35881,"is_reserved":false,"is_disabled":false,"rental_uris":{"android":"levelo://app?vid=d7cf99b8-c3a9-4616-a11e-4b26b17a4da8","ios":"levelo://app?vid=d7cf99b8-c3a9-4616-a11e-4b26b17a4da8"},"vehicle_type_id":"4","last_reported":1741151410,"current_range_meters":20000,"station_id":"ce4bhah2rcd13ifvqei0","pricing_plan_id":"cebpf4jnsgd1na2vs0mg"},{"bike_id":"897346e4-9256-45ed-959e-238f61469d2b","system_id":"levelo_inurba_marseille","lat":43.28411,"lon":5.34992,"is_reserved":false,"is_disabled":false,"rental_uris":{"android":"levelo://app?vid=897346e4-9256-45ed-959e-238f61469d2b","ios":"levelo://app?vid=897346e4-9256-45ed-959e-238f61469d2b"},"vehicle_type_id":"4","last_reported":1741151410,"current_range_meters":20000,"station_id":"ce4bhbh2rcd13ifvqepg","pricing_plan_id":"cebpf4jnsgd1na2vs0mg"},{"bike_id":"4640ff06-207b-424e-b9e6-f52d07ab04e7","system_id":"levelo_inurba_marseille","lat":43.258241,"lon":5.394332,"is_reserved":false,"is_disabled":false,"rental_uris":{"android":"levelo://app?vid=4640ff06-207b-424e-b9e6-f52d07ab04e7","ios":"levelo://app?vid=4640ff06-207b-424e-b9e6-f52d07ab04e7"},"vehicle_type_id":"4","last_reported":1741151410,"current_range_meters":20000,"station_id":"ce4bhip2rcd13ifvqft0","pricing_plan_id":"cebpf4jnsgd1na2vs0mg"},{"bike_id":"36683cfb-6025-4251-8940-e24d6ebbb450","system_id":"levelo_inurba_marseille","lat":43.28448,"lon":5.39202,"is_reserved":false,"is_disabled":false,"rental_uris":{"android":"levelo://app?vid=36683cfb-6025-4251-8940-e24d6ebbb450","ios":"levelo://app?vid=36683cfb-6025-4251-8940-e24d6ebbb450"},"vehicle_type_id":"4","last_reported":1741151410,"current_range_meters":20000,"station_id":"ce4bhoh2rcd13ifvqh5g","pricing_plan_id":"cebpf4jnsgd1na2vs0mg"},{"bike_id":"de725ed8-8695-4b69-8ffc-7471bde9f052","system_id":"levelo_inurba_marseille","lat":43.29636,"lon":5.36646,"is_reserved":false,"is_disabled":false,"rental_uris":{"android":"levelo://app?vid=de725ed8-8695-4b69-8ffc-7471bde9f052","ios":"levelo://app?vid=de725ed8-8695-4b69-8ffc-7471bde9f052"},"vehicle_type_id":"4","last_reported":1741151410,"current_range_meters":20400,"station_id":"","pricing_plan_id":"cebpf4jnsgd1na2vs0mg"},{"bike_id":"30a50c9a-3d39-4329-be45-502592fe5857","system_id":"levelo_inurba_marseille","lat":43.3088,"lon":5.39652,"is_reserved":false,"is_disabled":false,"rental_uris":{"android":"levelo://app?vid=30a50c9a-3d39-4329-be45-502592fe5857","ios":"levelo://app?vid=30a50c9a-3d39-4329-be45-502592fe5857"},"vehicle_type_id":"4","last_reported":1741151410,"current_range_meters":20400,"station_id":"ce4bh012rcd13ifvqcv0","pricing_plan_id":"cebpf4jnsgd1na2vs0mg"},{"bike_id":"3280e5f6-35b3-465d-a7ad-797644e91629","system_id":"levelo_inurba_marseille","lat":43.33025,"lon":5.39062,"is_reserved":false,"is_disabled":false,"rental_uris":{"android":"levelo://app?vid=3280e5f6-35b3-465d-a7ad-797644e91629","ios":"levelo://app?vid=3280e5f6-35b3-465d-a7ad-797644e91629"},"vehicle_type_id":"4","last_reported":1741151410,"current_range_meters":20400,"station_id":"ce4bhr92rcd13ifvqhrg","pricing_plan_id":"cebpf4jnsgd1na2vs0mg"},{"bike_id":"508b988e-5215-41fb-91fa-2f9c6cff83ba","system_id":"levelo_inurba_marseille","lat":43.284596,"lon":5.358899,"is_reserved":false,"is_disabled":false,"rental_uris":{"android":"levelo://app?vid=508b988e-5215-41fb-91fa-2f9c6cff83ba","ios":"levelo://app?vid=508b988e-5215-41fb-91fa-2f9c6cff83ba"},"vehicle_type_id":"4","last_reported":1741151410,"current_range_meters":20800,"station_id":"ce4bhah2rcd13ifvqei0","pricing_plan_id":"cebpf4jnsgd1na2vs0mg"},{"bike_id":"20d77aae-b3f1-4cd0-8600-87d37799487f","system_id":"levelo_inurba_marseille","lat":43.24072,"lon":5.37767,"is_reserved":false,"is_disabled":false,"rental_uris":{"android":"levelo://app?vid=20d77aae-b3f1-4cd0-8600-87d37799487f","ios":"levelo://app?vid=20d77aae-b3f1-4cd0-8600-87d37799487f"},"vehicle_type_id":"4","last_reported":1741151410,"current_range_meters":20800,"station_id":"ce4bhnp2rcd13ifvqgvg","pricing_plan_id":"cebpf4jnsgd1na2vs0mg"},{"bike_id":"7940066d-cd24-41b6-836e-1355fc2b9e03","system_id":"levelo_inurba_marseille","lat":43.23193,"lon":5.35555,"is_reserved":false,"is_disabled":false,"rental_uris":{"android":"levelo://app?vid=7940066d-cd24-41b6-836e-1355fc2b9e03","ios":"levelo://app?vid=7940066d-cd24-41b6-836e-1355fc2b9e03"},"vehicle_type_id":"4","last_reported":1741151410,"current_range_meters":20800,"station_id":"ce4bhu92rcd13ifvqi70","pricing_plan_id":"cebpf4jnsgd1na2vs0mg"},{"bike_id":"c4cff912-8e4f-4849-8c0f-b53a8562c9d8","system_id":"levelo_inurba_marseille","lat":43.29254,"lon":5.40915,"is_reserved":false,"is_disabled":false,"rental_uris":{"android":"levelo://app?vid=c4cff912-8e4f-4849-8c0f-b53a8562c9d8","ios":"levelo://app?vid=c4cff912-8e4f-4849-8c0f-b53a8562c9d8"},"vehicle_type_id":"4","last_reported":1741151410,"current_range_meters":21600,"station_id":"ce4bh192rcd13ifvqdc0","pricing_plan_id":"cebpf4jnsgd1na2vs0mg"},{"bike_id":"d888c837-d8c1-4daf-a21a-168d7a19c05a","system_id":"levelo_inurba_marseille","lat":43.285575,"lon":5.394911,"is_reserved":false,"is_disabled":false,"rental_uris":{"android":"levelo://app?vid=d888c837-d8c1-4daf-a21a-168d7a19c05a","ios":"levelo://app?vid=d888c837-d8c1-4daf-a21a-168d7a19c05a"},"vehicle_type_id":"4","last_reported":1741151410,"current_range_meters":21600,"station_id":"ce4bh292rcd13ifvqdg0","pricing_plan_id":"cebpf4jnsgd1na2vs0mg"},{"bike_id":"e677fb10-b509-4eef-b3b0-4f4bc39c8219","system_id":"levelo_inurba_marseille","lat":43.25087,"lon":5.4034,"is_reserved":false,"is_disabled":false,"rental_uris":{"android":"levelo://app?vid=e677fb10-b509-4eef-b3b0-4f4bc39c8219","ios":"levelo://app?vid=e677fb10-b509-4eef-b3b0-4f4bc39c8219"},"vehicle_type_id":"4","last_reported":1741151410,"current_range_meters":21600,"station_id":"ce4bhlh2rcd13ifvqgig","pricing_plan_id":"cebpf4jnsgd1na2vs0mg"},{"bike_id":"da0d262f-a4f8-4e3f-af8a-bd0c22c42685","system_id":"levelo_inurba_marseille","lat":43.30253,"lon":5.40078,"is_reserved":false,"is_disabled":false,"rental_uris":{"android":"levelo://app?vid=da0d262f-a4f8-4e3f-af8a-bd0c22c42685","ios":"levelo://app?vid=da0d262f-a4f8-4e3f-af8a-bd0c22c42685"},"vehicle_type_id":"4","last_reported":1741151410,"current_range_meters":22000,"station_id":"ce4bgvh2rcd13ifvqcs0","pricing_plan_id":"cebpf4jnsgd1na2vs0mg"},{"bike_id":"a2afb59b-838f-4aba-a3c0-e5c91aaf26fb","system_id":"levelo_inurba_marseille","lat":43.29274,"lon":5.40113,"is_reserved":false,"is_disabled":false,"rental_uris":{"android":"levelo://app?vid=a2afb59b-838f-4aba-a3c0-e5c91aaf26fb","ios":"levelo://app?vid=a2afb59b-838f-4aba-a3c0-e5c91aaf26fb"},"vehicle_type_id":"4","last_reported":1741151410,"current_range_meters":22000,"station_id":"ce4bh312rcd13ifvqdk0","pricing_plan_id":"cebpf4jnsgd1na2vs0mg"},{"bike_id":"9c776da3-fc96-4502-864b-c3acc2087ef7","system_id":"levelo_inurba_marseille","lat":43.30799,"lon":5.43558,"is_reserved":false,"is_disabled":false,"rental_uris":{"android":"levelo://app?vid=9c776da3-fc96-4502-864b-c3acc2087ef7","ios":"levelo://app?vid=9c776da3-fc96-4502-864b-c3acc2087ef7"},"vehicle_type_id":"4","last_reported":1741151410,"current_range_meters":22000,"station_id":"ce4bhph2rcd13ifvqheg","pricing_plan_id":"cebpf4jnsgd1na2vs0mg"},{"bike_id":"31e61b60-ebfd-411c-8d54-3b01af027f53","system_id":"levelo_inurba_marseille","lat":43.31755,"lon":5.39017,"is_reserved":false,"is_disabled":false,"rental_uris":{"android":"levelo://app?vid=31e61b60-ebfd-411c-8d54-3b01af027f53","ios":"levelo://app?vid=31e61b60-ebfd-411c-8d54-3b01af027f53"},"vehicle_type_id":"4","last_reported":1741151410,"current_range_meters":22000,"station_id":"ce4bhqp2rcd13ifvqhng","pricing_plan_id":"cebpf4jnsgd1na2vs0mg"},{"bike_id":"a2d5bd17-4e82-4609-b50d-cd4e75c922d5","system_id":"levelo_inurba_marseille","lat":43.32364,"lon":5.38876,"is_reserved":false,"is_disabled":false,"rental_uris":{"android":"levelo://app?vid=a2d5bd17-4e82-4609-b50d-cd4e75c922d5","ios":"levelo://app?vid=a2d5bd17-4e82-4609-b50d-cd4e75c922d5"},"vehicle_type_id":"4","last_reported":1741151410,"current_range_meters":22000,"station_id":"ce4bhqp2rcd13ifvqhog","pricing_plan_id":"cebpf4jnsgd1na2vs0mg"},{"bike_id":"3658bd46-f9fa-4e1e-abd7-0155fe427c1a","system_id":"levelo_inurba_marseille","lat":43.29279,"lon":5.401141,"is_reserved":false,"is_disabled":false,"rental_uris":{"android":"levelo://app?vid=3658bd46-f9fa-4e1e-abd7-0155fe427c1a","ios":"levelo://app?vid=3658bd46-f9fa-4e1e-abd7-0155fe427c1a"},"vehicle_type_id":"4","last_reported":1741151410,"current_range_meters":22400,"station_id":"ce4bh312rcd13ifvqdk0","pricing_plan_id":"cebpf4jnsgd1na2vs0mg"},{"bike_id":"50eabb2d-6a13-4d83-9df9-a3fb490a78a7","system_id":"levelo_inurba_marseille","lat":43.32108,"lon":5.36782,"is_reserved":false,"is_disabled":false,"rental_uris":{"android":"levelo://app?vid=50eabb2d-6a13-4d83-9df9-a3fb490a78a7","ios":"levelo://app?vid=50eabb2d-6a13-4d83-9df9-a3fb490a78a7"},"vehicle_type_id":"4","last_reported":1741151410,"current_range_meters":22400,"station_id":"ce4bhrh2rcd13ifvqhug","pricing_plan_id":"cebpf4jnsgd1na2vs0mg"},{"bike_id":"56d2ec0c-96ab-43a1-b62e-1143330d46ca","system_id":"levelo_inurba_marseille","lat":43.280348,"lon":5.369435,"is_reserved":false,"is_disabled":false,"rental_uris":{"android":"levelo://app?vid=56d2ec0c-96ab-43a1-b62e-1143330d46ca","ios":"levelo://app?vid=56d2ec0c-96ab-43a1-b62e-1143330d46ca"},"vehicle_type_id":"4","last_reported":1741151410,"current_range_meters":22800,"station_id":"ce4bha12rcd13ifvqef0","pricing_plan_id":"cebpf4jnsgd1na2vs0mg"},{"bike_id":"6b19e4cc-4be8-44c4-af94-a2d16b1e2e33","system_id":"levelo_inurba_marseille","lat":43.23188,"lon":5.39988,"is_reserved":false,"is_disabled":false,"rental_uris":{"android":"levelo://app?vid=6b19e4cc-4be8-44c4-af94-a2d16b1e2e33","ios":"levelo://app?vid=6b19e4cc-4be8-44c4-af94-a2d16b1e2e33"},"vehicle_type_id":"4","last_reported":1741151410,"current_range_meters":22800,"station_id":"ce4bhn12rcd13ifvqgqg","pricing_plan_id":"cebpf4jnsgd1na2vs0mg"},{"bike_id":"50e500c6-551e-4b60-ac43-35c7198e97bb","system_id":"levelo_inurba_marseille","lat":43.28678,"lon":5.37393,"is_reserved":false,"is_disabled":false,"rental_uris":{"android":"levelo://app?vid=50e500c6-551e-4b60-ac43-35c7198e97bb","ios":"levelo://app?vid=50e500c6-551e-4b60-ac43-35c7198e97bb"},"vehicle_type_id":"4","last_reported":1741151410,"current_range_meters":23200,"station_id":"ce4bh3p2rcd13ifvqdq0","pricing_plan_id":"cebpf4jnsgd1na2vs0mg"},{"bike_id":"3a6248e7-ad8e-4990-8b5a-501ee541a486","system_id":"levelo_inurba_marseille","lat":43.28424,"lon":5.37519,"is_reserved":false,"is_disabled":false,"rental_uris":{"android":"levelo://app?vid=3a6248e7-ad8e-4990-8b5a-501ee541a486","ios":"levelo://app?vid=3a6248e7-ad8e-4990-8b5a-501ee541a486"},"vehicle_type_id":"4","last_reported":1741151410,"current_range_meters":23200,"station_id":"ce4bh412rcd13ifvqds0","pricing_plan_id":"cebpf4jnsgd1na2vs0mg"},{"bike_id":"3e2932cd-bda9-4842-abf2-5ffd1eee083c","system_id":"levelo_inurba_marseille","lat":43.28468,"lon":5.35887,"is_reserved":false,"is_disabled":false,"rental_uris":{"android":"levelo://app?vid=3e2932cd-bda9-4842-abf2-5ffd1eee083c","ios":"levelo://app?vid=3e2932cd-bda9-4842-abf2-5ffd1eee083c"},"vehicle_type_id":"4","last_reported":1741151410,"current_range_meters":23200,"station_id":"ce4bhah2rcd13ifvqei0","pricing_plan_id":"cebpf4jnsgd1na2vs0mg"},{"bike_id":"b01c6801-67cd-45ea-a72f-9bfd33ab9e18","system_id":"levelo_inurba_marseille","lat":43.2467,"lon":5.38133,"is_reserved":false,"is_disabled":false,"rental_uris":{"android":"levelo://app?vid=b01c6801-67cd-45ea-a72f-9bfd33ab9e18","ios":"levelo://app?vid=b01c6801-67cd-45ea-a72f-9bfd33ab9e18"},"vehicle_type_id":"4","last_reported":1741151410,"current_range_meters":23200,"station_id":"ce4bhih2rcd13ifvqfr0","pricing_plan_id":"cebpf4jnsgd1na2vs0mg"},{"bike_id":"e58300f2-5d8c-46d6-ac77-72219b944d6a","system_id":"levelo_inurba_marseille","lat":43.278197,"lon":5.407173,"is_reserved":false,"is_disabled":false,"rental_uris":{"android":"levelo://app?vid=e58300f2-5d8c-46d6-ac77-72219b944d6a","ios":"levelo://app?vid=e58300f2-5d8c-46d6-ac77-72219b944d6a"},"vehicle_type_id":"4","last_reported":1741151410,"current_range_meters":23200,"station_id":"ce4bhnh2rcd13ifvqgtg","pricing_plan_id":"cebpf4jnsgd1na2vs0mg"},{"bike_id":"68113b08-6468-4397-baf4-1a8a073f8083","system_id":"levelo_inurba_marseille","lat":43.2808,"lon":5.3966,"is_reserved":false,"is_disabled":false,"rental_uris":{"android":"levelo://app?vid=68113b08-6468-4397-baf4-1a8a073f8083","ios":"levelo://app?vid=68113b08-6468-4397-baf4-1a8a073f8083"},"vehicle_type_id":"4","last_reported":1741151410,"current_range_meters":23200,"station_id":"ce4bho12rcd13ifvqh2g","pricing_plan_id":"cebpf4jnsgd1na2vs0mg"},{"bike_id":"066701ba-1cd2-482b-a79c-eb32a1328647","system_id":"levelo_inurba_marseille","lat":43.28065,"lon":5.39628,"is_reserved":false,"is_disabled":false,"rental_uris":{"android":"levelo://app?vid=066701ba-1cd2-482b-a79c-eb32a1328647","ios":"levelo://app?vid=066701ba-1cd2-482b-a79c-eb32a1328647"},"vehicle_type_id":"4","last_reported":1741151410,"current_range_meters":23200,"station_id":"ce4bho12rcd13ifvqh2g","pricing_plan_id":"cebpf4jnsgd1na2vs0mg"},{"bike_id":"24ef6e15-0ff0-4e86-9954-8e2d752cd8ab","system_id":"levelo_inurba_marseille","lat":43.31765,"lon":5.39012,"is_reserved":false,"is_disabled":false,"rental_uris":{"android":"levelo://app?vid=24ef6e15-0ff0-4e86-9954-8e2d752cd8ab","ios":"levelo://app?vid=24ef6e15-0ff0-4e86-9954-8e2d752cd8ab"},"vehicle_type_id":"4","last_reported":1741151410,"current_range_meters":23200,"station_id":"ce4bhqp2rcd13ifvqhng","pricing_plan_id":"cebpf4jnsgd1na2vs0mg"},{"bike_id":"5b232c79-2917-4c52-ba26-c3bc6ca4fb79","system_id":"levelo_inurba_marseille","lat":43.319955,"lon":5.381504,"is_reserved":false,"is_disabled":false,"rental_uris":{"android":"levelo://app?vid=5b232c79-2917-4c52-ba26-c3bc6ca4fb79","ios":"levelo://app?vid=5b232c79-2917-4c52-ba26-c3bc6ca4fb79"},"vehicle_type_id":"4","last_reported":1741151410,"current_range_meters":23200,"station_id":"ce4bhr12rcd13ifvqhpg","pricing_plan_id":"cebpf4jnsgd1na2vs0mg"},{"bike_id":"76fd4915-9bf9-4bad-a154-638c2536703d","system_id":"levelo_inurba_marseille","lat":43.31327,"lon":5.39696,"is_reserved":false,"is_disabled":false,"rental_uris":{"android":"levelo://app?vid=76fd4915-9bf9-4bad-a154-638c2536703d","ios":"levelo://app?vid=76fd4915-9bf9-4bad-a154-638c2536703d"},"vehicle_type_id":"4","last_reported":1741151410,"current_range_meters":24000,"station_id":"ce4bgvp2rcd13ifvqcu0","pricing_plan_id":"cebpf4jnsgd1na2vs0mg"},{"bike_id":"ba20e4d3-ce34-419a-9a54-3d89a92fed9b","system_id":"levelo_inurba_marseille","lat":43.30584,"lon":5.39337,"is_reserved":false,"is_disabled":false,"rental_uris":{"android":"levelo://app?vid=ba20e4d3-ce34-419a-9a54-3d89a92fed9b","ios":"levelo://app?vid=ba20e4d3-ce34-419a-9a54-3d89a92fed9b"},"vehicle_type_id":"4","last_reported":1741151410,"current_range_meters":24000,"station_id":"ce4bh0p2rcd13ifvqd80","pricing_plan_id":"cebpf4jnsgd1na2vs0mg"},{"bike_id":"cf647988-cfa0-42f6-9c89-8677695c7097","system_id":"levelo_inurba_marseille","lat":43.30647,"lon":5.40067,"is_reserved":false,"is_disabled":false,"rental_uris":{"android":"levelo://app?vid=cf647988-cfa0-42f6-9c89-8677695c7097","ios":"levelo://app?vid=cf647988-cfa0-42f6-9c89-8677695c7097"},"vehicle_type_id":"4","last_reported":1741151410,"current_range_meters":24000,"station_id":"ce4bh112rcd13ifvqda0","pricing_plan_id":"cebpf4jnsgd1na2vs0mg"},{"bike_id":"454059cc-10b5-4312-8a75-0d6a8a2548c3","system_id":"levelo_inurba_marseille","lat":43.28861,"lon":5.3931,"is_reserved":false,"is_disabled":false,"rental_uris":{"android":"levelo://app?vid=454059cc-10b5-4312-8a75-0d6a8a2548c3","ios":"levelo://app?vid=454059cc-10b5-4312-8a75-0d6a8a2548c3"},"vehicle_type_id":"4","last_reported":1741151410,"current_range_meters":24000,"station_id":"ce4bh2p2rcd13ifvqdi0","pricing_plan_id":"cebpf4jnsgd1na2vs0mg"},{"bike_id":"ce77d275-aedf-4483-b527-17039b77d2d4","system_id":"levelo_inurba_marseille","lat":43.28705,"lon":5.37943,"is_reserved":false,"is_disabled":false,"rental_uris":{"android":"levelo://app?vid=ce77d275-aedf-4483-b527-17039b77d2d4","ios":"levelo://app?vid=ce77d275-aedf-4483-b527-17039b77d2d4"},"vehicle_type_id":"4","last_reported":1741151410,"current_range_meters":24000,"station_id":"ce4bh9p2rcd13ifvqec0","pricing_plan_id":"cebpf4jnsgd1na2vs0mg"},{"bike_id":"4d573725-7e78-459a-942c-2ae7179149e0","system_id":"levelo_inurba_marseille","lat":43.284544,"lon":5.358844,"is_reserved":false,"is_disabled":false,"rental_uris":{"android":"levelo://app?vid=4d573725-7e78-459a-942c-2ae7179149e0","ios":"levelo://app?vid=4d573725-7e78-459a-942c-2ae7179149e0"},"vehicle_type_id":"4","last_reported":1741151410,"current_range_meters":24000,"station_id":"ce4bhah2rcd13ifvqei0","pricing_plan_id":"cebpf4jnsgd1na2vs0mg"},{"bike_id":"e78ecf7d-c6bd-428d-b569-5d741c41f22b","system_id":"levelo_inurba_marseille","lat":43.28413,"lon":5.349945,"is_reserved":false,"is_disabled":false,"rental_uris":{"android":"levelo://app?vid=e78ecf7d-c6bd-428d-b569-5d741c41f22b","ios":"levelo://app?vid=e78ecf7d-c6bd-428d-b569-5d741c41f22b"},"vehicle_type_id":"4","last_reported":1741151410,"current_range_meters":24000,"station_id":"ce4bhbh2rcd13ifvqepg","pricing_plan_id":"cebpf4jnsgd1na2vs0mg"},{"bike_id":"f3c57d9e-ae10-4d40-86ce-007530a245c2","system_id":"levelo_inurba_marseille","lat":43.28416,"lon":5.34995,"is_reserved":false,"is_disabled":false,"rental_uris":{"android":"levelo://app?vid=f3c57d9e-ae10-4d40-86ce-007530a245c2","ios":"levelo://app?vid=f3c57d9e-ae10-4d40-86ce-007530a245c2"},"vehicle_type_id":"4","last_reported":1741151410,"current_range_meters":24000,"station_id":"ce4bhbh2rcd13ifvqepg","pricing_plan_id":"cebpf4jnsgd1na2vs0mg"},{"bike_id":"10b74c6d-04bc-43c8-b892-4a1d3e03c2bd","system_id":"levelo_inurba_marseille","lat":43.23053,"lon":5.35513,"is_reserved":false,"is_disabled":false,"rental_uris":{"android":"levelo://app?vid=10b74c6d-04bc-43c8-b892-4a1d3e03c2bd","ios":"levelo://app?vid=10b74c6d-04bc-43c8-b892-4a1d3e03c2bd"},"vehicle_type_id":"4","last_reported":1741151410,"current_range_meters":24000,"station_id":"cpo3342slgdg3j2ifvpg","pricing_plan_id":"cebpf4jnsgd1na2vs0mg"},{"bike_id":"da5f59d9-2cb6-427c-9f4d-29dfa402b420","system_id":"levelo_inurba_marseille","lat":43.31042,"lon":5.38356,"is_reserved":false,"is_disabled":false,"rental_uris":{"android":"levelo://app?vid=da5f59d9-2cb6-427c-9f4d-29dfa402b420","ios":"levelo://app?vid=da5f59d9-2cb6-427c-9f4d-29dfa402b420"},"vehicle_type_id":"4","last_reported":1741151410,"current_range_meters":24400,"station_id":"ce4bgv92rcd13ifvqcr0","pricing_plan_id":"cebpf4jnsgd1na2vs0mg"},{"bike_id":"08b63e3a-3332-4e36-928a-1ef7a8e1dd11","system_id":"levelo_inurba_marseille","lat":43.29272,"lon":5.40126,"is_reserved":false,"is_disabled":false,"rental_uris":{"android":"levelo://app?vid=08b63e3a-3332-4e36-928a-1ef7a8e1dd11","ios":"levelo://app?vid=08b63e3a-3332-4e36-928a-1ef7a8e1dd11"},"vehicle_type_id":"4","last_reported":1741151410,"current_range_meters":24400,"station_id":"ce4bh312rcd13ifvqdk0","pricing_plan_id":"cebpf4jnsgd1na2vs0mg"},{"bike_id":"9de3f77b-2c05-4fd7-aea2-919f77fc727f","system_id":"levelo_inurba_marseille","lat":43.28466,"lon":5.3589,"is_reserved":false,"is_disabled":false,"rental_uris":{"android":"levelo://app?vid=9de3f77b-2c05-4fd7-aea2-919f77fc727f","ios":"levelo://app?vid=9de3f77b-2c05-4fd7-aea2-919f77fc727f"},"vehicle_type_id":"4","last_reported":1741151410,"current_range_meters":24400,"station_id":"ce4bhah2rcd13ifvqei0","pricing_plan_id":"cebpf4jnsgd1na2vs0mg"},{"bike_id":"e493157f-25ac-42f6-95e8-472f21657e64","system_id":"levelo_inurba_marseille","lat":43.28844,"lon":5.35872,"is_reserved":false,"is_disabled":false,"rental_uris":{"android":"levelo://app?vid=e493157f-25ac-42f6-95e8-472f21657e64","ios":"levelo://app?vid=e493157f-25ac-42f6-95e8-472f21657e64"},"vehicle_type_id":"4","last_reported":1741151410,"current_range_meters":24400,"station_id":"ce4bhb12rcd13ifvqem0","pricing_plan_id":"cebpf4jnsgd1na2vs0mg"},{"bike_id":"7a5f8822-bbf4-49c0-8323-764753bda849","system_id":"levelo_inurba_marseille","lat":43.28618,"lon":5.351007,"is_reserved":false,"is_disabled":false,"rental_uris":{"android":"levelo://app?vid=7a5f8822-bbf4-49c0-8323-764753bda849","ios":"levelo://app?vid=7a5f8822-bbf4-49c0-8323-764753bda849"},